{"last_updated":1727280742,"ttl":60,"version":"2.2","data":{"bikes":[{"bike_id":"e097fe7e-2d78-41fd-ba49-477cdb85fe6d","system_id":"levelo_inurba_marseille","lat":43.27059,"lon":5.40257,"is_reserved":false,"is_disabled":false,"rental_uris":{"android":"levelo://app?vid=e097fe7e-2d78-41fd-ba49-477cdb85fe6d","ios":"levelo://app?vid=e097fe7e-2d78-41fd-ba49-477cdb85fe6d"},"vehicle_type_id":"4","last_reported":1727280742,"current_range_meters":22800,"station_id":"ce4bhk92rcd13ifvqgc0","pricing_plan_id":"cebpf4jnsgd1na2vs0mg"},{"bike_id":"ca94523c-cc06-4ec7-a326-119a94534d30","system_id":"levelo_inurba_marseille","lat":43.32658,"lon":5.40983,"is_reserved":false,"is_disabled":false,"rental_uris":{"android":"levelo://app?vid=ca94523c-cc06-4ec7-a326-119a94534d30","ios":"levelo://app?vid=ca94523c-cc06-4ec7-a326-119a94534d30"},"vehicle_type_id":"4","last_reported":1727280742,"current_range_meters":38800,"station_id":"ce4bhpp2rcd13ifvqhgg","pricing_plan_id":"cebpf4jnsgd1na2vs0mg"},{"bike_id":"db421a34-6a1e-4ca9-aac3-562663605f1f","system_id":"levelo_inurba_marseille","lat":43.299011,"lon":5.389124,"is_reserved":false,"is_disabled":false,"rental_uris":{"android":"levelo://app?vid=db421a34-6a1e-4ca9-aac3-562663605f1f","ios":"levelo://app?vid=db421a34-6a1e-4ca9-aac3-562663605f1f"},"vehicle_type_id":"4","last_reported":1727280742,"current_range_meters":9600,"station_id":"chh1huq6cuj3fo74tm60","pricing_plan_id":"cebpf4jnsgd1na2vs0mg"},{"bike_id":"3c2945db-6c28-42c4-900b-5b9453deae7e","system_id":"levelo_inurba_marseille","lat":43.28154,"lon":5.42642,"is_reserved":false,"is_disabled":false,"rental_uris":{"android":"levelo://app?vid=3c2945db-6c28-42c4-900b-5b9453deae7e","ios":"levelo://app?vid=3c2945db-6c28-42c4-900b-5b9453deae7e"},"vehicle_type_id":"4","last_reported":1727280742,"current_range_meters":27200,"station_id":"ce4bhnh2rcd13ifvqgug","pricing_plan_id":"cebpf4jnsgd1na2vs0mg"},{"bike_id":"42a38fb8-549c-4925-bfd5-059df21d4756","system_id":"levelo_inurba_marseille","lat":43.33026,"lon":5.39037,"is_reserved":false,"is_disabled":false,"rental_uris":{"android":"levelo://app?vid=42a38fb8-549c-4925-bfd5-059df21d4756","ios":"levelo://app?vid=42a38fb8-549c-4925-bfd5-059df21d4756"},"vehicle_type_id":"4","last_reported":1727280742,"current_range_meters":8400,"station_id":"ce4bhr92rcd13ifvqhrg","pricing_plan_id":"cebpf4jnsgd1na2vs0mg"},{"bike_id":"5530a401-1b8d-42a2-b88d-f795c5bdcb0a","system_id":"levelo_inurba_marseille","lat":43.28444,"lon":5.39208,"is_reserved":false,"is_disabled":false,"rental_uris":{"android":"levelo://app?vid=5530a401-1b8d-42a2-b88d-f795c5bdcb0a","ios":"levelo://app?vid=5530a401-1b8d-42a2-b88d-f795c5bdcb0a"},"vehicle_type_id":"4","last_reported":1727280742,"current_range_meters":26800,"station_id":"ce4bhoh2rcd13ifvqh5g","pricing_plan_id":"cebpf4jnsgd1na2vs0mg"},{"bike_id":"2cedef2a-ea90-49d6-be2f-34ec87e095d1","system_id":"levelo_inurba_marseille","lat":43.29264,"lon":5.38434,"is_reserved":false,"is_disabled":false,"rental_uris":{"android":"levelo://app?vid=2cedef2a-ea90-49d6-be2f-34ec87e095d1","ios":"levelo://app?vid=2cedef2a-ea90-49d6-be2f-34ec87e095d1"},"vehicle_type_id":"4","last_reported":1727280742,"current_range_meters":31200,"station_id":"ce4bh692rcd13ifvqea0","pricing_plan_id":"cebpf4jnsgd1na2vs0mg"},{"bike_id":"841dca2e-39c3-4404-86c6-1d45d2683a36","system_id":"levelo_inurba_marseille","lat":43.29902,"lon":5.4367,"is_reserved":false,"is_disabled":false,"rental_uris":{"android":"levelo://app?vid=841dca2e-39c3-4404-86c6-1d45d2683a36","ios":"levelo://app?vid=841dca2e-39c3-4404-86c6-1d45d2683a36"},"vehicle_type_id":"4","last_reported":1727280742,"current_range_meters":10000,"station_id":"ce4bhpp2rcd13ifvqhfg","pricing_plan_id":"cebpf4jnsgd1na2vs0mg"},{"bike_id":"30e3af36-72bd-49dd-a195-f694c96d8dac","system_id":"levelo_inurba_marseille","lat":43.30414,"lon":5.39312,"is_reserved":false,"is_disabled":false,"rental_uris":{"android":"levelo://app?vid=30e3af36-72bd-49dd-a195-f694c96d8dac","ios":"levelo://app?vid=30e3af36-72bd-49dd-a195-f694c96d8dac"},"vehicle_type_id":"4","last_reported":1727280742,"current_range_meters":4400,"station_id":"ce4bgrp2rcd13ifvqc9g","pricing_plan_id":"cebpf4jnsgd1na2vs0mg"},{"bike_id":"cdaf11aa-7d32-460d-adf1-f8c28054b7f2","system_id":"levelo_inurba_marseille","lat":43.265048,"lon":5.395387,"is_reserved":false,"is_disabled":false,"rental_uris":{"android":"levelo://app?vid=cdaf11aa-7d32-460d-adf1-f8c28054b7f2","ios":"levelo://app?vid=cdaf11aa-7d32-460d-adf1-f8c28054b7f2"},"vehicle_type_id":"4","last_reported":1727280742,"current_range_meters":5600,"station_id":"ce4bhi12rcd13ifvqfq0","pricing_plan_id":"cebpf4jnsgd1na2vs0mg"},{"bike_id":"a5900370-aea9-4d3d-b2c7-1a3f27ac12db","system_id":"levelo_inurba_marseille","lat":43.28418,"lon":5.34988,"is_reserved":false,"is_disabled":false,"rental_uris":{"android":"levelo://app?vid=a5900370-aea9-4d3d-b2c7-1a3f27ac12db","ios":"levelo://app?vid=a5900370-aea9-4d3d-b2c7-1a3f27ac12db"},"vehicle_type_id":"4","last_reported":1727280742,"current_range_meters":30800,"station_id":"ce4bhbh2rcd13ifvqepg","pricing_plan_id":"cebpf4jnsgd1na2vs0mg"},{"bike_id":"7737b815-6daf-41f0-8354-4b28ba75917f","system_id":"levelo_inurba_marseille","lat":43.30188,"lon":5.39834,"is_reserved":false,"is_disabled":false,"rental_uris":{"android":"levelo://app?vid=7737b815-6daf-41f0-8354-4b28ba75917f","ios":"levelo://app?vid=7737b815-6daf-41f0-8354-4b28ba75917f"},"vehicle_type_id":"4","last_reported":1727280742,"current_range_meters":17200,"station_id":"ce4bgvp2rcd13ifvqct0","pricing_plan_id":"cebpf4jnsgd1na2vs0mg"},{"bike_id":"8a7be956-eece-4a5e-8dfa-3a6409ec3e54","system_id":"levelo_inurba_marseille","lat":43.29197,"lon":5.35802,"is_reserved":false,"is_disabled":false,"rental_uris":{"android":"levelo://app?vid=8a7be956-eece-4a5e-8dfa-3a6409ec3e54","ios":"levelo://app?vid=8a7be956-eece-4a5e-8dfa-3a6409ec3e54"},"vehicle_type_id":"4","last_reported":1727280742,"current_range_meters":7200,"station_id":"ce4bhb12rcd13ifvqel0","pricing_plan_id":"cebpf4jnsgd1na2vs0mg"},{"bike_id":"8a566eab-bd4f-429e-abc8-ce3ac6ea59a3","system_id":"levelo_inurba_marseille","lat":43.26028,"lon":5.37549,"is_reserved":false,"is_disabled":false,"rental_uris":{"android":"levelo://app?vid=8a566eab-bd4f-429e-abc8-ce3ac6ea59a3","ios":"levelo://app?vid=8a566eab-bd4f-429e-abc8-ce3ac6ea59a3"},"vehicle_type_id":"4","last_reported":1727280742,"current_range_meters":36000,"station_id":"ce4bhgh2rcd13ifvqfa0","pricing_plan_id":"cebpf4jnsgd1na2vs0mg"},{"bike_id":"6a2af1d3-1521-42be-92cd-e6f7a6b329db","system_id":"levelo_inurba_marseille","lat":43.29041,"lon":5.35906,"is_reserved":false,"is_disabled":false,"rental_uris":{"android":"levelo://app?vid=6a2af1d3-1521-42be-92cd-e6f7a6b329db","ios":"levelo://app?vid=6a2af1d3-1521-42be-92cd-e6f7a6b329db"},"vehicle_type_id":"4","last_reported":1727280742,"current_range_meters":11200,"station_id":"ce4bha92rcd13ifvqeg0","pricing_plan_id":"cebpf4jnsgd1na2vs0mg"},{"bike_id":"f57f9a2b-463a-495e-b929-b7d110fc5488","system_id":"levelo_inurba_marseille","lat":43.2984,"lon":5.36265,"is_reserved":false,"is_disabled":false,"rental_uris":{"android":"levelo://app?vid=f57f9a2b-463a-495e-b929-b7d110fc5488","ios":"levelo://app?vid=f57f9a2b-463a-495e-b929-b7d110fc5488"},"vehicle_type_id":"4","last_reported":1727280742,"current_range_meters":10800,"station_id":"ce4bgpp2rcd13ifvqc3g","pricing_plan_id":"cebpf4jnsgd1na2vs0mg"},{"bike_id":"d37a309c-2859-483a-9876-da2c0fcd7929","system_id":"levelo_inurba_marseille","lat":43.32544,"lon":5.41424,"is_reserved":false,"is_disabled":false,"rental_uris":{"android":"levelo://app?vid=d37a309c-2859-483a-9876-da2c0fcd7929","ios":"levelo://app?vid=d37a309c-2859-483a-9876-da2c0fcd7929"},"vehicle_type_id":"4","last_reported":1727280742,"current_range_meters":2800,"station_id":"ce4bhq12rcd13ifvqhhg","pricing_plan_id":"cebpf4jnsgd1na2vs0mg"},{"bike_id":"e9e079ca-42fb-48ba-a6e1-682b20d310ce","system_id":"levelo_inurba_marseille","lat":43.23201,"lon":5.35553,"is_reserved":false,"is_disabled":false,"rental_uris":{"android":"levelo://app?vid=e9e079ca-42fb-48ba-a6e1-682b20d310ce","ios":"levelo://app?vid=e9e079ca-42fb-48ba-a6e1-682b20d310ce"},"vehicle_type_id":"4","last_reported":1727280742,"current_range_meters":27200,"station_id":"ce4bhu92rcd13ifvqi70","pricing_plan_id":"cebpf4jnsgd1na2vs0mg"},{"bike_id":"7a8458d5-44ac-4f2e-abef-3f01eb31f7ca","system_id":"levelo_inurba_marseille","lat":43.337444,"lon":5.374475,"is_reserved":false,"is_disabled":false,"rental_uris":{"android":"levelo://app?vid=7a8458d5-44ac-4f2e-abef-3f01eb31f7ca","ios":"levelo://app?vid=7a8458d5-44ac-4f2e-abef-3f01eb31f7ca"},"vehicle_type_id":"4","last_reported":1727280742,"current_range_meters":24800,"station_id":"","pricing_plan_id":"cebpf4jnsgd1na2vs0mg"},{"bike_id":"ff97af99-c268-449e-b5a8-a0cfdca7fc3c","system_id":"levelo_inurba_marseille","lat":43.29023,"lon":5.38635,"is_reserved":false,"is_disabled":false,"rental_uris":{"android":"levelo://app?vid=ff97af99-c268-449e-b5a8-a0cfdca7fc3c","ios":"levelo://app?vid=ff97af99-c268-449e-b5a8-a0cfdca7fc3c"},"vehicle_type_id":"4","last_reported":1727280742,"current_range_meters":33600,"station_id":"ce4bh4p2rcd13ifvqe0g","pricing_plan_id":"cebpf4jnsgd1na2vs0mg"},{"bike_id":"8ccf330b-3ddf-4a68-bb7d-6f8f9941eca2","system_id":"levelo_inurba_marseille","lat":43.30085,"lon":5.40045,"is_reserved":false,"is_disabled":false,"rental_uris":{"android":"levelo://app?vid=8ccf330b-3ddf-4a68-bb7d-6f8f9941eca2","ios":"levelo://app?vid=8ccf330b-3ddf-4a68-bb7d-6f8f9941eca2"},"vehicle_type_id":"4","last_reported":1727280742,"current_range_meters":18000,"station_id":"","pricing_plan_id":"cebpf4jnsgd1na2vs0mg"},{"bike_id":"33611f90-ca85-445b-af92-8feb9bb0bf75","system_id":"levelo_inurba_marseille","lat":43.29196,"lon":5.35811,"is_reserved":false,"is_disabled":false,"rental_uris":{"android":"levelo://app?vid=33611f90-ca85-445b-af92-8feb9bb0bf75","ios":"levelo://app?vid=33611f90-ca85-445b-af92-8feb9bb0bf75"},"vehicle_type_id":"4","last_reported":1727280742,"current_range_meters":8800,"station_id":"ce4bhb12rcd13ifvqel0","pricing_plan_id":"cebpf4jnsgd1na2vs0mg"},{"bike_id":"971f85a3-84ca-4ecc-bfbe-a3586b92fd7d","system_id":"levelo_inurba_marseille","lat":43.2902,"lon":5.38616,"is_reserved":false,"is_disabled":false,"rental_uris":{"android":"levelo://app?vid=971f85a3-84ca-4ecc-bfbe-a3586b92fd7d","ios":"levelo://app?vid=971f85a3-84ca-4ecc-bfbe-a3586b92fd7d"},"vehicle_type_id":"4","last_reported":1727280742,"current_range_meters":38800,"station_id":"ce4bh4p2rcd13ifvqe0g","pricing_plan_id":"cebpf4jnsgd1na2vs0mg"},{"bike_id":"dd63e981-1be7-4c1c-bbbf-63292780e73b","system_id":"levelo_inurba_marseille","lat":43.28453,"lon":5.35886,"is_reserved":false,"is_disabled":false,"rental_uris":{"android":"levelo://app?vid=dd63e981-1be7-4c1c-bbbf-63292780e73b","ios":"levelo://app?vid=dd63e981-1be7-4c1c-bbbf-63292780e73b"},"vehicle_type_id":"4","last_reported":1727280742,"current_range_meters":4400,"station_id":"ce4bhah2rcd13ifvqei0","pricing_plan_id":"cebpf4jnsgd1na2vs0mg"},{"bike_id":"70f772fe-afb1-40fa-8362-37e8218dc96c","system_id":"levelo_inurba_marseille","lat":43.2781,"lon":5.4072,"is_reserved":false,"is_disabled":false,"rental_uris":{"android":"levelo://app?vid=70f772fe-afb1-40fa-8362-37e8218dc96c","ios":"levelo://app?vid=70f772fe-afb1-40fa-8362-37e8218dc96c"},"vehicle_type_id":"4","last_reported":1727280742,"current_range_meters":19200,"station_id":"ce4bhnh2rcd13ifvqgtg","pricing_plan_id":"cebpf4jnsgd1na2vs0mg"},{"bike_id":"b998c0a5-93ce-44ce-903d-34891b84b458","system_id":"levelo_inurba_marseille","lat":43.31529,"lon":5.38038,"is_reserved":false,"is_disabled":false,"rental_uris":{"android":"levelo://app?vid=b998c0a5-93ce-44ce-903d-34891b84b458","ios":"levelo://app?vid=b998c0a5-93ce-44ce-903d-34891b84b458"},"vehicle_type_id":"4","last_reported":1727280742,"current_range_meters":36000,"station_id":"ce4bhsp2rcd13ifvqi50","pricing_plan_id":"cebpf4jnsgd1na2vs0mg"},{"bike_id":"306150d9-8da4-4022-9abb-ff0af82ea038","system_id":"levelo_inurba_marseille","lat":43.29305,"lon":5.37176,"is_reserved":false,"is_disabled":false,"rental_uris":{"android":"levelo://app?vid=306150d9-8da4-4022-9abb-ff0af82ea038","ios":"levelo://app?vid=306150d9-8da4-4022-9abb-ff0af82ea038"},"vehicle_type_id":"4","last_reported":1727280742,"current_range_meters":38800,"station_id":"ce4bgh92rcd13ifvqb40","pricing_plan_id":"cebpf4jnsgd1na2vs0mg"},{"bike_id":"4c113923-aaa1-4dd4-b737-7c3de02f9b64","system_id":"levelo_inurba_marseille","lat":43.27909,"lon":5.38002,"is_reserved":false,"is_disabled":false,"rental_uris":{"android":"levelo://app?vid=4c113923-aaa1-4dd4-b737-7c3de02f9b64","ios":"levelo://app?vid=4c113923-aaa1-4dd4-b737-7c3de02f9b64"},"vehicle_type_id":"4","last_reported":1727280742,"current_range_meters":4400,"station_id":"ce4bhf92rcd13ifvqf50","pricing_plan_id":"cebpf4jnsgd1na2vs0mg"},{"bike_id":"e7a50f09-8ad5-4ed4-b791-8d1e3f692e43","system_id":"levelo_inurba_marseille","lat":43.29961,"lon":5.41319,"is_reserved":false,"is_disabled":false,"rental_uris":{"android":"levelo://app?vid=e7a50f09-8ad5-4ed4-b791-8d1e3f692e43","ios":"levelo://app?vid=e7a50f09-8ad5-4ed4-b791-8d1e3f692e43"},"vehicle_type_id":"4","last_reported":1727280742,"current_range_meters":32800,"station_id":"ce4bhp12rcd13ifvqh9g","pricing_plan_id":"cebpf4jnsgd1na2vs0mg"},{"bike_id":"d21be294-28c9-4c96-8a28-4ab842220e3b","system_id":"levelo_inurba_marseille","lat":43.2986,"lon":5.36264,"is_reserved":false,"is_disabled":false,"rental_uris":{"android":"levelo://app?vid=d21be294-28c9-4c96-8a28-4ab842220e3b","ios":"levelo://app?vid=d21be294-28c9-4c96-8a28-4ab842220e3b"},"vehicle_type_id":"4","last_reported":1727280742,"current_range_meters":18000,"station_id":"ce4bgpp2rcd13ifvqc3g","pricing_plan_id":"cebpf4jnsgd1na2vs0mg"},{"bike_id":"b07734cd-a2ff-41b9-a99e-bc41e56a7213","system_id":"levelo_inurba_marseille","lat":43.29438,"lon":5.39751,"is_reserved":false,"is_disabled":false,"rental_uris":{"android":"levelo://app?vid=b07734cd-a2ff-41b9-a99e-bc41e56a7213","ios":"levelo://app?vid=b07734cd-a2ff-41b9-a99e-bc41e56a7213"},"vehicle_type_id":"4","last_reported":1727280742,"current_range_meters":38800,"station_id":"ce4bh3h2rcd13ifvqdo0","pricing_plan_id":"cebpf4jnsgd1na2vs0mg"},{"bike_id":"dcdfe9cb-5449-4d25-9f2c-3721acabb444","system_id":"levelo_inurba_marseille","lat":43.30887,"lon":5.39652,"is_reserved":false,"is_disabled":false,"rental_uris":{"android":"levelo://app?vid=dcdfe9cb-5449-4d25-9f2c-3721acabb444","ios":"levelo://app?vid=dcdfe9cb-5449-4d25-9f2c-3721acabb444"},"vehicle_type_id":"4","last_reported":1727280742,"current_range_meters":19200,"station_id":"ce4bh012rcd13ifvqcv0","pricing_plan_id":"cebpf4jnsgd1na2vs0mg"},{"bike_id":"79a05bb1-ccec-47f0-8ebd-1f95854549f8","system_id":"levelo_inurba_marseille","lat":43.31285,"lon":5.38042,"is_reserved":false,"is_disabled":false,"rental_uris":{"android":"levelo://app?vid=79a05bb1-ccec-47f0-8ebd-1f95854549f8","ios":"levelo://app?vid=79a05bb1-ccec-47f0-8ebd-1f95854549f8"},"vehicle_type_id":"4","last_reported":1727280742,"current_range_meters":10000,"station_id":"","pricing_plan_id":"cebpf4jnsgd1na2vs0mg"},{"bike_id":"c8f9ce4c-b0a8-4f7f-a01c-8ebf2b760da3","system_id":"levelo_inurba_marseille","lat":43.29197,"lon":5.35792,"is_reserved":false,"is_disabled":false,"rental_uris":{"android":"levelo://app?vid=c8f9ce4c-b0a8-4f7f-a01c-8ebf2b760da3","ios":"levelo://app?vid=c8f9ce4c-b0a8-4f7f-a01c-8ebf2b760da3"},"vehicle_type_id":"4","last_reported":1727280742,"current_range_meters":38000,"station_id":"ce4bhb12rcd13ifvqel0","pricing_plan_id":"cebpf4jnsgd1na2vs0mg"},{"bike_id":"4e69d1dd-bd56-4730-8899-129728952984","system_id":"levelo_inurba_marseille","lat":43.27807,"lon":5.4072,"is_reserved":false,"is_disabled":false,"rental_uris":{"android":"levelo://app?vid=4e69d1dd-bd56-4730-8899-129728952984","ios":"levelo://app?vid=4e69d1dd-bd56-4730-8899-129728952984"},"vehicle_type_id":"4","last_reported":1727280742,"current_range_meters":27600,"station_id":"ce4bhnh2rcd13ifvqgtg","pricing_plan_id":"cebpf4jnsgd1na2vs0mg"},{"bike_id":"1ffd32e7-0f5d-48a0-a9c9-192ea689dae9","system_id":"levelo_inurba_marseille","lat":43.29927,"lon":5.36559,"is_reserved":false,"is_disabled":false,"rental_uris":{"android":"levelo://app?vid=1ffd32e7-0f5d-48a0-a9c9-192ea689dae9","ios":"levelo://app?vid=1ffd32e7-0f5d-48a0-a9c9-192ea689dae9"},"vehicle_type_id":"4","last_reported":1727280742,"current_range_meters":5600,"station_id":"ce4bgm92rcd13ifvqbr0","pricing_plan_id":"cebpf4jnsgd1na2vs0mg"},{"bike_id":"24343daa-1b78-4934-b760-b883a47ef43f","system_id":"levelo_inurba_marseille","lat":43.2293,"lon":5.35375,"is_reserved":false,"is_disabled":false,"rental_uris":{"android":"levelo://app?vid=24343daa-1b78-4934-b760-b883a47ef43f","ios":"levelo://app?vid=24343daa-1b78-4934-b760-b883a47ef43f"},"vehicle_type_id":"4","last_reported":1727280742,"current_range_meters":25600,"station_id":"cpo3532slgdg3j2ikp40","pricing_plan_id":"cebpf4jnsgd1na2vs0mg"},{"bike_id":"f97ba308-62f2-45e6-b928-755fc3107561","system_id":"levelo_inurba_marseille","lat":43.2318,"lon":5.39994,"is_reserved":false,"is_disabled":false,"rental_uris":{"android":"levelo://app?vid=f97ba308-62f2-45e6-b928-755fc3107561","ios":"levelo://app?vid=f97ba308-62f2-45e6-b928-755fc3107561"},"vehicle_type_id":"4","last_reported":1727280742,"current_range_meters":38800,"station_id":"ce4bhn12rcd13ifvqgqg","pricing_plan_id":"cebpf4jnsgd1na2vs0mg"},{"bike_id":"05e4db12-b9cd-45be-973c-6e413c08188d","system_id":"levelo_inurba_marseille","lat":43.27947,"lon":5.41061,"is_reserved":false,"is_disabled":false,"rental_uris":{"android":"levelo://app?vid=05e4db12-b9cd-45be-973c-6e413c08188d","ios":"levelo://app?vid=05e4db12-b9cd-45be-973c-6e413c08188d"},"vehicle_type_id":"4","last_reported":1727280742,"current_range_meters":17600,"station_id":"ce4bhnp2rcd13ifvqh0g","pricing_plan_id":"cebpf4jnsgd1na2vs0mg"},{"bike_id":"1fa925cd-4d9b-47b3-838f-9c5d1f681992","system_id":"levelo_inurba_marseille","lat":43.28617,"lon":5.35104,"is_reserved":false,"is_disabled":false,"rental_uris":{"android":"levelo://app?vid=1fa925cd-4d9b-47b3-838f-9c5d1f681992","ios":"levelo://app?vid=1fa925cd-4d9b-47b3-838f-9c5d1f681992"},"vehicle_type_id":"4","last_reported":1727280742,"current_range_meters":30800,"station_id":"ce4bhch2rcd13ifvqeug","pricing_plan_id":"cebpf4jnsgd1na2vs0mg"},{"bike_id":"48190da6-67b4-4bb0-ae13-8bd4ee5ba5dc","system_id":"levelo_inurba_marseille","lat":43.30245,"lon":5.40068,"is_reserved":false,"is_disabled":false,"rental_uris":{"android":"levelo://app?vid=48190da6-67b4-4bb0-ae13-8bd4ee5ba5dc","ios":"levelo://app?vid=48190da6-67b4-4bb0-ae13-8bd4ee5ba5dc"},"vehicle_type_id":"4","last_reported":1727280742,"current_range_meters":38800,"station_id":"ce4bgvh2rcd13ifvqcs0","pricing_plan_id":"cebpf4jnsgd1na2vs0mg"},{"bike_id":"bbd31db5-c137-4320-95f9-7cb19235dc07","system_id":"levelo_inurba_marseille","lat":43.30797,"lon":5.43514,"is_reserved":false,"is_disabled":false,"rental_uris":{"android":"levelo://app?vid=bbd31db5-c137-4320-95f9-7cb19235dc07","ios":"levelo://app?vid=bbd31db5-c137-4320-95f9-7cb19235dc07"},"vehicle_type_id":"4","last_reported":1727280742,"current_range_meters":38800,"station_id":"ce4bhph2rcd13ifvqheg","pricing_plan_id":"cebpf4jnsgd1na2vs0mg"},{"bike_id":"07936218-b951-4340-910f-6dbc6645a8a1","system_id":"levelo_inurba_marseille","lat":43.31671,"lon":5.40516,"is_reserved":false,"is_disabled":false,"rental_uris":{"android":"levelo://app?vid=07936218-b951-4340-910f-6dbc6645a8a1","ios":"levelo://app?vid=07936218-b951-4340-910f-6dbc6645a8a1"},"vehicle_type_id":"4","last_reported":1727280742,"current_range_meters":38800,"station_id":"ce4bh012rcd13ifvqd00","pricing_plan_id":"cebpf4jnsgd1na2vs0mg"},{"bike_id":"901368f5-ce1e-4521-bcfa-09fe277d40e2","system_id":"levelo_inurba_marseille","lat":43.28429,"lon":5.34988,"is_reserved":false,"is_disabled":false,"rental_uris":{"android":"levelo://app?vid=901368f5-ce1e-4521-bcfa-09fe277d40e2","ios":"levelo://app?vid=901368f5-ce1e-4521-bcfa-09fe277d40e2"},"vehicle_type_id":"4","last_reported":1727280742,"current_range_meters":21600,"station_id":"ce4bhbh2rcd13ifvqepg","pricing_plan_id":"cebpf4jnsgd1na2vs0mg"},{"bike_id":"7308ee73-d401-4cd9-99de-1fa0dc62eb00","system_id":"levelo_inurba_marseille","lat":43.27627,"lon":5.36103,"is_reserved":false,"is_disabled":false,"rental_uris":{"android":"levelo://app?vid=7308ee73-d401-4cd9-99de-1fa0dc62eb00","ios":"levelo://app?vid=7308ee73-d401-4cd9-99de-1fa0dc62eb00"},"vehicle_type_id":"4","last_reported":1727280742,"current_range_meters":27200,"station_id":"ce4bgj92rcd13ifvqbe0","pricing_plan_id":"cebpf4jnsgd1na2vs0mg"},{"bike_id":"dcfc82f1-2c63-401d-8e21-66264826de07","system_id":"levelo_inurba_marseille","lat":43.2558,"lon":5.38226,"is_reserved":false,"is_disabled":false,"rental_uris":{"android":"levelo://app?vid=dcfc82f1-2c63-401d-8e21-66264826de07","ios":"levelo://app?vid=dcfc82f1-2c63-401d-8e21-66264826de07"},"vehicle_type_id":"4","last_reported":1727280742,"current_range_meters":4800,"station_id":"ce4bhih2rcd13ifvqfs0","pricing_plan_id":"cebpf4jnsgd1na2vs0mg"},{"bike_id":"34896925-45a0-4b32-8926-5835337af0d9","system_id":"levelo_inurba_marseille","lat":43.30412,"lon":5.41284,"is_reserved":false,"is_disabled":false,"rental_uris":{"android":"levelo://app?vid=34896925-45a0-4b32-8926-5835337af0d9","ios":"levelo://app?vid=34896925-45a0-4b32-8926-5835337af0d9"},"vehicle_type_id":"4","last_reported":1727280742,"current_range_meters":10000,"station_id":"ce4bhop2rcd13ifvqh8g","pricing_plan_id":"cebpf4jnsgd1na2vs0mg"},{"bike_id":"adf2a072-3d18-405a-bff0-d205530aae56","system_id":"levelo_inurba_marseille","lat":43.308102,"lon":5.370644,"is_reserved":false,"is_disabled":false,"rental_uris":{"android":"levelo://app?vid=adf2a072-3d18-405a-bff0-d205530aae56","ios":"levelo://app?vid=adf2a072-3d18-405a-bff0-d205530aae56"},"vehicle_type_id":"4","last_reported":1727280742,"current_range_meters":4400,"station_id":"ce4bgkp2rcd13ifvqbmg","pricing_plan_id":"cebpf4jnsgd1na2vs0mg"},{"bike_id":"7f66ea78-04e1-404a-9812-9bf088ece948","system_id":"levelo_inurba_marseille","lat":43.32343,"lon":5.40623,"is_reserved":false,"is_disabled":false,"rental_uris":{"android":"levelo://app?vid=7f66ea78-04e1-404a-9812-9bf088ece948","ios":"levelo://app?vid=7f66ea78-04e1-404a-9812-9bf088ece948"},"vehicle_type_id":"4","last_reported":1727280742,"current_range_meters":38800,"station_id":"ce4bhq92rcd13ifvqhjg","pricing_plan_id":"cebpf4jnsgd1na2vs0mg"},{"bike_id":"125916ac-695a-4c80-aee1-4afd0c50491f","system_id":"levelo_inurba_marseille","lat":43.29021,"lon":5.38131,"is_reserved":false,"is_disabled":false,"rental_uris":{"android":"levelo://app?vid=125916ac-695a-4c80-aee1-4afd0c50491f","ios":"levelo://app?vid=125916ac-695a-4c80-aee1-4afd0c50491f"},"vehicle_type_id":"4","last_reported":1727280742,"current_range_meters":9600,"station_id":"ce4bh4p2rcd13ifvqe1g","pricing_plan_id":"cebpf4jnsgd1na2vs0mg"},{"bike_id":"d186ee76-93df-4079-89e4-5a6d25c13054","system_id":"levelo_inurba_marseille","lat":43.29422,"lon":5.38618,"is_reserved":false,"is_disabled":false,"rental_uris":{"android":"levelo://app?vid=d186ee76-93df-4079-89e4-5a6d25c13054","ios":"levelo://app?vid=d186ee76-93df-4079-89e4-5a6d25c13054"},"vehicle_type_id":"4","last_reported":1727280742,"current_range_meters":14800,"station_id":"ce4bh2h2rcd13ifvqdh0","pricing_plan_id":"cebpf4jnsgd1na2vs0mg"},{"bike_id":"ce13e191-c4df-4ee8-86a1-3492f2f5c0e9","system_id":"levelo_inurba_marseille","lat":43.29574,"lon":5.39971,"is_reserved":false,"is_disabled":false,"rental_uris":{"android":"levelo://app?vid=ce13e191-c4df-4ee8-86a1-3492f2f5c0e9","ios":"levelo://app?vid=ce13e191-c4df-4ee8-86a1-3492f2f5c0e9"},"vehicle_type_id":"4","last_reported":1727280742,"current_range_meters":33600,"station_id":"ce4bh312rcd13ifvqdj0","pricing_plan_id":"cebpf4jnsgd1na2vs0mg"},{"bike_id":"84e4b2e8-0a94-4b05-a803-617625943bf2","system_id":"levelo_inurba_marseille","lat":43.28941,"lon":5.39635,"is_reserved":false,"is_disabled":false,"rental_uris":{"android":"levelo://app?vid=84e4b2e8-0a94-4b05-a803-617625943bf2","ios":"levelo://app?vid=84e4b2e8-0a94-4b05-a803-617625943bf2"},"vehicle_type_id":"4","last_reported":1727280742,"current_range_meters":32000,"station_id":"ce4bh3h2rcd13ifvqdn0","pricing_plan_id":"cebpf4jnsgd1na2vs0mg"},{"bike_id":"d877666c-033e-4507-b93e-a46b0fb2e8a6","system_id":"levelo_inurba_marseille","lat":43.30887,"lon":5.39656,"is_reserved":false,"is_disabled":false,"rental_uris":{"android":"levelo://app?vid=d877666c-033e-4507-b93e-a46b0fb2e8a6","ios":"levelo://app?vid=d877666c-033e-4507-b93e-a46b0fb2e8a6"},"vehicle_type_id":"4","last_reported":1727280742,"current_range_meters":7200,"station_id":"ce4bh012rcd13ifvqcv0","pricing_plan_id":"cebpf4jnsgd1na2vs0mg"},{"bike_id":"a75d11e4-5000-41f8-9ff2-fbd2a76366d5","system_id":"levelo_inurba_marseille","lat":43.33958,"lon":5.42065,"is_reserved":false,"is_disabled":false,"rental_uris":{"android":"levelo://app?vid=a75d11e4-5000-41f8-9ff2-fbd2a76366d5","ios":"levelo://app?vid=a75d11e4-5000-41f8-9ff2-fbd2a76366d5"},"vehicle_type_id":"4","last_reported":1727280742,"current_range_meters":20400,"station_id":"","pricing_plan_id":"cebpf4jnsgd1na2vs0mg"},{"bike_id":"d43f4d3c-72f3-448f-a9d3-da3905337980","system_id":"levelo_inurba_marseille","lat":43.29888,"lon":5.38906,"is_reserved":false,"is_disabled":false,"rental_uris":{"android":"levelo://app?vid=d43f4d3c-72f3-448f-a9d3-da3905337980","ios":"levelo://app?vid=d43f4d3c-72f3-448f-a9d3-da3905337980"},"vehicle_type_id":"4","last_reported":1727280742,"current_range_meters":12800,"station_id":"ce4bh392rcd13ifvqdl0","pricing_plan_id":"cebpf4jnsgd1na2vs0mg"},{"bike_id":"1c75d750-a3dc-4d09-877c-b86e23251e9e","system_id":"levelo_inurba_marseille","lat":43.29633,"lon":5.40592,"is_reserved":false,"is_disabled":false,"rental_uris":{"android":"levelo://app?vid=1c75d750-a3dc-4d09-877c-b86e23251e9e","ios":"levelo://app?vid=1c75d750-a3dc-4d09-877c-b86e23251e9e"},"vehicle_type_id":"4","last_reported":1727280742,"current_range_meters":20400,"station_id":"ce4bh0h2rcd13ifvqd60","pricing_plan_id":"cebpf4jnsgd1na2vs0mg"},{"bike_id":"5b987909-fb7c-46ae-8c35-c0f1f91eb9d2","system_id":"levelo_inurba_marseille","lat":43.27992,"lon":5.41659,"is_reserved":false,"is_disabled":false,"rental_uris":{"android":"levelo://app?vid=5b987909-fb7c-46ae-8c35-c0f1f91eb9d2","ios":"levelo://app?vid=5b987909-fb7c-46ae-8c35-c0f1f91eb9d2"},"vehicle_type_id":"4","last_reported":1727280742,"current_range_meters":38400,"station_id":"ce4bho12rcd13ifvqh1g","pricing_plan_id":"cebpf4jnsgd1na2vs0mg"},{"bike_id":"dfe4a52b-9562-452c-a018-cc73e7c0f06e","system_id":"levelo_inurba_marseille","lat":43.28274,"lon":5.35067,"is_reserved":false,"is_disabled":false,"rental_uris":{"android":"levelo://app?vid=dfe4a52b-9562-452c-a018-cc73e7c0f06e","ios":"levelo://app?vid=dfe4a52b-9562-452c-a018-cc73e7c0f06e"},"vehicle_type_id":"4","last_reported":1727280742,"current_range_meters":38800,"station_id":"ce4bhbp2rcd13ifvqerg","pricing_plan_id":"cebpf4jnsgd1na2vs0mg"},{"bike_id":"e760ee50-99e4-4c8a-ba70-98c01ad762a9","system_id":"levelo_inurba_marseille","lat":43.24178,"lon":5.39737,"is_reserved":false,"is_disabled":false,"rental_uris":{"android":"levelo://app?vid=e760ee50-99e4-4c8a-ba70-98c01ad762a9","ios":"levelo://app?vid=e760ee50-99e4-4c8a-ba70-98c01ad762a9"},"vehicle_type_id":"4","last_reported":1727280742,"current_range_meters":27200,"station_id":"ce4bhn12rcd13ifvqgpg","pricing_plan_id":"cebpf4jnsgd1na2vs0mg"},{"bike_id":"777c5e54-153d-48da-a5a1-51fef07417ac","system_id":"levelo_inurba_marseille","lat":43.28616,"lon":5.35104,"is_reserved":false,"is_disabled":false,"rental_uris":{"android":"levelo://app?vid=777c5e54-153d-48da-a5a1-51fef07417ac","ios":"levelo://app?vid=777c5e54-153d-48da-a5a1-51fef07417ac"},"vehicle_type_id":"4","last_reported":1727280742,"current_range_meters":3200,"station_id":"ce4bhch2rcd13ifvqeug","pricing_plan_id":"cebpf4jnsgd1na2vs0mg"},{"bike_id":"ee80e71b-ad4a-4c17-a839-9aaef681f2ad","system_id":"levelo_inurba_marseille","lat":43.31757,"lon":5.39014,"is_reserved":false,"is_disabled":false,"rental_uris":{"android":"levelo://app?vid=ee80e71b-ad4a-4c17-a839-9aaef681f2ad","ios":"levelo://app?vid=ee80e71b-ad4a-4c17-a839-9aaef681f2ad"},"vehicle_type_id":"4","last_reported":1727280742,"current_range_meters":20400,"station_id":"ce4bhqp2rcd13ifvqhng","pricing_plan_id":"cebpf4jnsgd1na2vs0mg"},{"bike_id":"6a930a0d-c4e9-49e6-89ca-45ede7b2964a","system_id":"levelo_inurba_marseille","lat":43.29415,"lon":5.38617,"is_reserved":false,"is_disabled":false,"rental_uris":{"android":"levelo://app?vid=6a930a0d-c4e9-49e6-89ca-45ede7b2964a","ios":"levelo://app?vid=6a930a0d-c4e9-49e6-89ca-45ede7b2964a"},"vehicle_type_id":"4","last_reported":1727280742,"current_range_meters":23200,"station_id":"ce4bh2h2rcd13ifvqdh0","pricing_plan_id":"cebpf4jnsgd1na2vs0mg"},{"bike_id":"77df6e41-8c0e-4ffb-8d56-cd8181b853fb","system_id":"levelo_inurba_marseille","lat":43.28614,"lon":5.35099,"is_reserved":false,"is_disabled":false,"rental_uris":{"android":"levelo://app?vid=77df6e41-8c0e-4ffb-8d56-cd8181b853fb","ios":"levelo://app?vid=77df6e41-8c0e-4ffb-8d56-cd8181b853fb"},"vehicle_type_id":"4","last_reported":1727280742,"current_range_meters":14800,"station_id":"ce4bhch2rcd13ifvqeug","pricing_plan_id":"cebpf4jnsgd1na2vs0mg"},{"bike_id":"39eb1270-57ec-478b-99d4-63d3fbd47ecf","system_id":"levelo_inurba_marseille","lat":43.29444,"lon":5.39747,"is_reserved":false,"is_disabled":false,"rental_uris":{"android":"levelo://app?vid=39eb1270-57ec-478b-99d4-63d3fbd47ecf","ios":"levelo://app?vid=39eb1270-57ec-478b-99d4-63d3fbd47ecf"},"vehicle_type_id":"4","last_reported":1727280742,"current_range_meters":27600,"station_id":"ce4bh3h2rcd13ifvqdo0","pricing_plan_id":"cebpf4jnsgd1na2vs0mg"},{"bike_id":"b7a06046-9995-4e57-94bb-e1c133957b47","system_id":"levelo_inurba_marseille","lat":43.33725,"lon":5.39198,"is_reserved":false,"is_disabled":false,"rental_uris":{"android":"levelo://app?vid=b7a06046-9995-4e57-94bb-e1c133957b47","ios":"levelo://app?vid=b7a06046-9995-4e57-94bb-e1c133957b47"},"vehicle_type_id":"4","last_reported":1727280742,"current_range_meters":7200,"station_id":"ce4bhr92rcd13ifvqhsg","pricing_plan_id":"cebpf4jnsgd1na2vs0mg"},{"bike_id":"c9f596d8-57b3-4fcf-b5a5-62426cbf01c6","system_id":"levelo_inurba_marseille","lat":43.32512,"lon":5.41438,"is_reserved":false,"is_disabled":false,"rental_uris":{"android":"levelo://app?vid=c9f596d8-57b3-4fcf-b5a5-62426cbf01c6","ios":"levelo://app?vid=c9f596d8-57b3-4fcf-b5a5-62426cbf01c6"},"vehicle_type_id":"4","last_reported":1727280742,"current_range_meters":30800,"station_id":"ce4bhq12rcd13ifvqhhg","pricing_plan_id":"cebpf4jnsgd1na2vs0mg"},{"bike_id":"2d8495b3-6e56-448e-b3e4-d8139320f4e7","system_id":"levelo_inurba_marseille","lat":43.28729,"lon":5.36088,"is_reserved":false,"is_disabled":false,"rental_uris":{"android":"levelo://app?vid=2d8495b3-6e56-448e-b3e4-d8139320f4e7","ios":"levelo://app?vid=2d8495b3-6e56-448e-b3e4-d8139320f4e7"},"vehicle_type_id":"4","last_reported":1727280742,"current_range_meters":16400,"station_id":"cki0cbj6b192h4jlfktg","pricing_plan_id":"cebpf4jnsgd1na2vs0mg"},{"bike_id":"da98e33d-72a1-4f68-a476-a83a07f5592d","system_id":"levelo_inurba_marseille","lat":43.27172,"lon":5.40994,"is_reserved":false,"is_disabled":false,"rental_uris":{"android":"levelo://app?vid=da98e33d-72a1-4f68-a476-a83a07f5592d","ios":"levelo://app?vid=da98e33d-72a1-4f68-a476-a83a07f5592d"},"vehicle_type_id":"4","last_reported":1727280742,"current_range_meters":16000,"station_id":"ce4bhl12rcd13ifvqgf0","pricing_plan_id":"cebpf4jnsgd1na2vs0mg"},{"bike_id":"1bf9341a-fb81-489e-8c9d-e5a5387a9d3f","system_id":"levelo_inurba_marseille","lat":43.24808,"lon":5.37457,"is_reserved":false,"is_disabled":false,"rental_uris":{"android":"levelo://app?vid=1bf9341a-fb81-489e-8c9d-e5a5387a9d3f","ios":"levelo://app?vid=1bf9341a-fb81-489e-8c9d-e5a5387a9d3f"},"vehicle_type_id":"4","last_reported":1727280742,"current_range_meters":10000,"station_id":"ce4bhgh2rcd13ifvqfb0","pricing_plan_id":"cebpf4jnsgd1na2vs0mg"},{"bike_id":"b70a5330-fdcb-4597-b900-c2c7239c40d9","system_id":"levelo_inurba_marseille","lat":43.25117,"lon":5.4032,"is_reserved":false,"is_disabled":false,"rental_uris":{"android":"levelo://app?vid=b70a5330-fdcb-4597-b900-c2c7239c40d9","ios":"levelo://app?vid=b70a5330-fdcb-4597-b900-c2c7239c40d9"},"vehicle_type_id":"4","last_reported":1727280742,"current_range_meters":3200,"station_id":"ce4bhlh2rcd13ifvqgig","pricing_plan_id":"cebpf4jnsgd1na2vs0mg"},{"bike_id":"dbeb79ca-6c95-4796-ac85-43a4d261149f","system_id":"levelo_inurba_marseille","lat":43.32344,"lon":5.40607,"is_reserved":false,"is_disabled":false,"rental_uris":{"android":"levelo://app?vid=dbeb79ca-6c95-4796-ac85-43a4d261149f","ios":"levelo://app?vid=dbeb79ca-6c95-4796-ac85-43a4d261149f"},"vehicle_type_id":"4","last_reported":1727280742,"current_range_meters":38800,"station_id":"ce4bhq92rcd13ifvqhjg","pricing_plan_id":"cebpf4jnsgd1na2vs0mg"},{"bike_id":"54f89835-705e-4998-bfd5-e882817fb461","system_id":"levelo_inurba_marseille","lat":43.32476,"lon":5.36555,"is_reserved":false,"is_disabled":false,"rental_uris":{"android":"levelo://app?vid=54f89835-705e-4998-bfd5-e882817fb461","ios":"levelo://app?vid=54f89835-705e-4998-bfd5-e882817fb461"},"vehicle_type_id":"4","last_reported":1727280742,"current_range_meters":10800,"station_id":"ce4bhs12rcd13ifvqhvg","pricing_plan_id":"cebpf4jnsgd1na2vs0mg"},{"bike_id":"df5b38d2-64cb-4df0-856f-ea9bd22c082c","system_id":"levelo_inurba_marseille","lat":43.23185,"lon":5.35561,"is_reserved":false,"is_disabled":false,"rental_uris":{"android":"levelo://app?vid=df5b38d2-64cb-4df0-856f-ea9bd22c082c","ios":"levelo://app?vid=df5b38d2-64cb-4df0-856f-ea9bd22c082c"},"vehicle_type_id":"4","last_reported":1727280742,"current_range_meters":6800,"station_id":"ce4bhu92rcd13ifvqi70","pricing_plan_id":"cebpf4jnsgd1na2vs0mg"},{"bike_id":"ac799881-f7d4-4940-ba77-52682a433f41","system_id":"levelo_inurba_marseille","lat":43.28865,"lon":5.35862,"is_reserved":false,"is_disabled":false,"rental_uris":{"android":"levelo://app?vid=ac799881-f7d4-4940-ba77-52682a433f41","ios":"levelo://app?vid=ac799881-f7d4-4940-ba77-52682a433f41"},"vehicle_type_id":"4","last_reported":1727280742,"current_range_meters":16400,"station_id":"ce4bhb12rcd13ifvqem0","pricing_plan_id":"cebpf4jnsgd1na2vs0mg"},{"bike_id":"cd8a0935-54c7-46cb-ba54-928107893111","system_id":"levelo_inurba_marseille","lat":43.30525,"lon":5.3655,"is_reserved":false,"is_disabled":false,"rental_uris":{"android":"levelo://app?vid=cd8a0935-54c7-46cb-ba54-928107893111","ios":"levelo://app?vid=cd8a0935-54c7-46cb-ba54-928107893111"},"vehicle_type_id":"4","last_reported":1727280742,"current_range_meters":38800,"station_id":"ce4bgs12rcd13ifvqcag","pricing_plan_id":"cebpf4jnsgd1na2vs0mg"},{"bike_id":"fd0b0e49-3fc4-4cdf-8c87-e53fc98040aa","system_id":"levelo_inurba_marseille","lat":43.29954,"lon":5.41323,"is_reserved":false,"is_disabled":false,"rental_uris":{"android":"levelo://app?vid=fd0b0e49-3fc4-4cdf-8c87-e53fc98040aa","ios":"levelo://app?vid=fd0b0e49-3fc4-4cdf-8c87-e53fc98040aa"},"vehicle_type_id":"4","last_reported":1727280742,"current_range_meters":18800,"station_id":"ce4bhp12rcd13ifvqh9g","pricing_plan_id":"cebpf4jnsgd1na2vs0mg"},{"bike_id":"e2acc69c-c43d-4f73-9595-ab328b4dd911","system_id":"levelo_inurba_marseille","lat":43.30412,"lon":5.41297,"is_reserved":false,"is_disabled":false,"rental_uris":{"android":"levelo://app?vid=e2acc69c-c43d-4f73-9595-ab328b4dd911","ios":"levelo://app?vid=e2acc69c-c43d-4f73-9595-ab328b4dd911"},"vehicle_type_id":"4","last_reported":1727280742,"current_range_meters":32800,"station_id":"ce4bhop2rcd13ifvqh8g","pricing_plan_id":"cebpf4jnsgd1na2vs0mg"},{"bike_id":"27431c98-bcee-4fbc-9005-ef4fd6a106b8","system_id":"levelo_inurba_marseille","lat":43.23183,"lon":5.39981,"is_reserved":false,"is_disabled":false,"rental_uris":{"android":"levelo://app?vid=27431c98-bcee-4fbc-9005-ef4fd6a106b8","ios":"levelo://app?vid=27431c98-bcee-4fbc-9005-ef4fd6a106b8"},"vehicle_type_id":"4","last_reported":1727280742,"current_range_meters":10000,"station_id":"ce4bhn12rcd13ifvqgqg","pricing_plan_id":"cebpf4jnsgd1na2vs0mg"},{"bike_id":"da9943f0-f6ca-4b20-a0da-7bd52a5548e8","system_id":"levelo_inurba_marseille","lat":43.27377,"lon":5.36261,"is_reserved":false,"is_disabled":false,"rental_uris":{"android":"levelo://app?vid=da9943f0-f6ca-4b20-a0da-7bd52a5548e8","ios":"levelo://app?vid=da9943f0-f6ca-4b20-a0da-7bd52a5548e8"},"vehicle_type_id":"4","last_reported":1727280742,"current_range_meters":16800,"station_id":"ce4bhbh2rcd13ifvqeo0","pricing_plan_id":"cebpf4jnsgd1na2vs0mg"},{"bike_id":"65488b98-6ff6-4e19-afd7-fe35d0299872","system_id":"levelo_inurba_marseille","lat":43.3009,"lon":5.39068,"is_reserved":false,"is_disabled":false,"rental_uris":{"android":"levelo://app?vid=65488b98-6ff6-4e19-afd7-fe35d0299872","ios":"levelo://app?vid=65488b98-6ff6-4e19-afd7-fe35d0299872"},"vehicle_type_id":"4","last_reported":1727280742,"current_range_meters":36000,"station_id":"ce4bh192rcd13ifvqdb0","pricing_plan_id":"cebpf4jnsgd1na2vs0mg"},{"bike_id":"1c60c4e9-f4a0-418f-ba72-3a3909843560","system_id":"levelo_inurba_marseille","lat":43.32012,"lon":5.38164,"is_reserved":false,"is_disabled":false,"rental_uris":{"android":"levelo://app?vid=1c60c4e9-f4a0-418f-ba72-3a3909843560","ios":"levelo://app?vid=1c60c4e9-f4a0-418f-ba72-3a3909843560"},"vehicle_type_id":"4","last_reported":1727280742,"current_range_meters":25600,"station_id":"ce4bhr12rcd13ifvqhpg","pricing_plan_id":"cebpf4jnsgd1na2vs0mg"},{"bike_id":"1f658908-6ce5-4bb3-b6be-b1e46cd9a152","system_id":"levelo_inurba_marseille","lat":43.31085,"lon":5.42429,"is_reserved":false,"is_disabled":false,"rental_uris":{"android":"levelo://app?vid=1f658908-6ce5-4bb3-b6be-b1e46cd9a152","ios":"levelo://app?vid=1f658908-6ce5-4bb3-b6be-b1e46cd9a152"},"vehicle_type_id":"4","last_reported":1727280742,"current_range_meters":25200,"station_id":"ce4bhp92rcd13ifvqhag","pricing_plan_id":"cebpf4jnsgd1na2vs0mg"},{"bike_id":"113b6a4c-0070-4a9f-b64d-016299533596","system_id":"levelo_inurba_marseille","lat":43.28943,"lon":5.36401,"is_reserved":false,"is_disabled":false,"rental_uris":{"android":"levelo://app?vid=113b6a4c-0070-4a9f-b64d-016299533596","ios":"levelo://app?vid=113b6a4c-0070-4a9f-b64d-016299533596"},"vehicle_type_id":"4","last_reported":1727280742,"current_range_meters":8800,"station_id":"ce4bhc92rcd13ifvqetg","pricing_plan_id":"cebpf4jnsgd1na2vs0mg"},{"bike_id":"8e9b13f1-c0ce-43ea-84d1-4cf5f9fb8761","system_id":"levelo_inurba_marseille","lat":43.33026,"lon":5.39039,"is_reserved":false,"is_disabled":false,"rental_uris":{"android":"levelo://app?vid=8e9b13f1-c0ce-43ea-84d1-4cf5f9fb8761","ios":"levelo://app?vid=8e9b13f1-c0ce-43ea-84d1-4cf5f9fb8761"},"vehicle_type_id":"4","last_reported":1727280742,"current_range_meters":33200,"station_id":"ce4bhr92rcd13ifvqhrg","pricing_plan_id":"cebpf4jnsgd1na2vs0mg"},{"bike_id":"5f6c79fc-4a32-4034-b731-a210b1c8c48d","system_id":"levelo_inurba_marseille","lat":43.30472,"lon":5.36587,"is_reserved":false,"is_disabled":false,"rental_uris":{"android":"levelo://app?vid=5f6c79fc-4a32-4034-b731-a210b1c8c48d","ios":"levelo://app?vid=5f6c79fc-4a32-4034-b731-a210b1c8c48d"},"vehicle_type_id":"4","last_reported":1727280742,"current_range_meters":10800,"station_id":"","pricing_plan_id":"cebpf4jnsgd1na2vs0mg"},{"bike_id":"c7d674bf-dc45-425e-87f5-0b9c80d86cda","system_id":"levelo_inurba_marseille","lat":43.30429,"lon":5.38887,"is_reserved":false,"is_disabled":false,"rental_uris":{"android":"levelo://app?vid=c7d674bf-dc45-425e-87f5-0b9c80d86cda","ios":"levelo://app?vid=c7d674bf-dc45-425e-87f5-0b9c80d86cda"},"vehicle_type_id":"4","last_reported":1727280742,"current_range_meters":16800,"station_id":"ce4bgk12rcd13ifvqbi0","pricing_plan_id":"cebpf4jnsgd1na2vs0mg"},{"bike_id":"6384da77-0f8b-4a22-ac8e-7095f91b2491","system_id":"levelo_inurba_marseille","lat":43.28617,"lon":5.35103,"is_reserved":false,"is_disabled":false,"rental_uris":{"android":"levelo://app?vid=6384da77-0f8b-4a22-ac8e-7095f91b2491","ios":"levelo://app?vid=6384da77-0f8b-4a22-ac8e-7095f91b2491"},"vehicle_type_id":"4","last_reported":1727280742,"current_range_meters":20400,"station_id":"ce4bhch2rcd13ifvqeug","pricing_plan_id":"cebpf4jnsgd1na2vs0mg"},{"bike_id":"d94fb8ae-61c3-4b82-8e63-a7cbf2364194","system_id":"levelo_inurba_marseille","lat":43.28423,"lon":5.35,"is_reserved":false,"is_disabled":false,"rental_uris":{"android":"levelo://app?vid=d94fb8ae-61c3-4b82-8e63-a7cbf2364194","ios":"levelo://app?vid=d94fb8ae-61c3-4b82-8e63-a7cbf2364194"},"vehicle_type_id":"4","last_reported":1727280742,"current_range_meters":38800,"station_id":"ce4bhbh2rcd13ifvqepg","pricing_plan_id":"cebpf4jnsgd1na2vs0mg"},{"bike_id":"30f1f9d7-e806-40d9-892f-7d0da0f9210d","system_id":"levelo_inurba_marseille","lat":43.29971,"lon":5.38493,"is_reserved":false,"is_disabled":false,"rental_uris":{"android":"levelo://app?vid=30f1f9d7-e806-40d9-892f-7d0da0f9210d","ios":"levelo://app?vid=30f1f9d7-e806-40d9-892f-7d0da0f9210d"},"vehicle_type_id":"4","last_reported":1727280742,"current_range_meters":28000,"station_id":"ce4bgj92rcd13ifvqbd0","pricing_plan_id":"cebpf4jnsgd1na2vs0mg"},{"bike_id":"564dab4c-45b1-4108-bb24-c8ef1359448f","system_id":"levelo_inurba_marseille","lat":43.32483,"lon":5.36554,"is_reserved":false,"is_disabled":false,"rental_uris":{"android":"levelo://app?vid=564dab4c-45b1-4108-bb24-c8ef1359448f","ios":"levelo://app?vid=564dab4c-45b1-4108-bb24-c8ef1359448f"},"vehicle_type_id":"4","last_reported":1727280742,"current_range_meters":6800,"station_id":"ce4bhs12rcd13ifvqhvg","pricing_plan_id":"cebpf4jnsgd1na2vs0mg"},{"bike_id":"60c7f33b-65fe-428d-ad8d-5f226e5af9d9","system_id":"levelo_inurba_marseille","lat":43.27618,"lon":5.36118,"is_reserved":false,"is_disabled":false,"rental_uris":{"android":"levelo://app?vid=60c7f33b-65fe-428d-ad8d-5f226e5af9d9","ios":"levelo://app?vid=60c7f33b-65fe-428d-ad8d-5f226e5af9d9"},"vehicle_type_id":"4","last_reported":1727280742,"current_range_meters":27200,"station_id":"ce4bgj92rcd13ifvqbe0","pricing_plan_id":"cebpf4jnsgd1na2vs0mg"},{"bike_id":"1b80d7ee-5566-4abd-a0db-90b211f0db29","system_id":"levelo_inurba_marseille","lat":43.31753,"lon":5.39014,"is_reserved":false,"is_disabled":false,"rental_uris":{"android":"levelo://app?vid=1b80d7ee-5566-4abd-a0db-90b211f0db29","ios":"levelo://app?vid=1b80d7ee-5566-4abd-a0db-90b211f0db29"},"vehicle_type_id":"4","last_reported":1727280742,"current_range_meters":22800,"station_id":"ce4bhqp2rcd13ifvqhng","pricing_plan_id":"cebpf4jnsgd1na2vs0mg"},{"bike_id":"da38a479-b89b-4586-88ae-cea2aa4bcdcd","system_id":"levelo_inurba_marseille","lat":43.29937,"lon":5.36547,"is_reserved":false,"is_disabled":false,"rental_uris":{"android":"levelo://app?vid=da38a479-b89b-4586-88ae-cea2aa4bcdcd","ios":"levelo://app?vid=da38a479-b89b-4586-88ae-cea2aa4bcdcd"},"vehicle_type_id":"4","last_reported":1727280742,"current_range_meters":36800,"station_id":"ce4bgm92rcd13ifvqbr0","pricing_plan_id":"cebpf4jnsgd1na2vs0mg"},{"bike_id":"69c3a9d4-292e-4e84-97cd-df43a2fda9c6","system_id":"levelo_inurba_marseille","lat":43.30902,"lon":5.37193,"is_reserved":false,"is_disabled":false,"rental_uris":{"android":"levelo://app?vid=69c3a9d4-292e-4e84-97cd-df43a2fda9c6","ios":"levelo://app?vid=69c3a9d4-292e-4e84-97cd-df43a2fda9c6"},"vehicle_type_id":"4","last_reported":1727280742,"current_range_meters":38800,"station_id":"ce4bguh2rcd13ifvqckg","pricing_plan_id":"cebpf4jnsgd1na2vs0mg"},{"bike_id":"0522127b-735d-4f7f-8c00-7b5aa3bb2a6d","system_id":"levelo_inurba_marseille","lat":43.28481,"lon":5.3843,"is_reserved":false,"is_disabled":false,"rental_uris":{"android":"levelo://app?vid=0522127b-735d-4f7f-8c00-7b5aa3bb2a6d","ios":"levelo://app?vid=0522127b-735d-4f7f-8c00-7b5aa3bb2a6d"},"vehicle_type_id":"4","last_reported":1727280742,"current_range_meters":5600,"station_id":"ce4bh512rcd13ifvqe3g","pricing_plan_id":"cebpf4jnsgd1na2vs0mg"},{"bike_id":"149f9407-7525-46c3-9227-e9758fb004a4","system_id":"levelo_inurba_marseille","lat":43.298462,"lon":5.362824,"is_reserved":false,"is_disabled":false,"rental_uris":{"android":"levelo://app?vid=149f9407-7525-46c3-9227-e9758fb004a4","ios":"levelo://app?vid=149f9407-7525-46c3-9227-e9758fb004a4"},"vehicle_type_id":"4","last_reported":1727280742,"current_range_meters":39200,"station_id":"ce4bgkh2rcd13ifvqbl0","pricing_plan_id":"cebpf4jnsgd1na2vs0mg"},{"bike_id":"3c8a620e-0f95-44d9-96e5-5d31bd0cc19e","system_id":"levelo_inurba_marseille","lat":43.29796,"lon":5.38093,"is_reserved":false,"is_disabled":false,"rental_uris":{"android":"levelo://app?vid=3c8a620e-0f95-44d9-96e5-5d31bd0cc19e","ios":"levelo://app?vid=3c8a620e-0f95-44d9-96e5-5d31bd0cc19e"},"vehicle_type_id":"4","last_reported":1727280742,"current_range_meters":37600,"station_id":"ce4bgip2rcd13ifvqbb0","pricing_plan_id":"cebpf4jnsgd1na2vs0mg"},{"bike_id":"cdbe808e-c1e8-4878-afb4-da764273c6f0","system_id":"levelo_inurba_marseille","lat":43.28161,"lon":5.4264,"is_reserved":false,"is_disabled":false,"rental_uris":{"android":"levelo://app?vid=cdbe808e-c1e8-4878-afb4-da764273c6f0","ios":"levelo://app?vid=cdbe808e-c1e8-4878-afb4-da764273c6f0"},"vehicle_type_id":"4","last_reported":1727280742,"current_range_meters":11600,"station_id":"ce4bhnh2rcd13ifvqgug","pricing_plan_id":"cebpf4jnsgd1na2vs0mg"},{"bike_id":"69e336a5-3548-4ff2-8e8f-142a7f4c12ea","system_id":"levelo_inurba_marseille","lat":43.287132,"lon":5.400379,"is_reserved":false,"is_disabled":false,"rental_uris":{"android":"levelo://app?vid=69e336a5-3548-4ff2-8e8f-142a7f4c12ea","ios":"levelo://app?vid=69e336a5-3548-4ff2-8e8f-142a7f4c12ea"},"vehicle_type_id":"4","last_reported":1727280742,"current_range_meters":25600,"station_id":"ce4bho92rcd13ifvqh3g","pricing_plan_id":"cebpf4jnsgd1na2vs0mg"},{"bike_id":"74d0fcba-1c7a-4f26-ac7c-330b0875b104","system_id":"levelo_inurba_marseille","lat":43.29004,"lon":5.35611,"is_reserved":false,"is_disabled":false,"rental_uris":{"android":"levelo://app?vid=74d0fcba-1c7a-4f26-ac7c-330b0875b104","ios":"levelo://app?vid=74d0fcba-1c7a-4f26-ac7c-330b0875b104"},"vehicle_type_id":"4","last_reported":1727280742,"current_range_meters":37600,"station_id":"ce4bhb92rcd13ifvqen0","pricing_plan_id":"cebpf4jnsgd1na2vs0mg"},{"bike_id":"4621332a-4cb0-4bd1-84c3-ce1d48af2b8c","system_id":"levelo_inurba_marseille","lat":43.308043,"lon":5.435311,"is_reserved":false,"is_disabled":false,"rental_uris":{"android":"levelo://app?vid=4621332a-4cb0-4bd1-84c3-ce1d48af2b8c","ios":"levelo://app?vid=4621332a-4cb0-4bd1-84c3-ce1d48af2b8c"},"vehicle_type_id":"4","last_reported":1727280742,"current_range_meters":9600,"station_id":"ce4bhph2rcd13ifvqheg","pricing_plan_id":"cebpf4jnsgd1na2vs0mg"},{"bike_id":"61a9beba-a587-42ec-b83c-22d3a95a5c48","system_id":"levelo_inurba_marseille","lat":43.29082,"lon":5.38093,"is_reserved":false,"is_disabled":false,"rental_uris":{"android":"levelo://app?vid=61a9beba-a587-42ec-b83c-22d3a95a5c48","ios":"levelo://app?vid=61a9beba-a587-42ec-b83c-22d3a95a5c48"},"vehicle_type_id":"4","last_reported":1727280742,"current_range_meters":12000,"station_id":"ce4bh4p2rcd13ifvqe1g","pricing_plan_id":"cebpf4jnsgd1na2vs0mg"},{"bike_id":"07e6f9f8-d3b7-4476-9fe8-dbdf4285f9eb","system_id":"levelo_inurba_marseille","lat":43.26538,"lon":5.41954,"is_reserved":false,"is_disabled":false,"rental_uris":{"android":"levelo://app?vid=07e6f9f8-d3b7-4476-9fe8-dbdf4285f9eb","ios":"levelo://app?vid=07e6f9f8-d3b7-4476-9fe8-dbdf4285f9eb"},"vehicle_type_id":"4","last_reported":1727280742,"current_range_meters":22000,"station_id":"ce4bhnh2rcd13ifvqgug","pricing_plan_id":"cebpf4jnsgd1na2vs0mg"},{"bike_id":"dc473676-824d-41ad-aeb7-667c159f885c","system_id":"levelo_inurba_marseille","lat":43.23192,"lon":5.35547,"is_reserved":false,"is_disabled":false,"rental_uris":{"android":"levelo://app?vid=dc473676-824d-41ad-aeb7-667c159f885c","ios":"levelo://app?vid=dc473676-824d-41ad-aeb7-667c159f885c"},"vehicle_type_id":"4","last_reported":1727280742,"current_range_meters":27600,"station_id":"ce4bhu92rcd13ifvqi70","pricing_plan_id":"cebpf4jnsgd1na2vs0mg"},{"bike_id":"a7bca3df-0344-4204-86d7-b742d4769839","system_id":"levelo_inurba_marseille","lat":43.30863,"lon":5.3685,"is_reserved":false,"is_disabled":false,"rental_uris":{"android":"levelo://app?vid=a7bca3df-0344-4204-86d7-b742d4769839","ios":"levelo://app?vid=a7bca3df-0344-4204-86d7-b742d4769839"},"vehicle_type_id":"4","last_reported":1727280742,"current_range_meters":27200,"station_id":"ce4bgn92rcd13ifvqbvg","pricing_plan_id":"cebpf4jnsgd1na2vs0mg"},{"bike_id":"7cd9dcc5-08bf-4ffc-a2f5-abcd24717dd3","system_id":"levelo_inurba_marseille","lat":43.29267,"lon":5.3845,"is_reserved":false,"is_disabled":false,"rental_uris":{"android":"levelo://app?vid=7cd9dcc5-08bf-4ffc-a2f5-abcd24717dd3","ios":"levelo://app?vid=7cd9dcc5-08bf-4ffc-a2f5-abcd24717dd3"},"vehicle_type_id":"4","last_reported":1727280742,"current_range_meters":38800,"station_id":"ce4bh692rcd13ifvqea0","pricing_plan_id":"cebpf4jnsgd1na2vs0mg"},{"bike_id":"496b6e46-d60f-44d9-a42b-68d9499cf642","system_id":"levelo_inurba_marseille","lat":43.29584,"lon":5.36745,"is_reserved":false,"is_disabled":false,"rental_uris":{"android":"levelo://app?vid=496b6e46-d60f-44d9-a42b-68d9499cf642","ios":"levelo://app?vid=496b6e46-d60f-44d9-a42b-68d9499cf642"},"vehicle_type_id":"4","last_reported":1727280742,"current_range_meters":4000,"station_id":"ce4bgph2rcd13ifvqc2g","pricing_plan_id":"cebpf4jnsgd1na2vs0mg"},{"bike_id":"a84be226-2341-4aca-b30a-3fd76fd41638","system_id":"levelo_inurba_marseille","lat":43.2927,"lon":5.38435,"is_reserved":false,"is_disabled":false,"rental_uris":{"android":"levelo://app?vid=a84be226-2341-4aca-b30a-3fd76fd41638","ios":"levelo://app?vid=a84be226-2341-4aca-b30a-3fd76fd41638"},"vehicle_type_id":"4","last_reported":1727280742,"current_range_meters":34800,"station_id":"ce4bh692rcd13ifvqea0","pricing_plan_id":"cebpf4jnsgd1na2vs0mg"},{"bike_id":"9c7d6151-d264-495b-8286-be02b6998f5f","system_id":"levelo_inurba_marseille","lat":43.2927,"lon":5.38445,"is_reserved":false,"is_disabled":false,"rental_uris":{"android":"levelo://app?vid=9c7d6151-d264-495b-8286-be02b6998f5f","ios":"levelo://app?vid=9c7d6151-d264-495b-8286-be02b6998f5f"},"vehicle_type_id":"4","last_reported":1727280742,"current_range_meters":38800,"station_id":"ce4bh692rcd13ifvqea0","pricing_plan_id":"cebpf4jnsgd1na2vs0mg"},{"bike_id":"eaaac840-0b8d-446c-a652-9ec62660a902","system_id":"levelo_inurba_marseille","lat":43.32335,"lon":5.40613,"is_reserved":false,"is_disabled":false,"rental_uris":{"android":"levelo://app?vid=eaaac840-0b8d-446c-a652-9ec62660a902","ios":"levelo://app?vid=eaaac840-0b8d-446c-a652-9ec62660a902"},"vehicle_type_id":"4","last_reported":1727280742,"current_range_meters":38800,"station_id":"ce4bhq92rcd13ifvqhjg","pricing_plan_id":"cebpf4jnsgd1na2vs0mg"},{"bike_id":"7827170f-fe53-4f76-acc5-1f9d10e67145","system_id":"levelo_inurba_marseille","lat":43.2293,"lon":5.35375,"is_reserved":false,"is_disabled":false,"rental_uris":{"android":"levelo://app?vid=7827170f-fe53-4f76-acc5-1f9d10e67145","ios":"levelo://app?vid=7827170f-fe53-4f76-acc5-1f9d10e67145"},"vehicle_type_id":"4","last_reported":1727280742,"current_range_meters":37600,"station_id":"cpo3532slgdg3j2ikp40","pricing_plan_id":"cebpf4jnsgd1na2vs0mg"},{"bike_id":"d831a0c8-0bcd-4449-91a5-836df1a52d4b","system_id":"levelo_inurba_marseille","lat":43.307183,"lon":5.37276,"is_reserved":false,"is_disabled":false,"rental_uris":{"android":"levelo://app?vid=d831a0c8-0bcd-4449-91a5-836df1a52d4b","ios":"levelo://app?vid=d831a0c8-0bcd-4449-91a5-836df1a52d4b"},"vehicle_type_id":"4","last_reported":1727280742,"current_range_meters":9600,"station_id":"","pricing_plan_id":"cebpf4jnsgd1na2vs0mg"},{"bike_id":"f7b9309f-2520-4295-90a9-0f6d749cef14","system_id":"levelo_inurba_marseille","lat":43.23195,"lon":5.35553,"is_reserved":false,"is_disabled":false,"rental_uris":{"android":"levelo://app?vid=f7b9309f-2520-4295-90a9-0f6d749cef14","ios":"levelo://app?vid=f7b9309f-2520-4295-90a9-0f6d749cef14"},"vehicle_type_id":"4","last_reported":1727280742,"current_range_meters":35600,"station_id":"ce4bhu92rcd13ifvqi70","pricing_plan_id":"cebpf4jnsgd1na2vs0mg"},{"bike_id":"b1cf63e6-7942-4da7-982d-05674bd4d538","system_id":"levelo_inurba_marseille","lat":43.31081,"lon":5.42431,"is_reserved":false,"is_disabled":false,"rental_uris":{"android":"levelo://app?vid=b1cf63e6-7942-4da7-982d-05674bd4d538","ios":"levelo://app?vid=b1cf63e6-7942-4da7-982d-05674bd4d538"},"vehicle_type_id":"4","last_reported":1727280742,"current_range_meters":8800,"station_id":"ce4bhp92rcd13ifvqhag","pricing_plan_id":"cebpf4jnsgd1na2vs0mg"},{"bike_id":"210436be-c080-4da5-940a-17f015a2f7cc","system_id":"levelo_inurba_marseille","lat":43.31672,"lon":5.43596,"is_reserved":false,"is_disabled":false,"rental_uris":{"android":"levelo://app?vid=210436be-c080-4da5-940a-17f015a2f7cc","ios":"levelo://app?vid=210436be-c080-4da5-940a-17f015a2f7cc"},"vehicle_type_id":"4","last_reported":1727280742,"current_range_meters":24000,"station_id":"","pricing_plan_id":"cebpf4jnsgd1na2vs0mg"},{"bike_id":"05e6141d-6472-47b1-9981-c44b26218d68","system_id":"levelo_inurba_marseille","lat":43.28453,"lon":5.35888,"is_reserved":false,"is_disabled":false,"rental_uris":{"android":"levelo://app?vid=05e6141d-6472-47b1-9981-c44b26218d68","ios":"levelo://app?vid=05e6141d-6472-47b1-9981-c44b26218d68"},"vehicle_type_id":"4","last_reported":1727280742,"current_range_meters":18000,"station_id":"ce4bhah2rcd13ifvqei0","pricing_plan_id":"cebpf4jnsgd1na2vs0mg"},{"bike_id":"f5a44c06-9029-48b7-8cce-206bb5f1a19d","system_id":"levelo_inurba_marseille","lat":43.27685,"lon":5.38907,"is_reserved":false,"is_disabled":false,"rental_uris":{"android":"levelo://app?vid=f5a44c06-9029-48b7-8cce-206bb5f1a19d","ios":"levelo://app?vid=f5a44c06-9029-48b7-8cce-206bb5f1a19d"},"vehicle_type_id":"4","last_reported":1727280742,"current_range_meters":13600,"station_id":"ce4bhi12rcd13ifvqfo0","pricing_plan_id":"cebpf4jnsgd1na2vs0mg"},{"bike_id":"4a4bfd88-bdfc-4802-b3a8-e798e4274727","system_id":"levelo_inurba_marseille","lat":43.32294,"lon":5.38259,"is_reserved":false,"is_disabled":false,"rental_uris":{"android":"levelo://app?vid=4a4bfd88-bdfc-4802-b3a8-e798e4274727","ios":"levelo://app?vid=4a4bfd88-bdfc-4802-b3a8-e798e4274727"},"vehicle_type_id":"4","last_reported":1727280742,"current_range_meters":28000,"station_id":"ce4bhr12rcd13ifvqhqg","pricing_plan_id":"cebpf4jnsgd1na2vs0mg"},{"bike_id":"55510e67-f2d9-4cd2-86a1-c10296679920","system_id":"levelo_inurba_marseille","lat":43.284243,"lon":5.34985,"is_reserved":false,"is_disabled":false,"rental_uris":{"android":"levelo://app?vid=55510e67-f2d9-4cd2-86a1-c10296679920","ios":"levelo://app?vid=55510e67-f2d9-4cd2-86a1-c10296679920"},"vehicle_type_id":"4","last_reported":1727280742,"current_range_meters":38800,"station_id":"ce4bhbh2rcd13ifvqepg","pricing_plan_id":"cebpf4jnsgd1na2vs0mg"},{"bike_id":"fb8a67fc-5aca-4f3b-99c5-2d6eb6ead436","system_id":"levelo_inurba_marseille","lat":43.30365,"lon":5.38649,"is_reserved":false,"is_disabled":false,"rental_uris":{"android":"levelo://app?vid=fb8a67fc-5aca-4f3b-99c5-2d6eb6ead436","ios":"levelo://app?vid=fb8a67fc-5aca-4f3b-99c5-2d6eb6ead436"},"vehicle_type_id":"4","last_reported":1727280742,"current_range_meters":7200,"station_id":"ce4bh392rcd13ifvqdm0","pricing_plan_id":"cebpf4jnsgd1na2vs0mg"},{"bike_id":"c4bf0033-cc0c-4491-9fe8-835c94d817a1","system_id":"levelo_inurba_marseille","lat":43.29712,"lon":5.37697,"is_reserved":false,"is_disabled":false,"rental_uris":{"android":"levelo://app?vid=c4bf0033-cc0c-4491-9fe8-835c94d817a1","ios":"levelo://app?vid=c4bf0033-cc0c-4491-9fe8-835c94d817a1"},"vehicle_type_id":"4","last_reported":1727280742,"current_range_meters":32800,"station_id":"ce4bgkh2rcd13ifvqbl0","pricing_plan_id":"cebpf4jnsgd1na2vs0mg"},{"bike_id":"8c1edc0f-8eb4-4ca6-a84d-f41e502e4427","system_id":"levelo_inurba_marseille","lat":43.28427,"lon":5.34993,"is_reserved":false,"is_disabled":false,"rental_uris":{"android":"levelo://app?vid=8c1edc0f-8eb4-4ca6-a84d-f41e502e4427","ios":"levelo://app?vid=8c1edc0f-8eb4-4ca6-a84d-f41e502e4427"},"vehicle_type_id":"4","last_reported":1727280742,"current_range_meters":38800,"station_id":"ce4bhbh2rcd13ifvqepg","pricing_plan_id":"cebpf4jnsgd1na2vs0mg"},{"bike_id":"51685063-69c1-44df-9929-57ce7603e59e","system_id":"levelo_inurba_marseille","lat":43.31122,"lon":5.38337,"is_reserved":false,"is_disabled":false,"rental_uris":{"android":"levelo://app?vid=51685063-69c1-44df-9929-57ce7603e59e","ios":"levelo://app?vid=51685063-69c1-44df-9929-57ce7603e59e"},"vehicle_type_id":"4","last_reported":1727280742,"current_range_meters":33600,"station_id":"ce4bgv92rcd13ifvqcr0","pricing_plan_id":"cebpf4jnsgd1na2vs0mg"},{"bike_id":"2c21f495-5463-45d5-9d9d-bd32cba712b5","system_id":"levelo_inurba_marseille","lat":43.29689,"lon":5.37296,"is_reserved":false,"is_disabled":false,"rental_uris":{"android":"levelo://app?vid=2c21f495-5463-45d5-9d9d-bd32cba712b5","ios":"levelo://app?vid=2c21f495-5463-45d5-9d9d-bd32cba712b5"},"vehicle_type_id":"4","last_reported":1727280742,"current_range_meters":39200,"station_id":"ce4bgk12rcd13ifvqbj0","pricing_plan_id":"cebpf4jnsgd1na2vs0mg"},{"bike_id":"5db96f2f-efcf-4964-8de0-bc2404197a2b","system_id":"levelo_inurba_marseille","lat":43.32487,"lon":5.36548,"is_reserved":false,"is_disabled":false,"rental_uris":{"android":"levelo://app?vid=5db96f2f-efcf-4964-8de0-bc2404197a2b","ios":"levelo://app?vid=5db96f2f-efcf-4964-8de0-bc2404197a2b"},"vehicle_type_id":"4","last_reported":1727280742,"current_range_meters":6000,"station_id":"ce4bhs12rcd13ifvqhvg","pricing_plan_id":"cebpf4jnsgd1na2vs0mg"},{"bike_id":"f64ee566-f8e8-46dd-8e25-aad79ba0442a","system_id":"levelo_inurba_marseille","lat":43.250916,"lon":5.395202,"is_reserved":false,"is_disabled":false,"rental_uris":{"android":"levelo://app?vid=f64ee566-f8e8-46dd-8e25-aad79ba0442a","ios":"levelo://app?vid=f64ee566-f8e8-46dd-8e25-aad79ba0442a"},"vehicle_type_id":"4","last_reported":1727280742,"current_range_meters":18800,"station_id":"ce4bhm12rcd13ifvqgkg","pricing_plan_id":"cebpf4jnsgd1na2vs0mg"},{"bike_id":"ede37da0-431f-462e-af97-45c71435ab2a","system_id":"levelo_inurba_marseille","lat":43.2418,"lon":5.39708,"is_reserved":false,"is_disabled":false,"rental_uris":{"android":"levelo://app?vid=ede37da0-431f-462e-af97-45c71435ab2a","ios":"levelo://app?vid=ede37da0-431f-462e-af97-45c71435ab2a"},"vehicle_type_id":"4","last_reported":1727280742,"current_range_meters":19200,"station_id":"ce4bhn12rcd13ifvqgpg","pricing_plan_id":"cebpf4jnsgd1na2vs0mg"},{"bike_id":"7fb0d0fb-dd7a-4ace-98da-9e3c8b1d73b0","system_id":"levelo_inurba_marseille","lat":43.22928,"lon":5.35374,"is_reserved":false,"is_disabled":false,"rental_uris":{"android":"levelo://app?vid=7fb0d0fb-dd7a-4ace-98da-9e3c8b1d73b0","ios":"levelo://app?vid=7fb0d0fb-dd7a-4ace-98da-9e3c8b1d73b0"},"vehicle_type_id":"4","last_reported":1727280742,"current_range_meters":25600,"station_id":"cpo3532slgdg3j2ikp40","pricing_plan_id":"cebpf4jnsgd1na2vs0mg"},{"bike_id":"b41cabb9-80b4-406b-bd58-abeaa3909770","system_id":"levelo_inurba_marseille","lat":43.28464,"lon":5.35878,"is_reserved":false,"is_disabled":false,"rental_uris":{"android":"levelo://app?vid=b41cabb9-80b4-406b-bd58-abeaa3909770","ios":"levelo://app?vid=b41cabb9-80b4-406b-bd58-abeaa3909770"},"vehicle_type_id":"4","last_reported":1727280742,"current_range_meters":38800,"station_id":"ce4bhah2rcd13ifvqei0","pricing_plan_id":"cebpf4jnsgd1na2vs0mg"},{"bike_id":"f5de29c8-9b48-4272-b47b-c8fd05f84ccd","system_id":"levelo_inurba_marseille","lat":43.25583,"lon":5.38236,"is_reserved":false,"is_disabled":false,"rental_uris":{"android":"levelo://app?vid=f5de29c8-9b48-4272-b47b-c8fd05f84ccd","ios":"levelo://app?vid=f5de29c8-9b48-4272-b47b-c8fd05f84ccd"},"vehicle_type_id":"4","last_reported":1727280742,"current_range_meters":32000,"station_id":"ce4bhih2rcd13ifvqfs0","pricing_plan_id":"cebpf4jnsgd1na2vs0mg"},{"bike_id":"39eaecad-57f2-400a-8c23-3208e8dfdbee","system_id":"levelo_inurba_marseille","lat":43.28322,"lon":5.38113,"is_reserved":false,"is_disabled":false,"rental_uris":{"android":"levelo://app?vid=39eaecad-57f2-400a-8c23-3208e8dfdbee","ios":"levelo://app?vid=39eaecad-57f2-400a-8c23-3208e8dfdbee"},"vehicle_type_id":"4","last_reported":1727280742,"current_range_meters":10000,"station_id":"ce4bhf92rcd13ifvqf50","pricing_plan_id":"cebpf4jnsgd1na2vs0mg"},{"bike_id":"3d160dae-6782-4e53-81e7-e40908ad46c5","system_id":"levelo_inurba_marseille","lat":43.3187,"lon":5.3742,"is_reserved":false,"is_disabled":false,"rental_uris":{"android":"levelo://app?vid=3d160dae-6782-4e53-81e7-e40908ad46c5","ios":"levelo://app?vid=3d160dae-6782-4e53-81e7-e40908ad46c5"},"vehicle_type_id":"4","last_reported":1727280742,"current_range_meters":35200,"station_id":"","pricing_plan_id":"cebpf4jnsgd1na2vs0mg"},{"bike_id":"1cafb7e2-bb2d-4cdd-850c-a35197648656","system_id":"levelo_inurba_marseille","lat":43.32292,"lon":5.38265,"is_reserved":false,"is_disabled":false,"rental_uris":{"android":"levelo://app?vid=1cafb7e2-bb2d-4cdd-850c-a35197648656","ios":"levelo://app?vid=1cafb7e2-bb2d-4cdd-850c-a35197648656"},"vehicle_type_id":"4","last_reported":1727280742,"current_range_meters":12400,"station_id":"ce4bhr12rcd13ifvqhqg","pricing_plan_id":"cebpf4jnsgd1na2vs0mg"},{"bike_id":"2c947711-9a76-4185-b8b7-562ab19f1c5c","system_id":"levelo_inurba_marseille","lat":43.28255,"lon":5.3506,"is_reserved":false,"is_disabled":false,"rental_uris":{"android":"levelo://app?vid=2c947711-9a76-4185-b8b7-562ab19f1c5c","ios":"levelo://app?vid=2c947711-9a76-4185-b8b7-562ab19f1c5c"},"vehicle_type_id":"4","last_reported":1727280742,"current_range_meters":38800,"station_id":"ce4bhbp2rcd13ifvqerg","pricing_plan_id":"cebpf4jnsgd1na2vs0mg"},{"bike_id":"81ddf8e0-61b1-4f79-8d7f-0681c3178007","system_id":"levelo_inurba_marseille","lat":43.29201,"lon":5.3581,"is_reserved":false,"is_disabled":false,"rental_uris":{"android":"levelo://app?vid=81ddf8e0-61b1-4f79-8d7f-0681c3178007","ios":"levelo://app?vid=81ddf8e0-61b1-4f79-8d7f-0681c3178007"},"vehicle_type_id":"4","last_reported":1727280742,"current_range_meters":37600,"station_id":"ce4bhb12rcd13ifvqel0","pricing_plan_id":"cebpf4jnsgd1na2vs0mg"},{"bike_id":"3cdb199b-bacd-44b6-8eed-476c74758fbd","system_id":"levelo_inurba_marseille","lat":43.32108,"lon":5.36776,"is_reserved":false,"is_disabled":false,"rental_uris":{"android":"levelo://app?vid=3cdb199b-bacd-44b6-8eed-476c74758fbd","ios":"levelo://app?vid=3cdb199b-bacd-44b6-8eed-476c74758fbd"},"vehicle_type_id":"4","last_reported":1727280742,"current_range_meters":24800,"station_id":"ce4bhrh2rcd13ifvqhug","pricing_plan_id":"cebpf4jnsgd1na2vs0mg"},{"bike_id":"aad22dc7-5b58-4c6e-b09a-11e1f606976b","system_id":"levelo_inurba_marseille","lat":43.26805,"lon":5.40269,"is_reserved":false,"is_disabled":false,"rental_uris":{"android":"levelo://app?vid=aad22dc7-5b58-4c6e-b09a-11e1f606976b","ios":"levelo://app?vid=aad22dc7-5b58-4c6e-b09a-11e1f606976b"},"vehicle_type_id":"4","last_reported":1727280742,"current_range_meters":39200,"station_id":"ce501612rcd8frsf0b60","pricing_plan_id":"cebpf4jnsgd1na2vs0mg"},{"bike_id":"7f58c1b8-73f2-4552-9e75-a666a4ce18ba","system_id":"levelo_inurba_marseille","lat":43.31488,"lon":5.3731,"is_reserved":false,"is_disabled":false,"rental_uris":{"android":"levelo://app?vid=7f58c1b8-73f2-4552-9e75-a666a4ce18ba","ios":"levelo://app?vid=7f58c1b8-73f2-4552-9e75-a666a4ce18ba"},"vehicle_type_id":"4","last_reported":1727280742,"current_range_meters":24400,"station_id":"ce4bgt12rcd13ifvqcd0","pricing_plan_id":"cebpf4jnsgd1na2vs0mg"},{"bike_id":"d3a61b6a-71e8-4c6c-8c6c-30262b2b9bc2","system_id":"levelo_inurba_marseille","lat":43.337444,"lon":5.374475,"is_reserved":false,"is_disabled":false,"rental_uris":{"android":"levelo://app?vid=d3a61b6a-71e8-4c6c-8c6c-30262b2b9bc2","ios":"levelo://app?vid=d3a61b6a-71e8-4c6c-8c6c-30262b2b9bc2"},"vehicle_type_id":"4","last_reported":1727280742,"current_range_meters":35600,"station_id":"","pricing_plan_id":"cebpf4jnsgd1na2vs0mg"},{"bike_id":"f02311d2-9f91-4c2c-8c02-54ee9d7a01d4","system_id":"levelo_inurba_marseille","lat":43.29574,"lon":5.39974,"is_reserved":false,"is_disabled":false,"rental_uris":{"android":"levelo://app?vid=f02311d2-9f91-4c2c-8c02-54ee9d7a01d4","ios":"levelo://app?vid=f02311d2-9f91-4c2c-8c02-54ee9d7a01d4"},"vehicle_type_id":"4","last_reported":1727280742,"current_range_meters":21600,"station_id":"ce4bh312rcd13ifvqdj0","pricing_plan_id":"cebpf4jnsgd1na2vs0mg"},{"bike_id":"18a48b18-e755-4421-9359-691fbf12ade5","system_id":"levelo_inurba_marseille","lat":43.28479,"lon":5.3842,"is_reserved":false,"is_disabled":false,"rental_uris":{"android":"levelo://app?vid=18a48b18-e755-4421-9359-691fbf12ade5","ios":"levelo://app?vid=18a48b18-e755-4421-9359-691fbf12ade5"},"vehicle_type_id":"4","last_reported":1727280742,"current_range_meters":10800,"station_id":"ce4bh512rcd13ifvqe3g","pricing_plan_id":"cebpf4jnsgd1na2vs0mg"},{"bike_id":"cea08d20-fec8-4844-8053-0cf06700ed4a","system_id":"levelo_inurba_marseille","lat":43.276123,"lon":5.361113,"is_reserved":false,"is_disabled":false,"rental_uris":{"android":"levelo://app?vid=cea08d20-fec8-4844-8053-0cf06700ed4a","ios":"levelo://app?vid=cea08d20-fec8-4844-8053-0cf06700ed4a"},"vehicle_type_id":"4","last_reported":1727280742,"current_range_meters":10000,"station_id":"ce4bgj92rcd13ifvqbe0","pricing_plan_id":"cebpf4jnsgd1na2vs0mg"},{"bike_id":"05b0606a-b373-45a3-8ae4-af53c4ad8748","system_id":"levelo_inurba_marseille","lat":43.262,"lon":5.37933,"is_reserved":false,"is_disabled":false,"rental_uris":{"android":"levelo://app?vid=05b0606a-b373-45a3-8ae4-af53c4ad8748","ios":"levelo://app?vid=05b0606a-b373-45a3-8ae4-af53c4ad8748"},"vehicle_type_id":"4","last_reported":1727280742,"current_range_meters":30400,"station_id":"ce4bhjp2rcd13ifvqg90","pricing_plan_id":"cebpf4jnsgd1na2vs0mg"},{"bike_id":"56888b2d-6caf-4cfa-a942-3fc80bb46ee8","system_id":"levelo_inurba_marseille","lat":43.29269,"lon":5.38446,"is_reserved":false,"is_disabled":false,"rental_uris":{"android":"levelo://app?vid=56888b2d-6caf-4cfa-a942-3fc80bb46ee8","ios":"levelo://app?vid=56888b2d-6caf-4cfa-a942-3fc80bb46ee8"},"vehicle_type_id":"4","last_reported":1727280742,"current_range_meters":19600,"station_id":"ce4bh692rcd13ifvqea0","pricing_plan_id":"cebpf4jnsgd1na2vs0mg"},{"bike_id":"49ba035b-219f-4f34-ae08-84e5bb03d5a1","system_id":"levelo_inurba_marseille","lat":43.29227,"lon":5.36065,"is_reserved":false,"is_disabled":false,"rental_uris":{"android":"levelo://app?vid=49ba035b-219f-4f34-ae08-84e5bb03d5a1","ios":"levelo://app?vid=49ba035b-219f-4f34-ae08-84e5bb03d5a1"},"vehicle_type_id":"4","last_reported":1727280742,"current_range_meters":32000,"station_id":"ce4bhbh2rcd13ifvqeqg","pricing_plan_id":"cebpf4jnsgd1na2vs0mg"},{"bike_id":"64926358-e745-439a-814c-fcc1fbdb599f","system_id":"levelo_inurba_marseille","lat":43.284967,"lon":5.384026,"is_reserved":false,"is_disabled":false,"rental_uris":{"android":"levelo://app?vid=64926358-e745-439a-814c-fcc1fbdb599f","ios":"levelo://app?vid=64926358-e745-439a-814c-fcc1fbdb599f"},"vehicle_type_id":"4","last_reported":1727280742,"current_range_meters":17600,"station_id":"ce4bh512rcd13ifvqe3g","pricing_plan_id":"cebpf4jnsgd1na2vs0mg"},{"bike_id":"27497209-0bac-4e46-a15c-7489ea5ca6cc","system_id":"levelo_inurba_marseille","lat":43.28862,"lon":5.35832,"is_reserved":false,"is_disabled":false,"rental_uris":{"android":"levelo://app?vid=27497209-0bac-4e46-a15c-7489ea5ca6cc","ios":"levelo://app?vid=27497209-0bac-4e46-a15c-7489ea5ca6cc"},"vehicle_type_id":"4","last_reported":1727280742,"current_range_meters":7200,"station_id":"ce4bhb12rcd13ifvqem0","pricing_plan_id":"cebpf4jnsgd1na2vs0mg"},{"bike_id":"9050d0c4-f22d-4c94-803f-48072f0e0adc","system_id":"levelo_inurba_marseille","lat":43.3248,"lon":5.36563,"is_reserved":false,"is_disabled":false,"rental_uris":{"android":"levelo://app?vid=9050d0c4-f22d-4c94-803f-48072f0e0adc","ios":"levelo://app?vid=9050d0c4-f22d-4c94-803f-48072f0e0adc"},"vehicle_type_id":"4","last_reported":1727280742,"current_range_meters":28400,"station_id":"ce4bhs12rcd13ifvqhvg","pricing_plan_id":"cebpf4jnsgd1na2vs0mg"},{"bike_id":"ab030ec9-0f10-4888-890d-d2a305181004","system_id":"levelo_inurba_marseille","lat":43.231569,"lon":5.437038,"is_reserved":false,"is_disabled":false,"rental_uris":{"android":"levelo://app?vid=ab030ec9-0f10-4888-890d-d2a305181004","ios":"levelo://app?vid=ab030ec9-0f10-4888-890d-d2a305181004"},"vehicle_type_id":"4","last_reported":1727280742,"current_range_meters":18800,"station_id":"ce4bhmp2rcd13ifvqgog","pricing_plan_id":"cebpf4jnsgd1na2vs0mg"},{"bike_id":"38691ec6-bd7d-495f-bdb5-b0ae3e20dc81","system_id":"levelo_inurba_marseille","lat":43.281629,"lon":5.426307,"is_reserved":false,"is_disabled":false,"rental_uris":{"android":"levelo://app?vid=38691ec6-bd7d-495f-bdb5-b0ae3e20dc81","ios":"levelo://app?vid=38691ec6-bd7d-495f-bdb5-b0ae3e20dc81"},"vehicle_type_id":"4","last_reported":1727280742,"current_range_meters":36000,"station_id":"ce4bhnh2rcd13ifvqgug","pricing_plan_id":"cebpf4jnsgd1na2vs0mg"},{"bike_id":"b758bb5f-adae-4881-83e7-0e917c4e39a1","system_id":"levelo_inurba_marseille","lat":43.31991,"lon":5.3814,"is_reserved":false,"is_disabled":false,"rental_uris":{"android":"levelo://app?vid=b758bb5f-adae-4881-83e7-0e917c4e39a1","ios":"levelo://app?vid=b758bb5f-adae-4881-83e7-0e917c4e39a1"},"vehicle_type_id":"4","last_reported":1727280742,"current_range_meters":6000,"station_id":"ce4bhr12rcd13ifvqhpg","pricing_plan_id":"cebpf4jnsgd1na2vs0mg"},{"bike_id":"a832b3cd-8759-4176-b9b4-7acc3d4bc8f1","system_id":"levelo_inurba_marseille","lat":43.30411,"lon":5.41293,"is_reserved":false,"is_disabled":false,"rental_uris":{"android":"levelo://app?vid=a832b3cd-8759-4176-b9b4-7acc3d4bc8f1","ios":"levelo://app?vid=a832b3cd-8759-4176-b9b4-7acc3d4bc8f1"},"vehicle_type_id":"4","last_reported":1727280742,"current_range_meters":33600,"station_id":"ce4bhop2rcd13ifvqh8g","pricing_plan_id":"cebpf4jnsgd1na2vs0mg"},{"bike_id":"80d11247-0337-4d08-bdc2-5c3c74a3a6dd","system_id":"levelo_inurba_marseille","lat":43.28155,"lon":5.42646,"is_reserved":false,"is_disabled":false,"rental_uris":{"android":"levelo://app?vid=80d11247-0337-4d08-bdc2-5c3c74a3a6dd","ios":"levelo://app?vid=80d11247-0337-4d08-bdc2-5c3c74a3a6dd"},"vehicle_type_id":"4","last_reported":1727280742,"current_range_meters":14800,"station_id":"ce4bhnh2rcd13ifvqgug","pricing_plan_id":"cebpf4jnsgd1na2vs0mg"},{"bike_id":"e79982d4-a9b2-45e2-b9b9-1675c6d64849","system_id":"levelo_inurba_marseille","lat":43.28458,"lon":5.35891,"is_reserved":false,"is_disabled":false,"rental_uris":{"android":"levelo://app?vid=e79982d4-a9b2-45e2-b9b9-1675c6d64849","ios":"levelo://app?vid=e79982d4-a9b2-45e2-b9b9-1675c6d64849"},"vehicle_type_id":"4","last_reported":1727280742,"current_range_meters":16400,"station_id":"ce4bhah2rcd13ifvqei0","pricing_plan_id":"cebpf4jnsgd1na2vs0mg"},{"bike_id":"ef71a54f-5b11-42e3-b92d-446cc02144dd","system_id":"levelo_inurba_marseille","lat":43.25827,"lon":5.39442,"is_reserved":false,"is_disabled":false,"rental_uris":{"android":"levelo://app?vid=ef71a54f-5b11-42e3-b92d-446cc02144dd","ios":"levelo://app?vid=ef71a54f-5b11-42e3-b92d-446cc02144dd"},"vehicle_type_id":"4","last_reported":1727280742,"current_range_meters":12000,"station_id":"ce4bhip2rcd13ifvqft0","pricing_plan_id":"cebpf4jnsgd1na2vs0mg"},{"bike_id":"f17dbafc-151f-485c-a428-c0c83c10c6c9","system_id":"levelo_inurba_marseille","lat":43.29154,"lon":5.43973,"is_reserved":false,"is_disabled":false,"rental_uris":{"android":"levelo://app?vid=f17dbafc-151f-485c-a428-c0c83c10c6c9","ios":"levelo://app?vid=f17dbafc-151f-485c-a428-c0c83c10c6c9"},"vehicle_type_id":"4","last_reported":1727280742,"current_range_meters":28400,"station_id":"","pricing_plan_id":"cebpf4jnsgd1na2vs0mg"},{"bike_id":"0e8e9ac7-6afe-4e26-982c-c8d9246b196c","system_id":"levelo_inurba_marseille","lat":43.29263,"lon":5.38447,"is_reserved":false,"is_disabled":false,"rental_uris":{"android":"levelo://app?vid=0e8e9ac7-6afe-4e26-982c-c8d9246b196c","ios":"levelo://app?vid=0e8e9ac7-6afe-4e26-982c-c8d9246b196c"},"vehicle_type_id":"4","last_reported":1727280742,"current_range_meters":38400,"station_id":"ce4bh692rcd13ifvqea0","pricing_plan_id":"cebpf4jnsgd1na2vs0mg"},{"bike_id":"992bde74-99ce-4177-98c4-1cbcae5fb5cf","system_id":"levelo_inurba_marseille","lat":43.28611,"lon":5.35099,"is_reserved":false,"is_disabled":false,"rental_uris":{"android":"levelo://app?vid=992bde74-99ce-4177-98c4-1cbcae5fb5cf","ios":"levelo://app?vid=992bde74-99ce-4177-98c4-1cbcae5fb5cf"},"vehicle_type_id":"4","last_reported":1727280742,"current_range_meters":10800,"station_id":"ce4bhch2rcd13ifvqeug","pricing_plan_id":"cebpf4jnsgd1na2vs0mg"},{"bike_id":"8425a020-dd6c-4fda-a352-f8354f835836","system_id":"levelo_inurba_marseille","lat":43.31697,"lon":5.37752,"is_reserved":false,"is_disabled":false,"rental_uris":{"android":"levelo://app?vid=8425a020-dd6c-4fda-a352-f8354f835836","ios":"levelo://app?vid=8425a020-dd6c-4fda-a352-f8354f835836"},"vehicle_type_id":"4","last_reported":1727280742,"current_range_meters":38000,"station_id":"ce4bgth2rcd13ifvqch0","pricing_plan_id":"cebpf4jnsgd1na2vs0mg"},{"bike_id":"1335af46-eac4-452c-93b2-dfd48f487ad2","system_id":"levelo_inurba_marseille","lat":43.29437,"lon":5.3975,"is_reserved":false,"is_disabled":false,"rental_uris":{"android":"levelo://app?vid=1335af46-eac4-452c-93b2-dfd48f487ad2","ios":"levelo://app?vid=1335af46-eac4-452c-93b2-dfd48f487ad2"},"vehicle_type_id":"4","last_reported":1727280742,"current_range_meters":4000,"station_id":"ce4bh3h2rcd13ifvqdo0","pricing_plan_id":"cebpf4jnsgd1na2vs0mg"},{"bike_id":"c52a8ffa-659f-48e7-ad46-1f537297ce30","system_id":"levelo_inurba_marseille","lat":43.26059,"lon":5.39388,"is_reserved":false,"is_disabled":false,"rental_uris":{"android":"levelo://app?vid=c52a8ffa-659f-48e7-ad46-1f537297ce30","ios":"levelo://app?vid=c52a8ffa-659f-48e7-ad46-1f537297ce30"},"vehicle_type_id":"4","last_reported":1727280742,"current_range_meters":38800,"station_id":"ce4bhh92rcd13ifvqfj0","pricing_plan_id":"cebpf4jnsgd1na2vs0mg"},{"bike_id":"18b2f352-7fad-4f3b-ae87-2a33abf140fa","system_id":"levelo_inurba_marseille","lat":43.27372,"lon":5.36247,"is_reserved":false,"is_disabled":false,"rental_uris":{"android":"levelo://app?vid=18b2f352-7fad-4f3b-ae87-2a33abf140fa","ios":"levelo://app?vid=18b2f352-7fad-4f3b-ae87-2a33abf140fa"},"vehicle_type_id":"4","last_reported":1727280742,"current_range_meters":27200,"station_id":"ce4bhbh2rcd13ifvqeo0","pricing_plan_id":"cebpf4jnsgd1na2vs0mg"},{"bike_id":"9a5f402e-72fc-4c4d-97f8-168ae48b564f","system_id":"levelo_inurba_marseille","lat":43.29416,"lon":5.38626,"is_reserved":false,"is_disabled":false,"rental_uris":{"android":"levelo://app?vid=9a5f402e-72fc-4c4d-97f8-168ae48b564f","ios":"levelo://app?vid=9a5f402e-72fc-4c4d-97f8-168ae48b564f"},"vehicle_type_id":"4","last_reported":1727280742,"current_range_meters":34000,"station_id":"ce4bh2h2rcd13ifvqdh0","pricing_plan_id":"cebpf4jnsgd1na2vs0mg"},{"bike_id":"99bca67a-53cd-49be-8650-7ce433b96b98","system_id":"levelo_inurba_marseille","lat":43.2942,"lon":5.38628,"is_reserved":false,"is_disabled":false,"rental_uris":{"android":"levelo://app?vid=99bca67a-53cd-49be-8650-7ce433b96b98","ios":"levelo://app?vid=99bca67a-53cd-49be-8650-7ce433b96b98"},"vehicle_type_id":"4","last_reported":1727280742,"current_range_meters":16800,"station_id":"ce4bh2h2rcd13ifvqdh0","pricing_plan_id":"cebpf4jnsgd1na2vs0mg"},{"bike_id":"9381b9db-ac20-4ba9-927c-569ace12d22d","system_id":"levelo_inurba_marseille","lat":43.28941,"lon":5.36643,"is_reserved":false,"is_disabled":false,"rental_uris":{"android":"levelo://app?vid=9381b9db-ac20-4ba9-927c-569ace12d22d","ios":"levelo://app?vid=9381b9db-ac20-4ba9-927c-569ace12d22d"},"vehicle_type_id":"4","last_reported":1727280742,"current_range_meters":7200,"station_id":"ce4bhap2rcd13ifvqek0","pricing_plan_id":"cebpf4jnsgd1na2vs0mg"},{"bike_id":"07fc965d-57b8-4fa0-940d-ef61b821000b","system_id":"levelo_inurba_marseille","lat":43.29028,"lon":5.38126,"is_reserved":false,"is_disabled":false,"rental_uris":{"android":"levelo://app?vid=07fc965d-57b8-4fa0-940d-ef61b821000b","ios":"levelo://app?vid=07fc965d-57b8-4fa0-940d-ef61b821000b"},"vehicle_type_id":"4","last_reported":1727280742,"current_range_meters":39200,"station_id":"ce4bh4p2rcd13ifvqe1g","pricing_plan_id":"cebpf4jnsgd1na2vs0mg"},{"bike_id":"13ea4239-c096-49ce-9014-c218f3491066","system_id":"levelo_inurba_marseille","lat":43.24083,"lon":5.37748,"is_reserved":false,"is_disabled":false,"rental_uris":{"android":"levelo://app?vid=13ea4239-c096-49ce-9014-c218f3491066","ios":"levelo://app?vid=13ea4239-c096-49ce-9014-c218f3491066"},"vehicle_type_id":"4","last_reported":1727280742,"current_range_meters":10000,"station_id":"ce4bhnp2rcd13ifvqgvg","pricing_plan_id":"cebpf4jnsgd1na2vs0mg"},{"bike_id":"bfbd7ce3-57c8-4c62-aaa8-52c7c05e68d8","system_id":"levelo_inurba_marseille","lat":43.337444,"lon":5.374475,"is_reserved":false,"is_disabled":false,"rental_uris":{"android":"levelo://app?vid=bfbd7ce3-57c8-4c62-aaa8-52c7c05e68d8","ios":"levelo://app?vid=bfbd7ce3-57c8-4c62-aaa8-52c7c05e68d8"},"vehicle_type_id":"4","last_reported":1727280742,"current_range_meters":12000,"station_id":"","pricing_plan_id":"cebpf4jnsgd1na2vs0mg"},{"bike_id":"6d2cf804-55a3-4fdd-a007-40cbef35c7a6","system_id":"levelo_inurba_marseille","lat":43.27371,"lon":5.36258,"is_reserved":false,"is_disabled":false,"rental_uris":{"android":"levelo://app?vid=6d2cf804-55a3-4fdd-a007-40cbef35c7a6","ios":"levelo://app?vid=6d2cf804-55a3-4fdd-a007-40cbef35c7a6"},"vehicle_type_id":"4","last_reported":1727280742,"current_range_meters":38800,"station_id":"ce4bhbh2rcd13ifvqeo0","pricing_plan_id":"cebpf4jnsgd1na2vs0mg"},{"bike_id":"2415f15f-5cd6-4f5c-9816-644d8b26dafd","system_id":"levelo_inurba_marseille","lat":43.28863,"lon":5.35851,"is_reserved":false,"is_disabled":false,"rental_uris":{"android":"levelo://app?vid=2415f15f-5cd6-4f5c-9816-644d8b26dafd","ios":"levelo://app?vid=2415f15f-5cd6-4f5c-9816-644d8b26dafd"},"vehicle_type_id":"4","last_reported":1727280742,"current_range_meters":38400,"station_id":"ce4bhb12rcd13ifvqem0","pricing_plan_id":"cebpf4jnsgd1na2vs0mg"},{"bike_id":"d1286a7a-f787-416c-a461-3a833d3dcef7","system_id":"levelo_inurba_marseille","lat":43.29569,"lon":5.37525,"is_reserved":false,"is_disabled":false,"rental_uris":{"android":"levelo://app?vid=d1286a7a-f787-416c-a461-3a833d3dcef7","ios":"levelo://app?vid=d1286a7a-f787-416c-a461-3a833d3dcef7"},"vehicle_type_id":"4","last_reported":1727280742,"current_range_meters":38000,"station_id":"ce4bgh92rcd13ifvqb50","pricing_plan_id":"cebpf4jnsgd1na2vs0mg"},{"bike_id":"4f734694-b2be-4806-a5dd-f45289e17fab","system_id":"levelo_inurba_marseille","lat":43.2857,"lon":5.37971,"is_reserved":false,"is_disabled":false,"rental_uris":{"android":"levelo://app?vid=4f734694-b2be-4806-a5dd-f45289e17fab","ios":"levelo://app?vid=4f734694-b2be-4806-a5dd-f45289e17fab"},"vehicle_type_id":"4","last_reported":1727280742,"current_range_meters":36400,"station_id":"ce4bh3h2rcd13ifvqdn0","pricing_plan_id":"cebpf4jnsgd1na2vs0mg"},{"bike_id":"5be1c39b-4a84-4c11-a10e-2192733c603a","system_id":"levelo_inurba_marseille","lat":43.31489,"lon":5.37312,"is_reserved":false,"is_disabled":false,"rental_uris":{"android":"levelo://app?vid=5be1c39b-4a84-4c11-a10e-2192733c603a","ios":"levelo://app?vid=5be1c39b-4a84-4c11-a10e-2192733c603a"},"vehicle_type_id":"4","last_reported":1727280742,"current_range_meters":20800,"station_id":"ce4bgt12rcd13ifvqcd0","pricing_plan_id":"cebpf4jnsgd1na2vs0mg"},{"bike_id":"385af624-efe4-4ff7-86aa-4baf2a21c851","system_id":"levelo_inurba_marseille","lat":43.31576,"lon":5.42251,"is_reserved":false,"is_disabled":false,"rental_uris":{"android":"levelo://app?vid=385af624-efe4-4ff7-86aa-4baf2a21c851","ios":"levelo://app?vid=385af624-efe4-4ff7-86aa-4baf2a21c851"},"vehicle_type_id":"4","last_reported":1727280742,"current_range_meters":28400,"station_id":"ce4bhp92rcd13ifvqhbg","pricing_plan_id":"cebpf4jnsgd1na2vs0mg"},{"bike_id":"0f8a529d-5386-4176-b7b4-87520e5195be","system_id":"levelo_inurba_marseille","lat":43.27566,"lon":5.38424,"is_reserved":false,"is_disabled":false,"rental_uris":{"android":"levelo://app?vid=0f8a529d-5386-4176-b7b4-87520e5195be","ios":"levelo://app?vid=0f8a529d-5386-4176-b7b4-87520e5195be"},"vehicle_type_id":"4","last_reported":1727280742,"current_range_meters":6800,"station_id":"ce4bhh92rcd13ifvqfi0","pricing_plan_id":"cebpf4jnsgd1na2vs0mg"},{"bike_id":"3b39db69-9196-49c8-bdbe-ff5dfc92b29f","system_id":"levelo_inurba_marseille","lat":43.26208,"lon":5.37443,"is_reserved":false,"is_disabled":false,"rental_uris":{"android":"levelo://app?vid=3b39db69-9196-49c8-bdbe-ff5dfc92b29f","ios":"levelo://app?vid=3b39db69-9196-49c8-bdbe-ff5dfc92b29f"},"vehicle_type_id":"4","last_reported":1727280742,"current_range_meters":24400,"station_id":"ce4bhgp2rcd13ifvqfc0","pricing_plan_id":"cebpf4jnsgd1na2vs0mg"},{"bike_id":"9e5da675-910b-4647-985d-90e1d7e42d0c","system_id":"levelo_inurba_marseille","lat":43.32293,"lon":5.38267,"is_reserved":false,"is_disabled":false,"rental_uris":{"android":"levelo://app?vid=9e5da675-910b-4647-985d-90e1d7e42d0c","ios":"levelo://app?vid=9e5da675-910b-4647-985d-90e1d7e42d0c"},"vehicle_type_id":"4","last_reported":1727280742,"current_range_meters":19600,"station_id":"ce4bhr12rcd13ifvqhqg","pricing_plan_id":"cebpf4jnsgd1na2vs0mg"},{"bike_id":"bd2a1f65-761c-47ff-b92a-6b405b51779e","system_id":"levelo_inurba_marseille","lat":43.2978,"lon":5.38074,"is_reserved":false,"is_disabled":false,"rental_uris":{"android":"levelo://app?vid=bd2a1f65-761c-47ff-b92a-6b405b51779e","ios":"levelo://app?vid=bd2a1f65-761c-47ff-b92a-6b405b51779e"},"vehicle_type_id":"4","last_reported":1727280742,"current_range_meters":11600,"station_id":"ce4bgip2rcd13ifvqbb0","pricing_plan_id":"cebpf4jnsgd1na2vs0mg"},{"bike_id":"dc6e803a-4b62-4d14-85a7-7ef0eaa09d87","system_id":"levelo_inurba_marseille","lat":43.30306,"lon":5.39691,"is_reserved":false,"is_disabled":false,"rental_uris":{"android":"levelo://app?vid=dc6e803a-4b62-4d14-85a7-7ef0eaa09d87","ios":"levelo://app?vid=dc6e803a-4b62-4d14-85a7-7ef0eaa09d87"},"vehicle_type_id":"4","last_reported":1727280742,"current_range_meters":6000,"station_id":"ce4bhq12rcd13ifvqhig","pricing_plan_id":"cebpf4jnsgd1na2vs0mg"},{"bike_id":"f8450f4c-d0f6-4a22-8f14-94e2070b796e","system_id":"levelo_inurba_marseille","lat":43.29839,"lon":5.3626,"is_reserved":false,"is_disabled":false,"rental_uris":{"android":"levelo://app?vid=f8450f4c-d0f6-4a22-8f14-94e2070b796e","ios":"levelo://app?vid=f8450f4c-d0f6-4a22-8f14-94e2070b796e"},"vehicle_type_id":"4","last_reported":1727280742,"current_range_meters":16800,"station_id":"ce4bgpp2rcd13ifvqc3g","pricing_plan_id":"cebpf4jnsgd1na2vs0mg"},{"bike_id":"c61c0a4b-91aa-44ed-b1cb-e5943f1fea2f","system_id":"levelo_inurba_marseille","lat":43.30891,"lon":5.39651,"is_reserved":false,"is_disabled":false,"rental_uris":{"android":"levelo://app?vid=c61c0a4b-91aa-44ed-b1cb-e5943f1fea2f","ios":"levelo://app?vid=c61c0a4b-91aa-44ed-b1cb-e5943f1fea2f"},"vehicle_type_id":"4","last_reported":1727280742,"current_range_meters":6400,"station_id":"ce4bh012rcd13ifvqcv0","pricing_plan_id":"cebpf4jnsgd1na2vs0mg"},{"bike_id":"4d590f7c-ecb3-4b88-aff9-00130e062f2d","system_id":"levelo_inurba_marseille","lat":43.32752,"lon":5.39808,"is_reserved":false,"is_disabled":false,"rental_uris":{"android":"levelo://app?vid=4d590f7c-ecb3-4b88-aff9-00130e062f2d","ios":"levelo://app?vid=4d590f7c-ecb3-4b88-aff9-00130e062f2d"},"vehicle_type_id":"4","last_reported":1727280742,"current_range_meters":25200,"station_id":"","pricing_plan_id":"cebpf4jnsgd1na2vs0mg"},{"bike_id":"9e5aff06-9a5c-4200-ba13-4e10aa4e08c2","system_id":"levelo_inurba_marseille","lat":43.33713,"lon":5.39188,"is_reserved":false,"is_disabled":false,"rental_uris":{"android":"levelo://app?vid=9e5aff06-9a5c-4200-ba13-4e10aa4e08c2","ios":"levelo://app?vid=9e5aff06-9a5c-4200-ba13-4e10aa4e08c2"},"vehicle_type_id":"4","last_reported":1727280742,"current_range_meters":22000,"station_id":"ce4bhr92rcd13ifvqhsg","pricing_plan_id":"cebpf4jnsgd1na2vs0mg"},{"bike_id":"51f33ead-e33c-48c4-aaca-c5d9197a7a9a","system_id":"levelo_inurba_marseille","lat":43.33027,"lon":5.39044,"is_reserved":false,"is_disabled":false,"rental_uris":{"android":"levelo://app?vid=51f33ead-e33c-48c4-aaca-c5d9197a7a9a","ios":"levelo://app?vid=51f33ead-e33c-48c4-aaca-c5d9197a7a9a"},"vehicle_type_id":"4","last_reported":1727280742,"current_range_meters":9600,"station_id":"ce4bhr92rcd13ifvqhrg","pricing_plan_id":"cebpf4jnsgd1na2vs0mg"},{"bike_id":"88afd4ef-ba21-43e4-88e5-aef80c59fc76","system_id":"levelo_inurba_marseille","lat":43.299486,"lon":5.365392,"is_reserved":false,"is_disabled":false,"rental_uris":{"android":"levelo://app?vid=88afd4ef-ba21-43e4-88e5-aef80c59fc76","ios":"levelo://app?vid=88afd4ef-ba21-43e4-88e5-aef80c59fc76"},"vehicle_type_id":"4","last_reported":1727280742,"current_range_meters":39200,"station_id":"ce4bgs12rcd13ifvqcag","pricing_plan_id":"cebpf4jnsgd1na2vs0mg"},{"bike_id":"cf40aefd-02fb-4942-a68c-648182329ad4","system_id":"levelo_inurba_marseille","lat":43.290466,"lon":5.399695,"is_reserved":false,"is_disabled":false,"rental_uris":{"android":"levelo://app?vid=cf40aefd-02fb-4942-a68c-648182329ad4","ios":"levelo://app?vid=cf40aefd-02fb-4942-a68c-648182329ad4"},"vehicle_type_id":"4","last_reported":1727280742,"current_range_meters":32400,"station_id":"ce4bh392rcd13ifvqdm0","pricing_plan_id":"cebpf4jnsgd1na2vs0mg"},{"bike_id":"7c042f10-8b0e-4dfb-8a47-c6b947dd4829","system_id":"levelo_inurba_marseille","lat":43.27375,"lon":5.36255,"is_reserved":false,"is_disabled":false,"rental_uris":{"android":"levelo://app?vid=7c042f10-8b0e-4dfb-8a47-c6b947dd4829","ios":"levelo://app?vid=7c042f10-8b0e-4dfb-8a47-c6b947dd4829"},"vehicle_type_id":"4","last_reported":1727280742,"current_range_meters":6400,"station_id":"ce4bhbh2rcd13ifvqeo0","pricing_plan_id":"cebpf4jnsgd1na2vs0mg"},{"bike_id":"95dacbeb-92b4-49c1-b647-bbdd5b5f9bb0","system_id":"levelo_inurba_marseille","lat":43.33027,"lon":5.39039,"is_reserved":false,"is_disabled":false,"rental_uris":{"android":"levelo://app?vid=95dacbeb-92b4-49c1-b647-bbdd5b5f9bb0","ios":"levelo://app?vid=95dacbeb-92b4-49c1-b647-bbdd5b5f9bb0"},"vehicle_type_id":"4","last_reported":1727280742,"current_range_meters":22400,"station_id":"ce4bhr92rcd13ifvqhrg","pricing_plan_id":"cebpf4jnsgd1na2vs0mg"},{"bike_id":"e66daa56-34a5-48a7-ba89-eb646e718156","system_id":"levelo_inurba_marseille","lat":43.292618,"lon":5.384374,"is_reserved":false,"is_disabled":false,"rental_uris":{"android":"levelo://app?vid=e66daa56-34a5-48a7-ba89-eb646e718156","ios":"levelo://app?vid=e66daa56-34a5-48a7-ba89-eb646e718156"},"vehicle_type_id":"4","last_reported":1727280742,"current_range_meters":20400,"station_id":"ce4bh692rcd13ifvqea0","pricing_plan_id":"cebpf4jnsgd1na2vs0mg"},{"bike_id":"2708307d-2732-4d27-af7e-a0812e748359","system_id":"levelo_inurba_marseille","lat":43.287872,"lon":5.400276,"is_reserved":false,"is_disabled":false,"rental_uris":{"android":"levelo://app?vid=2708307d-2732-4d27-af7e-a0812e748359","ios":"levelo://app?vid=2708307d-2732-4d27-af7e-a0812e748359"},"vehicle_type_id":"4","last_reported":1727280742,"current_range_meters":13600,"station_id":"ce4bho92rcd13ifvqh3g","pricing_plan_id":"cebpf4jnsgd1na2vs0mg"},{"bike_id":"aea4597f-3dd7-43b9-870e-c8b136708668","system_id":"levelo_inurba_marseille","lat":43.28455,"lon":5.35899,"is_reserved":false,"is_disabled":false,"rental_uris":{"android":"levelo://app?vid=aea4597f-3dd7-43b9-870e-c8b136708668","ios":"levelo://app?vid=aea4597f-3dd7-43b9-870e-c8b136708668"},"vehicle_type_id":"4","last_reported":1727280742,"current_range_meters":39200,"station_id":"ce4bhah2rcd13ifvqei0","pricing_plan_id":"cebpf4jnsgd1na2vs0mg"},{"bike_id":"16a18ef1-2c00-44be-85f6-cf11351ba7dd","system_id":"levelo_inurba_marseille","lat":43.27565,"lon":5.3842,"is_reserved":false,"is_disabled":false,"rental_uris":{"android":"levelo://app?vid=16a18ef1-2c00-44be-85f6-cf11351ba7dd","ios":"levelo://app?vid=16a18ef1-2c00-44be-85f6-cf11351ba7dd"},"vehicle_type_id":"4","last_reported":1727280742,"current_range_meters":24400,"station_id":"ce4bhh92rcd13ifvqfi0","pricing_plan_id":"cebpf4jnsgd1na2vs0mg"},{"bike_id":"d2b1c6cb-276e-4065-a8b2-7cf0e7d6880e","system_id":"levelo_inurba_marseille","lat":43.28613,"lon":5.351,"is_reserved":false,"is_disabled":false,"rental_uris":{"android":"levelo://app?vid=d2b1c6cb-276e-4065-a8b2-7cf0e7d6880e","ios":"levelo://app?vid=d2b1c6cb-276e-4065-a8b2-7cf0e7d6880e"},"vehicle_type_id":"4","last_reported":1727280742,"current_range_meters":14800,"station_id":"ce4bhch2rcd13ifvqeug","pricing_plan_id":"cebpf4jnsgd1na2vs0mg"},{"bike_id":"a26358d5-f031-462f-a0b2-52ffe1b3b7a5","system_id":"levelo_inurba_marseille","lat":43.32112,"lon":5.36782,"is_reserved":false,"is_disabled":false,"rental_uris":{"android":"levelo://app?vid=a26358d5-f031-462f-a0b2-52ffe1b3b7a5","ios":"levelo://app?vid=a26358d5-f031-462f-a0b2-52ffe1b3b7a5"},"vehicle_type_id":"4","last_reported":1727280742,"current_range_meters":10800,"station_id":"ce4bhrh2rcd13ifvqhug","pricing_plan_id":"cebpf4jnsgd1na2vs0mg"},{"bike_id":"5a63347a-08d8-4b71-98f0-e075e577e1cb","system_id":"levelo_inurba_marseille","lat":43.23181,"lon":5.39994,"is_reserved":false,"is_disabled":false,"rental_uris":{"android":"levelo://app?vid=5a63347a-08d8-4b71-98f0-e075e577e1cb","ios":"levelo://app?vid=5a63347a-08d8-4b71-98f0-e075e577e1cb"},"vehicle_type_id":"4","last_reported":1727280742,"current_range_meters":24000,"station_id":"ce4bhn12rcd13ifvqgqg","pricing_plan_id":"cebpf4jnsgd1na2vs0mg"},{"bike_id":"0bc5a13a-a863-4d25-9fb8-a18a93347fe6","system_id":"levelo_inurba_marseille","lat":43.27175,"lon":5.40986,"is_reserved":false,"is_disabled":false,"rental_uris":{"android":"levelo://app?vid=0bc5a13a-a863-4d25-9fb8-a18a93347fe6","ios":"levelo://app?vid=0bc5a13a-a863-4d25-9fb8-a18a93347fe6"},"vehicle_type_id":"4","last_reported":1727280742,"current_range_meters":38800,"station_id":"ce4bhl12rcd13ifvqgf0","pricing_plan_id":"cebpf4jnsgd1na2vs0mg"},{"bike_id":"37684322-2c56-4edf-9476-7c5dd6827113","system_id":"levelo_inurba_marseille","lat":43.29031,"lon":5.38641,"is_reserved":false,"is_disabled":false,"rental_uris":{"android":"levelo://app?vid=37684322-2c56-4edf-9476-7c5dd6827113","ios":"levelo://app?vid=37684322-2c56-4edf-9476-7c5dd6827113"},"vehicle_type_id":"4","last_reported":1727280742,"current_range_meters":38800,"station_id":"ce4bh4p2rcd13ifvqe0g","pricing_plan_id":"cebpf4jnsgd1na2vs0mg"},{"bike_id":"f01d4af2-dbb9-4081-afac-6d99f38023b9","system_id":"levelo_inurba_marseille","lat":43.23189,"lon":5.35551,"is_reserved":false,"is_disabled":false,"rental_uris":{"android":"levelo://app?vid=f01d4af2-dbb9-4081-afac-6d99f38023b9","ios":"levelo://app?vid=f01d4af2-dbb9-4081-afac-6d99f38023b9"},"vehicle_type_id":"4","last_reported":1727280742,"current_range_meters":17600,"station_id":"ce4bhu92rcd13ifvqi70","pricing_plan_id":"cebpf4jnsgd1na2vs0mg"},{"bike_id":"0ef923d3-c4d8-41e4-bcbb-bbfc3334f7b0","system_id":"levelo_inurba_marseille","lat":43.26216,"lon":5.37444,"is_reserved":false,"is_disabled":false,"rental_uris":{"android":"levelo://app?vid=0ef923d3-c4d8-41e4-bcbb-bbfc3334f7b0","ios":"levelo://app?vid=0ef923d3-c4d8-41e4-bcbb-bbfc3334f7b0"},"vehicle_type_id":"4","last_reported":1727280742,"current_range_meters":20000,"station_id":"ce4bhgp2rcd13ifvqfc0","pricing_plan_id":"cebpf4jnsgd1na2vs0mg"},{"bike_id":"ca30dcc5-58c5-409b-b450-7b909faca855","system_id":"levelo_inurba_marseille","lat":43.30797,"lon":5.43528,"is_reserved":false,"is_disabled":false,"rental_uris":{"android":"levelo://app?vid=ca30dcc5-58c5-409b-b450-7b909faca855","ios":"levelo://app?vid=ca30dcc5-58c5-409b-b450-7b909faca855"},"vehicle_type_id":"4","last_reported":1727280742,"current_range_meters":3200,"station_id":"ce4bhph2rcd13ifvqheg","pricing_plan_id":"cebpf4jnsgd1na2vs0mg"},{"bike_id":"194a7d08-93a8-4688-bca6-7b415bb5f109","system_id":"levelo_inurba_marseille","lat":43.33016,"lon":5.390019,"is_reserved":false,"is_disabled":false,"rental_uris":{"android":"levelo://app?vid=194a7d08-93a8-4688-bca6-7b415bb5f109","ios":"levelo://app?vid=194a7d08-93a8-4688-bca6-7b415bb5f109"},"vehicle_type_id":"4","last_reported":1727280742,"current_range_meters":3600,"station_id":"ce4bhr92rcd13ifvqhrg","pricing_plan_id":"cebpf4jnsgd1na2vs0mg"},{"bike_id":"439f90a0-52f7-470b-a302-1f20310cbdd3","system_id":"levelo_inurba_marseille","lat":43.29895,"lon":5.43661,"is_reserved":false,"is_disabled":false,"rental_uris":{"android":"levelo://app?vid=439f90a0-52f7-470b-a302-1f20310cbdd3","ios":"levelo://app?vid=439f90a0-52f7-470b-a302-1f20310cbdd3"},"vehicle_type_id":"4","last_reported":1727280742,"current_range_meters":10800,"station_id":"ce4bhpp2rcd13ifvqhfg","pricing_plan_id":"cebpf4jnsgd1na2vs0mg"},{"bike_id":"d6c70636-3e4c-438c-972f-f8e42e44bac8","system_id":"levelo_inurba_marseille","lat":43.29927,"lon":5.36513,"is_reserved":false,"is_disabled":false,"rental_uris":{"android":"levelo://app?vid=d6c70636-3e4c-438c-972f-f8e42e44bac8","ios":"levelo://app?vid=d6c70636-3e4c-438c-972f-f8e42e44bac8"},"vehicle_type_id":"4","last_reported":1727280742,"current_range_meters":8400,"station_id":"ce4bgm92rcd13ifvqbr0","pricing_plan_id":"cebpf4jnsgd1na2vs0mg"},{"bike_id":"bc405045-9e4b-4202-8cda-eae866179435","system_id":"levelo_inurba_marseille","lat":43.31269,"lon":5.4017,"is_reserved":false,"is_disabled":false,"rental_uris":{"android":"levelo://app?vid=bc405045-9e4b-4202-8cda-eae866179435","ios":"levelo://app?vid=bc405045-9e4b-4202-8cda-eae866179435"},"vehicle_type_id":"4","last_reported":1727280742,"current_range_meters":38800,"station_id":"ce4bh092rcd13ifvqd30","pricing_plan_id":"cebpf4jnsgd1na2vs0mg"},{"bike_id":"608f13f4-3231-4ad5-8ab9-0737172e3c6b","system_id":"levelo_inurba_marseille","lat":43.30273,"lon":5.37709,"is_reserved":false,"is_disabled":false,"rental_uris":{"android":"levelo://app?vid=608f13f4-3231-4ad5-8ab9-0737172e3c6b","ios":"levelo://app?vid=608f13f4-3231-4ad5-8ab9-0737172e3c6b"},"vehicle_type_id":"4","last_reported":1727280742,"current_range_meters":27200,"station_id":"ce4bguh2rcd13ifvqcj0","pricing_plan_id":"cebpf4jnsgd1na2vs0mg"},{"bike_id":"557c7137-11e9-4254-ae0c-bfa5f0de478c","system_id":"levelo_inurba_marseille","lat":43.26057,"lon":5.39393,"is_reserved":false,"is_disabled":false,"rental_uris":{"android":"levelo://app?vid=557c7137-11e9-4254-ae0c-bfa5f0de478c","ios":"levelo://app?vid=557c7137-11e9-4254-ae0c-bfa5f0de478c"},"vehicle_type_id":"4","last_reported":1727280742,"current_range_meters":38800,"station_id":"ce4bhh92rcd13ifvqfj0","pricing_plan_id":"cebpf4jnsgd1na2vs0mg"},{"bike_id":"48fa482f-72a6-4805-accb-fdafcfc042aa","system_id":"levelo_inurba_marseille","lat":43.23182,"lon":5.39976,"is_reserved":false,"is_disabled":false,"rental_uris":{"android":"levelo://app?vid=48fa482f-72a6-4805-accb-fdafcfc042aa","ios":"levelo://app?vid=48fa482f-72a6-4805-accb-fdafcfc042aa"},"vehicle_type_id":"4","last_reported":1727280742,"current_range_meters":27600,"station_id":"ce4bhn12rcd13ifvqgqg","pricing_plan_id":"cebpf4jnsgd1na2vs0mg"},{"bike_id":"607e1521-6196-4196-a079-138b5967fa4b","system_id":"levelo_inurba_marseille","lat":43.23194,"lon":5.35556,"is_reserved":false,"is_disabled":false,"rental_uris":{"android":"levelo://app?vid=607e1521-6196-4196-a079-138b5967fa4b","ios":"levelo://app?vid=607e1521-6196-4196-a079-138b5967fa4b"},"vehicle_type_id":"4","last_reported":1727280742,"current_range_meters":9200,"station_id":"ce4bhu92rcd13ifvqi70","pricing_plan_id":"cebpf4jnsgd1na2vs0mg"},{"bike_id":"e6fec151-1dd5-4107-b46d-b4cb0a0f1c0d","system_id":"levelo_inurba_marseille","lat":43.28416,"lon":5.34985,"is_reserved":false,"is_disabled":false,"rental_uris":{"android":"levelo://app?vid=e6fec151-1dd5-4107-b46d-b4cb0a0f1c0d","ios":"levelo://app?vid=e6fec151-1dd5-4107-b46d-b4cb0a0f1c0d"},"vehicle_type_id":"4","last_reported":1727280742,"current_range_meters":38000,"station_id":"ce4bhbh2rcd13ifvqepg","pricing_plan_id":"cebpf4jnsgd1na2vs0mg"},{"bike_id":"21a77cae-53e7-4b6c-89f7-dcdbaa843134","system_id":"levelo_inurba_marseille","lat":43.31362,"lon":5.38487,"is_reserved":false,"is_disabled":false,"rental_uris":{"android":"levelo://app?vid=21a77cae-53e7-4b6c-89f7-dcdbaa843134","ios":"levelo://app?vid=21a77cae-53e7-4b6c-89f7-dcdbaa843134"},"vehicle_type_id":"4","last_reported":1727280742,"current_range_meters":10000,"station_id":"ce4bgt92rcd13ifvqcf0","pricing_plan_id":"cebpf4jnsgd1na2vs0mg"},{"bike_id":"349ddba3-7ba4-4f33-813a-876cffe6c5f4","system_id":"levelo_inurba_marseille","lat":43.32295,"lon":5.38274,"is_reserved":false,"is_disabled":false,"rental_uris":{"android":"levelo://app?vid=349ddba3-7ba4-4f33-813a-876cffe6c5f4","ios":"levelo://app?vid=349ddba3-7ba4-4f33-813a-876cffe6c5f4"},"vehicle_type_id":"4","last_reported":1727280742,"current_range_meters":7200,"station_id":"ce4bhr12rcd13ifvqhqg","pricing_plan_id":"cebpf4jnsgd1na2vs0mg"},{"bike_id":"f1e76387-7ee1-43b6-b061-874e7a39240c","system_id":"levelo_inurba_marseille","lat":43.22931,"lon":5.35373,"is_reserved":false,"is_disabled":false,"rental_uris":{"android":"levelo://app?vid=f1e76387-7ee1-43b6-b061-874e7a39240c","ios":"levelo://app?vid=f1e76387-7ee1-43b6-b061-874e7a39240c"},"vehicle_type_id":"4","last_reported":1727280742,"current_range_meters":20400,"station_id":"cpo3532slgdg3j2ikp40","pricing_plan_id":"cebpf4jnsgd1na2vs0mg"},{"bike_id":"7a4886a0-4521-4811-9f8f-cd7ee8b81a2c","system_id":"levelo_inurba_marseille","lat":43.31332,"lon":5.39686,"is_reserved":false,"is_disabled":false,"rental_uris":{"android":"levelo://app?vid=7a4886a0-4521-4811-9f8f-cd7ee8b81a2c","ios":"levelo://app?vid=7a4886a0-4521-4811-9f8f-cd7ee8b81a2c"},"vehicle_type_id":"4","last_reported":1727280742,"current_range_meters":19600,"station_id":"ce4bgvp2rcd13ifvqcu0","pricing_plan_id":"cebpf4jnsgd1na2vs0mg"},{"bike_id":"fc432755-3f42-4b00-963b-86cd66e7feb0","system_id":"levelo_inurba_marseille","lat":43.31482,"lon":5.37309,"is_reserved":false,"is_disabled":false,"rental_uris":{"android":"levelo://app?vid=fc432755-3f42-4b00-963b-86cd66e7feb0","ios":"levelo://app?vid=fc432755-3f42-4b00-963b-86cd66e7feb0"},"vehicle_type_id":"4","last_reported":1727280742,"current_range_meters":16800,"station_id":"ce4bgt12rcd13ifvqcd0","pricing_plan_id":"cebpf4jnsgd1na2vs0mg"},{"bike_id":"6aa0e10d-f31d-4468-8b55-98bcb6711872","system_id":"levelo_inurba_marseille","lat":43.31757,"lon":5.39019,"is_reserved":false,"is_disabled":false,"rental_uris":{"android":"levelo://app?vid=6aa0e10d-f31d-4468-8b55-98bcb6711872","ios":"levelo://app?vid=6aa0e10d-f31d-4468-8b55-98bcb6711872"},"vehicle_type_id":"4","last_reported":1727280742,"current_range_meters":26000,"station_id":"ce4bhqp2rcd13ifvqhng","pricing_plan_id":"cebpf4jnsgd1na2vs0mg"},{"bike_id":"f7cf588b-de59-48e4-ab90-008232c9e2f0","system_id":"levelo_inurba_marseille","lat":43.29058,"lon":5.35907,"is_reserved":false,"is_disabled":false,"rental_uris":{"android":"levelo://app?vid=f7cf588b-de59-48e4-ab90-008232c9e2f0","ios":"levelo://app?vid=f7cf588b-de59-48e4-ab90-008232c9e2f0"},"vehicle_type_id":"4","last_reported":1727280742,"current_range_meters":20000,"station_id":"ce4bha92rcd13ifvqeg0","pricing_plan_id":"cebpf4jnsgd1na2vs0mg"},{"bike_id":"9b05babb-7d8e-4a19-bfc0-90252f65e330","system_id":"levelo_inurba_marseille","lat":43.28161,"lon":5.42633,"is_reserved":false,"is_disabled":false,"rental_uris":{"android":"levelo://app?vid=9b05babb-7d8e-4a19-bfc0-90252f65e330","ios":"levelo://app?vid=9b05babb-7d8e-4a19-bfc0-90252f65e330"},"vehicle_type_id":"4","last_reported":1727280742,"current_range_meters":13600,"station_id":"ce4bhnh2rcd13ifvqgug","pricing_plan_id":"cebpf4jnsgd1na2vs0mg"},{"bike_id":"43743f1f-6422-4e62-87b3-dcc7330e3023","system_id":"levelo_inurba_marseille","lat":43.29439,"lon":5.39759,"is_reserved":false,"is_disabled":false,"rental_uris":{"android":"levelo://app?vid=43743f1f-6422-4e62-87b3-dcc7330e3023","ios":"levelo://app?vid=43743f1f-6422-4e62-87b3-dcc7330e3023"},"vehicle_type_id":"4","last_reported":1727280742,"current_range_meters":36800,"station_id":"ce4bh3h2rcd13ifvqdo0","pricing_plan_id":"cebpf4jnsgd1na2vs0mg"},