{"last_updated":1769005200,"ttl":60,"version":"2.2","data":{"bikes":[{"bike_id":"02fd6b95-e666-4086-9189-a1ebcb7008ba","system_id":"levelo_inurba_marseille","lat":43.29593,"lon":5.36739,"is_reserved":false,"is_disabled":false,"rental_uris":{"android":"levelo://app?vid=02fd6b95-e666-4086-9189-a1ebcb7008ba","ios":"levelo://app?vid=02fd6b95-e666-4086-9189-a1ebcb7008ba"},"vehicle_type_id":"4","last_reported":1769005201,"current_range_meters":2800,"station_id":"ce4bgph2rcd13ifvqc2g","pricing_plan_id":"cebpf4jnsgd1na2vs0mg"},{"bike_id":"0426f411-ffb7-4f16-8af4-2593ecb6f8c9","system_id":"levelo_inurba_marseille","lat":43.29911,"lon":5.38147,"is_reserved":false,"is_disabled":false,"rental_uris":{"android":"levelo://app?vid=0426f411-ffb7-4f16-8af4-2593ecb6f8c9","ios":"levelo://app?vid=0426f411-ffb7-4f16-8af4-2593ecb6f8c9"},"vehicle_type_id":"4","last_reported":1769005201,"current_range_meters":2800,"station_id":"ce4bgj12rcd13ifvqbc0","pricing_plan_id":"cebpf4jnsgd1na2vs0mg"},{"bike_id":"91147db9-89a8-4770-9f91-88ba95d0f3a4","system_id":"levelo_inurba_marseille","lat":43.32487,"lon":5.36581,"is_reserved":false,"is_disabled":false,"rental_uris":{"android":"levelo://app?vid=91147db9-89a8-4770-9f91-88ba95d0f3a4","ios":"levelo://app?vid=91147db9-89a8-4770-9f91-88ba95d0f3a4"},"vehicle_type_id":"4","last_reported":1769005201,"current_range_meters":2800,"station_id":"ce4bhs12rcd13ifvqhvg","pricing_plan_id":"cebpf4jnsgd1na2vs0mg"},{"bike_id":"a89da980-36be-4958-9aa0-4e1f42aab655","system_id":"levelo_inurba_marseille","lat":43.24994,"lon":5.38953,"is_reserved":false,"is_disabled":false,"rental_uris":{"android":"levelo://app?vid=a89da980-36be-4958-9aa0-4e1f42aab655","ios":"levelo://app?vid=a89da980-36be-4958-9aa0-4e1f42aab655"},"vehicle_type_id":"4","last_reported":1769005201,"current_range_meters":2800,"station_id":"ce4bhgp2rcd13ifvqfd0","pricing_plan_id":"cebpf4jnsgd1na2vs0mg"},{"bike_id":"4d9fb050-4361-4bab-ba3c-960b4264587c","system_id":"levelo_inurba_marseille","lat":43.33056,"lon":5.396,"is_reserved":false,"is_disabled":false,"rental_uris":{"android":"levelo://app?vid=4d9fb050-4361-4bab-ba3c-960b4264587c","ios":"levelo://app?vid=4d9fb050-4361-4bab-ba3c-960b4264587c"},"vehicle_type_id":"4","last_reported":1769005201,"current_range_meters":2800,"station_id":"","pricing_plan_id":"cebpf4jnsgd1na2vs0mg"},{"bike_id":"0d29d4c9-95a8-47dd-b130-0b89ff1f9b9b","system_id":"levelo_inurba_marseille","lat":43.24169,"lon":5.36438,"is_reserved":false,"is_disabled":false,"rental_uris":{"android":"levelo://app?vid=0d29d4c9-95a8-47dd-b130-0b89ff1f9b9b","ios":"levelo://app?vid=0d29d4c9-95a8-47dd-b130-0b89ff1f9b9b"},"vehicle_type_id":"4","last_reported":1769005201,"current_range_meters":2800,"station_id":"cpo36qri1sfpv3e86is0","pricing_plan_id":"cebpf4jnsgd1na2vs0mg"},{"bike_id":"9f1f7870-6657-49b4-805f-362b36e89ae8","system_id":"levelo_inurba_marseille","lat":43.27799,"lon":5.40693,"is_reserved":false,"is_disabled":false,"rental_uris":{"android":"levelo://app?vid=9f1f7870-6657-49b4-805f-362b36e89ae8","ios":"levelo://app?vid=9f1f7870-6657-49b4-805f-362b36e89ae8"},"vehicle_type_id":"4","last_reported":1769005201,"current_range_meters":2800,"station_id":"ce4bhnh2rcd13ifvqgtg","pricing_plan_id":"cebpf4jnsgd1na2vs0mg"},{"bike_id":"5ead34b6-8dda-4ea6-bae5-f0c3e2431c01","system_id":"levelo_inurba_marseille","lat":43.26694,"lon":5.38265,"is_reserved":false,"is_disabled":false,"rental_uris":{"android":"levelo://app?vid=5ead34b6-8dda-4ea6-bae5-f0c3e2431c01","ios":"levelo://app?vid=5ead34b6-8dda-4ea6-bae5-f0c3e2431c01"},"vehicle_type_id":"4","last_reported":1769005201,"current_range_meters":2800,"station_id":"ce4bhg92rcd13ifvqf90","pricing_plan_id":"cebpf4jnsgd1na2vs0mg"},{"bike_id":"5d6ec190-4e3f-4728-8145-239caf53150f","system_id":"levelo_inurba_marseille","lat":43.30684,"lon":5.40292,"is_reserved":false,"is_disabled":false,"rental_uris":{"android":"levelo://app?vid=5d6ec190-4e3f-4728-8145-239caf53150f","ios":"levelo://app?vid=5d6ec190-4e3f-4728-8145-239caf53150f"},"vehicle_type_id":"4","last_reported":1769005201,"current_range_meters":2800,"station_id":"","pricing_plan_id":"cebpf4jnsgd1na2vs0mg"},{"bike_id":"31096d93-1491-4886-84da-d02432ca2a62","system_id":"levelo_inurba_marseille","lat":43.24164,"lon":5.36379,"is_reserved":false,"is_disabled":false,"rental_uris":{"android":"levelo://app?vid=31096d93-1491-4886-84da-d02432ca2a62","ios":"levelo://app?vid=31096d93-1491-4886-84da-d02432ca2a62"},"vehicle_type_id":"4","last_reported":1769005201,"current_range_meters":2800,"station_id":"cpo36qri1sfpv3e86is0","pricing_plan_id":"cebpf4jnsgd1na2vs0mg"},{"bike_id":"f9c756b7-6ab4-4842-b242-46f06e32e85d","system_id":"levelo_inurba_marseille","lat":43.27994,"lon":5.40021,"is_reserved":false,"is_disabled":false,"rental_uris":{"android":"levelo://app?vid=f9c756b7-6ab4-4842-b242-46f06e32e85d","ios":"levelo://app?vid=f9c756b7-6ab4-4842-b242-46f06e32e85d"},"vehicle_type_id":"4","last_reported":1769005201,"current_range_meters":3200,"station_id":"ce4bho92rcd13ifvqh4g","pricing_plan_id":"cebpf4jnsgd1na2vs0mg"},{"bike_id":"c90f8d49-c464-4abb-b50f-a6f2833250ba","system_id":"levelo_inurba_marseille","lat":43.26076,"lon":5.39378,"is_reserved":false,"is_disabled":false,"rental_uris":{"android":"levelo://app?vid=c90f8d49-c464-4abb-b50f-a6f2833250ba","ios":"levelo://app?vid=c90f8d49-c464-4abb-b50f-a6f2833250ba"},"vehicle_type_id":"4","last_reported":1769005201,"current_range_meters":3200,"station_id":"ce4bhh92rcd13ifvqfj0","pricing_plan_id":"cebpf4jnsgd1na2vs0mg"},{"bike_id":"fbbedfeb-5767-4a40-9eeb-fb558ba05242","system_id":"levelo_inurba_marseille","lat":43.25022,"lon":5.38937,"is_reserved":false,"is_disabled":false,"rental_uris":{"android":"levelo://app?vid=fbbedfeb-5767-4a40-9eeb-fb558ba05242","ios":"levelo://app?vid=fbbedfeb-5767-4a40-9eeb-fb558ba05242"},"vehicle_type_id":"4","last_reported":1769005201,"current_range_meters":3200,"station_id":"ce4bhgp2rcd13ifvqfd0","pricing_plan_id":"cebpf4jnsgd1na2vs0mg"},{"bike_id":"448507df-9b8e-42f4-b669-b3de1a2aee68","system_id":"levelo_inurba_marseille","lat":43.27206,"lon":5.39196,"is_reserved":false,"is_disabled":false,"rental_uris":{"android":"levelo://app?vid=448507df-9b8e-42f4-b669-b3de1a2aee68","ios":"levelo://app?vid=448507df-9b8e-42f4-b669-b3de1a2aee68"},"vehicle_type_id":"4","last_reported":1769005201,"current_range_meters":3200,"station_id":"ce4bhhp2rcd13ifvqfm0","pricing_plan_id":"cebpf4jnsgd1na2vs0mg"},{"bike_id":"8794cdb3-b07a-4a6a-b8a7-d49e68bcc2e0","system_id":"levelo_inurba_marseille","lat":43.27819,"lon":5.40713,"is_reserved":false,"is_disabled":false,"rental_uris":{"android":"levelo://app?vid=8794cdb3-b07a-4a6a-b8a7-d49e68bcc2e0","ios":"levelo://app?vid=8794cdb3-b07a-4a6a-b8a7-d49e68bcc2e0"},"vehicle_type_id":"4","last_reported":1769005201,"current_range_meters":3200,"station_id":"ce4bhnh2rcd13ifvqgtg","pricing_plan_id":"cebpf4jnsgd1na2vs0mg"},{"bike_id":"52c85b02-607c-4226-bd7b-fd246dd2dae8","system_id":"levelo_inurba_marseille","lat":43.22563,"lon":5.41621,"is_reserved":false,"is_disabled":false,"rental_uris":{"android":"levelo://app?vid=52c85b02-607c-4226-bd7b-fd246dd2dae8","ios":"levelo://app?vid=52c85b02-607c-4226-bd7b-fd246dd2dae8"},"vehicle_type_id":"4","last_reported":1769005201,"current_range_meters":3200,"station_id":"st_d2o4gvlbi1j2169b742g","pricing_plan_id":"cebpf4jnsgd1na2vs0mg"},{"bike_id":"52a8e2dc-a331-438b-8cd8-653c6d5644ae","system_id":"levelo_inurba_marseille","lat":43.27938,"lon":5.38307,"is_reserved":false,"is_disabled":false,"rental_uris":{"android":"levelo://app?vid=52a8e2dc-a331-438b-8cd8-653c6d5644ae","ios":"levelo://app?vid=52a8e2dc-a331-438b-8cd8-653c6d5644ae"},"vehicle_type_id":"4","last_reported":1769005201,"current_range_meters":3200,"station_id":"","pricing_plan_id":"cebpf4jnsgd1na2vs0mg"},{"bike_id":"4730ac5c-64de-49aa-82c1-159fded22752","system_id":"levelo_inurba_marseille","lat":43.24641,"lon":5.43134,"is_reserved":false,"is_disabled":false,"rental_uris":{"android":"levelo://app?vid=4730ac5c-64de-49aa-82c1-159fded22752","ios":"levelo://app?vid=4730ac5c-64de-49aa-82c1-159fded22752"},"vehicle_type_id":"4","last_reported":1769005201,"current_range_meters":3200,"station_id":"st_d2m6c4gdas8pm72e190g","pricing_plan_id":"cebpf4jnsgd1na2vs0mg"},{"bike_id":"ad473098-59c2-4c8e-8fd2-dd511975eb09","system_id":"levelo_inurba_marseille","lat":43.217394,"lon":5.346026,"is_reserved":false,"is_disabled":true,"rental_uris":{"android":"levelo://app?vid=ad473098-59c2-4c8e-8fd2-dd511975eb09","ios":"levelo://app?vid=ad473098-59c2-4c8e-8fd2-dd511975eb09"},"vehicle_type_id":"4","last_reported":1769005201,"current_range_meters":3200,"station_id":"","pricing_plan_id":"cebpf4jnsgd1na2vs0mg"},{"bike_id":"0ae0c424-4870-4f29-924b-113ac342310d","system_id":"levelo_inurba_marseille","lat":43.27958,"lon":5.41039,"is_reserved":false,"is_disabled":false,"rental_uris":{"android":"levelo://app?vid=0ae0c424-4870-4f29-924b-113ac342310d","ios":"levelo://app?vid=0ae0c424-4870-4f29-924b-113ac342310d"},"vehicle_type_id":"4","last_reported":1769005201,"current_range_meters":3200,"station_id":"ce4bhnp2rcd13ifvqh0g","pricing_plan_id":"cebpf4jnsgd1na2vs0mg"},{"bike_id":"ce65da15-5103-4c08-86e5-b4783ea2b238","system_id":"levelo_inurba_marseille","lat":43.29313,"lon":5.37181,"is_reserved":false,"is_disabled":false,"rental_uris":{"android":"levelo://app?vid=ce65da15-5103-4c08-86e5-b4783ea2b238","ios":"levelo://app?vid=ce65da15-5103-4c08-86e5-b4783ea2b238"},"vehicle_type_id":"4","last_reported":1769005201,"current_range_meters":3200,"station_id":"ce4bgh92rcd13ifvqb40","pricing_plan_id":"cebpf4jnsgd1na2vs0mg"},{"bike_id":"9dff9bae-d519-49ab-850f-a6b93762d1fc","system_id":"levelo_inurba_marseille","lat":43.25333,"lon":5.42158,"is_reserved":false,"is_disabled":false,"rental_uris":{"android":"levelo://app?vid=9dff9bae-d519-49ab-850f-a6b93762d1fc","ios":"levelo://app?vid=9dff9bae-d519-49ab-850f-a6b93762d1fc"},"vehicle_type_id":"4","last_reported":1769005201,"current_range_meters":3200,"station_id":"st_d2m65c5bi1j21697t3ng","pricing_plan_id":"cebpf4jnsgd1na2vs0mg"},{"bike_id":"0180ed05-16b3-4f01-9ad9-a8521b87417b","system_id":"levelo_inurba_marseille","lat":43.29984,"lon":5.37174,"is_reserved":false,"is_disabled":false,"rental_uris":{"android":"levelo://app?vid=0180ed05-16b3-4f01-9ad9-a8521b87417b","ios":"levelo://app?vid=0180ed05-16b3-4f01-9ad9-a8521b87417b"},"vehicle_type_id":"4","last_reported":1769005201,"current_range_meters":3600,"station_id":"ce4bgr92rcd13ifvqc7g","pricing_plan_id":"cebpf4jnsgd1na2vs0mg"},{"bike_id":"ca9c9398-a88a-4707-b404-30d4e347be78","system_id":"levelo_inurba_marseille","lat":43.32104,"lon":5.36756,"is_reserved":false,"is_disabled":false,"rental_uris":{"android":"levelo://app?vid=ca9c9398-a88a-4707-b404-30d4e347be78","ios":"levelo://app?vid=ca9c9398-a88a-4707-b404-30d4e347be78"},"vehicle_type_id":"4","last_reported":1769005201,"current_range_meters":3600,"station_id":"ce4bhrh2rcd13ifvqhug","pricing_plan_id":"cebpf4jnsgd1na2vs0mg"},{"bike_id":"b3e3a655-44a1-42f9-a5d1-8403f099fa55","system_id":"levelo_inurba_marseille","lat":43.28415,"lon":5.34984,"is_reserved":false,"is_disabled":false,"rental_uris":{"android":"levelo://app?vid=b3e3a655-44a1-42f9-a5d1-8403f099fa55","ios":"levelo://app?vid=b3e3a655-44a1-42f9-a5d1-8403f099fa55"},"vehicle_type_id":"4","last_reported":1769005201,"current_range_meters":3600,"station_id":"ce4bhbh2rcd13ifvqepg","pricing_plan_id":"cebpf4jnsgd1na2vs0mg"},{"bike_id":"2b6eb7af-58c1-45d6-ae44-32b95f6a9288","system_id":"levelo_inurba_marseille","lat":43.29636,"lon":5.406,"is_reserved":false,"is_disabled":false,"rental_uris":{"android":"levelo://app?vid=2b6eb7af-58c1-45d6-ae44-32b95f6a9288","ios":"levelo://app?vid=2b6eb7af-58c1-45d6-ae44-32b95f6a9288"},"vehicle_type_id":"4","last_reported":1769005201,"current_range_meters":3600,"station_id":"ce4bh0h2rcd13ifvqd60","pricing_plan_id":"cebpf4jnsgd1na2vs0mg"},{"bike_id":"f58dc067-4dd9-4635-8ae5-365aced9c977","system_id":"levelo_inurba_marseille","lat":43.26219,"lon":5.40449,"is_reserved":false,"is_disabled":false,"rental_uris":{"android":"levelo://app?vid=f58dc067-4dd9-4635-8ae5-365aced9c977","ios":"levelo://app?vid=f58dc067-4dd9-4635-8ae5-365aced9c977"},"vehicle_type_id":"4","last_reported":1769005201,"current_range_meters":3600,"station_id":"ce4bhmh2rcd13ifvqgmg","pricing_plan_id":"cebpf4jnsgd1na2vs0mg"},{"bike_id":"d2cb0070-0422-466b-b462-1892f78475a2","system_id":"levelo_inurba_marseille","lat":43.22935,"lon":5.35408,"is_reserved":false,"is_disabled":true,"rental_uris":{"android":"levelo://app?vid=d2cb0070-0422-466b-b462-1892f78475a2","ios":"levelo://app?vid=d2cb0070-0422-466b-b462-1892f78475a2"},"vehicle_type_id":"4","last_reported":1769005201,"current_range_meters":3600,"station_id":"cpo3532slgdg3j2ikp40","pricing_plan_id":"cebpf4jnsgd1na2vs0mg"},{"bike_id":"10483c0a-1726-407f-8492-2530493c0d67","system_id":"levelo_inurba_marseille","lat":43.25015,"lon":5.38913,"is_reserved":false,"is_disabled":false,"rental_uris":{"android":"levelo://app?vid=10483c0a-1726-407f-8492-2530493c0d67","ios":"levelo://app?vid=10483c0a-1726-407f-8492-2530493c0d67"},"vehicle_type_id":"4","last_reported":1769005201,"current_range_meters":3600,"station_id":"ce4bhgp2rcd13ifvqfd0","pricing_plan_id":"cebpf4jnsgd1na2vs0mg"},{"bike_id":"ab8f0e9e-82c0-4cd4-ae4a-73fe86db6b63","system_id":"levelo_inurba_marseille","lat":43.30178,"lon":5.38076,"is_reserved":false,"is_disabled":false,"rental_uris":{"android":"levelo://app?vid=ab8f0e9e-82c0-4cd4-ae4a-73fe86db6b63","ios":"levelo://app?vid=ab8f0e9e-82c0-4cd4-ae4a-73fe86db6b63"},"vehicle_type_id":"4","last_reported":1769005201,"current_range_meters":3600,"station_id":"ce4bgjp2rcd13ifvqbh0","pricing_plan_id":"cebpf4jnsgd1na2vs0mg"},{"bike_id":"5d8d5d3f-1fe4-4527-8d1b-a00bfbbe312f","system_id":"levelo_inurba_marseille","lat":43.243909,"lon":5.37069,"is_reserved":false,"is_disabled":false,"rental_uris":{"android":"levelo://app?vid=5d8d5d3f-1fe4-4527-8d1b-a00bfbbe312f","ios":"levelo://app?vid=5d8d5d3f-1fe4-4527-8d1b-a00bfbbe312f"},"vehicle_type_id":"4","last_reported":1769005201,"current_range_meters":3600,"station_id":"ce4bhhh2rcd13ifvqfk0","pricing_plan_id":"cebpf4jnsgd1na2vs0mg"},{"bike_id":"5c5d8eba-7ee4-4e8f-8c15-5f2384fc7801","system_id":"levelo_inurba_marseille","lat":43.2993,"lon":5.36513,"is_reserved":false,"is_disabled":false,"rental_uris":{"android":"levelo://app?vid=5c5d8eba-7ee4-4e8f-8c15-5f2384fc7801","ios":"levelo://app?vid=5c5d8eba-7ee4-4e8f-8c15-5f2384fc7801"},"vehicle_type_id":"4","last_reported":1769005201,"current_range_meters":3600,"station_id":"ce4bgm92rcd13ifvqbr0","pricing_plan_id":"cebpf4jnsgd1na2vs0mg"},{"bike_id":"45af3b29-317d-4d28-9c11-b2304d336e56","system_id":"levelo_inurba_marseille","lat":43.25001,"lon":5.38929,"is_reserved":false,"is_disabled":false,"rental_uris":{"android":"levelo://app?vid=45af3b29-317d-4d28-9c11-b2304d336e56","ios":"levelo://app?vid=45af3b29-317d-4d28-9c11-b2304d336e56"},"vehicle_type_id":"4","last_reported":1769005201,"current_range_meters":3600,"station_id":"ce4bhgp2rcd13ifvqfd0","pricing_plan_id":"cebpf4jnsgd1na2vs0mg"},{"bike_id":"05445378-8a5d-473e-a02e-3796d63a29c8","system_id":"levelo_inurba_marseille","lat":43.26382,"lon":5.41061,"is_reserved":false,"is_disabled":false,"rental_uris":{"android":"levelo://app?vid=05445378-8a5d-473e-a02e-3796d63a29c8","ios":"levelo://app?vid=05445378-8a5d-473e-a02e-3796d63a29c8"},"vehicle_type_id":"4","last_reported":1769005201,"current_range_meters":3600,"station_id":"st_d4e5ca6na9uc73bfl5fg","pricing_plan_id":"cebpf4jnsgd1na2vs0mg"},{"bike_id":"fc837e99-cb3a-4a0c-b355-f3644a441cfa","system_id":"levelo_inurba_marseille","lat":43.296353,"lon":5.371739,"is_reserved":false,"is_disabled":false,"rental_uris":{"android":"levelo://app?vid=fc837e99-cb3a-4a0c-b355-f3644a441cfa","ios":"levelo://app?vid=fc837e99-cb3a-4a0c-b355-f3644a441cfa"},"vehicle_type_id":"4","last_reported":1769005201,"current_range_meters":4000,"station_id":"ce4bgnh2rcd13ifvqc0g","pricing_plan_id":"cebpf4jnsgd1na2vs0mg"},{"bike_id":"a3e2caaf-f379-45ac-a2b8-d61c1da080dd","system_id":"levelo_inurba_marseille","lat":43.32488,"lon":5.3828,"is_reserved":false,"is_disabled":false,"rental_uris":{"android":"levelo://app?vid=a3e2caaf-f379-45ac-a2b8-d61c1da080dd","ios":"levelo://app?vid=a3e2caaf-f379-45ac-a2b8-d61c1da080dd"},"vehicle_type_id":"4","last_reported":1769005201,"current_range_meters":4000,"station_id":"st_d4asgbiv49dc73anf9m0","pricing_plan_id":"cebpf4jnsgd1na2vs0mg"},{"bike_id":"36d5dc57-c991-4b46-b209-ebe4525537c8","system_id":"levelo_inurba_marseille","lat":43.29569,"lon":5.37513,"is_reserved":false,"is_disabled":false,"rental_uris":{"android":"levelo://app?vid=36d5dc57-c991-4b46-b209-ebe4525537c8","ios":"levelo://app?vid=36d5dc57-c991-4b46-b209-ebe4525537c8"},"vehicle_type_id":"4","last_reported":1769005201,"current_range_meters":4000,"station_id":"ce4bgh92rcd13ifvqb50","pricing_plan_id":"cebpf4jnsgd1na2vs0mg"},{"bike_id":"250cf0f1-a102-4d3e-96a8-632ac30637ee","system_id":"levelo_inurba_marseille","lat":43.26562,"lon":5.39008,"is_reserved":false,"is_disabled":false,"rental_uris":{"android":"levelo://app?vid=250cf0f1-a102-4d3e-96a8-632ac30637ee","ios":"levelo://app?vid=250cf0f1-a102-4d3e-96a8-632ac30637ee"},"vehicle_type_id":"4","last_reported":1769005201,"current_range_meters":4000,"station_id":"ce4bhe12rcd13ifvqf30","pricing_plan_id":"cebpf4jnsgd1na2vs0mg"},{"bike_id":"5254f3bd-ded5-4cb8-919f-5c85c8b507e5","system_id":"levelo_inurba_marseille","lat":43.27924,"lon":5.39583,"is_reserved":false,"is_disabled":true,"rental_uris":{"android":"levelo://app?vid=5254f3bd-ded5-4cb8-919f-5c85c8b507e5","ios":"levelo://app?vid=5254f3bd-ded5-4cb8-919f-5c85c8b507e5"},"vehicle_type_id":"4","last_reported":1769005201,"current_range_meters":4000,"station_id":"ce4bhf92rcd13ifvqf40","pricing_plan_id":"cebpf4jnsgd1na2vs0mg"},{"bike_id":"56aebe64-5e14-40af-99f2-62c233e94a99","system_id":"levelo_inurba_marseille","lat":43.29734,"lon":5.3872,"is_reserved":false,"is_disabled":false,"rental_uris":{"android":"levelo://app?vid=56aebe64-5e14-40af-99f2-62c233e94a99","ios":"levelo://app?vid=56aebe64-5e14-40af-99f2-62c233e94a99"},"vehicle_type_id":"4","last_reported":1769005201,"current_range_meters":4000,"station_id":"","pricing_plan_id":"cebpf4jnsgd1na2vs0mg"},{"bike_id":"35eb0f0f-42a8-4fd5-956e-bec6aa3f7ee3","system_id":"levelo_inurba_marseille","lat":43.231788,"lon":5.399988,"is_reserved":false,"is_disabled":false,"rental_uris":{"android":"levelo://app?vid=35eb0f0f-42a8-4fd5-956e-bec6aa3f7ee3","ios":"levelo://app?vid=35eb0f0f-42a8-4fd5-956e-bec6aa3f7ee3"},"vehicle_type_id":"4","last_reported":1769005201,"current_range_meters":4000,"station_id":"ce4bhn12rcd13ifvqgqg","pricing_plan_id":"cebpf4jnsgd1na2vs0mg"},{"bike_id":"ae82840e-6713-4278-be7e-382935799675","system_id":"levelo_inurba_marseille","lat":43.32347,"lon":5.38523,"is_reserved":false,"is_disabled":false,"rental_uris":{"android":"levelo://app?vid=ae82840e-6713-4278-be7e-382935799675","ios":"levelo://app?vid=ae82840e-6713-4278-be7e-382935799675"},"vehicle_type_id":"4","last_reported":1769005201,"current_range_meters":4000,"station_id":"st_d45171o9ee8s73djdqug","pricing_plan_id":"cebpf4jnsgd1na2vs0mg"},{"bike_id":"8155f86b-6d64-4287-9ed7-7fbe9d103dde","system_id":"levelo_inurba_marseille","lat":43.22564,"lon":5.41606,"is_reserved":false,"is_disabled":false,"rental_uris":{"android":"levelo://app?vid=8155f86b-6d64-4287-9ed7-7fbe9d103dde","ios":"levelo://app?vid=8155f86b-6d64-4287-9ed7-7fbe9d103dde"},"vehicle_type_id":"4","last_reported":1769005201,"current_range_meters":4000,"station_id":"st_d2o4gvlbi1j2169b742g","pricing_plan_id":"cebpf4jnsgd1na2vs0mg"},{"bike_id":"4b68c0f2-a098-4371-9aa9-73b5399ef6fa","system_id":"levelo_inurba_marseille","lat":43.2558,"lon":5.38218,"is_reserved":false,"is_disabled":false,"rental_uris":{"android":"levelo://app?vid=4b68c0f2-a098-4371-9aa9-73b5399ef6fa","ios":"levelo://app?vid=4b68c0f2-a098-4371-9aa9-73b5399ef6fa"},"vehicle_type_id":"4","last_reported":1769005201,"current_range_meters":4000,"station_id":"ce4bhih2rcd13ifvqfs0","pricing_plan_id":"cebpf4jnsgd1na2vs0mg"},{"bike_id":"c9632c24-d4ba-453f-a643-952c5a012a8a","system_id":"levelo_inurba_marseille","lat":43.22569,"lon":5.41631,"is_reserved":false,"is_disabled":false,"rental_uris":{"android":"levelo://app?vid=c9632c24-d4ba-453f-a643-952c5a012a8a","ios":"levelo://app?vid=c9632c24-d4ba-453f-a643-952c5a012a8a"},"vehicle_type_id":"4","last_reported":1769005201,"current_range_meters":4400,"station_id":"st_d2o4gvlbi1j2169b742g","pricing_plan_id":"cebpf4jnsgd1na2vs0mg"},{"bike_id":"04d1fa74-7078-4e54-86c0-c9d3f7b08c45","system_id":"levelo_inurba_marseille","lat":43.25586,"lon":5.38212,"is_reserved":false,"is_disabled":false,"rental_uris":{"android":"levelo://app?vid=04d1fa74-7078-4e54-86c0-c9d3f7b08c45","ios":"levelo://app?vid=04d1fa74-7078-4e54-86c0-c9d3f7b08c45"},"vehicle_type_id":"4","last_reported":1769005201,"current_range_meters":4400,"station_id":"ce4bhih2rcd13ifvqfs0","pricing_plan_id":"cebpf4jnsgd1na2vs0mg"},{"bike_id":"8877b14a-e560-432d-808c-4ad1eeb2a14d","system_id":"levelo_inurba_marseille","lat":43.284994,"lon":5.384032,"is_reserved":false,"is_disabled":false,"rental_uris":{"android":"levelo://app?vid=8877b14a-e560-432d-808c-4ad1eeb2a14d","ios":"levelo://app?vid=8877b14a-e560-432d-808c-4ad1eeb2a14d"},"vehicle_type_id":"4","last_reported":1769005201,"current_range_meters":4400,"station_id":"cki0cbj6b192h4jlfktg","pricing_plan_id":"cebpf4jnsgd1na2vs0mg"},{"bike_id":"58c86cda-37fa-4bb7-99c8-a0d3d347375f","system_id":"levelo_inurba_marseille","lat":43.29284,"lon":5.40148,"is_reserved":false,"is_disabled":false,"rental_uris":{"android":"levelo://app?vid=58c86cda-37fa-4bb7-99c8-a0d3d347375f","ios":"levelo://app?vid=58c86cda-37fa-4bb7-99c8-a0d3d347375f"},"vehicle_type_id":"4","last_reported":1769005201,"current_range_meters":4400,"station_id":"ce4bh312rcd13ifvqdk0","pricing_plan_id":"cebpf4jnsgd1na2vs0mg"},{"bike_id":"5dbfcf3f-7cec-4c29-8168-14f9c37f7762","system_id":"levelo_inurba_marseille","lat":43.22562,"lon":5.41626,"is_reserved":false,"is_disabled":false,"rental_uris":{"android":"levelo://app?vid=5dbfcf3f-7cec-4c29-8168-14f9c37f7762","ios":"levelo://app?vid=5dbfcf3f-7cec-4c29-8168-14f9c37f7762"},"vehicle_type_id":"4","last_reported":1769005201,"current_range_meters":4400,"station_id":"st_d2o4gvlbi1j2169b742g","pricing_plan_id":"cebpf4jnsgd1na2vs0mg"},{"bike_id":"66160d64-23f9-4d70-b989-daa254cf260e","system_id":"levelo_inurba_marseille","lat":43.281598,"lon":5.426384,"is_reserved":false,"is_disabled":true,"rental_uris":{"android":"levelo://app?vid=66160d64-23f9-4d70-b989-daa254cf260e","ios":"levelo://app?vid=66160d64-23f9-4d70-b989-daa254cf260e"},"vehicle_type_id":"4","last_reported":1769005201,"current_range_meters":4400,"station_id":"ce4bhnh2rcd13ifvqgug","pricing_plan_id":"cebpf4jnsgd1na2vs0mg"},{"bike_id":"9917d22e-66fd-44c4-96bf-2ad529a10bbb","system_id":"levelo_inurba_marseille","lat":43.29979,"lon":5.37174,"is_reserved":false,"is_disabled":false,"rental_uris":{"android":"levelo://app?vid=9917d22e-66fd-44c4-96bf-2ad529a10bbb","ios":"levelo://app?vid=9917d22e-66fd-44c4-96bf-2ad529a10bbb"},"vehicle_type_id":"4","last_reported":1769005201,"current_range_meters":4400,"station_id":"ce4bgr92rcd13ifvqc7g","pricing_plan_id":"cebpf4jnsgd1na2vs0mg"},{"bike_id":"29084be8-d62f-4c30-a971-523598e20afa","system_id":"levelo_inurba_marseille","lat":43.2467,"lon":5.38166,"is_reserved":false,"is_disabled":false,"rental_uris":{"android":"levelo://app?vid=29084be8-d62f-4c30-a971-523598e20afa","ios":"levelo://app?vid=29084be8-d62f-4c30-a971-523598e20afa"},"vehicle_type_id":"4","last_reported":1769005201,"current_range_meters":4400,"station_id":"ce4bhih2rcd13ifvqfr0","pricing_plan_id":"cebpf4jnsgd1na2vs0mg"},{"bike_id":"2cf1ea64-26bb-4964-939a-03465aee6659","system_id":"levelo_inurba_marseille","lat":43.22555,"lon":5.41616,"is_reserved":false,"is_disabled":false,"rental_uris":{"android":"levelo://app?vid=2cf1ea64-26bb-4964-939a-03465aee6659","ios":"levelo://app?vid=2cf1ea64-26bb-4964-939a-03465aee6659"},"vehicle_type_id":"4","last_reported":1769005201,"current_range_meters":4400,"station_id":"st_d2o4gvlbi1j2169b742g","pricing_plan_id":"cebpf4jnsgd1na2vs0mg"},{"bike_id":"9f6dab86-f25e-4f7c-a564-27a085f8b84a","system_id":"levelo_inurba_marseille","lat":43.295231,"lon":5.385375,"is_reserved":false,"is_disabled":false,"rental_uris":{"android":"levelo://app?vid=9f6dab86-f25e-4f7c-a564-27a085f8b84a","ios":"levelo://app?vid=9f6dab86-f25e-4f7c-a564-27a085f8b84a"},"vehicle_type_id":"4","last_reported":1769005201,"current_range_meters":4400,"station_id":"ce4bgih2rcd13ifvqba0","pricing_plan_id":"cebpf4jnsgd1na2vs0mg"},{"bike_id":"40cd50be-6bc6-44ca-b66d-cce30723811f","system_id":"levelo_inurba_marseille","lat":43.30799,"lon":5.38169,"is_reserved":false,"is_disabled":false,"rental_uris":{"android":"levelo://app?vid=40cd50be-6bc6-44ca-b66d-cce30723811f","ios":"levelo://app?vid=40cd50be-6bc6-44ca-b66d-cce30723811f"},"vehicle_type_id":"4","last_reported":1769005201,"current_range_meters":4400,"station_id":"ce4bgt12rcd13ifvqce0","pricing_plan_id":"cebpf4jnsgd1na2vs0mg"},{"bike_id":"a53ce889-7f48-423c-a39a-8f7e906a512a","system_id":"levelo_inurba_marseille","lat":43.26689,"lon":5.38261,"is_reserved":false,"is_disabled":false,"rental_uris":{"android":"levelo://app?vid=a53ce889-7f48-423c-a39a-8f7e906a512a","ios":"levelo://app?vid=a53ce889-7f48-423c-a39a-8f7e906a512a"},"vehicle_type_id":"4","last_reported":1769005201,"current_range_meters":4800,"station_id":"ce4bhg92rcd13ifvqf90","pricing_plan_id":"cebpf4jnsgd1na2vs0mg"},{"bike_id":"02b19501-ae2b-4d21-ae93-ce26586838ae","system_id":"levelo_inurba_marseille","lat":43.29563,"lon":5.42281,"is_reserved":false,"is_disabled":false,"rental_uris":{"android":"levelo://app?vid=02b19501-ae2b-4d21-ae93-ce26586838ae","ios":"levelo://app?vid=02b19501-ae2b-4d21-ae93-ce26586838ae"},"vehicle_type_id":"4","last_reported":1769005201,"current_range_meters":4800,"station_id":"ce4bhph2rcd13ifvqhdg","pricing_plan_id":"cebpf4jnsgd1na2vs0mg"},{"bike_id":"7d2f250a-191b-441d-876b-7325dd6245a6","system_id":"levelo_inurba_marseille","lat":43.24998,"lon":5.38932,"is_reserved":false,"is_disabled":false,"rental_uris":{"android":"levelo://app?vid=7d2f250a-191b-441d-876b-7325dd6245a6","ios":"levelo://app?vid=7d2f250a-191b-441d-876b-7325dd6245a6"},"vehicle_type_id":"4","last_reported":1769005201,"current_range_meters":4800,"station_id":"ce4bhgp2rcd13ifvqfd0","pricing_plan_id":"cebpf4jnsgd1na2vs0mg"},{"bike_id":"c103ce9c-0aaa-4a53-b373-a704be8ed706","system_id":"levelo_inurba_marseille","lat":43.25344,"lon":5.42175,"is_reserved":false,"is_disabled":false,"rental_uris":{"android":"levelo://app?vid=c103ce9c-0aaa-4a53-b373-a704be8ed706","ios":"levelo://app?vid=c103ce9c-0aaa-4a53-b373-a704be8ed706"},"vehicle_type_id":"4","last_reported":1769005201,"current_range_meters":4800,"station_id":"st_d2m65c5bi1j21697t3ng","pricing_plan_id":"cebpf4jnsgd1na2vs0mg"},{"bike_id":"34c0e104-8ac5-4f79-b594-51b7631e1c5d","system_id":"levelo_inurba_marseille","lat":43.29947,"lon":5.37183,"is_reserved":false,"is_disabled":false,"rental_uris":{"android":"levelo://app?vid=34c0e104-8ac5-4f79-b594-51b7631e1c5d","ios":"levelo://app?vid=34c0e104-8ac5-4f79-b594-51b7631e1c5d"},"vehicle_type_id":"4","last_reported":1769005201,"current_range_meters":4800,"station_id":"ce4bgr92rcd13ifvqc7g","pricing_plan_id":"cebpf4jnsgd1na2vs0mg"},{"bike_id":"cff9976e-1e76-44cc-89d0-b7ea7641cede","system_id":"levelo_inurba_marseille","lat":43.30124,"lon":5.43119,"is_reserved":false,"is_disabled":false,"rental_uris":{"android":"levelo://app?vid=cff9976e-1e76-44cc-89d0-b7ea7641cede","ios":"levelo://app?vid=cff9976e-1e76-44cc-89d0-b7ea7641cede"},"vehicle_type_id":"4","last_reported":1769005201,"current_range_meters":4800,"station_id":"st_d3js3co5814s73ftftug","pricing_plan_id":"cebpf4jnsgd1na2vs0mg"},{"bike_id":"31df951a-d15e-49a5-a968-894fa4d461c6","system_id":"levelo_inurba_marseille","lat":43.29792,"lon":5.39343,"is_reserved":false,"is_disabled":false,"rental_uris":{"android":"levelo://app?vid=31df951a-d15e-49a5-a968-894fa4d461c6","ios":"levelo://app?vid=31df951a-d15e-49a5-a968-894fa4d461c6"},"vehicle_type_id":"4","last_reported":1769005201,"current_range_meters":4800,"station_id":"chh1huq6cuj3fo74tm60","pricing_plan_id":"cebpf4jnsgd1na2vs0mg"},{"bike_id":"c26cb2aa-d47d-42dd-ad71-4855ff434a00","system_id":"levelo_inurba_marseille","lat":43.23784,"lon":5.3663,"is_reserved":false,"is_disabled":false,"rental_uris":{"android":"levelo://app?vid=c26cb2aa-d47d-42dd-ad71-4855ff434a00","ios":"levelo://app?vid=c26cb2aa-d47d-42dd-ad71-4855ff434a00"},"vehicle_type_id":"4","last_reported":1769005201,"current_range_meters":4800,"station_id":"st_d3nk18o9ro0c73en2l3g","pricing_plan_id":"cebpf4jnsgd1na2vs0mg"},{"bike_id":"3170a213-9449-4755-a33a-b8c04ad65757","system_id":"levelo_inurba_marseille","lat":43.27954,"lon":5.38757,"is_reserved":false,"is_disabled":false,"rental_uris":{"android":"levelo://app?vid=3170a213-9449-4755-a33a-b8c04ad65757","ios":"levelo://app?vid=3170a213-9449-4755-a33a-b8c04ad65757"},"vehicle_type_id":"4","last_reported":1769005201,"current_range_meters":4800,"station_id":"ce4bhg12rcd13ifvqf80","pricing_plan_id":"cebpf4jnsgd1na2vs0mg"},{"bike_id":"44ddf93a-520f-4b90-8f74-af25fbc90c40","system_id":"levelo_inurba_marseille","lat":43.29364,"lon":5.37872,"is_reserved":false,"is_disabled":false,"rental_uris":{"android":"levelo://app?vid=44ddf93a-520f-4b90-8f74-af25fbc90c40","ios":"levelo://app?vid=44ddf93a-520f-4b90-8f74-af25fbc90c40"},"vehicle_type_id":"4","last_reported":1769005201,"current_range_meters":5600,"station_id":"ce4bgjh2rcd13ifvqbf0","pricing_plan_id":"cebpf4jnsgd1na2vs0mg"},{"bike_id":"394ccb93-cc2d-4e8a-ac01-18019d2f80ad","system_id":"levelo_inurba_marseille","lat":43.29897,"lon":5.43671,"is_reserved":false,"is_disabled":false,"rental_uris":{"android":"levelo://app?vid=394ccb93-cc2d-4e8a-ac01-18019d2f80ad","ios":"levelo://app?vid=394ccb93-cc2d-4e8a-ac01-18019d2f80ad"},"vehicle_type_id":"4","last_reported":1769005201,"current_range_meters":5600,"station_id":"ce4bhpp2rcd13ifvqhfg","pricing_plan_id":"cebpf4jnsgd1na2vs0mg"},{"bike_id":"1f377eb5-f7a4-4b6c-a489-85c6a09b2888","system_id":"levelo_inurba_marseille","lat":43.29526,"lon":5.39039,"is_reserved":false,"is_disabled":false,"rental_uris":{"android":"levelo://app?vid=1f377eb5-f7a4-4b6c-a489-85c6a09b2888","ios":"levelo://app?vid=1f377eb5-f7a4-4b6c-a489-85c6a09b2888"},"vehicle_type_id":"4","last_reported":1769005201,"current_range_meters":5600,"station_id":"ce4bh3p2rcd13ifvqdp0","pricing_plan_id":"cebpf4jnsgd1na2vs0mg"},{"bike_id":"367610fd-314c-4b42-b6fb-f1cf13016be3","system_id":"levelo_inurba_marseille","lat":43.29313,"lon":5.37474,"is_reserved":false,"is_disabled":false,"rental_uris":{"android":"levelo://app?vid=367610fd-314c-4b42-b6fb-f1cf13016be3","ios":"levelo://app?vid=367610fd-314c-4b42-b6fb-f1cf13016be3"},"vehicle_type_id":"4","last_reported":1769005201,"current_range_meters":5600,"station_id":"ce4bgi12rcd13ifvqb70","pricing_plan_id":"cebpf4jnsgd1na2vs0mg"},{"bike_id":"cd613311-06f9-4515-80c2-908de1a70fd9","system_id":"levelo_inurba_marseille","lat":43.29565,"lon":5.37512,"is_reserved":false,"is_disabled":false,"rental_uris":{"android":"levelo://app?vid=cd613311-06f9-4515-80c2-908de1a70fd9","ios":"levelo://app?vid=cd613311-06f9-4515-80c2-908de1a70fd9"},"vehicle_type_id":"4","last_reported":1769005201,"current_range_meters":5600,"station_id":"ce4bgh92rcd13ifvqb50","pricing_plan_id":"cebpf4jnsgd1na2vs0mg"},{"bike_id":"74db63e2-d1f2-400f-9474-68a341ed39eb","system_id":"levelo_inurba_marseille","lat":43.25832,"lon":5.39434,"is_reserved":false,"is_disabled":false,"rental_uris":{"android":"levelo://app?vid=74db63e2-d1f2-400f-9474-68a341ed39eb","ios":"levelo://app?vid=74db63e2-d1f2-400f-9474-68a341ed39eb"},"vehicle_type_id":"4","last_reported":1769005201,"current_range_meters":5600,"station_id":"","pricing_plan_id":"cebpf4jnsgd1na2vs0mg"},{"bike_id":"c71447e8-94f7-4a23-b06f-522e1feb613a","system_id":"levelo_inurba_marseille","lat":43.32071,"lon":5.415612,"is_reserved":false,"is_disabled":false,"rental_uris":{"android":"levelo://app?vid=c71447e8-94f7-4a23-b06f-522e1feb613a","ios":"levelo://app?vid=c71447e8-94f7-4a23-b06f-522e1feb613a"},"vehicle_type_id":"4","last_reported":1769005201,"current_range_meters":5600,"station_id":"ce4bhq92rcd13ifvqhkg","pricing_plan_id":"cebpf4jnsgd1na2vs0mg"},{"bike_id":"153495b2-5255-43d3-b257-40aa9dbeb33b","system_id":"levelo_inurba_marseille","lat":43.27363,"lon":5.36256,"is_reserved":false,"is_disabled":false,"rental_uris":{"android":"levelo://app?vid=153495b2-5255-43d3-b257-40aa9dbeb33b","ios":"levelo://app?vid=153495b2-5255-43d3-b257-40aa9dbeb33b"},"vehicle_type_id":"4","last_reported":1769005201,"current_range_meters":5600,"station_id":"ce4bhbh2rcd13ifvqeo0","pricing_plan_id":"cebpf4jnsgd1na2vs0mg"},{"bike_id":"7f57e4b7-adcc-40f6-a2f9-1294ef7abba0","system_id":"levelo_inurba_marseille","lat":43.30915,"lon":5.3683,"is_reserved":false,"is_disabled":false,"rental_uris":{"android":"levelo://app?vid=7f57e4b7-adcc-40f6-a2f9-1294ef7abba0","ios":"levelo://app?vid=7f57e4b7-adcc-40f6-a2f9-1294ef7abba0"},"vehicle_type_id":"4","last_reported":1769005201,"current_range_meters":6000,"station_id":"ce4bgn92rcd13ifvqbvg","pricing_plan_id":"cebpf4jnsgd1na2vs0mg"},{"bike_id":"e9cf4d98-a47d-4cc7-82f6-b2e075f45c6a","system_id":"levelo_inurba_marseille","lat":43.22554,"lon":5.41586,"is_reserved":false,"is_disabled":false,"rental_uris":{"android":"levelo://app?vid=e9cf4d98-a47d-4cc7-82f6-b2e075f45c6a","ios":"levelo://app?vid=e9cf4d98-a47d-4cc7-82f6-b2e075f45c6a"},"vehicle_type_id":"4","last_reported":1769005201,"current_range_meters":6000,"station_id":"st_d2o4gvlbi1j2169b742g","pricing_plan_id":"cebpf4jnsgd1na2vs0mg"},{"bike_id":"bad72b34-7a97-441b-a2de-27c23c8fe149","system_id":"levelo_inurba_marseille","lat":43.32346,"lon":5.38509,"is_reserved":false,"is_disabled":false,"rental_uris":{"android":"levelo://app?vid=bad72b34-7a97-441b-a2de-27c23c8fe149","ios":"levelo://app?vid=bad72b34-7a97-441b-a2de-27c23c8fe149"},"vehicle_type_id":"4","last_reported":1769005201,"current_range_meters":6000,"station_id":"st_d45171o9ee8s73djdqug","pricing_plan_id":"cebpf4jnsgd1na2vs0mg"},{"bike_id":"e518b3b5-ceb8-42df-a40f-1b9cad67801c","system_id":"levelo_inurba_marseille","lat":43.244684,"lon":5.425376,"is_reserved":false,"is_disabled":false,"rental_uris":{"android":"levelo://app?vid=e518b3b5-ceb8-42df-a40f-1b9cad67801c","ios":"levelo://app?vid=e518b3b5-ceb8-42df-a40f-1b9cad67801c"},"vehicle_type_id":"4","last_reported":1769005201,"current_range_meters":6000,"station_id":"st_d4a3vfp97mjs738cd8kg","pricing_plan_id":"cebpf4jnsgd1na2vs0mg"},{"bike_id":"1be3c126-35b8-469c-9930-5172da036ca8","system_id":"levelo_inurba_marseille","lat":43.27227,"lon":5.3914,"is_reserved":false,"is_disabled":false,"rental_uris":{"android":"levelo://app?vid=1be3c126-35b8-469c-9930-5172da036ca8","ios":"levelo://app?vid=1be3c126-35b8-469c-9930-5172da036ca8"},"vehicle_type_id":"4","last_reported":1769005201,"current_range_meters":6000,"station_id":"ce4bhhp2rcd13ifvqfm0","pricing_plan_id":"cebpf4jnsgd1na2vs0mg"},{"bike_id":"5f6a0a0c-aaf7-41c1-be98-33b50db68fe6","system_id":"levelo_inurba_marseille","lat":43.26499,"lon":5.39548,"is_reserved":false,"is_disabled":true,"rental_uris":{"android":"levelo://app?vid=5f6a0a0c-aaf7-41c1-be98-33b50db68fe6","ios":"levelo://app?vid=5f6a0a0c-aaf7-41c1-be98-33b50db68fe6"},"vehicle_type_id":"4","last_reported":1769005201,"current_range_meters":6000,"station_id":"ce4bhi12rcd13ifvqfq0","pricing_plan_id":"cebpf4jnsgd1na2vs0mg"},{"bike_id":"1af80c1a-b0d4-4c2c-abaf-c31326f7004a","system_id":"levelo_inurba_marseille","lat":43.28033,"lon":5.36942,"is_reserved":false,"is_disabled":false,"rental_uris":{"android":"levelo://app?vid=1af80c1a-b0d4-4c2c-abaf-c31326f7004a","ios":"levelo://app?vid=1af80c1a-b0d4-4c2c-abaf-c31326f7004a"},"vehicle_type_id":"4","last_reported":1769005201,"current_range_meters":6000,"station_id":"ce4bha12rcd13ifvqef0","pricing_plan_id":"cebpf4jnsgd1na2vs0mg"},{"bike_id":"02bb5eed-6d46-4907-942b-2953f5d09c0c","system_id":"levelo_inurba_marseille","lat":43.309416,"lon":5.36851,"is_reserved":false,"is_disabled":false,"rental_uris":{"android":"levelo://app?vid=02bb5eed-6d46-4907-942b-2953f5d09c0c","ios":"levelo://app?vid=02bb5eed-6d46-4907-942b-2953f5d09c0c"},"vehicle_type_id":"4","last_reported":1769005201,"current_range_meters":6000,"station_id":"ce4bgn92rcd13ifvqbvg","pricing_plan_id":"cebpf4jnsgd1na2vs0mg"},{"bike_id":"1e9683fd-3419-4707-ab97-e3b80d5f4bea","system_id":"levelo_inurba_marseille","lat":43.27158,"lon":5.40458,"is_reserved":false,"is_disabled":false,"rental_uris":{"android":"levelo://app?vid=1e9683fd-3419-4707-ab97-e3b80d5f4bea","ios":"levelo://app?vid=1e9683fd-3419-4707-ab97-e3b80d5f4bea"},"vehicle_type_id":"4","last_reported":1769005201,"current_range_meters":6000,"station_id":"","pricing_plan_id":"cebpf4jnsgd1na2vs0mg"},{"bike_id":"7f481826-4e21-43e4-8bed-a802f2e38ddb","system_id":"levelo_inurba_marseille","lat":43.31351,"lon":5.39707,"is_reserved":false,"is_disabled":false,"rental_uris":{"android":"levelo://app?vid=7f481826-4e21-43e4-8bed-a802f2e38ddb","ios":"levelo://app?vid=7f481826-4e21-43e4-8bed-a802f2e38ddb"},"vehicle_type_id":"4","last_reported":1769005201,"current_range_meters":6000,"station_id":"ce4bgvp2rcd13ifvqcu0","pricing_plan_id":"cebpf4jnsgd1na2vs0mg"},{"bike_id":"73b4adbc-1d8e-48fb-a610-eb8901401b23","system_id":"levelo_inurba_marseille","lat":43.31162,"lon":5.38725,"is_reserved":false,"is_disabled":false,"rental_uris":{"android":"levelo://app?vid=73b4adbc-1d8e-48fb-a610-eb8901401b23","ios":"levelo://app?vid=73b4adbc-1d8e-48fb-a610-eb8901401b23"},"vehicle_type_id":"4","last_reported":1769005201,"current_range_meters":6000,"station_id":"ce4bgv12rcd13ifvqcp0","pricing_plan_id":"cebpf4jnsgd1na2vs0mg"},{"bike_id":"60a10de5-9df7-4233-9d44-fe2dc4a502b3","system_id":"levelo_inurba_marseille","lat":43.24179,"lon":5.39726,"is_reserved":false,"is_disabled":false,"rental_uris":{"android":"levelo://app?vid=60a10de5-9df7-4233-9d44-fe2dc4a502b3","ios":"levelo://app?vid=60a10de5-9df7-4233-9d44-fe2dc4a502b3"},"vehicle_type_id":"4","last_reported":1769005201,"current_range_meters":6000,"station_id":"ce4bhn12rcd13ifvqgpg","pricing_plan_id":"cebpf4jnsgd1na2vs0mg"},{"bike_id":"6c0148cb-fadd-4a42-b2cd-0226393a42a6","system_id":"levelo_inurba_marseille","lat":43.28613,"lon":5.35108,"is_reserved":false,"is_disabled":false,"rental_uris":{"android":"levelo://app?vid=6c0148cb-fadd-4a42-b2cd-0226393a42a6","ios":"levelo://app?vid=6c0148cb-fadd-4a42-b2cd-0226393a42a6"},"vehicle_type_id":"4","last_reported":1769005201,"current_range_meters":6000,"station_id":"ce4bhch2rcd13ifvqeug","pricing_plan_id":"cebpf4jnsgd1na2vs0mg"},{"bike_id":"06b43346-a86c-476a-ad81-b5f13f3adc99","system_id":"levelo_inurba_marseille","lat":43.21192,"lon":5.35087,"is_reserved":false,"is_disabled":false,"rental_uris":{"android":"levelo://app?vid=06b43346-a86c-476a-ad81-b5f13f3adc99","ios":"levelo://app?vid=06b43346-a86c-476a-ad81-b5f13f3adc99"},"vehicle_type_id":"4","last_reported":1769005201,"current_range_meters":6400,"station_id":"st_cvj6sg6p6f1abm77japg","pricing_plan_id":"cebpf4jnsgd1na2vs0mg"},{"bike_id":"fc4e3a66-55ac-450e-a159-861862597655","system_id":"levelo_inurba_marseille","lat":43.27322,"lon":5.3907,"is_reserved":false,"is_disabled":false,"rental_uris":{"android":"levelo://app?vid=fc4e3a66-55ac-450e-a159-861862597655","ios":"levelo://app?vid=fc4e3a66-55ac-450e-a159-861862597655"},"vehicle_type_id":"4","last_reported":1769005201,"current_range_meters":6400,"station_id":"ce4bhgp2rcd13ifvqfe0","pricing_plan_id":"cebpf4jnsgd1na2vs0mg"},{"bike_id":"2351e1c9-97c0-42ed-8ba7-93d168c64106","system_id":"levelo_inurba_marseille","lat":43.29769,"lon":5.42771,"is_reserved":false,"is_disabled":false,"rental_uris":{"android":"levelo://app?vid=2351e1c9-97c0-42ed-8ba7-93d168c64106","ios":"levelo://app?vid=2351e1c9-97c0-42ed-8ba7-93d168c64106"},"vehicle_type_id":"4","last_reported":1769005201,"current_range_meters":6400,"station_id":"st_d3md5207bmas73dh9klg","pricing_plan_id":"cebpf4jnsgd1na2vs0mg"},{"bike_id":"8069f374-6bb2-4df8-950d-be2e50fcd180","system_id":"levelo_inurba_marseille","lat":43.31122,"lon":5.37783,"is_reserved":false,"is_disabled":true,"rental_uris":{"android":"levelo://app?vid=8069f374-6bb2-4df8-950d-be2e50fcd180","ios":"levelo://app?vid=8069f374-6bb2-4df8-950d-be2e50fcd180"},"vehicle_type_id":"4","last_reported":1769005201,"current_range_meters":6400,"station_id":"ce4bgt92rcd13ifvqcg0","pricing_plan_id":"cebpf4jnsgd1na2vs0mg"},{"bike_id":"511fc97e-4342-48bd-969a-a85990179b2c","system_id":"levelo_inurba_marseille","lat":43.301406,"lon":5.380917,"is_reserved":false,"is_disabled":false,"rental_uris":{"android":"levelo://app?vid=511fc97e-4342-48bd-969a-a85990179b2c","ios":"levelo://app?vid=511fc97e-4342-48bd-969a-a85990179b2c"},"vehicle_type_id":"4","last_reported":1769005201,"current_range_meters":6400,"station_id":"ce4bgjp2rcd13ifvqbh0","pricing_plan_id":"cebpf4jnsgd1na2vs0mg"},{"bike_id":"10c91b11-c19d-41a7-8301-eca5c529c14d","system_id":"levelo_inurba_marseille","lat":43.27811,"lon":5.40712,"is_reserved":false,"is_disabled":false,"rental_uris":{"android":"levelo://app?vid=10c91b11-c19d-41a7-8301-eca5c529c14d","ios":"levelo://app?vid=10c91b11-c19d-41a7-8301-eca5c529c14d"},"vehicle_type_id":"4","last_reported":1769005201,"current_range_meters":6400,"station_id":"ce4bhnh2rcd13ifvqgtg","pricing_plan_id":"cebpf4jnsgd1na2vs0mg"},{"bike_id":"56496f15-285b-4dff-92b3-54ffdff3e399","system_id":"levelo_inurba_marseille","lat":43.26841,"lon":5.3959,"is_reserved":false,"is_disabled":false,"rental_uris":{"android":"levelo://app?vid=56496f15-285b-4dff-92b3-54ffdff3e399","ios":"levelo://app?vid=56496f15-285b-4dff-92b3-54ffdff3e399"},"vehicle_type_id":"4","last_reported":1769005201,"current_range_meters":6400,"station_id":"","pricing_plan_id":"cebpf4jnsgd1na2vs0mg"},{"bike_id":"6b0a7910-4f3c-47d6-b165-5319282e4ed9","system_id":"levelo_inurba_marseille","lat":43.33541,"lon":5.37467,"is_reserved":false,"is_disabled":false,"rental_uris":{"android":"levelo://app?vid=6b0a7910-4f3c-47d6-b165-5319282e4ed9","ios":"levelo://app?vid=6b0a7910-4f3c-47d6-b165-5319282e4ed9"},"vehicle_type_id":"4","last_reported":1769005201,"current_range_meters":6400,"station_id":"","pricing_plan_id":"cebpf4jnsgd1na2vs0mg"},{"bike_id":"12d50624-36fb-429d-be6d-b5122cf2de21","system_id":"levelo_inurba_marseille","lat":43.31757,"lon":5.38977,"is_reserved":false,"is_disabled":false,"rental_uris":{"android":"levelo://app?vid=12d50624-36fb-429d-be6d-b5122cf2de21","ios":"levelo://app?vid=12d50624-36fb-429d-be6d-b5122cf2de21"},"vehicle_type_id":"4","last_reported":1769005201,"current_range_meters":6400,"station_id":"ce4bhqp2rcd13ifvqhng","pricing_plan_id":"cebpf4jnsgd1na2vs0mg"},{"bike_id":"93c7a025-127d-40b2-862c-98919fbc02da","system_id":"levelo_inurba_marseille","lat":43.23188,"lon":5.39984,"is_reserved":false,"is_disabled":false,"rental_uris":{"android":"levelo://app?vid=93c7a025-127d-40b2-862c-98919fbc02da","ios":"levelo://app?vid=93c7a025-127d-40b2-862c-98919fbc02da"},"vehicle_type_id":"4","last_reported":1769005201,"current_range_meters":6400,"station_id":"ce4bhn12rcd13ifvqgqg","pricing_plan_id":"cebpf4jnsgd1na2vs0mg"},{"bike_id":"31c21be6-18ca-494d-8d01-2f205767068d","system_id":"levelo_inurba_marseille","lat":43.31866,"lon":5.3746,"is_reserved":false,"is_disabled":false,"rental_uris":{"android":"levelo://app?vid=31c21be6-18ca-494d-8d01-2f205767068d","ios":"levelo://app?vid=31c21be6-18ca-494d-8d01-2f205767068d"},"vehicle_type_id":"4","last_reported":1769005201,"current_range_meters":6400,"station_id":"","pricing_plan_id":"cebpf4jnsgd1na2vs0mg"},{"bike_id":"bc60e5b8-0ca9-41fc-ab43-9019537f42d7","system_id":"levelo_inurba_marseille","lat":43.286642,"lon":5.386599,"is_reserved":false,"is_disabled":false,"rental_uris":{"android":"levelo://app?vid=bc60e5b8-0ca9-41fc-ab43-9019537f42d7","ios":"levelo://app?vid=bc60e5b8-0ca9-41fc-ab43-9019537f42d7"},"vehicle_type_id":"4","last_reported":1769005201,"current_range_meters":6400,"station_id":"ce4bgvh2rcd13ifvqcs0","pricing_plan_id":"cebpf4jnsgd1na2vs0mg"},{"bike_id":"c83e6c5f-f4b4-49aa-b1be-0caf216ca33c","system_id":"levelo_inurba_marseille","lat":43.30667,"lon":5.40102,"is_reserved":false,"is_disabled":false,"rental_uris":{"android":"levelo://app?vid=c83e6c5f-f4b4-49aa-b1be-0caf216ca33c","ios":"levelo://app?vid=c83e6c5f-f4b4-49aa-b1be-0caf216ca33c"},"vehicle_type_id":"4","last_reported":1769005201,"current_range_meters":6400,"station_id":"ce4bh112rcd13ifvqda0","pricing_plan_id":"cebpf4jnsgd1na2vs0mg"},{"bike_id":"bc53fded-5652-4ab5-920f-ec142a69c388","system_id":"levelo_inurba_marseille","lat":43.29795,"lon":5.39384,"is_reserved":false,"is_disabled":false,"rental_uris":{"android":"levelo://app?vid=bc53fded-5652-4ab5-920f-ec142a69c388","ios":"levelo://app?vid=bc53fded-5652-4ab5-920f-ec142a69c388"},"vehicle_type_id":"4","last_reported":1769005201,"current_range_meters":6400,"station_id":"chh1huq6cuj3fo74tm60","pricing_plan_id":"cebpf4jnsgd1na2vs0mg"},{"bike_id":"d63e6119-384a-4d14-b47c-96d45b7ac496","system_id":"levelo_inurba_marseille","lat":43.28949,"lon":5.36648,"is_reserved":false,"is_disabled":false,"rental_uris":{"android":"levelo://app?vid=d63e6119-384a-4d14-b47c-96d45b7ac496","ios":"levelo://app?vid=d63e6119-384a-4d14-b47c-96d45b7ac496"},"vehicle_type_id":"4","last_reported":1769005201,"current_range_meters":6400,"station_id":"ce4bhap2rcd13ifvqek0","pricing_plan_id":"cebpf4jnsgd1na2vs0mg"},{"bike_id":"e6df6fb7-994b-4037-99d6-76175fe9a7d0","system_id":"levelo_inurba_marseille","lat":43.23191,"lon":5.39978,"is_reserved":false,"is_disabled":false,"rental_uris":{"android":"levelo://app?vid=e6df6fb7-994b-4037-99d6-76175fe9a7d0","ios":"levelo://app?vid=e6df6fb7-994b-4037-99d6-76175fe9a7d0"},"vehicle_type_id":"4","last_reported":1769005201,"current_range_meters":6400,"station_id":"ce4bhn12rcd13ifvqgqg","pricing_plan_id":"cebpf4jnsgd1na2vs0mg"},{"bike_id":"97bc0913-548e-4ac8-bca5-1e28703c6845","system_id":"levelo_inurba_marseille","lat":43.30812,"lon":5.38135,"is_reserved":false,"is_disabled":false,"rental_uris":{"android":"levelo://app?vid=97bc0913-548e-4ac8-bca5-1e28703c6845","ios":"levelo://app?vid=97bc0913-548e-4ac8-bca5-1e28703c6845"},"vehicle_type_id":"4","last_reported":1769005201,"current_range_meters":6400,"station_id":"ce4bgt12rcd13ifvqce0","pricing_plan_id":"cebpf4jnsgd1na2vs0mg"},{"bike_id":"70c4dff7-2a4a-497f-87c5-b875ff1b597a","system_id":"levelo_inurba_marseille","lat":43.26542,"lon":5.37264,"is_reserved":false,"is_disabled":false,"rental_uris":{"android":"levelo://app?vid=70c4dff7-2a4a-497f-87c5-b875ff1b597a","ios":"levelo://app?vid=70c4dff7-2a4a-497f-87c5-b875ff1b597a"},"vehicle_type_id":"4","last_reported":1769005201,"current_range_meters":6400,"station_id":"ce4bhg12rcd13ifvqf70","pricing_plan_id":"cebpf4jnsgd1na2vs0mg"},{"bike_id":"e7f76cdd-69c1-4b4a-aab9-81b38847c33b","system_id":"levelo_inurba_marseille","lat":43.24383,"lon":5.37045,"is_reserved":false,"is_disabled":false,"rental_uris":{"android":"levelo://app?vid=e7f76cdd-69c1-4b4a-aab9-81b38847c33b","ios":"levelo://app?vid=e7f76cdd-69c1-4b4a-aab9-81b38847c33b"},"vehicle_type_id":"4","last_reported":1769005201,"current_range_meters":6400,"station_id":"ce4bhhh2rcd13ifvqfk0","pricing_plan_id":"cebpf4jnsgd1na2vs0mg"},{"bike_id":"cf3f73b8-6469-45c7-aa16-2dcbeba1cfe7","system_id":"levelo_inurba_marseille","lat":43.29539,"lon":5.38545,"is_reserved":false,"is_disabled":false,"rental_uris":{"android":"levelo://app?vid=cf3f73b8-6469-45c7-aa16-2dcbeba1cfe7","ios":"levelo://app?vid=cf3f73b8-6469-45c7-aa16-2dcbeba1cfe7"},"vehicle_type_id":"4","last_reported":1769005201,"current_range_meters":6400,"station_id":"ce4bgih2rcd13ifvqba0","pricing_plan_id":"cebpf4jnsgd1na2vs0mg"},{"bike_id":"e47dfb0a-fd42-4915-8bd4-c942b77cb4c9","system_id":"levelo_inurba_marseille","lat":43.25582,"lon":5.38326,"is_reserved":false,"is_disabled":false,"rental_uris":{"android":"levelo://app?vid=e47dfb0a-fd42-4915-8bd4-c942b77cb4c9","ios":"levelo://app?vid=e47dfb0a-fd42-4915-8bd4-c942b77cb4c9"},"vehicle_type_id":"4","last_reported":1769005201,"current_range_meters":6400,"station_id":"","pricing_plan_id":"cebpf4jnsgd1na2vs0mg"},{"bike_id":"29bfec45-ad76-429c-882a-34b6f5ca4191","system_id":"levelo_inurba_marseille","lat":43.32105,"lon":5.3677,"is_reserved":false,"is_disabled":false,"rental_uris":{"android":"levelo://app?vid=29bfec45-ad76-429c-882a-34b6f5ca4191","ios":"levelo://app?vid=29bfec45-ad76-429c-882a-34b6f5ca4191"},"vehicle_type_id":"4","last_reported":1769005201,"current_range_meters":6400,"station_id":"ce4bhrh2rcd13ifvqhug","pricing_plan_id":"cebpf4jnsgd1na2vs0mg"},{"bike_id":"279ecc0c-732d-4b1d-b5af-667c2f79f52d","system_id":"levelo_inurba_marseille","lat":43.2315,"lon":5.437055,"is_reserved":false,"is_disabled":false,"rental_uris":{"android":"levelo://app?vid=279ecc0c-732d-4b1d-b5af-667c2f79f52d","ios":"levelo://app?vid=279ecc0c-732d-4b1d-b5af-667c2f79f52d"},"vehicle_type_id":"4","last_reported":1769005201,"current_range_meters":6800,"station_id":"ce4bhmp2rcd13ifvqgog","pricing_plan_id":"cebpf4jnsgd1na2vs0mg"},{"bike_id":"f73788f7-dec5-4308-a431-6e346b811946","system_id":"levelo_inurba_marseille","lat":43.30187,"lon":5.38089,"is_reserved":false,"is_disabled":false,"rental_uris":{"android":"levelo://app?vid=f73788f7-dec5-4308-a431-6e346b811946","ios":"levelo://app?vid=f73788f7-dec5-4308-a431-6e346b811946"},"vehicle_type_id":"4","last_reported":1769005201,"current_range_meters":6800,"station_id":"","pricing_plan_id":"cebpf4jnsgd1na2vs0mg"},{"bike_id":"99d65f09-c0e6-4f0f-b72f-6e110c0f1bd4","system_id":"levelo_inurba_marseille","lat":43.28963,"lon":5.37623,"is_reserved":false,"is_disabled":false,"rental_uris":{"android":"levelo://app?vid=99d65f09-c0e6-4f0f-b72f-6e110c0f1bd4","ios":"levelo://app?vid=99d65f09-c0e6-4f0f-b72f-6e110c0f1bd4"},"vehicle_type_id":"4","last_reported":1769005201,"current_range_meters":6800,"station_id":"","pricing_plan_id":"cebpf4jnsgd1na2vs0mg"},{"bike_id":"5f477738-733e-4c98-961a-33429c5938fd","system_id":"levelo_inurba_marseille","lat":43.260586,"lon":5.393984,"is_reserved":false,"is_disabled":false,"rental_uris":{"android":"levelo://app?vid=5f477738-733e-4c98-961a-33429c5938fd","ios":"levelo://app?vid=5f477738-733e-4c98-961a-33429c5938fd"},"vehicle_type_id":"4","last_reported":1769005201,"current_range_meters":6800,"station_id":"ce4bhh92rcd13ifvqfj0","pricing_plan_id":"cebpf4jnsgd1na2vs0mg"},{"bike_id":"9fe9b7fa-bf5e-456b-b148-d56a572e2392","system_id":"levelo_inurba_marseille","lat":43.2256,"lon":5.41629,"is_reserved":false,"is_disabled":false,"rental_uris":{"android":"levelo://app?vid=9fe9b7fa-bf5e-456b-b148-d56a572e2392","ios":"levelo://app?vid=9fe9b7fa-bf5e-456b-b148-d56a572e2392"},"vehicle_type_id":"4","last_reported":1769005201,"current_range_meters":6800,"station_id":"st_d2o4gvlbi1j2169b742g","pricing_plan_id":"cebpf4jnsgd1na2vs0mg"},{"bike_id":"3f6750a7-19ad-41fa-8826-63bb59784df2","system_id":"levelo_inurba_marseille","lat":43.29002,"lon":5.35612,"is_reserved":false,"is_disabled":false,"rental_uris":{"android":"levelo://app?vid=3f6750a7-19ad-41fa-8826-63bb59784df2","ios":"levelo://app?vid=3f6750a7-19ad-41fa-8826-63bb59784df2"},"vehicle_type_id":"4","last_reported":1769005201,"current_range_meters":6800,"station_id":"ce4bhb92rcd13ifvqen0","pricing_plan_id":"cebpf4jnsgd1na2vs0mg"},{"bike_id":"2b4313df-03bb-4ab9-b1b4-d18684162a43","system_id":"levelo_inurba_marseille","lat":43.29171,"lon":5.3717,"is_reserved":false,"is_disabled":false,"rental_uris":{"android":"levelo://app?vid=2b4313df-03bb-4ab9-b1b4-d18684162a43","ios":"levelo://app?vid=2b4313df-03bb-4ab9-b1b4-d18684162a43"},"vehicle_type_id":"4","last_reported":1769005201,"current_range_meters":6800,"station_id":"ce4bha92rcd13ifvqeh0","pricing_plan_id":"cebpf4jnsgd1na2vs0mg"},{"bike_id":"00729f81-defe-4949-ab38-da427b717ebf","system_id":"levelo_inurba_marseille","lat":43.262204,"lon":5.404412,"is_reserved":false,"is_disabled":false,"rental_uris":{"android":"levelo://app?vid=00729f81-defe-4949-ab38-da427b717ebf","ios":"levelo://app?vid=00729f81-defe-4949-ab38-da427b717ebf"},"vehicle_type_id":"4","last_reported":1769005201,"current_range_meters":6800,"station_id":"ce4bhmh2rcd13ifvqgmg","pricing_plan_id":"cebpf4jnsgd1na2vs0mg"},{"bike_id":"5bdad711-817a-42cc-84b1-10d4beae812a","system_id":"levelo_inurba_marseille","lat":43.22563,"lon":5.41631,"is_reserved":false,"is_disabled":false,"rental_uris":{"android":"levelo://app?vid=5bdad711-817a-42cc-84b1-10d4beae812a","ios":"levelo://app?vid=5bdad711-817a-42cc-84b1-10d4beae812a"},"vehicle_type_id":"4","last_reported":1769005201,"current_range_meters":6800,"station_id":"st_d2o4gvlbi1j2169b742g","pricing_plan_id":"cebpf4jnsgd1na2vs0mg"},{"bike_id":"c1706e98-785d-48a7-abfd-76a249aea6c7","system_id":"levelo_inurba_marseille","lat":43.248,"lon":5.37459,"is_reserved":false,"is_disabled":false,"rental_uris":{"android":"levelo://app?vid=c1706e98-785d-48a7-abfd-76a249aea6c7","ios":"levelo://app?vid=c1706e98-785d-48a7-abfd-76a249aea6c7"},"vehicle_type_id":"4","last_reported":1769005201,"current_range_meters":6800,"station_id":"ce4bhgh2rcd13ifvqfb0","pricing_plan_id":"cebpf4jnsgd1na2vs0mg"},{"bike_id":"5de76de6-ebad-4489-b6f0-fcc2f38d442d","system_id":"levelo_inurba_marseille","lat":43.28985,"lon":5.3561,"is_reserved":false,"is_disabled":false,"rental_uris":{"android":"levelo://app?vid=5de76de6-ebad-4489-b6f0-fcc2f38d442d","ios":"levelo://app?vid=5de76de6-ebad-4489-b6f0-fcc2f38d442d"},"vehicle_type_id":"4","last_reported":1769005201,"current_range_meters":6800,"station_id":"ce4bhb92rcd13ifvqen0","pricing_plan_id":"cebpf4jnsgd1na2vs0mg"},{"bike_id":"8c9d9dd5-6ae3-4a8b-ab79-ea51ac5d3931","system_id":"levelo_inurba_marseille","lat":43.27991,"lon":5.41637,"is_reserved":false,"is_disabled":false,"rental_uris":{"android":"levelo://app?vid=8c9d9dd5-6ae3-4a8b-ab79-ea51ac5d3931","ios":"levelo://app?vid=8c9d9dd5-6ae3-4a8b-ab79-ea51ac5d3931"},"vehicle_type_id":"4","last_reported":1769005201,"current_range_meters":6800,"station_id":"ce4bho12rcd13ifvqh1g","pricing_plan_id":"cebpf4jnsgd1na2vs0mg"},{"bike_id":"e16a1716-709d-4830-b4cc-3f4c9537f310","system_id":"levelo_inurba_marseille","lat":43.30462,"lon":5.37916,"is_reserved":false,"is_disabled":false,"rental_uris":{"android":"levelo://app?vid=e16a1716-709d-4830-b4cc-3f4c9537f310","ios":"levelo://app?vid=e16a1716-709d-4830-b4cc-3f4c9537f310"},"vehicle_type_id":"4","last_reported":1769005201,"current_range_meters":6800,"station_id":"ce4bgup2rcd13ifvqcn0","pricing_plan_id":"cebpf4jnsgd1na2vs0mg"},{"bike_id":"2e67810b-4f4a-431b-b148-ec05c2d01539","system_id":"levelo_inurba_marseille","lat":43.28155,"lon":5.42647,"is_reserved":false,"is_disabled":false,"rental_uris":{"android":"levelo://app?vid=2e67810b-4f4a-431b-b148-ec05c2d01539","ios":"levelo://app?vid=2e67810b-4f4a-431b-b148-ec05c2d01539"},"vehicle_type_id":"4","last_reported":1769005201,"current_range_meters":6800,"station_id":"ce4bhnh2rcd13ifvqgug","pricing_plan_id":"cebpf4jnsgd1na2vs0mg"},{"bike_id":"324cdd4d-bbd3-454c-8384-774dfe86de49","system_id":"levelo_inurba_marseille","lat":43.28563,"lon":5.39497,"is_reserved":false,"is_disabled":false,"rental_uris":{"android":"levelo://app?vid=324cdd4d-bbd3-454c-8384-774dfe86de49","ios":"levelo://app?vid=324cdd4d-bbd3-454c-8384-774dfe86de49"},"vehicle_type_id":"4","last_reported":1769005201,"current_range_meters":6800,"station_id":"ce4bh292rcd13ifvqdg0","pricing_plan_id":"cebpf4jnsgd1na2vs0mg"},{"bike_id":"d800779d-1be3-4b3b-bd26-326b29efb8d6","system_id":"levelo_inurba_marseille","lat":43.243361,"lon":5.396474,"is_reserved":false,"is_disabled":false,"rental_uris":{"android":"levelo://app?vid=d800779d-1be3-4b3b-bd26-326b29efb8d6","ios":"levelo://app?vid=d800779d-1be3-4b3b-bd26-326b29efb8d6"},"vehicle_type_id":"4","last_reported":1769005201,"current_range_meters":6800,"station_id":"st_d3nk18o9ro0c73en2l3g","pricing_plan_id":"cebpf4jnsgd1na2vs0mg"},{"bike_id":"d89b50c4-db54-4baa-aec9-247ae4e92aef","system_id":"levelo_inurba_marseille","lat":43.273426,"lon":5.362575,"is_reserved":false,"is_disabled":false,"rental_uris":{"android":"levelo://app?vid=d89b50c4-db54-4baa-aec9-247ae4e92aef","ios":"levelo://app?vid=d89b50c4-db54-4baa-aec9-247ae4e92aef"},"vehicle_type_id":"4","last_reported":1769005201,"current_range_meters":6800,"station_id":"ce4bhbh2rcd13ifvqeo0","pricing_plan_id":"cebpf4jnsgd1na2vs0mg"},{"bike_id":"9c6a25af-e602-4830-9f55-98a08de3d70c","system_id":"levelo_inurba_marseille","lat":43.28616,"lon":5.35085,"is_reserved":false,"is_disabled":false,"rental_uris":{"android":"levelo://app?vid=9c6a25af-e602-4830-9f55-98a08de3d70c","ios":"levelo://app?vid=9c6a25af-e602-4830-9f55-98a08de3d70c"},"vehicle_type_id":"4","last_reported":1769005201,"current_range_meters":6800,"station_id":"ce4bhch2rcd13ifvqeug","pricing_plan_id":"cebpf4jnsgd1na2vs0mg"},{"bike_id":"779c5370-daaa-4d54-ab12-1755b8458758","system_id":"levelo_inurba_marseille","lat":43.292389,"lon":5.401239,"is_reserved":false,"is_disabled":false,"rental_uris":{"android":"levelo://app?vid=779c5370-daaa-4d54-ab12-1755b8458758","ios":"levelo://app?vid=779c5370-daaa-4d54-ab12-1755b8458758"},"vehicle_type_id":"4","last_reported":1769005201,"current_range_meters":6800,"station_id":"","pricing_plan_id":"cebpf4jnsgd1na2vs0mg"},{"bike_id":"0ed9e6ec-7e2b-4b30-b5b9-e495e2de968e","system_id":"levelo_inurba_marseille","lat":43.29633,"lon":5.37738,"is_reserved":false,"is_disabled":false,"rental_uris":{"android":"levelo://app?vid=0ed9e6ec-7e2b-4b30-b5b9-e495e2de968e","ios":"levelo://app?vid=0ed9e6ec-7e2b-4b30-b5b9-e495e2de968e"},"vehicle_type_id":"4","last_reported":1769005201,"current_range_meters":6800,"station_id":"ce4bgi92rcd13ifvqb90","pricing_plan_id":"cebpf4jnsgd1na2vs0mg"},{"bike_id":"ab9bc5af-4b96-48b6-8f67-7f8c3b37471c","system_id":"levelo_inurba_marseille","lat":43.28931,"lon":5.36639,"is_reserved":false,"is_disabled":false,"rental_uris":{"android":"levelo://app?vid=ab9bc5af-4b96-48b6-8f67-7f8c3b37471c","ios":"levelo://app?vid=ab9bc5af-4b96-48b6-8f67-7f8c3b37471c"},"vehicle_type_id":"4","last_reported":1769005201,"current_range_meters":6800,"station_id":"ce4bhap2rcd13ifvqek0","pricing_plan_id":"cebpf4jnsgd1na2vs0mg"},{"bike_id":"416786c9-5441-4ae2-97be-8dd18ff4a833","system_id":"levelo_inurba_marseille","lat":43.26563,"lon":5.40328,"is_reserved":false,"is_disabled":false,"rental_uris":{"android":"levelo://app?vid=416786c9-5441-4ae2-97be-8dd18ff4a833","ios":"levelo://app?vid=416786c9-5441-4ae2-97be-8dd18ff4a833"},"vehicle_type_id":"4","last_reported":1769005201,"current_range_meters":6800,"station_id":"ce4bhmp2rcd13ifvqgng","pricing_plan_id":"cebpf4jnsgd1na2vs0mg"},{"bike_id":"f3f27d86-0784-4222-889b-15433e5b0baf","system_id":"levelo_inurba_marseille","lat":43.24461,"lon":5.42533,"is_reserved":false,"is_disabled":false,"rental_uris":{"android":"levelo://app?vid=f3f27d86-0784-4222-889b-15433e5b0baf","ios":"levelo://app?vid=f3f27d86-0784-4222-889b-15433e5b0baf"},"vehicle_type_id":"4","last_reported":1769005201,"current_range_meters":7200,"station_id":"st_d4a3vfp97mjs738cd8kg","pricing_plan_id":"cebpf4jnsgd1na2vs0mg"},{"bike_id":"f09c06aa-a05d-4b00-b228-d8bee2b62b4f","system_id":"levelo_inurba_marseille","lat":43.323488,"lon":5.367316,"is_reserved":false,"is_disabled":false,"rental_uris":{"android":"levelo://app?vid=f09c06aa-a05d-4b00-b228-d8bee2b62b4f","ios":"levelo://app?vid=f09c06aa-a05d-4b00-b228-d8bee2b62b4f"},"vehicle_type_id":"4","last_reported":1769005201,"current_range_meters":7200,"station_id":"ce4bhsh2rcd13ifvqi2g","pricing_plan_id":"cebpf4jnsgd1na2vs0mg"},{"bike_id":"56c86971-5750-4035-b993-d68c85f26146","system_id":"levelo_inurba_marseille","lat":43.292586,"lon":5.376365,"is_reserved":false,"is_disabled":false,"rental_uris":{"android":"levelo://app?vid=56c86971-5750-4035-b993-d68c85f26146","ios":"levelo://app?vid=56c86971-5750-4035-b993-d68c85f26146"},"vehicle_type_id":"4","last_reported":1769005201,"current_range_meters":7200,"station_id":"ce4bgi12rcd13ifvqb80","pricing_plan_id":"cebpf4jnsgd1na2vs0mg"},{"bike_id":"3fbcd3ca-d251-4634-9922-ec93727d6031","system_id":"levelo_inurba_marseille","lat":43.31237,"lon":5.38483,"is_reserved":false,"is_disabled":false,"rental_uris":{"android":"levelo://app?vid=3fbcd3ca-d251-4634-9922-ec93727d6031","ios":"levelo://app?vid=3fbcd3ca-d251-4634-9922-ec93727d6031"},"vehicle_type_id":"4","last_reported":1769005201,"current_range_meters":7200,"station_id":"","pricing_plan_id":"cebpf4jnsgd1na2vs0mg"},{"bike_id":"216940f0-4b3a-46e6-8c98-a82b3f89b3ed","system_id":"levelo_inurba_marseille","lat":43.2481,"lon":5.37463,"is_reserved":false,"is_disabled":false,"rental_uris":{"android":"levelo://app?vid=216940f0-4b3a-46e6-8c98-a82b3f89b3ed","ios":"levelo://app?vid=216940f0-4b3a-46e6-8c98-a82b3f89b3ed"},"vehicle_type_id":"4","last_reported":1769005201,"current_range_meters":7200,"station_id":"ce4bhgh2rcd13ifvqfb0","pricing_plan_id":"cebpf4jnsgd1na2vs0mg"},{"bike_id":"054e163b-1e47-4a0a-a038-a7939885860e","system_id":"levelo_inurba_marseille","lat":43.32354,"lon":5.36743,"is_reserved":false,"is_disabled":false,"rental_uris":{"android":"levelo://app?vid=054e163b-1e47-4a0a-a038-a7939885860e","ios":"levelo://app?vid=054e163b-1e47-4a0a-a038-a7939885860e"},"vehicle_type_id":"4","last_reported":1769005201,"current_range_meters":7200,"station_id":"ce4bhsh2rcd13ifvqi2g","pricing_plan_id":"cebpf4jnsgd1na2vs0mg"},{"bike_id":"33d16851-e0a7-4e5c-a77f-4fee4b64995e","system_id":"levelo_inurba_marseille","lat":43.30639,"lon":5.40094,"is_reserved":false,"is_disabled":false,"rental_uris":{"android":"levelo://app?vid=33d16851-e0a7-4e5c-a77f-4fee4b64995e","ios":"levelo://app?vid=33d16851-e0a7-4e5c-a77f-4fee4b64995e"},"vehicle_type_id":"4","last_reported":1769005201,"current_range_meters":7200,"station_id":"ce4bh112rcd13ifvqda0","pricing_plan_id":"cebpf4jnsgd1na2vs0mg"},{"bike_id":"b2b1dff7-f6c8-4dbd-b544-d71f01a6a04b","system_id":"levelo_inurba_marseille","lat":43.28001,"lon":5.40005,"is_reserved":false,"is_disabled":false,"rental_uris":{"android":"levelo://app?vid=b2b1dff7-f6c8-4dbd-b544-d71f01a6a04b","ios":"levelo://app?vid=b2b1dff7-f6c8-4dbd-b544-d71f01a6a04b"},"vehicle_type_id":"4","last_reported":1769005201,"current_range_meters":7200,"station_id":"ce4bho92rcd13ifvqh4g","pricing_plan_id":"cebpf4jnsgd1na2vs0mg"},{"bike_id":"5b9b3b18-99c1-4f9d-8b57-c4139ebc48e1","system_id":"levelo_inurba_marseille","lat":43.317065,"lon":5.376988,"is_reserved":false,"is_disabled":false,"rental_uris":{"android":"levelo://app?vid=5b9b3b18-99c1-4f9d-8b57-c4139ebc48e1","ios":"levelo://app?vid=5b9b3b18-99c1-4f9d-8b57-c4139ebc48e1"},"vehicle_type_id":"4","last_reported":1769005201,"current_range_meters":7200,"station_id":"","pricing_plan_id":"cebpf4jnsgd1na2vs0mg"},{"bike_id":"d349b5c1-7d16-49b6-9493-aede4f4d79db","system_id":"levelo_inurba_marseille","lat":43.311686,"lon":5.387219,"is_reserved":false,"is_disabled":false,"rental_uris":{"android":"levelo://app?vid=d349b5c1-7d16-49b6-9493-aede4f4d79db","ios":"levelo://app?vid=d349b5c1-7d16-49b6-9493-aede4f4d79db"},"vehicle_type_id":"4","last_reported":1769005201,"current_range_meters":7200,"station_id":"ce4bhb12rcd13ifvqel0","pricing_plan_id":"cebpf4jnsgd1na2vs0mg"},{"bike_id":"f5b58293-4c8b-4442-9306-95a785253fca","system_id":"levelo_inurba_marseille","lat":43.25001,"lon":5.38923,"is_reserved":false,"is_disabled":false,"rental_uris":{"android":"levelo://app?vid=f5b58293-4c8b-4442-9306-95a785253fca","ios":"levelo://app?vid=f5b58293-4c8b-4442-9306-95a785253fca"},"vehicle_type_id":"4","last_reported":1769005201,"current_range_meters":7200,"station_id":"ce4bhgp2rcd13ifvqfd0","pricing_plan_id":"cebpf4jnsgd1na2vs0mg"},{"bike_id":"4a8410a9-bea4-472e-bc4e-7c782a84e68b","system_id":"levelo_inurba_marseille","lat":43.28471,"lon":5.35883,"is_reserved":false,"is_disabled":false,"rental_uris":{"android":"levelo://app?vid=4a8410a9-bea4-472e-bc4e-7c782a84e68b","ios":"levelo://app?vid=4a8410a9-bea4-472e-bc4e-7c782a84e68b"},"vehicle_type_id":"4","last_reported":1769005201,"current_range_meters":7200,"station_id":"ce4bhah2rcd13ifvqei0","pricing_plan_id":"cebpf4jnsgd1na2vs0mg"},{"bike_id":"d219e86e-7bd2-4634-893c-c4dc3b412045","system_id":"levelo_inurba_marseille","lat":43.25579,"lon":5.38221,"is_reserved":false,"is_disabled":false,"rental_uris":{"android":"levelo://app?vid=d219e86e-7bd2-4634-893c-c4dc3b412045","ios":"levelo://app?vid=d219e86e-7bd2-4634-893c-c4dc3b412045"},"vehicle_type_id":"4","last_reported":1769005201,"current_range_meters":7200,"station_id":"ce4bhih2rcd13ifvqfs0","pricing_plan_id":"cebpf4jnsgd1na2vs0mg"},{"bike_id":"601e45f1-e07d-47af-8d70-e69cecdb7c34","system_id":"levelo_inurba_marseille","lat":43.27075,"lon":5.422665,"is_reserved":false,"is_disabled":false,"rental_uris":{"android":"levelo://app?vid=601e45f1-e07d-47af-8d70-e69cecdb7c34","ios":"levelo://app?vid=601e45f1-e07d-47af-8d70-e69cecdb7c34"},"vehicle_type_id":"4","last_reported":1769005201,"current_range_meters":7200,"station_id":"ce4bhk92rcd13ifvqgb0","pricing_plan_id":"cebpf4jnsgd1na2vs0mg"},{"bike_id":"67ee24bc-76b2-4aeb-9e34-516f561b3506","system_id":"levelo_inurba_marseille","lat":43.2592,"lon":5.40887,"is_reserved":false,"is_disabled":false,"rental_uris":{"android":"levelo://app?vid=67ee24bc-76b2-4aeb-9e34-516f561b3506","ios":"levelo://app?vid=67ee24bc-76b2-4aeb-9e34-516f561b3506"},"vehicle_type_id":"4","last_reported":1769005201,"current_range_meters":7200,"station_id":"ce4bhm92rcd13ifvqglg","pricing_plan_id":"cebpf4jnsgd1na2vs0mg"},{"bike_id":"5e4f73e3-15b5-4161-b411-195292d3e766","system_id":"levelo_inurba_marseille","lat":43.24462,"lon":5.42537,"is_reserved":false,"is_disabled":false,"rental_uris":{"android":"levelo://app?vid=5e4f73e3-15b5-4161-b411-195292d3e766","ios":"levelo://app?vid=5e4f73e3-15b5-4161-b411-195292d3e766"},"vehicle_type_id":"4","last_reported":1769005201,"current_range_meters":7200,"station_id":"st_d4a3vfp97mjs738cd8kg","pricing_plan_id":"cebpf4jnsgd1na2vs0mg"},{"bike_id":"87376c51-7b52-4611-acd2-49441baafe3f","system_id":"levelo_inurba_marseille","lat":43.24614,"lon":5.40214,"is_reserved":false,"is_disabled":false,"rental_uris":{"android":"levelo://app?vid=87376c51-7b52-4611-acd2-49441baafe3f","ios":"levelo://app?vid=87376c51-7b52-4611-acd2-49441baafe3f"},"vehicle_type_id":"4","last_reported":1769005201,"current_range_meters":7200,"station_id":"","pricing_plan_id":"cebpf4jnsgd1na2vs0mg"},{"bike_id":"cc08d2b6-69fb-4c32-9f0f-91f88c556b74","system_id":"levelo_inurba_marseille","lat":43.22933,"lon":5.35372,"is_reserved":false,"is_disabled":false,"rental_uris":{"android":"levelo://app?vid=cc08d2b6-69fb-4c32-9f0f-91f88c556b74","ios":"levelo://app?vid=cc08d2b6-69fb-4c32-9f0f-91f88c556b74"},"vehicle_type_id":"4","last_reported":1769005201,"current_range_meters":7200,"station_id":"cpo3532slgdg3j2ikp40","pricing_plan_id":"cebpf4jnsgd1na2vs0mg"},{"bike_id":"15323a66-193b-4084-987d-2a29bba519f3","system_id":"levelo_inurba_marseille","lat":43.30142,"lon":5.43112,"is_reserved":false,"is_disabled":false,"rental_uris":{"android":"levelo://app?vid=15323a66-193b-4084-987d-2a29bba519f3","ios":"levelo://app?vid=15323a66-193b-4084-987d-2a29bba519f3"},"vehicle_type_id":"4","last_reported":1769005201,"current_range_meters":7200,"station_id":"st_d3js3co5814s73ftftug","pricing_plan_id":"cebpf4jnsgd1na2vs0mg"},{"bike_id":"9cde565e-751f-4d1c-94ae-7977c2021c32","system_id":"levelo_inurba_marseille","lat":43.31147,"lon":5.37744,"is_reserved":false,"is_disabled":false,"rental_uris":{"android":"levelo://app?vid=9cde565e-751f-4d1c-94ae-7977c2021c32","ios":"levelo://app?vid=9cde565e-751f-4d1c-94ae-7977c2021c32"},"vehicle_type_id":"4","last_reported":1769005201,"current_range_meters":7200,"station_id":"","pricing_plan_id":"cebpf4jnsgd1na2vs0mg"},{"bike_id":"c055199c-bd62-490e-8577-d64c0f179897","system_id":"levelo_inurba_marseille","lat":43.28541,"lon":5.441098,"is_reserved":false,"is_disabled":false,"rental_uris":{"android":"levelo://app?vid=c055199c-bd62-490e-8577-d64c0f179897","ios":"levelo://app?vid=c055199c-bd62-490e-8577-d64c0f179897"},"vehicle_type_id":"4","last_reported":1769005201,"current_range_meters":7200,"station_id":"st_d3j3df2ikq2c7380ej80","pricing_plan_id":"cebpf4jnsgd1na2vs0mg"},{"bike_id":"6fb19c91-7ffd-4222-b20e-e8f53699bc07","system_id":"levelo_inurba_marseille","lat":43.31891,"lon":5.40734,"is_reserved":false,"is_disabled":false,"rental_uris":{"android":"levelo://app?vid=6fb19c91-7ffd-4222-b20e-e8f53699bc07","ios":"levelo://app?vid=6fb19c91-7ffd-4222-b20e-e8f53699bc07"},"vehicle_type_id":"4","last_reported":1769005201,"current_range_meters":8000,"station_id":"ce4bhq12rcd13ifvqhig","pricing_plan_id":"cebpf4jnsgd1na2vs0mg"},{"bike_id":"3c072c65-168b-4b7a-8d41-bfb8256a86af","system_id":"levelo_inurba_marseille","lat":43.27206,"lon":5.39186,"is_reserved":false,"is_disabled":false,"rental_uris":{"android":"levelo://app?vid=3c072c65-168b-4b7a-8d41-bfb8256a86af","ios":"levelo://app?vid=3c072c65-168b-4b7a-8d41-bfb8256a86af"},"vehicle_type_id":"4","last_reported":1769005201,"current_range_meters":8000,"station_id":"ce4bhhp2rcd13ifvqfm0","pricing_plan_id":"cebpf4jnsgd1na2vs0mg"},{"bike_id":"a57784bc-f5d9-4a04-91a0-a0ce88abf185","system_id":"levelo_inurba_marseille","lat":43.24383,"lon":5.37054,"is_reserved":false,"is_disabled":false,"rental_uris":{"android":"levelo://app?vid=a57784bc-f5d9-4a04-91a0-a0ce88abf185","ios":"levelo://app?vid=a57784bc-f5d9-4a04-91a0-a0ce88abf185"},"vehicle_type_id":"4","last_reported":1769005201,"current_range_meters":8000,"station_id":"ce4bhhh2rcd13ifvqfk0","pricing_plan_id":"cebpf4jnsgd1na2vs0mg"},{"bike_id":"f3a01c85-86e9-4a7c-837b-602faf4bbfde","system_id":"levelo_inurba_marseille","lat":43.27992,"lon":5.38702,"is_reserved":false,"is_disabled":false,"rental_uris":{"android":"levelo://app?vid=f3a01c85-86e9-4a7c-837b-602faf4bbfde","ios":"levelo://app?vid=f3a01c85-86e9-4a7c-837b-602faf4bbfde"},"vehicle_type_id":"4","last_reported":1769005201,"current_range_meters":8000,"station_id":"ce4bhg12rcd13ifvqf80","pricing_plan_id":"cebpf4jnsgd1na2vs0mg"},{"bike_id":"ffabd398-f54b-45bd-9851-1b3115defcf6","system_id":"levelo_inurba_marseille","lat":43.2418,"lon":5.39724,"is_reserved":false,"is_disabled":false,"rental_uris":{"android":"levelo://app?vid=ffabd398-f54b-45bd-9851-1b3115defcf6","ios":"levelo://app?vid=ffabd398-f54b-45bd-9851-1b3115defcf6"},"vehicle_type_id":"4","last_reported":1769005201,"current_range_meters":8000,"station_id":"ce4bhn12rcd13ifvqgpg","pricing_plan_id":"cebpf4jnsgd1na2vs0mg"},{"bike_id":"0c39f0d8-be10-4e6d-9b77-03ab45f27e26","system_id":"levelo_inurba_marseille","lat":43.27811,"lon":5.40706,"is_reserved":false,"is_disabled":false,"rental_uris":{"android":"levelo://app?vid=0c39f0d8-be10-4e6d-9b77-03ab45f27e26","ios":"levelo://app?vid=0c39f0d8-be10-4e6d-9b77-03ab45f27e26"},"vehicle_type_id":"4","last_reported":1769005201,"current_range_meters":8000,"station_id":"ce4bhnh2rcd13ifvqgtg","pricing_plan_id":"cebpf4jnsgd1na2vs0mg"},{"bike_id":"a69314c9-b9f2-4018-a836-ee5604f66902","system_id":"levelo_inurba_marseille","lat":43.305287,"lon":5.365379,"is_reserved":false,"is_disabled":false,"rental_uris":{"android":"levelo://app?vid=a69314c9-b9f2-4018-a836-ee5604f66902","ios":"levelo://app?vid=a69314c9-b9f2-4018-a836-ee5604f66902"},"vehicle_type_id":"4","last_reported":1769005201,"current_range_meters":8000,"station_id":"ce4bgs12rcd13ifvqcag","pricing_plan_id":"cebpf4jnsgd1na2vs0mg"},{"bike_id":"2df2b395-8651-45e0-b24b-6ceb74dd000d","system_id":"levelo_inurba_marseille","lat":43.30947,"lon":5.3903,"is_reserved":false,"is_disabled":false,"rental_uris":{"android":"levelo://app?vid=2df2b395-8651-45e0-b24b-6ceb74dd000d","ios":"levelo://app?vid=2df2b395-8651-45e0-b24b-6ceb74dd000d"},"vehicle_type_id":"4","last_reported":1769005201,"current_range_meters":8000,"station_id":"ce4bgup2rcd13ifvqco0","pricing_plan_id":"cebpf4jnsgd1na2vs0mg"},{"bike_id":"88718b1a-0b41-4247-9187-dd16a929e14b","system_id":"levelo_inurba_marseille","lat":43.26548,"lon":5.37289,"is_reserved":false,"is_disabled":false,"rental_uris":{"android":"levelo://app?vid=88718b1a-0b41-4247-9187-dd16a929e14b","ios":"levelo://app?vid=88718b1a-0b41-4247-9187-dd16a929e14b"},"vehicle_type_id":"4","last_reported":1769005201,"current_range_meters":8000,"station_id":"ce4bhg12rcd13ifvqf70","pricing_plan_id":"cebpf4jnsgd1na2vs0mg"},{"bike_id":"d68cd528-87dc-4a28-8471-721b0cea6df0","system_id":"levelo_inurba_marseille","lat":43.28187,"lon":5.39211,"is_reserved":false,"is_disabled":false,"rental_uris":{"android":"levelo://app?vid=d68cd528-87dc-4a28-8471-721b0cea6df0","ios":"levelo://app?vid=d68cd528-87dc-4a28-8471-721b0cea6df0"},"vehicle_type_id":"4","last_reported":1769005201,"current_range_meters":8000,"station_id":"","pricing_plan_id":"cebpf4jnsgd1na2vs0mg"},{"bike_id":"69cadbd2-5224-4e51-ae89-c9629cd1670e","system_id":"levelo_inurba_marseille","lat":43.21204,"lon":5.35082,"is_reserved":false,"is_disabled":false,"rental_uris":{"android":"levelo://app?vid=69cadbd2-5224-4e51-ae89-c9629cd1670e","ios":"levelo://app?vid=69cadbd2-5224-4e51-ae89-c9629cd1670e"},"vehicle_type_id":"4","last_reported":1769005201,"current_range_meters":8000,"station_id":"st_cvj6sg6p6f1abm77japg","pricing_plan_id":"cebpf4jnsgd1na2vs0mg"},{"bike_id":"f1891b47-3101-4ba0-a5c6-c89d6bfdf591","system_id":"levelo_inurba_marseille","lat":43.308912,"lon":5.396527,"is_reserved":false,"is_disabled":false,"rental_uris":{"android":"levelo://app?vid=f1891b47-3101-4ba0-a5c6-c89d6bfdf591","ios":"levelo://app?vid=f1891b47-3101-4ba0-a5c6-c89d6bfdf591"},"vehicle_type_id":"4","last_reported":1769005201,"current_range_meters":8000,"station_id":"ce4bh012rcd13ifvqcv0","pricing_plan_id":"cebpf4jnsgd1na2vs0mg"},{"bike_id":"6ec86b6a-11af-44ec-aa58-beb1b9c8a19f","system_id":"levelo_inurba_marseille","lat":43.32482,"lon":5.36568,"is_reserved":false,"is_disabled":false,"rental_uris":{"android":"levelo://app?vid=6ec86b6a-11af-44ec-aa58-beb1b9c8a19f","ios":"levelo://app?vid=6ec86b6a-11af-44ec-aa58-beb1b9c8a19f"},"vehicle_type_id":"4","last_reported":1769005201,"current_range_meters":8000,"station_id":"ce4bhs12rcd13ifvqhvg","pricing_plan_id":"cebpf4jnsgd1na2vs0mg"},{"bike_id":"e60b80c1-e035-4d06-8dfd-6a5996278e1f","system_id":"levelo_inurba_marseille","lat":43.24486,"lon":5.42508,"is_reserved":false,"is_disabled":false,"rental_uris":{"android":"levelo://app?vid=e60b80c1-e035-4d06-8dfd-6a5996278e1f","ios":"levelo://app?vid=e60b80c1-e035-4d06-8dfd-6a5996278e1f"},"vehicle_type_id":"4","last_reported":1769005201,"current_range_meters":8000,"station_id":"st_d4a3vfp97mjs738cd8kg","pricing_plan_id":"cebpf4jnsgd1na2vs0mg"},{"bike_id":"408e8636-0be7-4b88-bee2-39675973c9f7","system_id":"levelo_inurba_marseille","lat":43.29049,"lon":5.39996,"is_reserved":false,"is_disabled":false,"rental_uris":{"android":"levelo://app?vid=408e8636-0be7-4b88-bee2-39675973c9f7","ios":"levelo://app?vid=408e8636-0be7-4b88-bee2-39675973c9f7"},"vehicle_type_id":"4","last_reported":1769005201,"current_range_meters":8400,"station_id":"ce4bh392rcd13ifvqdm0","pricing_plan_id":"cebpf4jnsgd1na2vs0mg"},{"bike_id":"e18e15b1-254c-4764-89f5-4ecaf6dde180","system_id":"levelo_inurba_marseille","lat":43.31384,"lon":5.36723,"is_reserved":false,"is_disabled":false,"rental_uris":{"android":"levelo://app?vid=e18e15b1-254c-4764-89f5-4ecaf6dde180","ios":"levelo://app?vid=e18e15b1-254c-4764-89f5-4ecaf6dde180"},"vehicle_type_id":"4","last_reported":1769005201,"current_range_meters":8400,"station_id":"","pricing_plan_id":"cebpf4jnsgd1na2vs0mg"},{"bike_id":"e07cc4c7-f8da-43b9-86b7-9b5a29a91e8f","system_id":"levelo_inurba_marseille","lat":43.27902,"lon":5.380165,"is_reserved":false,"is_disabled":false,"rental_uris":{"android":"levelo://app?vid=e07cc4c7-f8da-43b9-86b7-9b5a29a91e8f","ios":"levelo://app?vid=e07cc4c7-f8da-43b9-86b7-9b5a29a91e8f"},"vehicle_type_id":"4","last_reported":1769005201,"current_range_meters":8400,"station_id":"ce4bhf92rcd13ifvqf50","pricing_plan_id":"cebpf4jnsgd1na2vs0mg"},{"bike_id":"19c9b524-76f1-4e5d-8be9-000b11a19079","system_id":"levelo_inurba_marseille","lat":43.25038,"lon":5.38875,"is_reserved":false,"is_disabled":false,"rental_uris":{"android":"levelo://app?vid=19c9b524-76f1-4e5d-8be9-000b11a19079","ios":"levelo://app?vid=19c9b524-76f1-4e5d-8be9-000b11a19079"},"vehicle_type_id":"4","last_reported":1769005201,"current_range_meters":8400,"station_id":"ce4bhgp2rcd13ifvqfd0","pricing_plan_id":"cebpf4jnsgd1na2vs0mg"},{"bike_id":"ebc59118-e1a4-482d-84d0-eafb34b0b9ea","system_id":"levelo_inurba_marseille","lat":43.23776,"lon":5.36635,"is_reserved":false,"is_disabled":false,"rental_uris":{"android":"levelo://app?vid=ebc59118-e1a4-482d-84d0-eafb34b0b9ea","ios":"levelo://app?vid=ebc59118-e1a4-482d-84d0-eafb34b0b9ea"},"vehicle_type_id":"4","last_reported":1769005201,"current_range_meters":8400,"station_id":"st_d3nk18o9ro0c73en2l3g","pricing_plan_id":"cebpf4jnsgd1na2vs0mg"},{"bike_id":"888aaf1f-cf99-430c-b721-47b143b278d8","system_id":"levelo_inurba_marseille","lat":43.25941,"lon":5.40864,"is_reserved":false,"is_disabled":false,"rental_uris":{"android":"levelo://app?vid=888aaf1f-cf99-430c-b721-47b143b278d8","ios":"levelo://app?vid=888aaf1f-cf99-430c-b721-47b143b278d8"},"vehicle_type_id":"4","last_reported":1769005201,"current_range_meters":8400,"station_id":"ce4bhm92rcd13ifvqglg","pricing_plan_id":"cebpf4jnsgd1na2vs0mg"},{"bike_id":"fe2a828f-710f-491e-b529-f22ca09a8365","system_id":"levelo_inurba_marseille","lat":43.307301,"lon":5.409434,"is_reserved":false,"is_disabled":false,"rental_uris":{"android":"levelo://app?vid=fe2a828f-710f-491e-b529-f22ca09a8365","ios":"levelo://app?vid=fe2a828f-710f-491e-b529-f22ca09a8365"},"vehicle_type_id":"4","last_reported":1769005201,"current_range_meters":8400,"station_id":"","pricing_plan_id":"cebpf4jnsgd1na2vs0mg"},{"bike_id":"d9fff92a-3943-4a01-98e1-7c430b29f114","system_id":"levelo_inurba_marseille","lat":43.27988,"lon":5.41673,"is_reserved":false,"is_disabled":false,"rental_uris":{"android":"levelo://app?vid=d9fff92a-3943-4a01-98e1-7c430b29f114","ios":"levelo://app?vid=d9fff92a-3943-4a01-98e1-7c430b29f114"},"vehicle_type_id":"4","last_reported":1769005201,"current_range_meters":8400,"station_id":"ce4bho12rcd13ifvqh1g","pricing_plan_id":"cebpf4jnsgd1na2vs0mg"},{"bike_id":"90fd9743-abf7-4844-951b-b0c621e30ae6","system_id":"levelo_inurba_marseille","lat":43.30905,"lon":5.36853,"is_reserved":false,"is_disabled":false,"rental_uris":{"android":"levelo://app?vid=90fd9743-abf7-4844-951b-b0c621e30ae6","ios":"levelo://app?vid=90fd9743-abf7-4844-951b-b0c621e30ae6"},"vehicle_type_id":"4","last_reported":1769005201,"current_range_meters":8400,"station_id":"ce4bgn92rcd13ifvqbvg","pricing_plan_id":"cebpf4jnsgd1na2vs0mg"},{"bike_id":"f6de2d43-1f49-448d-9d89-c685ca8fe5a3","system_id":"levelo_inurba_marseille","lat":43.30529,"lon":5.36524,"is_reserved":false,"is_disabled":false,"rental_uris":{"android":"levelo://app?vid=f6de2d43-1f49-448d-9d89-c685ca8fe5a3","ios":"levelo://app?vid=f6de2d43-1f49-448d-9d89-c685ca8fe5a3"},"vehicle_type_id":"4","last_reported":1769005201,"current_range_meters":8400,"station_id":"ce4bgs12rcd13ifvqcag","pricing_plan_id":"cebpf4jnsgd1na2vs0mg"},{"bike_id":"fddbb7cb-a21d-46ff-8d07-df9eecd44019","system_id":"levelo_inurba_marseille","lat":43.32116,"lon":5.36777,"is_reserved":false,"is_disabled":false,"rental_uris":{"android":"levelo://app?vid=fddbb7cb-a21d-46ff-8d07-df9eecd44019","ios":"levelo://app?vid=fddbb7cb-a21d-46ff-8d07-df9eecd44019"},"vehicle_type_id":"4","last_reported":1769005201,"current_range_meters":8400,"station_id":"ce4bhrh2rcd13ifvqhug","pricing_plan_id":"cebpf4jnsgd1na2vs0mg"},{"bike_id":"5c5e1930-77dc-45bd-bed1-98d8ce506dbf","system_id":"levelo_inurba_marseille","lat":43.26057,"lon":5.39389,"is_reserved":false,"is_disabled":false,"rental_uris":{"android":"levelo://app?vid=5c5e1930-77dc-45bd-bed1-98d8ce506dbf","ios":"levelo://app?vid=5c5e1930-77dc-45bd-bed1-98d8ce506dbf"},"vehicle_type_id":"4","last_reported":1769005201,"current_range_meters":8400,"station_id":"ce4bhh92rcd13ifvqfj0","pricing_plan_id":"cebpf4jnsgd1na2vs0mg"},{"bike_id":"ca1f68a2-e356-46d7-8d5f-503710c9279d","system_id":"levelo_inurba_marseille","lat":43.25591,"lon":5.38237,"is_reserved":false,"is_disabled":false,"rental_uris":{"android":"levelo://app?vid=ca1f68a2-e356-46d7-8d5f-503710c9279d","ios":"levelo://app?vid=ca1f68a2-e356-46d7-8d5f-503710c9279d"},"vehicle_type_id":"4","last_reported":1769005201,"current_range_meters":8400,"station_id":"ce4bhih2rcd13ifvqfs0","pricing_plan_id":"cebpf4jnsgd1na2vs0mg"},{"bike_id":"f9ca995a-cc09-49fb-a65b-5cbcd6266ccb","system_id":"levelo_inurba_marseille","lat":43.30151,"lon":5.38093,"is_reserved":false,"is_disabled":false,"rental_uris":{"android":"levelo://app?vid=f9ca995a-cc09-49fb-a65b-5cbcd6266ccb","ios":"levelo://app?vid=f9ca995a-cc09-49fb-a65b-5cbcd6266ccb"},"vehicle_type_id":"4","last_reported":1769005201,"current_range_meters":8400,"station_id":"ce4bgjp2rcd13ifvqbh0","pricing_plan_id":"cebpf4jnsgd1na2vs0mg"},{"bike_id":"800ac751-b72d-4eb8-b5ef-7e899db1abd8","system_id":"levelo_inurba_marseille","lat":43.32723,"lon":5.39239,"is_reserved":false,"is_disabled":false,"rental_uris":{"android":"levelo://app?vid=800ac751-b72d-4eb8-b5ef-7e899db1abd8","ios":"levelo://app?vid=800ac751-b72d-4eb8-b5ef-7e899db1abd8"},"vehicle_type_id":"4","last_reported":1769005201,"current_range_meters":8400,"station_id":"","pricing_plan_id":"cebpf4jnsgd1na2vs0mg"},{"bike_id":"6ce190b6-c466-4ac6-bb9d-9cc75b2398c8","system_id":"levelo_inurba_marseille","lat":43.30955,"lon":5.39042,"is_reserved":false,"is_disabled":false,"rental_uris":{"android":"levelo://app?vid=6ce190b6-c466-4ac6-bb9d-9cc75b2398c8","ios":"levelo://app?vid=6ce190b6-c466-4ac6-bb9d-9cc75b2398c8"},"vehicle_type_id":"4","last_reported":1769005201,"current_range_meters":8400,"station_id":"ce4bgup2rcd13ifvqco0","pricing_plan_id":"cebpf4jnsgd1na2vs0mg"},{"bike_id":"42ad3ecc-0a5c-4850-9931-a019c27979e1","system_id":"levelo_inurba_marseille","lat":43.28617,"lon":5.35118,"is_reserved":false,"is_disabled":false,"rental_uris":{"android":"levelo://app?vid=42ad3ecc-0a5c-4850-9931-a019c27979e1","ios":"levelo://app?vid=42ad3ecc-0a5c-4850-9931-a019c27979e1"},"vehicle_type_id":"4","last_reported":1769005201,"current_range_meters":8400,"station_id":"ce4bhch2rcd13ifvqeug","pricing_plan_id":"cebpf4jnsgd1na2vs0mg"},{"bike_id":"83461687-2d6f-44e3-8195-fb721f9fb181","system_id":"levelo_inurba_marseille","lat":43.28476,"lon":5.48401,"is_reserved":false,"is_disabled":false,"rental_uris":{"android":"levelo://app?vid=83461687-2d6f-44e3-8195-fb721f9fb181","ios":"levelo://app?vid=83461687-2d6f-44e3-8195-fb721f9fb181"},"vehicle_type_id":"4","last_reported":1769005201,"current_range_meters":8400,"station_id":"","pricing_plan_id":"cebpf4jnsgd1na2vs0mg"},{"bike_id":"681614b6-92df-42e1-8ea1-7f3809b7c62f","system_id":"levelo_inurba_marseille","lat":43.27997,"lon":5.41663,"is_reserved":false,"is_disabled":false,"rental_uris":{"android":"levelo://app?vid=681614b6-92df-42e1-8ea1-7f3809b7c62f","ios":"levelo://app?vid=681614b6-92df-42e1-8ea1-7f3809b7c62f"},"vehicle_type_id":"4","last_reported":1769005201,"current_range_meters":8400,"station_id":"ce4bho12rcd13ifvqh1g","pricing_plan_id":"cebpf4jnsgd1na2vs0mg"},{"bike_id":"1782106b-3848-46bf-bdd2-73c351900c24","system_id":"levelo_inurba_marseille","lat":43.29062,"lon":5.37159,"is_reserved":false,"is_disabled":false,"rental_uris":{"android":"levelo://app?vid=1782106b-3848-46bf-bdd2-73c351900c24","ios":"levelo://app?vid=1782106b-3848-46bf-bdd2-73c351900c24"},"vehicle_type_id":"4","last_reported":1769005201,"current_range_meters":8400,"station_id":"ce4bh5p2rcd13ifvqe4g","pricing_plan_id":"cebpf4jnsgd1na2vs0mg"},{"bike_id":"19c9b4d2-1ea0-4167-80ed-614d6330d907","system_id":"levelo_inurba_marseille","lat":43.23186,"lon":5.3999,"is_reserved":false,"is_disabled":false,"rental_uris":{"android":"levelo://app?vid=19c9b4d2-1ea0-4167-80ed-614d6330d907","ios":"levelo://app?vid=19c9b4d2-1ea0-4167-80ed-614d6330d907"},"vehicle_type_id":"4","last_reported":1769005201,"current_range_meters":8400,"station_id":"ce4bhn12rcd13ifvqgqg","pricing_plan_id":"cebpf4jnsgd1na2vs0mg"},{"bike_id":"db5c533d-ad6a-4cca-9da6-b7b91ac05bc1","system_id":"levelo_inurba_marseille","lat":43.217589,"lon":5.346045,"is_reserved":false,"is_disabled":false,"rental_uris":{"android":"levelo://app?vid=db5c533d-ad6a-4cca-9da6-b7b91ac05bc1","ios":"levelo://app?vid=db5c533d-ad6a-4cca-9da6-b7b91ac05bc1"},"vehicle_type_id":"4","last_reported":1769005201,"current_range_meters":8400,"station_id":"st_cvj6r9ubvosntc0bgbag","pricing_plan_id":"cebpf4jnsgd1na2vs0mg"},{"bike_id":"131d083d-d299-49de-ae79-91ebeb210640","system_id":"levelo_inurba_marseille","lat":43.25707,"lon":5.41798,"is_reserved":false,"is_disabled":false,"rental_uris":{"android":"levelo://app?vid=131d083d-d299-49de-ae79-91ebeb210640","ios":"levelo://app?vid=131d083d-d299-49de-ae79-91ebeb210640"},"vehicle_type_id":"4","last_reported":1769005201,"current_range_meters":8400,"station_id":"","pricing_plan_id":"cebpf4jnsgd1na2vs0mg"},{"bike_id":"1ecccce8-17c7-4d0e-bbc9-c964581d368e","system_id":"levelo_inurba_marseille","lat":43.31285,"lon":5.40171,"is_reserved":false,"is_disabled":false,"rental_uris":{"android":"levelo://app?vid=1ecccce8-17c7-4d0e-bbc9-c964581d368e","ios":"levelo://app?vid=1ecccce8-17c7-4d0e-bbc9-c964581d368e"},"vehicle_type_id":"4","last_reported":1769005201,"current_range_meters":8400,"station_id":"ce4bh092rcd13ifvqd30","pricing_plan_id":"cebpf4jnsgd1na2vs0mg"},{"bike_id":"4d8693b8-91d5-45cc-ae82-83a94a95f51a","system_id":"levelo_inurba_marseille","lat":43.295129,"lon":5.394072,"is_reserved":false,"is_disabled":false,"rental_uris":{"android":"levelo://app?vid=4d8693b8-91d5-45cc-ae82-83a94a95f51a","ios":"levelo://app?vid=4d8693b8-91d5-45cc-ae82-83a94a95f51a"},"vehicle_type_id":"4","last_reported":1769005201,"current_range_meters":8400,"station_id":"ce4bh292rcd13ifvqdf0","pricing_plan_id":"cebpf4jnsgd1na2vs0mg"},{"bike_id":"be769fd2-e0f2-434c-a844-074b28c71c90","system_id":"levelo_inurba_marseille","lat":43.25918,"lon":5.40895,"is_reserved":false,"is_disabled":false,"rental_uris":{"android":"levelo://app?vid=be769fd2-e0f2-434c-a844-074b28c71c90","ios":"levelo://app?vid=be769fd2-e0f2-434c-a844-074b28c71c90"},"vehicle_type_id":"4","last_reported":1769005201,"current_range_meters":8800,"station_id":"ce4bhm92rcd13ifvqglg","pricing_plan_id":"cebpf4jnsgd1na2vs0mg"},{"bike_id":"28f55ca8-d2ea-41c1-902d-e5277b239569","system_id":"levelo_inurba_marseille","lat":43.263846,"lon":5.410767,"is_reserved":false,"is_disabled":false,"rental_uris":{"android":"levelo://app?vid=28f55ca8-d2ea-41c1-902d-e5277b239569","ios":"levelo://app?vid=28f55ca8-d2ea-41c1-902d-e5277b239569"},"vehicle_type_id":"4","last_reported":1769005201,"current_range_meters":8800,"station_id":"st_d4e5ca6na9uc73bfl5fg","pricing_plan_id":"cebpf4jnsgd1na2vs0mg"},{"bike_id":"274955a0-a909-4638-b210-1f9da8b9348c","system_id":"levelo_inurba_marseille","lat":43.25503,"lon":5.37648,"is_reserved":false,"is_disabled":false,"rental_uris":{"android":"levelo://app?vid=274955a0-a909-4638-b210-1f9da8b9348c","ios":"levelo://app?vid=274955a0-a909-4638-b210-1f9da8b9348c"},"vehicle_type_id":"4","last_reported":1769005201,"current_range_meters":8800,"station_id":"ce4bhh12rcd13ifvqff0","pricing_plan_id":"cebpf4jnsgd1na2vs0mg"},{"bike_id":"a7b337e2-5d7f-42fd-bc45-80430755f131","system_id":"levelo_inurba_marseille","lat":43.29976,"lon":5.37169,"is_reserved":false,"is_disabled":false,"rental_uris":{"android":"levelo://app?vid=a7b337e2-5d7f-42fd-bc45-80430755f131","ios":"levelo://app?vid=a7b337e2-5d7f-42fd-bc45-80430755f131"},"vehicle_type_id":"4","last_reported":1769005201,"current_range_meters":8800,"station_id":"ce4bgr92rcd13ifvqc7g","pricing_plan_id":"cebpf4jnsgd1na2vs0mg"},{"bike_id":"bf9df301-dc0d-41cc-96a1-27301e9f819b","system_id":"levelo_inurba_marseille","lat":43.284834,"lon":5.483897,"is_reserved":false,"is_disabled":false,"rental_uris":{"android":"levelo://app?vid=bf9df301-dc0d-41cc-96a1-27301e9f819b","ios":"levelo://app?vid=bf9df301-dc0d-41cc-96a1-27301e9f819b"},"vehicle_type_id":"4","last_reported":1769005201,"current_range_meters":8800,"station_id":"","pricing_plan_id":"cebpf4jnsgd1na2vs0mg"},{"bike_id":"3a05cc6e-50be-46aa-996b-cd6b30cbdddf","system_id":"levelo_inurba_marseille","lat":43.26696,"lon":5.38259,"is_reserved":false,"is_disabled":false,"rental_uris":{"android":"levelo://app?vid=3a05cc6e-50be-46aa-996b-cd6b30cbdddf","ios":"levelo://app?vid=3a05cc6e-50be-46aa-996b-cd6b30cbdddf"},"vehicle_type_id":"4","last_reported":1769005201,"current_range_meters":8800,"station_id":"ce4bhg92rcd13ifvqf90","pricing_plan_id":"cebpf4jnsgd1na2vs0mg"},{"bike_id":"488d3d36-c3f0-4390-80be-f0194a76248a","system_id":"levelo_inurba_marseille","lat":43.25591,"lon":5.40418,"is_reserved":false,"is_disabled":false,"rental_uris":{"android":"levelo://app?vid=488d3d36-c3f0-4390-80be-f0194a76248a","ios":"levelo://app?vid=488d3d36-c3f0-4390-80be-f0194a76248a"},"vehicle_type_id":"4","last_reported":1769005201,"current_range_meters":8800,"station_id":"","pricing_plan_id":"cebpf4jnsgd1na2vs0mg"},{"bike_id":"aec5c08c-9f05-47e9-bb02-2d63b83fc483","system_id":"levelo_inurba_marseille","lat":43.26754,"lon":5.39221,"is_reserved":false,"is_disabled":false,"rental_uris":{"android":"levelo://app?vid=aec5c08c-9f05-47e9-bb02-2d63b83fc483","ios":"levelo://app?vid=aec5c08c-9f05-47e9-bb02-2d63b83fc483"},"vehicle_type_id":"4","last_reported":1769005201,"current_range_meters":8800,"station_id":"","pricing_plan_id":"cebpf4jnsgd1na2vs0mg"},{"bike_id":"53ec5590-36d9-4d66-b6fa-28be4e71ff12","system_id":"levelo_inurba_marseille","lat":43.23157,"lon":5.43709,"is_reserved":false,"is_disabled":false,"rental_uris":{"android":"levelo://app?vid=53ec5590-36d9-4d66-b6fa-28be4e71ff12","ios":"levelo://app?vid=53ec5590-36d9-4d66-b6fa-28be4e71ff12"},"vehicle_type_id":"4","last_reported":1769005201,"current_range_meters":8800,"station_id":"ce4bhmp2rcd13ifvqgog","pricing_plan_id":"cebpf4jnsgd1na2vs0mg"},{"bike_id":"608693ee-146a-43ab-bdee-d762de330fcf","system_id":"levelo_inurba_marseille","lat":43.285318,"lon":5.440977,"is_reserved":false,"is_disabled":false,"rental_uris":{"android":"levelo://app?vid=608693ee-146a-43ab-bdee-d762de330fcf","ios":"levelo://app?vid=608693ee-146a-43ab-bdee-d762de330fcf"},"vehicle_type_id":"4","last_reported":1769005201,"current_range_meters":8800,"station_id":"st_d3j3df2ikq2c7380ej80","pricing_plan_id":"cebpf4jnsgd1na2vs0mg"},{"bike_id":"b14b7864-c78c-4d3b-8985-7705cba3866f","system_id":"levelo_inurba_marseille","lat":43.2293,"lon":5.35379,"is_reserved":false,"is_disabled":false,"rental_uris":{"android":"levelo://app?vid=b14b7864-c78c-4d3b-8985-7705cba3866f","ios":"levelo://app?vid=b14b7864-c78c-4d3b-8985-7705cba3866f"},"vehicle_type_id":"4","last_reported":1769005201,"current_range_meters":8800,"station_id":"cpo3532slgdg3j2ikp40","pricing_plan_id":"cebpf4jnsgd1na2vs0mg"},{"bike_id":"00999e89-a571-437a-ba3f-5550eea4ba78","system_id":"levelo_inurba_marseille","lat":43.28938,"lon":5.36656,"is_reserved":false,"is_disabled":false,"rental_uris":{"android":"levelo://app?vid=00999e89-a571-437a-ba3f-5550eea4ba78","ios":"levelo://app?vid=00999e89-a571-437a-ba3f-5550eea4ba78"},"vehicle_type_id":"4","last_reported":1769005201,"current_range_meters":8800,"station_id":"ce4bhap2rcd13ifvqek0","pricing_plan_id":"cebpf4jnsgd1na2vs0mg"},{"bike_id":"8d79b599-322a-4b8d-bfb0-fd0690ea34d0","system_id":"levelo_inurba_marseille","lat":43.28806,"lon":5.38033,"is_reserved":false,"is_disabled":false,"rental_uris":{"android":"levelo://app?vid=8d79b599-322a-4b8d-bfb0-fd0690ea34d0","ios":"levelo://app?vid=8d79b599-322a-4b8d-bfb0-fd0690ea34d0"},"vehicle_type_id":"4","last_reported":1769005201,"current_range_meters":8800,"station_id":"","pricing_plan_id":"cebpf4jnsgd1na2vs0mg"},{"bike_id":"0fb3d036-2071-4d4b-a99c-0b94be6cfd65","system_id":"levelo_inurba_marseille","lat":43.28158,"lon":5.42654,"is_reserved":false,"is_disabled":false,"rental_uris":{"android":"levelo://app?vid=0fb3d036-2071-4d4b-a99c-0b94be6cfd65","ios":"levelo://app?vid=0fb3d036-2071-4d4b-a99c-0b94be6cfd65"},"vehicle_type_id":"4","last_reported":1769005201,"current_range_meters":9200,"station_id":"ce4bhnh2rcd13ifvqgug","pricing_plan_id":"cebpf4jnsgd1na2vs0mg"},{"bike_id":"ae082b45-528d-4d2d-a946-c7dc2ab87b58","system_id":"levelo_inurba_marseille","lat":43.2737,"lon":5.36249,"is_reserved":false,"is_disabled":false,"rental_uris":{"android":"levelo://app?vid=ae082b45-528d-4d2d-a946-c7dc2ab87b58","ios":"levelo://app?vid=ae082b45-528d-4d2d-a946-c7dc2ab87b58"},"vehicle_type_id":"4","last_reported":1769005201,"current_range_meters":9200,"station_id":"ce4bhbh2rcd13ifvqeo0","pricing_plan_id":"cebpf4jnsgd1na2vs0mg"},{"bike_id":"8de67db5-d700-4e6d-9383-af94091c6218","system_id":"levelo_inurba_marseille","lat":43.27371,"lon":5.36264,"is_reserved":false,"is_disabled":false,"rental_uris":{"android":"levelo://app?vid=8de67db5-d700-4e6d-9383-af94091c6218","ios":"levelo://app?vid=8de67db5-d700-4e6d-9383-af94091c6218"},"vehicle_type_id":"4","last_reported":1769005201,"current_range_meters":9200,"station_id":"ce4bhbh2rcd13ifvqeo0","pricing_plan_id":"cebpf4jnsgd1na2vs0mg"},{"bike_id":"97b1089f-8629-488f-a223-00169174347e","system_id":"levelo_inurba_marseille","lat":43.24648,"lon":5.43152,"is_reserved":false,"is_disabled":false,"rental_uris":{"android":"levelo://app?vid=97b1089f-8629-488f-a223-00169174347e","ios":"levelo://app?vid=97b1089f-8629-488f-a223-00169174347e"},"vehicle_type_id":"4","last_reported":1769005201,"current_range_meters":9200,"station_id":"st_d2m6c4gdas8pm72e190g","pricing_plan_id":"cebpf4jnsgd1na2vs0mg"},{"bike_id":"48ef64db-40a1-4c6d-87c8-33a8e4515b71","system_id":"levelo_inurba_marseille","lat":43.30463,"lon":5.37902,"is_reserved":false,"is_disabled":false,"rental_uris":{"android":"levelo://app?vid=48ef64db-40a1-4c6d-87c8-33a8e4515b71","ios":"levelo://app?vid=48ef64db-40a1-4c6d-87c8-33a8e4515b71"},"vehicle_type_id":"4","last_reported":1769005201,"current_range_meters":9200,"station_id":"ce4bgup2rcd13ifvqcn0","pricing_plan_id":"cebpf4jnsgd1na2vs0mg"},{"bike_id":"d8f34b5e-d831-4a3d-8643-93f2f2dfecae","system_id":"levelo_inurba_marseille","lat":43.241698,"lon":5.363947,"is_reserved":false,"is_disabled":false,"rental_uris":{"android":"levelo://app?vid=d8f34b5e-d831-4a3d-8643-93f2f2dfecae","ios":"levelo://app?vid=d8f34b5e-d831-4a3d-8643-93f2f2dfecae"},"vehicle_type_id":"4","last_reported":1769005201,"current_range_meters":9200,"station_id":"cpo36qri1sfpv3e86is0","pricing_plan_id":"cebpf4jnsgd1na2vs0mg"},{"bike_id":"22bc6d8e-7e0c-4234-afe0-c88e2589ac70","system_id":"levelo_inurba_marseille","lat":43.27041,"lon":5.399,"is_reserved":false,"is_disabled":false,"rental_uris":{"android":"levelo://app?vid=22bc6d8e-7e0c-4234-afe0-c88e2589ac70","ios":"levelo://app?vid=22bc6d8e-7e0c-4234-afe0-c88e2589ac70"},"vehicle_type_id":"4","last_reported":1769005201,"current_range_meters":9200,"station_id":"","pricing_plan_id":"cebpf4jnsgd1na2vs0mg"},{"bike_id":"0b1abdce-2b71-4e52-99c9-ef200349b114","system_id":"levelo_inurba_marseille","lat":43.27822,"lon":5.40689,"is_reserved":false,"is_disabled":false,"rental_uris":{"android":"levelo://app?vid=0b1abdce-2b71-4e52-99c9-ef200349b114","ios":"levelo://app?vid=0b1abdce-2b71-4e52-99c9-ef200349b114"},"vehicle_type_id":"4","last_reported":1769005201,"current_range_meters":9200,"station_id":"ce4bhnh2rcd13ifvqgtg","pricing_plan_id":"cebpf4jnsgd1na2vs0mg"},{"bike_id":"0c58ee6e-14e3-4440-8b9a-3b450e5e3ba8","system_id":"levelo_inurba_marseille","lat":43.33537,"lon":5.3998,"is_reserved":false,"is_disabled":false,"rental_uris":{"android":"levelo://app?vid=0c58ee6e-14e3-4440-8b9a-3b450e5e3ba8","ios":"levelo://app?vid=0c58ee6e-14e3-4440-8b9a-3b450e5e3ba8"},"vehicle_type_id":"4","last_reported":1769005201,"current_range_meters":9200,"station_id":"","pricing_plan_id":"cebpf4jnsgd1na2vs0mg"},{"bike_id":"66588bd4-ede7-4f16-9000-80e9462d12b2","system_id":"levelo_inurba_marseille","lat":43.30952,"lon":5.39038,"is_reserved":false,"is_disabled":false,"rental_uris":{"android":"levelo://app?vid=66588bd4-ede7-4f16-9000-80e9462d12b2","ios":"levelo://app?vid=66588bd4-ede7-4f16-9000-80e9462d12b2"},"vehicle_type_id":"4","last_reported":1769005201,"current_range_meters":9200,"station_id":"ce4bgup2rcd13ifvqco0","pricing_plan_id":"cebpf4jnsgd1na2vs0mg"},{"bike_id":"bc1749f2-e201-428b-aae0-5e7b316293ca","system_id":"levelo_inurba_marseille","lat":43.295,"lon":5.37797,"is_reserved":false,"is_disabled":false,"rental_uris":{"android":"levelo://app?vid=bc1749f2-e201-428b-aae0-5e7b316293ca","ios":"levelo://app?vid=bc1749f2-e201-428b-aae0-5e7b316293ca"},"vehicle_type_id":"4","last_reported":1769005201,"current_range_meters":9200,"station_id":"","pricing_plan_id":"cebpf4jnsgd1na2vs0mg"},{"bike_id":"737cdf6e-8c2e-4b43-8e7d-478c69e4c6a4","system_id":"levelo_inurba_marseille","lat":43.33057,"lon":5.39012,"is_reserved":false,"is_disabled":false,"rental_uris":{"android":"levelo://app?vid=737cdf6e-8c2e-4b43-8e7d-478c69e4c6a4","ios":"levelo://app?vid=737cdf6e-8c2e-4b43-8e7d-478c69e4c6a4"},"vehicle_type_id":"4","last_reported":1769005201,"current_range_meters":9200,"station_id":"ce4bhr92rcd13ifvqhrg","pricing_plan_id":"cebpf4jnsgd1na2vs0mg"},{"bike_id":"61dee7a9-64ae-4254-9316-44503ece0439","system_id":"levelo_inurba_marseille","lat":43.31381,"lon":5.38528,"is_reserved":false,"is_disabled":false,"rental_uris":{"android":"levelo://app?vid=61dee7a9-64ae-4254-9316-44503ece0439","ios":"levelo://app?vid=61dee7a9-64ae-4254-9316-44503ece0439"},"vehicle_type_id":"4","last_reported":1769005201,"current_range_meters":9200,"station_id":"ce4bgt92rcd13ifvqcf0","pricing_plan_id":"cebpf4jnsgd1na2vs0mg"},{"bike_id":"fc5d102e-6a36-4a5b-99d5-23cf30eec9b5","system_id":"levelo_inurba_marseille","lat":43.23192,"lon":5.3555,"is_reserved":false,"is_disabled":false,"rental_uris":{"android":"levelo://app?vid=fc5d102e-6a36-4a5b-99d5-23cf30eec9b5","ios":"levelo://app?vid=fc5d102e-6a36-4a5b-99d5-23cf30eec9b5"},"vehicle_type_id":"4","last_reported":1769005201,"current_range_meters":9600,"station_id":"ce4bhu92rcd13ifvqi70","pricing_plan_id":"cebpf4jnsgd1na2vs0mg"},{"bike_id":"bd3222b3-dffe-4214-a25c-da1b23e1c71b","system_id":"levelo_inurba_marseille","lat":43.32378,"lon":5.36747,"is_reserved":false,"is_disabled":false,"rental_uris":{"android":"levelo://app?vid=bd3222b3-dffe-4214-a25c-da1b23e1c71b","ios":"levelo://app?vid=bd3222b3-dffe-4214-a25c-da1b23e1c71b"},"vehicle_type_id":"4","last_reported":1769005201,"current_range_meters":9600,"station_id":"ce4bhsh2rcd13ifvqi2g","pricing_plan_id":"cebpf4jnsgd1na2vs0mg"},{"bike_id":"b3a20dc9-cca1-45c6-acf1-c61d827af6d5","system_id":"levelo_inurba_marseille","lat":43.28931,"lon":5.36607,"is_reserved":false,"is_disabled":false,"rental_uris":{"android":"levelo://app?vid=b3a20dc9-cca1-45c6-acf1-c61d827af6d5","ios":"levelo://app?vid=b3a20dc9-cca1-45c6-acf1-c61d827af6d5"},"vehicle_type_id":"4","last_reported":1769005201,"current_range_meters":9600,"station_id":"ce4bhap2rcd13ifvqek0","pricing_plan_id":"cebpf4jnsgd1na2vs0mg"},{"bike_id":"ddfd6703-c626-48e9-a7c4-fe84714a2922","system_id":"levelo_inurba_marseille","lat":43.27193,"lon":5.39156,"is_reserved":false,"is_disabled":false,"rental_uris":{"android":"levelo://app?vid=ddfd6703-c626-48e9-a7c4-fe84714a2922","ios":"levelo://app?vid=ddfd6703-c626-48e9-a7c4-fe84714a2922"},"vehicle_type_id":"4","last_reported":1769005201,"current_range_meters":9600,"station_id":"ce4bhhp2rcd13ifvqfm0","pricing_plan_id":"cebpf4jnsgd1na2vs0mg"},{"bike_id":"4b5aa404-a223-4202-a9b4-4364010f0fb4","system_id":"levelo_inurba_marseille","lat":43.33771,"lon":5.37466,"is_reserved":false,"is_disabled":false,"rental_uris":{"android":"levelo://app?vid=4b5aa404-a223-4202-a9b4-4364010f0fb4","ios":"levelo://app?vid=4b5aa404-a223-4202-a9b4-4364010f0fb4"},"vehicle_type_id":"4","last_reported":1769005201,"current_range_meters":9600,"station_id":"","pricing_plan_id":"cebpf4jnsgd1na2vs0mg"},