{"last_updated":1747843995,"ttl":60,"version":"2.2","data":{"bikes":[{"bike_id":"c0b9fd4f-e181-46ce-b0bf-f5119973334f","system_id":"levelo_inurba_marseille","lat":43.33771,"lon":5.37424,"is_reserved":false,"is_disabled":true,"rental_uris":{"android":"levelo://app?vid=c0b9fd4f-e181-46ce-b0bf-f5119973334f","ios":"levelo://app?vid=c0b9fd4f-e181-46ce-b0bf-f5119973334f"},"vehicle_type_id":"4","last_reported":1747843995,"current_range_meters":0,"station_id":"","pricing_plan_id":"cebpf4jnsgd1na2vs0mg"},{"bike_id":"1dec17c8-cbde-4354-8b6c-219f98c89710","system_id":"levelo_inurba_marseille","lat":43.291827,"lon":5.422652,"is_reserved":false,"is_disabled":true,"rental_uris":{"android":"levelo://app?vid=1dec17c8-cbde-4354-8b6c-219f98c89710","ios":"levelo://app?vid=1dec17c8-cbde-4354-8b6c-219f98c89710"},"vehicle_type_id":"4","last_reported":1747843995,"current_range_meters":0,"station_id":"","pricing_plan_id":"cebpf4jnsgd1na2vs0mg"},{"bike_id":"4d4b63f8-c892-4cd8-b099-d41c0ed58ced","system_id":"levelo_inurba_marseille","lat":43.30303,"lon":5.41912,"is_reserved":false,"is_disabled":true,"rental_uris":{"android":"levelo://app?vid=4d4b63f8-c892-4cd8-b099-d41c0ed58ced","ios":"levelo://app?vid=4d4b63f8-c892-4cd8-b099-d41c0ed58ced"},"vehicle_type_id":"4","last_reported":1747843995,"current_range_meters":0,"station_id":"","pricing_plan_id":"cebpf4jnsgd1na2vs0mg"},{"bike_id":"20bee342-4a3f-4f34-940d-bb6cf00d52ae","system_id":"levelo_inurba_marseille","lat":43.26667,"lon":5.38593,"is_reserved":false,"is_disabled":true,"rental_uris":{"android":"levelo://app?vid=20bee342-4a3f-4f34-940d-bb6cf00d52ae","ios":"levelo://app?vid=20bee342-4a3f-4f34-940d-bb6cf00d52ae"},"vehicle_type_id":"4","last_reported":1747843995,"current_range_meters":0,"station_id":"","pricing_plan_id":"cebpf4jnsgd1na2vs0mg"},{"bike_id":"e9dd3aa4-b5e7-4480-926d-d7f537719bfa","system_id":"levelo_inurba_marseille","lat":43.230331,"lon":5.401847,"is_reserved":false,"is_disabled":true,"rental_uris":{"android":"levelo://app?vid=e9dd3aa4-b5e7-4480-926d-d7f537719bfa","ios":"levelo://app?vid=e9dd3aa4-b5e7-4480-926d-d7f537719bfa"},"vehicle_type_id":"4","last_reported":1747843995,"current_range_meters":0,"station_id":"","pricing_plan_id":"cebpf4jnsgd1na2vs0mg"},{"bike_id":"14603e41-b2dd-4757-a53c-2e366aa4f983","system_id":"levelo_inurba_marseille","lat":43.26992,"lon":5.428191,"is_reserved":false,"is_disabled":true,"rental_uris":{"android":"levelo://app?vid=14603e41-b2dd-4757-a53c-2e366aa4f983","ios":"levelo://app?vid=14603e41-b2dd-4757-a53c-2e366aa4f983"},"vehicle_type_id":"4","last_reported":1747843995,"current_range_meters":0,"station_id":"","pricing_plan_id":"cebpf4jnsgd1na2vs0mg"},{"bike_id":"fbe5dc9a-6dac-40e4-9cc6-f22f54d40f7f","system_id":"levelo_inurba_marseille","lat":43.29369,"lon":5.37852,"is_reserved":false,"is_disabled":true,"rental_uris":{"android":"levelo://app?vid=fbe5dc9a-6dac-40e4-9cc6-f22f54d40f7f","ios":"levelo://app?vid=fbe5dc9a-6dac-40e4-9cc6-f22f54d40f7f"},"vehicle_type_id":"4","last_reported":1747843995,"current_range_meters":0,"station_id":"ce4bgjh2rcd13ifvqbf0","pricing_plan_id":"cebpf4jnsgd1na2vs0mg"},{"bike_id":"019434ea-7645-4280-a8c2-90de7c0920c0","system_id":"levelo_inurba_marseille","lat":43.3112,"lon":5.37791,"is_reserved":false,"is_disabled":true,"rental_uris":{"android":"levelo://app?vid=019434ea-7645-4280-a8c2-90de7c0920c0","ios":"levelo://app?vid=019434ea-7645-4280-a8c2-90de7c0920c0"},"vehicle_type_id":"4","last_reported":1747843995,"current_range_meters":0,"station_id":"ce4bgt92rcd13ifvqcg0","pricing_plan_id":"cebpf4jnsgd1na2vs0mg"},{"bike_id":"95db2f5e-39ab-40ea-9eb1-3c86f42876c7","system_id":"levelo_inurba_marseille","lat":43.29422,"lon":5.3862,"is_reserved":false,"is_disabled":true,"rental_uris":{"android":"levelo://app?vid=95db2f5e-39ab-40ea-9eb1-3c86f42876c7","ios":"levelo://app?vid=95db2f5e-39ab-40ea-9eb1-3c86f42876c7"},"vehicle_type_id":"4","last_reported":1747843995,"current_range_meters":0,"station_id":"ce4bh2h2rcd13ifvqdh0","pricing_plan_id":"cebpf4jnsgd1na2vs0mg"},{"bike_id":"6ba8b51a-f827-44c6-b038-3247bfe228a6","system_id":"levelo_inurba_marseille","lat":43.28853,"lon":5.393,"is_reserved":false,"is_disabled":true,"rental_uris":{"android":"levelo://app?vid=6ba8b51a-f827-44c6-b038-3247bfe228a6","ios":"levelo://app?vid=6ba8b51a-f827-44c6-b038-3247bfe228a6"},"vehicle_type_id":"4","last_reported":1747843995,"current_range_meters":0,"station_id":"ce4bh2p2rcd13ifvqdi0","pricing_plan_id":"cebpf4jnsgd1na2vs0mg"},{"bike_id":"0d6ea802-e1d7-4fe2-a483-33216ab71475","system_id":"levelo_inurba_marseille","lat":43.29278,"lon":5.40116,"is_reserved":false,"is_disabled":true,"rental_uris":{"android":"levelo://app?vid=0d6ea802-e1d7-4fe2-a483-33216ab71475","ios":"levelo://app?vid=0d6ea802-e1d7-4fe2-a483-33216ab71475"},"vehicle_type_id":"4","last_reported":1747843995,"current_range_meters":0,"station_id":"ce4bh312rcd13ifvqdk0","pricing_plan_id":"cebpf4jnsgd1na2vs0mg"},{"bike_id":"43d0b207-9979-421a-a883-fc713593dab8","system_id":"levelo_inurba_marseille","lat":43.29522,"lon":5.39043,"is_reserved":false,"is_disabled":true,"rental_uris":{"android":"levelo://app?vid=43d0b207-9979-421a-a883-fc713593dab8","ios":"levelo://app?vid=43d0b207-9979-421a-a883-fc713593dab8"},"vehicle_type_id":"4","last_reported":1747843995,"current_range_meters":0,"station_id":"ce4bh3p2rcd13ifvqdp0","pricing_plan_id":"cebpf4jnsgd1na2vs0mg"},{"bike_id":"4b2320d0-9ac0-4d43-be08-aefa6ff28173","system_id":"levelo_inurba_marseille","lat":43.28352,"lon":5.380987,"is_reserved":false,"is_disabled":true,"rental_uris":{"android":"levelo://app?vid=4b2320d0-9ac0-4d43-be08-aefa6ff28173","ios":"levelo://app?vid=4b2320d0-9ac0-4d43-be08-aefa6ff28173"},"vehicle_type_id":"4","last_reported":1747843995,"current_range_meters":0,"station_id":"ce4bh412rcd13ifvqdr0","pricing_plan_id":"cebpf4jnsgd1na2vs0mg"},{"bike_id":"0bf9e0ac-a8ee-45fb-869c-0ac86502684f","system_id":"levelo_inurba_marseille","lat":43.286603,"lon":5.386647,"is_reserved":false,"is_disabled":true,"rental_uris":{"android":"levelo://app?vid=0bf9e0ac-a8ee-45fb-869c-0ac86502684f","ios":"levelo://app?vid=0bf9e0ac-a8ee-45fb-869c-0ac86502684f"},"vehicle_type_id":"4","last_reported":1747843995,"current_range_meters":0,"station_id":"ce4bh492rcd13ifvqdug","pricing_plan_id":"cebpf4jnsgd1na2vs0mg"},{"bike_id":"695f413b-6c0d-4ecb-8cda-67ea679fe38f","system_id":"levelo_inurba_marseille","lat":43.29065,"lon":5.37153,"is_reserved":false,"is_disabled":true,"rental_uris":{"android":"levelo://app?vid=695f413b-6c0d-4ecb-8cda-67ea679fe38f","ios":"levelo://app?vid=695f413b-6c0d-4ecb-8cda-67ea679fe38f"},"vehicle_type_id":"4","last_reported":1747843995,"current_range_meters":0,"station_id":"ce4bh5p2rcd13ifvqe4g","pricing_plan_id":"cebpf4jnsgd1na2vs0mg"},{"bike_id":"55d3f1d4-a12b-4397-979e-f5e565f27e77","system_id":"levelo_inurba_marseille","lat":43.2738,"lon":5.3626,"is_reserved":false,"is_disabled":true,"rental_uris":{"android":"levelo://app?vid=55d3f1d4-a12b-4397-979e-f5e565f27e77","ios":"levelo://app?vid=55d3f1d4-a12b-4397-979e-f5e565f27e77"},"vehicle_type_id":"4","last_reported":1747843995,"current_range_meters":0,"station_id":"ce4bhbh2rcd13ifvqeo0","pricing_plan_id":"cebpf4jnsgd1na2vs0mg"},{"bike_id":"e922e4f8-0371-4305-9ee6-0fe2b3b82cfd","system_id":"levelo_inurba_marseille","lat":43.28619,"lon":5.35109,"is_reserved":false,"is_disabled":true,"rental_uris":{"android":"levelo://app?vid=e922e4f8-0371-4305-9ee6-0fe2b3b82cfd","ios":"levelo://app?vid=e922e4f8-0371-4305-9ee6-0fe2b3b82cfd"},"vehicle_type_id":"4","last_reported":1747843995,"current_range_meters":0,"station_id":"ce4bhch2rcd13ifvqeug","pricing_plan_id":"cebpf4jnsgd1na2vs0mg"},{"bike_id":"f9e9feef-d20b-44f7-afed-c35e3a0f3444","system_id":"levelo_inurba_marseille","lat":43.26216,"lon":5.37444,"is_reserved":false,"is_disabled":true,"rental_uris":{"android":"levelo://app?vid=f9e9feef-d20b-44f7-afed-c35e3a0f3444","ios":"levelo://app?vid=f9e9feef-d20b-44f7-afed-c35e3a0f3444"},"vehicle_type_id":"4","last_reported":1747843995,"current_range_meters":0,"station_id":"ce4bhgp2rcd13ifvqfc0","pricing_plan_id":"cebpf4jnsgd1na2vs0mg"},{"bike_id":"06a5807e-e296-42ca-8b94-8b108b0a1235","system_id":"levelo_inurba_marseille","lat":43.27315,"lon":5.39103,"is_reserved":false,"is_disabled":true,"rental_uris":{"android":"levelo://app?vid=06a5807e-e296-42ca-8b94-8b108b0a1235","ios":"levelo://app?vid=06a5807e-e296-42ca-8b94-8b108b0a1235"},"vehicle_type_id":"4","last_reported":1747843995,"current_range_meters":0,"station_id":"ce4bhgp2rcd13ifvqfe0","pricing_plan_id":"cebpf4jnsgd1na2vs0mg"},{"bike_id":"aa87f238-22c4-4626-b695-30c58c60fe46","system_id":"levelo_inurba_marseille","lat":43.24397,"lon":5.37048,"is_reserved":false,"is_disabled":true,"rental_uris":{"android":"levelo://app?vid=aa87f238-22c4-4626-b695-30c58c60fe46","ios":"levelo://app?vid=aa87f238-22c4-4626-b695-30c58c60fe46"},"vehicle_type_id":"4","last_reported":1747843995,"current_range_meters":0,"station_id":"ce4bhhh2rcd13ifvqfk0","pricing_plan_id":"cebpf4jnsgd1na2vs0mg"},{"bike_id":"c526a1b8-3241-4350-bcdc-a9dd8ac93a27","system_id":"levelo_inurba_marseille","lat":43.243944,"lon":5.370639,"is_reserved":false,"is_disabled":true,"rental_uris":{"android":"levelo://app?vid=c526a1b8-3241-4350-bcdc-a9dd8ac93a27","ios":"levelo://app?vid=c526a1b8-3241-4350-bcdc-a9dd8ac93a27"},"vehicle_type_id":"4","last_reported":1747843995,"current_range_meters":0,"station_id":"ce4bhhh2rcd13ifvqfk0","pricing_plan_id":"cebpf4jnsgd1na2vs0mg"},{"bike_id":"9a993657-2594-4237-92be-b74331df19eb","system_id":"levelo_inurba_marseille","lat":43.27063,"lon":5.40255,"is_reserved":false,"is_disabled":true,"rental_uris":{"android":"levelo://app?vid=9a993657-2594-4237-92be-b74331df19eb","ios":"levelo://app?vid=9a993657-2594-4237-92be-b74331df19eb"},"vehicle_type_id":"4","last_reported":1747843995,"current_range_meters":0,"station_id":"ce4bhk92rcd13ifvqgc0","pricing_plan_id":"cebpf4jnsgd1na2vs0mg"},{"bike_id":"3437be60-4f53-4987-aa4c-dc6b1dd430cd","system_id":"levelo_inurba_marseille","lat":43.27178,"lon":5.40998,"is_reserved":false,"is_disabled":true,"rental_uris":{"android":"levelo://app?vid=3437be60-4f53-4987-aa4c-dc6b1dd430cd","ios":"levelo://app?vid=3437be60-4f53-4987-aa4c-dc6b1dd430cd"},"vehicle_type_id":"4","last_reported":1747843995,"current_range_meters":0,"station_id":"ce4bhl12rcd13ifvqgf0","pricing_plan_id":"cebpf4jnsgd1na2vs0mg"},{"bike_id":"2a258c1e-cd67-4b8f-b680-7e27137404e2","system_id":"levelo_inurba_marseille","lat":43.25105,"lon":5.40329,"is_reserved":false,"is_disabled":true,"rental_uris":{"android":"levelo://app?vid=2a258c1e-cd67-4b8f-b680-7e27137404e2","ios":"levelo://app?vid=2a258c1e-cd67-4b8f-b680-7e27137404e2"},"vehicle_type_id":"4","last_reported":1747843995,"current_range_meters":0,"station_id":"ce4bhlh2rcd13ifvqgig","pricing_plan_id":"cebpf4jnsgd1na2vs0mg"},{"bike_id":"b05b374c-31a3-4d55-aca5-09b140d8f728","system_id":"levelo_inurba_marseille","lat":43.25116,"lon":5.40324,"is_reserved":false,"is_disabled":true,"rental_uris":{"android":"levelo://app?vid=b05b374c-31a3-4d55-aca5-09b140d8f728","ios":"levelo://app?vid=b05b374c-31a3-4d55-aca5-09b140d8f728"},"vehicle_type_id":"4","last_reported":1747843995,"current_range_meters":0,"station_id":"ce4bhlh2rcd13ifvqgig","pricing_plan_id":"cebpf4jnsgd1na2vs0mg"},{"bike_id":"b1c16fdb-57c2-4dd3-883f-80c035cd3f46","system_id":"levelo_inurba_marseille","lat":43.2511,"lon":5.40326,"is_reserved":false,"is_disabled":true,"rental_uris":{"android":"levelo://app?vid=b1c16fdb-57c2-4dd3-883f-80c035cd3f46","ios":"levelo://app?vid=b1c16fdb-57c2-4dd3-883f-80c035cd3f46"},"vehicle_type_id":"4","last_reported":1747843995,"current_range_meters":0,"station_id":"ce4bhlh2rcd13ifvqgig","pricing_plan_id":"cebpf4jnsgd1na2vs0mg"},{"bike_id":"b02be44a-410a-4cca-8910-987c72b44ad7","system_id":"levelo_inurba_marseille","lat":43.25112,"lon":5.40329,"is_reserved":false,"is_disabled":true,"rental_uris":{"android":"levelo://app?vid=b02be44a-410a-4cca-8910-987c72b44ad7","ios":"levelo://app?vid=b02be44a-410a-4cca-8910-987c72b44ad7"},"vehicle_type_id":"4","last_reported":1747843995,"current_range_meters":0,"station_id":"ce4bhlh2rcd13ifvqgig","pricing_plan_id":"cebpf4jnsgd1na2vs0mg"},{"bike_id":"71a9fe80-598e-44e1-83a4-d9c144513111","system_id":"levelo_inurba_marseille","lat":43.23154,"lon":5.4374,"is_reserved":false,"is_disabled":true,"rental_uris":{"android":"levelo://app?vid=71a9fe80-598e-44e1-83a4-d9c144513111","ios":"levelo://app?vid=71a9fe80-598e-44e1-83a4-d9c144513111"},"vehicle_type_id":"4","last_reported":1747843995,"current_range_meters":0,"station_id":"ce4bhmp2rcd13ifvqgog","pricing_plan_id":"cebpf4jnsgd1na2vs0mg"},{"bike_id":"02dfb92d-8338-4d56-bd7f-23917ab07be9","system_id":"levelo_inurba_marseille","lat":43.31758,"lon":5.39015,"is_reserved":false,"is_disabled":true,"rental_uris":{"android":"levelo://app?vid=02dfb92d-8338-4d56-bd7f-23917ab07be9","ios":"levelo://app?vid=02dfb92d-8338-4d56-bd7f-23917ab07be9"},"vehicle_type_id":"4","last_reported":1747843995,"current_range_meters":0,"station_id":"ce4bhqp2rcd13ifvqhng","pricing_plan_id":"cebpf4jnsgd1na2vs0mg"},{"bike_id":"ea1d3fc0-151c-4a07-9dee-5687a6023ebc","system_id":"levelo_inurba_marseille","lat":43.23194,"lon":5.35557,"is_reserved":false,"is_disabled":true,"rental_uris":{"android":"levelo://app?vid=ea1d3fc0-151c-4a07-9dee-5687a6023ebc","ios":"levelo://app?vid=ea1d3fc0-151c-4a07-9dee-5687a6023ebc"},"vehicle_type_id":"4","last_reported":1747843995,"current_range_meters":0,"station_id":"ce4bhu92rcd13ifvqi70","pricing_plan_id":"cebpf4jnsgd1na2vs0mg"},{"bike_id":"8c362cf2-2d82-4928-8b0e-ded056d5048f","system_id":"levelo_inurba_marseille","lat":43.26808,"lon":5.40272,"is_reserved":false,"is_disabled":true,"rental_uris":{"android":"levelo://app?vid=8c362cf2-2d82-4928-8b0e-ded056d5048f","ios":"levelo://app?vid=8c362cf2-2d82-4928-8b0e-ded056d5048f"},"vehicle_type_id":"4","last_reported":1747843995,"current_range_meters":0,"station_id":"ce501612rcd8frsf0b60","pricing_plan_id":"cebpf4jnsgd1na2vs0mg"},{"bike_id":"6cdc5ac2-4b23-46ea-b359-4d981cdf1ca1","system_id":"levelo_inurba_marseille","lat":43.26815,"lon":5.402407,"is_reserved":false,"is_disabled":true,"rental_uris":{"android":"levelo://app?vid=6cdc5ac2-4b23-46ea-b359-4d981cdf1ca1","ios":"levelo://app?vid=6cdc5ac2-4b23-46ea-b359-4d981cdf1ca1"},"vehicle_type_id":"4","last_reported":1747843995,"current_range_meters":0,"station_id":"ce501612rcd8frsf0b60","pricing_plan_id":"cebpf4jnsgd1na2vs0mg"},{"bike_id":"8dc2ce6e-fd52-4eac-81ab-537a1edf2cce","system_id":"levelo_inurba_marseille","lat":43.2417,"lon":5.36403,"is_reserved":false,"is_disabled":true,"rental_uris":{"android":"levelo://app?vid=8dc2ce6e-fd52-4eac-81ab-537a1edf2cce","ios":"levelo://app?vid=8dc2ce6e-fd52-4eac-81ab-537a1edf2cce"},"vehicle_type_id":"4","last_reported":1747843995,"current_range_meters":0,"station_id":"cpo36qri1sfpv3e86is0","pricing_plan_id":"cebpf4jnsgd1na2vs0mg"},{"bike_id":"6193056e-7858-4999-8a23-c651a9ef8180","system_id":"levelo_inurba_marseille","lat":43.274633,"lon":5.388198,"is_reserved":false,"is_disabled":true,"rental_uris":{"android":"levelo://app?vid=6193056e-7858-4999-8a23-c651a9ef8180","ios":"levelo://app?vid=6193056e-7858-4999-8a23-c651a9ef8180"},"vehicle_type_id":"4","last_reported":1747843995,"current_range_meters":400,"station_id":"ce4bh0p2rcd13ifvqd70","pricing_plan_id":"cebpf4jnsgd1na2vs0mg"},{"bike_id":"31e5206d-2598-4737-a417-a3202b79a5d0","system_id":"levelo_inurba_marseille","lat":43.29033,"lon":5.39985,"is_reserved":false,"is_disabled":true,"rental_uris":{"android":"levelo://app?vid=31e5206d-2598-4737-a417-a3202b79a5d0","ios":"levelo://app?vid=31e5206d-2598-4737-a417-a3202b79a5d0"},"vehicle_type_id":"4","last_reported":1747843995,"current_range_meters":400,"station_id":"ce4bh392rcd13ifvqdm0","pricing_plan_id":"cebpf4jnsgd1na2vs0mg"},{"bike_id":"cfdbf9ea-fe43-4734-b465-744a84c08df5","system_id":"levelo_inurba_marseille","lat":43.27974,"lon":5.38737,"is_reserved":false,"is_disabled":true,"rental_uris":{"android":"levelo://app?vid=cfdbf9ea-fe43-4734-b465-744a84c08df5","ios":"levelo://app?vid=cfdbf9ea-fe43-4734-b465-744a84c08df5"},"vehicle_type_id":"4","last_reported":1747843995,"current_range_meters":400,"station_id":"ce4bhg12rcd13ifvqf80","pricing_plan_id":"cebpf4jnsgd1na2vs0mg"},{"bike_id":"0a36dd83-35b6-4e50-9855-c1192a9ec807","system_id":"levelo_inurba_marseille","lat":43.27068,"lon":5.42271,"is_reserved":false,"is_disabled":true,"rental_uris":{"android":"levelo://app?vid=0a36dd83-35b6-4e50-9855-c1192a9ec807","ios":"levelo://app?vid=0a36dd83-35b6-4e50-9855-c1192a9ec807"},"vehicle_type_id":"4","last_reported":1747843995,"current_range_meters":400,"station_id":"ce4bhk92rcd13ifvqgb0","pricing_plan_id":"cebpf4jnsgd1na2vs0mg"},{"bike_id":"72702876-b5c8-4454-aa27-ec1598afd75a","system_id":"levelo_inurba_marseille","lat":43.28153,"lon":5.42641,"is_reserved":false,"is_disabled":true,"rental_uris":{"android":"levelo://app?vid=72702876-b5c8-4454-aa27-ec1598afd75a","ios":"levelo://app?vid=72702876-b5c8-4454-aa27-ec1598afd75a"},"vehicle_type_id":"4","last_reported":1747843995,"current_range_meters":400,"station_id":"ce4bhnh2rcd13ifvqgug","pricing_plan_id":"cebpf4jnsgd1na2vs0mg"},{"bike_id":"9bf82f56-da9b-48db-b997-d01cdeb3af00","system_id":"levelo_inurba_marseille","lat":43.31743,"lon":5.37199,"is_reserved":false,"is_disabled":true,"rental_uris":{"android":"levelo://app?vid=9bf82f56-da9b-48db-b997-d01cdeb3af00","ios":"levelo://app?vid=9bf82f56-da9b-48db-b997-d01cdeb3af00"},"vehicle_type_id":"4","last_reported":1747843995,"current_range_meters":800,"station_id":"","pricing_plan_id":"cebpf4jnsgd1na2vs0mg"},{"bike_id":"33d3bbc7-12de-4e0f-8a1a-6ea61f51c09d","system_id":"levelo_inurba_marseille","lat":43.280327,"lon":5.369428,"is_reserved":false,"is_disabled":true,"rental_uris":{"android":"levelo://app?vid=33d3bbc7-12de-4e0f-8a1a-6ea61f51c09d","ios":"levelo://app?vid=33d3bbc7-12de-4e0f-8a1a-6ea61f51c09d"},"vehicle_type_id":"4","last_reported":1747843995,"current_range_meters":800,"station_id":"ce4bha12rcd13ifvqef0","pricing_plan_id":"cebpf4jnsgd1na2vs0mg"},{"bike_id":"e5791d85-3b50-4dcf-8b69-8cafdbc22e54","system_id":"levelo_inurba_marseille","lat":43.24815,"lon":5.37456,"is_reserved":false,"is_disabled":true,"rental_uris":{"android":"levelo://app?vid=e5791d85-3b50-4dcf-8b69-8cafdbc22e54","ios":"levelo://app?vid=e5791d85-3b50-4dcf-8b69-8cafdbc22e54"},"vehicle_type_id":"4","last_reported":1747843995,"current_range_meters":800,"station_id":"ce4bhgh2rcd13ifvqfb0","pricing_plan_id":"cebpf4jnsgd1na2vs0mg"},{"bike_id":"b3bca652-dd03-465b-9009-5fb8f64d0899","system_id":"levelo_inurba_marseille","lat":43.25107,"lon":5.40322,"is_reserved":false,"is_disabled":true,"rental_uris":{"android":"levelo://app?vid=b3bca652-dd03-465b-9009-5fb8f64d0899","ios":"levelo://app?vid=b3bca652-dd03-465b-9009-5fb8f64d0899"},"vehicle_type_id":"4","last_reported":1747843995,"current_range_meters":800,"station_id":"ce4bhlh2rcd13ifvqgig","pricing_plan_id":"cebpf4jnsgd1na2vs0mg"},{"bike_id":"7289ce93-b18c-4a0f-b6e5-ee311ae9d6cf","system_id":"levelo_inurba_marseille","lat":43.30262,"lon":5.40061,"is_reserved":false,"is_disabled":true,"rental_uris":{"android":"levelo://app?vid=7289ce93-b18c-4a0f-b6e5-ee311ae9d6cf","ios":"levelo://app?vid=7289ce93-b18c-4a0f-b6e5-ee311ae9d6cf"},"vehicle_type_id":"4","last_reported":1747843995,"current_range_meters":1200,"station_id":"ce4bgvh2rcd13ifvqcs0","pricing_plan_id":"cebpf4jnsgd1na2vs0mg"},{"bike_id":"92ed7440-42a1-448a-8251-c0906d174ed2","system_id":"levelo_inurba_marseille","lat":43.31695,"lon":5.40442,"is_reserved":false,"is_disabled":true,"rental_uris":{"android":"levelo://app?vid=92ed7440-42a1-448a-8251-c0906d174ed2","ios":"levelo://app?vid=92ed7440-42a1-448a-8251-c0906d174ed2"},"vehicle_type_id":"4","last_reported":1747843995,"current_range_meters":1200,"station_id":"ce4bh012rcd13ifvqd00","pricing_plan_id":"cebpf4jnsgd1na2vs0mg"},{"bike_id":"5fe2ceed-f0a1-4f02-b1a4-1251c762ad1e","system_id":"levelo_inurba_marseille","lat":43.30323,"lon":5.40434,"is_reserved":false,"is_disabled":true,"rental_uris":{"android":"levelo://app?vid=5fe2ceed-f0a1-4f02-b1a4-1251c762ad1e","ios":"levelo://app?vid=5fe2ceed-f0a1-4f02-b1a4-1251c762ad1e"},"vehicle_type_id":"4","last_reported":1747843995,"current_range_meters":1200,"station_id":"ce4bh012rcd13ifvqd10","pricing_plan_id":"cebpf4jnsgd1na2vs0mg"},{"bike_id":"574534a8-1c21-4a1b-9357-147232daf183","system_id":"levelo_inurba_marseille","lat":43.28042,"lon":5.369513,"is_reserved":false,"is_disabled":true,"rental_uris":{"android":"levelo://app?vid=574534a8-1c21-4a1b-9357-147232daf183","ios":"levelo://app?vid=574534a8-1c21-4a1b-9357-147232daf183"},"vehicle_type_id":"4","last_reported":1747843995,"current_range_meters":1200,"station_id":"ce4bha12rcd13ifvqef0","pricing_plan_id":"cebpf4jnsgd1na2vs0mg"},{"bike_id":"255626e1-fce0-421a-8cf7-294f02530648","system_id":"levelo_inurba_marseille","lat":43.28457,"lon":5.35899,"is_reserved":false,"is_disabled":true,"rental_uris":{"android":"levelo://app?vid=255626e1-fce0-421a-8cf7-294f02530648","ios":"levelo://app?vid=255626e1-fce0-421a-8cf7-294f02530648"},"vehicle_type_id":"4","last_reported":1747843995,"current_range_meters":1200,"station_id":"ce4bhah2rcd13ifvqei0","pricing_plan_id":"cebpf4jnsgd1na2vs0mg"},{"bike_id":"42e9d1e1-6564-468e-867a-c0b461493bb4","system_id":"levelo_inurba_marseille","lat":43.28673,"lon":5.3635,"is_reserved":false,"is_disabled":true,"rental_uris":{"android":"levelo://app?vid=42e9d1e1-6564-468e-867a-c0b461493bb4","ios":"levelo://app?vid=42e9d1e1-6564-468e-867a-c0b461493bb4"},"vehicle_type_id":"4","last_reported":1747843995,"current_range_meters":1200,"station_id":"ce4bhah2rcd13ifvqej0","pricing_plan_id":"cebpf4jnsgd1na2vs0mg"},{"bike_id":"1133e00b-4cf5-4e16-9aac-a7e1fd873143","system_id":"levelo_inurba_marseille","lat":43.27378,"lon":5.36261,"is_reserved":false,"is_disabled":true,"rental_uris":{"android":"levelo://app?vid=1133e00b-4cf5-4e16-9aac-a7e1fd873143","ios":"levelo://app?vid=1133e00b-4cf5-4e16-9aac-a7e1fd873143"},"vehicle_type_id":"4","last_reported":1747843995,"current_range_meters":1200,"station_id":"ce4bhbh2rcd13ifvqeo0","pricing_plan_id":"cebpf4jnsgd1na2vs0mg"},{"bike_id":"291586d0-8282-4ac6-a874-63b67e857060","system_id":"levelo_inurba_marseille","lat":43.279644,"lon":5.387612,"is_reserved":false,"is_disabled":true,"rental_uris":{"android":"levelo://app?vid=291586d0-8282-4ac6-a874-63b67e857060","ios":"levelo://app?vid=291586d0-8282-4ac6-a874-63b67e857060"},"vehicle_type_id":"4","last_reported":1747843995,"current_range_meters":1200,"station_id":"ce4bhg12rcd13ifvqf80","pricing_plan_id":"cebpf4jnsgd1na2vs0mg"},{"bike_id":"a8b9f1f9-efed-43e6-b102-90b9f3eb2333","system_id":"levelo_inurba_marseille","lat":43.26028,"lon":5.3755,"is_reserved":false,"is_disabled":true,"rental_uris":{"android":"levelo://app?vid=a8b9f1f9-efed-43e6-b102-90b9f3eb2333","ios":"levelo://app?vid=a8b9f1f9-efed-43e6-b102-90b9f3eb2333"},"vehicle_type_id":"4","last_reported":1747843995,"current_range_meters":1200,"station_id":"ce4bhgh2rcd13ifvqfa0","pricing_plan_id":"cebpf4jnsgd1na2vs0mg"},{"bike_id":"eb6afd35-5294-4db1-b91d-b699e855eb6f","system_id":"levelo_inurba_marseille","lat":43.26066,"lon":5.394,"is_reserved":false,"is_disabled":true,"rental_uris":{"android":"levelo://app?vid=eb6afd35-5294-4db1-b91d-b699e855eb6f","ios":"levelo://app?vid=eb6afd35-5294-4db1-b91d-b699e855eb6f"},"vehicle_type_id":"4","last_reported":1747843995,"current_range_meters":1200,"station_id":"ce4bhh92rcd13ifvqfj0","pricing_plan_id":"cebpf4jnsgd1na2vs0mg"},{"bike_id":"f95325d8-1c17-4d15-bb1a-e31d599075cf","system_id":"levelo_inurba_marseille","lat":43.25586,"lon":5.38223,"is_reserved":false,"is_disabled":true,"rental_uris":{"android":"levelo://app?vid=f95325d8-1c17-4d15-bb1a-e31d599075cf","ios":"levelo://app?vid=f95325d8-1c17-4d15-bb1a-e31d599075cf"},"vehicle_type_id":"4","last_reported":1747843995,"current_range_meters":1200,"station_id":"ce4bhih2rcd13ifvqfs0","pricing_plan_id":"cebpf4jnsgd1na2vs0mg"},{"bike_id":"01b136ea-4cc7-4444-8329-6b48cf83b778","system_id":"levelo_inurba_marseille","lat":43.28001,"lon":5.40018,"is_reserved":false,"is_disabled":true,"rental_uris":{"android":"levelo://app?vid=01b136ea-4cc7-4444-8329-6b48cf83b778","ios":"levelo://app?vid=01b136ea-4cc7-4444-8329-6b48cf83b778"},"vehicle_type_id":"4","last_reported":1747843995,"current_range_meters":1200,"station_id":"ce4bho92rcd13ifvqh4g","pricing_plan_id":"cebpf4jnsgd1na2vs0mg"},{"bike_id":"ba59102a-6c47-4600-bcb9-76e5920c2815","system_id":"levelo_inurba_marseille","lat":43.31351,"lon":5.37214,"is_reserved":false,"is_disabled":true,"rental_uris":{"android":"levelo://app?vid=ba59102a-6c47-4600-bcb9-76e5920c2815","ios":"levelo://app?vid=ba59102a-6c47-4600-bcb9-76e5920c2815"},"vehicle_type_id":"4","last_reported":1747843995,"current_range_meters":1600,"station_id":"","pricing_plan_id":"cebpf4jnsgd1na2vs0mg"},{"bike_id":"e095f6bc-5eac-44bf-be2b-558cc20127e5","system_id":"levelo_inurba_marseille","lat":43.274033,"lon":5.362685,"is_reserved":false,"is_disabled":true,"rental_uris":{"android":"levelo://app?vid=e095f6bc-5eac-44bf-be2b-558cc20127e5","ios":"levelo://app?vid=e095f6bc-5eac-44bf-be2b-558cc20127e5"},"vehicle_type_id":"4","last_reported":1747843995,"current_range_meters":1600,"station_id":"ce4bhbh2rcd13ifvqeo0","pricing_plan_id":"cebpf4jnsgd1na2vs0mg"},{"bike_id":"7483e96d-3ff0-421a-b3e5-e3e55a6e8690","system_id":"levelo_inurba_marseille","lat":43.25003,"lon":5.38928,"is_reserved":false,"is_disabled":true,"rental_uris":{"android":"levelo://app?vid=7483e96d-3ff0-421a-b3e5-e3e55a6e8690","ios":"levelo://app?vid=7483e96d-3ff0-421a-b3e5-e3e55a6e8690"},"vehicle_type_id":"4","last_reported":1747843995,"current_range_meters":1600,"station_id":"ce4bhgp2rcd13ifvqfd0","pricing_plan_id":"cebpf4jnsgd1na2vs0mg"},{"bike_id":"8f0f531d-6a65-4647-8a6f-baa3d982f42f","system_id":"levelo_inurba_marseille","lat":43.2812,"lon":5.42575,"is_reserved":false,"is_disabled":true,"rental_uris":{"android":"levelo://app?vid=8f0f531d-6a65-4647-8a6f-baa3d982f42f","ios":"levelo://app?vid=8f0f531d-6a65-4647-8a6f-baa3d982f42f"},"vehicle_type_id":"4","last_reported":1747843995,"current_range_meters":2000,"station_id":"","pricing_plan_id":"cebpf4jnsgd1na2vs0mg"},{"bike_id":"9d30ac67-66ca-4b7b-8663-551ab5297df9","system_id":"levelo_inurba_marseille","lat":43.30142,"lon":5.39885,"is_reserved":false,"is_disabled":false,"rental_uris":{"android":"levelo://app?vid=9d30ac67-66ca-4b7b-8663-551ab5297df9","ios":"levelo://app?vid=9d30ac67-66ca-4b7b-8663-551ab5297df9"},"vehicle_type_id":"4","last_reported":1747843995,"current_range_meters":2000,"station_id":"ce4bh0h2rcd13ifvqd40","pricing_plan_id":"cebpf4jnsgd1na2vs0mg"},{"bike_id":"ffb9c9e7-6198-4889-a4c2-2689cb86d8e1","system_id":"levelo_inurba_marseille","lat":43.29221,"lon":5.3607,"is_reserved":false,"is_disabled":true,"rental_uris":{"android":"levelo://app?vid=ffb9c9e7-6198-4889-a4c2-2689cb86d8e1","ios":"levelo://app?vid=ffb9c9e7-6198-4889-a4c2-2689cb86d8e1"},"vehicle_type_id":"4","last_reported":1747843995,"current_range_meters":2000,"station_id":"ce4bhbh2rcd13ifvqeqg","pricing_plan_id":"cebpf4jnsgd1na2vs0mg"},{"bike_id":"734b0351-a092-4a2f-a229-66c42eda518e","system_id":"levelo_inurba_marseille","lat":43.24813,"lon":5.37477,"is_reserved":false,"is_disabled":true,"rental_uris":{"android":"levelo://app?vid=734b0351-a092-4a2f-a229-66c42eda518e","ios":"levelo://app?vid=734b0351-a092-4a2f-a229-66c42eda518e"},"vehicle_type_id":"4","last_reported":1747843995,"current_range_meters":2000,"station_id":"ce4bhgh2rcd13ifvqfb0","pricing_plan_id":"cebpf4jnsgd1na2vs0mg"},{"bike_id":"0a33e040-75a1-47af-b1e2-670fb906e204","system_id":"levelo_inurba_marseille","lat":43.26783,"lon":5.39421,"is_reserved":false,"is_disabled":true,"rental_uris":{"android":"levelo://app?vid=0a33e040-75a1-47af-b1e2-670fb906e204","ios":"levelo://app?vid=0a33e040-75a1-47af-b1e2-670fb906e204"},"vehicle_type_id":"4","last_reported":1747843995,"current_range_meters":2000,"station_id":"ce4bhh12rcd13ifvqfg0","pricing_plan_id":"cebpf4jnsgd1na2vs0mg"},{"bike_id":"b9caee59-2ad8-4b30-8971-fc5ace833a8f","system_id":"levelo_inurba_marseille","lat":43.28157,"lon":5.42644,"is_reserved":false,"is_disabled":true,"rental_uris":{"android":"levelo://app?vid=b9caee59-2ad8-4b30-8971-fc5ace833a8f","ios":"levelo://app?vid=b9caee59-2ad8-4b30-8971-fc5ace833a8f"},"vehicle_type_id":"4","last_reported":1747843995,"current_range_meters":2000,"station_id":"ce4bhnh2rcd13ifvqgug","pricing_plan_id":"cebpf4jnsgd1na2vs0mg"},{"bike_id":"a5bcf3ab-5daa-4dec-898b-27b2e944e103","system_id":"levelo_inurba_marseille","lat":43.27309,"lon":5.41027,"is_reserved":false,"is_disabled":false,"rental_uris":{"android":"levelo://app?vid=a5bcf3ab-5daa-4dec-898b-27b2e944e103","ios":"levelo://app?vid=a5bcf3ab-5daa-4dec-898b-27b2e944e103"},"vehicle_type_id":"4","last_reported":1747843995,"current_range_meters":2800,"station_id":"","pricing_plan_id":"cebpf4jnsgd1na2vs0mg"},{"bike_id":"a6593789-f6d0-4a6c-95c1-280811334ff7","system_id":"levelo_inurba_marseille","lat":43.2841,"lon":5.37519,"is_reserved":false,"is_disabled":false,"rental_uris":{"android":"levelo://app?vid=a6593789-f6d0-4a6c-95c1-280811334ff7","ios":"levelo://app?vid=a6593789-f6d0-4a6c-95c1-280811334ff7"},"vehicle_type_id":"4","last_reported":1747843995,"current_range_meters":2800,"station_id":"ce4bh412rcd13ifvqds0","pricing_plan_id":"cebpf4jnsgd1na2vs0mg"},{"bike_id":"327bd131-8556-415a-ba37-a6477fc62f24","system_id":"levelo_inurba_marseille","lat":43.28661,"lon":5.36342,"is_reserved":false,"is_disabled":false,"rental_uris":{"android":"levelo://app?vid=327bd131-8556-415a-ba37-a6477fc62f24","ios":"levelo://app?vid=327bd131-8556-415a-ba37-a6477fc62f24"},"vehicle_type_id":"4","last_reported":1747843995,"current_range_meters":2800,"station_id":"ce4bhah2rcd13ifvqej0","pricing_plan_id":"cebpf4jnsgd1na2vs0mg"},{"bike_id":"71c487df-abc8-49cd-b655-0f9c12f187c4","system_id":"levelo_inurba_marseille","lat":43.28938,"lon":5.36639,"is_reserved":false,"is_disabled":false,"rental_uris":{"android":"levelo://app?vid=71c487df-abc8-49cd-b655-0f9c12f187c4","ios":"levelo://app?vid=71c487df-abc8-49cd-b655-0f9c12f187c4"},"vehicle_type_id":"4","last_reported":1747843995,"current_range_meters":2800,"station_id":"ce4bhap2rcd13ifvqek0","pricing_plan_id":"cebpf4jnsgd1na2vs0mg"},{"bike_id":"562da3fe-cb52-415c-a25c-a73818299540","system_id":"levelo_inurba_marseille","lat":43.24571,"lon":5.3952,"is_reserved":false,"is_disabled":false,"rental_uris":{"android":"levelo://app?vid=562da3fe-cb52-415c-a25c-a73818299540","ios":"levelo://app?vid=562da3fe-cb52-415c-a25c-a73818299540"},"vehicle_type_id":"4","last_reported":1747843995,"current_range_meters":2800,"station_id":"ce4bhlp2rcd13ifvqgjg","pricing_plan_id":"cebpf4jnsgd1na2vs0mg"},{"bike_id":"5afd4176-762a-488a-8f3c-9493e61c99e4","system_id":"levelo_inurba_marseille","lat":43.29528,"lon":5.39054,"is_reserved":false,"is_disabled":false,"rental_uris":{"android":"levelo://app?vid=5afd4176-762a-488a-8f3c-9493e61c99e4","ios":"levelo://app?vid=5afd4176-762a-488a-8f3c-9493e61c99e4"},"vehicle_type_id":"4","last_reported":1747843995,"current_range_meters":3200,"station_id":"ce4bh3p2rcd13ifvqdp0","pricing_plan_id":"cebpf4jnsgd1na2vs0mg"},{"bike_id":"45b0ece8-3286-4881-b10f-85a96b1a006b","system_id":"levelo_inurba_marseille","lat":43.27913,"lon":5.37976,"is_reserved":false,"is_disabled":false,"rental_uris":{"android":"levelo://app?vid=45b0ece8-3286-4881-b10f-85a96b1a006b","ios":"levelo://app?vid=45b0ece8-3286-4881-b10f-85a96b1a006b"},"vehicle_type_id":"4","last_reported":1747843995,"current_range_meters":3200,"station_id":"ce4bhf92rcd13ifvqf50","pricing_plan_id":"cebpf4jnsgd1na2vs0mg"},{"bike_id":"9a7c6a90-9590-4241-8778-556864bb9a37","system_id":"levelo_inurba_marseille","lat":43.23177,"lon":5.39987,"is_reserved":false,"is_disabled":false,"rental_uris":{"android":"levelo://app?vid=9a7c6a90-9590-4241-8778-556864bb9a37","ios":"levelo://app?vid=9a7c6a90-9590-4241-8778-556864bb9a37"},"vehicle_type_id":"4","last_reported":1747843995,"current_range_meters":3200,"station_id":"ce4bhn12rcd13ifvqgqg","pricing_plan_id":"cebpf4jnsgd1na2vs0mg"},{"bike_id":"2f563882-83b1-499c-9b8b-16fdb8b77833","system_id":"levelo_inurba_marseille","lat":43.279973,"lon":5.416677,"is_reserved":false,"is_disabled":false,"rental_uris":{"android":"levelo://app?vid=2f563882-83b1-499c-9b8b-16fdb8b77833","ios":"levelo://app?vid=2f563882-83b1-499c-9b8b-16fdb8b77833"},"vehicle_type_id":"4","last_reported":1747843995,"current_range_meters":3200,"station_id":"ce4bho12rcd13ifvqh1g","pricing_plan_id":"cebpf4jnsgd1na2vs0mg"},{"bike_id":"932cb3cf-01e3-45fb-98c0-2a1409c74567","system_id":"levelo_inurba_marseille","lat":43.279973,"lon":5.400213,"is_reserved":false,"is_disabled":false,"rental_uris":{"android":"levelo://app?vid=932cb3cf-01e3-45fb-98c0-2a1409c74567","ios":"levelo://app?vid=932cb3cf-01e3-45fb-98c0-2a1409c74567"},"vehicle_type_id":"4","last_reported":1747843995,"current_range_meters":3200,"station_id":"ce4bho92rcd13ifvqh4g","pricing_plan_id":"cebpf4jnsgd1na2vs0mg"},{"bike_id":"189e4c26-806b-4034-8001-d912e4910d85","system_id":"levelo_inurba_marseille","lat":43.23191,"lon":5.35539,"is_reserved":false,"is_disabled":false,"rental_uris":{"android":"levelo://app?vid=189e4c26-806b-4034-8001-d912e4910d85","ios":"levelo://app?vid=189e4c26-806b-4034-8001-d912e4910d85"},"vehicle_type_id":"4","last_reported":1747843995,"current_range_meters":3200,"station_id":"ce4bhu92rcd13ifvqi70","pricing_plan_id":"cebpf4jnsgd1na2vs0mg"},{"bike_id":"85eaca89-9437-48d0-9bca-a254337b88db","system_id":"levelo_inurba_marseille","lat":43.27463,"lon":5.40997,"is_reserved":false,"is_disabled":false,"rental_uris":{"android":"levelo://app?vid=85eaca89-9437-48d0-9bca-a254337b88db","ios":"levelo://app?vid=85eaca89-9437-48d0-9bca-a254337b88db"},"vehicle_type_id":"4","last_reported":1747843995,"current_range_meters":3600,"station_id":"","pricing_plan_id":"cebpf4jnsgd1na2vs0mg"},{"bike_id":"c2c8136c-7973-4102-ba73-0d07c442fe1c","system_id":"levelo_inurba_marseille","lat":43.2968,"lon":5.37274,"is_reserved":false,"is_disabled":false,"rental_uris":{"android":"levelo://app?vid=c2c8136c-7973-4102-ba73-0d07c442fe1c","ios":"levelo://app?vid=c2c8136c-7973-4102-ba73-0d07c442fe1c"},"vehicle_type_id":"4","last_reported":1747843995,"current_range_meters":3600,"station_id":"ce4bgk12rcd13ifvqbj0","pricing_plan_id":"cebpf4jnsgd1na2vs0mg"},{"bike_id":"49757bd1-438c-4f94-bbdb-81c8cd807706","system_id":"levelo_inurba_marseille","lat":43.308044,"lon":5.381508,"is_reserved":false,"is_disabled":false,"rental_uris":{"android":"levelo://app?vid=49757bd1-438c-4f94-bbdb-81c8cd807706","ios":"levelo://app?vid=49757bd1-438c-4f94-bbdb-81c8cd807706"},"vehicle_type_id":"4","last_reported":1747843995,"current_range_meters":3600,"station_id":"ce4bgt12rcd13ifvqce0","pricing_plan_id":"cebpf4jnsgd1na2vs0mg"},{"bike_id":"a71a84ec-1b16-4c44-af0b-e0781557094e","system_id":"levelo_inurba_marseille","lat":43.3014,"lon":5.39886,"is_reserved":false,"is_disabled":false,"rental_uris":{"android":"levelo://app?vid=a71a84ec-1b16-4c44-af0b-e0781557094e","ios":"levelo://app?vid=a71a84ec-1b16-4c44-af0b-e0781557094e"},"vehicle_type_id":"4","last_reported":1747843995,"current_range_meters":3600,"station_id":"ce4bh0h2rcd13ifvqd40","pricing_plan_id":"cebpf4jnsgd1na2vs0mg"},{"bike_id":"cb2f83f6-1101-4ad0-be7f-5a48ae269e7b","system_id":"levelo_inurba_marseille","lat":43.29034,"lon":5.38653,"is_reserved":false,"is_disabled":false,"rental_uris":{"android":"levelo://app?vid=cb2f83f6-1101-4ad0-be7f-5a48ae269e7b","ios":"levelo://app?vid=cb2f83f6-1101-4ad0-be7f-5a48ae269e7b"},"vehicle_type_id":"4","last_reported":1747843995,"current_range_meters":3600,"station_id":"ce4bh4p2rcd13ifvqe0g","pricing_plan_id":"cebpf4jnsgd1na2vs0mg"},{"bike_id":"7425db04-dfb6-424d-a462-fe82ef31831f","system_id":"levelo_inurba_marseille","lat":43.25119,"lon":5.40325,"is_reserved":false,"is_disabled":false,"rental_uris":{"android":"levelo://app?vid=7425db04-dfb6-424d-a462-fe82ef31831f","ios":"levelo://app?vid=7425db04-dfb6-424d-a462-fe82ef31831f"},"vehicle_type_id":"4","last_reported":1747843995,"current_range_meters":3600,"station_id":"ce4bhlh2rcd13ifvqgig","pricing_plan_id":"cebpf4jnsgd1na2vs0mg"},{"bike_id":"e5d61907-3299-4697-b044-0d36524dfec7","system_id":"levelo_inurba_marseille","lat":43.322855,"lon":5.382717,"is_reserved":false,"is_disabled":false,"rental_uris":{"android":"levelo://app?vid=e5d61907-3299-4697-b044-0d36524dfec7","ios":"levelo://app?vid=e5d61907-3299-4697-b044-0d36524dfec7"},"vehicle_type_id":"4","last_reported":1747843995,"current_range_meters":3600,"station_id":"ce4bhr12rcd13ifvqhqg","pricing_plan_id":"cebpf4jnsgd1na2vs0mg"},{"bike_id":"4a1738c7-52b6-43af-9a5c-f922fa07d700","system_id":"levelo_inurba_marseille","lat":43.26571,"lon":5.40323,"is_reserved":false,"is_disabled":false,"rental_uris":{"android":"levelo://app?vid=4a1738c7-52b6-43af-9a5c-f922fa07d700","ios":"levelo://app?vid=4a1738c7-52b6-43af-9a5c-f922fa07d700"},"vehicle_type_id":"4","last_reported":1747843995,"current_range_meters":4000,"station_id":"","pricing_plan_id":"cebpf4jnsgd1na2vs0mg"},{"bike_id":"3f40f777-46f7-43e9-9790-fed669eb58fb","system_id":"levelo_inurba_marseille","lat":43.25548,"lon":5.39476,"is_reserved":false,"is_disabled":false,"rental_uris":{"android":"levelo://app?vid=3f40f777-46f7-43e9-9790-fed669eb58fb","ios":"levelo://app?vid=3f40f777-46f7-43e9-9790-fed669eb58fb"},"vehicle_type_id":"4","last_reported":1747843995,"current_range_meters":4000,"station_id":"ce4bhm12rcd13ifvqgkg","pricing_plan_id":"cebpf4jnsgd1na2vs0mg"},{"bike_id":"c9d4cf65-d775-46c7-966a-f16cd51ae3f8","system_id":"levelo_inurba_marseille","lat":43.28157,"lon":5.42649,"is_reserved":false,"is_disabled":false,"rental_uris":{"android":"levelo://app?vid=c9d4cf65-d775-46c7-966a-f16cd51ae3f8","ios":"levelo://app?vid=c9d4cf65-d775-46c7-966a-f16cd51ae3f8"},"vehicle_type_id":"4","last_reported":1747843995,"current_range_meters":4000,"station_id":"ce4bhnh2rcd13ifvqgug","pricing_plan_id":"cebpf4jnsgd1na2vs0mg"},{"bike_id":"7389b980-e356-444f-86a0-d92978fda1f3","system_id":"levelo_inurba_marseille","lat":43.29252,"lon":5.4091,"is_reserved":false,"is_disabled":false,"rental_uris":{"android":"levelo://app?vid=7389b980-e356-444f-86a0-d92978fda1f3","ios":"levelo://app?vid=7389b980-e356-444f-86a0-d92978fda1f3"},"vehicle_type_id":"4","last_reported":1747843995,"current_range_meters":4400,"station_id":"ce4bh192rcd13ifvqdc0","pricing_plan_id":"cebpf4jnsgd1na2vs0mg"},{"bike_id":"67ee837a-a0c8-4bc7-b922-f4dfc9e61331","system_id":"levelo_inurba_marseille","lat":43.2904,"lon":5.35919,"is_reserved":false,"is_disabled":false,"rental_uris":{"android":"levelo://app?vid=67ee837a-a0c8-4bc7-b922-f4dfc9e61331","ios":"levelo://app?vid=67ee837a-a0c8-4bc7-b922-f4dfc9e61331"},"vehicle_type_id":"4","last_reported":1747843995,"current_range_meters":4400,"station_id":"ce4bha92rcd13ifvqeg0","pricing_plan_id":"cebpf4jnsgd1na2vs0mg"},{"bike_id":"b2ceb344-c037-4d67-942b-fac682066b00","system_id":"levelo_inurba_marseille","lat":43.29046,"lon":5.35913,"is_reserved":false,"is_disabled":false,"rental_uris":{"android":"levelo://app?vid=b2ceb344-c037-4d67-942b-fac682066b00","ios":"levelo://app?vid=b2ceb344-c037-4d67-942b-fac682066b00"},"vehicle_type_id":"4","last_reported":1747843995,"current_range_meters":4400,"station_id":"ce4bha92rcd13ifvqeg0","pricing_plan_id":"cebpf4jnsgd1na2vs0mg"},{"bike_id":"daa08f73-efe9-4817-b1c3-a27b4eb03cb6","system_id":"levelo_inurba_marseille","lat":43.28669,"lon":5.3635,"is_reserved":false,"is_disabled":false,"rental_uris":{"android":"levelo://app?vid=daa08f73-efe9-4817-b1c3-a27b4eb03cb6","ios":"levelo://app?vid=daa08f73-efe9-4817-b1c3-a27b4eb03cb6"},"vehicle_type_id":"4","last_reported":1747843995,"current_range_meters":4400,"station_id":"ce4bhah2rcd13ifvqej0","pricing_plan_id":"cebpf4jnsgd1na2vs0mg"},{"bike_id":"40b81e1b-216c-4882-8866-4bf4b3178aff","system_id":"levelo_inurba_marseille","lat":43.29275,"lon":5.36857,"is_reserved":false,"is_disabled":false,"rental_uris":{"android":"levelo://app?vid=40b81e1b-216c-4882-8866-4bf4b3178aff","ios":"levelo://app?vid=40b81e1b-216c-4882-8866-4bf4b3178aff"},"vehicle_type_id":"4","last_reported":1747843995,"current_range_meters":4400,"station_id":"ce4bhbp2rcd13ifvqesg","pricing_plan_id":"cebpf4jnsgd1na2vs0mg"},{"bike_id":"e645daa6-66cf-4d6b-9a08-5beb50165f39","system_id":"levelo_inurba_marseille","lat":43.24648,"lon":5.38895,"is_reserved":false,"is_disabled":false,"rental_uris":{"android":"levelo://app?vid=e645daa6-66cf-4d6b-9a08-5beb50165f39","ios":"levelo://app?vid=e645daa6-66cf-4d6b-9a08-5beb50165f39"},"vehicle_type_id":"4","last_reported":1747843995,"current_range_meters":4800,"station_id":"","pricing_plan_id":"cebpf4jnsgd1na2vs0mg"},{"bike_id":"49130a2e-504d-4d9a-8e50-8d3b255303c4","system_id":"levelo_inurba_marseille","lat":43.31081,"lon":5.42432,"is_reserved":false,"is_disabled":false,"rental_uris":{"android":"levelo://app?vid=49130a2e-504d-4d9a-8e50-8d3b255303c4","ios":"levelo://app?vid=49130a2e-504d-4d9a-8e50-8d3b255303c4"},"vehicle_type_id":"4","last_reported":1747843995,"current_range_meters":4800,"station_id":"ce4bhp92rcd13ifvqhag","pricing_plan_id":"cebpf4jnsgd1na2vs0mg"},{"bike_id":"ac5795a3-b6a8-47e6-a865-ce8a1a006589","system_id":"levelo_inurba_marseille","lat":43.29307,"lon":5.37177,"is_reserved":false,"is_disabled":false,"rental_uris":{"android":"levelo://app?vid=ac5795a3-b6a8-47e6-a865-ce8a1a006589","ios":"levelo://app?vid=ac5795a3-b6a8-47e6-a865-ce8a1a006589"},"vehicle_type_id":"4","last_reported":1747843995,"current_range_meters":5600,"station_id":"ce4bgh92rcd13ifvqb40","pricing_plan_id":"cebpf4jnsgd1na2vs0mg"},{"bike_id":"7ef0aeb4-1908-44ae-ac3a-839b08df87d3","system_id":"levelo_inurba_marseille","lat":43.22931,"lon":5.35378,"is_reserved":false,"is_disabled":false,"rental_uris":{"android":"levelo://app?vid=7ef0aeb4-1908-44ae-ac3a-839b08df87d3","ios":"levelo://app?vid=7ef0aeb4-1908-44ae-ac3a-839b08df87d3"},"vehicle_type_id":"4","last_reported":1747843995,"current_range_meters":5600,"station_id":"cpo3532slgdg3j2ikp40","pricing_plan_id":"cebpf4jnsgd1na2vs0mg"},{"bike_id":"bffbaf88-357a-4e87-a68c-a9a27a6e01e6","system_id":"levelo_inurba_marseille","lat":43.26225,"lon":5.42135,"is_reserved":false,"is_disabled":false,"rental_uris":{"android":"levelo://app?vid=bffbaf88-357a-4e87-a68c-a9a27a6e01e6","ios":"levelo://app?vid=bffbaf88-357a-4e87-a68c-a9a27a6e01e6"},"vehicle_type_id":"4","last_reported":1747843995,"current_range_meters":6000,"station_id":"","pricing_plan_id":"cebpf4jnsgd1na2vs0mg"},{"bike_id":"84d62431-e764-4f96-b959-3882453e67a4","system_id":"levelo_inurba_marseille","lat":43.30355,"lon":5.3732,"is_reserved":false,"is_disabled":false,"rental_uris":{"android":"levelo://app?vid=84d62431-e764-4f96-b959-3882453e67a4","ios":"levelo://app?vid=84d62431-e764-4f96-b959-3882453e67a4"},"vehicle_type_id":"4","last_reported":1747843995,"current_range_meters":6000,"station_id":"","pricing_plan_id":"cebpf4jnsgd1na2vs0mg"},{"bike_id":"a53fa7c9-e19e-46d6-8563-bf86ea7dc60f","system_id":"levelo_inurba_marseille","lat":43.28669,"lon":5.36349,"is_reserved":false,"is_disabled":false,"rental_uris":{"android":"levelo://app?vid=a53fa7c9-e19e-46d6-8563-bf86ea7dc60f","ios":"levelo://app?vid=a53fa7c9-e19e-46d6-8563-bf86ea7dc60f"},"vehicle_type_id":"4","last_reported":1747843995,"current_range_meters":6000,"station_id":"ce4bhah2rcd13ifvqej0","pricing_plan_id":"cebpf4jnsgd1na2vs0mg"},{"bike_id":"a5cdb75e-c98f-4580-ae63-953ba0ac4c19","system_id":"levelo_inurba_marseille","lat":43.28855,"lon":5.35848,"is_reserved":false,"is_disabled":false,"rental_uris":{"android":"levelo://app?vid=a5cdb75e-c98f-4580-ae63-953ba0ac4c19","ios":"levelo://app?vid=a5cdb75e-c98f-4580-ae63-953ba0ac4c19"},"vehicle_type_id":"4","last_reported":1747843995,"current_range_meters":6000,"station_id":"ce4bhb12rcd13ifvqem0","pricing_plan_id":"cebpf4jnsgd1na2vs0mg"},{"bike_id":"b1be7cb1-a065-4fb7-9869-81e9da33feba","system_id":"levelo_inurba_marseille","lat":43.28856,"lon":5.35851,"is_reserved":false,"is_disabled":false,"rental_uris":{"android":"levelo://app?vid=b1be7cb1-a065-4fb7-9869-81e9da33feba","ios":"levelo://app?vid=b1be7cb1-a065-4fb7-9869-81e9da33feba"},"vehicle_type_id":"4","last_reported":1747843995,"current_range_meters":6000,"station_id":"ce4bhb12rcd13ifvqem0","pricing_plan_id":"cebpf4jnsgd1na2vs0mg"},{"bike_id":"f5fa9335-58cd-4665-b74e-44d45f0cce15","system_id":"levelo_inurba_marseille","lat":43.2901,"lon":5.35617,"is_reserved":false,"is_disabled":false,"rental_uris":{"android":"levelo://app?vid=f5fa9335-58cd-4665-b74e-44d45f0cce15","ios":"levelo://app?vid=f5fa9335-58cd-4665-b74e-44d45f0cce15"},"vehicle_type_id":"4","last_reported":1747843995,"current_range_meters":6000,"station_id":"ce4bhb92rcd13ifvqen0","pricing_plan_id":"cebpf4jnsgd1na2vs0mg"},{"bike_id":"19725071-7101-49bc-8fd2-a657fe1b9e1d","system_id":"levelo_inurba_marseille","lat":43.27828,"lon":5.39207,"is_reserved":false,"is_disabled":false,"rental_uris":{"android":"levelo://app?vid=19725071-7101-49bc-8fd2-a657fe1b9e1d","ios":"levelo://app?vid=19725071-7101-49bc-8fd2-a657fe1b9e1d"},"vehicle_type_id":"4","last_reported":1747843995,"current_range_meters":6000,"station_id":"ce4bhjp2rcd13ifvqga0","pricing_plan_id":"cebpf4jnsgd1na2vs0mg"},{"bike_id":"8821936a-ed67-4225-8458-b8d62cad46ab","system_id":"levelo_inurba_marseille","lat":43.23186,"lon":5.35571,"is_reserved":false,"is_disabled":false,"rental_uris":{"android":"levelo://app?vid=8821936a-ed67-4225-8458-b8d62cad46ab","ios":"levelo://app?vid=8821936a-ed67-4225-8458-b8d62cad46ab"},"vehicle_type_id":"4","last_reported":1747843995,"current_range_meters":6000,"station_id":"ce4bhu92rcd13ifvqi70","pricing_plan_id":"cebpf4jnsgd1na2vs0mg"},{"bike_id":"15dcdbbd-a41e-43eb-9ed6-26ec15ce7a50","system_id":"levelo_inurba_marseille","lat":43.21407,"lon":5.34114,"is_reserved":false,"is_disabled":false,"rental_uris":{"android":"levelo://app?vid=15dcdbbd-a41e-43eb-9ed6-26ec15ce7a50","ios":"levelo://app?vid=15dcdbbd-a41e-43eb-9ed6-26ec15ce7a50"},"vehicle_type_id":"4","last_reported":1747843995,"current_range_meters":6400,"station_id":"","pricing_plan_id":"cebpf4jnsgd1na2vs0mg"},{"bike_id":"c3d191c3-049a-47c3-a395-227fa7713101","system_id":"levelo_inurba_marseille","lat":43.29581,"lon":5.3674,"is_reserved":false,"is_disabled":false,"rental_uris":{"android":"levelo://app?vid=c3d191c3-049a-47c3-a395-227fa7713101","ios":"levelo://app?vid=c3d191c3-049a-47c3-a395-227fa7713101"},"vehicle_type_id":"4","last_reported":1747843995,"current_range_meters":6400,"station_id":"ce4bgph2rcd13ifvqc2g","pricing_plan_id":"cebpf4jnsgd1na2vs0mg"},{"bike_id":"41851b71-3b5b-445e-96cf-4c2716ae8370","system_id":"levelo_inurba_marseille","lat":43.30135,"lon":5.39872,"is_reserved":false,"is_disabled":false,"rental_uris":{"android":"levelo://app?vid=41851b71-3b5b-445e-96cf-4c2716ae8370","ios":"levelo://app?vid=41851b71-3b5b-445e-96cf-4c2716ae8370"},"vehicle_type_id":"4","last_reported":1747843995,"current_range_meters":6400,"station_id":"ce4bh0h2rcd13ifvqd40","pricing_plan_id":"cebpf4jnsgd1na2vs0mg"},{"bike_id":"7e778814-de07-4045-a343-942e88b0926b","system_id":"levelo_inurba_marseille","lat":43.265502,"lon":5.372886,"is_reserved":false,"is_disabled":false,"rental_uris":{"android":"levelo://app?vid=7e778814-de07-4045-a343-942e88b0926b","ios":"levelo://app?vid=7e778814-de07-4045-a343-942e88b0926b"},"vehicle_type_id":"4","last_reported":1747843995,"current_range_meters":6400,"station_id":"ce4bhg12rcd13ifvqf70","pricing_plan_id":"cebpf4jnsgd1na2vs0mg"},{"bike_id":"6c3c3af9-381f-43c8-988e-35da8d1455c0","system_id":"levelo_inurba_marseille","lat":43.25133,"lon":5.40322,"is_reserved":false,"is_disabled":false,"rental_uris":{"android":"levelo://app?vid=6c3c3af9-381f-43c8-988e-35da8d1455c0","ios":"levelo://app?vid=6c3c3af9-381f-43c8-988e-35da8d1455c0"},"vehicle_type_id":"4","last_reported":1747843995,"current_range_meters":6400,"station_id":"ce4bhlh2rcd13ifvqgig","pricing_plan_id":"cebpf4jnsgd1na2vs0mg"},{"bike_id":"363bfe30-2e38-4445-aae0-24e6b3060316","system_id":"levelo_inurba_marseille","lat":43.29029,"lon":5.38646,"is_reserved":false,"is_disabled":false,"rental_uris":{"android":"levelo://app?vid=363bfe30-2e38-4445-aae0-24e6b3060316","ios":"levelo://app?vid=363bfe30-2e38-4445-aae0-24e6b3060316"},"vehicle_type_id":"4","last_reported":1747843995,"current_range_meters":6800,"station_id":"ce4bh4p2rcd13ifvqe0g","pricing_plan_id":"cebpf4jnsgd1na2vs0mg"},{"bike_id":"de694c0b-67fa-4ac8-8f16-8b5460e82782","system_id":"levelo_inurba_marseille","lat":43.260314,"lon":5.375549,"is_reserved":false,"is_disabled":false,"rental_uris":{"android":"levelo://app?vid=de694c0b-67fa-4ac8-8f16-8b5460e82782","ios":"levelo://app?vid=de694c0b-67fa-4ac8-8f16-8b5460e82782"},"vehicle_type_id":"4","last_reported":1747843995,"current_range_meters":6800,"station_id":"ce4bhgh2rcd13ifvqfa0","pricing_plan_id":"cebpf4jnsgd1na2vs0mg"},{"bike_id":"059a1b1f-c2a6-4218-a093-f5e3410c3dd3","system_id":"levelo_inurba_marseille","lat":43.26953,"lon":5.40238,"is_reserved":false,"is_disabled":false,"rental_uris":{"android":"levelo://app?vid=059a1b1f-c2a6-4218-a093-f5e3410c3dd3","ios":"levelo://app?vid=059a1b1f-c2a6-4218-a093-f5e3410c3dd3"},"vehicle_type_id":"4","last_reported":1747843995,"current_range_meters":6800,"station_id":"cjm6bp8fraef2m0cb0m0","pricing_plan_id":"cebpf4jnsgd1na2vs0mg"},{"bike_id":"b29dcf5d-5f56-4e05-8dee-0ff094b863b0","system_id":"levelo_inurba_marseille","lat":43.22927,"lon":5.35371,"is_reserved":false,"is_disabled":false,"rental_uris":{"android":"levelo://app?vid=b29dcf5d-5f56-4e05-8dee-0ff094b863b0","ios":"levelo://app?vid=b29dcf5d-5f56-4e05-8dee-0ff094b863b0"},"vehicle_type_id":"4","last_reported":1747843995,"current_range_meters":6800,"station_id":"cpo3532slgdg3j2ikp40","pricing_plan_id":"cebpf4jnsgd1na2vs0mg"},{"bike_id":"33f410d9-c6dc-48ab-86af-9b94eea9067b","system_id":"levelo_inurba_marseille","lat":43.21749,"lon":5.34612,"is_reserved":false,"is_disabled":false,"rental_uris":{"android":"levelo://app?vid=33f410d9-c6dc-48ab-86af-9b94eea9067b","ios":"levelo://app?vid=33f410d9-c6dc-48ab-86af-9b94eea9067b"},"vehicle_type_id":"4","last_reported":1747843995,"current_range_meters":6800,"station_id":"st_cvj6r9ubvosntc0bgbag","pricing_plan_id":"cebpf4jnsgd1na2vs0mg"},{"bike_id":"b8b511c7-6f48-45be-97af-1e0036b54cc5","system_id":"levelo_inurba_marseille","lat":43.27358,"lon":5.42394,"is_reserved":false,"is_disabled":false,"rental_uris":{"android":"levelo://app?vid=b8b511c7-6f48-45be-97af-1e0036b54cc5","ios":"levelo://app?vid=b8b511c7-6f48-45be-97af-1e0036b54cc5"},"vehicle_type_id":"4","last_reported":1747843995,"current_range_meters":7200,"station_id":"","pricing_plan_id":"cebpf4jnsgd1na2vs0mg"},{"bike_id":"2217cc22-74b4-48c4-86d3-a28e125dff2c","system_id":"levelo_inurba_marseille","lat":43.27915,"lon":5.3958,"is_reserved":false,"is_disabled":false,"rental_uris":{"android":"levelo://app?vid=2217cc22-74b4-48c4-86d3-a28e125dff2c","ios":"levelo://app?vid=2217cc22-74b4-48c4-86d3-a28e125dff2c"},"vehicle_type_id":"4","last_reported":1747843995,"current_range_meters":7200,"station_id":"ce4bhf92rcd13ifvqf40","pricing_plan_id":"cebpf4jnsgd1na2vs0mg"},{"bike_id":"2dad2e19-65d0-47d3-822d-52b27f6788b5","system_id":"levelo_inurba_marseille","lat":43.246529,"lon":5.388897,"is_reserved":false,"is_disabled":false,"rental_uris":{"android":"levelo://app?vid=2dad2e19-65d0-47d3-822d-52b27f6788b5","ios":"levelo://app?vid=2dad2e19-65d0-47d3-822d-52b27f6788b5"},"vehicle_type_id":"4","last_reported":1747843995,"current_range_meters":7200,"station_id":"ce4bhg12rcd13ifvqf60","pricing_plan_id":"cebpf4jnsgd1na2vs0mg"},{"bike_id":"e8162579-a5ad-485f-ad83-fec8a2ebe7e1","system_id":"levelo_inurba_marseille","lat":43.26826,"lon":5.39099,"is_reserved":false,"is_disabled":false,"rental_uris":{"android":"levelo://app?vid=e8162579-a5ad-485f-ad83-fec8a2ebe7e1","ios":"levelo://app?vid=e8162579-a5ad-485f-ad83-fec8a2ebe7e1"},"vehicle_type_id":"4","last_reported":1747843995,"current_range_meters":8000,"station_id":"","pricing_plan_id":"cebpf4jnsgd1na2vs0mg"},{"bike_id":"3552fbf2-b43a-446f-93f5-d695fc251b73","system_id":"levelo_inurba_marseille","lat":43.25235,"lon":5.37502,"is_reserved":false,"is_disabled":false,"rental_uris":{"android":"levelo://app?vid=3552fbf2-b43a-446f-93f5-d695fc251b73","ios":"levelo://app?vid=3552fbf2-b43a-446f-93f5-d695fc251b73"},"vehicle_type_id":"4","last_reported":1747843995,"current_range_meters":8000,"station_id":"","pricing_plan_id":"cebpf4jnsgd1na2vs0mg"},{"bike_id":"512f77c2-882a-42a0-8896-3fe8d3e5091e","system_id":"levelo_inurba_marseille","lat":43.31208,"lon":5.37737,"is_reserved":false,"is_disabled":false,"rental_uris":{"android":"levelo://app?vid=512f77c2-882a-42a0-8896-3fe8d3e5091e","ios":"levelo://app?vid=512f77c2-882a-42a0-8896-3fe8d3e5091e"},"vehicle_type_id":"4","last_reported":1747843995,"current_range_meters":8000,"station_id":"","pricing_plan_id":"cebpf4jnsgd1na2vs0mg"},{"bike_id":"008e905d-b27e-4d01-8c53-0d74e6b7e84a","system_id":"levelo_inurba_marseille","lat":43.26811,"lon":5.40261,"is_reserved":false,"is_disabled":false,"rental_uris":{"android":"levelo://app?vid=008e905d-b27e-4d01-8c53-0d74e6b7e84a","ios":"levelo://app?vid=008e905d-b27e-4d01-8c53-0d74e6b7e84a"},"vehicle_type_id":"4","last_reported":1747843995,"current_range_meters":8000,"station_id":"ce501612rcd8frsf0b60","pricing_plan_id":"cebpf4jnsgd1na2vs0mg"},{"bike_id":"b372620f-8132-4e7e-8d1a-e467489438c7","system_id":"levelo_inurba_marseille","lat":43.28626,"lon":5.40365,"is_reserved":false,"is_disabled":false,"rental_uris":{"android":"levelo://app?vid=b372620f-8132-4e7e-8d1a-e467489438c7","ios":"levelo://app?vid=b372620f-8132-4e7e-8d1a-e467489438c7"},"vehicle_type_id":"4","last_reported":1747843995,"current_range_meters":8400,"station_id":"","pricing_plan_id":"cebpf4jnsgd1na2vs0mg"},{"bike_id":"8be7801a-814f-4d7f-a177-20c6bff19f0a","system_id":"levelo_inurba_marseille","lat":43.31325,"lon":5.39695,"is_reserved":false,"is_disabled":false,"rental_uris":{"android":"levelo://app?vid=8be7801a-814f-4d7f-a177-20c6bff19f0a","ios":"levelo://app?vid=8be7801a-814f-4d7f-a177-20c6bff19f0a"},"vehicle_type_id":"4","last_reported":1747843995,"current_range_meters":8400,"station_id":"ce4bgvp2rcd13ifvqcu0","pricing_plan_id":"cebpf4jnsgd1na2vs0mg"},{"bike_id":"8e7cedf9-519e-4a57-80c2-a980b15eb94b","system_id":"levelo_inurba_marseille","lat":43.292,"lon":5.39314,"is_reserved":false,"is_disabled":false,"rental_uris":{"android":"levelo://app?vid=8e7cedf9-519e-4a57-80c2-a980b15eb94b","ios":"levelo://app?vid=8e7cedf9-519e-4a57-80c2-a980b15eb94b"},"vehicle_type_id":"4","last_reported":1747843995,"current_range_meters":8400,"station_id":"ce4bh192rcd13ifvqdd0","pricing_plan_id":"cebpf4jnsgd1na2vs0mg"},{"bike_id":"460537c5-4db4-4336-a826-e6cb9c8f3146","system_id":"levelo_inurba_marseille","lat":43.28613,"lon":5.35105,"is_reserved":false,"is_disabled":false,"rental_uris":{"android":"levelo://app?vid=460537c5-4db4-4336-a826-e6cb9c8f3146","ios":"levelo://app?vid=460537c5-4db4-4336-a826-e6cb9c8f3146"},"vehicle_type_id":"4","last_reported":1747843995,"current_range_meters":8400,"station_id":"ce4bhch2rcd13ifvqeug","pricing_plan_id":"cebpf4jnsgd1na2vs0mg"},{"bike_id":"3ef069d2-da07-49e1-9719-d8918fc822e8","system_id":"levelo_inurba_marseille","lat":43.26202,"lon":5.3793,"is_reserved":false,"is_disabled":false,"rental_uris":{"android":"levelo://app?vid=3ef069d2-da07-49e1-9719-d8918fc822e8","ios":"levelo://app?vid=3ef069d2-da07-49e1-9719-d8918fc822e8"},"vehicle_type_id":"4","last_reported":1747843995,"current_range_meters":8400,"station_id":"ce4bhjp2rcd13ifvqg90","pricing_plan_id":"cebpf4jnsgd1na2vs0mg"},{"bike_id":"1ff4dd87-bf56-4ab1-8365-aad71fcb827c","system_id":"levelo_inurba_marseille","lat":43.316076,"lon":5.423906,"is_reserved":false,"is_disabled":false,"rental_uris":{"android":"levelo://app?vid=1ff4dd87-bf56-4ab1-8365-aad71fcb827c","ios":"levelo://app?vid=1ff4dd87-bf56-4ab1-8365-aad71fcb827c"},"vehicle_type_id":"4","last_reported":1747843995,"current_range_meters":8400,"station_id":"ce4bhp92rcd13ifvqhbg","pricing_plan_id":"cebpf4jnsgd1na2vs0mg"},{"bike_id":"103450c0-eff4-42bc-bcce-ed42d8883806","system_id":"levelo_inurba_marseille","lat":43.28698,"lon":5.41538,"is_reserved":false,"is_disabled":false,"rental_uris":{"android":"levelo://app?vid=103450c0-eff4-42bc-bcce-ed42d8883806","ios":"levelo://app?vid=103450c0-eff4-42bc-bcce-ed42d8883806"},"vehicle_type_id":"4","last_reported":1747843995,"current_range_meters":8800,"station_id":"","pricing_plan_id":"cebpf4jnsgd1na2vs0mg"},{"bike_id":"3b521bf6-0af6-4165-bcd0-fd7a740a6f15","system_id":"levelo_inurba_marseille","lat":43.29783,"lon":5.37108,"is_reserved":false,"is_disabled":false,"rental_uris":{"android":"levelo://app?vid=3b521bf6-0af6-4165-bcd0-fd7a740a6f15","ios":"levelo://app?vid=3b521bf6-0af6-4165-bcd0-fd7a740a6f15"},"vehicle_type_id":"4","last_reported":1747843995,"current_range_meters":8800,"station_id":"ce4bgop2rcd13ifvqc1g","pricing_plan_id":"cebpf4jnsgd1na2vs0mg"},{"bike_id":"c7db125f-650f-4337-abac-35faec51b212","system_id":"levelo_inurba_marseille","lat":43.311018,"lon":5.400764,"is_reserved":false,"is_disabled":false,"rental_uris":{"android":"levelo://app?vid=c7db125f-650f-4337-abac-35faec51b212","ios":"levelo://app?vid=c7db125f-650f-4337-abac-35faec51b212"},"vehicle_type_id":"4","last_reported":1747843995,"current_range_meters":8800,"station_id":"ce4bh012rcd13ifvqd00","pricing_plan_id":"cebpf4jnsgd1na2vs0mg"},{"bike_id":"e3ea9a87-6764-4eeb-9b0a-786f9c8fe618","system_id":"levelo_inurba_marseille","lat":43.30128,"lon":5.39872,"is_reserved":false,"is_disabled":false,"rental_uris":{"android":"levelo://app?vid=e3ea9a87-6764-4eeb-9b0a-786f9c8fe618","ios":"levelo://app?vid=e3ea9a87-6764-4eeb-9b0a-786f9c8fe618"},"vehicle_type_id":"4","last_reported":1747843995,"current_range_meters":8800,"station_id":"ce4bh0h2rcd13ifvqd40","pricing_plan_id":"cebpf4jnsgd1na2vs0mg"},{"bike_id":"84de8131-f6f3-456a-95ea-f0572249826f","system_id":"levelo_inurba_marseille","lat":43.29634,"lon":5.40594,"is_reserved":false,"is_disabled":false,"rental_uris":{"android":"levelo://app?vid=84de8131-f6f3-456a-95ea-f0572249826f","ios":"levelo://app?vid=84de8131-f6f3-456a-95ea-f0572249826f"},"vehicle_type_id":"4","last_reported":1747843995,"current_range_meters":8800,"station_id":"ce4bh0h2rcd13ifvqd60","pricing_plan_id":"cebpf4jnsgd1na2vs0mg"},{"bike_id":"f4e1a2d4-7d91-426d-8c0e-33a16c0fcdac","system_id":"levelo_inurba_marseille","lat":43.24807,"lon":5.37461,"is_reserved":false,"is_disabled":false,"rental_uris":{"android":"levelo://app?vid=f4e1a2d4-7d91-426d-8c0e-33a16c0fcdac","ios":"levelo://app?vid=f4e1a2d4-7d91-426d-8c0e-33a16c0fcdac"},"vehicle_type_id":"4","last_reported":1747843995,"current_range_meters":8800,"station_id":"ce4bhgh2rcd13ifvqfb0","pricing_plan_id":"cebpf4jnsgd1na2vs0mg"},{"bike_id":"be4825e2-3b26-42f9-9111-70240424986c","system_id":"levelo_inurba_marseille","lat":43.2397,"lon":5.36635,"is_reserved":false,"is_disabled":false,"rental_uris":{"android":"levelo://app?vid=be4825e2-3b26-42f9-9111-70240424986c","ios":"levelo://app?vid=be4825e2-3b26-42f9-9111-70240424986c"},"vehicle_type_id":"4","last_reported":1747843995,"current_range_meters":8800,"station_id":"ce4bhi12rcd13ifvqfp0","pricing_plan_id":"cebpf4jnsgd1na2vs0mg"},{"bike_id":"9d14759e-68dd-4dc7-8028-bd50e0db8e11","system_id":"levelo_inurba_marseille","lat":43.23189,"lon":5.39988,"is_reserved":false,"is_disabled":false,"rental_uris":{"android":"levelo://app?vid=9d14759e-68dd-4dc7-8028-bd50e0db8e11","ios":"levelo://app?vid=9d14759e-68dd-4dc7-8028-bd50e0db8e11"},"vehicle_type_id":"4","last_reported":1747843995,"current_range_meters":8800,"station_id":"ce4bhn12rcd13ifvqgqg","pricing_plan_id":"cebpf4jnsgd1na2vs0mg"},{"bike_id":"f8649023-513f-4909-bbdd-9dcc348b1fbe","system_id":"levelo_inurba_marseille","lat":43.28413,"lon":5.37513,"is_reserved":false,"is_disabled":false,"rental_uris":{"android":"levelo://app?vid=f8649023-513f-4909-bbdd-9dcc348b1fbe","ios":"levelo://app?vid=f8649023-513f-4909-bbdd-9dcc348b1fbe"},"vehicle_type_id":"4","last_reported":1747843995,"current_range_meters":9200,"station_id":"ce4bh412rcd13ifvqds0","pricing_plan_id":"cebpf4jnsgd1na2vs0mg"},{"bike_id":"d56e6bf8-c396-4ba1-b98b-e92a0d1c68d6","system_id":"levelo_inurba_marseille","lat":43.28105,"lon":5.37844,"is_reserved":false,"is_disabled":false,"rental_uris":{"android":"levelo://app?vid=d56e6bf8-c396-4ba1-b98b-e92a0d1c68d6","ios":"levelo://app?vid=d56e6bf8-c396-4ba1-b98b-e92a0d1c68d6"},"vehicle_type_id":"4","last_reported":1747843995,"current_range_meters":9200,"station_id":"ce4bha12rcd13ifvqee0","pricing_plan_id":"cebpf4jnsgd1na2vs0mg"},{"bike_id":"f4fefaf8-6314-4d6f-8aa8-492ca5ec933e","system_id":"levelo_inurba_marseille","lat":43.32112,"lon":5.3677,"is_reserved":false,"is_disabled":false,"rental_uris":{"android":"levelo://app?vid=f4fefaf8-6314-4d6f-8aa8-492ca5ec933e","ios":"levelo://app?vid=f4fefaf8-6314-4d6f-8aa8-492ca5ec933e"},"vehicle_type_id":"4","last_reported":1747843995,"current_range_meters":9200,"station_id":"ce4bhrh2rcd13ifvqhug","pricing_plan_id":"cebpf4jnsgd1na2vs0mg"},{"bike_id":"52810136-cd8c-4cda-980b-09386d5743c5","system_id":"levelo_inurba_marseille","lat":43.21749,"lon":5.34598,"is_reserved":false,"is_disabled":false,"rental_uris":{"android":"levelo://app?vid=52810136-cd8c-4cda-980b-09386d5743c5","ios":"levelo://app?vid=52810136-cd8c-4cda-980b-09386d5743c5"},"vehicle_type_id":"4","last_reported":1747843995,"current_range_meters":9200,"station_id":"st_cvj6r9ubvosntc0bgbag","pricing_plan_id":"cebpf4jnsgd1na2vs0mg"},{"bike_id":"04af2683-ee74-4d10-898f-dfbef3cbecf1","system_id":"levelo_inurba_marseille","lat":43.289369,"lon":5.36645,"is_reserved":false,"is_disabled":false,"rental_uris":{"android":"levelo://app?vid=04af2683-ee74-4d10-898f-dfbef3cbecf1","ios":"levelo://app?vid=04af2683-ee74-4d10-898f-dfbef3cbecf1"},"vehicle_type_id":"4","last_reported":1747843995,"current_range_meters":9600,"station_id":"ce4bhap2rcd13ifvqek0","pricing_plan_id":"cebpf4jnsgd1na2vs0mg"},{"bike_id":"597abd84-153e-4024-a1fe-b77fd7f4a096","system_id":"levelo_inurba_marseille","lat":43.26955,"lon":5.38634,"is_reserved":false,"is_disabled":false,"rental_uris":{"android":"levelo://app?vid=597abd84-153e-4024-a1fe-b77fd7f4a096","ios":"levelo://app?vid=597abd84-153e-4024-a1fe-b77fd7f4a096"},"vehicle_type_id":"4","last_reported":1747843995,"current_range_meters":9600,"station_id":"ce4bhh92rcd13ifvqfh0","pricing_plan_id":"cebpf4jnsgd1na2vs0mg"},{"bike_id":"cac96b07-755b-4211-9d41-534261a255c3","system_id":"levelo_inurba_marseille","lat":43.25582,"lon":5.38219,"is_reserved":false,"is_disabled":false,"rental_uris":{"android":"levelo://app?vid=cac96b07-755b-4211-9d41-534261a255c3","ios":"levelo://app?vid=cac96b07-755b-4211-9d41-534261a255c3"},"vehicle_type_id":"4","last_reported":1747843995,"current_range_meters":9600,"station_id":"ce4bhih2rcd13ifvqfs0","pricing_plan_id":"cebpf4jnsgd1na2vs0mg"},{"bike_id":"289edf10-3cb4-4764-b8e9-01dd09886fd6","system_id":"levelo_inurba_marseille","lat":43.2315,"lon":5.39999,"is_reserved":false,"is_disabled":false,"rental_uris":{"android":"levelo://app?vid=289edf10-3cb4-4764-b8e9-01dd09886fd6","ios":"levelo://app?vid=289edf10-3cb4-4764-b8e9-01dd09886fd6"},"vehicle_type_id":"4","last_reported":1747843995,"current_range_meters":9600,"station_id":"ce4bhn12rcd13ifvqgqg","pricing_plan_id":"cebpf4jnsgd1na2vs0mg"},{"bike_id":"cf316d46-f443-47fa-9be8-0b14ac92a6ea","system_id":"levelo_inurba_marseille","lat":43.29545,"lon":5.42312,"is_reserved":false,"is_disabled":false,"rental_uris":{"android":"levelo://app?vid=cf316d46-f443-47fa-9be8-0b14ac92a6ea","ios":"levelo://app?vid=cf316d46-f443-47fa-9be8-0b14ac92a6ea"},"vehicle_type_id":"4","last_reported":1747843995,"current_range_meters":9600,"station_id":"ce4bhph2rcd13ifvqhdg","pricing_plan_id":"cebpf4jnsgd1na2vs0mg"},{"bike_id":"a4cefc7d-912b-49ab-b0c8-227a8136fbb4","system_id":"levelo_inurba_marseille","lat":43.32341,"lon":5.40627,"is_reserved":false,"is_disabled":false,"rental_uris":{"android":"levelo://app?vid=a4cefc7d-912b-49ab-b0c8-227a8136fbb4","ios":"levelo://app?vid=a4cefc7d-912b-49ab-b0c8-227a8136fbb4"},"vehicle_type_id":"4","last_reported":1747843995,"current_range_meters":9600,"station_id":"ce4bhq92rcd13ifvqhjg","pricing_plan_id":"cebpf4jnsgd1na2vs0mg"},{"bike_id":"b03fad23-aec9-47a3-b810-891fa9aefd1a","system_id":"levelo_inurba_marseille","lat":43.29028,"lon":5.3865,"is_reserved":false,"is_disabled":false,"rental_uris":{"android":"levelo://app?vid=b03fad23-aec9-47a3-b810-891fa9aefd1a","ios":"levelo://app?vid=b03fad23-aec9-47a3-b810-891fa9aefd1a"},"vehicle_type_id":"4","last_reported":1747843995,"current_range_meters":10000,"station_id":"ce4bh4p2rcd13ifvqe0g","pricing_plan_id":"cebpf4jnsgd1na2vs0mg"},{"bike_id":"a8a131af-027d-4c09-9cdc-a1b38a172804","system_id":"levelo_inurba_marseille","lat":43.268103,"lon":5.402702,"is_reserved":false,"is_disabled":false,"rental_uris":{"android":"levelo://app?vid=a8a131af-027d-4c09-9cdc-a1b38a172804","ios":"levelo://app?vid=a8a131af-027d-4c09-9cdc-a1b38a172804"},"vehicle_type_id":"4","last_reported":1747843995,"current_range_meters":10000,"station_id":"ce501612rcd8frsf0b60","pricing_plan_id":"cebpf4jnsgd1na2vs0mg"},{"bike_id":"3fe3d6c4-138a-47df-b6b4-e6f19e8f7d46","system_id":"levelo_inurba_marseille","lat":43.21408,"lon":5.34149,"is_reserved":false,"is_disabled":false,"rental_uris":{"android":"levelo://app?vid=3fe3d6c4-138a-47df-b6b4-e6f19e8f7d46","ios":"levelo://app?vid=3fe3d6c4-138a-47df-b6b4-e6f19e8f7d46"},"vehicle_type_id":"4","last_reported":1747843995,"current_range_meters":10800,"station_id":"","pricing_plan_id":"cebpf4jnsgd1na2vs0mg"},{"bike_id":"0a9a5da3-879a-4297-b5f7-6047ec675730","system_id":"levelo_inurba_marseille","lat":43.29417,"lon":5.3863,"is_reserved":false,"is_disabled":false,"rental_uris":{"android":"levelo://app?vid=0a9a5da3-879a-4297-b5f7-6047ec675730","ios":"levelo://app?vid=0a9a5da3-879a-4297-b5f7-6047ec675730"},"vehicle_type_id":"4","last_reported":1747843995,"current_range_meters":10800,"station_id":"ce4bh2h2rcd13ifvqdh0","pricing_plan_id":"cebpf4jnsgd1na2vs0mg"},{"bike_id":"4063f944-8d9e-41e9-8027-126b11bcc879","system_id":"levelo_inurba_marseille","lat":43.27912,"lon":5.395855,"is_reserved":false,"is_disabled":false,"rental_uris":{"android":"levelo://app?vid=4063f944-8d9e-41e9-8027-126b11bcc879","ios":"levelo://app?vid=4063f944-8d9e-41e9-8027-126b11bcc879"},"vehicle_type_id":"4","last_reported":1747843995,"current_range_meters":10800,"station_id":"ce4bhf92rcd13ifvqf40","pricing_plan_id":"cebpf4jnsgd1na2vs0mg"},{"bike_id":"0a4f8552-3056-491a-9ef3-62f2374766f3","system_id":"levelo_inurba_marseille","lat":43.27079,"lon":5.388344,"is_reserved":false,"is_disabled":false,"rental_uris":{"android":"levelo://app?vid=0a4f8552-3056-491a-9ef3-62f2374766f3","ios":"levelo://app?vid=0a4f8552-3056-491a-9ef3-62f2374766f3"},"vehicle_type_id":"4","last_reported":1747843995,"current_range_meters":10800,"station_id":"ce4bhh92rcd13ifvqfh0","pricing_plan_id":"cebpf4jnsgd1na2vs0mg"},{"bike_id":"dc5b4fb7-d698-4738-a5a7-42b2632531ce","system_id":"levelo_inurba_marseille","lat":43.27075,"lon":5.42283,"is_reserved":false,"is_disabled":false,"rental_uris":{"android":"levelo://app?vid=dc5b4fb7-d698-4738-a5a7-42b2632531ce","ios":"levelo://app?vid=dc5b4fb7-d698-4738-a5a7-42b2632531ce"},"vehicle_type_id":"4","last_reported":1747843995,"current_range_meters":10800,"station_id":"ce4bhk92rcd13ifvqgb0","pricing_plan_id":"cebpf4jnsgd1na2vs0mg"},{"bike_id":"6912307a-b4d5-42d8-b865-d9e0e18ad5d5","system_id":"levelo_inurba_marseille","lat":43.24554,"lon":5.39536,"is_reserved":false,"is_disabled":false,"rental_uris":{"android":"levelo://app?vid=6912307a-b4d5-42d8-b865-d9e0e18ad5d5","ios":"levelo://app?vid=6912307a-b4d5-42d8-b865-d9e0e18ad5d5"},"vehicle_type_id":"4","last_reported":1747843995,"current_range_meters":10800,"station_id":"ce4bhlp2rcd13ifvqgjg","pricing_plan_id":"cebpf4jnsgd1na2vs0mg"},{"bike_id":"9543ad3f-6312-455c-ab84-08785ac25c58","system_id":"levelo_inurba_marseille","lat":43.29029,"lon":5.38638,"is_reserved":false,"is_disabled":false,"rental_uris":{"android":"levelo://app?vid=9543ad3f-6312-455c-ab84-08785ac25c58","ios":"levelo://app?vid=9543ad3f-6312-455c-ab84-08785ac25c58"},"vehicle_type_id":"4","last_reported":1747843995,"current_range_meters":11200,"station_id":"ce4bh4p2rcd13ifvqe0g","pricing_plan_id":"cebpf4jnsgd1na2vs0mg"},{"bike_id":"a1083452-3d76-4c91-aef2-b5045d97774d","system_id":"levelo_inurba_marseille","lat":43.28938,"lon":5.36644,"is_reserved":false,"is_disabled":false,"rental_uris":{"android":"levelo://app?vid=a1083452-3d76-4c91-aef2-b5045d97774d","ios":"levelo://app?vid=a1083452-3d76-4c91-aef2-b5045d97774d"},"vehicle_type_id":"4","last_reported":1747843995,"current_range_meters":11200,"station_id":"ce4bhap2rcd13ifvqek0","pricing_plan_id":"cebpf4jnsgd1na2vs0mg"},{"bike_id":"d93870d5-7f65-4c14-ab86-fc3a95a90b93","system_id":"levelo_inurba_marseille","lat":43.273737,"lon":5.362657,"is_reserved":false,"is_disabled":false,"rental_uris":{"android":"levelo://app?vid=d93870d5-7f65-4c14-ab86-fc3a95a90b93","ios":"levelo://app?vid=d93870d5-7f65-4c14-ab86-fc3a95a90b93"},"vehicle_type_id":"4","last_reported":1747843995,"current_range_meters":11200,"station_id":"ce4bhbh2rcd13ifvqeo0","pricing_plan_id":"cebpf4jnsgd1na2vs0mg"},{"bike_id":"8bafe62e-cb07-429e-bd97-d0e1d3aefb1c","system_id":"levelo_inurba_marseille","lat":43.31722,"lon":5.42398,"is_reserved":false,"is_disabled":false,"rental_uris":{"android":"levelo://app?vid=8bafe62e-cb07-429e-bd97-d0e1d3aefb1c","ios":"levelo://app?vid=8bafe62e-cb07-429e-bd97-d0e1d3aefb1c"},"vehicle_type_id":"4","last_reported":1747843995,"current_range_meters":11200,"station_id":"ce4bhp92rcd13ifvqhbg","pricing_plan_id":"cebpf4jnsgd1na2vs0mg"},{"bike_id":"2f34c329-54fe-438b-a307-b47c6ac8481c","system_id":"levelo_inurba_marseille","lat":43.2988,"lon":5.43649,"is_reserved":false,"is_disabled":false,"rental_uris":{"android":"levelo://app?vid=2f34c329-54fe-438b-a307-b47c6ac8481c","ios":"levelo://app?vid=2f34c329-54fe-438b-a307-b47c6ac8481c"},"vehicle_type_id":"4","last_reported":1747843995,"current_range_meters":11200,"station_id":"ce4bhpp2rcd13ifvqhfg","pricing_plan_id":"cebpf4jnsgd1na2vs0mg"},{"bike_id":"67ad413d-9aae-4f95-b2cc-4ca42c8fe575","system_id":"levelo_inurba_marseille","lat":43.29041,"lon":5.39911,"is_reserved":false,"is_disabled":false,"rental_uris":{"android":"levelo://app?vid=67ad413d-9aae-4f95-b2cc-4ca42c8fe575","ios":"levelo://app?vid=67ad413d-9aae-4f95-b2cc-4ca42c8fe575"},"vehicle_type_id":"4","last_reported":1747843995,"current_range_meters":11600,"station_id":"ce4bh392rcd13ifvqdm0","pricing_plan_id":"cebpf4jnsgd1na2vs0mg"},{"bike_id":"395c21c9-bba3-47e3-9f63-e8f74b6e6583","system_id":"levelo_inurba_marseille","lat":43.28856,"lon":5.35848,"is_reserved":false,"is_disabled":false,"rental_uris":{"android":"levelo://app?vid=395c21c9-bba3-47e3-9f63-e8f74b6e6583","ios":"levelo://app?vid=395c21c9-bba3-47e3-9f63-e8f74b6e6583"},"vehicle_type_id":"4","last_reported":1747843995,"current_range_meters":11600,"station_id":"ce4bhb12rcd13ifvqem0","pricing_plan_id":"cebpf4jnsgd1na2vs0mg"},{"bike_id":"44b34f56-eb04-4ac5-94c5-ed6d62b2681e","system_id":"levelo_inurba_marseille","lat":43.27203,"lon":5.39188,"is_reserved":false,"is_disabled":false,"rental_uris":{"android":"levelo://app?vid=44b34f56-eb04-4ac5-94c5-ed6d62b2681e","ios":"levelo://app?vid=44b34f56-eb04-4ac5-94c5-ed6d62b2681e"},"vehicle_type_id":"4","last_reported":1747843995,"current_range_meters":11600,"station_id":"ce4bhhp2rcd13ifvqfm0","pricing_plan_id":"cebpf4jnsgd1na2vs0mg"},{"bike_id":"cd3809ef-233b-4721-97b6-68c211f89e56","system_id":"levelo_inurba_marseille","lat":43.29176,"lon":5.3715,"is_reserved":false,"is_disabled":false,"rental_uris":{"android":"levelo://app?vid=cd3809ef-233b-4721-97b6-68c211f89e56","ios":"levelo://app?vid=cd3809ef-233b-4721-97b6-68c211f89e56"},"vehicle_type_id":"4","last_reported":1747843995,"current_range_meters":12000,"station_id":"ce4bha92rcd13ifvqeh0","pricing_plan_id":"cebpf4jnsgd1na2vs0mg"},{"bike_id":"795bd171-83c6-4161-9927-bb5630d28dc0","system_id":"levelo_inurba_marseille","lat":43.25113,"lon":5.40319,"is_reserved":false,"is_disabled":false,"rental_uris":{"android":"levelo://app?vid=795bd171-83c6-4161-9927-bb5630d28dc0","ios":"levelo://app?vid=795bd171-83c6-4161-9927-bb5630d28dc0"},"vehicle_type_id":"4","last_reported":1747843995,"current_range_meters":12000,"station_id":"ce4bhlh2rcd13ifvqgig","pricing_plan_id":"cebpf4jnsgd1na2vs0mg"},{"bike_id":"c54cc618-8735-4f77-a8d7-ee32d5387e0f","system_id":"levelo_inurba_marseille","lat":43.24178,"lon":5.39728,"is_reserved":false,"is_disabled":false,"rental_uris":{"android":"levelo://app?vid=c54cc618-8735-4f77-a8d7-ee32d5387e0f","ios":"levelo://app?vid=c54cc618-8735-4f77-a8d7-ee32d5387e0f"},"vehicle_type_id":"4","last_reported":1747843995,"current_range_meters":12000,"station_id":"ce4bhn12rcd13ifvqgpg","pricing_plan_id":"cebpf4jnsgd1na2vs0mg"},{"bike_id":"bab7d908-9594-4667-a8ca-ef719b9fd888","system_id":"levelo_inurba_marseille","lat":43.28937,"lon":5.36638,"is_reserved":false,"is_disabled":false,"rental_uris":{"android":"levelo://app?vid=bab7d908-9594-4667-a8ca-ef719b9fd888","ios":"levelo://app?vid=bab7d908-9594-4667-a8ca-ef719b9fd888"},"vehicle_type_id":"4","last_reported":1747843995,"current_range_meters":12400,"station_id":"ce4bhap2rcd13ifvqek0","pricing_plan_id":"cebpf4jnsgd1na2vs0mg"},{"bike_id":"e2cb30a3-06d3-4a8d-8bb5-0556ae31c6ff","system_id":"levelo_inurba_marseille","lat":43.24545,"lon":5.39522,"is_reserved":false,"is_disabled":false,"rental_uris":{"android":"levelo://app?vid=e2cb30a3-06d3-4a8d-8bb5-0556ae31c6ff","ios":"levelo://app?vid=e2cb30a3-06d3-4a8d-8bb5-0556ae31c6ff"},"vehicle_type_id":"4","last_reported":1747843995,"current_range_meters":12400,"station_id":"ce4bhlp2rcd13ifvqgjg","pricing_plan_id":"cebpf4jnsgd1na2vs0mg"},{"bike_id":"1c24ef16-4a19-4f1c-8654-81ffa213c656","system_id":"levelo_inurba_marseille","lat":43.27496,"lon":5.42452,"is_reserved":false,"is_disabled":false,"rental_uris":{"android":"levelo://app?vid=1c24ef16-4a19-4f1c-8654-81ffa213c656","ios":"levelo://app?vid=1c24ef16-4a19-4f1c-8654-81ffa213c656"},"vehicle_type_id":"4","last_reported":1747843995,"current_range_meters":12400,"station_id":"ce4bhn92rcd13ifvqgrg","pricing_plan_id":"cebpf4jnsgd1na2vs0mg"},{"bike_id":"7bcd98ba-abd4-4f4f-b995-18f534ecc99c","system_id":"levelo_inurba_marseille","lat":43.2407,"lon":5.37779,"is_reserved":false,"is_disabled":false,"rental_uris":{"android":"levelo://app?vid=7bcd98ba-abd4-4f4f-b995-18f534ecc99c","ios":"levelo://app?vid=7bcd98ba-abd4-4f4f-b995-18f534ecc99c"},"vehicle_type_id":"4","last_reported":1747843995,"current_range_meters":12400,"station_id":"ce4bhnp2rcd13ifvqgvg","pricing_plan_id":"cebpf4jnsgd1na2vs0mg"},{"bike_id":"1637f014-8a9a-4667-bc47-330adbe7bc7d","system_id":"levelo_inurba_marseille","lat":43.30152,"lon":5.38798,"is_reserved":false,"is_disabled":false,"rental_uris":{"android":"levelo://app?vid=1637f014-8a9a-4667-bc47-330adbe7bc7d","ios":"levelo://app?vid=1637f014-8a9a-4667-bc47-330adbe7bc7d"},"vehicle_type_id":"4","last_reported":1747843995,"current_range_meters":12800,"station_id":"ce4bghh2rcd13ifvqb60","pricing_plan_id":"cebpf4jnsgd1na2vs0mg"},{"bike_id":"98d63902-14a7-4f01-bec0-984916993bf9","system_id":"levelo_inurba_marseille","lat":43.27817,"lon":5.40728,"is_reserved":false,"is_disabled":false,"rental_uris":{"android":"levelo://app?vid=98d63902-14a7-4f01-bec0-984916993bf9","ios":"levelo://app?vid=98d63902-14a7-4f01-bec0-984916993bf9"},"vehicle_type_id":"4","last_reported":1747843995,"current_range_meters":12800,"station_id":"ce4bhnh2rcd13ifvqgtg","pricing_plan_id":"cebpf4jnsgd1na2vs0mg"},{"bike_id":"f693b179-d4c4-4ee0-8a73-552a9c1888ff","system_id":"levelo_inurba_marseille","lat":43.268028,"lon":5.402639,"is_reserved":false,"is_disabled":false,"rental_uris":{"android":"levelo://app?vid=f693b179-d4c4-4ee0-8a73-552a9c1888ff","ios":"levelo://app?vid=f693b179-d4c4-4ee0-8a73-552a9c1888ff"},"vehicle_type_id":"4","last_reported":1747843995,"current_range_meters":12800,"station_id":"ce501612rcd8frsf0b60","pricing_plan_id":"cebpf4jnsgd1na2vs0mg"},{"bike_id":"e38cf9f8-4988-4c45-b59c-d8ff24cc5c11","system_id":"levelo_inurba_marseille","lat":43.30241,"lon":5.40053,"is_reserved":false,"is_disabled":false,"rental_uris":{"android":"levelo://app?vid=e38cf9f8-4988-4c45-b59c-d8ff24cc5c11","ios":"levelo://app?vid=e38cf9f8-4988-4c45-b59c-d8ff24cc5c11"},"vehicle_type_id":"4","last_reported":1747843995,"current_range_meters":13600,"station_id":"ce4bgvh2rcd13ifvqcs0","pricing_plan_id":"cebpf4jnsgd1na2vs0mg"},{"bike_id":"45f87bca-98b8-4ca8-94fe-a97984c3c542","system_id":"levelo_inurba_marseille","lat":43.28037,"lon":5.36949,"is_reserved":false,"is_disabled":false,"rental_uris":{"android":"levelo://app?vid=45f87bca-98b8-4ca8-94fe-a97984c3c542","ios":"levelo://app?vid=45f87bca-98b8-4ca8-94fe-a97984c3c542"},"vehicle_type_id":"4","last_reported":1747843995,"current_range_meters":13600,"station_id":"ce4bha12rcd13ifvqef0","pricing_plan_id":"cebpf4jnsgd1na2vs0mg"},{"bike_id":"bbb01a3a-01b5-4254-ba03-425b758cec4d","system_id":"levelo_inurba_marseille","lat":43.34144,"lon":5.40909,"is_reserved":false,"is_disabled":false,"rental_uris":{"android":"levelo://app?vid=bbb01a3a-01b5-4254-ba03-425b758cec4d","ios":"levelo://app?vid=bbb01a3a-01b5-4254-ba03-425b758cec4d"},"vehicle_type_id":"4","last_reported":1747843995,"current_range_meters":13600,"station_id":"ce4bhqh2rcd13ifvqhlg","pricing_plan_id":"cebpf4jnsgd1na2vs0mg"},{"bike_id":"f9fb40c0-1fcd-48cb-8e26-3f2dc0fb2451","system_id":"levelo_inurba_marseille","lat":43.33751,"lon":5.37509,"is_reserved":false,"is_disabled":false,"rental_uris":{"android":"levelo://app?vid=f9fb40c0-1fcd-48cb-8e26-3f2dc0fb2451","ios":"levelo://app?vid=f9fb40c0-1fcd-48cb-8e26-3f2dc0fb2451"},"vehicle_type_id":"4","last_reported":1747843995,"current_range_meters":14000,"station_id":"","pricing_plan_id":"cebpf4jnsgd1na2vs0mg"},{"bike_id":"748f3e82-7e4f-4aaa-8565-b6318ebaca29","system_id":"levelo_inurba_marseille","lat":43.29419,"lon":5.38624,"is_reserved":false,"is_disabled":false,"rental_uris":{"android":"levelo://app?vid=748f3e82-7e4f-4aaa-8565-b6318ebaca29","ios":"levelo://app?vid=748f3e82-7e4f-4aaa-8565-b6318ebaca29"},"vehicle_type_id":"4","last_reported":1747843995,"current_range_meters":14000,"station_id":"ce4bh2h2rcd13ifvqdh0","pricing_plan_id":"cebpf4jnsgd1na2vs0mg"},{"bike_id":"c998a02d-f59b-45ae-84ff-11f4d02af3ed","system_id":"levelo_inurba_marseille","lat":43.29421,"lon":5.38633,"is_reserved":false,"is_disabled":false,"rental_uris":{"android":"levelo://app?vid=c998a02d-f59b-45ae-84ff-11f4d02af3ed","ios":"levelo://app?vid=c998a02d-f59b-45ae-84ff-11f4d02af3ed"},"vehicle_type_id":"4","last_reported":1747843995,"current_range_meters":14000,"station_id":"ce4bh2h2rcd13ifvqdh0","pricing_plan_id":"cebpf4jnsgd1na2vs0mg"},{"bike_id":"20d46360-b017-40c9-8a0d-bb0351687016","system_id":"levelo_inurba_marseille","lat":43.25574,"lon":5.38202,"is_reserved":false,"is_disabled":false,"rental_uris":{"android":"levelo://app?vid=20d46360-b017-40c9-8a0d-bb0351687016","ios":"levelo://app?vid=20d46360-b017-40c9-8a0d-bb0351687016"},"vehicle_type_id":"4","last_reported":1747843995,"current_range_meters":14000,"station_id":"ce4bhih2rcd13ifvqfs0","pricing_plan_id":"cebpf4jnsgd1na2vs0mg"},{"bike_id":"56e6bfcc-e34b-4895-b9b3-06014c691cea","system_id":"levelo_inurba_marseille","lat":43.26948,"lon":5.40257,"is_reserved":false,"is_disabled":false,"rental_uris":{"android":"levelo://app?vid=56e6bfcc-e34b-4895-b9b3-06014c691cea","ios":"levelo://app?vid=56e6bfcc-e34b-4895-b9b3-06014c691cea"},"vehicle_type_id":"4","last_reported":1747843995,"current_range_meters":14000,"station_id":"cjm6bp8fraef2m0cb0m0","pricing_plan_id":"cebpf4jnsgd1na2vs0mg"},{"bike_id":"568db9ae-7b21-4158-ad48-26613b217ec6","system_id":"levelo_inurba_marseille","lat":43.29529,"lon":5.37495,"is_reserved":false,"is_disabled":false,"rental_uris":{"android":"levelo://app?vid=568db9ae-7b21-4158-ad48-26613b217ec6","ios":"levelo://app?vid=568db9ae-7b21-4158-ad48-26613b217ec6"},"vehicle_type_id":"4","last_reported":1747843995,"current_range_meters":14400,"station_id":"ce4bgkp2rcd13ifvqbmg","pricing_plan_id":"cebpf4jnsgd1na2vs0mg"},{"bike_id":"e6de1b8c-00df-4c24-b2ea-f5629b5a0e51","system_id":"levelo_inurba_marseille","lat":43.2904,"lon":5.39965,"is_reserved":false,"is_disabled":false,"rental_uris":{"android":"levelo://app?vid=e6de1b8c-00df-4c24-b2ea-f5629b5a0e51","ios":"levelo://app?vid=e6de1b8c-00df-4c24-b2ea-f5629b5a0e51"},"vehicle_type_id":"4","last_reported":1747843995,"current_range_meters":14400,"station_id":"ce4bh392rcd13ifvqdm0","pricing_plan_id":"cebpf4jnsgd1na2vs0mg"},{"bike_id":"9a194e83-b646-48cd-85bb-a4941d1dd825","system_id":"levelo_inurba_marseille","lat":43.28929,"lon":5.38386,"is_reserved":false,"is_disabled":false,"rental_uris":{"android":"levelo://app?vid=9a194e83-b646-48cd-85bb-a4941d1dd825","ios":"levelo://app?vid=9a194e83-b646-48cd-85bb-a4941d1dd825"},"vehicle_type_id":"4","last_reported":1747843995,"current_range_meters":14400,"station_id":"ce4bh612rcd13ifvqe6g","pricing_plan_id":"cebpf4jnsgd1na2vs0mg"},{"bike_id":"8c37efed-a110-4307-8086-3b6336efe3b5","system_id":"levelo_inurba_marseille","lat":43.26578,"lon":5.40323,"is_reserved":false,"is_disabled":false,"rental_uris":{"android":"levelo://app?vid=8c37efed-a110-4307-8086-3b6336efe3b5","ios":"levelo://app?vid=8c37efed-a110-4307-8086-3b6336efe3b5"},"vehicle_type_id":"4","last_reported":1747843995,"current_range_meters":14800,"station_id":"","pricing_plan_id":"cebpf4jnsgd1na2vs0mg"},{"bike_id":"27653dcd-dec9-4f13-b172-8968c20c1725","system_id":"levelo_inurba_marseille","lat":43.23856,"lon":5.43091,"is_reserved":false,"is_disabled":false,"rental_uris":{"android":"levelo://app?vid=27653dcd-dec9-4f13-b172-8968c20c1725","ios":"levelo://app?vid=27653dcd-dec9-4f13-b172-8968c20c1725"},"vehicle_type_id":"4","last_reported":1747843995,"current_range_meters":14800,"station_id":"","pricing_plan_id":"cebpf4jnsgd1na2vs0mg"},{"bike_id":"d3e07d2c-0124-4e2f-9c25-4a48193a3c27","system_id":"levelo_inurba_marseille","lat":43.29038,"lon":5.37569,"is_reserved":false,"is_disabled":false,"rental_uris":{"android":"levelo://app?vid=d3e07d2c-0124-4e2f-9c25-4a48193a3c27","ios":"levelo://app?vid=d3e07d2c-0124-4e2f-9c25-4a48193a3c27"},"vehicle_type_id":"4","last_reported":1747843995,"current_range_meters":14800,"station_id":"ce4bh692rcd13ifvqe90","pricing_plan_id":"cebpf4jnsgd1na2vs0mg"},{"bike_id":"a19667eb-d1f1-46d1-8257-280b5a2562cc","system_id":"levelo_inurba_marseille","lat":43.27382,"lon":5.36247,"is_reserved":false,"is_disabled":false,"rental_uris":{"android":"levelo://app?vid=a19667eb-d1f1-46d1-8257-280b5a2562cc","ios":"levelo://app?vid=a19667eb-d1f1-46d1-8257-280b5a2562cc"},"vehicle_type_id":"4","last_reported":1747843995,"current_range_meters":14800,"station_id":"ce4bhbh2rcd13ifvqeo0","pricing_plan_id":"cebpf4jnsgd1na2vs0mg"},{"bike_id":"a2a04a53-59af-4546-9c58-841793fdfe2f","system_id":"levelo_inurba_marseille","lat":43.29911,"lon":5.38306,"is_reserved":false,"is_disabled":false,"rental_uris":{"android":"levelo://app?vid=a2a04a53-59af-4546-9c58-841793fdfe2f","ios":"levelo://app?vid=a2a04a53-59af-4546-9c58-841793fdfe2f"},"vehicle_type_id":"4","last_reported":1747843995,"current_range_meters":15200,"station_id":"","pricing_plan_id":"cebpf4jnsgd1na2vs0mg"},{"bike_id":"4acf0f29-8bf6-4926-b62f-78fced93ff1f","system_id":"levelo_inurba_marseille","lat":43.28656,"lon":5.35094,"is_reserved":false,"is_disabled":false,"rental_uris":{"android":"levelo://app?vid=4acf0f29-8bf6-4926-b62f-78fced93ff1f","ios":"levelo://app?vid=4acf0f29-8bf6-4926-b62f-78fced93ff1f"},"vehicle_type_id":"4","last_reported":1747843995,"current_range_meters":15200,"station_id":"ce4bhch2rcd13ifvqeug","pricing_plan_id":"cebpf4jnsgd1na2vs0mg"},{"bike_id":"1eb6850c-e94c-45e1-ac02-b110f71ba1ab","system_id":"levelo_inurba_marseille","lat":43.28086,"lon":5.39629,"is_reserved":false,"is_disabled":false,"rental_uris":{"android":"levelo://app?vid=1eb6850c-e94c-45e1-ac02-b110f71ba1ab","ios":"levelo://app?vid=1eb6850c-e94c-45e1-ac02-b110f71ba1ab"},"vehicle_type_id":"4","last_reported":1747843995,"current_range_meters":15200,"station_id":"ce4bho12rcd13ifvqh2g","pricing_plan_id":"cebpf4jnsgd1na2vs0mg"},{"bike_id":"1a091a66-2e68-4ded-9fc5-3d6f9e9f6f62","system_id":"levelo_inurba_marseille","lat":43.321123,"lon":5.367714,"is_reserved":false,"is_disabled":false,"rental_uris":{"android":"levelo://app?vid=1a091a66-2e68-4ded-9fc5-3d6f9e9f6f62","ios":"levelo://app?vid=1a091a66-2e68-4ded-9fc5-3d6f9e9f6f62"},"vehicle_type_id":"4","last_reported":1747843995,"current_range_meters":15200,"station_id":"ce4bhrh2rcd13ifvqhug","pricing_plan_id":"cebpf4jnsgd1na2vs0mg"},{"bike_id":"4c935f85-4440-4a38-ba89-3c06fe79b1b3","system_id":"levelo_inurba_marseille","lat":43.29829,"lon":5.37599,"is_reserved":false,"is_disabled":false,"rental_uris":{"android":"levelo://app?vid=4c935f85-4440-4a38-ba89-3c06fe79b1b3","ios":"levelo://app?vid=4c935f85-4440-4a38-ba89-3c06fe79b1b3"},"vehicle_type_id":"4","last_reported":1747843995,"current_range_meters":16000,"station_id":"","pricing_plan_id":"cebpf4jnsgd1na2vs0mg"},{"bike_id":"7b41c392-2444-4b1f-b662-8db2423979b4","system_id":"levelo_inurba_marseille","lat":43.24806,"lon":5.37465,"is_reserved":false,"is_disabled":false,"rental_uris":{"android":"levelo://app?vid=7b41c392-2444-4b1f-b662-8db2423979b4","ios":"levelo://app?vid=7b41c392-2444-4b1f-b662-8db2423979b4"},"vehicle_type_id":"4","last_reported":1747843995,"current_range_meters":16000,"station_id":"ce4bhgh2rcd13ifvqfb0","pricing_plan_id":"cebpf4jnsgd1na2vs0mg"},{"bike_id":"8b0ddd42-a0de-46b5-a0ee-9d92bf3e44ca","system_id":"levelo_inurba_marseille","lat":43.25864,"lon":5.3991,"is_reserved":false,"is_disabled":false,"rental_uris":{"android":"levelo://app?vid=8b0ddd42-a0de-46b5-a0ee-9d92bf3e44ca","ios":"levelo://app?vid=8b0ddd42-a0de-46b5-a0ee-9d92bf3e44ca"},"vehicle_type_id":"4","last_reported":1747843995,"current_range_meters":16000,"station_id":"ce4bhl92rcd13ifvqghg","pricing_plan_id":"cebpf4jnsgd1na2vs0mg"},{"bike_id":"3054e7c4-bf17-4b91-8317-4cc3a0643a69","system_id":"levelo_inurba_marseille","lat":43.31725,"lon":5.423899,"is_reserved":false,"is_disabled":false,"rental_uris":{"android":"levelo://app?vid=3054e7c4-bf17-4b91-8317-4cc3a0643a69","ios":"levelo://app?vid=3054e7c4-bf17-4b91-8317-4cc3a0643a69"},"vehicle_type_id":"4","last_reported":1747843995,"current_range_meters":16000,"station_id":"ce4bhp92rcd13ifvqhbg","pricing_plan_id":"cebpf4jnsgd1na2vs0mg"},{"bike_id":"f9bcf19b-910d-4635-a02f-7f29660abf09","system_id":"levelo_inurba_marseille","lat":43.32367,"lon":5.38883,"is_reserved":false,"is_disabled":false,"rental_uris":{"android":"levelo://app?vid=f9bcf19b-910d-4635-a02f-7f29660abf09","ios":"levelo://app?vid=f9bcf19b-910d-4635-a02f-7f29660abf09"},"vehicle_type_id":"4","last_reported":1747843995,"current_range_meters":16000,"station_id":"ce4bhqp2rcd13ifvqhog","pricing_plan_id":"cebpf4jnsgd1na2vs0mg"},{"bike_id":"87c4eccc-bb65-48f9-8b4c-4b27ebc9c1f5","system_id":"levelo_inurba_marseille","lat":43.21752,"lon":5.34603,"is_reserved":false,"is_disabled":false,"rental_uris":{"android":"levelo://app?vid=87c4eccc-bb65-48f9-8b4c-4b27ebc9c1f5","ios":"levelo://app?vid=87c4eccc-bb65-48f9-8b4c-4b27ebc9c1f5"},"vehicle_type_id":"4","last_reported":1747843995,"current_range_meters":16000,"station_id":"st_cvj6r9ubvosntc0bgbag","pricing_plan_id":"cebpf4jnsgd1na2vs0mg"},{"bike_id":"e703d902-87fd-4bf5-a0c1-2b90dd9be339","system_id":"levelo_inurba_marseille","lat":43.29258,"lon":5.40908,"is_reserved":false,"is_disabled":false,"rental_uris":{"android":"levelo://app?vid=e703d902-87fd-4bf5-a0c1-2b90dd9be339","ios":"levelo://app?vid=e703d902-87fd-4bf5-a0c1-2b90dd9be339"},"vehicle_type_id":"4","last_reported":1747843995,"current_range_meters":16400,"station_id":"ce4bh192rcd13ifvqdc0","pricing_plan_id":"cebpf4jnsgd1na2vs0mg"},{"bike_id":"70f789f7-b90a-4417-b494-bdc0b27a5074","system_id":"levelo_inurba_marseille","lat":43.26035,"lon":5.37546,"is_reserved":false,"is_disabled":false,"rental_uris":{"android":"levelo://app?vid=70f789f7-b90a-4417-b494-bdc0b27a5074","ios":"levelo://app?vid=70f789f7-b90a-4417-b494-bdc0b27a5074"},"vehicle_type_id":"4","last_reported":1747843995,"current_range_meters":16400,"station_id":"ce4bhgh2rcd13ifvqfa0","pricing_plan_id":"cebpf4jnsgd1na2vs0mg"},{"bike_id":"dc61c065-6ed1-487e-9ecf-5a93a8f61ca7","system_id":"levelo_inurba_marseille","lat":43.231921,"lon":5.399741,"is_reserved":false,"is_disabled":false,"rental_uris":{"android":"levelo://app?vid=dc61c065-6ed1-487e-9ecf-5a93a8f61ca7","ios":"levelo://app?vid=dc61c065-6ed1-487e-9ecf-5a93a8f61ca7"},"vehicle_type_id":"4","last_reported":1747843995,"current_range_meters":16400,"station_id":"ce4bhn12rcd13ifvqgqg","pricing_plan_id":"cebpf4jnsgd1na2vs0mg"},{"bike_id":"152fd052-9ef0-4adb-997f-d6dd968ecb31","system_id":"levelo_inurba_marseille","lat":43.30726,"lon":5.42435,"is_reserved":false,"is_disabled":false,"rental_uris":{"android":"levelo://app?vid=152fd052-9ef0-4adb-997f-d6dd968ecb31","ios":"levelo://app?vid=152fd052-9ef0-4adb-997f-d6dd968ecb31"},"vehicle_type_id":"4","last_reported":1747843995,"current_range_meters":16400,"station_id":"st_cvj6ca6bvosntc0bfgr0","pricing_plan_id":"cebpf4jnsgd1na2vs0mg"},{"bike_id":"633ff516-0f77-4703-8962-61443b3fc8d2","system_id":"levelo_inurba_marseille","lat":43.29964,"lon":5.38501,"is_reserved":false,"is_disabled":false,"rental_uris":{"android":"levelo://app?vid=633ff516-0f77-4703-8962-61443b3fc8d2","ios":"levelo://app?vid=633ff516-0f77-4703-8962-61443b3fc8d2"},"vehicle_type_id":"4","last_reported":1747843995,"current_range_meters":16800,"station_id":"ce4bgj92rcd13ifvqbd0","pricing_plan_id":"cebpf4jnsgd1na2vs0mg"},{"bike_id":"863a6c86-fe88-4f30-9414-12983b008cdb","system_id":"levelo_inurba_marseille","lat":43.29261,"lon":5.40912,"is_reserved":false,"is_disabled":false,"rental_uris":{"android":"levelo://app?vid=863a6c86-fe88-4f30-9414-12983b008cdb","ios":"levelo://app?vid=863a6c86-fe88-4f30-9414-12983b008cdb"},"vehicle_type_id":"4","last_reported":1747843995,"current_range_meters":16800,"station_id":"ce4bh192rcd13ifvqdc0","pricing_plan_id":"cebpf4jnsgd1na2vs0mg"},{"bike_id":"71e38eff-3b8e-4025-9dd5-a2f6752c2bae","system_id":"levelo_inurba_marseille","lat":43.27375,"lon":5.36267,"is_reserved":false,"is_disabled":false,"rental_uris":{"android":"levelo://app?vid=71e38eff-3b8e-4025-9dd5-a2f6752c2bae","ios":"levelo://app?vid=71e38eff-3b8e-4025-9dd5-a2f6752c2bae"},"vehicle_type_id":"4","last_reported":1747843995,"current_range_meters":16800,"station_id":"ce4bhbh2rcd13ifvqeo0","pricing_plan_id":"cebpf4jnsgd1na2vs0mg"},{"bike_id":"2468088c-fa51-4097-ac9e-237b2c49d4a6","system_id":"levelo_inurba_marseille","lat":43.29281,"lon":5.36839,"is_reserved":false,"is_disabled":false,"rental_uris":{"android":"levelo://app?vid=2468088c-fa51-4097-ac9e-237b2c49d4a6","ios":"levelo://app?vid=2468088c-fa51-4097-ac9e-237b2c49d4a6"},"vehicle_type_id":"4","last_reported":1747843995,"current_range_meters":16800,"station_id":"ce4bhbp2rcd13ifvqesg","pricing_plan_id":"cebpf4jnsgd1na2vs0mg"},{"bike_id":"8848aa3f-1b3a-43c5-9497-dca896b2c3b5","system_id":"levelo_inurba_marseille","lat":43.28857,"lon":5.35859,"is_reserved":false,"is_disabled":false,"rental_uris":{"android":"levelo://app?vid=8848aa3f-1b3a-43c5-9497-dca896b2c3b5","ios":"levelo://app?vid=8848aa3f-1b3a-43c5-9497-dca896b2c3b5"},"vehicle_type_id":"4","last_reported":1747843995,"current_range_meters":17200,"station_id":"ce4bhb12rcd13ifvqem0","pricing_plan_id":"cebpf4jnsgd1na2vs0mg"},{"bike_id":"b31a529d-2285-43f7-91a3-871694cce4eb","system_id":"levelo_inurba_marseille","lat":43.27376,"lon":5.36248,"is_reserved":false,"is_disabled":false,"rental_uris":{"android":"levelo://app?vid=b31a529d-2285-43f7-91a3-871694cce4eb","ios":"levelo://app?vid=b31a529d-2285-43f7-91a3-871694cce4eb"},"vehicle_type_id":"4","last_reported":1747843995,"current_range_meters":17200,"station_id":"ce4bhbh2rcd13ifvqeo0","pricing_plan_id":"cebpf4jnsgd1na2vs0mg"},{"bike_id":"12063617-19e0-40dc-afe1-a9ea8b3e3516","system_id":"levelo_inurba_marseille","lat":43.28944,"lon":5.36398,"is_reserved":false,"is_disabled":false,"rental_uris":{"android":"levelo://app?vid=12063617-19e0-40dc-afe1-a9ea8b3e3516","ios":"levelo://app?vid=12063617-19e0-40dc-afe1-a9ea8b3e3516"},"vehicle_type_id":"4","last_reported":1747843995,"current_range_meters":17200,"station_id":"ce4bhc92rcd13ifvqetg","pricing_plan_id":"cebpf4jnsgd1na2vs0mg"},{"bike_id":"21358f7d-f42d-4bfe-b5ae-0ae61aab8caa","system_id":"levelo_inurba_marseille","lat":43.2465,"lon":5.38879,"is_reserved":false,"is_disabled":false,"rental_uris":{"android":"levelo://app?vid=21358f7d-f42d-4bfe-b5ae-0ae61aab8caa","ios":"levelo://app?vid=21358f7d-f42d-4bfe-b5ae-0ae61aab8caa"},"vehicle_type_id":"4","last_reported":1747843995,"current_range_meters":17200,"station_id":"ce4bhg12rcd13ifvqf60","pricing_plan_id":"cebpf4jnsgd1na2vs0mg"},{"bike_id":"3c0300aa-3669-4f50-ae12-06c5f9beef96","system_id":"levelo_inurba_marseille","lat":43.25869,"lon":5.39912,"is_reserved":false,"is_disabled":false,"rental_uris":{"android":"levelo://app?vid=3c0300aa-3669-4f50-ae12-06c5f9beef96","ios":"levelo://app?vid=3c0300aa-3669-4f50-ae12-06c5f9beef96"},"vehicle_type_id":"4","last_reported":1747843995,"current_range_meters":17200,"station_id":"ce4bhl92rcd13ifvqghg","pricing_plan_id":"cebpf4jnsgd1na2vs0mg"},{"bike_id":"bd78bb48-2620-48d3-a77d-231bfa048780","system_id":"levelo_inurba_marseille","lat":43.28,"lon":5.40017,"is_reserved":false,"is_disabled":false,"rental_uris":{"android":"levelo://app?vid=bd78bb48-2620-48d3-a77d-231bfa048780","ios":"levelo://app?vid=bd78bb48-2620-48d3-a77d-231bfa048780"},"vehicle_type_id":"4","last_reported":1747843995,"current_range_meters":17200,"station_id":"ce4bho92rcd13ifvqh4g","pricing_plan_id":"cebpf4jnsgd1na2vs0mg"},{"bike_id":"417f0b13-e60e-4b88-8377-2bd3e4faec3b","system_id":"levelo_inurba_marseille","lat":43.32336,"lon":5.40622,"is_reserved":false,"is_disabled":false,"rental_uris":{"android":"levelo://app?vid=417f0b13-e60e-4b88-8377-2bd3e4faec3b","ios":"levelo://app?vid=417f0b13-e60e-4b88-8377-2bd3e4faec3b"},"vehicle_type_id":"4","last_reported":1747843995,"current_range_meters":17200,"station_id":"ce4bhq92rcd13ifvqhjg","pricing_plan_id":"cebpf4jnsgd1na2vs0mg"},{"bike_id":"69d87124-1c08-45f7-a181-a67f6e9b0647","system_id":"levelo_inurba_marseille","lat":43.33044,"lon":5.39064,"is_reserved":false,"is_disabled":false,"rental_uris":{"android":"levelo://app?vid=69d87124-1c08-45f7-a181-a67f6e9b0647","ios":"levelo://app?vid=69d87124-1c08-45f7-a181-a67f6e9b0647"},"vehicle_type_id":"4","last_reported":1747843995,"current_range_meters":17200,"station_id":"ce4bhr92rcd13ifvqhrg","pricing_plan_id":"cebpf4jnsgd1na2vs0mg"},{"bike_id":"f1acae4a-8216-4ce0-ad52-6eaaa09ff1d4","system_id":"levelo_inurba_marseille","lat":43.287246,"lon":5.36096,"is_reserved":false,"is_disabled":false,"rental_uris":{"android":"levelo://app?vid=f1acae4a-8216-4ce0-ad52-6eaaa09ff1d4","ios":"levelo://app?vid=f1acae4a-8216-4ce0-ad52-6eaaa09ff1d4"},"vehicle_type_id":"4","last_reported":1747843995,"current_range_meters":17200,"station_id":"cki0cbj6b192h4jlfktg","pricing_plan_id":"cebpf4jnsgd1na2vs0mg"},{"bike_id":"a0b3c11f-cf1d-4231-9d86-95e68d56fdff","system_id":"levelo_inurba_marseille","lat":43.2309,"lon":5.35474,"is_reserved":false,"is_disabled":false,"rental_uris":{"android":"levelo://app?vid=a0b3c11f-cf1d-4231-9d86-95e68d56fdff","ios":"levelo://app?vid=a0b3c11f-cf1d-4231-9d86-95e68d56fdff"},"vehicle_type_id":"4","last_reported":1747843995,"current_range_meters":17200,"station_id":"cpo3342slgdg3j2ifvpg","pricing_plan_id":"cebpf4jnsgd1na2vs0mg"},{"bike_id":"21bf580a-10cb-4044-b2f4-8211c5c8cb19","system_id":"levelo_inurba_marseille","lat":43.2925,"lon":5.38439,"is_reserved":false,"is_disabled":false,"rental_uris":{"android":"levelo://app?vid=21bf580a-10cb-4044-b2f4-8211c5c8cb19","ios":"levelo://app?vid=21bf580a-10cb-4044-b2f4-8211c5c8cb19"},"vehicle_type_id":"4","last_reported":1747843995,"current_range_meters":17600,"station_id":"ce4bh692rcd13ifvqea0","pricing_plan_id":"cebpf4jnsgd1na2vs0mg"},{"bike_id":"8257d879-2403-4d74-a193-b1559601196e","system_id":"levelo_inurba_marseille","lat":43.29009,"lon":5.35606,"is_reserved":false,"is_disabled":false,"rental_uris":{"android":"levelo://app?vid=8257d879-2403-4d74-a193-b1559601196e","ios":"levelo://app?vid=8257d879-2403-4d74-a193-b1559601196e"},"vehicle_type_id":"4","last_reported":1747843995,"current_range_meters":17600,"station_id":"ce4bhb92rcd13ifvqen0","pricing_plan_id":"cebpf4jnsgd1na2vs0mg"},{"bike_id":"c67f2170-ae86-49f3-be3e-3f46a7243e51","system_id":"levelo_inurba_marseille","lat":43.25139,"lon":5.4032,"is_reserved":false,"is_disabled":false,"rental_uris":{"android":"levelo://app?vid=c67f2170-ae86-49f3-be3e-3f46a7243e51","ios":"levelo://app?vid=c67f2170-ae86-49f3-be3e-3f46a7243e51"},"vehicle_type_id":"4","last_reported":1747843995,"current_range_meters":17600,"station_id":"ce4bhlh2rcd13ifvqgig","pricing_plan_id":"cebpf4jnsgd1na2vs0mg"},{"bike_id":"f8c3cf58-c5af-4a8e-b945-3ed6788e3e7f","system_id":"levelo_inurba_marseille","lat":43.318396,"lon":5.372624,"is_reserved":false,"is_disabled":false,"rental_uris":{"android":"levelo://app?vid=f8c3cf58-c5af-4a8e-b945-3ed6788e3e7f","ios":"levelo://app?vid=f8c3cf58-c5af-4a8e-b945-3ed6788e3e7f"},"vehicle_type_id":"4","last_reported":1747843995,"current_range_meters":18000,"station_id":"","pricing_plan_id":"cebpf4jnsgd1na2vs0mg"},{"bike_id":"3273e2fb-dd84-4ce9-90a3-a8f55a641a6b","system_id":"levelo_inurba_marseille","lat":43.29711,"lon":5.36614,"is_reserved":false,"is_disabled":false,"rental_uris":{"android":"levelo://app?vid=3273e2fb-dd84-4ce9-90a3-a8f55a641a6b","ios":"levelo://app?vid=3273e2fb-dd84-4ce9-90a3-a8f55a641a6b"},"vehicle_type_id":"4","last_reported":1747843995,"current_range_meters":18000,"station_id":"ce4bgn12rcd13ifvqbt0","pricing_plan_id":"cebpf4jnsgd1na2vs0mg"},{"bike_id":"e4f3bc7e-ddff-4ddd-bff0-a989aad81fb7","system_id":"levelo_inurba_marseille","lat":43.29445,"lon":5.39745,"is_reserved":false,"is_disabled":false,"rental_uris":{"android":"levelo://app?vid=e4f3bc7e-ddff-4ddd-bff0-a989aad81fb7","ios":"levelo://app?vid=e4f3bc7e-ddff-4ddd-bff0-a989aad81fb7"},"vehicle_type_id":"4","last_reported":1747843995,"current_range_meters":18000,"station_id":"ce4bh3h2rcd13ifvqdo0","pricing_plan_id":"cebpf4jnsgd1na2vs0mg"},{"bike_id":"6d335b0b-7ea7-4523-8272-955703555207","system_id":"levelo_inurba_marseille","lat":43.29035,"lon":5.38655,"is_reserved":false,"is_disabled":false,"rental_uris":{"android":"levelo://app?vid=6d335b0b-7ea7-4523-8272-955703555207","ios":"levelo://app?vid=6d335b0b-7ea7-4523-8272-955703555207"},"vehicle_type_id":"4","last_reported":1747843995,"current_range_meters":18000,"station_id":"ce4bh4p2rcd13ifvqe0g","pricing_plan_id":"cebpf4jnsgd1na2vs0mg"},{"bike_id":"1cdcfffe-ba15-4206-b8ca-e9f61a5e04a6","system_id":"levelo_inurba_marseille","lat":43.25576,"lon":5.38237,"is_reserved":false,"is_disabled":false,"rental_uris":{"android":"levelo://app?vid=1cdcfffe-ba15-4206-b8ca-e9f61a5e04a6","ios":"levelo://app?vid=1cdcfffe-ba15-4206-b8ca-e9f61a5e04a6"},"vehicle_type_id":"4","last_reported":1747843995,"current_range_meters":18000,"station_id":"ce4bhih2rcd13ifvqfs0","pricing_plan_id":"cebpf4jnsgd1na2vs0mg"},{"bike_id":"260792b8-c152-4243-b542-64980a65b031","system_id":"levelo_inurba_marseille","lat":43.27833,"lon":5.39212,"is_reserved":false,"is_disabled":false,"rental_uris":{"android":"levelo://app?vid=260792b8-c152-4243-b542-64980a65b031","ios":"levelo://app?vid=260792b8-c152-4243-b542-64980a65b031"},"vehicle_type_id":"4","last_reported":1747843995,"current_range_meters":18000,"station_id":"ce4bhjp2rcd13ifvqga0","pricing_plan_id":"cebpf4jnsgd1na2vs0mg"},