{"last_updated":1752768830,"ttl":60,"version":"2.2","data":{"bikes":[{"bike_id":"53b742a7-31ae-4272-9bba-7740339e2a2f","system_id":"levelo_inurba_marseille","lat":43.33747,"lon":5.37463,"is_reserved":false,"is_disabled":false,"rental_uris":{"android":"levelo://app?vid=53b742a7-31ae-4272-9bba-7740339e2a2f","ios":"levelo://app?vid=53b742a7-31ae-4272-9bba-7740339e2a2f"},"vehicle_type_id":"1","last_reported":1752768831,"current_range_meters":24000,"station_id":"","pricing_plan_id":"cebpf4jnsgd1na2vs0mg"},{"bike_id":"b2a0853a-13a7-47ca-8f92-f7385034fd71","system_id":"levelo_inurba_marseille","lat":43.291587,"lon":5.372266,"is_reserved":false,"is_disabled":false,"rental_uris":{"android":"levelo://app?vid=b2a0853a-13a7-47ca-8f92-f7385034fd71","ios":"levelo://app?vid=b2a0853a-13a7-47ca-8f92-f7385034fd71"},"vehicle_type_id":"4","last_reported":1752768831,"current_range_meters":2800,"station_id":"ce4bha92rcd13ifvqeh0","pricing_plan_id":"cebpf4jnsgd1na2vs0mg"},{"bike_id":"bb9f49ea-1e89-49e5-b33e-d9eb304dbf6e","system_id":"levelo_inurba_marseille","lat":43.3038,"lon":5.42474,"is_reserved":false,"is_disabled":false,"rental_uris":{"android":"levelo://app?vid=bb9f49ea-1e89-49e5-b33e-d9eb304dbf6e","ios":"levelo://app?vid=bb9f49ea-1e89-49e5-b33e-d9eb304dbf6e"},"vehicle_type_id":"4","last_reported":1752768831,"current_range_meters":2800,"station_id":"ce4bhoh2rcd13ifvqh6g","pricing_plan_id":"cebpf4jnsgd1na2vs0mg"},{"bike_id":"845cee6d-c6c2-418e-b379-711bb8b80b38","system_id":"levelo_inurba_marseille","lat":43.304291,"lon":5.388873,"is_reserved":false,"is_disabled":false,"rental_uris":{"android":"levelo://app?vid=845cee6d-c6c2-418e-b379-711bb8b80b38","ios":"levelo://app?vid=845cee6d-c6c2-418e-b379-711bb8b80b38"},"vehicle_type_id":"4","last_reported":1752768831,"current_range_meters":6000,"station_id":"","pricing_plan_id":"cebpf4jnsgd1na2vs0mg"},{"bike_id":"d98ef30e-38a0-41ef-a00a-304afa979a1e","system_id":"levelo_inurba_marseille","lat":43.29909,"lon":5.43681,"is_reserved":false,"is_disabled":false,"rental_uris":{"android":"levelo://app?vid=d98ef30e-38a0-41ef-a00a-304afa979a1e","ios":"levelo://app?vid=d98ef30e-38a0-41ef-a00a-304afa979a1e"},"vehicle_type_id":"4","last_reported":1752768831,"current_range_meters":3200,"station_id":"ce4bhpp2rcd13ifvqhfg","pricing_plan_id":"cebpf4jnsgd1na2vs0mg"},{"bike_id":"05a0d25b-fc32-4df5-a79e-6330aaba7d18","system_id":"levelo_inurba_marseille","lat":43.23154,"lon":5.43715,"is_reserved":false,"is_disabled":false,"rental_uris":{"android":"levelo://app?vid=05a0d25b-fc32-4df5-a79e-6330aaba7d18","ios":"levelo://app?vid=05a0d25b-fc32-4df5-a79e-6330aaba7d18"},"vehicle_type_id":"4","last_reported":1752768831,"current_range_meters":3200,"station_id":"ce4bhmp2rcd13ifvqgog","pricing_plan_id":"cebpf4jnsgd1na2vs0mg"},{"bike_id":"2faa5070-38a4-4a75-9fe8-3e5a2ecabfd1","system_id":"levelo_inurba_marseille","lat":43.27381,"lon":5.36245,"is_reserved":false,"is_disabled":false,"rental_uris":{"android":"levelo://app?vid=2faa5070-38a4-4a75-9fe8-3e5a2ecabfd1","ios":"levelo://app?vid=2faa5070-38a4-4a75-9fe8-3e5a2ecabfd1"},"vehicle_type_id":"4","last_reported":1752768831,"current_range_meters":3600,"station_id":"ce4bhbh2rcd13ifvqeo0","pricing_plan_id":"cebpf4jnsgd1na2vs0mg"},{"bike_id":"ebe38834-1058-4352-b028-891189a98d17","system_id":"levelo_inurba_marseille","lat":43.307328,"lon":5.424466,"is_reserved":false,"is_disabled":false,"rental_uris":{"android":"levelo://app?vid=ebe38834-1058-4352-b028-891189a98d17","ios":"levelo://app?vid=ebe38834-1058-4352-b028-891189a98d17"},"vehicle_type_id":"4","last_reported":1752768831,"current_range_meters":3600,"station_id":"st_cvj6ca6bvosntc0bfgr0","pricing_plan_id":"cebpf4jnsgd1na2vs0mg"},{"bike_id":"080b0f22-14dd-4044-a18f-ee7f74366cea","system_id":"levelo_inurba_marseille","lat":43.32001,"lon":5.38156,"is_reserved":false,"is_disabled":true,"rental_uris":{"android":"levelo://app?vid=080b0f22-14dd-4044-a18f-ee7f74366cea","ios":"levelo://app?vid=080b0f22-14dd-4044-a18f-ee7f74366cea"},"vehicle_type_id":"4","last_reported":1752768831,"current_range_meters":3600,"station_id":"ce4bhr12rcd13ifvqhpg","pricing_plan_id":"cebpf4jnsgd1na2vs0mg"},{"bike_id":"5905927a-69af-4fe5-8e17-33a28066f6d0","system_id":"levelo_inurba_marseille","lat":43.26213,"lon":5.37442,"is_reserved":false,"is_disabled":false,"rental_uris":{"android":"levelo://app?vid=5905927a-69af-4fe5-8e17-33a28066f6d0","ios":"levelo://app?vid=5905927a-69af-4fe5-8e17-33a28066f6d0"},"vehicle_type_id":"4","last_reported":1752768831,"current_range_meters":4000,"station_id":"ce4bhgp2rcd13ifvqfc0","pricing_plan_id":"cebpf4jnsgd1na2vs0mg"},{"bike_id":"748724e3-90e4-45e0-90fd-4fc4afdcd540","system_id":"levelo_inurba_marseille","lat":43.28743,"lon":5.36094,"is_reserved":false,"is_disabled":false,"rental_uris":{"android":"levelo://app?vid=748724e3-90e4-45e0-90fd-4fc4afdcd540","ios":"levelo://app?vid=748724e3-90e4-45e0-90fd-4fc4afdcd540"},"vehicle_type_id":"4","last_reported":1752768831,"current_range_meters":4000,"station_id":"cki0cbj6b192h4jlfktg","pricing_plan_id":"cebpf4jnsgd1na2vs0mg"},{"bike_id":"e2778712-ae0b-4a27-b097-951a2dd64ee4","system_id":"levelo_inurba_marseille","lat":43.30894,"lon":5.37183,"is_reserved":false,"is_disabled":false,"rental_uris":{"android":"levelo://app?vid=e2778712-ae0b-4a27-b097-951a2dd64ee4","ios":"levelo://app?vid=e2778712-ae0b-4a27-b097-951a2dd64ee4"},"vehicle_type_id":"4","last_reported":1752768831,"current_range_meters":4400,"station_id":"ce4bguh2rcd13ifvqckg","pricing_plan_id":"cebpf4jnsgd1na2vs0mg"},{"bike_id":"596ee07d-3733-4244-81e2-4973673809ed","system_id":"levelo_inurba_marseille","lat":43.30379,"lon":5.42484,"is_reserved":false,"is_disabled":false,"rental_uris":{"android":"levelo://app?vid=596ee07d-3733-4244-81e2-4973673809ed","ios":"levelo://app?vid=596ee07d-3733-4244-81e2-4973673809ed"},"vehicle_type_id":"4","last_reported":1752768831,"current_range_meters":4400,"station_id":"ce4bhoh2rcd13ifvqh6g","pricing_plan_id":"cebpf4jnsgd1na2vs0mg"},{"bike_id":"14b628ac-a36b-4a9d-bd10-1bd415be28ad","system_id":"levelo_inurba_marseille","lat":43.28408,"lon":5.37506,"is_reserved":false,"is_disabled":false,"rental_uris":{"android":"levelo://app?vid=14b628ac-a36b-4a9d-bd10-1bd415be28ad","ios":"levelo://app?vid=14b628ac-a36b-4a9d-bd10-1bd415be28ad"},"vehicle_type_id":"4","last_reported":1752768831,"current_range_meters":4400,"station_id":"ce4bh412rcd13ifvqds0","pricing_plan_id":"cebpf4jnsgd1na2vs0mg"},{"bike_id":"7021afc3-84c3-47aa-afd9-abc71fb11387","system_id":"levelo_inurba_marseille","lat":43.29013,"lon":5.38132,"is_reserved":false,"is_disabled":false,"rental_uris":{"android":"levelo://app?vid=7021afc3-84c3-47aa-afd9-abc71fb11387","ios":"levelo://app?vid=7021afc3-84c3-47aa-afd9-abc71fb11387"},"vehicle_type_id":"4","last_reported":1752768831,"current_range_meters":0,"station_id":"ce4bh4p2rcd13ifvqe1g","pricing_plan_id":"cebpf4jnsgd1na2vs0mg"},{"bike_id":"2bcc9ed4-9757-4124-a3ea-dfef6c42ab99","system_id":"levelo_inurba_marseille","lat":43.28411,"lon":5.34983,"is_reserved":false,"is_disabled":false,"rental_uris":{"android":"levelo://app?vid=2bcc9ed4-9757-4124-a3ea-dfef6c42ab99","ios":"levelo://app?vid=2bcc9ed4-9757-4124-a3ea-dfef6c42ab99"},"vehicle_type_id":"4","last_reported":1752768831,"current_range_meters":6000,"station_id":"ce4bhbh2rcd13ifvqepg","pricing_plan_id":"cebpf4jnsgd1na2vs0mg"},{"bike_id":"caef6dec-ff66-4e7f-8405-8ee86c290b5b","system_id":"levelo_inurba_marseille","lat":43.24171,"lon":5.36388,"is_reserved":false,"is_disabled":false,"rental_uris":{"android":"levelo://app?vid=caef6dec-ff66-4e7f-8405-8ee86c290b5b","ios":"levelo://app?vid=caef6dec-ff66-4e7f-8405-8ee86c290b5b"},"vehicle_type_id":"4","last_reported":1752768831,"current_range_meters":6000,"station_id":"cpo36qri1sfpv3e86is0","pricing_plan_id":"cebpf4jnsgd1na2vs0mg"},{"bike_id":"f668d1a2-154f-4b3a-9672-303a2c6d23bf","system_id":"levelo_inurba_marseille","lat":43.31068,"lon":5.38371,"is_reserved":false,"is_disabled":true,"rental_uris":{"android":"levelo://app?vid=f668d1a2-154f-4b3a-9672-303a2c6d23bf","ios":"levelo://app?vid=f668d1a2-154f-4b3a-9672-303a2c6d23bf"},"vehicle_type_id":"4","last_reported":1752768831,"current_range_meters":6400,"station_id":"ce4bgv92rcd13ifvqcr0","pricing_plan_id":"cebpf4jnsgd1na2vs0mg"},{"bike_id":"bbd2da49-a366-4612-8041-5a8e11d1c6a7","system_id":"levelo_inurba_marseille","lat":43.28002,"lon":5.41663,"is_reserved":false,"is_disabled":false,"rental_uris":{"android":"levelo://app?vid=bbd2da49-a366-4612-8041-5a8e11d1c6a7","ios":"levelo://app?vid=bbd2da49-a366-4612-8041-5a8e11d1c6a7"},"vehicle_type_id":"4","last_reported":1752768831,"current_range_meters":6400,"station_id":"ce4bho12rcd13ifvqh1g","pricing_plan_id":"cebpf4jnsgd1na2vs0mg"},{"bike_id":"da1cea81-c626-453a-8e81-8ce03a6a796a","system_id":"levelo_inurba_marseille","lat":43.30799,"lon":5.38152,"is_reserved":false,"is_disabled":false,"rental_uris":{"android":"levelo://app?vid=da1cea81-c626-453a-8e81-8ce03a6a796a","ios":"levelo://app?vid=da1cea81-c626-453a-8e81-8ce03a6a796a"},"vehicle_type_id":"4","last_reported":1752768831,"current_range_meters":6400,"station_id":"ce4bgt12rcd13ifvqce0","pricing_plan_id":"cebpf4jnsgd1na2vs0mg"},{"bike_id":"0f81ebe4-e193-40e3-8b27-f1387982741d","system_id":"levelo_inurba_marseille","lat":43.28428,"lon":5.34977,"is_reserved":false,"is_disabled":false,"rental_uris":{"android":"levelo://app?vid=0f81ebe4-e193-40e3-8b27-f1387982741d","ios":"levelo://app?vid=0f81ebe4-e193-40e3-8b27-f1387982741d"},"vehicle_type_id":"4","last_reported":1752768831,"current_range_meters":6800,"station_id":"ce4bhbh2rcd13ifvqepg","pricing_plan_id":"cebpf4jnsgd1na2vs0mg"},{"bike_id":"c4e3adcf-b133-4a48-ad8a-5f7284a8ca7c","system_id":"levelo_inurba_marseille","lat":43.23151,"lon":5.437244,"is_reserved":false,"is_disabled":false,"rental_uris":{"android":"levelo://app?vid=c4e3adcf-b133-4a48-ad8a-5f7284a8ca7c","ios":"levelo://app?vid=c4e3adcf-b133-4a48-ad8a-5f7284a8ca7c"},"vehicle_type_id":"4","last_reported":1752768831,"current_range_meters":6800,"station_id":"ce4bhmp2rcd13ifvqgog","pricing_plan_id":"cebpf4jnsgd1na2vs0mg"},{"bike_id":"287e87e3-2cd9-4733-b29e-80d4f8747788","system_id":"levelo_inurba_marseille","lat":43.30252,"lon":5.40075,"is_reserved":false,"is_disabled":false,"rental_uris":{"android":"levelo://app?vid=287e87e3-2cd9-4733-b29e-80d4f8747788","ios":"levelo://app?vid=287e87e3-2cd9-4733-b29e-80d4f8747788"},"vehicle_type_id":"4","last_reported":1752768831,"current_range_meters":7200,"station_id":"ce4bgvh2rcd13ifvqcs0","pricing_plan_id":"cebpf4jnsgd1na2vs0mg"},{"bike_id":"e6decac7-8084-4c10-8266-d20895c614d0","system_id":"levelo_inurba_marseille","lat":43.310848,"lon":5.424301,"is_reserved":false,"is_disabled":false,"rental_uris":{"android":"levelo://app?vid=e6decac7-8084-4c10-8266-d20895c614d0","ios":"levelo://app?vid=e6decac7-8084-4c10-8266-d20895c614d0"},"vehicle_type_id":"4","last_reported":1752768831,"current_range_meters":7200,"station_id":"ce4bhp92rcd13ifvqhag","pricing_plan_id":"cebpf4jnsgd1na2vs0mg"},{"bike_id":"25137bbf-ce9c-4a29-8be0-6c3d1a1f1483","system_id":"levelo_inurba_marseille","lat":43.292632,"lon":5.376246,"is_reserved":false,"is_disabled":false,"rental_uris":{"android":"levelo://app?vid=25137bbf-ce9c-4a29-8be0-6c3d1a1f1483","ios":"levelo://app?vid=25137bbf-ce9c-4a29-8be0-6c3d1a1f1483"},"vehicle_type_id":"4","last_reported":1752768831,"current_range_meters":6800,"station_id":"ce4bgi12rcd13ifvqb80","pricing_plan_id":"cebpf4jnsgd1na2vs0mg"},{"bike_id":"7fcbafef-cde0-438c-a8ee-eedc5f1d1d5e","system_id":"levelo_inurba_marseille","lat":43.317254,"lon":5.423937,"is_reserved":false,"is_disabled":true,"rental_uris":{"android":"levelo://app?vid=7fcbafef-cde0-438c-a8ee-eedc5f1d1d5e","ios":"levelo://app?vid=7fcbafef-cde0-438c-a8ee-eedc5f1d1d5e"},"vehicle_type_id":"4","last_reported":1752768831,"current_range_meters":7200,"station_id":"ce4bhp92rcd13ifvqhbg","pricing_plan_id":"cebpf4jnsgd1na2vs0mg"},{"bike_id":"8aaa9288-139d-49b0-b980-d4e51a34c0ea","system_id":"levelo_inurba_marseille","lat":43.29277,"lon":5.40118,"is_reserved":false,"is_disabled":false,"rental_uris":{"android":"levelo://app?vid=8aaa9288-139d-49b0-b980-d4e51a34c0ea","ios":"levelo://app?vid=8aaa9288-139d-49b0-b980-d4e51a34c0ea"},"vehicle_type_id":"4","last_reported":1752768831,"current_range_meters":7200,"station_id":"ce4bh312rcd13ifvqdk0","pricing_plan_id":"cebpf4jnsgd1na2vs0mg"},{"bike_id":"8ec13c39-ee04-4e75-8fde-b57ccdfe2d77","system_id":"levelo_inurba_marseille","lat":43.32289,"lon":5.38274,"is_reserved":false,"is_disabled":false,"rental_uris":{"android":"levelo://app?vid=8ec13c39-ee04-4e75-8fde-b57ccdfe2d77","ios":"levelo://app?vid=8ec13c39-ee04-4e75-8fde-b57ccdfe2d77"},"vehicle_type_id":"4","last_reported":1752768831,"current_range_meters":12400,"station_id":"ce4bhr12rcd13ifvqhqg","pricing_plan_id":"cebpf4jnsgd1na2vs0mg"},{"bike_id":"57901d04-a027-44ba-ad7b-0f39ff6f0ede","system_id":"levelo_inurba_marseille","lat":43.23962,"lon":5.36633,"is_reserved":false,"is_disabled":false,"rental_uris":{"android":"levelo://app?vid=57901d04-a027-44ba-ad7b-0f39ff6f0ede","ios":"levelo://app?vid=57901d04-a027-44ba-ad7b-0f39ff6f0ede"},"vehicle_type_id":"4","last_reported":1752768831,"current_range_meters":10000,"station_id":"ce4bhi12rcd13ifvqfp0","pricing_plan_id":"cebpf4jnsgd1na2vs0mg"},{"bike_id":"675a4573-a1f2-4f9d-b1bd-48fb0f00616c","system_id":"levelo_inurba_marseille","lat":43.2861,"lon":5.35099,"is_reserved":false,"is_disabled":false,"rental_uris":{"android":"levelo://app?vid=675a4573-a1f2-4f9d-b1bd-48fb0f00616c","ios":"levelo://app?vid=675a4573-a1f2-4f9d-b1bd-48fb0f00616c"},"vehicle_type_id":"4","last_reported":1752768831,"current_range_meters":8000,"station_id":"ce4bhch2rcd13ifvqeug","pricing_plan_id":"cebpf4jnsgd1na2vs0mg"},{"bike_id":"f04c6c2f-9abe-45a7-bb3c-4ec79e79e5a9","system_id":"levelo_inurba_marseille","lat":43.29884,"lon":5.38904,"is_reserved":false,"is_disabled":false,"rental_uris":{"android":"levelo://app?vid=f04c6c2f-9abe-45a7-bb3c-4ec79e79e5a9","ios":"levelo://app?vid=f04c6c2f-9abe-45a7-bb3c-4ec79e79e5a9"},"vehicle_type_id":"4","last_reported":1752768831,"current_range_meters":9600,"station_id":"ce4bh392rcd13ifvqdl0","pricing_plan_id":"cebpf4jnsgd1na2vs0mg"},{"bike_id":"8ac3bfb5-7a8c-436d-a49b-87a3d5a56648","system_id":"levelo_inurba_marseille","lat":43.23963,"lon":5.36627,"is_reserved":false,"is_disabled":false,"rental_uris":{"android":"levelo://app?vid=8ac3bfb5-7a8c-436d-a49b-87a3d5a56648","ios":"levelo://app?vid=8ac3bfb5-7a8c-436d-a49b-87a3d5a56648"},"vehicle_type_id":"4","last_reported":1752768831,"current_range_meters":8400,"station_id":"ce4bhi12rcd13ifvqfp0","pricing_plan_id":"cebpf4jnsgd1na2vs0mg"},{"bike_id":"8c9fb27a-6eeb-4fc4-916f-ab4c97fb2e82","system_id":"levelo_inurba_marseille","lat":43.29702,"lon":5.36618,"is_reserved":false,"is_disabled":false,"rental_uris":{"android":"levelo://app?vid=8c9fb27a-6eeb-4fc4-916f-ab4c97fb2e82","ios":"levelo://app?vid=8c9fb27a-6eeb-4fc4-916f-ab4c97fb2e82"},"vehicle_type_id":"4","last_reported":1752768831,"current_range_meters":8400,"station_id":"ce4bgn12rcd13ifvqbt0","pricing_plan_id":"cebpf4jnsgd1na2vs0mg"},{"bike_id":"05f15c30-337e-4215-b53b-bbcca768746a","system_id":"levelo_inurba_marseille","lat":43.2718,"lon":5.40939,"is_reserved":false,"is_disabled":false,"rental_uris":{"android":"levelo://app?vid=05f15c30-337e-4215-b53b-bbcca768746a","ios":"levelo://app?vid=05f15c30-337e-4215-b53b-bbcca768746a"},"vehicle_type_id":"4","last_reported":1752768831,"current_range_meters":8400,"station_id":"ce4bhl12rcd13ifvqgf0","pricing_plan_id":"cebpf4jnsgd1na2vs0mg"},{"bike_id":"cc7cf92b-b8db-4c30-8fa7-0479f52f1930","system_id":"levelo_inurba_marseille","lat":43.24172,"lon":5.36395,"is_reserved":false,"is_disabled":false,"rental_uris":{"android":"levelo://app?vid=cc7cf92b-b8db-4c30-8fa7-0479f52f1930","ios":"levelo://app?vid=cc7cf92b-b8db-4c30-8fa7-0479f52f1930"},"vehicle_type_id":"4","last_reported":1752768831,"current_range_meters":8800,"station_id":"cpo36qri1sfpv3e86is0","pricing_plan_id":"cebpf4jnsgd1na2vs0mg"},{"bike_id":"72218bdb-923e-46b8-9963-69a301a9e615","system_id":"levelo_inurba_marseille","lat":43.27622,"lon":5.36106,"is_reserved":false,"is_disabled":false,"rental_uris":{"android":"levelo://app?vid=72218bdb-923e-46b8-9963-69a301a9e615","ios":"levelo://app?vid=72218bdb-923e-46b8-9963-69a301a9e615"},"vehicle_type_id":"4","last_reported":1752768831,"current_range_meters":8800,"station_id":"ce4bgj92rcd13ifvqbe0","pricing_plan_id":"cebpf4jnsgd1na2vs0mg"},{"bike_id":"a7bdada2-e6e6-4064-88a8-cabf57cb677f","system_id":"levelo_inurba_marseille","lat":43.29279,"lon":5.36843,"is_reserved":false,"is_disabled":false,"rental_uris":{"android":"levelo://app?vid=a7bdada2-e6e6-4064-88a8-cabf57cb677f","ios":"levelo://app?vid=a7bdada2-e6e6-4064-88a8-cabf57cb677f"},"vehicle_type_id":"4","last_reported":1752768831,"current_range_meters":8800,"station_id":"ce4bhbp2rcd13ifvqesg","pricing_plan_id":"cebpf4jnsgd1na2vs0mg"},{"bike_id":"a4fd652b-34f8-4c68-a6e6-032a5cc5e418","system_id":"levelo_inurba_marseille","lat":43.31233,"lon":5.36846,"is_reserved":false,"is_disabled":true,"rental_uris":{"android":"levelo://app?vid=a4fd652b-34f8-4c68-a6e6-032a5cc5e418","ios":"levelo://app?vid=a4fd652b-34f8-4c68-a6e6-032a5cc5e418"},"vehicle_type_id":"4","last_reported":1752768831,"current_range_meters":9200,"station_id":"ce4bgl92rcd13ifvqbq0","pricing_plan_id":"cebpf4jnsgd1na2vs0mg"},{"bike_id":"a381ae14-5927-4488-9d6b-f7ae2194748a","system_id":"levelo_inurba_marseille","lat":43.24077,"lon":5.37759,"is_reserved":false,"is_disabled":false,"rental_uris":{"android":"levelo://app?vid=a381ae14-5927-4488-9d6b-f7ae2194748a","ios":"levelo://app?vid=a381ae14-5927-4488-9d6b-f7ae2194748a"},"vehicle_type_id":"4","last_reported":1752768831,"current_range_meters":9200,"station_id":"ce4bhnp2rcd13ifvqgvg","pricing_plan_id":"cebpf4jnsgd1na2vs0mg"},{"bike_id":"40845be2-2036-4618-a240-9988ff5c0c18","system_id":"levelo_inurba_marseille","lat":43.30596,"lon":5.39357,"is_reserved":false,"is_disabled":false,"rental_uris":{"android":"levelo://app?vid=40845be2-2036-4618-a240-9988ff5c0c18","ios":"levelo://app?vid=40845be2-2036-4618-a240-9988ff5c0c18"},"vehicle_type_id":"4","last_reported":1752768831,"current_range_meters":9600,"station_id":"ce4bh0p2rcd13ifvqd80","pricing_plan_id":"cebpf4jnsgd1na2vs0mg"},{"bike_id":"d6130e53-a368-4b0c-9813-b2a8af36b499","system_id":"levelo_inurba_marseille","lat":43.30175,"lon":5.39856,"is_reserved":false,"is_disabled":false,"rental_uris":{"android":"levelo://app?vid=d6130e53-a368-4b0c-9813-b2a8af36b499","ios":"levelo://app?vid=d6130e53-a368-4b0c-9813-b2a8af36b499"},"vehicle_type_id":"4","last_reported":1752768831,"current_range_meters":9600,"station_id":"","pricing_plan_id":"cebpf4jnsgd1na2vs0mg"},{"bike_id":"20455e39-143e-4b1a-8546-1a6cdc7bcf95","system_id":"levelo_inurba_marseille","lat":43.23969,"lon":5.36613,"is_reserved":false,"is_disabled":false,"rental_uris":{"android":"levelo://app?vid=20455e39-143e-4b1a-8546-1a6cdc7bcf95","ios":"levelo://app?vid=20455e39-143e-4b1a-8546-1a6cdc7bcf95"},"vehicle_type_id":"4","last_reported":1752768831,"current_range_meters":9600,"station_id":"ce4bhi12rcd13ifvqfp0","pricing_plan_id":"cebpf4jnsgd1na2vs0mg"},{"bike_id":"f4f48038-a333-4017-842c-0f937329017d","system_id":"levelo_inurba_marseille","lat":43.29225,"lon":5.36302,"is_reserved":false,"is_disabled":false,"rental_uris":{"android":"levelo://app?vid=f4f48038-a333-4017-842c-0f937329017d","ios":"levelo://app?vid=f4f48038-a333-4017-842c-0f937329017d"},"vehicle_type_id":"4","last_reported":1752768831,"current_range_meters":9600,"station_id":"","pricing_plan_id":"cebpf4jnsgd1na2vs0mg"},{"bike_id":"aa486e73-1d27-41ec-b417-f88dfd6c1e5e","system_id":"levelo_inurba_marseille","lat":43.29032,"lon":5.38634,"is_reserved":false,"is_disabled":true,"rental_uris":{"android":"levelo://app?vid=aa486e73-1d27-41ec-b417-f88dfd6c1e5e","ios":"levelo://app?vid=aa486e73-1d27-41ec-b417-f88dfd6c1e5e"},"vehicle_type_id":"4","last_reported":1752768831,"current_range_meters":9600,"station_id":"ce4bh4p2rcd13ifvqe0g","pricing_plan_id":"cebpf4jnsgd1na2vs0mg"},{"bike_id":"cffe6304-3d47-4244-a227-f509b47e85d4","system_id":"levelo_inurba_marseille","lat":43.22936,"lon":5.35373,"is_reserved":false,"is_disabled":false,"rental_uris":{"android":"levelo://app?vid=cffe6304-3d47-4244-a227-f509b47e85d4","ios":"levelo://app?vid=cffe6304-3d47-4244-a227-f509b47e85d4"},"vehicle_type_id":"4","last_reported":1752768831,"current_range_meters":9600,"station_id":"cpo3532slgdg3j2ikp40","pricing_plan_id":"cebpf4jnsgd1na2vs0mg"},{"bike_id":"b0ae1c1a-60a7-48b4-9508-1fdf40d00282","system_id":"levelo_inurba_marseille","lat":43.29595,"lon":5.38093,"is_reserved":false,"is_disabled":false,"rental_uris":{"android":"levelo://app?vid=b0ae1c1a-60a7-48b4-9508-1fdf40d00282","ios":"levelo://app?vid=b0ae1c1a-60a7-48b4-9508-1fdf40d00282"},"vehicle_type_id":"4","last_reported":1752768831,"current_range_meters":9600,"station_id":"ce4bgl12rcd13ifvqbo0","pricing_plan_id":"cebpf4jnsgd1na2vs0mg"},{"bike_id":"63b68163-23ff-4509-a7ff-da745c70a782","system_id":"levelo_inurba_marseille","lat":43.295232,"lon":5.394075,"is_reserved":false,"is_disabled":false,"rental_uris":{"android":"levelo://app?vid=63b68163-23ff-4509-a7ff-da745c70a782","ios":"levelo://app?vid=63b68163-23ff-4509-a7ff-da745c70a782"},"vehicle_type_id":"4","last_reported":1752768831,"current_range_meters":9600,"station_id":"","pricing_plan_id":"cebpf4jnsgd1na2vs0mg"},{"bike_id":"481da06a-4d13-483c-b967-beaf1393181c","system_id":"levelo_inurba_marseille","lat":43.27376,"lon":5.36257,"is_reserved":false,"is_disabled":false,"rental_uris":{"android":"levelo://app?vid=481da06a-4d13-483c-b967-beaf1393181c","ios":"levelo://app?vid=481da06a-4d13-483c-b967-beaf1393181c"},"vehicle_type_id":"4","last_reported":1752768831,"current_range_meters":9600,"station_id":"ce4bhbh2rcd13ifvqeo0","pricing_plan_id":"cebpf4jnsgd1na2vs0mg"},{"bike_id":"02366aa6-108a-4322-b681-c80f33367ff7","system_id":"levelo_inurba_marseille","lat":43.30129,"lon":5.39877,"is_reserved":false,"is_disabled":false,"rental_uris":{"android":"levelo://app?vid=02366aa6-108a-4322-b681-c80f33367ff7","ios":"levelo://app?vid=02366aa6-108a-4322-b681-c80f33367ff7"},"vehicle_type_id":"4","last_reported":1752768831,"current_range_meters":10000,"station_id":"ce4bh0h2rcd13ifvqd40","pricing_plan_id":"cebpf4jnsgd1na2vs0mg"},{"bike_id":"ad3d6df5-4c8a-498f-8e51-ddd7ad80c56a","system_id":"levelo_inurba_marseille","lat":43.23064,"lon":5.35487,"is_reserved":false,"is_disabled":false,"rental_uris":{"android":"levelo://app?vid=ad3d6df5-4c8a-498f-8e51-ddd7ad80c56a","ios":"levelo://app?vid=ad3d6df5-4c8a-498f-8e51-ddd7ad80c56a"},"vehicle_type_id":"4","last_reported":1752768831,"current_range_meters":10000,"station_id":"cpo3342slgdg3j2ifvpg","pricing_plan_id":"cebpf4jnsgd1na2vs0mg"},{"bike_id":"9ff813f5-7ffe-477a-a652-434a34f03c1a","system_id":"levelo_inurba_marseille","lat":43.292664,"lon":5.384262,"is_reserved":false,"is_disabled":true,"rental_uris":{"android":"levelo://app?vid=9ff813f5-7ffe-477a-a652-434a34f03c1a","ios":"levelo://app?vid=9ff813f5-7ffe-477a-a652-434a34f03c1a"},"vehicle_type_id":"4","last_reported":1752768831,"current_range_meters":10000,"station_id":"ce4bh692rcd13ifvqea0","pricing_plan_id":"cebpf4jnsgd1na2vs0mg"},{"bike_id":"57239988-9161-49ce-a0a2-4581baf1b159","system_id":"levelo_inurba_marseille","lat":43.25528,"lon":5.39065,"is_reserved":false,"is_disabled":false,"rental_uris":{"android":"levelo://app?vid=57239988-9161-49ce-a0a2-4581baf1b159","ios":"levelo://app?vid=57239988-9161-49ce-a0a2-4581baf1b159"},"vehicle_type_id":"4","last_reported":1752768831,"current_range_meters":10000,"station_id":"","pricing_plan_id":"cebpf4jnsgd1na2vs0mg"},{"bike_id":"be60c88c-1453-4626-be80-200258f79626","system_id":"levelo_inurba_marseille","lat":43.23196,"lon":5.35553,"is_reserved":false,"is_disabled":false,"rental_uris":{"android":"levelo://app?vid=be60c88c-1453-4626-be80-200258f79626","ios":"levelo://app?vid=be60c88c-1453-4626-be80-200258f79626"},"vehicle_type_id":"4","last_reported":1752768831,"current_range_meters":10000,"station_id":"ce4bhu92rcd13ifvqi70","pricing_plan_id":"cebpf4jnsgd1na2vs0mg"},{"bike_id":"f9616ffe-dcca-4cc3-a2d9-c573312c1ff3","system_id":"levelo_inurba_marseille","lat":43.32037,"lon":5.41563,"is_reserved":false,"is_disabled":false,"rental_uris":{"android":"levelo://app?vid=f9616ffe-dcca-4cc3-a2d9-c573312c1ff3","ios":"levelo://app?vid=f9616ffe-dcca-4cc3-a2d9-c573312c1ff3"},"vehicle_type_id":"4","last_reported":1752768831,"current_range_meters":10800,"station_id":"ce4bhq92rcd13ifvqhkg","pricing_plan_id":"cebpf4jnsgd1na2vs0mg"},{"bike_id":"492a419e-7fc3-43b7-b688-aee4d064f5a3","system_id":"levelo_inurba_marseille","lat":43.2931,"lon":5.37176,"is_reserved":false,"is_disabled":true,"rental_uris":{"android":"levelo://app?vid=492a419e-7fc3-43b7-b688-aee4d064f5a3","ios":"levelo://app?vid=492a419e-7fc3-43b7-b688-aee4d064f5a3"},"vehicle_type_id":"4","last_reported":1752768831,"current_range_meters":10800,"station_id":"ce4bgh92rcd13ifvqb40","pricing_plan_id":"cebpf4jnsgd1na2vs0mg"},{"bike_id":"f90c2ef5-aebf-4dbe-912f-bd3ef7f5ef66","system_id":"levelo_inurba_marseille","lat":43.29668,"lon":5.37298,"is_reserved":false,"is_disabled":false,"rental_uris":{"android":"levelo://app?vid=f90c2ef5-aebf-4dbe-912f-bd3ef7f5ef66","ios":"levelo://app?vid=f90c2ef5-aebf-4dbe-912f-bd3ef7f5ef66"},"vehicle_type_id":"4","last_reported":1752768831,"current_range_meters":10800,"station_id":"ce4bgk12rcd13ifvqbj0","pricing_plan_id":"cebpf4jnsgd1na2vs0mg"},{"bike_id":"90f54ea4-e306-4792-9966-1cc1bc24176c","system_id":"levelo_inurba_marseille","lat":43.264965,"lon":5.395445,"is_reserved":false,"is_disabled":true,"rental_uris":{"android":"levelo://app?vid=90f54ea4-e306-4792-9966-1cc1bc24176c","ios":"levelo://app?vid=90f54ea4-e306-4792-9966-1cc1bc24176c"},"vehicle_type_id":"4","last_reported":1752768831,"current_range_meters":10800,"station_id":"ce4bhi12rcd13ifvqfq0","pricing_plan_id":"cebpf4jnsgd1na2vs0mg"},{"bike_id":"6a69d0cc-faf8-4dc3-8ded-5ef811a5de8d","system_id":"levelo_inurba_marseille","lat":43.307405,"lon":5.424413,"is_reserved":false,"is_disabled":false,"rental_uris":{"android":"levelo://app?vid=6a69d0cc-faf8-4dc3-8ded-5ef811a5de8d","ios":"levelo://app?vid=6a69d0cc-faf8-4dc3-8ded-5ef811a5de8d"},"vehicle_type_id":"4","last_reported":1752768831,"current_range_meters":10800,"station_id":"st_cvj6ca6bvosntc0bfgr0","pricing_plan_id":"cebpf4jnsgd1na2vs0mg"},{"bike_id":"0a81d3d5-1a88-4207-bfeb-dce61510f31f","system_id":"levelo_inurba_marseille","lat":43.295217,"lon":5.394293,"is_reserved":false,"is_disabled":true,"rental_uris":{"android":"levelo://app?vid=0a81d3d5-1a88-4207-bfeb-dce61510f31f","ios":"levelo://app?vid=0a81d3d5-1a88-4207-bfeb-dce61510f31f"},"vehicle_type_id":"4","last_reported":1752768831,"current_range_meters":10800,"station_id":"ce4bh292rcd13ifvqdf0","pricing_plan_id":"cebpf4jnsgd1na2vs0mg"},{"bike_id":"81f88721-00d0-431c-83bf-446e11578408","system_id":"levelo_inurba_marseille","lat":43.225044,"lon":5.347758,"is_reserved":false,"is_disabled":false,"rental_uris":{"android":"levelo://app?vid=81f88721-00d0-431c-83bf-446e11578408","ios":"levelo://app?vid=81f88721-00d0-431c-83bf-446e11578408"},"vehicle_type_id":"4","last_reported":1752768831,"current_range_meters":10800,"station_id":"st_cvj5dfep6f1abm77gieg","pricing_plan_id":"cebpf4jnsgd1na2vs0mg"},{"bike_id":"555bc53e-5286-4fb6-9154-af42b3fd9792","system_id":"levelo_inurba_marseille","lat":43.30078,"lon":5.37276,"is_reserved":false,"is_disabled":false,"rental_uris":{"android":"levelo://app?vid=555bc53e-5286-4fb6-9154-af42b3fd9792","ios":"levelo://app?vid=555bc53e-5286-4fb6-9154-af42b3fd9792"},"vehicle_type_id":"4","last_reported":1752768831,"current_range_meters":11200,"station_id":"","pricing_plan_id":"cebpf4jnsgd1na2vs0mg"},{"bike_id":"4fc804f4-9110-4a15-b1bd-74c1bf1c3bfe","system_id":"levelo_inurba_marseille","lat":43.283043,"lon":5.389293,"is_reserved":false,"is_disabled":false,"rental_uris":{"android":"levelo://app?vid=4fc804f4-9110-4a15-b1bd-74c1bf1c3bfe","ios":"levelo://app?vid=4fc804f4-9110-4a15-b1bd-74c1bf1c3bfe"},"vehicle_type_id":"4","last_reported":1752768831,"current_range_meters":11200,"station_id":"","pricing_plan_id":"cebpf4jnsgd1na2vs0mg"},{"bike_id":"27c8dadf-2e5b-43f5-8612-2598244cff1d","system_id":"levelo_inurba_marseille","lat":43.28416,"lon":5.34986,"is_reserved":false,"is_disabled":false,"rental_uris":{"android":"levelo://app?vid=27c8dadf-2e5b-43f5-8612-2598244cff1d","ios":"levelo://app?vid=27c8dadf-2e5b-43f5-8612-2598244cff1d"},"vehicle_type_id":"4","last_reported":1752768831,"current_range_meters":11200,"station_id":"ce4bhbh2rcd13ifvqepg","pricing_plan_id":"cebpf4jnsgd1na2vs0mg"},{"bike_id":"41ee9dcd-b187-4958-a82b-103d3d60828f","system_id":"levelo_inurba_marseille","lat":43.28619,"lon":5.35099,"is_reserved":false,"is_disabled":false,"rental_uris":{"android":"levelo://app?vid=41ee9dcd-b187-4958-a82b-103d3d60828f","ios":"levelo://app?vid=41ee9dcd-b187-4958-a82b-103d3d60828f"},"vehicle_type_id":"4","last_reported":1752768831,"current_range_meters":11600,"station_id":"ce4bhch2rcd13ifvqeug","pricing_plan_id":"cebpf4jnsgd1na2vs0mg"},{"bike_id":"1e560fbc-9276-4720-9700-10ac33da9b87","system_id":"levelo_inurba_marseille","lat":43.28858,"lon":5.35851,"is_reserved":false,"is_disabled":false,"rental_uris":{"android":"levelo://app?vid=1e560fbc-9276-4720-9700-10ac33da9b87","ios":"levelo://app?vid=1e560fbc-9276-4720-9700-10ac33da9b87"},"vehicle_type_id":"4","last_reported":1752768831,"current_range_meters":11600,"station_id":"ce4bhb12rcd13ifvqem0","pricing_plan_id":"cebpf4jnsgd1na2vs0mg"},{"bike_id":"6b192468-3d16-410c-a8e5-5dae4e9afb40","system_id":"levelo_inurba_marseille","lat":43.27567,"lon":5.38419,"is_reserved":false,"is_disabled":false,"rental_uris":{"android":"levelo://app?vid=6b192468-3d16-410c-a8e5-5dae4e9afb40","ios":"levelo://app?vid=6b192468-3d16-410c-a8e5-5dae4e9afb40"},"vehicle_type_id":"4","last_reported":1752768831,"current_range_meters":11600,"station_id":"ce4bhh92rcd13ifvqfi0","pricing_plan_id":"cebpf4jnsgd1na2vs0mg"},{"bike_id":"73bca0b0-4c74-4529-b2c1-e6eee305216b","system_id":"levelo_inurba_marseille","lat":43.229354,"lon":5.353783,"is_reserved":false,"is_disabled":false,"rental_uris":{"android":"levelo://app?vid=73bca0b0-4c74-4529-b2c1-e6eee305216b","ios":"levelo://app?vid=73bca0b0-4c74-4529-b2c1-e6eee305216b"},"vehicle_type_id":"4","last_reported":1752768831,"current_range_meters":11600,"station_id":"cpo3532slgdg3j2ikp40","pricing_plan_id":"cebpf4jnsgd1na2vs0mg"},{"bike_id":"688b6eb9-fa6f-44cf-bba4-31159c0b72ef","system_id":"levelo_inurba_marseille","lat":43.30872,"lon":5.37198,"is_reserved":false,"is_disabled":false,"rental_uris":{"android":"levelo://app?vid=688b6eb9-fa6f-44cf-bba4-31159c0b72ef","ios":"levelo://app?vid=688b6eb9-fa6f-44cf-bba4-31159c0b72ef"},"vehicle_type_id":"4","last_reported":1752768831,"current_range_meters":11600,"station_id":"ce4bguh2rcd13ifvqckg","pricing_plan_id":"cebpf4jnsgd1na2vs0mg"},{"bike_id":"4853dc4e-379f-452b-bc04-d34699ff270b","system_id":"levelo_inurba_marseille","lat":43.27374,"lon":5.36256,"is_reserved":false,"is_disabled":false,"rental_uris":{"android":"levelo://app?vid=4853dc4e-379f-452b-bc04-d34699ff270b","ios":"levelo://app?vid=4853dc4e-379f-452b-bc04-d34699ff270b"},"vehicle_type_id":"4","last_reported":1752768831,"current_range_meters":11600,"station_id":"ce4bhbh2rcd13ifvqeo0","pricing_plan_id":"cebpf4jnsgd1na2vs0mg"},{"bike_id":"92c21f52-6c8e-403f-ae8d-e67f1a0d7110","system_id":"levelo_inurba_marseille","lat":43.29004,"lon":5.35612,"is_reserved":false,"is_disabled":false,"rental_uris":{"android":"levelo://app?vid=92c21f52-6c8e-403f-ae8d-e67f1a0d7110","ios":"levelo://app?vid=92c21f52-6c8e-403f-ae8d-e67f1a0d7110"},"vehicle_type_id":"4","last_reported":1752768831,"current_range_meters":11600,"station_id":"ce4bhb92rcd13ifvqen0","pricing_plan_id":"cebpf4jnsgd1na2vs0mg"},{"bike_id":"98daf460-c45d-4be9-b03d-fde500644729","system_id":"levelo_inurba_marseille","lat":43.296223,"lon":5.377025,"is_reserved":false,"is_disabled":false,"rental_uris":{"android":"levelo://app?vid=98daf460-c45d-4be9-b03d-fde500644729","ios":"levelo://app?vid=98daf460-c45d-4be9-b03d-fde500644729"},"vehicle_type_id":"4","last_reported":1752768831,"current_range_meters":12000,"station_id":"","pricing_plan_id":"cebpf4jnsgd1na2vs0mg"},{"bike_id":"09ed1490-1450-4311-9d0c-3a85043b4d6f","system_id":"levelo_inurba_marseille","lat":43.27922,"lon":5.39576,"is_reserved":false,"is_disabled":false,"rental_uris":{"android":"levelo://app?vid=09ed1490-1450-4311-9d0c-3a85043b4d6f","ios":"levelo://app?vid=09ed1490-1450-4311-9d0c-3a85043b4d6f"},"vehicle_type_id":"4","last_reported":1752768831,"current_range_meters":12000,"station_id":"ce4bhf92rcd13ifvqf40","pricing_plan_id":"cebpf4jnsgd1na2vs0mg"},{"bike_id":"bd0f6660-5747-4c7c-9cf7-9ac35ffdf07f","system_id":"levelo_inurba_marseille","lat":43.29728,"lon":5.3772,"is_reserved":false,"is_disabled":false,"rental_uris":{"android":"levelo://app?vid=bd0f6660-5747-4c7c-9cf7-9ac35ffdf07f","ios":"levelo://app?vid=bd0f6660-5747-4c7c-9cf7-9ac35ffdf07f"},"vehicle_type_id":"4","last_reported":1752768831,"current_range_meters":12000,"station_id":"ce4bgkh2rcd13ifvqbl0","pricing_plan_id":"cebpf4jnsgd1na2vs0mg"},{"bike_id":"d1e94785-07c9-4567-977b-a1d086ccac8d","system_id":"levelo_inurba_marseille","lat":43.29906,"lon":5.43685,"is_reserved":false,"is_disabled":false,"rental_uris":{"android":"levelo://app?vid=d1e94785-07c9-4567-977b-a1d086ccac8d","ios":"levelo://app?vid=d1e94785-07c9-4567-977b-a1d086ccac8d"},"vehicle_type_id":"4","last_reported":1752768831,"current_range_meters":12400,"station_id":"ce4bhpp2rcd13ifvqhfg","pricing_plan_id":"cebpf4jnsgd1na2vs0mg"},{"bike_id":"1a1de22c-864f-4087-990e-227151d55abc","system_id":"levelo_inurba_marseille","lat":43.2121,"lon":5.35081,"is_reserved":false,"is_disabled":false,"rental_uris":{"android":"levelo://app?vid=1a1de22c-864f-4087-990e-227151d55abc","ios":"levelo://app?vid=1a1de22c-864f-4087-990e-227151d55abc"},"vehicle_type_id":"4","last_reported":1752768831,"current_range_meters":12400,"station_id":"st_cvj6sg6p6f1abm77japg","pricing_plan_id":"cebpf4jnsgd1na2vs0mg"},{"bike_id":"3444bdc6-514a-4ba6-9650-f9073305e33d","system_id":"levelo_inurba_marseille","lat":43.29682,"lon":5.3698,"is_reserved":false,"is_disabled":false,"rental_uris":{"android":"levelo://app?vid=3444bdc6-514a-4ba6-9650-f9073305e33d","ios":"levelo://app?vid=3444bdc6-514a-4ba6-9650-f9073305e33d"},"vehicle_type_id":"4","last_reported":1752768831,"current_range_meters":12400,"station_id":"","pricing_plan_id":"cebpf4jnsgd1na2vs0mg"},{"bike_id":"899c2875-0596-4ce4-aa5a-60c5a794e240","system_id":"levelo_inurba_marseille","lat":43.24171,"lon":5.36396,"is_reserved":false,"is_disabled":false,"rental_uris":{"android":"levelo://app?vid=899c2875-0596-4ce4-aa5a-60c5a794e240","ios":"levelo://app?vid=899c2875-0596-4ce4-aa5a-60c5a794e240"},"vehicle_type_id":"4","last_reported":1752768831,"current_range_meters":12400,"station_id":"cpo36qri1sfpv3e86is0","pricing_plan_id":"cebpf4jnsgd1na2vs0mg"},{"bike_id":"a7223ff8-19eb-451a-8bed-3d0dd4b19a2d","system_id":"levelo_inurba_marseille","lat":43.29275,"lon":5.36846,"is_reserved":false,"is_disabled":false,"rental_uris":{"android":"levelo://app?vid=a7223ff8-19eb-451a-8bed-3d0dd4b19a2d","ios":"levelo://app?vid=a7223ff8-19eb-451a-8bed-3d0dd4b19a2d"},"vehicle_type_id":"4","last_reported":1752768831,"current_range_meters":12400,"station_id":"ce4bhbp2rcd13ifvqesg","pricing_plan_id":"cebpf4jnsgd1na2vs0mg"},{"bike_id":"0c6542d4-ec59-40c8-b420-29c463dc7878","system_id":"levelo_inurba_marseille","lat":43.281627,"lon":5.426436,"is_reserved":false,"is_disabled":false,"rental_uris":{"android":"levelo://app?vid=0c6542d4-ec59-40c8-b420-29c463dc7878","ios":"levelo://app?vid=0c6542d4-ec59-40c8-b420-29c463dc7878"},"vehicle_type_id":"4","last_reported":1752768831,"current_range_meters":12400,"station_id":"ce4bhnh2rcd13ifvqgug","pricing_plan_id":"cebpf4jnsgd1na2vs0mg"},{"bike_id":"dfd880d2-6eec-4da4-9fba-516edf934611","system_id":"levelo_inurba_marseille","lat":43.28853,"lon":5.35849,"is_reserved":false,"is_disabled":false,"rental_uris":{"android":"levelo://app?vid=dfd880d2-6eec-4da4-9fba-516edf934611","ios":"levelo://app?vid=dfd880d2-6eec-4da4-9fba-516edf934611"},"vehicle_type_id":"4","last_reported":1752768831,"current_range_meters":12400,"station_id":"ce4bhb12rcd13ifvqem0","pricing_plan_id":"cebpf4jnsgd1na2vs0mg"},{"bike_id":"33e01b73-5306-441e-9057-113cd5f45370","system_id":"levelo_inurba_marseille","lat":43.255013,"lon":5.376522,"is_reserved":false,"is_disabled":false,"rental_uris":{"android":"levelo://app?vid=33e01b73-5306-441e-9057-113cd5f45370","ios":"levelo://app?vid=33e01b73-5306-441e-9057-113cd5f45370"},"vehicle_type_id":"4","last_reported":1752768831,"current_range_meters":12400,"station_id":"ce4bhh12rcd13ifvqff0","pricing_plan_id":"cebpf4jnsgd1na2vs0mg"},{"bike_id":"8900e705-65c2-469c-b21e-1d0a4391c964","system_id":"levelo_inurba_marseille","lat":43.23066,"lon":5.35504,"is_reserved":false,"is_disabled":false,"rental_uris":{"android":"levelo://app?vid=8900e705-65c2-469c-b21e-1d0a4391c964","ios":"levelo://app?vid=8900e705-65c2-469c-b21e-1d0a4391c964"},"vehicle_type_id":"4","last_reported":1752768831,"current_range_meters":12400,"station_id":"cpo3342slgdg3j2ifvpg","pricing_plan_id":"cebpf4jnsgd1na2vs0mg"},{"bike_id":"28d27c17-e6ca-4cec-aec9-f1f6696b8a12","system_id":"levelo_inurba_marseille","lat":43.29905,"lon":5.43682,"is_reserved":false,"is_disabled":true,"rental_uris":{"android":"levelo://app?vid=28d27c17-e6ca-4cec-aec9-f1f6696b8a12","ios":"levelo://app?vid=28d27c17-e6ca-4cec-aec9-f1f6696b8a12"},"vehicle_type_id":"4","last_reported":1752768831,"current_range_meters":12400,"station_id":"ce4bhpp2rcd13ifvqhfg","pricing_plan_id":"cebpf4jnsgd1na2vs0mg"},{"bike_id":"95453bab-2d3a-4463-8b44-34d50de178c4","system_id":"levelo_inurba_marseille","lat":43.27914,"lon":5.39571,"is_reserved":false,"is_disabled":false,"rental_uris":{"android":"levelo://app?vid=95453bab-2d3a-4463-8b44-34d50de178c4","ios":"levelo://app?vid=95453bab-2d3a-4463-8b44-34d50de178c4"},"vehicle_type_id":"4","last_reported":1752768831,"current_range_meters":12400,"station_id":"ce4bhf92rcd13ifvqf40","pricing_plan_id":"cebpf4jnsgd1na2vs0mg"},{"bike_id":"c176ed89-f540-4169-9161-4548737e22e0","system_id":"levelo_inurba_marseille","lat":43.30434,"lon":5.3889,"is_reserved":false,"is_disabled":false,"rental_uris":{"android":"levelo://app?vid=c176ed89-f540-4169-9161-4548737e22e0","ios":"levelo://app?vid=c176ed89-f540-4169-9161-4548737e22e0"},"vehicle_type_id":"4","last_reported":1752768831,"current_range_meters":12800,"station_id":"ce4bgk12rcd13ifvqbi0","pricing_plan_id":"cebpf4jnsgd1na2vs0mg"},{"bike_id":"a6ad2597-d35f-40c2-9606-f75afa3aba4c","system_id":"levelo_inurba_marseille","lat":43.28293,"lon":5.35061,"is_reserved":false,"is_disabled":false,"rental_uris":{"android":"levelo://app?vid=a6ad2597-d35f-40c2-9606-f75afa3aba4c","ios":"levelo://app?vid=a6ad2597-d35f-40c2-9606-f75afa3aba4c"},"vehicle_type_id":"4","last_reported":1752768831,"current_range_meters":12800,"station_id":"ce4bhbp2rcd13ifvqerg","pricing_plan_id":"cebpf4jnsgd1na2vs0mg"},{"bike_id":"ad1d7e36-601d-4800-81e4-fbc5a60ef326","system_id":"levelo_inurba_marseille","lat":43.24662,"lon":5.38156,"is_reserved":false,"is_disabled":false,"rental_uris":{"android":"levelo://app?vid=ad1d7e36-601d-4800-81e4-fbc5a60ef326","ios":"levelo://app?vid=ad1d7e36-601d-4800-81e4-fbc5a60ef326"},"vehicle_type_id":"4","last_reported":1752768831,"current_range_meters":12800,"station_id":"ce4bhih2rcd13ifvqfr0","pricing_plan_id":"cebpf4jnsgd1na2vs0mg"},{"bike_id":"ad6a4f4d-f142-4af5-91cb-0a68309a31a0","system_id":"levelo_inurba_marseille","lat":43.31113,"lon":5.37758,"is_reserved":false,"is_disabled":false,"rental_uris":{"android":"levelo://app?vid=ad6a4f4d-f142-4af5-91cb-0a68309a31a0","ios":"levelo://app?vid=ad6a4f4d-f142-4af5-91cb-0a68309a31a0"},"vehicle_type_id":"4","last_reported":1752768831,"current_range_meters":12800,"station_id":"ce4bgt92rcd13ifvqcg0","pricing_plan_id":"cebpf4jnsgd1na2vs0mg"},{"bike_id":"59bd004f-8b0e-4228-8c73-a93741b3c273","system_id":"levelo_inurba_marseille","lat":43.29629,"lon":5.40591,"is_reserved":false,"is_disabled":false,"rental_uris":{"android":"levelo://app?vid=59bd004f-8b0e-4228-8c73-a93741b3c273","ios":"levelo://app?vid=59bd004f-8b0e-4228-8c73-a93741b3c273"},"vehicle_type_id":"4","last_reported":1752768831,"current_range_meters":12800,"station_id":"ce4bh0h2rcd13ifvqd60","pricing_plan_id":"cebpf4jnsgd1na2vs0mg"},{"bike_id":"07f5ae19-0925-43ef-aab4-48ec58bc62b9","system_id":"levelo_inurba_marseille","lat":43.31468,"lon":5.37436,"is_reserved":false,"is_disabled":false,"rental_uris":{"android":"levelo://app?vid=07f5ae19-0925-43ef-aab4-48ec58bc62b9","ios":"levelo://app?vid=07f5ae19-0925-43ef-aab4-48ec58bc62b9"},"vehicle_type_id":"4","last_reported":1752768831,"current_range_meters":12800,"station_id":"","pricing_plan_id":"cebpf4jnsgd1na2vs0mg"},{"bike_id":"b6e40dbb-482e-43e6-bc56-ee373b6225ae","system_id":"levelo_inurba_marseille","lat":43.314962,"lon":5.373136,"is_reserved":false,"is_disabled":false,"rental_uris":{"android":"levelo://app?vid=b6e40dbb-482e-43e6-bc56-ee373b6225ae","ios":"levelo://app?vid=b6e40dbb-482e-43e6-bc56-ee373b6225ae"},"vehicle_type_id":"4","last_reported":1752768831,"current_range_meters":13600,"station_id":"ce4bgt12rcd13ifvqcd0","pricing_plan_id":"cebpf4jnsgd1na2vs0mg"},{"bike_id":"0714a563-de17-4c6e-b8c8-88cb39d88da1","system_id":"levelo_inurba_marseille","lat":43.24393,"lon":5.37069,"is_reserved":false,"is_disabled":false,"rental_uris":{"android":"levelo://app?vid=0714a563-de17-4c6e-b8c8-88cb39d88da1","ios":"levelo://app?vid=0714a563-de17-4c6e-b8c8-88cb39d88da1"},"vehicle_type_id":"4","last_reported":1752768831,"current_range_meters":13600,"station_id":"ce4bhhh2rcd13ifvqfk0","pricing_plan_id":"cebpf4jnsgd1na2vs0mg"},{"bike_id":"c2ba07b6-2037-462d-aca4-fc23bc490a58","system_id":"levelo_inurba_marseille","lat":43.284153,"lon":5.349844,"is_reserved":false,"is_disabled":false,"rental_uris":{"android":"levelo://app?vid=c2ba07b6-2037-462d-aca4-fc23bc490a58","ios":"levelo://app?vid=c2ba07b6-2037-462d-aca4-fc23bc490a58"},"vehicle_type_id":"4","last_reported":1752768831,"current_range_meters":13600,"station_id":"ce4bhbh2rcd13ifvqepg","pricing_plan_id":"cebpf4jnsgd1na2vs0mg"},{"bike_id":"cef49048-b159-45bf-be58-0853950d8a4d","system_id":"levelo_inurba_marseille","lat":43.28924,"lon":5.36405,"is_reserved":false,"is_disabled":false,"rental_uris":{"android":"levelo://app?vid=cef49048-b159-45bf-be58-0853950d8a4d","ios":"levelo://app?vid=cef49048-b159-45bf-be58-0853950d8a4d"},"vehicle_type_id":"4","last_reported":1752768831,"current_range_meters":13600,"station_id":"ce4bhc92rcd13ifvqetg","pricing_plan_id":"cebpf4jnsgd1na2vs0mg"},{"bike_id":"e1bdd5b7-97aa-464b-8778-850b8f5d3325","system_id":"levelo_inurba_marseille","lat":43.24073,"lon":5.37758,"is_reserved":false,"is_disabled":false,"rental_uris":{"android":"levelo://app?vid=e1bdd5b7-97aa-464b-8778-850b8f5d3325","ios":"levelo://app?vid=e1bdd5b7-97aa-464b-8778-850b8f5d3325"},"vehicle_type_id":"4","last_reported":1752768831,"current_range_meters":13600,"station_id":"ce4bhnp2rcd13ifvqgvg","pricing_plan_id":"cebpf4jnsgd1na2vs0mg"},{"bike_id":"c303be8a-04b5-403f-a92a-eac34b716859","system_id":"levelo_inurba_marseille","lat":43.2292,"lon":5.35383,"is_reserved":false,"is_disabled":false,"rental_uris":{"android":"levelo://app?vid=c303be8a-04b5-403f-a92a-eac34b716859","ios":"levelo://app?vid=c303be8a-04b5-403f-a92a-eac34b716859"},"vehicle_type_id":"4","last_reported":1752768831,"current_range_meters":13600,"station_id":"cpo3532slgdg3j2ikp40","pricing_plan_id":"cebpf4jnsgd1na2vs0mg"},{"bike_id":"fd07f785-948d-48e7-9c57-46cccfaa2b14","system_id":"levelo_inurba_marseille","lat":43.2841,"lon":5.34982,"is_reserved":false,"is_disabled":false,"rental_uris":{"android":"levelo://app?vid=fd07f785-948d-48e7-9c57-46cccfaa2b14","ios":"levelo://app?vid=fd07f785-948d-48e7-9c57-46cccfaa2b14"},"vehicle_type_id":"4","last_reported":1752768831,"current_range_meters":13600,"station_id":"ce4bhbh2rcd13ifvqepg","pricing_plan_id":"cebpf4jnsgd1na2vs0mg"},{"bike_id":"b1447f57-1a42-4d82-89eb-6191cd49d559","system_id":"levelo_inurba_marseille","lat":43.28117,"lon":5.37849,"is_reserved":false,"is_disabled":false,"rental_uris":{"android":"levelo://app?vid=b1447f57-1a42-4d82-89eb-6191cd49d559","ios":"levelo://app?vid=b1447f57-1a42-4d82-89eb-6191cd49d559"},"vehicle_type_id":"4","last_reported":1752768831,"current_range_meters":13600,"station_id":"ce4bha12rcd13ifvqee0","pricing_plan_id":"cebpf4jnsgd1na2vs0mg"},{"bike_id":"ea8df781-3e64-40ab-8f51-de6912e7a4a5","system_id":"levelo_inurba_marseille","lat":43.26198,"lon":5.37449,"is_reserved":false,"is_disabled":false,"rental_uris":{"android":"levelo://app?vid=ea8df781-3e64-40ab-8f51-de6912e7a4a5","ios":"levelo://app?vid=ea8df781-3e64-40ab-8f51-de6912e7a4a5"},"vehicle_type_id":"4","last_reported":1752768831,"current_range_meters":13600,"station_id":"ce4bhgp2rcd13ifvqfc0","pricing_plan_id":"cebpf4jnsgd1na2vs0mg"},{"bike_id":"65f4aa8e-527d-4cbf-850a-78dd07846d37","system_id":"levelo_inurba_marseille","lat":43.31715,"lon":5.43695,"is_reserved":false,"is_disabled":false,"rental_uris":{"android":"levelo://app?vid=65f4aa8e-527d-4cbf-850a-78dd07846d37","ios":"levelo://app?vid=65f4aa8e-527d-4cbf-850a-78dd07846d37"},"vehicle_type_id":"4","last_reported":1752768831,"current_range_meters":13600,"station_id":"ce4bhp92rcd13ifvqhcg","pricing_plan_id":"cebpf4jnsgd1na2vs0mg"},{"bike_id":"3e2535f8-7d7e-418e-8d9a-1404dd8a8196","system_id":"levelo_inurba_marseille","lat":43.29303,"lon":5.371736,"is_reserved":false,"is_disabled":true,"rental_uris":{"android":"levelo://app?vid=3e2535f8-7d7e-418e-8d9a-1404dd8a8196","ios":"levelo://app?vid=3e2535f8-7d7e-418e-8d9a-1404dd8a8196"},"vehicle_type_id":"4","last_reported":1752768831,"current_range_meters":14000,"station_id":"ce4bgh92rcd13ifvqb40","pricing_plan_id":"cebpf4jnsgd1na2vs0mg"},{"bike_id":"65060cdf-f47b-47b3-b4f1-0d73985c83b2","system_id":"levelo_inurba_marseille","lat":43.28268,"lon":5.35062,"is_reserved":false,"is_disabled":false,"rental_uris":{"android":"levelo://app?vid=65060cdf-f47b-47b3-b4f1-0d73985c83b2","ios":"levelo://app?vid=65060cdf-f47b-47b3-b4f1-0d73985c83b2"},"vehicle_type_id":"4","last_reported":1752768831,"current_range_meters":14000,"station_id":"ce4bhbp2rcd13ifvqerg","pricing_plan_id":"cebpf4jnsgd1na2vs0mg"},{"bike_id":"a2ce1874-764b-4ddd-a113-359d10122345","system_id":"levelo_inurba_marseille","lat":43.31688,"lon":5.40473,"is_reserved":false,"is_disabled":false,"rental_uris":{"android":"levelo://app?vid=a2ce1874-764b-4ddd-a113-359d10122345","ios":"levelo://app?vid=a2ce1874-764b-4ddd-a113-359d10122345"},"vehicle_type_id":"4","last_reported":1752768831,"current_range_meters":14800,"station_id":"ce4bh012rcd13ifvqd00","pricing_plan_id":"cebpf4jnsgd1na2vs0mg"},{"bike_id":"666a470e-3a14-401d-92e1-a3ae1ee1304b","system_id":"levelo_inurba_marseille","lat":43.30146,"lon":5.39856,"is_reserved":false,"is_disabled":false,"rental_uris":{"android":"levelo://app?vid=666a470e-3a14-401d-92e1-a3ae1ee1304b","ios":"levelo://app?vid=666a470e-3a14-401d-92e1-a3ae1ee1304b"},"vehicle_type_id":"4","last_reported":1752768831,"current_range_meters":14000,"station_id":"ce4bh0h2rcd13ifvqd40","pricing_plan_id":"cebpf4jnsgd1na2vs0mg"},{"bike_id":"fb051388-bddd-4117-bccd-f4b08f9cbf7c","system_id":"levelo_inurba_marseille","lat":43.2827,"lon":5.35076,"is_reserved":false,"is_disabled":false,"rental_uris":{"android":"levelo://app?vid=fb051388-bddd-4117-bccd-f4b08f9cbf7c","ios":"levelo://app?vid=fb051388-bddd-4117-bccd-f4b08f9cbf7c"},"vehicle_type_id":"4","last_reported":1752768831,"current_range_meters":14000,"station_id":"ce4bhbp2rcd13ifvqerg","pricing_plan_id":"cebpf4jnsgd1na2vs0mg"},{"bike_id":"e8db7860-c461-4659-866b-a14a730ae823","system_id":"levelo_inurba_marseille","lat":43.31524,"lon":5.37301,"is_reserved":false,"is_disabled":false,"rental_uris":{"android":"levelo://app?vid=e8db7860-c461-4659-866b-a14a730ae823","ios":"levelo://app?vid=e8db7860-c461-4659-866b-a14a730ae823"},"vehicle_type_id":"4","last_reported":1752768831,"current_range_meters":14000,"station_id":"ce4bgt12rcd13ifvqcd0","pricing_plan_id":"cebpf4jnsgd1na2vs0mg"},{"bike_id":"e8ce754b-2f8d-437f-b356-44a01c2eefb5","system_id":"levelo_inurba_marseille","lat":43.30433,"lon":5.38897,"is_reserved":false,"is_disabled":false,"rental_uris":{"android":"levelo://app?vid=e8ce754b-2f8d-437f-b356-44a01c2eefb5","ios":"levelo://app?vid=e8ce754b-2f8d-437f-b356-44a01c2eefb5"},"vehicle_type_id":"4","last_reported":1752768831,"current_range_meters":14000,"station_id":"ce4bgk12rcd13ifvqbi0","pricing_plan_id":"cebpf4jnsgd1na2vs0mg"},{"bike_id":"9c6dde01-0ef8-4ebf-aa3b-090ffc09def1","system_id":"levelo_inurba_marseille","lat":43.29427,"lon":5.38608,"is_reserved":false,"is_disabled":false,"rental_uris":{"android":"levelo://app?vid=9c6dde01-0ef8-4ebf-aa3b-090ffc09def1","ios":"levelo://app?vid=9c6dde01-0ef8-4ebf-aa3b-090ffc09def1"},"vehicle_type_id":"4","last_reported":1752768831,"current_range_meters":14000,"station_id":"ce4bh2h2rcd13ifvqdh0","pricing_plan_id":"cebpf4jnsgd1na2vs0mg"},{"bike_id":"b57413d0-cbc6-4c45-99a2-a13531e6906c","system_id":"levelo_inurba_marseille","lat":43.27891,"lon":5.3542,"is_reserved":false,"is_disabled":false,"rental_uris":{"android":"levelo://app?vid=b57413d0-cbc6-4c45-99a2-a13531e6906c","ios":"levelo://app?vid=b57413d0-cbc6-4c45-99a2-a13531e6906c"},"vehicle_type_id":"4","last_reported":1752768831,"current_range_meters":14400,"station_id":"","pricing_plan_id":"cebpf4jnsgd1na2vs0mg"},{"bike_id":"fec0f980-3485-4095-b4d2-a568d83d7d17","system_id":"levelo_inurba_marseille","lat":43.28409,"lon":5.3499,"is_reserved":false,"is_disabled":false,"rental_uris":{"android":"levelo://app?vid=fec0f980-3485-4095-b4d2-a568d83d7d17","ios":"levelo://app?vid=fec0f980-3485-4095-b4d2-a568d83d7d17"},"vehicle_type_id":"4","last_reported":1752768831,"current_range_meters":14400,"station_id":"ce4bhbh2rcd13ifvqepg","pricing_plan_id":"cebpf4jnsgd1na2vs0mg"},{"bike_id":"2ac93549-5c94-4228-8eea-782a21384d10","system_id":"levelo_inurba_marseille","lat":43.29634,"lon":5.37793,"is_reserved":false,"is_disabled":false,"rental_uris":{"android":"levelo://app?vid=2ac93549-5c94-4228-8eea-782a21384d10","ios":"levelo://app?vid=2ac93549-5c94-4228-8eea-782a21384d10"},"vehicle_type_id":"4","last_reported":1752768831,"current_range_meters":14400,"station_id":"","pricing_plan_id":"cebpf4jnsgd1na2vs0mg"},{"bike_id":"8190b158-4f1a-4f58-a07b-5b1c4e7d71cb","system_id":"levelo_inurba_marseille","lat":43.29255,"lon":5.36071,"is_reserved":false,"is_disabled":false,"rental_uris":{"android":"levelo://app?vid=8190b158-4f1a-4f58-a07b-5b1c4e7d71cb","ios":"levelo://app?vid=8190b158-4f1a-4f58-a07b-5b1c4e7d71cb"},"vehicle_type_id":"4","last_reported":1752768831,"current_range_meters":14400,"station_id":"ce4bhbh2rcd13ifvqeqg","pricing_plan_id":"cebpf4jnsgd1na2vs0mg"},{"bike_id":"582d5e63-4946-44ff-8da5-cdf3e52be7b6","system_id":"levelo_inurba_marseille","lat":43.27053,"lon":5.40219,"is_reserved":false,"is_disabled":false,"rental_uris":{"android":"levelo://app?vid=582d5e63-4946-44ff-8da5-cdf3e52be7b6","ios":"levelo://app?vid=582d5e63-4946-44ff-8da5-cdf3e52be7b6"},"vehicle_type_id":"4","last_reported":1752768831,"current_range_meters":14400,"station_id":"ce4bhk92rcd13ifvqgc0","pricing_plan_id":"cebpf4jnsgd1na2vs0mg"},{"bike_id":"2c6e34ec-e4ad-4b55-908f-732bdcecdb2f","system_id":"levelo_inurba_marseille","lat":43.21204,"lon":5.35048,"is_reserved":false,"is_disabled":false,"rental_uris":{"android":"levelo://app?vid=2c6e34ec-e4ad-4b55-908f-732bdcecdb2f","ios":"levelo://app?vid=2c6e34ec-e4ad-4b55-908f-732bdcecdb2f"},"vehicle_type_id":"4","last_reported":1752768831,"current_range_meters":14800,"station_id":"st_cvj6sg6p6f1abm77japg","pricing_plan_id":"cebpf4jnsgd1na2vs0mg"},{"bike_id":"6d70d6d4-7776-4d1e-a307-46e9e54de733","system_id":"levelo_inurba_marseille","lat":43.29576,"lon":5.39964,"is_reserved":false,"is_disabled":true,"rental_uris":{"android":"levelo://app?vid=6d70d6d4-7776-4d1e-a307-46e9e54de733","ios":"levelo://app?vid=6d70d6d4-7776-4d1e-a307-46e9e54de733"},"vehicle_type_id":"4","last_reported":1752768831,"current_range_meters":14800,"station_id":"ce4bh312rcd13ifvqdj0","pricing_plan_id":"cebpf4jnsgd1na2vs0mg"},{"bike_id":"15798fc9-50db-495e-b532-0a44853e661a","system_id":"levelo_inurba_marseille","lat":43.28403,"lon":5.3752,"is_reserved":false,"is_disabled":false,"rental_uris":{"android":"levelo://app?vid=15798fc9-50db-495e-b532-0a44853e661a","ios":"levelo://app?vid=15798fc9-50db-495e-b532-0a44853e661a"},"vehicle_type_id":"4","last_reported":1752768831,"current_range_meters":14800,"station_id":"ce4bh412rcd13ifvqds0","pricing_plan_id":"cebpf4jnsgd1na2vs0mg"},{"bike_id":"fd75f631-a93f-469d-bea7-4e480ab41eae","system_id":"levelo_inurba_marseille","lat":43.28283,"lon":5.35047,"is_reserved":false,"is_disabled":false,"rental_uris":{"android":"levelo://app?vid=fd75f631-a93f-469d-bea7-4e480ab41eae","ios":"levelo://app?vid=fd75f631-a93f-469d-bea7-4e480ab41eae"},"vehicle_type_id":"4","last_reported":1752768831,"current_range_meters":14800,"station_id":"ce4bhbp2rcd13ifvqerg","pricing_plan_id":"cebpf4jnsgd1na2vs0mg"},{"bike_id":"e555b545-304c-4dce-8496-1643c0f2600e","system_id":"levelo_inurba_marseille","lat":43.337444,"lon":5.374475,"is_reserved":false,"is_disabled":false,"rental_uris":{"android":"levelo://app?vid=e555b545-304c-4dce-8496-1643c0f2600e","ios":"levelo://app?vid=e555b545-304c-4dce-8496-1643c0f2600e"},"vehicle_type_id":"4","last_reported":1752768831,"current_range_meters":14800,"station_id":"","pricing_plan_id":"cebpf4jnsgd1na2vs0mg"},{"bike_id":"78274e74-ab73-4fa7-b1a3-d1a684863996","system_id":"levelo_inurba_marseille","lat":43.2252,"lon":5.34769,"is_reserved":false,"is_disabled":false,"rental_uris":{"android":"levelo://app?vid=78274e74-ab73-4fa7-b1a3-d1a684863996","ios":"levelo://app?vid=78274e74-ab73-4fa7-b1a3-d1a684863996"},"vehicle_type_id":"4","last_reported":1752768831,"current_range_meters":14800,"station_id":"st_cvj5dfep6f1abm77gieg","pricing_plan_id":"cebpf4jnsgd1na2vs0mg"},{"bike_id":"e12ac977-110c-4ffc-8c4a-20960851c090","system_id":"levelo_inurba_marseille","lat":43.24385,"lon":5.37056,"is_reserved":false,"is_disabled":false,"rental_uris":{"android":"levelo://app?vid=e12ac977-110c-4ffc-8c4a-20960851c090","ios":"levelo://app?vid=e12ac977-110c-4ffc-8c4a-20960851c090"},"vehicle_type_id":"4","last_reported":1752768831,"current_range_meters":14800,"station_id":"ce4bhhh2rcd13ifvqfk0","pricing_plan_id":"cebpf4jnsgd1na2vs0mg"},{"bike_id":"ae28ea44-06e0-468d-b104-f45ecdf62a40","system_id":"levelo_inurba_marseille","lat":43.23196,"lon":5.35553,"is_reserved":false,"is_disabled":false,"rental_uris":{"android":"levelo://app?vid=ae28ea44-06e0-468d-b104-f45ecdf62a40","ios":"levelo://app?vid=ae28ea44-06e0-468d-b104-f45ecdf62a40"},"vehicle_type_id":"4","last_reported":1752768831,"current_range_meters":15200,"station_id":"ce4bhu92rcd13ifvqi70","pricing_plan_id":"cebpf4jnsgd1na2vs0mg"},{"bike_id":"8b76c999-ba4d-4434-ac3c-53677889ef62","system_id":"levelo_inurba_marseille","lat":43.27896,"lon":5.35417,"is_reserved":false,"is_disabled":false,"rental_uris":{"android":"levelo://app?vid=8b76c999-ba4d-4434-ac3c-53677889ef62","ios":"levelo://app?vid=8b76c999-ba4d-4434-ac3c-53677889ef62"},"vehicle_type_id":"4","last_reported":1752768831,"current_range_meters":15200,"station_id":"","pricing_plan_id":"cebpf4jnsgd1na2vs0mg"},{"bike_id":"62395c1d-654c-4b85-816b-f4698a26ea1d","system_id":"levelo_inurba_marseille","lat":43.24082,"lon":5.37759,"is_reserved":false,"is_disabled":false,"rental_uris":{"android":"levelo://app?vid=62395c1d-654c-4b85-816b-f4698a26ea1d","ios":"levelo://app?vid=62395c1d-654c-4b85-816b-f4698a26ea1d"},"vehicle_type_id":"4","last_reported":1752768831,"current_range_meters":14800,"station_id":"ce4bhnp2rcd13ifvqgvg","pricing_plan_id":"cebpf4jnsgd1na2vs0mg"},{"bike_id":"da891840-0cec-4ccc-961c-48903736c6fa","system_id":"levelo_inurba_marseille","lat":43.31139,"lon":5.37692,"is_reserved":false,"is_disabled":false,"rental_uris":{"android":"levelo://app?vid=da891840-0cec-4ccc-961c-48903736c6fa","ios":"levelo://app?vid=da891840-0cec-4ccc-961c-48903736c6fa"},"vehicle_type_id":"4","last_reported":1752768831,"current_range_meters":15200,"station_id":"","pricing_plan_id":"cebpf4jnsgd1na2vs0mg"},{"bike_id":"5983b9f0-2dbc-4cb0-9457-c9b8b90078c7","system_id":"levelo_inurba_marseille","lat":43.28279,"lon":5.35057,"is_reserved":false,"is_disabled":false,"rental_uris":{"android":"levelo://app?vid=5983b9f0-2dbc-4cb0-9457-c9b8b90078c7","ios":"levelo://app?vid=5983b9f0-2dbc-4cb0-9457-c9b8b90078c7"},"vehicle_type_id":"4","last_reported":1752768831,"current_range_meters":15200,"station_id":"ce4bhbp2rcd13ifvqerg","pricing_plan_id":"cebpf4jnsgd1na2vs0mg"},{"bike_id":"ffa4d88f-60e0-4a84-bef8-8dd70037f99e","system_id":"levelo_inurba_marseille","lat":43.28864,"lon":5.35845,"is_reserved":false,"is_disabled":false,"rental_uris":{"android":"levelo://app?vid=ffa4d88f-60e0-4a84-bef8-8dd70037f99e","ios":"levelo://app?vid=ffa4d88f-60e0-4a84-bef8-8dd70037f99e"},"vehicle_type_id":"4","last_reported":1752768831,"current_range_meters":14800,"station_id":"ce4bhb12rcd13ifvqem0","pricing_plan_id":"cebpf4jnsgd1na2vs0mg"},{"bike_id":"759346d8-6a89-4553-aa54-5918f6f5e1b8","system_id":"levelo_inurba_marseille","lat":43.24805,"lon":5.37453,"is_reserved":false,"is_disabled":false,"rental_uris":{"android":"levelo://app?vid=759346d8-6a89-4553-aa54-5918f6f5e1b8","ios":"levelo://app?vid=759346d8-6a89-4553-aa54-5918f6f5e1b8"},"vehicle_type_id":"4","last_reported":1752768831,"current_range_meters":16000,"station_id":"ce4bhgh2rcd13ifvqfb0","pricing_plan_id":"cebpf4jnsgd1na2vs0mg"},{"bike_id":"b9c220fa-ce21-46e5-9c5b-52d91725030b","system_id":"levelo_inurba_marseille","lat":43.229371,"lon":5.353724,"is_reserved":false,"is_disabled":false,"rental_uris":{"android":"levelo://app?vid=b9c220fa-ce21-46e5-9c5b-52d91725030b","ios":"levelo://app?vid=b9c220fa-ce21-46e5-9c5b-52d91725030b"},"vehicle_type_id":"4","last_reported":1752768831,"current_range_meters":16000,"station_id":"cpo3532slgdg3j2ikp40","pricing_plan_id":"cebpf4jnsgd1na2vs0mg"},{"bike_id":"08047682-4828-4af3-8084-134e8a9fbd3f","system_id":"levelo_inurba_marseille","lat":43.268117,"lon":5.402657,"is_reserved":false,"is_disabled":false,"rental_uris":{"android":"levelo://app?vid=08047682-4828-4af3-8084-134e8a9fbd3f","ios":"levelo://app?vid=08047682-4828-4af3-8084-134e8a9fbd3f"},"vehicle_type_id":"4","last_reported":1752768831,"current_range_meters":16000,"station_id":"ce501612rcd8frsf0b60","pricing_plan_id":"cebpf4jnsgd1na2vs0mg"},{"bike_id":"a092d05c-8017-44f5-ba8a-35792463d6a3","system_id":"levelo_inurba_marseille","lat":43.22504,"lon":5.34788,"is_reserved":false,"is_disabled":false,"rental_uris":{"android":"levelo://app?vid=a092d05c-8017-44f5-ba8a-35792463d6a3","ios":"levelo://app?vid=a092d05c-8017-44f5-ba8a-35792463d6a3"},"vehicle_type_id":"4","last_reported":1752768831,"current_range_meters":16000,"station_id":"st_cvj5dfep6f1abm77gieg","pricing_plan_id":"cebpf4jnsgd1na2vs0mg"},{"bike_id":"778d24c4-0e7c-4abd-97ee-0cf7e003e57e","system_id":"levelo_inurba_marseille","lat":43.25488,"lon":5.37652,"is_reserved":false,"is_disabled":false,"rental_uris":{"android":"levelo://app?vid=778d24c4-0e7c-4abd-97ee-0cf7e003e57e","ios":"levelo://app?vid=778d24c4-0e7c-4abd-97ee-0cf7e003e57e"},"vehicle_type_id":"4","last_reported":1752768831,"current_range_meters":16000,"station_id":"ce4bhh12rcd13ifvqff0","pricing_plan_id":"cebpf4jnsgd1na2vs0mg"},{"bike_id":"b3af22de-804c-4b6e-9abb-abf742899dd0","system_id":"levelo_inurba_marseille","lat":43.241662,"lon":5.363917,"is_reserved":false,"is_disabled":false,"rental_uris":{"android":"levelo://app?vid=b3af22de-804c-4b6e-9abb-abf742899dd0","ios":"levelo://app?vid=b3af22de-804c-4b6e-9abb-abf742899dd0"},"vehicle_type_id":"4","last_reported":1752768831,"current_range_meters":16000,"station_id":"cpo36qri1sfpv3e86is0","pricing_plan_id":"cebpf4jnsgd1na2vs0mg"},{"bike_id":"2272a1cb-30d4-47dd-bed5-39b01483f853","system_id":"levelo_inurba_marseille","lat":43.22951,"lon":5.3537,"is_reserved":false,"is_disabled":false,"rental_uris":{"android":"levelo://app?vid=2272a1cb-30d4-47dd-bed5-39b01483f853","ios":"levelo://app?vid=2272a1cb-30d4-47dd-bed5-39b01483f853"},"vehicle_type_id":"4","last_reported":1752768831,"current_range_meters":16000,"station_id":"cpo3532slgdg3j2ikp40","pricing_plan_id":"cebpf4jnsgd1na2vs0mg"},{"bike_id":"a7b514ad-8226-4e77-a8af-8e5e1771cd76","system_id":"levelo_inurba_marseille","lat":43.21184,"lon":5.35073,"is_reserved":false,"is_disabled":false,"rental_uris":{"android":"levelo://app?vid=a7b514ad-8226-4e77-a8af-8e5e1771cd76","ios":"levelo://app?vid=a7b514ad-8226-4e77-a8af-8e5e1771cd76"},"vehicle_type_id":"4","last_reported":1752768831,"current_range_meters":16000,"station_id":"st_cvj6sg6p6f1abm77japg","pricing_plan_id":"cebpf4jnsgd1na2vs0mg"},{"bike_id":"f7def945-7460-47a4-835c-065812d7faa0","system_id":"levelo_inurba_marseille","lat":43.28263,"lon":5.35063,"is_reserved":false,"is_disabled":false,"rental_uris":{"android":"levelo://app?vid=f7def945-7460-47a4-835c-065812d7faa0","ios":"levelo://app?vid=f7def945-7460-47a4-835c-065812d7faa0"},"vehicle_type_id":"4","last_reported":1752768831,"current_range_meters":16000,"station_id":"ce4bhbp2rcd13ifvqerg","pricing_plan_id":"cebpf4jnsgd1na2vs0mg"},{"bike_id":"531dca68-8617-41b0-a6cd-abffc94e1d45","system_id":"levelo_inurba_marseille","lat":43.31197,"lon":5.37355,"is_reserved":false,"is_disabled":false,"rental_uris":{"android":"levelo://app?vid=531dca68-8617-41b0-a6cd-abffc94e1d45","ios":"levelo://app?vid=531dca68-8617-41b0-a6cd-abffc94e1d45"},"vehicle_type_id":"4","last_reported":1752768831,"current_range_meters":16000,"station_id":"","pricing_plan_id":"cebpf4jnsgd1na2vs0mg"},{"bike_id":"cc0b299f-a8bc-4830-9032-e9d84b599482","system_id":"levelo_inurba_marseille","lat":43.26025,"lon":5.37546,"is_reserved":false,"is_disabled":false,"rental_uris":{"android":"levelo://app?vid=cc0b299f-a8bc-4830-9032-e9d84b599482","ios":"levelo://app?vid=cc0b299f-a8bc-4830-9032-e9d84b599482"},"vehicle_type_id":"4","last_reported":1752768831,"current_range_meters":16400,"station_id":"ce4bhgh2rcd13ifvqfa0","pricing_plan_id":"cebpf4jnsgd1na2vs0mg"},{"bike_id":"31695fe3-ba1a-451d-a7a2-e6e81aefdddc","system_id":"levelo_inurba_marseille","lat":43.2862,"lon":5.35107,"is_reserved":false,"is_disabled":true,"rental_uris":{"android":"levelo://app?vid=31695fe3-ba1a-451d-a7a2-e6e81aefdddc","ios":"levelo://app?vid=31695fe3-ba1a-451d-a7a2-e6e81aefdddc"},"vehicle_type_id":"4","last_reported":1752768831,"current_range_meters":16400,"station_id":"ce4bhch2rcd13ifvqeug","pricing_plan_id":"cebpf4jnsgd1na2vs0mg"},{"bike_id":"214e6057-eeae-4fa3-a3cb-c3134c66b409","system_id":"levelo_inurba_marseille","lat":43.23065,"lon":5.35487,"is_reserved":false,"is_disabled":false,"rental_uris":{"android":"levelo://app?vid=214e6057-eeae-4fa3-a3cb-c3134c66b409","ios":"levelo://app?vid=214e6057-eeae-4fa3-a3cb-c3134c66b409"},"vehicle_type_id":"4","last_reported":1752768831,"current_range_meters":16400,"station_id":"cpo3342slgdg3j2ifvpg","pricing_plan_id":"cebpf4jnsgd1na2vs0mg"},{"bike_id":"b900d64b-35d4-4d6c-9be3-53917bd5ac56","system_id":"levelo_inurba_marseille","lat":43.28287,"lon":5.35092,"is_reserved":false,"is_disabled":false,"rental_uris":{"android":"levelo://app?vid=b900d64b-35d4-4d6c-9be3-53917bd5ac56","ios":"levelo://app?vid=b900d64b-35d4-4d6c-9be3-53917bd5ac56"},"vehicle_type_id":"4","last_reported":1752768831,"current_range_meters":16400,"station_id":"ce4bhbp2rcd13ifvqerg","pricing_plan_id":"cebpf4jnsgd1na2vs0mg"},{"bike_id":"bf159607-272d-4980-a630-8acddd0e01cb","system_id":"levelo_inurba_marseille","lat":43.30443,"lon":5.38868,"is_reserved":false,"is_disabled":false,"rental_uris":{"android":"levelo://app?vid=bf159607-272d-4980-a630-8acddd0e01cb","ios":"levelo://app?vid=bf159607-272d-4980-a630-8acddd0e01cb"},"vehicle_type_id":"4","last_reported":1752768831,"current_range_meters":16400,"station_id":"ce4bgk12rcd13ifvqbi0","pricing_plan_id":"cebpf4jnsgd1na2vs0mg"},{"bike_id":"6bcbec8e-1571-4730-8bdf-6e3f1a397fd8","system_id":"levelo_inurba_marseille","lat":43.26205,"lon":5.3746,"is_reserved":false,"is_disabled":false,"rental_uris":{"android":"levelo://app?vid=6bcbec8e-1571-4730-8bdf-6e3f1a397fd8","ios":"levelo://app?vid=6bcbec8e-1571-4730-8bdf-6e3f1a397fd8"},"vehicle_type_id":"4","last_reported":1752768831,"current_range_meters":16400,"station_id":"ce4bhgp2rcd13ifvqfc0","pricing_plan_id":"cebpf4jnsgd1na2vs0mg"},{"bike_id":"2631abd6-1105-4e80-8b8e-97a1d5ce1093","system_id":"levelo_inurba_marseille","lat":43.29261,"lon":5.38439,"is_reserved":false,"is_disabled":false,"rental_uris":{"android":"levelo://app?vid=2631abd6-1105-4e80-8b8e-97a1d5ce1093","ios":"levelo://app?vid=2631abd6-1105-4e80-8b8e-97a1d5ce1093"},"vehicle_type_id":"4","last_reported":1752768831,"current_range_meters":16400,"station_id":"ce4bh692rcd13ifvqea0","pricing_plan_id":"cebpf4jnsgd1na2vs0mg"},{"bike_id":"d0573d96-ddb4-4622-bd15-49483cac3810","system_id":"levelo_inurba_marseille","lat":43.25865,"lon":5.39902,"is_reserved":false,"is_disabled":true,"rental_uris":{"android":"levelo://app?vid=d0573d96-ddb4-4622-bd15-49483cac3810","ios":"levelo://app?vid=d0573d96-ddb4-4622-bd15-49483cac3810"},"vehicle_type_id":"4","last_reported":1752768831,"current_range_meters":16800,"station_id":"ce4bhl92rcd13ifvqghg","pricing_plan_id":"cebpf4jnsgd1na2vs0mg"},{"bike_id":"9ecb66de-a131-4aab-8ebd-3297d2d4d5a6","system_id":"levelo_inurba_marseille","lat":43.24805,"lon":5.37455,"is_reserved":false,"is_disabled":false,"rental_uris":{"android":"levelo://app?vid=9ecb66de-a131-4aab-8ebd-3297d2d4d5a6","ios":"levelo://app?vid=9ecb66de-a131-4aab-8ebd-3297d2d4d5a6"},"vehicle_type_id":"4","last_reported":1752768831,"current_range_meters":16800,"station_id":"ce4bhgh2rcd13ifvqfb0","pricing_plan_id":"cebpf4jnsgd1na2vs0mg"},{"bike_id":"e54582ed-ba92-4640-a97f-9e97144ce87f","system_id":"levelo_inurba_marseille","lat":43.32273,"lon":5.40653,"is_reserved":false,"is_disabled":false,"rental_uris":{"android":"levelo://app?vid=e54582ed-ba92-4640-a97f-9e97144ce87f","ios":"levelo://app?vid=e54582ed-ba92-4640-a97f-9e97144ce87f"},"vehicle_type_id":"4","last_reported":1752768831,"current_range_meters":16800,"station_id":"","pricing_plan_id":"cebpf4jnsgd1na2vs0mg"},{"bike_id":"d418fe0e-eb2e-4d0f-a1ff-ba5be7ee4a5c","system_id":"levelo_inurba_marseille","lat":43.285724,"lon":5.350689,"is_reserved":false,"is_disabled":false,"rental_uris":{"android":"levelo://app?vid=d418fe0e-eb2e-4d0f-a1ff-ba5be7ee4a5c","ios":"levelo://app?vid=d418fe0e-eb2e-4d0f-a1ff-ba5be7ee4a5c"},"vehicle_type_id":"4","last_reported":1752768831,"current_range_meters":16800,"station_id":"ce4bhch2rcd13ifvqeug","pricing_plan_id":"cebpf4jnsgd1na2vs0mg"},{"bike_id":"1df76812-89b1-4f03-8b3f-d919adce0792","system_id":"levelo_inurba_marseille","lat":43.29269,"lon":5.38434,"is_reserved":false,"is_disabled":false,"rental_uris":{"android":"levelo://app?vid=1df76812-89b1-4f03-8b3f-d919adce0792","ios":"levelo://app?vid=1df76812-89b1-4f03-8b3f-d919adce0792"},"vehicle_type_id":"4","last_reported":1752768831,"current_range_meters":16800,"station_id":"ce4bh692rcd13ifvqea0","pricing_plan_id":"cebpf4jnsgd1na2vs0mg"},{"bike_id":"0d289323-f51d-45e9-bba0-665e2f470b23","system_id":"levelo_inurba_marseille","lat":43.3133,"lon":5.3969,"is_reserved":false,"is_disabled":false,"rental_uris":{"android":"levelo://app?vid=0d289323-f51d-45e9-bba0-665e2f470b23","ios":"levelo://app?vid=0d289323-f51d-45e9-bba0-665e2f470b23"},"vehicle_type_id":"4","last_reported":1752768831,"current_range_meters":16800,"station_id":"ce4bgvp2rcd13ifvqcu0","pricing_plan_id":"cebpf4jnsgd1na2vs0mg"},{"bike_id":"2ded6291-a823-49b5-9bc5-1374dd62faea","system_id":"levelo_inurba_marseille","lat":43.24384,"lon":5.37053,"is_reserved":false,"is_disabled":false,"rental_uris":{"android":"levelo://app?vid=2ded6291-a823-49b5-9bc5-1374dd62faea","ios":"levelo://app?vid=2ded6291-a823-49b5-9bc5-1374dd62faea"},"vehicle_type_id":"4","last_reported":1752768831,"current_range_meters":16800,"station_id":"ce4bhhh2rcd13ifvqfk0","pricing_plan_id":"cebpf4jnsgd1na2vs0mg"},{"bike_id":"eae1e209-9563-4b30-a957-628672662251","system_id":"levelo_inurba_marseille","lat":43.2904,"lon":5.38113,"is_reserved":false,"is_disabled":false,"rental_uris":{"android":"levelo://app?vid=eae1e209-9563-4b30-a957-628672662251","ios":"levelo://app?vid=eae1e209-9563-4b30-a957-628672662251"},"vehicle_type_id":"4","last_reported":1752768831,"current_range_meters":16800,"station_id":"","pricing_plan_id":"cebpf4jnsgd1na2vs0mg"},{"bike_id":"6be86623-c65c-4a0d-b3a4-c58891bfa931","system_id":"levelo_inurba_marseille","lat":43.22503,"lon":5.34769,"is_reserved":false,"is_disabled":false,"rental_uris":{"android":"levelo://app?vid=6be86623-c65c-4a0d-b3a4-c58891bfa931","ios":"levelo://app?vid=6be86623-c65c-4a0d-b3a4-c58891bfa931"},"vehicle_type_id":"4","last_reported":1752768831,"current_range_meters":17200,"station_id":"st_cvj5dfep6f1abm77gieg","pricing_plan_id":"cebpf4jnsgd1na2vs0mg"},{"bike_id":"084eace8-045f-4012-9455-c501cad7ce10","system_id":"levelo_inurba_marseille","lat":43.22501,"lon":5.34775,"is_reserved":false,"is_disabled":false,"rental_uris":{"android":"levelo://app?vid=084eace8-045f-4012-9455-c501cad7ce10","ios":"levelo://app?vid=084eace8-045f-4012-9455-c501cad7ce10"},"vehicle_type_id":"4","last_reported":1752768831,"current_range_meters":17200,"station_id":"st_cvj5dfep6f1abm77gieg","pricing_plan_id":"cebpf4jnsgd1na2vs0mg"},{"bike_id":"56d9c083-77eb-47ff-ad33-7723aabf54f7","system_id":"levelo_inurba_marseille","lat":43.250854,"lon":5.395181,"is_reserved":false,"is_disabled":false,"rental_uris":{"android":"levelo://app?vid=56d9c083-77eb-47ff-ad33-7723aabf54f7","ios":"levelo://app?vid=56d9c083-77eb-47ff-ad33-7723aabf54f7"},"vehicle_type_id":"4","last_reported":1752768831,"current_range_meters":16800,"station_id":"ce4bhm12rcd13ifvqgkg","pricing_plan_id":"cebpf4jnsgd1na2vs0mg"},{"bike_id":"c3341e4c-276d-48cf-9580-c3f766d86c01","system_id":"levelo_inurba_marseille","lat":43.28612,"lon":5.35105,"is_reserved":false,"is_disabled":false,"rental_uris":{"android":"levelo://app?vid=c3341e4c-276d-48cf-9580-c3f766d86c01","ios":"levelo://app?vid=c3341e4c-276d-48cf-9580-c3f766d86c01"},"vehicle_type_id":"4","last_reported":1752768831,"current_range_meters":17200,"station_id":"ce4bhch2rcd13ifvqeug","pricing_plan_id":"cebpf4jnsgd1na2vs0mg"},{"bike_id":"660d6db3-3d46-4bf1-a04a-db097cd3027d","system_id":"levelo_inurba_marseille","lat":43.28292,"lon":5.35067,"is_reserved":false,"is_disabled":false,"rental_uris":{"android":"levelo://app?vid=660d6db3-3d46-4bf1-a04a-db097cd3027d","ios":"levelo://app?vid=660d6db3-3d46-4bf1-a04a-db097cd3027d"},"vehicle_type_id":"4","last_reported":1752768831,"current_range_meters":17200,"station_id":"ce4bhbp2rcd13ifvqerg","pricing_plan_id":"cebpf4jnsgd1na2vs0mg"},{"bike_id":"de58234c-ab03-426d-a473-6a6b5652d2f7","system_id":"levelo_inurba_marseille","lat":43.28261,"lon":5.35072,"is_reserved":false,"is_disabled":false,"rental_uris":{"android":"levelo://app?vid=de58234c-ab03-426d-a473-6a6b5652d2f7","ios":"levelo://app?vid=de58234c-ab03-426d-a473-6a6b5652d2f7"},"vehicle_type_id":"4","last_reported":1752768831,"current_range_meters":17200,"station_id":"ce4bhbp2rcd13ifvqerg","pricing_plan_id":"cebpf4jnsgd1na2vs0mg"},{"bike_id":"2f49c0bd-1fa3-4487-8922-9564c7b35ecb","system_id":"levelo_inurba_marseille","lat":43.27478,"lon":5.4229,"is_reserved":false,"is_disabled":false,"rental_uris":{"android":"levelo://app?vid=2f49c0bd-1fa3-4487-8922-9564c7b35ecb","ios":"levelo://app?vid=2f49c0bd-1fa3-4487-8922-9564c7b35ecb"},"vehicle_type_id":"4","last_reported":1752768831,"current_range_meters":17200,"station_id":"","pricing_plan_id":"cebpf4jnsgd1na2vs0mg"},{"bike_id":"107ccd41-9aec-4ea8-8494-f4739f3d360f","system_id":"levelo_inurba_marseille","lat":43.2987,"lon":5.3973,"is_reserved":false,"is_disabled":false,"rental_uris":{"android":"levelo://app?vid=107ccd41-9aec-4ea8-8494-f4739f3d360f","ios":"levelo://app?vid=107ccd41-9aec-4ea8-8494-f4739f3d360f"},"vehicle_type_id":"4","last_reported":1752768831,"current_range_meters":17200,"station_id":"ce4bh0h2rcd13ifvqd50","pricing_plan_id":"cebpf4jnsgd1na2vs0mg"},{"bike_id":"a880699d-ba34-41fb-98d5-97666dc8732b","system_id":"levelo_inurba_marseille","lat":43.286169,"lon":5.351071,"is_reserved":false,"is_disabled":false,"rental_uris":{"android":"levelo://app?vid=a880699d-ba34-41fb-98d5-97666dc8732b","ios":"levelo://app?vid=a880699d-ba34-41fb-98d5-97666dc8732b"},"vehicle_type_id":"4","last_reported":1752768831,"current_range_meters":17200,"station_id":"ce4bhch2rcd13ifvqeug","pricing_plan_id":"cebpf4jnsgd1na2vs0mg"},{"bike_id":"a5755f23-320d-45fb-8ac8-2a6828403340","system_id":"levelo_inurba_marseille","lat":43.28037,"lon":5.36948,"is_reserved":false,"is_disabled":true,"rental_uris":{"android":"levelo://app?vid=a5755f23-320d-45fb-8ac8-2a6828403340","ios":"levelo://app?vid=a5755f23-320d-45fb-8ac8-2a6828403340"},"vehicle_type_id":"4","last_reported":1752768831,"current_range_meters":17200,"station_id":"ce4bha12rcd13ifvqef0","pricing_plan_id":"cebpf4jnsgd1na2vs0mg"},{"bike_id":"069ce89a-f87b-4d0e-9a96-262a82447d55","system_id":"levelo_inurba_marseille","lat":43.248022,"lon":5.374696,"is_reserved":false,"is_disabled":false,"rental_uris":{"android":"levelo://app?vid=069ce89a-f87b-4d0e-9a96-262a82447d55","ios":"levelo://app?vid=069ce89a-f87b-4d0e-9a96-262a82447d55"},"vehicle_type_id":"4","last_reported":1752768831,"current_range_meters":17600,"station_id":"ce4bhgh2rcd13ifvqfb0","pricing_plan_id":"cebpf4jnsgd1na2vs0mg"},{"bike_id":"c6db0f6a-96fe-4e1d-8ded-c2ef38c9bab4","system_id":"levelo_inurba_marseille","lat":43.304183,"lon":5.412838,"is_reserved":false,"is_disabled":true,"rental_uris":{"android":"levelo://app?vid=c6db0f6a-96fe-4e1d-8ded-c2ef38c9bab4","ios":"levelo://app?vid=c6db0f6a-96fe-4e1d-8ded-c2ef38c9bab4"},"vehicle_type_id":"4","last_reported":1752768831,"current_range_meters":17600,"station_id":"ce4bhop2rcd13ifvqh8g","pricing_plan_id":"cebpf4jnsgd1na2vs0mg"},{"bike_id":"4bba7742-e498-40a8-972f-8290155d54fb","system_id":"levelo_inurba_marseille","lat":43.28706,"lon":5.39985,"is_reserved":false,"is_disabled":false,"rental_uris":{"android":"levelo://app?vid=4bba7742-e498-40a8-972f-8290155d54fb","ios":"levelo://app?vid=4bba7742-e498-40a8-972f-8290155d54fb"},"vehicle_type_id":"4","last_reported":1752768831,"current_range_meters":17600,"station_id":"ce4bho92rcd13ifvqh3g","pricing_plan_id":"cebpf4jnsgd1na2vs0mg"},{"bike_id":"dc5f5a9e-bdfb-495e-902a-909f8687d937","system_id":"levelo_inurba_marseille","lat":43.29464,"lon":5.43381,"is_reserved":false,"is_disabled":false,"rental_uris":{"android":"levelo://app?vid=dc5f5a9e-bdfb-495e-902a-909f8687d937","ios":"levelo://app?vid=dc5f5a9e-bdfb-495e-902a-909f8687d937"},"vehicle_type_id":"4","last_reported":1752768831,"current_range_meters":17600,"station_id":"","pricing_plan_id":"cebpf4jnsgd1na2vs0mg"},{"bike_id":"b1411f20-9712-40f9-a9cc-407b4e40f865","system_id":"levelo_inurba_marseille","lat":43.26831,"lon":5.41458,"is_reserved":false,"is_disabled":false,"rental_uris":{"android":"levelo://app?vid=b1411f20-9712-40f9-a9cc-407b4e40f865","ios":"levelo://app?vid=b1411f20-9712-40f9-a9cc-407b4e40f865"},"vehicle_type_id":"4","last_reported":1752768831,"current_range_meters":17600,"station_id":"","pricing_plan_id":"cebpf4jnsgd1na2vs0mg"},{"bike_id":"2142791b-ca27-4422-ac4b-0911c5cc07f3","system_id":"levelo_inurba_marseille","lat":43.28407,"lon":5.34975,"is_reserved":false,"is_disabled":false,"rental_uris":{"android":"levelo://app?vid=2142791b-ca27-4422-ac4b-0911c5cc07f3","ios":"levelo://app?vid=2142791b-ca27-4422-ac4b-0911c5cc07f3"},"vehicle_type_id":"4","last_reported":1752768831,"current_range_meters":17600,"station_id":"ce4bhbh2rcd13ifvqepg","pricing_plan_id":"cebpf4jnsgd1na2vs0mg"},{"bike_id":"ed822664-f978-4865-b4d3-8b7323601ddf","system_id":"levelo_inurba_marseille","lat":43.29802,"lon":5.3935,"is_reserved":false,"is_disabled":true,"rental_uris":{"android":"levelo://app?vid=ed822664-f978-4865-b4d3-8b7323601ddf","ios":"levelo://app?vid=ed822664-f978-4865-b4d3-8b7323601ddf"},"vehicle_type_id":"4","last_reported":1752768831,"current_range_meters":17600,"station_id":"chh1huq6cuj3fo74tm60","pricing_plan_id":"cebpf4jnsgd1na2vs0mg"},{"bike_id":"b97bdc68-8b25-4847-ba94-55002b8dde8c","system_id":"levelo_inurba_marseille","lat":43.28421,"lon":5.3498,"is_reserved":false,"is_disabled":false,"rental_uris":{"android":"levelo://app?vid=b97bdc68-8b25-4847-ba94-55002b8dde8c","ios":"levelo://app?vid=b97bdc68-8b25-4847-ba94-55002b8dde8c"},"vehicle_type_id":"4","last_reported":1752768831,"current_range_meters":17600,"station_id":"ce4bhbh2rcd13ifvqepg","pricing_plan_id":"cebpf4jnsgd1na2vs0mg"},{"bike_id":"ea75efb2-ac36-4344-b925-58a5bd2f6327","system_id":"levelo_inurba_marseille","lat":43.271854,"lon":5.362776,"is_reserved":false,"is_disabled":false,"rental_uris":{"android":"levelo://app?vid=ea75efb2-ac36-4344-b925-58a5bd2f6327","ios":"levelo://app?vid=ea75efb2-ac36-4344-b925-58a5bd2f6327"},"vehicle_type_id":"4","last_reported":1752768831,"current_range_meters":17600,"station_id":"","pricing_plan_id":"cebpf4jnsgd1na2vs0mg"},{"bike_id":"f880ee96-c065-450a-a1a6-ccd8b757954c","system_id":"levelo_inurba_marseille","lat":43.28618,"lon":5.35102,"is_reserved":false,"is_disabled":false,"rental_uris":{"android":"levelo://app?vid=f880ee96-c065-450a-a1a6-ccd8b757954c","ios":"levelo://app?vid=f880ee96-c065-450a-a1a6-ccd8b757954c"},"vehicle_type_id":"4","last_reported":1752768831,"current_range_meters":17600,"station_id":"ce4bhch2rcd13ifvqeug","pricing_plan_id":"cebpf4jnsgd1na2vs0mg"},{"bike_id":"21c28a41-5988-44fd-bd9c-8737f24b78b9","system_id":"levelo_inurba_marseille","lat":43.27224,"lon":5.40091,"is_reserved":false,"is_disabled":false,"rental_uris":{"android":"levelo://app?vid=21c28a41-5988-44fd-bd9c-8737f24b78b9","ios":"levelo://app?vid=21c28a41-5988-44fd-bd9c-8737f24b78b9"},"vehicle_type_id":"4","last_reported":1752768831,"current_range_meters":17600,"station_id":"","pricing_plan_id":"cebpf4jnsgd1na2vs0mg"},{"bike_id":"4c0580d4-f2e2-4c67-8250-a65c39c0f7d6","system_id":"levelo_inurba_marseille","lat":43.22511,"lon":5.34773,"is_reserved":false,"is_disabled":false,"rental_uris":{"android":"levelo://app?vid=4c0580d4-f2e2-4c67-8250-a65c39c0f7d6","ios":"levelo://app?vid=4c0580d4-f2e2-4c67-8250-a65c39c0f7d6"},"vehicle_type_id":"4","last_reported":1752768831,"current_range_meters":17600,"station_id":"st_cvj5dfep6f1abm77gieg","pricing_plan_id":"cebpf4jnsgd1na2vs0mg"},{"bike_id":"5b4e5f0f-cac3-450a-9463-e6a77e2c277e","system_id":"levelo_inurba_marseille","lat":43.246423,"lon":5.388921,"is_reserved":false,"is_disabled":true,"rental_uris":{"android":"levelo://app?vid=5b4e5f0f-cac3-450a-9463-e6a77e2c277e","ios":"levelo://app?vid=5b4e5f0f-cac3-450a-9463-e6a77e2c277e"},"vehicle_type_id":"4","last_reported":1752768831,"current_range_meters":17600,"station_id":"ce4bhg12rcd13ifvqf60","pricing_plan_id":"cebpf4jnsgd1na2vs0mg"},{"bike_id":"db5e1d5a-066d-41f1-8e98-cb9ce80fb8b3","system_id":"levelo_inurba_marseille","lat":43.30787,"lon":5.37646,"is_reserved":false,"is_disabled":false,"rental_uris":{"android":"levelo://app?vid=db5e1d5a-066d-41f1-8e98-cb9ce80fb8b3","ios":"levelo://app?vid=db5e1d5a-066d-41f1-8e98-cb9ce80fb8b3"},"vehicle_type_id":"4","last_reported":1752768831,"current_range_meters":18000,"station_id":"ce4bgv92rcd13ifvqcq0","pricing_plan_id":"cebpf4jnsgd1na2vs0mg"},{"bike_id":"ee862e20-87d2-49aa-9955-e7f5854481ba","system_id":"levelo_inurba_marseille","lat":43.25501,"lon":5.37649,"is_reserved":false,"is_disabled":false,"rental_uris":{"android":"levelo://app?vid=ee862e20-87d2-49aa-9955-e7f5854481ba","ios":"levelo://app?vid=ee862e20-87d2-49aa-9955-e7f5854481ba"},"vehicle_type_id":"4","last_reported":1752768831,"current_range_meters":18000,"station_id":"ce4bhh12rcd13ifvqff0","pricing_plan_id":"cebpf4jnsgd1na2vs0mg"},{"bike_id":"f99ff1e4-4111-475a-aa3e-cb902d081040","system_id":"levelo_inurba_marseille","lat":43.23198,"lon":5.35549,"is_reserved":false,"is_disabled":false,"rental_uris":{"android":"levelo://app?vid=f99ff1e4-4111-475a-aa3e-cb902d081040","ios":"levelo://app?vid=f99ff1e4-4111-475a-aa3e-cb902d081040"},"vehicle_type_id":"4","last_reported":1752768831,"current_range_meters":18000,"station_id":"ce4bhu92rcd13ifvqi70","pricing_plan_id":"cebpf4jnsgd1na2vs0mg"},{"bike_id":"715485f6-4125-4423-80fd-2024c0a54a34","system_id":"levelo_inurba_marseille","lat":43.28275,"lon":5.35071,"is_reserved":false,"is_disabled":false,"rental_uris":{"android":"levelo://app?vid=715485f6-4125-4423-80fd-2024c0a54a34","ios":"levelo://app?vid=715485f6-4125-4423-80fd-2024c0a54a34"},"vehicle_type_id":"4","last_reported":1752768831,"current_range_meters":18000,"station_id":"ce4bhbp2rcd13ifvqerg","pricing_plan_id":"cebpf4jnsgd1na2vs0mg"},{"bike_id":"31403b34-8179-40e4-a7bb-e3f550e1356a","system_id":"levelo_inurba_marseille","lat":43.28942,"lon":5.36631,"is_reserved":false,"is_disabled":false,"rental_uris":{"android":"levelo://app?vid=31403b34-8179-40e4-a7bb-e3f550e1356a","ios":"levelo://app?vid=31403b34-8179-40e4-a7bb-e3f550e1356a"},"vehicle_type_id":"4","last_reported":1752768831,"current_range_meters":18000,"station_id":"ce4bhap2rcd13ifvqek0","pricing_plan_id":"cebpf4jnsgd1na2vs0mg"},{"bike_id":"e6791d56-f84d-44f8-ae6f-805915b5b316","system_id":"levelo_inurba_marseille","lat":43.302442,"lon":5.400638,"is_reserved":false,"is_disabled":false,"rental_uris":{"android":"levelo://app?vid=e6791d56-f84d-44f8-ae6f-805915b5b316","ios":"levelo://app?vid=e6791d56-f84d-44f8-ae6f-805915b5b316"},"vehicle_type_id":"4","last_reported":1752768831,"current_range_meters":18000,"station_id":"ce4bgvh2rcd13ifvqcs0","pricing_plan_id":"cebpf4jnsgd1na2vs0mg"},{"bike_id":"080ee0f3-5635-4d04-b7b6-5c5d8d6224c0","system_id":"levelo_inurba_marseille","lat":43.23198,"lon":5.35538,"is_reserved":false,"is_disabled":false,"rental_uris":{"android":"levelo://app?vid=080ee0f3-5635-4d04-b7b6-5c5d8d6224c0","ios":"levelo://app?vid=080ee0f3-5635-4d04-b7b6-5c5d8d6224c0"},"vehicle_type_id":"4","last_reported":1752768831,"current_range_meters":18000,"station_id":"ce4bhu92rcd13ifvqi70","pricing_plan_id":"cebpf4jnsgd1na2vs0mg"},{"bike_id":"ea8239c6-d099-42a9-b54c-af65493c715d","system_id":"levelo_inurba_marseille","lat":43.28448,"lon":5.34983,"is_reserved":false,"is_disabled":false,"rental_uris":{"android":"levelo://app?vid=ea8239c6-d099-42a9-b54c-af65493c715d","ios":"levelo://app?vid=ea8239c6-d099-42a9-b54c-af65493c715d"},"vehicle_type_id":"4","last_reported":1752768831,"current_range_meters":18000,"station_id":"ce4bhbh2rcd13ifvqepg","pricing_plan_id":"cebpf4jnsgd1na2vs0mg"},{"bike_id":"b735d2d6-e7dd-4826-8fa2-392fb6dae109","system_id":"levelo_inurba_marseille","lat":43.25583,"lon":5.38235,"is_reserved":false,"is_disabled":false,"rental_uris":{"android":"levelo://app?vid=b735d2d6-e7dd-4826-8fa2-392fb6dae109","ios":"levelo://app?vid=b735d2d6-e7dd-4826-8fa2-392fb6dae109"},"vehicle_type_id":"4","last_reported":1752768831,"current_range_meters":17600,"station_id":"ce4bhih2rcd13ifvqfs0","pricing_plan_id":"cebpf4jnsgd1na2vs0mg"},{"bike_id":"66867a12-d88b-4820-bc2a-9a8726321e3c","system_id":"levelo_inurba_marseille","lat":43.295549,"lon":5.423009,"is_reserved":false,"is_disabled":false,"rental_uris":{"android":"levelo://app?vid=66867a12-d88b-4820-bc2a-9a8726321e3c","ios":"levelo://app?vid=66867a12-d88b-4820-bc2a-9a8726321e3c"},"vehicle_type_id":"4","last_reported":1752768831,"current_range_meters":18000,"station_id":"ce4bhph2rcd13ifvqhdg","pricing_plan_id":"cebpf4jnsgd1na2vs0mg"},{"bike_id":"409515f8-3415-426d-b0c7-61f840c7c187","system_id":"levelo_inurba_marseille","lat":43.22513,"lon":5.34761,"is_reserved":false,"is_disabled":false,"rental_uris":{"android":"levelo://app?vid=409515f8-3415-426d-b0c7-61f840c7c187","ios":"levelo://app?vid=409515f8-3415-426d-b0c7-61f840c7c187"},"vehicle_type_id":"4","last_reported":1752768831,"current_range_meters":18000,"station_id":"st_cvj5dfep6f1abm77gieg","pricing_plan_id":"cebpf4jnsgd1na2vs0mg"},{"bike_id":"4d8db11a-c280-4010-9072-2fcda39b09be","system_id":"levelo_inurba_marseille","lat":43.28923,"lon":5.38399,"is_reserved":false,"is_disabled":false,"rental_uris":{"android":"levelo://app?vid=4d8db11a-c280-4010-9072-2fcda39b09be","ios":"levelo://app?vid=4d8db11a-c280-4010-9072-2fcda39b09be"},"vehicle_type_id":"4","last_reported":1752768831,"current_range_meters":18000,"station_id":"ce4bh612rcd13ifvqe6g","pricing_plan_id":"cebpf4jnsgd1na2vs0mg"},{"bike_id":"b163a2e3-1019-4ef9-aa3f-4ca586bcee7f","system_id":"levelo_inurba_marseille","lat":43.30592,"lon":5.39352,"is_reserved":false,"is_disabled":false,"rental_uris":{"android":"levelo://app?vid=b163a2e3-1019-4ef9-aa3f-4ca586bcee7f","ios":"levelo://app?vid=b163a2e3-1019-4ef9-aa3f-4ca586bcee7f"},"vehicle_type_id":"4","last_reported":1752768831,"current_range_meters":18800,"station_id":"ce4bh0p2rcd13ifvqd80","pricing_plan_id":"cebpf4jnsgd1na2vs0mg"},{"bike_id":"01c4cad4-ab83-4c6c-bb99-def54328b75f","system_id":"levelo_inurba_marseille","lat":43.286194,"lon":5.350968,"is_reserved":false,"is_disabled":false,"rental_uris":{"android":"levelo://app?vid=01c4cad4-ab83-4c6c-bb99-def54328b75f","ios":"levelo://app?vid=01c4cad4-ab83-4c6c-bb99-def54328b75f"},"vehicle_type_id":"4","last_reported":1752768831,"current_range_meters":18800,"station_id":"ce4bhch2rcd13ifvqeug","pricing_plan_id":"cebpf4jnsgd1na2vs0mg"},{"bike_id":"3114c6b7-9bdf-404b-aa15-a60feb5a787b","system_id":"levelo_inurba_marseille","lat":43.31516,"lon":5.37287,"is_reserved":false,"is_disabled":false,"rental_uris":{"android":"levelo://app?vid=3114c6b7-9bdf-404b-aa15-a60feb5a787b","ios":"levelo://app?vid=3114c6b7-9bdf-404b-aa15-a60feb5a787b"},"vehicle_type_id":"4","last_reported":1752768831,"current_range_meters":18800,"station_id":"ce4bgt12rcd13ifvqcd0","pricing_plan_id":"cebpf4jnsgd1na2vs0mg"},{"bike_id":"e63db760-60f2-4063-aa2b-9e0100a40135","system_id":"levelo_inurba_marseille","lat":43.30769,"lon":5.42451,"is_reserved":false,"is_disabled":false,"rental_uris":{"android":"levelo://app?vid=e63db760-60f2-4063-aa2b-9e0100a40135","ios":"levelo://app?vid=e63db760-60f2-4063-aa2b-9e0100a40135"},"vehicle_type_id":"4","last_reported":1752768831,"current_range_meters":18800,"station_id":"st_cvj6ca6bvosntc0bfgr0","pricing_plan_id":"cebpf4jnsgd1na2vs0mg"},{"bike_id":"ce40837d-3edf-4cc2-a747-2f8d4ee2c7fb","system_id":"levelo_inurba_marseille","lat":43.225,"lon":5.34781,"is_reserved":false,"is_disabled":false,"rental_uris":{"android":"levelo://app?vid=ce40837d-3edf-4cc2-a747-2f8d4ee2c7fb","ios":"levelo://app?vid=ce40837d-3edf-4cc2-a747-2f8d4ee2c7fb"},"vehicle_type_id":"4","last_reported":1752768831,"current_range_meters":18800,"station_id":"st_cvj5dfep6f1abm77gieg","pricing_plan_id":"cebpf4jnsgd1na2vs0mg"},{"bike_id":"1fa6e47a-247c-43f3-a2d5-2457ee6c5d39","system_id":"levelo_inurba_marseille","lat":43.211948,"lon":5.350738,"is_reserved":false,"is_disabled":false,"rental_uris":{"android":"levelo://app?vid=1fa6e47a-247c-43f3-a2d5-2457ee6c5d39","ios":"levelo://app?vid=1fa6e47a-247c-43f3-a2d5-2457ee6c5d39"},"vehicle_type_id":"4","last_reported":1752768831,"current_range_meters":18800,"station_id":"st_cvj6sg6p6f1abm77japg","pricing_plan_id":"cebpf4jnsgd1na2vs0mg"},{"bike_id":"9e46aa88-7b19-47c3-b789-71b8902b53cb","system_id":"levelo_inurba_marseille","lat":43.28154,"lon":5.42643,"is_reserved":false,"is_disabled":false,"rental_uris":{"android":"levelo://app?vid=9e46aa88-7b19-47c3-b789-71b8902b53cb","ios":"levelo://app?vid=9e46aa88-7b19-47c3-b789-71b8902b53cb"},"vehicle_type_id":"4","last_reported":1752768831,"current_range_meters":18800,"station_id":"ce4bhnh2rcd13ifvqgug","pricing_plan_id":"cebpf4jnsgd1na2vs0mg"},{"bike_id":"f9526a10-0fd9-429e-8168-ebf17aea363e","system_id":"levelo_inurba_marseille","lat":43.282472,"lon":5.350662,"is_reserved":false,"is_disabled":false,"rental_uris":{"android":"levelo://app?vid=f9526a10-0fd9-429e-8168-ebf17aea363e","ios":"levelo://app?vid=f9526a10-0fd9-429e-8168-ebf17aea363e"},"vehicle_type_id":"4","last_reported":1752768831,"current_range_meters":18800,"station_id":"ce4bhbp2rcd13ifvqerg","pricing_plan_id":"cebpf4jnsgd1na2vs0mg"},{"bike_id":"ce7bd25b-5213-4881-a28b-f582e6a1d712","system_id":"levelo_inurba_marseille","lat":43.313638,"lon":5.367116,"is_reserved":false,"is_disabled":true,"rental_uris":{"android":"levelo://app?vid=ce7bd25b-5213-4881-a28b-f582e6a1d712","ios":"levelo://app?vid=ce7bd25b-5213-4881-a28b-f582e6a1d712"},"vehicle_type_id":"4","last_reported":1752768831,"current_range_meters":18800,"station_id":"ce4bgr92rcd13ifvqc6g","pricing_plan_id":"cebpf4jnsgd1na2vs0mg"},{"bike_id":"d8eb8f2f-df0a-4c63-af99-112cd7385b86","system_id":"levelo_inurba_marseille","lat":43.28599,"lon":5.35132,"is_reserved":false,"is_disabled":false,"rental_uris":{"android":"levelo://app?vid=d8eb8f2f-df0a-4c63-af99-112cd7385b86","ios":"levelo://app?vid=d8eb8f2f-df0a-4c63-af99-112cd7385b86"},"vehicle_type_id":"4","last_reported":1752768831,"current_range_meters":18800,"station_id":"ce4bhch2rcd13ifvqeug","pricing_plan_id":"cebpf4jnsgd1na2vs0mg"},{"bike_id":"73bd09fd-a2ba-4bdb-ad16-3a12ba103342","system_id":"levelo_inurba_marseille","lat":43.28615,"lon":5.35107,"is_reserved":false,"is_disabled":false,"rental_uris":{"android":"levelo://app?vid=73bd09fd-a2ba-4bdb-ad16-3a12ba103342","ios":"levelo://app?vid=73bd09fd-a2ba-4bdb-ad16-3a12ba103342"},"vehicle_type_id":"4","last_reported":1752768831,"current_range_meters":18800,"station_id":"ce4bhch2rcd13ifvqeug","pricing_plan_id":"cebpf4jnsgd1na2vs0mg"},{"bike_id":"50ad008f-9c68-4aa1-82b5-61c694aace8d","system_id":"levelo_inurba_marseille","lat":43.28622,"lon":5.35109,"is_reserved":false,"is_disabled":false,"rental_uris":{"android":"levelo://app?vid=50ad008f-9c68-4aa1-82b5-61c694aace8d","ios":"levelo://app?vid=50ad008f-9c68-4aa1-82b5-61c694aace8d"},"vehicle_type_id":"4","last_reported":1752768831,"current_range_meters":19200,"station_id":"ce4bhch2rcd13ifvqeug","pricing_plan_id":"cebpf4jnsgd1na2vs0mg"},{"bike_id":"65de2c7b-bb6b-4532-ad81-ade1b6378a63","system_id":"levelo_inurba_marseille","lat":43.27387,"lon":5.36251,"is_reserved":false,"is_disabled":false,"rental_uris":{"android":"levelo://app?vid=65de2c7b-bb6b-4532-ad81-ade1b6378a63","ios":"levelo://app?vid=65de2c7b-bb6b-4532-ad81-ade1b6378a63"},"vehicle_type_id":"4","last_reported":1752768831,"current_range_meters":19200,"station_id":"ce4bhbh2rcd13ifvqeo0","pricing_plan_id":"cebpf4jnsgd1na2vs0mg"},{"bike_id":"ac0ed4be-466c-4caa-b855-3c6bbe5a11b5","system_id":"levelo_inurba_marseille","lat":43.267616,"lon":5.371915,"is_reserved":false,"is_disabled":false,"rental_uris":{"android":"levelo://app?vid=ac0ed4be-466c-4caa-b855-3c6bbe5a11b5","ios":"levelo://app?vid=ac0ed4be-466c-4caa-b855-3c6bbe5a11b5"},"vehicle_type_id":"4","last_reported":1752768831,"current_range_meters":19200,"station_id":"","pricing_plan_id":"cebpf4jnsgd1na2vs0mg"},{"bike_id":"9e599d24-8bd8-4636-ad57-522e6529d764","system_id":"levelo_inurba_marseille","lat":43.28408,"lon":5.34932,"is_reserved":false,"is_disabled":false,"rental_uris":{"android":"levelo://app?vid=9e599d24-8bd8-4636-ad57-522e6529d764","ios":"levelo://app?vid=9e599d24-8bd8-4636-ad57-522e6529d764"},"vehicle_type_id":"4","last_reported":1752768831,"current_range_meters":19200,"station_id":"ce4bhbh2rcd13ifvqepg","pricing_plan_id":"cebpf4jnsgd1na2vs0mg"},{"bike_id":"043b4802-c77d-4fba-9d7f-0f7bf8b48342","system_id":"levelo_inurba_marseille","lat":43.29178,"lon":5.37143,"is_reserved":false,"is_disabled":false,"rental_uris":{"android":"levelo://app?vid=043b4802-c77d-4fba-9d7f-0f7bf8b48342","ios":"levelo://app?vid=043b4802-c77d-4fba-9d7f-0f7bf8b48342"},"vehicle_type_id":"4","last_reported":1752768831,"current_range_meters":19200,"station_id":"ce4bha92rcd13ifvqeh0","pricing_plan_id":"cebpf4jnsgd1na2vs0mg"},{"bike_id":"56b54771-d6ee-4a6c-a04c-525d213c105c","system_id":"levelo_inurba_marseille","lat":43.30601,"lon":5.39371,"is_reserved":false,"is_disabled":false,"rental_uris":{"android":"levelo://app?vid=56b54771-d6ee-4a6c-a04c-525d213c105c","ios":"levelo://app?vid=56b54771-d6ee-4a6c-a04c-525d213c105c"},"vehicle_type_id":"4","last_reported":1752768831,"current_range_meters":19200,"station_id":"ce4bh0p2rcd13ifvqd80","pricing_plan_id":"cebpf4jnsgd1na2vs0mg"},{"bike_id":"e1718708-a976-4b2b-b83f-8e3d1328b8e3","system_id":"levelo_inurba_marseille","lat":43.30142,"lon":5.37419,"is_reserved":false,"is_disabled":false,"rental_uris":{"android":"levelo://app?vid=e1718708-a976-4b2b-b83f-8e3d1328b8e3","ios":"levelo://app?vid=e1718708-a976-4b2b-b83f-8e3d1328b8e3"},"vehicle_type_id":"4","last_reported":1752768831,"current_range_meters":18800,"station_id":"ce4bgs92rcd13ifvqcc0","pricing_plan_id":"cebpf4jnsgd1na2vs0mg"},{"bike_id":"6a737cae-81af-4cea-a9c2-583961550529","system_id":"levelo_inurba_marseille","lat":43.23197,"lon":5.35548,"is_reserved":false,"is_disabled":false,"rental_uris":{"android":"levelo://app?vid=6a737cae-81af-4cea-a9c2-583961550529","ios":"levelo://app?vid=6a737cae-81af-4cea-a9c2-583961550529"},"vehicle_type_id":"4","last_reported":1752768831,"current_range_meters":19200,"station_id":"ce4bhu92rcd13ifvqi70","pricing_plan_id":"cebpf4jnsgd1na2vs0mg"},{"bike_id":"299342cc-9868-4134-ba17-8b7e284da160","system_id":"levelo_inurba_marseille","lat":43.3079,"lon":5.37648,"is_reserved":false,"is_disabled":false,"rental_uris":{"android":"levelo://app?vid=299342cc-9868-4134-ba17-8b7e284da160","ios":"levelo://app?vid=299342cc-9868-4134-ba17-8b7e284da160"},"vehicle_type_id":"4","last_reported":1752768831,"current_range_meters":19200,"station_id":"ce4bgv92rcd13ifvqcq0","pricing_plan_id":"cebpf4jnsgd1na2vs0mg"},{"bike_id":"cadea642-b458-47b6-a85a-eda4e42cd330","system_id":"levelo_inurba_marseille","lat":43.29628,"lon":5.37723,"is_reserved":false,"is_disabled":false,"rental_uris":{"android":"levelo://app?vid=cadea642-b458-47b6-a85a-eda4e42cd330","ios":"levelo://app?vid=cadea642-b458-47b6-a85a-eda4e42cd330"},"vehicle_type_id":"4","last_reported":1752768831,"current_range_meters":19200,"station_id":"ce4bgi92rcd13ifvqb90","pricing_plan_id":"cebpf4jnsgd1na2vs0mg"},{"bike_id":"84d4903e-f3e9-487a-a1be-a3d7f31aa7ca","system_id":"levelo_inurba_marseille","lat":43.32376,"lon":5.38868,"is_reserved":false,"is_disabled":false,"rental_uris":{"android":"levelo://app?vid=84d4903e-f3e9-487a-a1be-a3d7f31aa7ca","ios":"levelo://app?vid=84d4903e-f3e9-487a-a1be-a3d7f31aa7ca"},"vehicle_type_id":"4","last_reported":1752768831,"current_range_meters":19200,"station_id":"ce4bhqp2rcd13ifvqhog","pricing_plan_id":"cebpf4jnsgd1na2vs0mg"},{"bike_id":"cfb52d04-9134-4c86-8269-771716b20f27","system_id":"levelo_inurba_marseille","lat":43.21194,"lon":5.35064,"is_reserved":false,"is_disabled":false,"rental_uris":{"android":"levelo://app?vid=cfb52d04-9134-4c86-8269-771716b20f27","ios":"levelo://app?vid=cfb52d04-9134-4c86-8269-771716b20f27"},"vehicle_type_id":"4","last_reported":1752768831,"current_range_meters":19200,"station_id":"st_cvj6sg6p6f1abm77japg","pricing_plan_id":"cebpf4jnsgd1na2vs0mg"},{"bike_id":"03c4e37a-9d44-4a60-b09e-c2fe99e2bf34","system_id":"levelo_inurba_marseille","lat":43.229279,"lon":5.353813,"is_reserved":false,"is_disabled":false,"rental_uris":{"android":"levelo://app?vid=03c4e37a-9d44-4a60-b09e-c2fe99e2bf34","ios":"levelo://app?vid=03c4e37a-9d44-4a60-b09e-c2fe99e2bf34"},"vehicle_type_id":"4","last_reported":1752768831,"current_range_meters":19200,"station_id":"cpo3532slgdg3j2ikp40","pricing_plan_id":"cebpf4jnsgd1na2vs0mg"},{"bike_id":"68ad8dec-7e10-49a5-bbca-49852b3ff110","system_id":"levelo_inurba_marseille","lat":43.29012,"lon":5.35607,"is_reserved":false,"is_disabled":false,"rental_uris":{"android":"levelo://app?vid=68ad8dec-7e10-49a5-bbca-49852b3ff110","ios":"levelo://app?vid=68ad8dec-7e10-49a5-bbca-49852b3ff110"},"vehicle_type_id":"4","last_reported":1752768831,"current_range_meters":19200,"station_id":"ce4bhb92rcd13ifvqen0","pricing_plan_id":"cebpf4jnsgd1na2vs0mg"},{"bike_id":"5ac93e7c-286a-4c1e-b6c0-4e9963e5a9f8","system_id":"levelo_inurba_marseille","lat":43.21197,"lon":5.35077,"is_reserved":false,"is_disabled":false,"rental_uris":{"android":"levelo://app?vid=5ac93e7c-286a-4c1e-b6c0-4e9963e5a9f8","ios":"levelo://app?vid=5ac93e7c-286a-4c1e-b6c0-4e9963e5a9f8"},"vehicle_type_id":"4","last_reported":1752768831,"current_range_meters":19200,"station_id":"st_cvj6sg6p6f1abm77japg","pricing_plan_id":"cebpf4jnsgd1na2vs0mg"},{"bike_id":"c83e5866-3057-41c7-b1dc-bfd42f8bcd2a","system_id":"levelo_inurba_marseille","lat":43.231416,"lon":5.437164,"is_reserved":false,"is_disabled":false,"rental_uris":{"android":"levelo://app?vid=c83e5866-3057-41c7-b1dc-bfd42f8bcd2a","ios":"levelo://app?vid=c83e5866-3057-41c7-b1dc-bfd42f8bcd2a"},"vehicle_type_id":"4","last_reported":1752768831,"current_range_meters":19600,"station_id":"ce4bhmp2rcd13ifvqgog","pricing_plan_id":"cebpf4jnsgd1na2vs0mg"},{"bike_id":"0538bafd-98ca-45de-b6fa-53be7f564d08","system_id":"levelo_inurba_marseille","lat":43.2439,"lon":5.37041,"is_reserved":false,"is_disabled":false,"rental_uris":{"android":"levelo://app?vid=0538bafd-98ca-45de-b6fa-53be7f564d08","ios":"levelo://app?vid=0538bafd-98ca-45de-b6fa-53be7f564d08"},"vehicle_type_id":"4","last_reported":1752768831,"current_range_meters":19200,"station_id":"ce4bhhh2rcd13ifvqfk0","pricing_plan_id":"cebpf4jnsgd1na2vs0mg"},{"bike_id":"eb5e954c-b3bf-48c3-aa20-b166f84e680c","system_id":"levelo_inurba_marseille","lat":43.28424,"lon":5.34998,"is_reserved":false,"is_disabled":false,"rental_uris":{"android":"levelo://app?vid=eb5e954c-b3bf-48c3-aa20-b166f84e680c","ios":"levelo://app?vid=eb5e954c-b3bf-48c3-aa20-b166f84e680c"},"vehicle_type_id":"4","last_reported":1752768831,"current_range_meters":19600,"station_id":"ce4bhbh2rcd13ifvqepg","pricing_plan_id":"cebpf4jnsgd1na2vs0mg"},{"bike_id":"39156484-d3df-4ce6-9da5-beeab1f9c214","system_id":"levelo_inurba_marseille","lat":43.21753,"lon":5.34612,"is_reserved":false,"is_disabled":false,"rental_uris":{"android":"levelo://app?vid=39156484-d3df-4ce6-9da5-beeab1f9c214","ios":"levelo://app?vid=39156484-d3df-4ce6-9da5-beeab1f9c214"},"vehicle_type_id":"4","last_reported":1752768831,"current_range_meters":19600,"station_id":"st_cvj6r9ubvosntc0bgbag","pricing_plan_id":"cebpf4jnsgd1na2vs0mg"},{"bike_id":"9143f205-eeae-4c07-8a55-fe9acb6ec503","system_id":"levelo_inurba_marseille","lat":43.27909,"lon":5.38009,"is_reserved":false,"is_disabled":false,"rental_uris":{"android":"levelo://app?vid=9143f205-eeae-4c07-8a55-fe9acb6ec503","ios":"levelo://app?vid=9143f205-eeae-4c07-8a55-fe9acb6ec503"},"vehicle_type_id":"4","last_reported":1752768831,"current_range_meters":19600,"station_id":"ce4bhf92rcd13ifvqf50","pricing_plan_id":"cebpf4jnsgd1na2vs0mg"},{"bike_id":"22ba1ce5-27cf-45e5-9995-286594a07213","system_id":"levelo_inurba_marseille","lat":43.27614,"lon":5.36103,"is_reserved":false,"is_disabled":false,"rental_uris":{"android":"levelo://app?vid=22ba1ce5-27cf-45e5-9995-286594a07213","ios":"levelo://app?vid=22ba1ce5-27cf-45e5-9995-286594a07213"},"vehicle_type_id":"4","last_reported":1752768831,"current_range_meters":19600,"station_id":"ce4bgj92rcd13ifvqbe0","pricing_plan_id":"cebpf4jnsgd1na2vs0mg"},{"bike_id":"2d95b47d-d06f-40a4-bb6e-c13e954e3c8f","system_id":"levelo_inurba_marseille","lat":43.27717,"lon":5.414331,"is_reserved":false,"is_disabled":false,"rental_uris":{"android":"levelo://app?vid=2d95b47d-d06f-40a4-bb6e-c13e954e3c8f","ios":"levelo://app?vid=2d95b47d-d06f-40a4-bb6e-c13e954e3c8f"},"vehicle_type_id":"4","last_reported":1752768831,"current_range_meters":19600,"station_id":"","pricing_plan_id":"cebpf4jnsgd1na2vs0mg"},{"bike_id":"3738cd27-dd71-4870-a1d3-1942cdb7467c","system_id":"levelo_inurba_marseille","lat":43.31074,"lon":5.38352,"is_reserved":false,"is_disabled":false,"rental_uris":{"android":"levelo://app?vid=3738cd27-dd71-4870-a1d3-1942cdb7467c","ios":"levelo://app?vid=3738cd27-dd71-4870-a1d3-1942cdb7467c"},