{"last_updated":1702587997,"ttl":30,"version":"2.2","data":{"bikes":[{"bike_id":"d1b8b40d-0c2e-46f2-b888-c95f6422cfbb","system_id":"levelo_inurba_marseille","lat":43.31341,"lon":5.367098,"is_reserved":false,"is_disabled":false,"rental_uris":{"android":"levelo://app?vid=d1b8b40d-0c2e-46f2-b888-c95f6422cfbb","ios":"levelo://app?vid=d1b8b40d-0c2e-46f2-b888-c95f6422cfbb"},"vehicle_type_id":"4","last_reported":1702587997,"current_range_meters":18400,"station_id":"ce4bgr92rcd13ifvqc6g","pricing_plan_id":"free"},{"bike_id":"15562d9a-f3db-4957-8f35-bfb6b2a240b5","system_id":"levelo_inurba_marseille","lat":43.312239,"lon":5.368562,"is_reserved":false,"is_disabled":false,"rental_uris":{"android":"levelo://app?vid=15562d9a-f3db-4957-8f35-bfb6b2a240b5","ios":"levelo://app?vid=15562d9a-f3db-4957-8f35-bfb6b2a240b5"},"vehicle_type_id":"4","last_reported":1702587997,"current_range_meters":28800,"station_id":"ce4bgl92rcd13ifvqbq0","pricing_plan_id":"free"},{"bike_id":"f8ebcb82-3274-497d-9b14-64d4a3b701b9","system_id":"levelo_inurba_marseille","lat":43.309039,"lon":5.371797,"is_reserved":false,"is_disabled":false,"rental_uris":{"android":"levelo://app?vid=f8ebcb82-3274-497d-9b14-64d4a3b701b9","ios":"levelo://app?vid=f8ebcb82-3274-497d-9b14-64d4a3b701b9"},"vehicle_type_id":"4","last_reported":1702587997,"current_range_meters":27200,"station_id":"ce4bguh2rcd13ifvqckg","pricing_plan_id":"free"},{"bike_id":"6598fe0a-0e14-432a-8111-f8b14e8fe7d0","system_id":"levelo_inurba_marseille","lat":43.31545,"lon":5.37313,"is_reserved":false,"is_disabled":false,"rental_uris":{"android":"levelo://app?vid=6598fe0a-0e14-432a-8111-f8b14e8fe7d0","ios":"levelo://app?vid=6598fe0a-0e14-432a-8111-f8b14e8fe7d0"},"vehicle_type_id":"4","last_reported":1702587997,"current_range_meters":23200,"station_id":"","pricing_plan_id":"free"},{"bike_id":"3f8b821f-e430-4a35-bf14-f8b6e777ea11","system_id":"levelo_inurba_marseille","lat":43.313939,"lon":5.375306,"is_reserved":false,"is_disabled":false,"rental_uris":{"android":"levelo://app?vid=3f8b821f-e430-4a35-bf14-f8b6e777ea11","ios":"levelo://app?vid=3f8b821f-e430-4a35-bf14-f8b6e777ea11"},"vehicle_type_id":"4","last_reported":1702587997,"current_range_meters":2400,"station_id":"","pricing_plan_id":"free"},{"bike_id":"955e4ab2-16e5-44e8-a986-a2f50ff96c06","system_id":"levelo_inurba_marseille","lat":43.305382,"lon":5.365389,"is_reserved":false,"is_disabled":false,"rental_uris":{"android":"levelo://app?vid=955e4ab2-16e5-44e8-a986-a2f50ff96c06","ios":"levelo://app?vid=955e4ab2-16e5-44e8-a986-a2f50ff96c06"},"vehicle_type_id":"4","last_reported":1702587997,"current_range_meters":22000,"station_id":"","pricing_plan_id":"free"},{"bike_id":"26633d32-5dc2-4b6a-aff9-d4819b77d8d1","system_id":"levelo_inurba_marseille","lat":43.307945,"lon":5.376487,"is_reserved":false,"is_disabled":false,"rental_uris":{"android":"levelo://app?vid=26633d32-5dc2-4b6a-aff9-d4819b77d8d1","ios":"levelo://app?vid=26633d32-5dc2-4b6a-aff9-d4819b77d8d1"},"vehicle_type_id":"4","last_reported":1702587997,"current_range_meters":1600,"station_id":"ce4bgv92rcd13ifvqcq0","pricing_plan_id":"free"},{"bike_id":"f68dd4ab-8dee-4dfc-8773-6752079e58ee","system_id":"levelo_inurba_marseille","lat":43.307945,"lon":5.376487,"is_reserved":false,"is_disabled":false,"rental_uris":{"android":"levelo://app?vid=f68dd4ab-8dee-4dfc-8773-6752079e58ee","ios":"levelo://app?vid=f68dd4ab-8dee-4dfc-8773-6752079e58ee"},"vehicle_type_id":"4","last_reported":1702587997,"current_range_meters":23200,"station_id":"ce4bgv92rcd13ifvqcq0","pricing_plan_id":"free"},{"bike_id":"801a9e75-8b76-4a99-9cc7-be68011b2c44","system_id":"levelo_inurba_marseille","lat":43.317075,"lon":5.377367,"is_reserved":false,"is_disabled":false,"rental_uris":{"android":"levelo://app?vid=801a9e75-8b76-4a99-9cc7-be68011b2c44","ios":"levelo://app?vid=801a9e75-8b76-4a99-9cc7-be68011b2c44"},"vehicle_type_id":"4","last_reported":1702587997,"current_range_meters":20000,"station_id":"ce4bgth2rcd13ifvqch0","pricing_plan_id":"free"},{"bike_id":"6a3ae692-8bea-46e0-a1d8-69b8633e148e","system_id":"levelo_inurba_marseille","lat":43.317075,"lon":5.377367,"is_reserved":false,"is_disabled":false,"rental_uris":{"android":"levelo://app?vid=6a3ae692-8bea-46e0-a1d8-69b8633e148e","ios":"levelo://app?vid=6a3ae692-8bea-46e0-a1d8-69b8633e148e"},"vehicle_type_id":"4","last_reported":1702587997,"current_range_meters":31600,"station_id":"ce4bgth2rcd13ifvqch0","pricing_plan_id":"free"},{"bike_id":"c51d1b06-b69c-4bdd-9116-63755e7e48f3","system_id":"levelo_inurba_marseille","lat":43.303046,"lon":5.368981,"is_reserved":false,"is_disabled":false,"rental_uris":{"android":"levelo://app?vid=c51d1b06-b69c-4bdd-9116-63755e7e48f3","ios":"levelo://app?vid=c51d1b06-b69c-4bdd-9116-63755e7e48f3"},"vehicle_type_id":"4","last_reported":1702587997,"current_range_meters":14800,"station_id":"ce4bgqh2rcd13ifvqc5g","pricing_plan_id":"free"},{"bike_id":"96bbf2a3-6eea-4dee-ae9d-bf1b6e0334cf","system_id":"levelo_inurba_marseille","lat":43.301939,"lon":5.366286,"is_reserved":false,"is_disabled":false,"rental_uris":{"android":"levelo://app?vid=96bbf2a3-6eea-4dee-ae9d-bf1b6e0334cf","ios":"levelo://app?vid=96bbf2a3-6eea-4dee-ae9d-bf1b6e0334cf"},"vehicle_type_id":"4","last_reported":1702587997,"current_range_meters":6800,"station_id":"ce4bgrh2rcd13ifvqc8g","pricing_plan_id":"free"},{"bike_id":"8998e859-7bb3-466c-a005-d2317879f687","system_id":"levelo_inurba_marseille","lat":43.301939,"lon":5.366286,"is_reserved":false,"is_disabled":false,"rental_uris":{"android":"levelo://app?vid=8998e859-7bb3-466c-a005-d2317879f687","ios":"levelo://app?vid=8998e859-7bb3-466c-a005-d2317879f687"},"vehicle_type_id":"4","last_reported":1702587997,"current_range_meters":11200,"station_id":"ce4bgrh2rcd13ifvqc8g","pricing_plan_id":"free"},{"bike_id":"014a9482-bce9-4fd0-8ef2-5474d15221f0","system_id":"levelo_inurba_marseille","lat":43.308012,"lon":5.381511,"is_reserved":false,"is_disabled":false,"rental_uris":{"android":"levelo://app?vid=014a9482-bce9-4fd0-8ef2-5474d15221f0","ios":"levelo://app?vid=014a9482-bce9-4fd0-8ef2-5474d15221f0"},"vehicle_type_id":"4","last_reported":1702587997,"current_range_meters":28800,"station_id":"ce4bgt12rcd13ifvqce0","pricing_plan_id":"free"},{"bike_id":"a96f68e5-acda-481b-b37f-b667e24e37b3","system_id":"levelo_inurba_marseille","lat":43.304606,"lon":5.379026,"is_reserved":false,"is_disabled":false,"rental_uris":{"android":"levelo://app?vid=a96f68e5-acda-481b-b37f-b667e24e37b3","ios":"levelo://app?vid=a96f68e5-acda-481b-b37f-b667e24e37b3"},"vehicle_type_id":"4","last_reported":1702587997,"current_range_meters":3200,"station_id":"ce4bgup2rcd13ifvqcn0","pricing_plan_id":"free"},{"bike_id":"fb193a26-b279-4cb1-bd0e-b8ee2c2fe7a2","system_id":"levelo_inurba_marseille","lat":43.304606,"lon":5.379026,"is_reserved":false,"is_disabled":false,"rental_uris":{"android":"levelo://app?vid=fb193a26-b279-4cb1-bd0e-b8ee2c2fe7a2","ios":"levelo://app?vid=fb193a26-b279-4cb1-bd0e-b8ee2c2fe7a2"},"vehicle_type_id":"4","last_reported":1702587997,"current_range_meters":29600,"station_id":"ce4bgup2rcd13ifvqcn0","pricing_plan_id":"free"},{"bike_id":"8637264b-002c-457a-acbb-f7160ffd1ea4","system_id":"levelo_inurba_marseille","lat":43.304606,"lon":5.379026,"is_reserved":false,"is_disabled":false,"rental_uris":{"android":"levelo://app?vid=8637264b-002c-457a-acbb-f7160ffd1ea4","ios":"levelo://app?vid=8637264b-002c-457a-acbb-f7160ffd1ea4"},"vehicle_type_id":"4","last_reported":1702587997,"current_range_meters":11600,"station_id":"ce4bgup2rcd13ifvqcn0","pricing_plan_id":"free"},{"bike_id":"1c80c02b-a6a9-499d-929c-f2a26ab3d2f2","system_id":"levelo_inurba_marseille","lat":43.304606,"lon":5.379026,"is_reserved":false,"is_disabled":false,"rental_uris":{"android":"levelo://app?vid=1c80c02b-a6a9-499d-929c-f2a26ab3d2f2","ios":"levelo://app?vid=1c80c02b-a6a9-499d-929c-f2a26ab3d2f2"},"vehicle_type_id":"4","last_reported":1702587997,"current_range_meters":26000,"station_id":"ce4bgup2rcd13ifvqcn0","pricing_plan_id":"free"},{"bike_id":"e42f8016-1dda-4533-b524-263b36a0d388","system_id":"levelo_inurba_marseille","lat":43.304606,"lon":5.379026,"is_reserved":false,"is_disabled":false,"rental_uris":{"android":"levelo://app?vid=e42f8016-1dda-4533-b524-263b36a0d388","ios":"levelo://app?vid=e42f8016-1dda-4533-b524-263b36a0d388"},"vehicle_type_id":"4","last_reported":1702587997,"current_range_meters":17200,"station_id":"ce4bgup2rcd13ifvqcn0","pricing_plan_id":"free"},{"bike_id":"fc36a80e-2c38-46cf-b093-b9442e4d05e0","system_id":"levelo_inurba_marseille","lat":43.304606,"lon":5.379026,"is_reserved":false,"is_disabled":false,"rental_uris":{"android":"levelo://app?vid=fc36a80e-2c38-46cf-b093-b9442e4d05e0","ios":"levelo://app?vid=fc36a80e-2c38-46cf-b093-b9442e4d05e0"},"vehicle_type_id":"4","last_reported":1702587997,"current_range_meters":6000,"station_id":"ce4bgup2rcd13ifvqcn0","pricing_plan_id":"free"},{"bike_id":"e4d8a8e2-b31f-4735-a2dc-346cd7d2655c","system_id":"levelo_inurba_marseille","lat":43.304606,"lon":5.379026,"is_reserved":false,"is_disabled":false,"rental_uris":{"android":"levelo://app?vid=e4d8a8e2-b31f-4735-a2dc-346cd7d2655c","ios":"levelo://app?vid=e4d8a8e2-b31f-4735-a2dc-346cd7d2655c"},"vehicle_type_id":"4","last_reported":1702587997,"current_range_meters":26800,"station_id":"ce4bgup2rcd13ifvqcn0","pricing_plan_id":"free"},{"bike_id":"2100e8c0-501c-42c1-aebf-724a93a2a23c","system_id":"levelo_inurba_marseille","lat":43.3242,"lon":5.3738,"is_reserved":false,"is_disabled":false,"rental_uris":{"android":"levelo://app?vid=2100e8c0-501c-42c1-aebf-724a93a2a23c","ios":"levelo://app?vid=2100e8c0-501c-42c1-aebf-724a93a2a23c"},"vehicle_type_id":"4","last_reported":1702587997,"current_range_meters":24000,"station_id":"","pricing_plan_id":"free"},{"bike_id":"dfb8b2c4-afb3-44e0-bb8f-5e69b88821cf","system_id":"levelo_inurba_marseille","lat":43.319935,"lon":5.381699,"is_reserved":false,"is_disabled":false,"rental_uris":{"android":"levelo://app?vid=dfb8b2c4-afb3-44e0-bb8f-5e69b88821cf","ios":"levelo://app?vid=dfb8b2c4-afb3-44e0-bb8f-5e69b88821cf"},"vehicle_type_id":"4","last_reported":1702587997,"current_range_meters":16000,"station_id":"ce4bhr12rcd13ifvqhpg","pricing_plan_id":"free"},{"bike_id":"fdcd74e0-5fce-436e-805d-ade6ef010660","system_id":"levelo_inurba_marseille","lat":43.319935,"lon":5.381699,"is_reserved":false,"is_disabled":false,"rental_uris":{"android":"levelo://app?vid=fdcd74e0-5fce-436e-805d-ade6ef010660","ios":"levelo://app?vid=fdcd74e0-5fce-436e-805d-ade6ef010660"},"vehicle_type_id":"4","last_reported":1702587997,"current_range_meters":1600,"station_id":"ce4bhr12rcd13ifvqhpg","pricing_plan_id":"free"},{"bike_id":"dc11063a-44ce-4604-be3b-1e17a4936ec2","system_id":"levelo_inurba_marseille","lat":43.313571,"lon":5.384829,"is_reserved":false,"is_disabled":false,"rental_uris":{"android":"levelo://app?vid=dc11063a-44ce-4604-be3b-1e17a4936ec2","ios":"levelo://app?vid=dc11063a-44ce-4604-be3b-1e17a4936ec2"},"vehicle_type_id":"4","last_reported":1702587997,"current_range_meters":28000,"station_id":"ce4bgt92rcd13ifvqcf0","pricing_plan_id":"free"},{"bike_id":"96f9c007-ff09-4dfc-b4c5-7628a1436bae","system_id":"levelo_inurba_marseille","lat":43.299724,"lon":5.371829,"is_reserved":false,"is_disabled":false,"rental_uris":{"android":"levelo://app?vid=96f9c007-ff09-4dfc-b4c5-7628a1436bae","ios":"levelo://app?vid=96f9c007-ff09-4dfc-b4c5-7628a1436bae"},"vehicle_type_id":"4","last_reported":1702587997,"current_range_meters":16800,"station_id":"ce4bgr92rcd13ifvqc7g","pricing_plan_id":"free"},{"bike_id":"2584d529-803b-47fc-b758-ea5b9f34a233","system_id":"levelo_inurba_marseille","lat":43.297794,"lon":5.370888,"is_reserved":false,"is_disabled":false,"rental_uris":{"android":"levelo://app?vid=2584d529-803b-47fc-b758-ea5b9f34a233","ios":"levelo://app?vid=2584d529-803b-47fc-b758-ea5b9f34a233"},"vehicle_type_id":"4","last_reported":1702587997,"current_range_meters":27600,"station_id":"ce4bgop2rcd13ifvqc1g","pricing_plan_id":"free"},{"bike_id":"d7461d59-1e09-4698-a430-3b81cb30489d","system_id":"levelo_inurba_marseille","lat":43.297794,"lon":5.370888,"is_reserved":false,"is_disabled":false,"rental_uris":{"android":"levelo://app?vid=d7461d59-1e09-4698-a430-3b81cb30489d","ios":"levelo://app?vid=d7461d59-1e09-4698-a430-3b81cb30489d"},"vehicle_type_id":"4","last_reported":1702587997,"current_range_meters":5600,"station_id":"ce4bgop2rcd13ifvqc1g","pricing_plan_id":"free"},{"bike_id":"430d76c5-f34c-47b0-9f38-a5de0947d54d","system_id":"levelo_inurba_marseille","lat":43.297794,"lon":5.370888,"is_reserved":false,"is_disabled":false,"rental_uris":{"android":"levelo://app?vid=430d76c5-f34c-47b0-9f38-a5de0947d54d","ios":"levelo://app?vid=430d76c5-f34c-47b0-9f38-a5de0947d54d"},"vehicle_type_id":"4","last_reported":1702587997,"current_range_meters":10800,"station_id":"ce4bgop2rcd13ifvqc1g","pricing_plan_id":"free"},{"bike_id":"0eea8a30-88a6-46e7-9a8c-2c6a74a10c02","system_id":"levelo_inurba_marseille","lat":43.322872,"lon":5.382756,"is_reserved":false,"is_disabled":false,"rental_uris":{"android":"levelo://app?vid=0eea8a30-88a6-46e7-9a8c-2c6a74a10c02","ios":"levelo://app?vid=0eea8a30-88a6-46e7-9a8c-2c6a74a10c02"},"vehicle_type_id":"4","last_reported":1702587997,"current_range_meters":2400,"station_id":"ce4bhr12rcd13ifvqhqg","pricing_plan_id":"free"},{"bike_id":"975b6a93-9a93-4fbc-8190-13b430d64414","system_id":"levelo_inurba_marseille","lat":43.322872,"lon":5.382756,"is_reserved":false,"is_disabled":false,"rental_uris":{"android":"levelo://app?vid=975b6a93-9a93-4fbc-8190-13b430d64414","ios":"levelo://app?vid=975b6a93-9a93-4fbc-8190-13b430d64414"},"vehicle_type_id":"4","last_reported":1702587997,"current_range_meters":31200,"station_id":"ce4bhr12rcd13ifvqhqg","pricing_plan_id":"free"},{"bike_id":"e6d90668-f572-4bd6-b0eb-3898cf17d80d","system_id":"levelo_inurba_marseille","lat":43.3283,"lon":5.366825,"is_reserved":false,"is_disabled":false,"rental_uris":{"android":"levelo://app?vid=e6d90668-f572-4bd6-b0eb-3898cf17d80d","ios":"levelo://app?vid=e6d90668-f572-4bd6-b0eb-3898cf17d80d"},"vehicle_type_id":"4","last_reported":1702587997,"current_range_meters":13600,"station_id":"ce4bhs92rcd13ifvqi0g","pricing_plan_id":"free"},{"bike_id":"3da0a5ed-5b88-4e6d-9dd4-36b2db4d2363","system_id":"levelo_inurba_marseille","lat":43.328371,"lon":5.366909,"is_reserved":false,"is_disabled":false,"rental_uris":{"android":"levelo://app?vid=3da0a5ed-5b88-4e6d-9dd4-36b2db4d2363","ios":"levelo://app?vid=3da0a5ed-5b88-4e6d-9dd4-36b2db4d2363"},"vehicle_type_id":"4","last_reported":1702587997,"current_range_meters":18400,"station_id":"ce4bhs92rcd13ifvqi0g","pricing_plan_id":"free"},{"bike_id":"98b5fa64-e3ed-4ec7-af7c-c042242233af","system_id":"levelo_inurba_marseille","lat":43.295927,"lon":5.367663,"is_reserved":false,"is_disabled":false,"rental_uris":{"android":"levelo://app?vid=98b5fa64-e3ed-4ec7-af7c-c042242233af","ios":"levelo://app?vid=98b5fa64-e3ed-4ec7-af7c-c042242233af"},"vehicle_type_id":"4","last_reported":1702587997,"current_range_meters":13200,"station_id":"ce4bgph2rcd13ifvqc2g","pricing_plan_id":"free"},{"bike_id":"bbe50fdc-354b-4ed4-a6a0-3c4b5855b870","system_id":"levelo_inurba_marseille","lat":43.317557,"lon":5.390173,"is_reserved":false,"is_disabled":false,"rental_uris":{"android":"levelo://app?vid=bbe50fdc-354b-4ed4-a6a0-3c4b5855b870","ios":"levelo://app?vid=bbe50fdc-354b-4ed4-a6a0-3c4b5855b870"},"vehicle_type_id":"4","last_reported":1702587997,"current_range_meters":19200,"station_id":"ce4bhqp2rcd13ifvqhng","pricing_plan_id":"free"},{"bike_id":"7f8ab2f1-88f0-48a7-bbea-71f84456048e","system_id":"levelo_inurba_marseille","lat":43.29814,"lon":5.38101,"is_reserved":false,"is_disabled":false,"rental_uris":{"android":"levelo://app?vid=7f8ab2f1-88f0-48a7-bbea-71f84456048e","ios":"levelo://app?vid=7f8ab2f1-88f0-48a7-bbea-71f84456048e"},"vehicle_type_id":"4","last_reported":1702587997,"current_range_meters":0,"station_id":"ce4bgip2rcd13ifvqbb0","pricing_plan_id":"free"},{"bike_id":"746b5f47-4e6b-4021-a56f-f984f1f51478","system_id":"levelo_inurba_marseille","lat":43.304274,"lon":5.388873,"is_reserved":false,"is_disabled":false,"rental_uris":{"android":"levelo://app?vid=746b5f47-4e6b-4021-a56f-f984f1f51478","ios":"levelo://app?vid=746b5f47-4e6b-4021-a56f-f984f1f51478"},"vehicle_type_id":"4","last_reported":1702587997,"current_range_meters":16400,"station_id":"ce4bgk12rcd13ifvqbi0","pricing_plan_id":"free"},{"bike_id":"27264b3e-e0de-40b6-ac87-072d87144771","system_id":"levelo_inurba_marseille","lat":43.304274,"lon":5.388873,"is_reserved":false,"is_disabled":false,"rental_uris":{"android":"levelo://app?vid=27264b3e-e0de-40b6-ac87-072d87144771","ios":"levelo://app?vid=27264b3e-e0de-40b6-ac87-072d87144771"},"vehicle_type_id":"4","last_reported":1702587997,"current_range_meters":23200,"station_id":"ce4bgk12rcd13ifvqbi0","pricing_plan_id":"free"},{"bike_id":"29db5516-5e0d-498e-9412-f6935b984812","system_id":"levelo_inurba_marseille","lat":43.32367,"lon":5.388836,"is_reserved":false,"is_disabled":false,"rental_uris":{"android":"levelo://app?vid=29db5516-5e0d-498e-9412-f6935b984812","ios":"levelo://app?vid=29db5516-5e0d-498e-9412-f6935b984812"},"vehicle_type_id":"4","last_reported":1702587997,"current_range_meters":9600,"station_id":"ce4bhqp2rcd13ifvqhog","pricing_plan_id":"free"},{"bike_id":"edaab706-020c-4e53-b10b-f03006708e6e","system_id":"levelo_inurba_marseille","lat":43.32371,"lon":5.38883,"is_reserved":false,"is_disabled":false,"rental_uris":{"android":"levelo://app?vid=edaab706-020c-4e53-b10b-f03006708e6e","ios":"levelo://app?vid=edaab706-020c-4e53-b10b-f03006708e6e"},"vehicle_type_id":"4","last_reported":1702587997,"current_range_meters":4400,"station_id":"ce4bhqp2rcd13ifvqhog","pricing_plan_id":"free"},{"bike_id":"3b9b120f-ecc0-4c6b-b81f-e5a4b2a78ae5","system_id":"levelo_inurba_marseille","lat":43.29277,"lon":5.36839,"is_reserved":false,"is_disabled":false,"rental_uris":{"android":"levelo://app?vid=3b9b120f-ecc0-4c6b-b81f-e5a4b2a78ae5","ios":"levelo://app?vid=3b9b120f-ecc0-4c6b-b81f-e5a4b2a78ae5"},"vehicle_type_id":"4","last_reported":1702587997,"current_range_meters":6000,"station_id":"ce4bhbp2rcd13ifvqesg","pricing_plan_id":"free"},{"bike_id":"84e904d0-33e1-486c-83dd-bec0176dc85c","system_id":"levelo_inurba_marseille","lat":43.29304,"lon":5.37458,"is_reserved":false,"is_disabled":false,"rental_uris":{"android":"levelo://app?vid=84e904d0-33e1-486c-83dd-bec0176dc85c","ios":"levelo://app?vid=84e904d0-33e1-486c-83dd-bec0176dc85c"},"vehicle_type_id":"4","last_reported":1702587997,"current_range_meters":0,"station_id":"ce4bgi12rcd13ifvqb70","pricing_plan_id":"free"},{"bike_id":"50e908ce-45cc-4ef4-8945-2fffc2f741e1","system_id":"levelo_inurba_marseille","lat":43.2936,"lon":5.37835,"is_reserved":false,"is_disabled":false,"rental_uris":{"android":"levelo://app?vid=50e908ce-45cc-4ef4-8945-2fffc2f741e1","ios":"levelo://app?vid=50e908ce-45cc-4ef4-8945-2fffc2f741e1"},"vehicle_type_id":"4","last_reported":1702587997,"current_range_meters":14400,"station_id":"ce4bgjh2rcd13ifvqbf0","pricing_plan_id":"free"},{"bike_id":"9e031a62-eec0-44a6-a78f-2cad36a806ac","system_id":"levelo_inurba_marseille","lat":43.30085,"lon":5.390856,"is_reserved":false,"is_disabled":false,"rental_uris":{"android":"levelo://app?vid=9e031a62-eec0-44a6-a78f-2cad36a806ac","ios":"levelo://app?vid=9e031a62-eec0-44a6-a78f-2cad36a806ac"},"vehicle_type_id":"4","last_reported":1702587997,"current_range_meters":22400,"station_id":"ce4bh192rcd13ifvqdb0","pricing_plan_id":"free"},{"bike_id":"f49022ab-d6f4-4465-bbac-1057addbfb7c","system_id":"levelo_inurba_marseille","lat":43.29872,"lon":5.38911,"is_reserved":false,"is_disabled":false,"rental_uris":{"android":"levelo://app?vid=f49022ab-d6f4-4465-bbac-1057addbfb7c","ios":"levelo://app?vid=f49022ab-d6f4-4465-bbac-1057addbfb7c"},"vehicle_type_id":"4","last_reported":1702587997,"current_range_meters":0,"station_id":"","pricing_plan_id":"free"},{"bike_id":"4ef0327f-06fb-49c3-b431-ca1270e4d436","system_id":"levelo_inurba_marseille","lat":43.309038,"lon":5.396546,"is_reserved":false,"is_disabled":false,"rental_uris":{"android":"levelo://app?vid=4ef0327f-06fb-49c3-b431-ca1270e4d436","ios":"levelo://app?vid=4ef0327f-06fb-49c3-b431-ca1270e4d436"},"vehicle_type_id":"4","last_reported":1702587997,"current_range_meters":16400,"station_id":"ce4bh012rcd13ifvqcv0","pricing_plan_id":"free"},{"bike_id":"4b7e289d-e805-43ae-9bfe-5d23f62e7e14","system_id":"levelo_inurba_marseille","lat":43.313291,"lon":5.396838,"is_reserved":false,"is_disabled":false,"rental_uris":{"android":"levelo://app?vid=4b7e289d-e805-43ae-9bfe-5d23f62e7e14","ios":"levelo://app?vid=4b7e289d-e805-43ae-9bfe-5d23f62e7e14"},"vehicle_type_id":"4","last_reported":1702587997,"current_range_meters":26400,"station_id":"ce4bgvp2rcd13ifvqcu0","pricing_plan_id":"free"},{"bike_id":"1879ce71-f05a-452f-8e15-dce0259b48a1","system_id":"levelo_inurba_marseille","lat":43.309038,"lon":5.396546,"is_reserved":false,"is_disabled":false,"rental_uris":{"android":"levelo://app?vid=1879ce71-f05a-452f-8e15-dce0259b48a1","ios":"levelo://app?vid=1879ce71-f05a-452f-8e15-dce0259b48a1"},"vehicle_type_id":"4","last_reported":1702587997,"current_range_meters":8800,"station_id":"ce4bh012rcd13ifvqcv0","pricing_plan_id":"free"},{"bike_id":"febab403-2b5e-4bdc-a8be-367c701940a2","system_id":"levelo_inurba_marseille","lat":43.29529,"lon":5.385581,"is_reserved":false,"is_disabled":false,"rental_uris":{"android":"levelo://app?vid=febab403-2b5e-4bdc-a8be-367c701940a2","ios":"levelo://app?vid=febab403-2b5e-4bdc-a8be-367c701940a2"},"vehicle_type_id":"4","last_reported":1702587997,"current_range_meters":27600,"station_id":"ce4bgih2rcd13ifvqba0","pricing_plan_id":"free"},{"bike_id":"86c79a3d-9962-4041-9abc-ee9857c35129","system_id":"levelo_inurba_marseille","lat":43.29529,"lon":5.385581,"is_reserved":false,"is_disabled":false,"rental_uris":{"android":"levelo://app?vid=86c79a3d-9962-4041-9abc-ee9857c35129","ios":"levelo://app?vid=86c79a3d-9962-4041-9abc-ee9857c35129"},"vehicle_type_id":"4","last_reported":1702587997,"current_range_meters":12000,"station_id":"ce4bgih2rcd13ifvqba0","pricing_plan_id":"free"},{"bike_id":"101e5ded-c564-413b-941d-72852b8ac34b","system_id":"levelo_inurba_marseille","lat":43.29529,"lon":5.385581,"is_reserved":false,"is_disabled":false,"rental_uris":{"android":"levelo://app?vid=101e5ded-c564-413b-941d-72852b8ac34b","ios":"levelo://app?vid=101e5ded-c564-413b-941d-72852b8ac34b"},"vehicle_type_id":"4","last_reported":1702587997,"current_range_meters":6800,"station_id":"ce4bgih2rcd13ifvqba0","pricing_plan_id":"free"},{"bike_id":"854040c7-200f-40e1-8de7-b387d13d899f","system_id":"levelo_inurba_marseille","lat":43.29527,"lon":5.3855,"is_reserved":false,"is_disabled":false,"rental_uris":{"android":"levelo://app?vid=854040c7-200f-40e1-8de7-b387d13d899f","ios":"levelo://app?vid=854040c7-200f-40e1-8de7-b387d13d899f"},"vehicle_type_id":"4","last_reported":1702587997,"current_range_meters":25600,"station_id":"ce4bgih2rcd13ifvqba0","pricing_plan_id":"free"},{"bike_id":"74fb05d6-c33c-42cd-81ce-9a71130edf7d","system_id":"levelo_inurba_marseille","lat":43.302008,"lon":5.394694,"is_reserved":false,"is_disabled":false,"rental_uris":{"android":"levelo://app?vid=74fb05d6-c33c-42cd-81ce-9a71130edf7d","ios":"levelo://app?vid=74fb05d6-c33c-42cd-81ce-9a71130edf7d"},"vehicle_type_id":"4","last_reported":1702587997,"current_range_meters":23600,"station_id":"ce4bh0p2rcd13ifvqd70","pricing_plan_id":"free"},{"bike_id":"40e44d12-70a8-4a0b-a02d-db167d3f3b95","system_id":"levelo_inurba_marseille","lat":43.302008,"lon":5.394694,"is_reserved":false,"is_disabled":false,"rental_uris":{"android":"levelo://app?vid=40e44d12-70a8-4a0b-a02d-db167d3f3b95","ios":"levelo://app?vid=40e44d12-70a8-4a0b-a02d-db167d3f3b95"},"vehicle_type_id":"4","last_reported":1702587997,"current_range_meters":15600,"station_id":"ce4bh0p2rcd13ifvqd70","pricing_plan_id":"free"},{"bike_id":"05957afb-1f9a-459e-aeed-d0ba28cb65a0","system_id":"levelo_inurba_marseille","lat":43.29418,"lon":5.38627,"is_reserved":false,"is_disabled":false,"rental_uris":{"android":"levelo://app?vid=05957afb-1f9a-459e-aeed-d0ba28cb65a0","ios":"levelo://app?vid=05957afb-1f9a-459e-aeed-d0ba28cb65a0"},"vehicle_type_id":"4","last_reported":1702587997,"current_range_meters":18800,"station_id":"ce4bh2h2rcd13ifvqdh0","pricing_plan_id":"free"},{"bike_id":"c1322865-2792-4385-a4b4-30fce91443a3","system_id":"levelo_inurba_marseille","lat":43.304296,"lon":5.397513,"is_reserved":false,"is_disabled":false,"rental_uris":{"android":"levelo://app?vid=c1322865-2792-4385-a4b4-30fce91443a3","ios":"levelo://app?vid=c1322865-2792-4385-a4b4-30fce91443a3"},"vehicle_type_id":"4","last_reported":1702587997,"current_range_meters":17600,"station_id":"ce4bh092rcd13ifvqd20","pricing_plan_id":"free"},{"bike_id":"76fac8ba-5859-4e07-b1ca-3400bcf5291a","system_id":"levelo_inurba_marseille","lat":43.292642,"lon":5.384254,"is_reserved":false,"is_disabled":false,"rental_uris":{"android":"levelo://app?vid=76fac8ba-5859-4e07-b1ca-3400bcf5291a","ios":"levelo://app?vid=76fac8ba-5859-4e07-b1ca-3400bcf5291a"},"vehicle_type_id":"4","last_reported":1702587997,"current_range_meters":0,"station_id":"ce4bh692rcd13ifvqea0","pricing_plan_id":"free"},{"bike_id":"9430066a-b3f6-4803-82ef-db8ee806a880","system_id":"levelo_inurba_marseille","lat":43.330442,"lon":5.389148,"is_reserved":false,"is_disabled":false,"rental_uris":{"android":"levelo://app?vid=9430066a-b3f6-4803-82ef-db8ee806a880","ios":"levelo://app?vid=9430066a-b3f6-4803-82ef-db8ee806a880"},"vehicle_type_id":"4","last_reported":1702587997,"current_range_meters":30800,"station_id":"ce4bhr92rcd13ifvqhrg","pricing_plan_id":"free"},{"bike_id":"4e33c64f-3009-4f56-864a-7e56f93a45cb","system_id":"levelo_inurba_marseille","lat":43.330442,"lon":5.389148,"is_reserved":false,"is_disabled":false,"rental_uris":{"android":"levelo://app?vid=4e33c64f-3009-4f56-864a-7e56f93a45cb","ios":"levelo://app?vid=4e33c64f-3009-4f56-864a-7e56f93a45cb"},"vehicle_type_id":"4","last_reported":1702587997,"current_range_meters":2000,"station_id":"ce4bhr92rcd13ifvqhrg","pricing_plan_id":"free"},{"bike_id":"84d092b8-b852-4a10-8e4c-2de345f576e3","system_id":"levelo_inurba_marseille","lat":43.290103,"lon":5.356114,"is_reserved":false,"is_disabled":false,"rental_uris":{"android":"levelo://app?vid=84d092b8-b852-4a10-8e4c-2de345f576e3","ios":"levelo://app?vid=84d092b8-b852-4a10-8e4c-2de345f576e3"},"vehicle_type_id":"4","last_reported":1702587997,"current_range_meters":4800,"station_id":"ce4bhb92rcd13ifvqen0","pricing_plan_id":"free"},{"bike_id":"e36fc3c3-3f2f-4976-afc1-efdf79dee1e9","system_id":"levelo_inurba_marseille","lat":43.33041,"lon":5.389235,"is_reserved":false,"is_disabled":false,"rental_uris":{"android":"levelo://app?vid=e36fc3c3-3f2f-4976-afc1-efdf79dee1e9","ios":"levelo://app?vid=e36fc3c3-3f2f-4976-afc1-efdf79dee1e9"},"vehicle_type_id":"4","last_reported":1702587997,"current_range_meters":29600,"station_id":"ce4bhr92rcd13ifvqhrg","pricing_plan_id":"free"},{"bike_id":"8b3231c7-67e4-44f8-baff-aabfdc649f93","system_id":"levelo_inurba_marseille","lat":43.33045,"lon":5.38918,"is_reserved":false,"is_disabled":false,"rental_uris":{"android":"levelo://app?vid=8b3231c7-67e4-44f8-baff-aabfdc649f93","ios":"levelo://app?vid=8b3231c7-67e4-44f8-baff-aabfdc649f93"},"vehicle_type_id":"4","last_reported":1702587997,"current_range_meters":19600,"station_id":"ce4bhr92rcd13ifvqhrg","pricing_plan_id":"free"},{"bike_id":"51b45a01-244f-453e-8718-708dfded62c8","system_id":"levelo_inurba_marseille","lat":43.297815,"lon":5.393548,"is_reserved":false,"is_disabled":false,"rental_uris":{"android":"levelo://app?vid=51b45a01-244f-453e-8718-708dfded62c8","ios":"levelo://app?vid=51b45a01-244f-453e-8718-708dfded62c8"},"vehicle_type_id":"4","last_reported":1702587997,"current_range_meters":27200,"station_id":"chh1huq6cuj3fo74tm60","pricing_plan_id":"free"},{"bike_id":"b602ec5f-0cb9-417a-8f34-2235c2f0d0cd","system_id":"levelo_inurba_marseille","lat":43.29531,"lon":5.39041,"is_reserved":false,"is_disabled":false,"rental_uris":{"android":"levelo://app?vid=b602ec5f-0cb9-417a-8f34-2235c2f0d0cd","ios":"levelo://app?vid=b602ec5f-0cb9-417a-8f34-2235c2f0d0cd"},"vehicle_type_id":"4","last_reported":1702587997,"current_range_meters":800,"station_id":"ce4bh3p2rcd13ifvqdp0","pricing_plan_id":"free"},{"bike_id":"1923bfb4-6430-4b6c-b4eb-bf2663f09ef7","system_id":"levelo_inurba_marseille","lat":43.295169,"lon":5.390426,"is_reserved":false,"is_disabled":false,"rental_uris":{"android":"levelo://app?vid=1923bfb4-6430-4b6c-b4eb-bf2663f09ef7","ios":"levelo://app?vid=1923bfb4-6430-4b6c-b4eb-bf2663f09ef7"},"vehicle_type_id":"4","last_reported":1702587997,"current_range_meters":24400,"station_id":"ce4bh3p2rcd13ifvqdp0","pricing_plan_id":"free"},{"bike_id":"b6773ff5-3f80-40cf-8c75-5d2c12e46fba","system_id":"levelo_inurba_marseille","lat":43.29521,"lon":5.39044,"is_reserved":false,"is_disabled":false,"rental_uris":{"android":"levelo://app?vid=b6773ff5-3f80-40cf-8c75-5d2c12e46fba","ios":"levelo://app?vid=b6773ff5-3f80-40cf-8c75-5d2c12e46fba"},"vehicle_type_id":"4","last_reported":1702587997,"current_range_meters":24400,"station_id":"ce4bh3p2rcd13ifvqdp0","pricing_plan_id":"free"},{"bike_id":"676897bf-be05-4fae-b7a5-ca2cb4c6d250","system_id":"levelo_inurba_marseille","lat":43.29517,"lon":5.39042,"is_reserved":false,"is_disabled":false,"rental_uris":{"android":"levelo://app?vid=676897bf-be05-4fae-b7a5-ca2cb4c6d250","ios":"levelo://app?vid=676897bf-be05-4fae-b7a5-ca2cb4c6d250"},"vehicle_type_id":"4","last_reported":1702587997,"current_range_meters":10000,"station_id":"ce4bh3p2rcd13ifvqdp0","pricing_plan_id":"free"},{"bike_id":"4480d1ea-53b0-4a3d-b8bb-35387ceac448","system_id":"levelo_inurba_marseille","lat":43.295169,"lon":5.390426,"is_reserved":false,"is_disabled":false,"rental_uris":{"android":"levelo://app?vid=4480d1ea-53b0-4a3d-b8bb-35387ceac448","ios":"levelo://app?vid=4480d1ea-53b0-4a3d-b8bb-35387ceac448"},"vehicle_type_id":"4","last_reported":1702587997,"current_range_meters":3200,"station_id":"ce4bh3p2rcd13ifvqdp0","pricing_plan_id":"free"},{"bike_id":"ca9b9d31-cf96-4931-a905-4636b589eab0","system_id":"levelo_inurba_marseille","lat":43.2901,"lon":5.381269,"is_reserved":false,"is_disabled":false,"rental_uris":{"android":"levelo://app?vid=ca9b9d31-cf96-4931-a905-4636b589eab0","ios":"levelo://app?vid=ca9b9d31-cf96-4931-a905-4636b589eab0"},"vehicle_type_id":"4","last_reported":1702587997,"current_range_meters":23600,"station_id":"ce4bh4p2rcd13ifvqe1g","pricing_plan_id":"free"},{"bike_id":"68ef69ed-5dc2-4fb9-a5a4-c3fb8eb2613c","system_id":"levelo_inurba_marseille","lat":43.2901,"lon":5.381269,"is_reserved":false,"is_disabled":false,"rental_uris":{"android":"levelo://app?vid=68ef69ed-5dc2-4fb9-a5a4-c3fb8eb2613c","ios":"levelo://app?vid=68ef69ed-5dc2-4fb9-a5a4-c3fb8eb2613c"},"vehicle_type_id":"4","last_reported":1702587997,"current_range_meters":24400,"station_id":"ce4bh4p2rcd13ifvqe1g","pricing_plan_id":"free"},{"bike_id":"e530ae2e-abba-45ce-9b93-c7c9fbb4bad3","system_id":"levelo_inurba_marseille","lat":43.28856,"lon":5.358371,"is_reserved":false,"is_disabled":false,"rental_uris":{"android":"levelo://app?vid=e530ae2e-abba-45ce-9b93-c7c9fbb4bad3","ios":"levelo://app?vid=e530ae2e-abba-45ce-9b93-c7c9fbb4bad3"},"vehicle_type_id":"4","last_reported":1702587997,"current_range_meters":18000,"station_id":"ce4bhb12rcd13ifvqem0","pricing_plan_id":"free"},{"bike_id":"5183ff70-4ce4-4c95-9883-58d69243359a","system_id":"levelo_inurba_marseille","lat":43.31271,"lon":5.40176,"is_reserved":false,"is_disabled":false,"rental_uris":{"android":"levelo://app?vid=5183ff70-4ce4-4c95-9883-58d69243359a","ios":"levelo://app?vid=5183ff70-4ce4-4c95-9883-58d69243359a"},"vehicle_type_id":"4","last_reported":1702587997,"current_range_meters":24400,"station_id":"ce4bh092rcd13ifvqd30","pricing_plan_id":"free"},{"bike_id":"49e51a05-2a36-40fb-bd5f-b1e4aebd0a1f","system_id":"levelo_inurba_marseille","lat":43.33749,"lon":5.374645,"is_reserved":false,"is_disabled":false,"rental_uris":{"android":"levelo://app?vid=49e51a05-2a36-40fb-bd5f-b1e4aebd0a1f","ios":"levelo://app?vid=49e51a05-2a36-40fb-bd5f-b1e4aebd0a1f"},"vehicle_type_id":"4","last_reported":1702587997,"current_range_meters":28400,"station_id":"","pricing_plan_id":"free"},{"bike_id":"7ef95456-dceb-4a26-b87b-2753efefc6ac","system_id":"levelo_inurba_marseille","lat":43.337522,"lon":5.374515,"is_reserved":false,"is_disabled":false,"rental_uris":{"android":"levelo://app?vid=7ef95456-dceb-4a26-b87b-2753efefc6ac","ios":"levelo://app?vid=7ef95456-dceb-4a26-b87b-2753efefc6ac"},"vehicle_type_id":"4","last_reported":1702587997,"current_range_meters":22800,"station_id":"","pricing_plan_id":"free"},{"bike_id":"76d5a3d4-ca4e-48a5-b745-5816e4f3de67","system_id":"levelo_inurba_marseille","lat":43.337537,"lon":5.374747,"is_reserved":false,"is_disabled":false,"rental_uris":{"android":"levelo://app?vid=76d5a3d4-ca4e-48a5-b745-5816e4f3de67","ios":"levelo://app?vid=76d5a3d4-ca4e-48a5-b745-5816e4f3de67"},"vehicle_type_id":"4","last_reported":1702587997,"current_range_meters":29600,"station_id":"","pricing_plan_id":"free"},{"bike_id":"930bba3a-4350-44cf-bb9b-310a6cbdb5ef","system_id":"levelo_inurba_marseille","lat":43.33764,"lon":5.37491,"is_reserved":false,"is_disabled":false,"rental_uris":{"android":"levelo://app?vid=930bba3a-4350-44cf-bb9b-310a6cbdb5ef","ios":"levelo://app?vid=930bba3a-4350-44cf-bb9b-310a6cbdb5ef"},"vehicle_type_id":"4","last_reported":1702587997,"current_range_meters":31200,"station_id":"","pricing_plan_id":"free"},{"bike_id":"5c2022a0-4ac5-47ae-9d0b-f58dafa5ad01","system_id":"levelo_inurba_marseille","lat":43.301117,"lon":5.398795,"is_reserved":false,"is_disabled":false,"rental_uris":{"android":"levelo://app?vid=5c2022a0-4ac5-47ae-9d0b-f58dafa5ad01","ios":"levelo://app?vid=5c2022a0-4ac5-47ae-9d0b-f58dafa5ad01"},"vehicle_type_id":"4","last_reported":1702587997,"current_range_meters":0,"station_id":"ce4bh0h2rcd13ifvqd40","pricing_plan_id":"free"},{"bike_id":"dcbb743c-d215-4018-866e-54f20247b10d","system_id":"levelo_inurba_marseille","lat":43.28727,"lon":5.36078,"is_reserved":false,"is_disabled":false,"rental_uris":{"android":"levelo://app?vid=dcbb743c-d215-4018-866e-54f20247b10d","ios":"levelo://app?vid=dcbb743c-d215-4018-866e-54f20247b10d"},"vehicle_type_id":"4","last_reported":1702587997,"current_range_meters":6400,"station_id":"cki0cbj6b192h4jlfktg","pricing_plan_id":"free"},{"bike_id":"2b345619-5d58-415c-829f-9515ba684a00","system_id":"levelo_inurba_marseille","lat":43.28727,"lon":5.36078,"is_reserved":false,"is_disabled":false,"rental_uris":{"android":"levelo://app?vid=2b345619-5d58-415c-829f-9515ba684a00","ios":"levelo://app?vid=2b345619-5d58-415c-829f-9515ba684a00"},"vehicle_type_id":"4","last_reported":1702587997,"current_range_meters":24800,"station_id":"cki0cbj6b192h4jlfktg","pricing_plan_id":"free"},{"bike_id":"aa032ad6-ad2c-45b6-9263-c33819b4b3ea","system_id":"levelo_inurba_marseille","lat":43.286961,"lon":5.373785,"is_reserved":false,"is_disabled":false,"rental_uris":{"android":"levelo://app?vid=aa032ad6-ad2c-45b6-9263-c33819b4b3ea","ios":"levelo://app?vid=aa032ad6-ad2c-45b6-9263-c33819b4b3ea"},"vehicle_type_id":"4","last_reported":1702587997,"current_range_meters":28800,"station_id":"ce4bh3p2rcd13ifvqdq0","pricing_plan_id":"free"},{"bike_id":"7640745a-360d-4cc9-b93c-77e5b873b0d3","system_id":"levelo_inurba_marseille","lat":43.286593,"lon":5.363346,"is_reserved":false,"is_disabled":false,"rental_uris":{"android":"levelo://app?vid=7640745a-360d-4cc9-b93c-77e5b873b0d3","ios":"levelo://app?vid=7640745a-360d-4cc9-b93c-77e5b873b0d3"},"vehicle_type_id":"4","last_reported":1702587997,"current_range_meters":22800,"station_id":"ce4bhah2rcd13ifvqej0","pricing_plan_id":"free"},{"bike_id":"c687158e-9ce7-4e3e-a818-e3588d53a6cf","system_id":"levelo_inurba_marseille","lat":43.286961,"lon":5.373785,"is_reserved":false,"is_disabled":false,"rental_uris":{"android":"levelo://app?vid=c687158e-9ce7-4e3e-a818-e3588d53a6cf","ios":"levelo://app?vid=c687158e-9ce7-4e3e-a818-e3588d53a6cf"},"vehicle_type_id":"4","last_reported":1702587997,"current_range_meters":13200,"station_id":"ce4bh3p2rcd13ifvqdq0","pricing_plan_id":"free"},{"bike_id":"d655e159-b27f-4047-bb78-42098754c334","system_id":"levelo_inurba_marseille","lat":43.295194,"lon":5.39397,"is_reserved":false,"is_disabled":false,"rental_uris":{"android":"levelo://app?vid=d655e159-b27f-4047-bb78-42098754c334","ios":"levelo://app?vid=d655e159-b27f-4047-bb78-42098754c334"},"vehicle_type_id":"4","last_reported":1702587997,"current_range_meters":14000,"station_id":"ce4bh292rcd13ifvqdf0","pricing_plan_id":"free"},{"bike_id":"99949f61-bc79-4cd2-91ee-57c382a1f407","system_id":"levelo_inurba_marseille","lat":43.302759,"lon":5.400793,"is_reserved":false,"is_disabled":false,"rental_uris":{"android":"levelo://app?vid=99949f61-bc79-4cd2-91ee-57c382a1f407","ios":"levelo://app?vid=99949f61-bc79-4cd2-91ee-57c382a1f407"},"vehicle_type_id":"4","last_reported":1702587997,"current_range_meters":400,"station_id":"ce4bgvh2rcd13ifvqcs0","pricing_plan_id":"free"},{"bike_id":"844d0d04-072a-44c6-9dc7-32aaadea84bf","system_id":"levelo_inurba_marseille","lat":43.28727,"lon":5.36078,"is_reserved":false,"is_disabled":false,"rental_uris":{"android":"levelo://app?vid=844d0d04-072a-44c6-9dc7-32aaadea84bf","ios":"levelo://app?vid=844d0d04-072a-44c6-9dc7-32aaadea84bf"},"vehicle_type_id":"4","last_reported":1702587997,"current_range_meters":0,"station_id":"cki0cbj6b192h4jlfktg","pricing_plan_id":"free"},{"bike_id":"a43fe0c1-cf41-49f4-a942-f186ea2eac62","system_id":"levelo_inurba_marseille","lat":43.287185,"lon":5.379373,"is_reserved":false,"is_disabled":false,"rental_uris":{"android":"levelo://app?vid=a43fe0c1-cf41-49f4-a942-f186ea2eac62","ios":"levelo://app?vid=a43fe0c1-cf41-49f4-a942-f186ea2eac62"},"vehicle_type_id":"4","last_reported":1702587997,"current_range_meters":22000,"station_id":"ce4bh9p2rcd13ifvqec0","pricing_plan_id":"free"},{"bike_id":"b33b88e9-bfd8-4c6b-badc-4fb62fe90440","system_id":"levelo_inurba_marseille","lat":43.291942,"lon":5.393191,"is_reserved":false,"is_disabled":false,"rental_uris":{"android":"levelo://app?vid=b33b88e9-bfd8-4c6b-badc-4fb62fe90440","ios":"levelo://app?vid=b33b88e9-bfd8-4c6b-badc-4fb62fe90440"},"vehicle_type_id":"4","last_reported":1702587997,"current_range_meters":0,"station_id":"ce4bh192rcd13ifvqdd0","pricing_plan_id":"free"},{"bike_id":"6e54b64b-c845-4e6a-9609-87297566afb4","system_id":"levelo_inurba_marseille","lat":43.29529,"lon":5.385581,"is_reserved":false,"is_disabled":false,"rental_uris":{"android":"levelo://app?vid=6e54b64b-c845-4e6a-9609-87297566afb4","ios":"levelo://app?vid=6e54b64b-c845-4e6a-9609-87297566afb4"},"vehicle_type_id":"4","last_reported":1702587997,"current_range_meters":17200,"station_id":"ce4bgih2rcd13ifvqba0","pricing_plan_id":"free"},{"bike_id":"de1b122a-ea30-4eba-bdb5-ce8f73953f0d","system_id":"levelo_inurba_marseille","lat":43.285856,"lon":5.350771,"is_reserved":false,"is_disabled":false,"rental_uris":{"android":"levelo://app?vid=de1b122a-ea30-4eba-bdb5-ce8f73953f0d","ios":"levelo://app?vid=de1b122a-ea30-4eba-bdb5-ce8f73953f0d"},"vehicle_type_id":"4","last_reported":1702587997,"current_range_meters":25200,"station_id":"ce4bhch2rcd13ifvqeug","pricing_plan_id":"free"},{"bike_id":"313406b8-5fdc-41f0-83fe-0af7d292a505","system_id":"levelo_inurba_marseille","lat":43.28615,"lon":5.35106,"is_reserved":false,"is_disabled":false,"rental_uris":{"android":"levelo://app?vid=313406b8-5fdc-41f0-83fe-0af7d292a505","ios":"levelo://app?vid=313406b8-5fdc-41f0-83fe-0af7d292a505"},"vehicle_type_id":"4","last_reported":1702587997,"current_range_meters":11200,"station_id":"ce4bhch2rcd13ifvqeug","pricing_plan_id":"free"},{"bike_id":"c13bd82f-af8b-4c4f-a0fd-41541e9ef3dd","system_id":"levelo_inurba_marseille","lat":43.283998,"lon":5.375062,"is_reserved":false,"is_disabled":false,"rental_uris":{"android":"levelo://app?vid=c13bd82f-af8b-4c4f-a0fd-41541e9ef3dd","ios":"levelo://app?vid=c13bd82f-af8b-4c4f-a0fd-41541e9ef3dd"},"vehicle_type_id":"4","last_reported":1702587997,"current_range_meters":6400,"station_id":"ce4bh412rcd13ifvqds0","pricing_plan_id":"free"},{"bike_id":"ad8fb7da-0c21-4c3b-9874-8defec604315","system_id":"levelo_inurba_marseille","lat":43.28413,"lon":5.37515,"is_reserved":false,"is_disabled":false,"rental_uris":{"android":"levelo://app?vid=ad8fb7da-0c21-4c3b-9874-8defec604315","ios":"levelo://app?vid=ad8fb7da-0c21-4c3b-9874-8defec604315"},"vehicle_type_id":"4","last_reported":1702587997,"current_range_meters":400,"station_id":"ce4bh412rcd13ifvqds0","pricing_plan_id":"free"},{"bike_id":"14d3f363-c08c-47a8-bcbf-3e3ce4dcffe9","system_id":"levelo_inurba_marseille","lat":43.283998,"lon":5.375062,"is_reserved":false,"is_disabled":false,"rental_uris":{"android":"levelo://app?vid=14d3f363-c08c-47a8-bcbf-3e3ce4dcffe9","ios":"levelo://app?vid=14d3f363-c08c-47a8-bcbf-3e3ce4dcffe9"},"vehicle_type_id":"4","last_reported":1702587997,"current_range_meters":1600,"station_id":"ce4bh412rcd13ifvqds0","pricing_plan_id":"free"},{"bike_id":"60c9dc47-6f2b-49ae-be13-4fd0e13f28c2","system_id":"levelo_inurba_marseille","lat":43.286595,"lon":5.386795,"is_reserved":false,"is_disabled":false,"rental_uris":{"android":"levelo://app?vid=60c9dc47-6f2b-49ae-be13-4fd0e13f28c2","ios":"levelo://app?vid=60c9dc47-6f2b-49ae-be13-4fd0e13f28c2"},"vehicle_type_id":"4","last_reported":1702587997,"current_range_meters":13200,"station_id":"ce4bh492rcd13ifvqdug","pricing_plan_id":"free"},{"bike_id":"c4eef1c1-a960-4041-8581-ce332e14f8b5","system_id":"levelo_inurba_marseille","lat":43.286595,"lon":5.386795,"is_reserved":false,"is_disabled":false,"rental_uris":{"android":"levelo://app?vid=c4eef1c1-a960-4041-8581-ce332e14f8b5","ios":"levelo://app?vid=c4eef1c1-a960-4041-8581-ce332e14f8b5"},"vehicle_type_id":"4","last_reported":1702587997,"current_range_meters":0,"station_id":"ce4bh492rcd13ifvqdug","pricing_plan_id":"free"},{"bike_id":"5b4be105-e8e8-4f6a-a69f-6ea84bd28796","system_id":"levelo_inurba_marseille","lat":43.286595,"lon":5.386795,"is_reserved":false,"is_disabled":false,"rental_uris":{"android":"levelo://app?vid=5b4be105-e8e8-4f6a-a69f-6ea84bd28796","ios":"levelo://app?vid=5b4be105-e8e8-4f6a-a69f-6ea84bd28796"},"vehicle_type_id":"4","last_reported":1702587997,"current_range_meters":10800,"station_id":"ce4bh492rcd13ifvqdug","pricing_plan_id":"free"},{"bike_id":"dae588fe-cb14-44e6-84d3-ff610c1a34b6","system_id":"levelo_inurba_marseille","lat":43.286595,"lon":5.386795,"is_reserved":false,"is_disabled":false,"rental_uris":{"android":"levelo://app?vid=dae588fe-cb14-44e6-84d3-ff610c1a34b6","ios":"levelo://app?vid=dae588fe-cb14-44e6-84d3-ff610c1a34b6"},"vehicle_type_id":"4","last_reported":1702587997,"current_range_meters":19200,"station_id":"ce4bh492rcd13ifvqdug","pricing_plan_id":"free"},{"bike_id":"1ab5cd54-43c0-49fa-a466-54df9f902037","system_id":"levelo_inurba_marseille","lat":43.323464,"lon":5.406297,"is_reserved":false,"is_disabled":false,"rental_uris":{"android":"levelo://app?vid=1ab5cd54-43c0-49fa-a466-54df9f902037","ios":"levelo://app?vid=1ab5cd54-43c0-49fa-a466-54df9f902037"},"vehicle_type_id":"4","last_reported":1702587997,"current_range_meters":23200,"station_id":"ce4bhq92rcd13ifvqhjg","pricing_plan_id":"free"},{"bike_id":"1d483fd6-f007-4cf4-938a-7b06635152cf","system_id":"levelo_inurba_marseille","lat":43.28484,"lon":5.384273,"is_reserved":false,"is_disabled":false,"rental_uris":{"android":"levelo://app?vid=1d483fd6-f007-4cf4-938a-7b06635152cf","ios":"levelo://app?vid=1d483fd6-f007-4cf4-938a-7b06635152cf"},"vehicle_type_id":"4","last_reported":1702587997,"current_range_meters":0,"station_id":"ce4bh512rcd13ifvqe3g","pricing_plan_id":"free"},{"bike_id":"0c80a367-5455-4511-ab26-e7accf8e9477","system_id":"levelo_inurba_marseille","lat":43.284787,"lon":5.384116,"is_reserved":false,"is_disabled":false,"rental_uris":{"android":"levelo://app?vid=0c80a367-5455-4511-ab26-e7accf8e9477","ios":"levelo://app?vid=0c80a367-5455-4511-ab26-e7accf8e9477"},"vehicle_type_id":"4","last_reported":1702587997,"current_range_meters":24000,"station_id":"ce4bh512rcd13ifvqe3g","pricing_plan_id":"free"},{"bike_id":"54dcde39-ecbf-4a7e-9768-2a5aea1b8c91","system_id":"levelo_inurba_marseille","lat":43.297946,"lon":5.404063,"is_reserved":false,"is_disabled":false,"rental_uris":{"android":"levelo://app?vid=54dcde39-ecbf-4a7e-9768-2a5aea1b8c91","ios":"levelo://app?vid=54dcde39-ecbf-4a7e-9768-2a5aea1b8c91"},"vehicle_type_id":"4","last_reported":1702587997,"current_range_meters":27200,"station_id":"ce4bh112rcd13ifvqd90","pricing_plan_id":"free"},{"bike_id":"473829cd-018a-45c1-b106-b81154d143c1","system_id":"levelo_inurba_marseille","lat":43.288501,"lon":5.393087,"is_reserved":false,"is_disabled":false,"rental_uris":{"android":"levelo://app?vid=473829cd-018a-45c1-b106-b81154d143c1","ios":"levelo://app?vid=473829cd-018a-45c1-b106-b81154d143c1"},"vehicle_type_id":"4","last_reported":1702587997,"current_range_meters":31200,"station_id":"ce4bh2p2rcd13ifvqdi0","pricing_plan_id":"free"},{"bike_id":"e35be30a-5c98-452c-9d29-051e4e66581d","system_id":"levelo_inurba_marseille","lat":43.292724,"lon":5.401131,"is_reserved":false,"is_disabled":false,"rental_uris":{"android":"levelo://app?vid=e35be30a-5c98-452c-9d29-051e4e66581d","ios":"levelo://app?vid=e35be30a-5c98-452c-9d29-051e4e66581d"},"vehicle_type_id":"4","last_reported":1702587997,"current_range_meters":10000,"station_id":"ce4bh312rcd13ifvqdk0","pricing_plan_id":"free"},{"bike_id":"476b12b7-1010-4618-a541-c07128d8dac4","system_id":"levelo_inurba_marseille","lat":43.281044,"lon":5.378308,"is_reserved":false,"is_disabled":false,"rental_uris":{"android":"levelo://app?vid=476b12b7-1010-4618-a541-c07128d8dac4","ios":"levelo://app?vid=476b12b7-1010-4618-a541-c07128d8dac4"},"vehicle_type_id":"4","last_reported":1702587997,"current_range_meters":27200,"station_id":"ce4bha12rcd13ifvqee0","pricing_plan_id":"free"},{"bike_id":"39ea34a8-18b4-4fbe-a0b1-95964300bdcf","system_id":"levelo_inurba_marseille","lat":43.282754,"lon":5.350519,"is_reserved":false,"is_disabled":false,"rental_uris":{"android":"levelo://app?vid=39ea34a8-18b4-4fbe-a0b1-95964300bdcf","ios":"levelo://app?vid=39ea34a8-18b4-4fbe-a0b1-95964300bdcf"},"vehicle_type_id":"4","last_reported":1702587997,"current_range_meters":19600,"station_id":"ce4bhbp2rcd13ifvqerg","pricing_plan_id":"free"},{"bike_id":"d52ba69b-7325-49c2-b343-dd0cc2e58052","system_id":"levelo_inurba_marseille","lat":43.28039,"lon":5.369297,"is_reserved":false,"is_disabled":false,"rental_uris":{"android":"levelo://app?vid=d52ba69b-7325-49c2-b343-dd0cc2e58052","ios":"levelo://app?vid=d52ba69b-7325-49c2-b343-dd0cc2e58052"},"vehicle_type_id":"4","last_reported":1702587997,"current_range_meters":0,"station_id":"ce4bha12rcd13ifvqef0","pricing_plan_id":"free"},{"bike_id":"7f4d8487-dbdf-496d-9d7b-1f2417384832","system_id":"levelo_inurba_marseille","lat":43.280382,"lon":5.369291,"is_reserved":false,"is_disabled":false,"rental_uris":{"android":"levelo://app?vid=7f4d8487-dbdf-496d-9d7b-1f2417384832","ios":"levelo://app?vid=7f4d8487-dbdf-496d-9d7b-1f2417384832"},"vehicle_type_id":"4","last_reported":1702587997,"current_range_meters":16000,"station_id":"ce4bha12rcd13ifvqef0","pricing_plan_id":"free"},{"bike_id":"7c622e1e-880a-49e7-b6f6-24165eccbc3e","system_id":"levelo_inurba_marseille","lat":43.281044,"lon":5.378308,"is_reserved":false,"is_disabled":false,"rental_uris":{"android":"levelo://app?vid=7c622e1e-880a-49e7-b6f6-24165eccbc3e","ios":"levelo://app?vid=7c622e1e-880a-49e7-b6f6-24165eccbc3e"},"vehicle_type_id":"4","last_reported":1702587997,"current_range_meters":29600,"station_id":"ce4bha12rcd13ifvqee0","pricing_plan_id":"free"},{"bike_id":"bc5b4b0a-67cf-45a5-9fec-3c37e71adec7","system_id":"levelo_inurba_marseille","lat":43.281044,"lon":5.378308,"is_reserved":false,"is_disabled":false,"rental_uris":{"android":"levelo://app?vid=bc5b4b0a-67cf-45a5-9fec-3c37e71adec7","ios":"levelo://app?vid=bc5b4b0a-67cf-45a5-9fec-3c37e71adec7"},"vehicle_type_id":"4","last_reported":1702587997,"current_range_meters":18000,"station_id":"ce4bha12rcd13ifvqee0","pricing_plan_id":"free"},{"bike_id":"ad3f6136-4b24-46b5-b118-bd27150c0f5a","system_id":"levelo_inurba_marseille","lat":43.284462,"lon":5.392121,"is_reserved":false,"is_disabled":false,"rental_uris":{"android":"levelo://app?vid=ad3f6136-4b24-46b5-b118-bd27150c0f5a","ios":"levelo://app?vid=ad3f6136-4b24-46b5-b118-bd27150c0f5a"},"vehicle_type_id":"4","last_reported":1702587997,"current_range_meters":22400,"station_id":"ce4bhoh2rcd13ifvqh5g","pricing_plan_id":"free"},{"bike_id":"4ee1a84c-60e5-4735-bf59-cea446c2523f","system_id":"levelo_inurba_marseille","lat":43.279984,"lon":5.379198,"is_reserved":false,"is_disabled":false,"rental_uris":{"android":"levelo://app?vid=4ee1a84c-60e5-4735-bf59-cea446c2523f","ios":"levelo://app?vid=4ee1a84c-60e5-4735-bf59-cea446c2523f"},"vehicle_type_id":"4","last_reported":1702587997,"current_range_meters":11200,"station_id":"","pricing_plan_id":"free"},{"bike_id":"a504b27d-6e8a-48d0-866f-304fb1963ec6","system_id":"levelo_inurba_marseille","lat":43.32663,"lon":5.40985,"is_reserved":false,"is_disabled":false,"rental_uris":{"android":"levelo://app?vid=a504b27d-6e8a-48d0-866f-304fb1963ec6","ios":"levelo://app?vid=a504b27d-6e8a-48d0-866f-304fb1963ec6"},"vehicle_type_id":"4","last_reported":1702587997,"current_range_meters":800,"station_id":"ce4bhpp2rcd13ifvqhgg","pricing_plan_id":"free"},{"bike_id":"426c3715-4d15-4cef-8e6c-e330f19e9ca9","system_id":"levelo_inurba_marseille","lat":43.326605,"lon":5.409903,"is_reserved":false,"is_disabled":false,"rental_uris":{"android":"levelo://app?vid=426c3715-4d15-4cef-8e6c-e330f19e9ca9","ios":"levelo://app?vid=426c3715-4d15-4cef-8e6c-e330f19e9ca9"},"vehicle_type_id":"4","last_reported":1702587997,"current_range_meters":30400,"station_id":"ce4bhpp2rcd13ifvqhgg","pricing_plan_id":"free"},{"bike_id":"72cd711f-2ee0-4a12-a469-87a94e82051e","system_id":"levelo_inurba_marseille","lat":43.279087,"lon":5.380114,"is_reserved":false,"is_disabled":false,"rental_uris":{"android":"levelo://app?vid=72cd711f-2ee0-4a12-a469-87a94e82051e","ios":"levelo://app?vid=72cd711f-2ee0-4a12-a469-87a94e82051e"},"vehicle_type_id":"4","last_reported":1702587997,"current_range_meters":2000,"station_id":"ce4bhf92rcd13ifvqf50","pricing_plan_id":"free"},{"bike_id":"93cf42e1-0754-4d9a-9677-e9d06246671e","system_id":"levelo_inurba_marseille","lat":43.279087,"lon":5.380114,"is_reserved":false,"is_disabled":false,"rental_uris":{"android":"levelo://app?vid=93cf42e1-0754-4d9a-9677-e9d06246671e","ios":"levelo://app?vid=93cf42e1-0754-4d9a-9677-e9d06246671e"},"vehicle_type_id":"4","last_reported":1702587997,"current_range_meters":30400,"station_id":"ce4bhf92rcd13ifvqf50","pricing_plan_id":"free"},{"bike_id":"b4dae7aa-0b4f-47d4-8573-4066f8fb8635","system_id":"levelo_inurba_marseille","lat":43.28702,"lon":5.39988,"is_reserved":false,"is_disabled":false,"rental_uris":{"android":"levelo://app?vid=b4dae7aa-0b4f-47d4-8573-4066f8fb8635","ios":"levelo://app?vid=b4dae7aa-0b4f-47d4-8573-4066f8fb8635"},"vehicle_type_id":"4","last_reported":1702587997,"current_range_meters":400,"station_id":"ce4bho92rcd13ifvqh3g","pricing_plan_id":"free"},{"bike_id":"f0b660fe-ffe6-4fff-b427-62679a5d8e72","system_id":"levelo_inurba_marseille","lat":43.29273,"lon":5.40721,"is_reserved":false,"is_disabled":false,"rental_uris":{"android":"levelo://app?vid=f0b660fe-ffe6-4fff-b427-62679a5d8e72","ios":"levelo://app?vid=f0b660fe-ffe6-4fff-b427-62679a5d8e72"},"vehicle_type_id":"4","last_reported":1702587997,"current_range_meters":4000,"station_id":"","pricing_plan_id":"free"},{"bike_id":"4d7d5924-3c1f-4d0b-a566-7719408380b9","system_id":"levelo_inurba_marseille","lat":43.292569,"lon":5.409107,"is_reserved":false,"is_disabled":false,"rental_uris":{"android":"levelo://app?vid=4d7d5924-3c1f-4d0b-a566-7719408380b9","ios":"levelo://app?vid=4d7d5924-3c1f-4d0b-a566-7719408380b9"},"vehicle_type_id":"4","last_reported":1702587997,"current_range_meters":16000,"station_id":"ce4bh192rcd13ifvqdc0","pricing_plan_id":"free"},{"bike_id":"6be6e30d-a1a4-4274-a12e-04437af1d297","system_id":"levelo_inurba_marseille","lat":43.27621,"lon":5.36105,"is_reserved":false,"is_disabled":false,"rental_uris":{"android":"levelo://app?vid=6be6e30d-a1a4-4274-a12e-04437af1d297","ios":"levelo://app?vid=6be6e30d-a1a4-4274-a12e-04437af1d297"},"vehicle_type_id":"4","last_reported":1702587997,"current_range_meters":11200,"station_id":"ce4bgj92rcd13ifvqbe0","pricing_plan_id":"free"},{"bike_id":"f7b590a9-38e0-4875-b5cb-89d09c44fda7","system_id":"levelo_inurba_marseille","lat":43.27618,"lon":5.361009,"is_reserved":false,"is_disabled":false,"rental_uris":{"android":"levelo://app?vid=f7b590a9-38e0-4875-b5cb-89d09c44fda7","ios":"levelo://app?vid=f7b590a9-38e0-4875-b5cb-89d09c44fda7"},"vehicle_type_id":"4","last_reported":1702587997,"current_range_meters":5200,"station_id":"ce4bgj92rcd13ifvqbe0","pricing_plan_id":"free"},{"bike_id":"8dd7f3b2-fac2-4f40-8d56-9a0ca7caf5b3","system_id":"levelo_inurba_marseille","lat":43.33204,"lon":5.41051,"is_reserved":false,"is_disabled":false,"rental_uris":{"android":"levelo://app?vid=8dd7f3b2-fac2-4f40-8d56-9a0ca7caf5b3","ios":"levelo://app?vid=8dd7f3b2-fac2-4f40-8d56-9a0ca7caf5b3"},"vehicle_type_id":"4","last_reported":1702587997,"current_range_meters":9600,"station_id":"","pricing_plan_id":"free"},{"bike_id":"f62f5e05-887a-40d7-b42c-fee2b09ea4fe","system_id":"levelo_inurba_marseille","lat":43.280784,"lon":5.396622,"is_reserved":false,"is_disabled":false,"rental_uris":{"android":"levelo://app?vid=f62f5e05-887a-40d7-b42c-fee2b09ea4fe","ios":"levelo://app?vid=f62f5e05-887a-40d7-b42c-fee2b09ea4fe"},"vehicle_type_id":"4","last_reported":1702587997,"current_range_meters":26800,"station_id":"ce4bho12rcd13ifvqh2g","pricing_plan_id":"free"},{"bike_id":"38f7ad61-5224-4eb5-a3bd-7fdefd112261","system_id":"levelo_inurba_marseille","lat":43.303837,"lon":5.418724,"is_reserved":false,"is_disabled":false,"rental_uris":{"android":"levelo://app?vid=38f7ad61-5224-4eb5-a3bd-7fdefd112261","ios":"levelo://app?vid=38f7ad61-5224-4eb5-a3bd-7fdefd112261"},"vehicle_type_id":"4","last_reported":1702587997,"current_range_meters":28000,"station_id":"ce4bhop2rcd13ifvqh7g","pricing_plan_id":"free"},{"bike_id":"c4cfb68b-0ac0-4a8c-b786-f9b41850db55","system_id":"levelo_inurba_marseille","lat":43.27376,"lon":5.362555,"is_reserved":false,"is_disabled":false,"rental_uris":{"android":"levelo://app?vid=c4cfb68b-0ac0-4a8c-b786-f9b41850db55","ios":"levelo://app?vid=c4cfb68b-0ac0-4a8c-b786-f9b41850db55"},"vehicle_type_id":"4","last_reported":1702587997,"current_range_meters":30800,"station_id":"ce4bhbh2rcd13ifvqeo0","pricing_plan_id":"free"},{"bike_id":"f21c1b42-f5cf-4ef5-a4e6-62d4a1817773","system_id":"levelo_inurba_marseille","lat":43.336148,"lon":5.410349,"is_reserved":false,"is_disabled":false,"rental_uris":{"android":"levelo://app?vid=f21c1b42-f5cf-4ef5-a4e6-62d4a1817773","ios":"levelo://app?vid=f21c1b42-f5cf-4ef5-a4e6-62d4a1817773"},"vehicle_type_id":"4","last_reported":1702587997,"current_range_meters":28400,"station_id":"ce4bhqh2rcd13ifvqhmg","pricing_plan_id":"free"},{"bike_id":"258c92c3-b246-4df0-924c-2be53037f0f5","system_id":"levelo_inurba_marseille","lat":43.336148,"lon":5.410349,"is_reserved":false,"is_disabled":false,"rental_uris":{"android":"levelo://app?vid=258c92c3-b246-4df0-924c-2be53037f0f5","ios":"levelo://app?vid=258c92c3-b246-4df0-924c-2be53037f0f5"},"vehicle_type_id":"4","last_reported":1702587997,"current_range_meters":9200,"station_id":"ce4bhqh2rcd13ifvqhmg","pricing_plan_id":"free"},{"bike_id":"7b09c4d9-85ba-414e-ace7-c7835f033d97","system_id":"levelo_inurba_marseille","lat":43.276769,"lon":5.388787,"is_reserved":false,"is_disabled":false,"rental_uris":{"android":"levelo://app?vid=7b09c4d9-85ba-414e-ace7-c7835f033d97","ios":"levelo://app?vid=7b09c4d9-85ba-414e-ace7-c7835f033d97"},"vehicle_type_id":"4","last_reported":1702587997,"current_range_meters":18000,"station_id":"ce4bhi12rcd13ifvqfo0","pricing_plan_id":"free"},{"bike_id":"88e235b0-f0b3-43c0-9128-98dfde4a60f4","system_id":"levelo_inurba_marseille","lat":43.27678,"lon":5.38906,"is_reserved":false,"is_disabled":false,"rental_uris":{"android":"levelo://app?vid=88e235b0-f0b3-43c0-9128-98dfde4a60f4","ios":"levelo://app?vid=88e235b0-f0b3-43c0-9128-98dfde4a60f4"},"vehicle_type_id":"4","last_reported":1702587997,"current_range_meters":12000,"station_id":"ce4bhi12rcd13ifvqfo0","pricing_plan_id":"free"},{"bike_id":"b41eb3df-2a1b-4c2d-970c-2b4a8fdd844e","system_id":"levelo_inurba_marseille","lat":43.27671,"lon":5.38909,"is_reserved":false,"is_disabled":false,"rental_uris":{"android":"levelo://app?vid=b41eb3df-2a1b-4c2d-970c-2b4a8fdd844e","ios":"levelo://app?vid=b41eb3df-2a1b-4c2d-970c-2b4a8fdd844e"},"vehicle_type_id":"4","last_reported":1702587997,"current_range_meters":23600,"station_id":"ce4bhi12rcd13ifvqfo0","pricing_plan_id":"free"},{"bike_id":"8c823a83-ca0a-420a-8e68-8fcf017c3508","system_id":"levelo_inurba_marseille","lat":43.3414,"lon":5.409,"is_reserved":false,"is_disabled":false,"rental_uris":{"android":"levelo://app?vid=8c823a83-ca0a-420a-8e68-8fcf017c3508","ios":"levelo://app?vid=8c823a83-ca0a-420a-8e68-8fcf017c3508"},"vehicle_type_id":"4","last_reported":1702587997,"current_range_meters":10400,"station_id":"ce4bhqh2rcd13ifvqhlg","pricing_plan_id":"free"},{"bike_id":"689b605a-9159-4e54-ac9f-be975ff46d8d","system_id":"levelo_inurba_marseille","lat":43.340804,"lon":5.410219,"is_reserved":false,"is_disabled":false,"rental_uris":{"android":"levelo://app?vid=689b605a-9159-4e54-ac9f-be975ff46d8d","ios":"levelo://app?vid=689b605a-9159-4e54-ac9f-be975ff46d8d"},"vehicle_type_id":"4","last_reported":1702587997,"current_range_meters":28000,"station_id":"ce4bhqh2rcd13ifvqhlg","pricing_plan_id":"free"},{"bike_id":"3ca2c2d2-99b0-4aa6-a05d-e30f02e6a7fb","system_id":"levelo_inurba_marseille","lat":43.276092,"lon":5.395289,"is_reserved":false,"is_disabled":false,"rental_uris":{"android":"levelo://app?vid=3ca2c2d2-99b0-4aa6-a05d-e30f02e6a7fb","ios":"levelo://app?vid=3ca2c2d2-99b0-4aa6-a05d-e30f02e6a7fb"},"vehicle_type_id":"4","last_reported":1702587997,"current_range_meters":29600,"station_id":"","pricing_plan_id":"free"},{"bike_id":"bebde3d5-7587-4f7a-8e46-1b7b1c7ea654","system_id":"levelo_inurba_marseille","lat":43.274103,"lon":5.394016,"is_reserved":false,"is_disabled":false,"rental_uris":{"android":"levelo://app?vid=bebde3d5-7587-4f7a-8e46-1b7b1c7ea654","ios":"levelo://app?vid=bebde3d5-7587-4f7a-8e46-1b7b1c7ea654"},"vehicle_type_id":"4","last_reported":1702587997,"current_range_meters":26000,"station_id":"ce4bhdp2rcd13ifvqf20","pricing_plan_id":"free"},{"bike_id":"542d5303-5312-404d-bbef-63ecb3d55d90","system_id":"levelo_inurba_marseille","lat":43.295535,"lon":5.422725,"is_reserved":false,"is_disabled":false,"rental_uris":{"android":"levelo://app?vid=542d5303-5312-404d-bbef-63ecb3d55d90","ios":"levelo://app?vid=542d5303-5312-404d-bbef-63ecb3d55d90"},"vehicle_type_id":"4","last_reported":1702587997,"current_range_meters":31200,"station_id":"ce4bhph2rcd13ifvqhdg","pricing_plan_id":"free"},{"bike_id":"94984fc3-6575-498f-bb52-e6c05e1c5e4b","system_id":"levelo_inurba_marseille","lat":43.295523,"lon":5.422926,"is_reserved":false,"is_disabled":false,"rental_uris":{"android":"levelo://app?vid=94984fc3-6575-498f-bb52-e6c05e1c5e4b","ios":"levelo://app?vid=94984fc3-6575-498f-bb52-e6c05e1c5e4b"},"vehicle_type_id":"4","last_reported":1702587997,"current_range_meters":24000,"station_id":"ce4bhph2rcd13ifvqhdg","pricing_plan_id":"free"},{"bike_id":"44b5f216-a7b6-4c19-8600-d0fc7a6dee0a","system_id":"levelo_inurba_marseille","lat":43.295523,"lon":5.422926,"is_reserved":false,"is_disabled":false,"rental_uris":{"android":"levelo://app?vid=44b5f216-a7b6-4c19-8600-d0fc7a6dee0a","ios":"levelo://app?vid=44b5f216-a7b6-4c19-8600-d0fc7a6dee0a"},"vehicle_type_id":"4","last_reported":1702587997,"current_range_meters":26000,"station_id":"ce4bhph2rcd13ifvqhdg","pricing_plan_id":"free"},{"bike_id":"671a0376-a68e-4ed4-bca2-c8441c2ffbc3","system_id":"levelo_inurba_marseille","lat":43.2956,"lon":5.42288,"is_reserved":false,"is_disabled":false,"rental_uris":{"android":"levelo://app?vid=671a0376-a68e-4ed4-bca2-c8441c2ffbc3","ios":"levelo://app?vid=671a0376-a68e-4ed4-bca2-c8441c2ffbc3"},"vehicle_type_id":"4","last_reported":1702587997,"current_range_meters":28800,"station_id":"ce4bhph2rcd13ifvqhdg","pricing_plan_id":"free"},{"bike_id":"917fea83-5adb-4540-ab16-471835e4c1f9","system_id":"levelo_inurba_marseille","lat":43.29555,"lon":5.42286,"is_reserved":false,"is_disabled":false,"rental_uris":{"android":"levelo://app?vid=917fea83-5adb-4540-ab16-471835e4c1f9","ios":"levelo://app?vid=917fea83-5adb-4540-ab16-471835e4c1f9"},"vehicle_type_id":"4","last_reported":1702587997,"current_range_meters":29200,"station_id":"ce4bhph2rcd13ifvqhdg","pricing_plan_id":"free"},{"bike_id":"9128feaf-36b8-4e63-849f-ccc68f896dc0","system_id":"levelo_inurba_marseille","lat":43.295523,"lon":5.422926,"is_reserved":false,"is_disabled":false,"rental_uris":{"android":"levelo://app?vid=9128feaf-36b8-4e63-849f-ccc68f896dc0","ios":"levelo://app?vid=9128feaf-36b8-4e63-849f-ccc68f896dc0"},"vehicle_type_id":"4","last_reported":1702587997,"current_range_meters":30400,"station_id":"ce4bhph2rcd13ifvqhdg","pricing_plan_id":"free"},{"bike_id":"b4a40c2a-def9-4060-9675-c2dbe66bc4d7","system_id":"levelo_inurba_marseille","lat":43.295522,"lon":5.422875,"is_reserved":false,"is_disabled":false,"rental_uris":{"android":"levelo://app?vid=b4a40c2a-def9-4060-9675-c2dbe66bc4d7","ios":"levelo://app?vid=b4a40c2a-def9-4060-9675-c2dbe66bc4d7"},"vehicle_type_id":"4","last_reported":1702587997,"current_range_meters":23600,"station_id":"ce4bhph2rcd13ifvqhdg","pricing_plan_id":"free"},{"bike_id":"0fdd36e0-a97d-4931-83bd-dc41afbd80cb","system_id":"levelo_inurba_marseille","lat":43.29552,"lon":5.42289,"is_reserved":false,"is_disabled":false,"rental_uris":{"android":"levelo://app?vid=0fdd36e0-a97d-4931-83bd-dc41afbd80cb","ios":"levelo://app?vid=0fdd36e0-a97d-4931-83bd-dc41afbd80cb"},"vehicle_type_id":"4","last_reported":1702587997,"current_range_meters":28800,"station_id":"ce4bhph2rcd13ifvqhdg","pricing_plan_id":"free"},{"bike_id":"5d3f594c-9b0e-418e-807f-31b01190d134","system_id":"levelo_inurba_marseille","lat":43.295523,"lon":5.422926,"is_reserved":false,"is_disabled":false,"rental_uris":{"android":"levelo://app?vid=5d3f594c-9b0e-418e-807f-31b01190d134","ios":"levelo://app?vid=5d3f594c-9b0e-418e-807f-31b01190d134"},"vehicle_type_id":"4","last_reported":1702587997,"current_range_meters":31200,"station_id":"ce4bhph2rcd13ifvqhdg","pricing_plan_id":"free"},{"bike_id":"69f8ad0f-2459-47c5-93c3-15dea485ac8b","system_id":"levelo_inurba_marseille","lat":43.295529,"lon":5.422929,"is_reserved":false,"is_disabled":false,"rental_uris":{"android":"levelo://app?vid=69f8ad0f-2459-47c5-93c3-15dea485ac8b","ios":"levelo://app?vid=69f8ad0f-2459-47c5-93c3-15dea485ac8b"},"vehicle_type_id":"4","last_reported":1702587997,"current_range_meters":28800,"station_id":"ce4bhph2rcd13ifvqhdg","pricing_plan_id":"free"},{"bike_id":"a7863f6b-776e-4daa-b931-d7ecbe1a71ad","system_id":"levelo_inurba_marseille","lat":43.295523,"lon":5.422926,"is_reserved":false,"is_disabled":false,"rental_uris":{"android":"levelo://app?vid=a7863f6b-776e-4daa-b931-d7ecbe1a71ad","ios":"levelo://app?vid=a7863f6b-776e-4daa-b931-d7ecbe1a71ad"},"vehicle_type_id":"4","last_reported":1702587997,"current_range_meters":25600,"station_id":"ce4bhph2rcd13ifvqhdg","pricing_plan_id":"free"},{"bike_id":"1d2472e2-350f-44fa-a627-38e6bb5829da","system_id":"levelo_inurba_marseille","lat":43.29552,"lon":5.42294,"is_reserved":false,"is_disabled":false,"rental_uris":{"android":"levelo://app?vid=1d2472e2-350f-44fa-a627-38e6bb5829da","ios":"levelo://app?vid=1d2472e2-350f-44fa-a627-38e6bb5829da"},"vehicle_type_id":"4","last_reported":1702587997,"current_range_meters":26400,"station_id":"ce4bhph2rcd13ifvqhdg","pricing_plan_id":"free"},{"bike_id":"d74a1bd2-55ab-42f1-8334-7d3bbfb6c27a","system_id":"levelo_inurba_marseille","lat":43.278128,"lon":5.407195,"is_reserved":false,"is_disabled":false,"rental_uris":{"android":"levelo://app?vid=d74a1bd2-55ab-42f1-8334-7d3bbfb6c27a","ios":"levelo://app?vid=d74a1bd2-55ab-42f1-8334-7d3bbfb6c27a"},"vehicle_type_id":"4","last_reported":1702587997,"current_range_meters":14000,"station_id":"ce4bhnh2rcd13ifvqgtg","pricing_plan_id":"free"},{"bike_id":"13136e7b-17d5-41a3-baf1-84312a187446","system_id":"levelo_inurba_marseille","lat":43.278128,"lon":5.407195,"is_reserved":false,"is_disabled":false,"rental_uris":{"android":"levelo://app?vid=13136e7b-17d5-41a3-baf1-84312a187446","ios":"levelo://app?vid=13136e7b-17d5-41a3-baf1-84312a187446"},"vehicle_type_id":"4","last_reported":1702587997,"current_range_meters":18000,"station_id":"ce4bhnh2rcd13ifvqgtg","pricing_plan_id":"free"},{"bike_id":"6baecf9e-750f-4685-ba33-d33fd9cbfd22","system_id":"levelo_inurba_marseille","lat":43.278128,"lon":5.407195,"is_reserved":false,"is_disabled":false,"rental_uris":{"android":"levelo://app?vid=6baecf9e-750f-4685-ba33-d33fd9cbfd22","ios":"levelo://app?vid=6baecf9e-750f-4685-ba33-d33fd9cbfd22"},"vehicle_type_id":"4","last_reported":1702587997,"current_range_meters":12400,"station_id":"ce4bhnh2rcd13ifvqgtg","pricing_plan_id":"free"},{"bike_id":"aaf0a2da-6559-483e-b877-95aab8f7a9d9","system_id":"levelo_inurba_marseille","lat":43.278164,"lon":5.40709,"is_reserved":false,"is_disabled":false,"rental_uris":{"android":"levelo://app?vid=aaf0a2da-6559-483e-b877-95aab8f7a9d9","ios":"levelo://app?vid=aaf0a2da-6559-483e-b877-95aab8f7a9d9"},"vehicle_type_id":"4","last_reported":1702587997,"current_range_meters":26000,"station_id":"ce4bhnh2rcd13ifvqgtg","pricing_plan_id":"free"},{"bike_id":"cf31a53e-dc23-4b88-b22b-12438dc29d2b","system_id":"levelo_inurba_marseille","lat":43.27816,"lon":5.40709,"is_reserved":false,"is_disabled":false,"rental_uris":{"android":"levelo://app?vid=cf31a53e-dc23-4b88-b22b-12438dc29d2b","ios":"levelo://app?vid=cf31a53e-dc23-4b88-b22b-12438dc29d2b"},"vehicle_type_id":"4","last_reported":1702587997,"current_range_meters":25600,"station_id":"ce4bhnh2rcd13ifvqgtg","pricing_plan_id":"free"},{"bike_id":"744d0915-676f-445e-8051-ce5abddae6b8","system_id":"levelo_inurba_marseille","lat":43.278128,"lon":5.407195,"is_reserved":false,"is_disabled":false,"rental_uris":{"android":"levelo://app?vid=744d0915-676f-445e-8051-ce5abddae6b8","ios":"levelo://app?vid=744d0915-676f-445e-8051-ce5abddae6b8"},"vehicle_type_id":"4","last_reported":1702587997,"current_range_meters":14000,"station_id":"ce4bhnh2rcd13ifvqgtg","pricing_plan_id":"free"},{"bike_id":"fc10e7a2-ec87-4e2b-bf4a-451521878895","system_id":"levelo_inurba_marseille","lat":43.27817,"lon":5.40715,"is_reserved":false,"is_disabled":false,"rental_uris":{"android":"levelo://app?vid=fc10e7a2-ec87-4e2b-bf4a-451521878895","ios":"levelo://app?vid=fc10e7a2-ec87-4e2b-bf4a-451521878895"},"vehicle_type_id":"4","last_reported":1702587997,"current_range_meters":6400,"station_id":"ce4bhnh2rcd13ifvqgtg","pricing_plan_id":"free"},{"bike_id":"9ed8a8b0-adcb-4301-a90b-ada718e24e35","system_id":"levelo_inurba_marseille","lat":43.278128,"lon":5.407195,"is_reserved":false,"is_disabled":false,"rental_uris":{"android":"levelo://app?vid=9ed8a8b0-adcb-4301-a90b-ada718e24e35","ios":"levelo://app?vid=9ed8a8b0-adcb-4301-a90b-ada718e24e35"},"vehicle_type_id":"4","last_reported":1702587997,"current_range_meters":23600,"station_id":"ce4bhnh2rcd13ifvqgtg","pricing_plan_id":"free"},{"bike_id":"9295d241-3ede-4962-8e94-0b2831dbd578","system_id":"levelo_inurba_marseille","lat":43.27816,"lon":5.40715,"is_reserved":false,"is_disabled":false,"rental_uris":{"android":"levelo://app?vid=9295d241-3ede-4962-8e94-0b2831dbd578","ios":"levelo://app?vid=9295d241-3ede-4962-8e94-0b2831dbd578"},"vehicle_type_id":"4","last_reported":1702587997,"current_range_meters":14000,"station_id":"ce4bhnh2rcd13ifvqgtg","pricing_plan_id":"free"},{"bike_id":"08d8e6ae-8e0e-443e-b173-796da3012d88","system_id":"levelo_inurba_marseille","lat":43.278128,"lon":5.407195,"is_reserved":false,"is_disabled":false,"rental_uris":{"android":"levelo://app?vid=08d8e6ae-8e0e-443e-b173-796da3012d88","ios":"levelo://app?vid=08d8e6ae-8e0e-443e-b173-796da3012d88"},"vehicle_type_id":"4","last_reported":1702587997,"current_range_meters":26800,"station_id":"ce4bhnh2rcd13ifvqgtg","pricing_plan_id":"free"},{"bike_id":"7c04fe55-b67d-4879-8a75-ecd5681064b4","system_id":"levelo_inurba_marseille","lat":43.269467,"lon":5.386439,"is_reserved":false,"is_disabled":false,"rental_uris":{"android":"levelo://app?vid=7c04fe55-b67d-4879-8a75-ecd5681064b4","ios":"levelo://app?vid=7c04fe55-b67d-4879-8a75-ecd5681064b4"},"vehicle_type_id":"4","last_reported":1702587997,"current_range_meters":28000,"station_id":"ce4bhh92rcd13ifvqfh0","pricing_plan_id":"free"},{"bike_id":"cdff418d-a680-4e58-b1dd-765b749560d1","system_id":"levelo_inurba_marseille","lat":43.279463,"lon":5.410487,"is_reserved":false,"is_disabled":false,"rental_uris":{"android":"levelo://app?vid=cdff418d-a680-4e58-b1dd-765b749560d1","ios":"levelo://app?vid=cdff418d-a680-4e58-b1dd-765b749560d1"},"vehicle_type_id":"4","last_reported":1702587997,"current_range_meters":18400,"station_id":"ce4bhnp2rcd13ifvqh0g","pricing_plan_id":"free"},{"bike_id":"3993225e-10f2-410b-ac47-1faf1f8c834a","system_id":"levelo_inurba_marseille","lat":43.269319,"lon":5.389397,"is_reserved":false,"is_disabled":false,"rental_uris":{"android":"levelo://app?vid=3993225e-10f2-410b-ac47-1faf1f8c834a","ios":"levelo://app?vid=3993225e-10f2-410b-ac47-1faf1f8c834a"},"vehicle_type_id":"4","last_reported":1702587997,"current_range_meters":0,"station_id":"ce4bhhh2rcd13ifvqfl0","pricing_plan_id":"free"},{"bike_id":"04b3d846-1da3-4e37-aa5f-d8bcc257dd52","system_id":"levelo_inurba_marseille","lat":43.27015,"lon":5.392899,"is_reserved":false,"is_disabled":false,"rental_uris":{"android":"levelo://app?vid=04b3d846-1da3-4e37-aa5f-d8bcc257dd52","ios":"levelo://app?vid=04b3d846-1da3-4e37-aa5f-d8bcc257dd52"},"vehicle_type_id":"4","last_reported":1702587997,"current_range_meters":0,"station_id":"","pricing_plan_id":"free"},{"bike_id":"fb724ae5-b539-47a5-85b4-2f4be84b21a2","system_id":"levelo_inurba_marseille","lat":43.26681,"lon":5.382694,"is_reserved":false,"is_disabled":false,"rental_uris":{"android":"levelo://app?vid=fb724ae5-b539-47a5-85b4-2f4be84b21a2","ios":"levelo://app?vid=fb724ae5-b539-47a5-85b4-2f4be84b21a2"},"vehicle_type_id":"4","last_reported":1702587997,"current_range_meters":16000,"station_id":"ce4bhg92rcd13ifvqf90","pricing_plan_id":"free"},{"bike_id":"e6b6b285-2f98-49b9-a28a-25cb70c91c27","system_id":"levelo_inurba_marseille","lat":43.265698,"lon":5.390108,"is_reserved":false,"is_disabled":false,"rental_uris":{"android":"levelo://app?vid=e6b6b285-2f98-49b9-a28a-25cb70c91c27","ios":"levelo://app?vid=e6b6b285-2f98-49b9-a28a-25cb70c91c27"},"vehicle_type_id":"4","last_reported":1702587997,"current_range_meters":0,"station_id":"ce4bhe12rcd13ifvqf30","pricing_plan_id":"free"},{"bike_id":"6608fb5f-c34b-40e1-8d57-c8fe1c96c99e","system_id":"levelo_inurba_marseille","lat":43.265621,"lon":5.390008,"is_reserved":false,"is_disabled":false,"rental_uris":{"android":"levelo://app?vid=6608fb5f-c34b-40e1-8d57-c8fe1c96c99e","ios":"levelo://app?vid=6608fb5f-c34b-40e1-8d57-c8fe1c96c99e"},"vehicle_type_id":"4","last_reported":1702587997,"current_range_meters":0,"station_id":"ce4bhe12rcd13ifvqf30","pricing_plan_id":"free"},{"bike_id":"58b7ffe3-528d-4a0b-8000-38f813ae35b3","system_id":"levelo_inurba_marseille","lat":43.317104,"lon":5.436818,"is_reserved":false,"is_disabled":false,"rental_uris":{"android":"levelo://app?vid=58b7ffe3-528d-4a0b-8000-38f813ae35b3","ios":"levelo://app?vid=58b7ffe3-528d-4a0b-8000-38f813ae35b3"},"vehicle_type_id":"4","last_reported":1702587997,"current_range_meters":25600,"station_id":"ce4bhp92rcd13ifvqhcg","pricing_plan_id":"free"},{"bike_id":"dcd51afc-e0ea-40ce-a3ed-c5c9a2a1a2ae","system_id":"levelo_inurba_marseille","lat":43.317104,"lon":5.436818,"is_reserved":false,"is_disabled":false,"rental_uris":{"android":"levelo://app?vid=dcd51afc-e0ea-40ce-a3ed-c5c9a2a1a2ae","ios":"levelo://app?vid=dcd51afc-e0ea-40ce-a3ed-c5c9a2a1a2ae"},"vehicle_type_id":"4","last_reported":1702587997,"current_range_meters":28000,"station_id":"ce4bhp92rcd13ifvqhcg","pricing_plan_id":"free"},{"bike_id":"7f84783e-5acd-446e-9626-60df6c193f32","system_id":"levelo_inurba_marseille","lat":43.261782,"lon":5.374515,"is_reserved":false,"is_disabled":false,"rental_uris":{"android":"levelo://app?vid=7f84783e-5acd-446e-9626-60df6c193f32","ios":"levelo://app?vid=7f84783e-5acd-446e-9626-60df6c193f32"},"vehicle_type_id":"4","last_reported":1702587997,"current_range_meters":12400,"station_id":"ce4bhgp2rcd13ifvqfc0","pricing_plan_id":"free"},{"bike_id":"2d4df44c-723e-4b54-a8fd-79a73e16deb6","system_id":"levelo_inurba_marseille","lat":43.27177,"lon":5.40983,"is_reserved":false,"is_disabled":false,"rental_uris":{"android":"levelo://app?vid=2d4df44c-723e-4b54-a8fd-79a73e16deb6","ios":"levelo://app?vid=2d4df44c-723e-4b54-a8fd-79a73e16deb6"},"vehicle_type_id":"4","last_reported":1702587997,"current_range_meters":30000,"station_id":"ce4bhl12rcd13ifvqgf0","pricing_plan_id":"free"},{"bike_id":"348ca18b-dc25-4114-a3c8-d759b407f807","system_id":"levelo_inurba_marseille","lat":43.271388,"lon":5.409269,"is_reserved":false,"is_disabled":false,"rental_uris":{"android":"levelo://app?vid=348ca18b-dc25-4114-a3c8-d759b407f807","ios":"levelo://app?vid=348ca18b-dc25-4114-a3c8-d759b407f807"},"vehicle_type_id":"4","last_reported":1702587997,"current_range_meters":29200,"station_id":"ce4bhl12rcd13ifvqgf0","pricing_plan_id":"free"},{"bike_id":"303699da-21bd-45c0-8ea7-97b92c3d3763","system_id":"levelo_inurba_marseille","lat":43.267959,"lon":5.402685,"is_reserved":false,"is_disabled":false,"rental_uris":{"android":"levelo://app?vid=303699da-21bd-45c0-8ea7-97b92c3d3763","ios":"levelo://app?vid=303699da-21bd-45c0-8ea7-97b92c3d3763"},"vehicle_type_id":"4","last_reported":1702587997,"current_range_meters":20800,"station_id":"ce501612rcd8frsf0b60","pricing_plan_id":"free"},{"bike_id":"51ac8473-30ff-4bbf-aeb5-3849ae98719e","system_id":"levelo_inurba_marseille","lat":43.26489,"lon":5.39544,"is_reserved":false,"is_disabled":false,"rental_uris":{"android":"levelo://app?vid=51ac8473-30ff-4bbf-aeb5-3849ae98719e","ios":"levelo://app?vid=51ac8473-30ff-4bbf-aeb5-3849ae98719e"},"vehicle_type_id":"4","last_reported":1702587997,"current_range_meters":22400,"station_id":"","pricing_plan_id":"free"},{"bike_id":"e08cb7a0-f6bd-4a79-b1de-9d6a715917f8","system_id":"levelo_inurba_marseille","lat":43.29897,"lon":5.4366,"is_reserved":false,"is_disabled":false,"rental_uris":{"android":"levelo://app?vid=e08cb7a0-f6bd-4a79-b1de-9d6a715917f8","ios":"levelo://app?vid=e08cb7a0-f6bd-4a79-b1de-9d6a715917f8"},"vehicle_type_id":"4","last_reported":1702587997,"current_range_meters":14800,"station_id":"ce4bhpp2rcd13ifvqhfg","pricing_plan_id":"free"},{"bike_id":"bc029538-d190-4438-a7fa-a5ba24eea074","system_id":"levelo_inurba_marseille","lat":43.29896,"lon":5.43664,"is_reserved":false,"is_disabled":false,"rental_uris":{"android":"levelo://app?vid=bc029538-d190-4438-a7fa-a5ba24eea074","ios":"levelo://app?vid=bc029538-d190-4438-a7fa-a5ba24eea074"},"vehicle_type_id":"4","last_reported":1702587997,"current_range_meters":26400,"station_id":"ce4bhpp2rcd13ifvqhfg","pricing_plan_id":"free"},{"bike_id":"0905945f-74c2-4bce-b51c-70befd2c9e4a","system_id":"levelo_inurba_marseille","lat":43.298768,"lon":5.43643,"is_reserved":false,"is_disabled":false,"rental_uris":{"android":"levelo://app?vid=0905945f-74c2-4bce-b51c-70befd2c9e4a","ios":"levelo://app?vid=0905945f-74c2-4bce-b51c-70befd2c9e4a"},"vehicle_type_id":"4","last_reported":1702587997,"current_range_meters":29200,"station_id":"ce4bhpp2rcd13ifvqhfg","pricing_plan_id":"free"},{"bike_id":"47c09f4d-b026-488b-88bd-d86fe61e55ad","system_id":"levelo_inurba_marseille","lat":43.281548,"lon":5.42643,"is_reserved":false,"is_disabled":false,"rental_uris":{"android":"levelo://app?vid=47c09f4d-b026-488b-88bd-d86fe61e55ad","ios":"levelo://app?vid=47c09f4d-b026-488b-88bd-d86fe61e55ad"},"vehicle_type_id":"4","last_reported":1702587997,"current_range_meters":31200,"station_id":"ce4bhnh2rcd13ifvqgug","pricing_plan_id":"free"},{"bike_id":"c6ad59c2-72b2-4f1b-a631-10cc0955876a","system_id":"levelo_inurba_marseille","lat":43.281548,"lon":5.42643,"is_reserved":false,"is_disabled":false,"rental_uris":{"android":"levelo://app?vid=c6ad59c2-72b2-4f1b-a631-10cc0955876a","ios":"levelo://app?vid=c6ad59c2-72b2-4f1b-a631-10cc0955876a"},"vehicle_type_id":"4","last_reported":1702587997,"current_range_meters":28400,"station_id":"ce4bhnh2rcd13ifvqgug","pricing_plan_id":"free"},{"bike_id":"e1a4e7f2-d6c9-431f-9be0-2c76848eb849","system_id":"levelo_inurba_marseille","lat":43.281548,"lon":5.42643,"is_reserved":false,"is_disabled":false,"rental_uris":{"android":"levelo://app?vid=e1a4e7f2-d6c9-431f-9be0-2c76848eb849","ios":"levelo://app?vid=e1a4e7f2-d6c9-431f-9be0-2c76848eb849"},"vehicle_type_id":"4","last_reported":1702587997,"current_range_meters":28800,"station_id":"ce4bhnh2rcd13ifvqgug","pricing_plan_id":"free"},{"bike_id":"e55a64e3-e75f-481c-b8d4-c6a102af8126","system_id":"levelo_inurba_marseille","lat":43.2607,"lon":5.393983,"is_reserved":false,"is_disabled":false,"rental_uris":{"android":"levelo://app?vid=e55a64e3-e75f-481c-b8d4-c6a102af8126","ios":"levelo://app?vid=e55a64e3-e75f-481c-b8d4-c6a102af8126"},"vehicle_type_id":"4","last_reported":1702587997,"current_range_meters":30800,"station_id":"ce4bhh92rcd13ifvqfj0","pricing_plan_id":"free"},{"bike_id":"5d46cd92-88bf-4cb5-b7cb-d458866fe9cb","system_id":"levelo_inurba_marseille","lat":43.260589,"lon":5.393997,"is_reserved":false,"is_disabled":false,"rental_uris":{"android":"levelo://app?vid=5d46cd92-88bf-4cb5-b7cb-d458866fe9cb","ios":"levelo://app?vid=5d46cd92-88bf-4cb5-b7cb-d458866fe9cb"},"vehicle_type_id":"4","last_reported":1702587997,"current_range_meters":25200,"station_id":"","pricing_plan_id":"free"},{"bike_id":"7b2e0fe9-ea1a-4096-b2f3-26186828e2f8","system_id":"levelo_inurba_marseille","lat":43.2607,"lon":5.393983,"is_reserved":false,"is_disabled":false,"rental_uris":{"android":"levelo://app?vid=7b2e0fe9-ea1a-4096-b2f3-26186828e2f8","ios":"levelo://app?vid=7b2e0fe9-ea1a-4096-b2f3-26186828e2f8"},"vehicle_type_id":"4","last_reported":1702587997,"current_range_meters":22000,"station_id":"ce4bhh92rcd13ifvqfj0","pricing_plan_id":"free"},{"bike_id":"e517cb32-0285-41f0-bf4b-4ccc22c9c0c1","system_id":"levelo_inurba_marseille","lat":43.26057,"lon":5.39395,"is_reserved":false,"is_disabled":false,"rental_uris":{"android":"levelo://app?vid=e517cb32-0285-41f0-bf4b-4ccc22c9c0c1","ios":"levelo://app?vid=e517cb32-0285-41f0-bf4b-4ccc22c9c0c1"},"vehicle_type_id":"4","last_reported":1702587997,"current_range_meters":29600,"station_id":"ce4bhh92rcd13ifvqfj0","pricing_plan_id":"free"},{"bike_id":"68be7717-4c13-4c5a-88c8-b6e371874ffd","system_id":"levelo_inurba_marseille","lat":43.26055,"lon":5.39396,"is_reserved":false,"is_disabled":false,"rental_uris":{"android":"levelo://app?vid=68be7717-4c13-4c5a-88c8-b6e371874ffd","ios":"levelo://app?vid=68be7717-4c13-4c5a-88c8-b6e371874ffd"},"vehicle_type_id":"4","last_reported":1702587997,"current_range_meters":28000,"station_id":"ce4bhh92rcd13ifvqfj0","pricing_plan_id":"free"},{"bike_id":"533ee132-8aa1-4d36-b523-3241fb14ca3d","system_id":"levelo_inurba_marseille","lat":43.26054,"lon":5.39394,"is_reserved":false,"is_disabled":false,"rental_uris":{"android":"levelo://app?vid=533ee132-8aa1-4d36-b523-3241fb14ca3d","ios":"levelo://app?vid=533ee132-8aa1-4d36-b523-3241fb14ca3d"},"vehicle_type_id":"4","last_reported":1702587997,"current_range_meters":26800,"station_id":"ce4bhh92rcd13ifvqfj0","pricing_plan_id":"free"},{"bike_id":"c48f1942-51df-49d6-9b2f-54da842fee5b","system_id":"levelo_inurba_marseille","lat":43.258205,"lon":5.394369,"is_reserved":false,"is_disabled":false,"rental_uris":{"android":"levelo://app?vid=c48f1942-51df-49d6-9b2f-54da842fee5b","ios":"levelo://app?vid=c48f1942-51df-49d6-9b2f-54da842fee5b"},"vehicle_type_id":"4","last_reported":1702587997,"current_range_meters":28400,"station_id":"ce4bhip2rcd13ifvqft0","pricing_plan_id":"free"},{"bike_id":"0c1eb7a0-16fd-4f5d-8686-326e83041a35","system_id":"levelo_inurba_marseille","lat":43.25581,"lon":5.38233,"is_reserved":false,"is_disabled":false,"rental_uris":{"android":"levelo://app?vid=0c1eb7a0-16fd-4f5d-8686-326e83041a35","ios":"levelo://app?vid=0c1eb7a0-16fd-4f5d-8686-326e83041a35"},"vehicle_type_id":"4","last_reported":1702587997,"current_range_meters":0,"station_id":"ce4bhih2rcd13ifvqfs0","pricing_plan_id":"free"},{"bike_id":"eb51775d-e0fb-4c47-896b-b998110b41b9","system_id":"levelo_inurba_marseille","lat":43.270721,"lon":5.422764,"is_reserved":false,"is_disabled":false,"rental_uris":{"android":"levelo://app?vid=eb51775d-e0fb-4c47-896b-b998110b41b9","ios":"levelo://app?vid=eb51775d-e0fb-4c47-896b-b998110b41b9"},"vehicle_type_id":"4","last_reported":1702587997,"current_range_meters":31200,"station_id":"ce4bhk92rcd13ifvqgb0","pricing_plan_id":"free"},{"bike_id":"6a584946-6562-4c2f-93ff-f4866f7e060c","system_id":"levelo_inurba_marseille","lat":43.27073,"lon":5.42281,"is_reserved":false,"is_disabled":false,"rental_uris":{"android":"levelo://app?vid=6a584946-6562-4c2f-93ff-f4866f7e060c","ios":"levelo://app?vid=6a584946-6562-4c2f-93ff-f4866f7e060c"},"vehicle_type_id":"4","last_reported":1702587997,"current_range_meters":0,"station_id":"ce4bhk92rcd13ifvqgb0","pricing_plan_id":"free"},{"bike_id":"61704d63-2136-4d14-9494-2592e6c53b72","system_id":"levelo_inurba_marseille","lat":43.258658,"lon":5.398935,"is_reserved":false,"is_disabled":false,"rental_uris":{"android":"levelo://app?vid=61704d63-2136-4d14-9494-2592e6c53b72","ios":"levelo://app?vid=61704d63-2136-4d14-9494-2592e6c53b72"},"vehicle_type_id":"4","last_reported":1702587997,"current_range_meters":24400,"station_id":"ce4bhl92rcd13ifvqghg","pricing_plan_id":"free"},{"bike_id":"c26151e8-8d77-4365-861f-d6b3750fe3d4","system_id":"levelo_inurba_marseille","lat":43.258658,"lon":5.398935,"is_reserved":false,"is_disabled":false,"rental_uris":{"android":"levelo://app?vid=c26151e8-8d77-4365-861f-d6b3750fe3d4","ios":"levelo://app?vid=c26151e8-8d77-4365-861f-d6b3750fe3d4"},"vehicle_type_id":"4","last_reported":1702587997,"current_range_meters":30000,"station_id":"ce4bhl92rcd13ifvqghg","pricing_plan_id":"free"},{"bike_id":"87ffd965-dc16-48a8-ada2-571a9f81385b","system_id":"levelo_inurba_marseille","lat":43.257079,"lon":5.411051,"is_reserved":false,"is_disabled":false,"rental_uris":{"android":"levelo://app?vid=87ffd965-dc16-48a8-ada2-571a9f81385b","ios":"levelo://app?vid=87ffd965-dc16-48a8-ada2-571a9f81385b"},"vehicle_type_id":"4","last_reported":1702587997,"current_range_meters":22000,"station_id":"ce4bhkp2rcd13ifvqgd0","pricing_plan_id":"free"},{"bike_id":"db74abbc-1cad-4d35-a343-95f8207db7a7","system_id":"levelo_inurba_marseille","lat":43.257079,"lon":5.411051,"is_reserved":false,"is_disabled":false,"rental_uris":{"android":"levelo://app?vid=db74abbc-1cad-4d35-a343-95f8207db7a7","ios":"levelo://app?vid=db74abbc-1cad-4d35-a343-95f8207db7a7"},"vehicle_type_id":"4","last_reported":1702587997,"current_range_meters":19200,"station_id":"ce4bhkp2rcd13ifvqgd0","pricing_plan_id":"free"},{"bike_id":"03bc1e3f-e9ac-4782-8cfd-d76be499a5e5","system_id":"levelo_inurba_marseille","lat":43.250009,"lon":5.389195,"is_reserved":false,"is_disabled":false,"rental_uris":{"android":"levelo://app?vid=03bc1e3f-e9ac-4782-8cfd-d76be499a5e5","ios":"levelo://app?vid=03bc1e3f-e9ac-4782-8cfd-d76be499a5e5"},"vehicle_type_id":"4","last_reported":1702587997,"current_range_meters":31200,"station_id":"ce4bhgp2rcd13ifvqfd0","pricing_plan_id":"free"},{"bike_id":"d769b6a5-689d-414a-a1f5-8f83adb62c40","system_id":"levelo_inurba_marseille","lat":43.24996,"lon":5.38932,"is_reserved":false,"is_disabled":false,"rental_uris":{"android":"levelo://app?vid=d769b6a5-689d-414a-a1f5-8f83adb62c40","ios":"levelo://app?vid=d769b6a5-689d-414a-a1f5-8f83adb62c40"},"vehicle_type_id":"4","last_reported":1702587997,"current_range_meters":0,"station_id":"ce4bhgp2rcd13ifvqfd0","pricing_plan_id":"free"},{"bike_id":"8ddd849c-f526-4b9d-98ab-23ff07999fcf","system_id":"levelo_inurba_marseille","lat":43.2479,"lon":5.374457,"is_reserved":false,"is_disabled":false,"rental_uris":{"android":"levelo://app?vid=8ddd849c-f526-4b9d-98ab-23ff07999fcf","ios":"levelo://app?vid=8ddd849c-f526-4b9d-98ab-23ff07999fcf"},"vehicle_type_id":"4","last_reported":1702587997,"current_range_meters":7600,"station_id":"ce4bhgh2rcd13ifvqfb0","pricing_plan_id":"free"},{"bike_id":"6a5adef6-b829-4c13-b631-464c92aa5d5a","system_id":"levelo_inurba_marseille","lat":43.2479,"lon":5.374457,"is_reserved":false,"is_disabled":false,"rental_uris":{"android":"levelo://app?vid=6a5adef6-b829-4c13-b631-464c92aa5d5a","ios":"levelo://app?vid=6a5adef6-b829-4c13-b631-464c92aa5d5a"},"vehicle_type_id":"4","last_reported":1702587997,"current_range_meters":14400,"station_id":"ce4bhgh2rcd13ifvqfb0","pricing_plan_id":"free"},{"bike_id":"41141c1c-d172-4264-ae0f-545f42a7f1d0","system_id":"levelo_inurba_marseille","lat":43.250966,"lon":5.395186,"is_reserved":false,"is_disabled":false,"rental_uris":{"android":"levelo://app?vid=41141c1c-d172-4264-ae0f-545f42a7f1d0","ios":"levelo://app?vid=41141c1c-d172-4264-ae0f-545f42a7f1d0"},"vehicle_type_id":"4","last_reported":1702587997,"current_range_meters":30400,"station_id":"ce4bhm12rcd13ifvqgkg","pricing_plan_id":"free"},{"bike_id":"26e81863-3862-4183-b961-29d3e5c4dd74","system_id":"levelo_inurba_marseille","lat":43.25102,"lon":5.403214,"is_reserved":false,"is_disabled":false,"rental_uris":{"android":"levelo://app?vid=26e81863-3862-4183-b961-29d3e5c4dd74","ios":"levelo://app?vid=26e81863-3862-4183-b961-29d3e5c4dd74"},"vehicle_type_id":"4","last_reported":1702587997,"current_range_meters":9600,"station_id":"ce4bhlh2rcd13ifvqgig","pricing_plan_id":"free"},{"bike_id":"37b836f5-f62b-48e0-872a-9bd57e4b31e7","system_id":"levelo_inurba_marseille","lat":43.25102,"lon":5.403214,"is_reserved":false,"is_disabled":false,"rental_uris":{"android":"levelo://app?vid=37b836f5-f62b-48e0-872a-9bd57e4b31e7","ios":"levelo://app?vid=37b836f5-f62b-48e0-872a-9bd57e4b31e7"},"vehicle_type_id":"4","last_reported":1702587997,"current_range_meters":9600,"station_id":"ce4bhlh2rcd13ifvqgig","pricing_plan_id":"free"},{"bike_id":"4b384738-28e6-4c64-81b0-c68b8226d8a9","system_id":"levelo_inurba_marseille","lat":43.25102,"lon":5.403214,"is_reserved":false,"is_disabled":false,"rental_uris":{"android":"levelo://app?vid=4b384738-28e6-4c64-81b0-c68b8226d8a9","ios":"levelo://app?vid=4b384738-28e6-4c64-81b0-c68b8226d8a9"},"vehicle_type_id":"4","last_reported":1702587997,"current_range_meters":16400,"station_id":"ce4bhlh2rcd13ifvqgig","pricing_plan_id":"free"},{"bike_id":"6faebbdb-2ce4-44b5-b34a-7b246b2359b5","system_id":"levelo_inurba_marseille","lat":43.25102,"lon":5.403214,"is_reserved":false,"is_disabled":false,"rental_uris":{"android":"levelo://app?vid=6faebbdb-2ce4-44b5-b34a-7b246b2359b5","ios":"levelo://app?vid=6faebbdb-2ce4-44b5-b34a-7b246b2359b5"},"vehicle_type_id":"4","last_reported":1702587997,"current_range_meters":8800,"station_id":"ce4bhlh2rcd13ifvqgig","pricing_plan_id":"free"},{"bike_id":"82a49deb-b692-4756-8c93-1ec80849cab4","system_id":"levelo_inurba_marseille","lat":43.25102,"lon":5.403214,"is_reserved":false,"is_disabled":false,"rental_uris":{"android":"levelo://app?vid=82a49deb-b692-4756-8c93-1ec80849cab4","ios":"levelo://app?vid=82a49deb-b692-4756-8c93-1ec80849cab4"},"vehicle_type_id":"4","last_reported":1702587997,"current_range_meters":31200,"station_id":"ce4bhlh2rcd13ifvqgig","pricing_plan_id":"free"},{"bike_id":"a459bc09-490d-465c-a86c-90646843b269","system_id":"levelo_inurba_marseille","lat":43.24574,"lon":5.37345,"is_reserved":false,"is_disabled":false,"rental_uris":{"android":"levelo://app?vid=a459bc09-490d-465c-a86c-90646843b269","ios":"levelo://app?vid=a459bc09-490d-465c-a86c-90646843b269"},"vehicle_type_id":"4","last_reported":1702587997,"current_range_meters":14000,"station_id":"","pricing_plan_id":"free"},{"bike_id":"fb1f4664-a47d-4968-a27b-55a0b3545374","system_id":"levelo_inurba_marseille","lat":43.246461,"lon":5.389014,"is_reserved":false,"is_disabled":false,"rental_uris":{"android":"levelo://app?vid=fb1f4664-a47d-4968-a27b-55a0b3545374","ios":"levelo://app?vid=fb1f4664-a47d-4968-a27b-55a0b3545374"},"vehicle_type_id":"4","last_reported":1702587997,"current_range_meters":15200,"station_id":"ce4bhg12rcd13ifvqf60","pricing_plan_id":"free"},{"bike_id":"943e52e8-36d7-4fec-9ddf-e07fe42c8d89","system_id":"levelo_inurba_marseille","lat":43.246461,"lon":5.389014,"is_reserved":false,"is_disabled":false,"rental_uris":{"android":"levelo://app?vid=943e52e8-36d7-4fec-9ddf-e07fe42c8d89","ios":"levelo://app?vid=943e52e8-36d7-4fec-9ddf-e07fe42c8d89"},"vehicle_type_id":"4","last_reported":1702587997,"current_range_meters":29600,"station_id":"ce4bhg12rcd13ifvqf60","pricing_plan_id":"free"},{"bike_id":"5eb01d94-3892-4fb0-a32e-89738077499a","system_id":"levelo_inurba_marseille","lat":43.245581,"lon":5.395069,"is_reserved":false,"is_disabled":false,"rental_uris":{"android":"levelo://app?vid=5eb01d94-3892-4fb0-a32e-89738077499a","ios":"levelo://app?vid=5eb01d94-3892-4fb0-a32e-89738077499a"},"vehicle_type_id":"4","last_reported":1702587997,"current_range_meters":6000,"station_id":"ce4bhlp2rcd13ifvqgjg","pricing_plan_id":"free"},{"bike_id":"e5ef8c4d-c866-42b3-aabb-30e0e5562645","system_id":"levelo_inurba_marseille","lat":43.245581,"lon":5.395069,"is_reserved":false,"is_disabled":false,"rental_uris":{"android":"levelo://app?vid=e5ef8c4d-c866-42b3-aabb-30e0e5562645","ios":"levelo://app?vid=e5ef8c4d-c866-42b3-aabb-30e0e5562645"},"vehicle_type_id":"4","last_reported":1702587997,"current_range_meters":24400,"station_id":"ce4bhlp2rcd13ifvqgjg","pricing_plan_id":"free"},{"bike_id":"8dd33327-9ce5-4480-9af1-9df1e94a9d5c","system_id":"levelo_inurba_marseille","lat":43.240623,"lon":5.377642,"is_reserved":false,"is_disabled":false,"rental_uris":{"android":"levelo://app?vid=8dd33327-9ce5-4480-9af1-9df1e94a9d5c","ios":"levelo://app?vid=8dd33327-9ce5-4480-9af1-9df1e94a9d5c"},"vehicle_type_id":"4","last_reported":1702587997,"current_range_meters":1200,"station_id":"ce4bhnp2rcd13ifvqgvg","pricing_plan_id":"free"},{"bike_id":"5b8d13f6-72bc-4b42-9a79-cd90af386fbc","system_id":"levelo_inurba_marseille","lat":43.240623,"lon":5.377642,"is_reserved":false,"is_disabled":false,"rental_uris":{"android":"levelo://app?vid=5b8d13f6-72bc-4b42-9a79-cd90af386fbc","ios":"levelo://app?vid=5b8d13f6-72bc-4b42-9a79-cd90af386fbc"},"vehicle_type_id":"4","last_reported":1702587997,"current_range_meters":12000,"station_id":"ce4bhnp2rcd13ifvqgvg","pricing_plan_id":"free"},{"bike_id":"89632fb2-e1f9-4894-8e38-bd39377b5553","system_id":"levelo_inurba_marseille","lat":43.240623,"lon":5.377642,"is_reserved":false,"is_disabled":false,"rental_uris":{"android":"levelo://app?vid=89632fb2-e1f9-4894-8e38-bd39377b5553","ios":"levelo://app?vid=89632fb2-e1f9-4894-8e38-bd39377b5553"},"vehicle_type_id":"4","last_reported":1702587997,"current_range_meters":2000,"station_id":"ce4bhnp2rcd13ifvqgvg","pricing_plan_id":"free"},{"bike_id":"5ad12eec-9ed5-4271-b46d-8c6c6e2b868a","system_id":"levelo_inurba_marseille","lat":43.240623,"lon":5.377642,"is_reserved":false,"is_disabled":false,"rental_uris":{"android":"levelo://app?vid=5ad12eec-9ed5-4271-b46d-8c6c6e2b868a","ios":"levelo://app?vid=5ad12eec-9ed5-4271-b46d-8c6c6e2b868a"},"vehicle_type_id":"4","last_reported":1702587997,"current_range_meters":22000,"station_id":"ce4bhnp2rcd13ifvqgvg","pricing_plan_id":"free"},{"bike_id":"3a814a24-07d8-4e6f-9e30-e43634a525e4","system_id":"levelo_inurba_marseille","lat":43.23971,"lon":5.36628,"is_reserved":false,"is_disabled":false,"rental_uris":{"android":"levelo://app?vid=3a814a24-07d8-4e6f-9e30-e43634a525e4","ios":"levelo://app?vid=3a814a24-07d8-4e6f-9e30-e43634a525e4"},"vehicle_type_id":"4","last_reported":1702587997,"current_range_meters":6000,"station_id":"ce4bhi12rcd13ifvqfp0","pricing_plan_id":"free"},{"bike_id":"bcd74aac-4773-4f73-82ec-f04bc54e0461","system_id":"levelo_inurba_marseille","lat":43.239588,"lon":5.366238,"is_reserved":false,"is_disabled":false,"rental_uris":{"android":"levelo://app?vid=bcd74aac-4773-4f73-82ec-f04bc54e0461","ios":"levelo://app?vid=bcd74aac-4773-4f73-82ec-f04bc54e0461"},"vehicle_type_id":"4","last_reported":1702587997,"current_range_meters":20400,"station_id":"ce4bhi12rcd13ifvqfp0","pricing_plan_id":"free"},{"bike_id":"09e850ea-4841-45dc-8933-cb5bc12f1ec2","system_id":"levelo_inurba_marseille","lat":43.23966,"lon":5.3663,"is_reserved":false,"is_disabled":false,"rental_uris":{"android":"levelo://app?vid=09e850ea-4841-45dc-8933-cb5bc12f1ec2","ios":"levelo://app?vid=09e850ea-4841-45dc-8933-cb5bc12f1ec2"},"vehicle_type_id":"4","last_reported":1702587997,"current_range_meters":11200,"station_id":"ce4bhi12rcd13ifvqfp0","pricing_plan_id":"free"},{"bike_id":"39bf9e7f-bd9e-46b0-84fb-a4482e6eaab3","system_id":"levelo_inurba_marseille","lat":43.239588,"lon":5.366238,"is_reserved":false,"is_disabled":false,"rental_uris":{"android":"levelo://app?vid=39bf9e7f-bd9e-46b0-84fb-a4482e6eaab3","ios":"levelo://app?vid=39bf9e7f-bd9e-46b0-84fb-a4482e6eaab3"},"vehicle_type_id":"4","last_reported":1702587997,"current_range_meters":28400,"station_id":"ce4bhi12rcd13ifvqfp0","pricing_plan_id":"free"},{"bike_id":"417c4bb2-53a9-4a4c-a128-5a6478c52446","system_id":"levelo_inurba_marseille","lat":43.23965,"lon":5.3663,"is_reserved":false,"is_disabled":false,"rental_uris":{"android":"levelo://app?vid=417c4bb2-53a9-4a4c-a128-5a6478c52446","ios":"levelo://app?vid=417c4bb2-53a9-4a4c-a128-5a6478c52446"},"vehicle_type_id":"4","last_reported":1702587997,"current_range_meters":22800,"station_id":"ce4bhi12rcd13ifvqfp0","pricing_plan_id":"free"},{"bike_id":"1497ed62-688b-4d39-afdc-e76c42d6a7ae","system_id":"levelo_inurba_marseille","lat":43.239643,"lon":5.366187,"is_reserved":false,"is_disabled":false,"rental_uris":{"android":"levelo://app?vid=1497ed62-688b-4d39-afdc-e76c42d6a7ae","ios":"levelo://app?vid=1497ed62-688b-4d39-afdc-e76c42d6a7ae"},"vehicle_type_id":"4","last_reported":1702587997,"current_range_meters":24000,"station_id":"ce4bhi12rcd13ifvqfp0","pricing_plan_id":"free"},{"bike_id":"b7637a5b-0329-45a7-bcd6-35358b19e8bd","system_id":"levelo_inurba_marseille","lat":43.239588,"lon":5.366238,"is_reserved":false,"is_disabled":false,"rental_uris":{"android":"levelo://app?vid=b7637a5b-0329-45a7-bcd6-35358b19e8bd","ios":"levelo://app?vid=b7637a5b-0329-45a7-bcd6-35358b19e8bd"},"vehicle_type_id":"4","last_reported":1702587997,"current_range_meters":30400,"station_id":"ce4bhi12rcd13ifvqfp0","pricing_plan_id":"free"},{"bike_id":"48eef3e3-7f81-4336-bb58-59b8b1661a1f","system_id":"levelo_inurba_marseille","lat":43.239535,"lon":5.366415,"is_reserved":false,"is_disabled":false,"rental_uris":{"android":"levelo://app?vid=48eef3e3-7f81-4336-bb58-59b8b1661a1f","ios":"levelo://app?vid=48eef3e3-7f81-4336-bb58-59b8b1661a1f"},"vehicle_type_id":"4","last_reported":1702587997,"current_range_meters":12800,"station_id":"ce4bhi12rcd13ifvqfp0","pricing_plan_id":"free"},{"bike_id":"5c56cc11-c1ca-430f-b898-95a1151d8a21","system_id":"levelo_inurba_marseille","lat":43.231986,"lon":5.3555,"is_reserved":false,"is_disabled":false,"rental_uris":{"android":"levelo://app?vid=5c56cc11-c1ca-430f-b898-95a1151d8a21","ios":"levelo://app?vid=5c56cc11-c1ca-430f-b898-95a1151d8a21"},"vehicle_type_id":"4","last_reported":1702587997,"current_range_meters":2800,"station_id":"ce4bhu92rcd13ifvqi70","pricing_plan_id":"free"},{"bike_id":"1c152701-4b2a-4bae-9910-af52ecb96d7d","system_id":"levelo_inurba_marseille","lat":43.231947,"lon":5.355553,"is_reserved":false,"is_disabled":false,"rental_uris":{"android":"levelo://app?vid=1c152701-4b2a-4bae-9910-af52ecb96d7d","ios":"levelo://app?vid=1c152701-4b2a-4bae-9910-af52ecb96d7d"},"vehicle_type_id":"4","last_reported":1702587997,"current_range_meters":18400,"station_id":"ce4bhu92rcd13ifvqi70","pricing_plan_id":"free"},{"bike_id":"a77fff13-9f20-4e3b-b9d6-ff4e799f8066","system_id":"levelo_inurba_marseille","lat":43.23188,"lon":5.399865,"is_reserved":false,"is_disabled":false,"rental_uris":{"android":"levelo://app?vid=a77fff13-9f20-4e3b-b9d6-ff4e799f8066","ios":"levelo://app?vid=a77fff13-9f20-4e3b-b9d6-ff4e799f8066"},"vehicle_type_id":"4","last_reported":1702587997,"current_range_meters":31200,"station_id":"ce4bhn12rcd13ifvqgqg","pricing_plan_id":"free"},{"bike_id":"830d849e-9bc4-45c0-a5c3-bdc822c53da0","system_id":"levelo_inurba_marseille","lat":43.231794,"lon":5.400052,"is_reserved":false,"is_disabled":false,"rental_uris":{"android":"levelo://app?vid=830d849e-9bc4-45c0-a5c3-bdc822c53da0","ios":"levelo://app?vid=830d849e-9bc4-45c0-a5c3-bdc822c53da0"},"vehicle_type_id":"4","last_reported":1702587997,"current_range_meters":28400,"station_id":"ce4bhn12rcd13ifvqgqg","pricing_plan_id":"free"},{"bike_id":"dd7ed4dd-77c8-413e-9e14-33a4d651f1aa","system_id":"levelo_inurba_marseille","lat":43.231793,"lon":5.400044,"is_reserved":false,"is_disabled":false,"rental_uris":{"android":"levelo://app?vid=dd7ed4dd-77c8-413e-9e14-33a4d651f1aa","ios":"levelo://app?vid=dd7ed4dd-77c8-413e-9e14-33a4d651f1aa"},"vehicle_type_id":"4","last_reported":1702587997,"current_range_meters":31200,"station_id":"ce4bhn12rcd13ifvqgqg","pricing_plan_id":"free"},{"bike_id":"3872e108-2a7c-4ac9-94f3-2559e9ed9017","system_id":"levelo_inurba_marseille","lat":43.231794,"lon":5.400052,"is_reserved":false,"is_disabled":false,"rental_uris":{"android":"levelo://app?vid=3872e108-2a7c-4ac9-94f3-2559e9ed9017","ios":"levelo://app?vid=3872e108-2a7c-4ac9-94f3-2559e9ed9017"},"vehicle_type_id":"4","last_reported":1702587997,"current_range_meters":28400,"station_id":"ce4bhn12rcd13ifvqgqg","pricing_plan_id":"free"}]}}