{"last_updated":1737259804,"ttl":60,"version":"2.2","data":{"bikes":[{"bike_id":"fe9584c6-d7c2-4da9-a68c-49720b62392c","system_id":"levelo_inurba_marseille","lat":43.285645,"lon":5.394999,"is_reserved":false,"is_disabled":false,"rental_uris":{"android":"levelo://app?vid=fe9584c6-d7c2-4da9-a68c-49720b62392c","ios":"levelo://app?vid=fe9584c6-d7c2-4da9-a68c-49720b62392c"},"vehicle_type_id":"4","last_reported":1737259804,"current_range_meters":33600,"station_id":"ce4bh292rcd13ifvqdg0","pricing_plan_id":"cebpf4jnsgd1na2vs0mg"},{"bike_id":"1a436c62-f447-44e4-a31d-30a6397fe66d","system_id":"levelo_inurba_marseille","lat":43.30462,"lon":5.37913,"is_reserved":false,"is_disabled":false,"rental_uris":{"android":"levelo://app?vid=1a436c62-f447-44e4-a31d-30a6397fe66d","ios":"levelo://app?vid=1a436c62-f447-44e4-a31d-30a6397fe66d"},"vehicle_type_id":"4","last_reported":1737259804,"current_range_meters":35200,"station_id":"ce4bgup2rcd13ifvqcn0","pricing_plan_id":"cebpf4jnsgd1na2vs0mg"},{"bike_id":"a8952787-a77f-475a-b83d-e8b332145710","system_id":"levelo_inurba_marseille","lat":43.28102,"lon":5.378611,"is_reserved":false,"is_disabled":false,"rental_uris":{"android":"levelo://app?vid=a8952787-a77f-475a-b83d-e8b332145710","ios":"levelo://app?vid=a8952787-a77f-475a-b83d-e8b332145710"},"vehicle_type_id":"4","last_reported":1737259804,"current_range_meters":30800,"station_id":"ce4bha12rcd13ifvqee0","pricing_plan_id":"cebpf4jnsgd1na2vs0mg"},{"bike_id":"49142cff-fb21-4c2a-b7b6-d170fa289b55","system_id":"levelo_inurba_marseille","lat":43.31892,"lon":5.40737,"is_reserved":false,"is_disabled":false,"rental_uris":{"android":"levelo://app?vid=49142cff-fb21-4c2a-b7b6-d170fa289b55","ios":"levelo://app?vid=49142cff-fb21-4c2a-b7b6-d170fa289b55"},"vehicle_type_id":"4","last_reported":1737259804,"current_range_meters":30800,"station_id":"ce4bhq12rcd13ifvqhig","pricing_plan_id":"cebpf4jnsgd1na2vs0mg"},{"bike_id":"d4498dc9-0a7e-4ebb-86b0-2f6f5898313b","system_id":"levelo_inurba_marseille","lat":43.2558,"lon":5.38244,"is_reserved":false,"is_disabled":false,"rental_uris":{"android":"levelo://app?vid=d4498dc9-0a7e-4ebb-86b0-2f6f5898313b","ios":"levelo://app?vid=d4498dc9-0a7e-4ebb-86b0-2f6f5898313b"},"vehicle_type_id":"4","last_reported":1737259804,"current_range_meters":38000,"station_id":"ce4bhih2rcd13ifvqfs0","pricing_plan_id":"cebpf4jnsgd1na2vs0mg"},{"bike_id":"eb6a7ef2-9572-4999-b0d9-89ac6512f20e","system_id":"levelo_inurba_marseille","lat":43.25023,"lon":5.38936,"is_reserved":false,"is_disabled":false,"rental_uris":{"android":"levelo://app?vid=eb6a7ef2-9572-4999-b0d9-89ac6512f20e","ios":"levelo://app?vid=eb6a7ef2-9572-4999-b0d9-89ac6512f20e"},"vehicle_type_id":"4","last_reported":1737259804,"current_range_meters":38800,"station_id":"ce4bhgp2rcd13ifvqfd0","pricing_plan_id":"cebpf4jnsgd1na2vs0mg"},{"bike_id":"32983ca2-b16e-4020-8699-0f3928b6b30e","system_id":"levelo_inurba_marseille","lat":43.29565,"lon":5.39971,"is_reserved":false,"is_disabled":false,"rental_uris":{"android":"levelo://app?vid=32983ca2-b16e-4020-8699-0f3928b6b30e","ios":"levelo://app?vid=32983ca2-b16e-4020-8699-0f3928b6b30e"},"vehicle_type_id":"4","last_reported":1737259804,"current_range_meters":8800,"station_id":"ce4bh312rcd13ifvqdj0","pricing_plan_id":"cebpf4jnsgd1na2vs0mg"},{"bike_id":"cb26f88d-75c7-4291-a399-9d2f1d9c8499","system_id":"levelo_inurba_marseille","lat":43.29577,"lon":5.3674,"is_reserved":false,"is_disabled":false,"rental_uris":{"android":"levelo://app?vid=cb26f88d-75c7-4291-a399-9d2f1d9c8499","ios":"levelo://app?vid=cb26f88d-75c7-4291-a399-9d2f1d9c8499"},"vehicle_type_id":"4","last_reported":1737259804,"current_range_meters":29600,"station_id":"ce4bgph2rcd13ifvqc2g","pricing_plan_id":"cebpf4jnsgd1na2vs0mg"},{"bike_id":"a5cfd84d-4cae-4412-b199-dcb982d64799","system_id":"levelo_inurba_marseille","lat":43.28439,"lon":5.39182,"is_reserved":false,"is_disabled":true,"rental_uris":{"android":"levelo://app?vid=a5cfd84d-4cae-4412-b199-dcb982d64799","ios":"levelo://app?vid=a5cfd84d-4cae-4412-b199-dcb982d64799"},"vehicle_type_id":"4","last_reported":1737259804,"current_range_meters":0,"station_id":"ce4bhoh2rcd13ifvqh5g","pricing_plan_id":"cebpf4jnsgd1na2vs0mg"},{"bike_id":"d4b68915-2e1c-4a93-ac84-959364ed50a9","system_id":"levelo_inurba_marseille","lat":43.292441,"lon":5.408994,"is_reserved":false,"is_disabled":false,"rental_uris":{"android":"levelo://app?vid=d4b68915-2e1c-4a93-ac84-959364ed50a9","ios":"levelo://app?vid=d4b68915-2e1c-4a93-ac84-959364ed50a9"},"vehicle_type_id":"4","last_reported":1737259804,"current_range_meters":25200,"station_id":"ce4bh192rcd13ifvqdc0","pricing_plan_id":"cebpf4jnsgd1na2vs0mg"},{"bike_id":"31a281f0-03e7-40e6-9192-a07a3730f17e","system_id":"levelo_inurba_marseille","lat":43.29568,"lon":5.39976,"is_reserved":false,"is_disabled":false,"rental_uris":{"android":"levelo://app?vid=31a281f0-03e7-40e6-9192-a07a3730f17e","ios":"levelo://app?vid=31a281f0-03e7-40e6-9192-a07a3730f17e"},"vehicle_type_id":"4","last_reported":1737259804,"current_range_meters":39200,"station_id":"ce4bh312rcd13ifvqdj0","pricing_plan_id":"cebpf4jnsgd1na2vs0mg"},{"bike_id":"2e458cba-09ed-4b28-bcfa-56c339e37ef1","system_id":"levelo_inurba_marseille","lat":43.27489,"lon":5.42449,"is_reserved":false,"is_disabled":false,"rental_uris":{"android":"levelo://app?vid=2e458cba-09ed-4b28-bcfa-56c339e37ef1","ios":"levelo://app?vid=2e458cba-09ed-4b28-bcfa-56c339e37ef1"},"vehicle_type_id":"4","last_reported":1737259804,"current_range_meters":32800,"station_id":"ce4bhn92rcd13ifvqgrg","pricing_plan_id":"cebpf4jnsgd1na2vs0mg"},{"bike_id":"4d7363f6-ff16-43fe-8b45-92ac557f5504","system_id":"levelo_inurba_marseille","lat":43.28943,"lon":5.36411,"is_reserved":false,"is_disabled":false,"rental_uris":{"android":"levelo://app?vid=4d7363f6-ff16-43fe-8b45-92ac557f5504","ios":"levelo://app?vid=4d7363f6-ff16-43fe-8b45-92ac557f5504"},"vehicle_type_id":"4","last_reported":1737259804,"current_range_meters":12000,"station_id":"ce4bhc92rcd13ifvqetg","pricing_plan_id":"cebpf4jnsgd1na2vs0mg"},{"bike_id":"3a994724-45a4-4bd8-b8de-79a0ca017493","system_id":"levelo_inurba_marseille","lat":43.26786,"lon":5.39414,"is_reserved":false,"is_disabled":false,"rental_uris":{"android":"levelo://app?vid=3a994724-45a4-4bd8-b8de-79a0ca017493","ios":"levelo://app?vid=3a994724-45a4-4bd8-b8de-79a0ca017493"},"vehicle_type_id":"4","last_reported":1737259804,"current_range_meters":19600,"station_id":"ce4bhh12rcd13ifvqfg0","pricing_plan_id":"cebpf4jnsgd1na2vs0mg"},{"bike_id":"90c165c3-eff9-4a4a-8f28-cfa68619e419","system_id":"levelo_inurba_marseille","lat":43.28716,"lon":5.39984,"is_reserved":false,"is_disabled":true,"rental_uris":{"android":"levelo://app?vid=90c165c3-eff9-4a4a-8f28-cfa68619e419","ios":"levelo://app?vid=90c165c3-eff9-4a4a-8f28-cfa68619e419"},"vehicle_type_id":"4","last_reported":1737259804,"current_range_meters":30000,"station_id":"ce4bho92rcd13ifvqh3g","pricing_plan_id":"cebpf4jnsgd1na2vs0mg"},{"bike_id":"9fc2391e-4789-47b4-a2a7-e5aa2fe293c4","system_id":"levelo_inurba_marseille","lat":43.30156,"lon":5.38769,"is_reserved":false,"is_disabled":false,"rental_uris":{"android":"levelo://app?vid=9fc2391e-4789-47b4-a2a7-e5aa2fe293c4","ios":"levelo://app?vid=9fc2391e-4789-47b4-a2a7-e5aa2fe293c4"},"vehicle_type_id":"4","last_reported":1737259804,"current_range_meters":32000,"station_id":"ce4bghh2rcd13ifvqb60","pricing_plan_id":"cebpf4jnsgd1na2vs0mg"},{"bike_id":"4975d3c5-1381-4300-914e-0a110da6ae0f","system_id":"levelo_inurba_marseille","lat":43.24065,"lon":5.37758,"is_reserved":false,"is_disabled":false,"rental_uris":{"android":"levelo://app?vid=4975d3c5-1381-4300-914e-0a110da6ae0f","ios":"levelo://app?vid=4975d3c5-1381-4300-914e-0a110da6ae0f"},"vehicle_type_id":"4","last_reported":1737259804,"current_range_meters":38800,"station_id":"ce4bhnp2rcd13ifvqgvg","pricing_plan_id":"cebpf4jnsgd1na2vs0mg"},{"bike_id":"a415cf4f-ff4c-4204-8f2b-7f27d59692e5","system_id":"levelo_inurba_marseille","lat":43.30901,"lon":5.39629,"is_reserved":false,"is_disabled":false,"rental_uris":{"android":"levelo://app?vid=a415cf4f-ff4c-4204-8f2b-7f27d59692e5","ios":"levelo://app?vid=a415cf4f-ff4c-4204-8f2b-7f27d59692e5"},"vehicle_type_id":"4","last_reported":1737259804,"current_range_meters":38800,"station_id":"ce4bh012rcd13ifvqcv0","pricing_plan_id":"cebpf4jnsgd1na2vs0mg"},{"bike_id":"ca9db58d-947c-4860-8654-70c594dc1043","system_id":"levelo_inurba_marseille","lat":43.28452,"lon":5.35888,"is_reserved":false,"is_disabled":false,"rental_uris":{"android":"levelo://app?vid=ca9db58d-947c-4860-8654-70c594dc1043","ios":"levelo://app?vid=ca9db58d-947c-4860-8654-70c594dc1043"},"vehicle_type_id":"4","last_reported":1737259804,"current_range_meters":38800,"station_id":"ce4bhah2rcd13ifvqei0","pricing_plan_id":"cebpf4jnsgd1na2vs0mg"},{"bike_id":"2fe88d16-af55-4de4-84b3-2988d3ee891a","system_id":"levelo_inurba_marseille","lat":43.3036,"lon":5.41879,"is_reserved":false,"is_disabled":false,"rental_uris":{"android":"levelo://app?vid=2fe88d16-af55-4de4-84b3-2988d3ee891a","ios":"levelo://app?vid=2fe88d16-af55-4de4-84b3-2988d3ee891a"},"vehicle_type_id":"4","last_reported":1737259804,"current_range_meters":38800,"station_id":"ce4bhop2rcd13ifvqh7g","pricing_plan_id":"cebpf4jnsgd1na2vs0mg"},{"bike_id":"46efa326-c02d-4314-a6fe-f05976f22b94","system_id":"levelo_inurba_marseille","lat":43.280301,"lon":5.369514,"is_reserved":false,"is_disabled":false,"rental_uris":{"android":"levelo://app?vid=46efa326-c02d-4314-a6fe-f05976f22b94","ios":"levelo://app?vid=46efa326-c02d-4314-a6fe-f05976f22b94"},"vehicle_type_id":"4","last_reported":1737259804,"current_range_meters":16400,"station_id":"ce4bha12rcd13ifvqef0","pricing_plan_id":"cebpf4jnsgd1na2vs0mg"},{"bike_id":"b9be44ef-7bb0-4ba3-a4f5-2e356db06bba","system_id":"levelo_inurba_marseille","lat":43.29571,"lon":5.4,"is_reserved":false,"is_disabled":false,"rental_uris":{"android":"levelo://app?vid=b9be44ef-7bb0-4ba3-a4f5-2e356db06bba","ios":"levelo://app?vid=b9be44ef-7bb0-4ba3-a4f5-2e356db06bba"},"vehicle_type_id":"4","last_reported":1737259804,"current_range_meters":32000,"station_id":"ce4bh312rcd13ifvqdj0","pricing_plan_id":"cebpf4jnsgd1na2vs0mg"},{"bike_id":"763ed4fc-16fd-47a0-aedf-62c028daa66f","system_id":"levelo_inurba_marseille","lat":43.3639,"lon":5.3557,"is_reserved":false,"is_disabled":false,"rental_uris":{"android":"levelo://app?vid=763ed4fc-16fd-47a0-aedf-62c028daa66f","ios":"levelo://app?vid=763ed4fc-16fd-47a0-aedf-62c028daa66f"},"vehicle_type_id":"4","last_reported":1737259804,"current_range_meters":16000,"station_id":"","pricing_plan_id":"cebpf4jnsgd1na2vs0mg"},{"bike_id":"8714c275-8772-493a-a1bb-649bdf0edbe0","system_id":"levelo_inurba_marseille","lat":43.30905,"lon":5.36882,"is_reserved":false,"is_disabled":false,"rental_uris":{"android":"levelo://app?vid=8714c275-8772-493a-a1bb-649bdf0edbe0","ios":"levelo://app?vid=8714c275-8772-493a-a1bb-649bdf0edbe0"},"vehicle_type_id":"4","last_reported":1737259804,"current_range_meters":35600,"station_id":"ce4bgn92rcd13ifvqbvg","pricing_plan_id":"cebpf4jnsgd1na2vs0mg"},{"bike_id":"1022f24d-239e-49a1-a4b8-988e34719576","system_id":"levelo_inurba_marseille","lat":43.24547,"lon":5.39525,"is_reserved":false,"is_disabled":false,"rental_uris":{"android":"levelo://app?vid=1022f24d-239e-49a1-a4b8-988e34719576","ios":"levelo://app?vid=1022f24d-239e-49a1-a4b8-988e34719576"},"vehicle_type_id":"4","last_reported":1737259804,"current_range_meters":16000,"station_id":"ce4bhlp2rcd13ifvqgjg","pricing_plan_id":"cebpf4jnsgd1na2vs0mg"},{"bike_id":"d359f35f-3ca3-405b-82ef-cb0e77381ed0","system_id":"levelo_inurba_marseille","lat":43.2957,"lon":5.39972,"is_reserved":false,"is_disabled":false,"rental_uris":{"android":"levelo://app?vid=d359f35f-3ca3-405b-82ef-cb0e77381ed0","ios":"levelo://app?vid=d359f35f-3ca3-405b-82ef-cb0e77381ed0"},"vehicle_type_id":"4","last_reported":1737259804,"current_range_meters":28400,"station_id":"ce4bh312rcd13ifvqdj0","pricing_plan_id":"cebpf4jnsgd1na2vs0mg"},{"bike_id":"c60b4a84-565f-4ae4-a9dc-2cb297430a4e","system_id":"levelo_inurba_marseille","lat":43.30931,"lon":5.40122,"is_reserved":false,"is_disabled":false,"rental_uris":{"android":"levelo://app?vid=c60b4a84-565f-4ae4-a9dc-2cb297430a4e","ios":"levelo://app?vid=c60b4a84-565f-4ae4-a9dc-2cb297430a4e"},"vehicle_type_id":"4","last_reported":1737259804,"current_range_meters":39200,"station_id":"ce4bgvp2rcd13ifvqct0","pricing_plan_id":"cebpf4jnsgd1na2vs0mg"},{"bike_id":"3477fb5d-938e-4d71-a64e-f956f336dc45","system_id":"levelo_inurba_marseille","lat":43.24176,"lon":5.39726,"is_reserved":false,"is_disabled":false,"rental_uris":{"android":"levelo://app?vid=3477fb5d-938e-4d71-a64e-f956f336dc45","ios":"levelo://app?vid=3477fb5d-938e-4d71-a64e-f956f336dc45"},"vehicle_type_id":"4","last_reported":1737259804,"current_range_meters":38800,"station_id":"ce4bhn12rcd13ifvqgpg","pricing_plan_id":"cebpf4jnsgd1na2vs0mg"},{"bike_id":"f3c94274-f861-4c89-8bb1-1ebe1a531935","system_id":"levelo_inurba_marseille","lat":43.25015,"lon":5.38911,"is_reserved":false,"is_disabled":false,"rental_uris":{"android":"levelo://app?vid=f3c94274-f861-4c89-8bb1-1ebe1a531935","ios":"levelo://app?vid=f3c94274-f861-4c89-8bb1-1ebe1a531935"},"vehicle_type_id":"4","last_reported":1737259804,"current_range_meters":38800,"station_id":"ce4bhgp2rcd13ifvqfd0","pricing_plan_id":"cebpf4jnsgd1na2vs0mg"},{"bike_id":"055d1d1e-8127-431b-96c4-b17aeaaf6ecb","system_id":"levelo_inurba_marseille","lat":43.286988,"lon":5.373891,"is_reserved":false,"is_disabled":false,"rental_uris":{"android":"levelo://app?vid=055d1d1e-8127-431b-96c4-b17aeaaf6ecb","ios":"levelo://app?vid=055d1d1e-8127-431b-96c4-b17aeaaf6ecb"},"vehicle_type_id":"4","last_reported":1737259804,"current_range_meters":32400,"station_id":"ce4bh3p2rcd13ifvqdq0","pricing_plan_id":"cebpf4jnsgd1na2vs0mg"},{"bike_id":"ea820ade-d81d-428e-82b9-7f165f7e8e75","system_id":"levelo_inurba_marseille","lat":43.32364,"lon":5.36764,"is_reserved":false,"is_disabled":false,"rental_uris":{"android":"levelo://app?vid=ea820ade-d81d-428e-82b9-7f165f7e8e75","ios":"levelo://app?vid=ea820ade-d81d-428e-82b9-7f165f7e8e75"},"vehicle_type_id":"4","last_reported":1737259804,"current_range_meters":18000,"station_id":"ce4bhsh2rcd13ifvqi2g","pricing_plan_id":"cebpf4jnsgd1na2vs0mg"},{"bike_id":"c29020e0-83ef-4b06-ac4f-c4422257f84a","system_id":"levelo_inurba_marseille","lat":43.36394,"lon":5.356,"is_reserved":false,"is_disabled":false,"rental_uris":{"android":"levelo://app?vid=c29020e0-83ef-4b06-ac4f-c4422257f84a","ios":"levelo://app?vid=c29020e0-83ef-4b06-ac4f-c4422257f84a"},"vehicle_type_id":"4","last_reported":1737259804,"current_range_meters":20800,"station_id":"","pricing_plan_id":"cebpf4jnsgd1na2vs0mg"},{"bike_id":"2a8e6794-3001-4785-a1fa-2c1da9117a55","system_id":"levelo_inurba_marseille","lat":43.27576,"lon":5.38423,"is_reserved":false,"is_disabled":false,"rental_uris":{"android":"levelo://app?vid=2a8e6794-3001-4785-a1fa-2c1da9117a55","ios":"levelo://app?vid=2a8e6794-3001-4785-a1fa-2c1da9117a55"},"vehicle_type_id":"4","last_reported":1737259804,"current_range_meters":38800,"station_id":"ce4bhh92rcd13ifvqfi0","pricing_plan_id":"cebpf4jnsgd1na2vs0mg"},{"bike_id":"a857a7ae-548e-49d1-9a1f-df8c75795140","system_id":"levelo_inurba_marseille","lat":43.28939,"lon":5.39634,"is_reserved":false,"is_disabled":false,"rental_uris":{"android":"levelo://app?vid=a857a7ae-548e-49d1-9a1f-df8c75795140","ios":"levelo://app?vid=a857a7ae-548e-49d1-9a1f-df8c75795140"},"vehicle_type_id":"4","last_reported":1737259804,"current_range_meters":38800,"station_id":"ce4bh3h2rcd13ifvqdn0","pricing_plan_id":"cebpf4jnsgd1na2vs0mg"},{"bike_id":"6d2d85da-70db-4f80-9e63-ef130f17b348","system_id":"levelo_inurba_marseille","lat":43.278115,"lon":5.407168,"is_reserved":false,"is_disabled":false,"rental_uris":{"android":"levelo://app?vid=6d2d85da-70db-4f80-9e63-ef130f17b348","ios":"levelo://app?vid=6d2d85da-70db-4f80-9e63-ef130f17b348"},"vehicle_type_id":"4","last_reported":1737259804,"current_range_meters":37600,"station_id":"ce4bhnh2rcd13ifvqgtg","pricing_plan_id":"cebpf4jnsgd1na2vs0mg"},{"bike_id":"1bc986a8-9387-4926-b0fd-2f0f185b1da4","system_id":"levelo_inurba_marseille","lat":43.28455,"lon":5.35896,"is_reserved":false,"is_disabled":false,"rental_uris":{"android":"levelo://app?vid=1bc986a8-9387-4926-b0fd-2f0f185b1da4","ios":"levelo://app?vid=1bc986a8-9387-4926-b0fd-2f0f185b1da4"},"vehicle_type_id":"4","last_reported":1737259804,"current_range_meters":22400,"station_id":"ce4bhah2rcd13ifvqei0","pricing_plan_id":"cebpf4jnsgd1na2vs0mg"},{"bike_id":"4d4ec566-516b-4793-a5be-68a8e0188dc4","system_id":"levelo_inurba_marseille","lat":43.33032,"lon":5.39047,"is_reserved":false,"is_disabled":false,"rental_uris":{"android":"levelo://app?vid=4d4ec566-516b-4793-a5be-68a8e0188dc4","ios":"levelo://app?vid=4d4ec566-516b-4793-a5be-68a8e0188dc4"},"vehicle_type_id":"4","last_reported":1737259804,"current_range_meters":38800,"station_id":"ce4bhr92rcd13ifvqhrg","pricing_plan_id":"cebpf4jnsgd1na2vs0mg"},{"bike_id":"b672b566-ae6e-4181-a2cb-0155be334a04","system_id":"levelo_inurba_marseille","lat":43.2895,"lon":5.36632,"is_reserved":false,"is_disabled":true,"rental_uris":{"android":"levelo://app?vid=b672b566-ae6e-4181-a2cb-0155be334a04","ios":"levelo://app?vid=b672b566-ae6e-4181-a2cb-0155be334a04"},"vehicle_type_id":"4","last_reported":1737259804,"current_range_meters":35200,"station_id":"ce4bhap2rcd13ifvqek0","pricing_plan_id":"cebpf4jnsgd1na2vs0mg"},{"bike_id":"4bb17db8-5f2d-468d-86e8-e7437f4485f6","system_id":"levelo_inurba_marseille","lat":43.2971,"lon":5.36597,"is_reserved":false,"is_disabled":false,"rental_uris":{"android":"levelo://app?vid=4bb17db8-5f2d-468d-86e8-e7437f4485f6","ios":"levelo://app?vid=4bb17db8-5f2d-468d-86e8-e7437f4485f6"},"vehicle_type_id":"4","last_reported":1737259804,"current_range_meters":39200,"station_id":"ce4bgn12rcd13ifvqbt0","pricing_plan_id":"cebpf4jnsgd1na2vs0mg"},{"bike_id":"e9b26cca-a227-4762-933b-a7510f012b99","system_id":"levelo_inurba_marseille","lat":43.2956,"lon":5.39983,"is_reserved":false,"is_disabled":false,"rental_uris":{"android":"levelo://app?vid=e9b26cca-a227-4762-933b-a7510f012b99","ios":"levelo://app?vid=e9b26cca-a227-4762-933b-a7510f012b99"},"vehicle_type_id":"4","last_reported":1737259804,"current_range_meters":38400,"station_id":"ce4bh312rcd13ifvqdj0","pricing_plan_id":"cebpf4jnsgd1na2vs0mg"},{"bike_id":"04e7f6b2-1170-476d-8eb7-54bc6ab7d23c","system_id":"levelo_inurba_marseille","lat":43.243867,"lon":5.370556,"is_reserved":false,"is_disabled":false,"rental_uris":{"android":"levelo://app?vid=04e7f6b2-1170-476d-8eb7-54bc6ab7d23c","ios":"levelo://app?vid=04e7f6b2-1170-476d-8eb7-54bc6ab7d23c"},"vehicle_type_id":"4","last_reported":1737259804,"current_range_meters":38800,"station_id":"ce4bhhh2rcd13ifvqfk0","pricing_plan_id":"cebpf4jnsgd1na2vs0mg"},{"bike_id":"4395dfba-4e3d-4b8b-aa73-f3e693689e94","system_id":"levelo_inurba_marseille","lat":43.24669,"lon":5.38167,"is_reserved":false,"is_disabled":false,"rental_uris":{"android":"levelo://app?vid=4395dfba-4e3d-4b8b-aa73-f3e693689e94","ios":"levelo://app?vid=4395dfba-4e3d-4b8b-aa73-f3e693689e94"},"vehicle_type_id":"4","last_reported":1737259804,"current_range_meters":24800,"station_id":"ce4bhih2rcd13ifvqfr0","pricing_plan_id":"cebpf4jnsgd1na2vs0mg"},{"bike_id":"36b74495-21b7-4b7a-9d72-6023ac989da4","system_id":"levelo_inurba_marseille","lat":43.28353,"lon":5.3812,"is_reserved":false,"is_disabled":false,"rental_uris":{"android":"levelo://app?vid=36b74495-21b7-4b7a-9d72-6023ac989da4","ios":"levelo://app?vid=36b74495-21b7-4b7a-9d72-6023ac989da4"},"vehicle_type_id":"4","last_reported":1737259804,"current_range_meters":10800,"station_id":"ce4bh412rcd13ifvqdr0","pricing_plan_id":"cebpf4jnsgd1na2vs0mg"},{"bike_id":"4ca4a284-7c6d-494d-904d-fa6aeb88c6a7","system_id":"levelo_inurba_marseille","lat":43.308934,"lon":5.396372,"is_reserved":false,"is_disabled":false,"rental_uris":{"android":"levelo://app?vid=4ca4a284-7c6d-494d-904d-fa6aeb88c6a7","ios":"levelo://app?vid=4ca4a284-7c6d-494d-904d-fa6aeb88c6a7"},"vehicle_type_id":"4","last_reported":1737259804,"current_range_meters":28800,"station_id":"ce4bh012rcd13ifvqcv0","pricing_plan_id":"cebpf4jnsgd1na2vs0mg"},{"bike_id":"df581145-fd95-4a77-a27c-2465bbb559bf","system_id":"levelo_inurba_marseille","lat":43.24675,"lon":5.38154,"is_reserved":false,"is_disabled":false,"rental_uris":{"android":"levelo://app?vid=df581145-fd95-4a77-a27c-2465bbb559bf","ios":"levelo://app?vid=df581145-fd95-4a77-a27c-2465bbb559bf"},"vehicle_type_id":"4","last_reported":1737259804,"current_range_meters":28800,"station_id":"ce4bhih2rcd13ifvqfr0","pricing_plan_id":"cebpf4jnsgd1na2vs0mg"},{"bike_id":"a1268425-e1b2-45b1-8fbc-9391b8140126","system_id":"levelo_inurba_marseille","lat":43.24395,"lon":5.37061,"is_reserved":false,"is_disabled":false,"rental_uris":{"android":"levelo://app?vid=a1268425-e1b2-45b1-8fbc-9391b8140126","ios":"levelo://app?vid=a1268425-e1b2-45b1-8fbc-9391b8140126"},"vehicle_type_id":"4","last_reported":1737259804,"current_range_meters":30400,"station_id":"ce4bhhh2rcd13ifvqfk0","pricing_plan_id":"cebpf4jnsgd1na2vs0mg"},{"bike_id":"501ab4fd-c09d-4978-b056-79da026409be","system_id":"levelo_inurba_marseille","lat":43.26225,"lon":5.4045,"is_reserved":false,"is_disabled":false,"rental_uris":{"android":"levelo://app?vid=501ab4fd-c09d-4978-b056-79da026409be","ios":"levelo://app?vid=501ab4fd-c09d-4978-b056-79da026409be"},"vehicle_type_id":"4","last_reported":1737259804,"current_range_meters":36800,"station_id":"","pricing_plan_id":"cebpf4jnsgd1na2vs0mg"},{"bike_id":"c997c11d-c5fb-4097-94f9-0199648ff695","system_id":"levelo_inurba_marseille","lat":43.280827,"lon":5.396557,"is_reserved":false,"is_disabled":false,"rental_uris":{"android":"levelo://app?vid=c997c11d-c5fb-4097-94f9-0199648ff695","ios":"levelo://app?vid=c997c11d-c5fb-4097-94f9-0199648ff695"},"vehicle_type_id":"4","last_reported":1737259804,"current_range_meters":38800,"station_id":"ce4bho12rcd13ifvqh2g","pricing_plan_id":"cebpf4jnsgd1na2vs0mg"},{"bike_id":"15282afd-b0b2-4f48-9b35-5fd231c2e253","system_id":"levelo_inurba_marseille","lat":43.30257,"lon":5.40075,"is_reserved":false,"is_disabled":false,"rental_uris":{"android":"levelo://app?vid=15282afd-b0b2-4f48-9b35-5fd231c2e253","ios":"levelo://app?vid=15282afd-b0b2-4f48-9b35-5fd231c2e253"},"vehicle_type_id":"4","last_reported":1737259804,"current_range_meters":27600,"station_id":"ce4bgvh2rcd13ifvqcs0","pricing_plan_id":"cebpf4jnsgd1na2vs0mg"},{"bike_id":"1b9a9c77-b796-458f-9405-6cbabf6b8565","system_id":"levelo_inurba_marseille","lat":43.302071,"lon":5.394844,"is_reserved":false,"is_disabled":false,"rental_uris":{"android":"levelo://app?vid=1b9a9c77-b796-458f-9405-6cbabf6b8565","ios":"levelo://app?vid=1b9a9c77-b796-458f-9405-6cbabf6b8565"},"vehicle_type_id":"4","last_reported":1737259804,"current_range_meters":36800,"station_id":"ce4bh0p2rcd13ifvqd70","pricing_plan_id":"cebpf4jnsgd1na2vs0mg"},{"bike_id":"09f2f0ba-7b2f-4e24-949c-bdd899496366","system_id":"levelo_inurba_marseille","lat":43.30297,"lon":5.37692,"is_reserved":false,"is_disabled":false,"rental_uris":{"android":"levelo://app?vid=09f2f0ba-7b2f-4e24-949c-bdd899496366","ios":"levelo://app?vid=09f2f0ba-7b2f-4e24-949c-bdd899496366"},"vehicle_type_id":"4","last_reported":1737259804,"current_range_meters":38800,"station_id":"ce4bguh2rcd13ifvqcj0","pricing_plan_id":"cebpf4jnsgd1na2vs0mg"},{"bike_id":"2db212ce-aad5-435f-9548-4470f5f37e90","system_id":"levelo_inurba_marseille","lat":43.330139,"lon":5.390388,"is_reserved":false,"is_disabled":false,"rental_uris":{"android":"levelo://app?vid=2db212ce-aad5-435f-9548-4470f5f37e90","ios":"levelo://app?vid=2db212ce-aad5-435f-9548-4470f5f37e90"},"vehicle_type_id":"4","last_reported":1737259804,"current_range_meters":30400,"station_id":"ce4bhr92rcd13ifvqhrg","pricing_plan_id":"cebpf4jnsgd1na2vs0mg"},{"bike_id":"d48fc441-b585-4d51-a86d-a46d15ed8ba4","system_id":"levelo_inurba_marseille","lat":43.28665,"lon":5.36341,"is_reserved":false,"is_disabled":false,"rental_uris":{"android":"levelo://app?vid=d48fc441-b585-4d51-a86d-a46d15ed8ba4","ios":"levelo://app?vid=d48fc441-b585-4d51-a86d-a46d15ed8ba4"},"vehicle_type_id":"4","last_reported":1737259804,"current_range_meters":26800,"station_id":"ce4bhah2rcd13ifvqej0","pricing_plan_id":"cebpf4jnsgd1na2vs0mg"},{"bike_id":"8d9af782-671a-411b-a2ae-5fdd1a4ad135","system_id":"levelo_inurba_marseille","lat":43.275615,"lon":5.384325,"is_reserved":false,"is_disabled":false,"rental_uris":{"android":"levelo://app?vid=8d9af782-671a-411b-a2ae-5fdd1a4ad135","ios":"levelo://app?vid=8d9af782-671a-411b-a2ae-5fdd1a4ad135"},"vehicle_type_id":"4","last_reported":1737259804,"current_range_meters":29600,"station_id":"ce4bhh92rcd13ifvqfi0","pricing_plan_id":"cebpf4jnsgd1na2vs0mg"},{"bike_id":"7b5cc4cc-e608-454c-95d4-00c7b5c48c31","system_id":"levelo_inurba_marseille","lat":43.259394,"lon":5.40903,"is_reserved":false,"is_disabled":false,"rental_uris":{"android":"levelo://app?vid=7b5cc4cc-e608-454c-95d4-00c7b5c48c31","ios":"levelo://app?vid=7b5cc4cc-e608-454c-95d4-00c7b5c48c31"},"vehicle_type_id":"4","last_reported":1737259804,"current_range_meters":8000,"station_id":"ce4bhm92rcd13ifvqglg","pricing_plan_id":"cebpf4jnsgd1na2vs0mg"},{"bike_id":"0393752c-b4cc-41e7-b42b-582ce95f9325","system_id":"levelo_inurba_marseille","lat":43.28439,"lon":5.39206,"is_reserved":false,"is_disabled":false,"rental_uris":{"android":"levelo://app?vid=0393752c-b4cc-41e7-b42b-582ce95f9325","ios":"levelo://app?vid=0393752c-b4cc-41e7-b42b-582ce95f9325"},"vehicle_type_id":"4","last_reported":1737259804,"current_range_meters":28400,"station_id":"ce4bhoh2rcd13ifvqh5g","pricing_plan_id":"cebpf4jnsgd1na2vs0mg"},{"bike_id":"644b6a66-e713-4aa9-bb95-30a64653cec0","system_id":"levelo_inurba_marseille","lat":43.274937,"lon":5.424482,"is_reserved":false,"is_disabled":false,"rental_uris":{"android":"levelo://app?vid=644b6a66-e713-4aa9-bb95-30a64653cec0","ios":"levelo://app?vid=644b6a66-e713-4aa9-bb95-30a64653cec0"},"vehicle_type_id":"4","last_reported":1737259804,"current_range_meters":17600,"station_id":"ce4bhn92rcd13ifvqgrg","pricing_plan_id":"cebpf4jnsgd1na2vs0mg"},{"bike_id":"c8f7cc55-fbaf-43c6-ab25-9f6c9663110a","system_id":"levelo_inurba_marseille","lat":43.317584,"lon":5.390163,"is_reserved":false,"is_disabled":false,"rental_uris":{"android":"levelo://app?vid=c8f7cc55-fbaf-43c6-ab25-9f6c9663110a","ios":"levelo://app?vid=c8f7cc55-fbaf-43c6-ab25-9f6c9663110a"},"vehicle_type_id":"4","last_reported":1737259804,"current_range_meters":38800,"station_id":"ce4bhqp2rcd13ifvqhng","pricing_plan_id":"cebpf4jnsgd1na2vs0mg"},{"bike_id":"80f81d38-d023-4511-b747-c3aeddf8bdb8","system_id":"levelo_inurba_marseille","lat":43.30349,"lon":5.41887,"is_reserved":false,"is_disabled":false,"rental_uris":{"android":"levelo://app?vid=80f81d38-d023-4511-b747-c3aeddf8bdb8","ios":"levelo://app?vid=80f81d38-d023-4511-b747-c3aeddf8bdb8"},"vehicle_type_id":"4","last_reported":1737259804,"current_range_meters":16400,"station_id":"ce4bhop2rcd13ifvqh7g","pricing_plan_id":"cebpf4jnsgd1na2vs0mg"},{"bike_id":"cc58c983-a9b7-4101-8f9c-21e5c3efe2bb","system_id":"levelo_inurba_marseille","lat":43.285651,"lon":5.394953,"is_reserved":false,"is_disabled":false,"rental_uris":{"android":"levelo://app?vid=cc58c983-a9b7-4101-8f9c-21e5c3efe2bb","ios":"levelo://app?vid=cc58c983-a9b7-4101-8f9c-21e5c3efe2bb"},"vehicle_type_id":"4","last_reported":1737259804,"current_range_meters":28800,"station_id":"ce4bh292rcd13ifvqdg0","pricing_plan_id":"cebpf4jnsgd1na2vs0mg"},{"bike_id":"366b3361-9a74-4f75-aa58-5cacc4d8afe8","system_id":"levelo_inurba_marseille","lat":43.29555,"lon":5.42296,"is_reserved":false,"is_disabled":false,"rental_uris":{"android":"levelo://app?vid=366b3361-9a74-4f75-aa58-5cacc4d8afe8","ios":"levelo://app?vid=366b3361-9a74-4f75-aa58-5cacc4d8afe8"},"vehicle_type_id":"4","last_reported":1737259804,"current_range_meters":38800,"station_id":"ce4bhph2rcd13ifvqhdg","pricing_plan_id":"cebpf4jnsgd1na2vs0mg"},{"bike_id":"249539c6-83be-4040-a185-92bdddb7c341","system_id":"levelo_inurba_marseille","lat":43.29695,"lon":5.37309,"is_reserved":false,"is_disabled":false,"rental_uris":{"android":"levelo://app?vid=249539c6-83be-4040-a185-92bdddb7c341","ios":"levelo://app?vid=249539c6-83be-4040-a185-92bdddb7c341"},"vehicle_type_id":"4","last_reported":1737259804,"current_range_meters":38800,"station_id":"ce4bgk12rcd13ifvqbj0","pricing_plan_id":"cebpf4jnsgd1na2vs0mg"},{"bike_id":"10b8da58-1f12-44b0-8c4c-eff01d48a146","system_id":"levelo_inurba_marseille","lat":43.30651,"lon":5.40107,"is_reserved":false,"is_disabled":true,"rental_uris":{"android":"levelo://app?vid=10b8da58-1f12-44b0-8c4c-eff01d48a146","ios":"levelo://app?vid=10b8da58-1f12-44b0-8c4c-eff01d48a146"},"vehicle_type_id":"4","last_reported":1737259804,"current_range_meters":29600,"station_id":"ce4bh112rcd13ifvqda0","pricing_plan_id":"cebpf4jnsgd1na2vs0mg"},{"bike_id":"d1a77a42-019d-427b-8631-0001e41c6be5","system_id":"levelo_inurba_marseille","lat":43.308773,"lon":5.372025,"is_reserved":false,"is_disabled":false,"rental_uris":{"android":"levelo://app?vid=d1a77a42-019d-427b-8631-0001e41c6be5","ios":"levelo://app?vid=d1a77a42-019d-427b-8631-0001e41c6be5"},"vehicle_type_id":"4","last_reported":1737259804,"current_range_meters":30000,"station_id":"ce4bguh2rcd13ifvqckg","pricing_plan_id":"cebpf4jnsgd1na2vs0mg"},{"bike_id":"ca8aa51d-4833-4c77-8009-59b7c07323a3","system_id":"levelo_inurba_marseille","lat":43.32361,"lon":5.36716,"is_reserved":false,"is_disabled":false,"rental_uris":{"android":"levelo://app?vid=ca8aa51d-4833-4c77-8009-59b7c07323a3","ios":"levelo://app?vid=ca8aa51d-4833-4c77-8009-59b7c07323a3"},"vehicle_type_id":"4","last_reported":1737259804,"current_range_meters":37600,"station_id":"ce4bhsh2rcd13ifvqi2g","pricing_plan_id":"cebpf4jnsgd1na2vs0mg"},{"bike_id":"cd21465a-99d4-4df2-80bc-53a53cf0eafe","system_id":"levelo_inurba_marseille","lat":43.286216,"lon":5.351016,"is_reserved":false,"is_disabled":false,"rental_uris":{"android":"levelo://app?vid=cd21465a-99d4-4df2-80bc-53a53cf0eafe","ios":"levelo://app?vid=cd21465a-99d4-4df2-80bc-53a53cf0eafe"},"vehicle_type_id":"4","last_reported":1737259804,"current_range_meters":8800,"station_id":"ce4bhch2rcd13ifvqeug","pricing_plan_id":"cebpf4jnsgd1na2vs0mg"},{"bike_id":"f7ba7043-f539-442d-97e3-69d6c011a777","system_id":"levelo_inurba_marseille","lat":43.31492,"lon":5.37303,"is_reserved":false,"is_disabled":false,"rental_uris":{"android":"levelo://app?vid=f7ba7043-f539-442d-97e3-69d6c011a777","ios":"levelo://app?vid=f7ba7043-f539-442d-97e3-69d6c011a777"},"vehicle_type_id":"4","last_reported":1737259804,"current_range_meters":37600,"station_id":"ce4bgt12rcd13ifvqcd0","pricing_plan_id":"cebpf4jnsgd1na2vs0mg"},{"bike_id":"9dc49063-283d-43eb-bbfe-31fee7e70777","system_id":"levelo_inurba_marseille","lat":43.31226,"lon":5.368359,"is_reserved":false,"is_disabled":false,"rental_uris":{"android":"levelo://app?vid=9dc49063-283d-43eb-bbfe-31fee7e70777","ios":"levelo://app?vid=9dc49063-283d-43eb-bbfe-31fee7e70777"},"vehicle_type_id":"4","last_reported":1737259804,"current_range_meters":9600,"station_id":"ce4bgl92rcd13ifvqbq0","pricing_plan_id":"cebpf4jnsgd1na2vs0mg"},{"bike_id":"4b73b77a-9a3b-4f18-a046-cb900f7887f8","system_id":"levelo_inurba_marseille","lat":43.31728,"lon":5.42388,"is_reserved":false,"is_disabled":false,"rental_uris":{"android":"levelo://app?vid=4b73b77a-9a3b-4f18-a046-cb900f7887f8","ios":"levelo://app?vid=4b73b77a-9a3b-4f18-a046-cb900f7887f8"},"vehicle_type_id":"4","last_reported":1737259804,"current_range_meters":38800,"station_id":"ce4bhp92rcd13ifvqhbg","pricing_plan_id":"cebpf4jnsgd1na2vs0mg"},{"bike_id":"4545feef-1192-4208-aed4-5ee108d0a9de","system_id":"levelo_inurba_marseille","lat":43.30134,"lon":5.39871,"is_reserved":false,"is_disabled":false,"rental_uris":{"android":"levelo://app?vid=4545feef-1192-4208-aed4-5ee108d0a9de","ios":"levelo://app?vid=4545feef-1192-4208-aed4-5ee108d0a9de"},"vehicle_type_id":"4","last_reported":1737259804,"current_range_meters":36800,"station_id":"ce4bh0h2rcd13ifvqd40","pricing_plan_id":"cebpf4jnsgd1na2vs0mg"},{"bike_id":"2f4caf98-3961-4ced-b044-5e0f3f85f603","system_id":"levelo_inurba_marseille","lat":43.27979,"lon":5.38714,"is_reserved":false,"is_disabled":false,"rental_uris":{"android":"levelo://app?vid=2f4caf98-3961-4ced-b044-5e0f3f85f603","ios":"levelo://app?vid=2f4caf98-3961-4ced-b044-5e0f3f85f603"},"vehicle_type_id":"4","last_reported":1737259804,"current_range_meters":34800,"station_id":"ce4bhg12rcd13ifvqf80","pricing_plan_id":"cebpf4jnsgd1na2vs0mg"},{"bike_id":"57d9fa47-e597-4ea4-913f-9b45079bd718","system_id":"levelo_inurba_marseille","lat":43.330359,"lon":5.390373,"is_reserved":false,"is_disabled":false,"rental_uris":{"android":"levelo://app?vid=57d9fa47-e597-4ea4-913f-9b45079bd718","ios":"levelo://app?vid=57d9fa47-e597-4ea4-913f-9b45079bd718"},"vehicle_type_id":"4","last_reported":1737259804,"current_range_meters":8800,"station_id":"ce4bhr92rcd13ifvqhrg","pricing_plan_id":"cebpf4jnsgd1na2vs0mg"},{"bike_id":"8425f527-93d3-4514-a4ff-69db683ce640","system_id":"levelo_inurba_marseille","lat":43.30607,"lon":5.39361,"is_reserved":false,"is_disabled":false,"rental_uris":{"android":"levelo://app?vid=8425f527-93d3-4514-a4ff-69db683ce640","ios":"levelo://app?vid=8425f527-93d3-4514-a4ff-69db683ce640"},"vehicle_type_id":"4","last_reported":1737259804,"current_range_meters":37600,"station_id":"ce4bh0p2rcd13ifvqd80","pricing_plan_id":"cebpf4jnsgd1na2vs0mg"},{"bike_id":"4ec76aa8-1e80-4051-b2ea-1baaf50a61e8","system_id":"levelo_inurba_marseille","lat":43.241381,"lon":5.380981,"is_reserved":false,"is_disabled":false,"rental_uris":{"android":"levelo://app?vid=4ec76aa8-1e80-4051-b2ea-1baaf50a61e8","ios":"levelo://app?vid=4ec76aa8-1e80-4051-b2ea-1baaf50a61e8"},"vehicle_type_id":"4","last_reported":1737259804,"current_range_meters":19200,"station_id":"","pricing_plan_id":"cebpf4jnsgd1na2vs0mg"},{"bike_id":"abf9a94d-47ed-4ee4-a756-d72acf4c1209","system_id":"levelo_inurba_marseille","lat":43.28722,"lon":5.36086,"is_reserved":false,"is_disabled":false,"rental_uris":{"android":"levelo://app?vid=abf9a94d-47ed-4ee4-a756-d72acf4c1209","ios":"levelo://app?vid=abf9a94d-47ed-4ee4-a756-d72acf4c1209"},"vehicle_type_id":"4","last_reported":1737259804,"current_range_meters":37600,"station_id":"cki0cbj6b192h4jlfktg","pricing_plan_id":"cebpf4jnsgd1na2vs0mg"},{"bike_id":"bd00f222-ce0c-4f81-a68c-0edabc3e5f6b","system_id":"levelo_inurba_marseille","lat":43.25078,"lon":5.39528,"is_reserved":false,"is_disabled":false,"rental_uris":{"android":"levelo://app?vid=bd00f222-ce0c-4f81-a68c-0edabc3e5f6b","ios":"levelo://app?vid=bd00f222-ce0c-4f81-a68c-0edabc3e5f6b"},"vehicle_type_id":"4","last_reported":1737259804,"current_range_meters":38000,"station_id":"ce4bhm12rcd13ifvqgkg","pricing_plan_id":"cebpf4jnsgd1na2vs0mg"},{"bike_id":"2c114e21-3f5a-457e-b6ff-3dda5266ff12","system_id":"levelo_inurba_marseille","lat":43.3043,"lon":5.39746,"is_reserved":false,"is_disabled":false,"rental_uris":{"android":"levelo://app?vid=2c114e21-3f5a-457e-b6ff-3dda5266ff12","ios":"levelo://app?vid=2c114e21-3f5a-457e-b6ff-3dda5266ff12"},"vehicle_type_id":"4","last_reported":1737259804,"current_range_meters":38800,"station_id":"ce4bh092rcd13ifvqd20","pricing_plan_id":"cebpf4jnsgd1na2vs0mg"},{"bike_id":"d400821d-12fc-4b92-a929-07e330bc24b2","system_id":"levelo_inurba_marseille","lat":43.22934,"lon":5.3538,"is_reserved":false,"is_disabled":false,"rental_uris":{"android":"levelo://app?vid=d400821d-12fc-4b92-a929-07e330bc24b2","ios":"levelo://app?vid=d400821d-12fc-4b92-a929-07e330bc24b2"},"vehicle_type_id":"4","last_reported":1737259804,"current_range_meters":38800,"station_id":"cpo3532slgdg3j2ikp40","pricing_plan_id":"cebpf4jnsgd1na2vs0mg"},{"bike_id":"eded1759-6986-42a5-93c8-94fd83768aa1","system_id":"levelo_inurba_marseille","lat":43.30128,"lon":5.39852,"is_reserved":false,"is_disabled":false,"rental_uris":{"android":"levelo://app?vid=eded1759-6986-42a5-93c8-94fd83768aa1","ios":"levelo://app?vid=eded1759-6986-42a5-93c8-94fd83768aa1"},"vehicle_type_id":"4","last_reported":1737259804,"current_range_meters":30000,"station_id":"ce4bh0h2rcd13ifvqd40","pricing_plan_id":"cebpf4jnsgd1na2vs0mg"},{"bike_id":"4104cbba-088f-4383-b2a0-261d17699731","system_id":"levelo_inurba_marseille","lat":43.23963,"lon":5.36638,"is_reserved":false,"is_disabled":false,"rental_uris":{"android":"levelo://app?vid=4104cbba-088f-4383-b2a0-261d17699731","ios":"levelo://app?vid=4104cbba-088f-4383-b2a0-261d17699731"},"vehicle_type_id":"4","last_reported":1737259804,"current_range_meters":37600,"station_id":"ce4bhi12rcd13ifvqfp0","pricing_plan_id":"cebpf4jnsgd1na2vs0mg"},{"bike_id":"4a4b8a38-93fe-4562-bcce-826a532c71f1","system_id":"levelo_inurba_marseille","lat":43.23185,"lon":5.39986,"is_reserved":false,"is_disabled":false,"rental_uris":{"android":"levelo://app?vid=4a4b8a38-93fe-4562-bcce-826a532c71f1","ios":"levelo://app?vid=4a4b8a38-93fe-4562-bcce-826a532c71f1"},"vehicle_type_id":"4","last_reported":1737259804,"current_range_meters":38800,"station_id":"ce4bhn12rcd13ifvqgqg","pricing_plan_id":"cebpf4jnsgd1na2vs0mg"},{"bike_id":"3677fd36-cc3f-4252-97c3-e7e1e1a066de","system_id":"levelo_inurba_marseille","lat":43.26581,"lon":5.39018,"is_reserved":false,"is_disabled":false,"rental_uris":{"android":"levelo://app?vid=3677fd36-cc3f-4252-97c3-e7e1e1a066de","ios":"levelo://app?vid=3677fd36-cc3f-4252-97c3-e7e1e1a066de"},"vehicle_type_id":"4","last_reported":1737259804,"current_range_meters":24400,"station_id":"ce4bhe12rcd13ifvqf30","pricing_plan_id":"cebpf4jnsgd1na2vs0mg"},{"bike_id":"fc7115b1-aa0e-4511-b228-f0a9757f59e4","system_id":"levelo_inurba_marseille","lat":43.29258,"lon":5.401594,"is_reserved":false,"is_disabled":false,"rental_uris":{"android":"levelo://app?vid=fc7115b1-aa0e-4511-b228-f0a9757f59e4","ios":"levelo://app?vid=fc7115b1-aa0e-4511-b228-f0a9757f59e4"},"vehicle_type_id":"4","last_reported":1737259804,"current_range_meters":36800,"station_id":"ce4bh312rcd13ifvqdk0","pricing_plan_id":"cebpf4jnsgd1na2vs0mg"},{"bike_id":"881f5a56-0072-422c-a05d-eee833d8c733","system_id":"levelo_inurba_marseille","lat":43.33136,"lon":5.37804,"is_reserved":false,"is_disabled":false,"rental_uris":{"android":"levelo://app?vid=881f5a56-0072-422c-a05d-eee833d8c733","ios":"levelo://app?vid=881f5a56-0072-422c-a05d-eee833d8c733"},"vehicle_type_id":"4","last_reported":1737259804,"current_range_meters":38000,"station_id":"","pricing_plan_id":"cebpf4jnsgd1na2vs0mg"},{"bike_id":"28ef1c1e-dd89-43e8-817b-9b489831397b","system_id":"levelo_inurba_marseille","lat":43.271076,"lon":5.396161,"is_reserved":false,"is_disabled":true,"rental_uris":{"android":"levelo://app?vid=28ef1c1e-dd89-43e8-817b-9b489831397b","ios":"levelo://app?vid=28ef1c1e-dd89-43e8-817b-9b489831397b"},"vehicle_type_id":"4","last_reported":1737259804,"current_range_meters":0,"station_id":"","pricing_plan_id":"cebpf4jnsgd1na2vs0mg"},{"bike_id":"63f5da95-45c1-4439-88f3-ff94f7d248dd","system_id":"levelo_inurba_marseille","lat":43.23183,"lon":5.39998,"is_reserved":false,"is_disabled":false,"rental_uris":{"android":"levelo://app?vid=63f5da95-45c1-4439-88f3-ff94f7d248dd","ios":"levelo://app?vid=63f5da95-45c1-4439-88f3-ff94f7d248dd"},"vehicle_type_id":"4","last_reported":1737259804,"current_range_meters":34000,"station_id":"ce4bhn12rcd13ifvqgqg","pricing_plan_id":"cebpf4jnsgd1na2vs0mg"},{"bike_id":"748bb4c8-d760-4703-845e-4ee62efabb1b","system_id":"levelo_inurba_marseille","lat":43.30431,"lon":5.38899,"is_reserved":false,"is_disabled":false,"rental_uris":{"android":"levelo://app?vid=748bb4c8-d760-4703-845e-4ee62efabb1b","ios":"levelo://app?vid=748bb4c8-d760-4703-845e-4ee62efabb1b"},"vehicle_type_id":"4","last_reported":1737259804,"current_range_meters":38800,"station_id":"ce4bgk12rcd13ifvqbi0","pricing_plan_id":"cebpf4jnsgd1na2vs0mg"},{"bike_id":"f083c262-9d3a-4ca9-864b-20b28a95222b","system_id":"levelo_inurba_marseille","lat":43.26784,"lon":5.39419,"is_reserved":false,"is_disabled":false,"rental_uris":{"android":"levelo://app?vid=f083c262-9d3a-4ca9-864b-20b28a95222b","ios":"levelo://app?vid=f083c262-9d3a-4ca9-864b-20b28a95222b"},"vehicle_type_id":"4","last_reported":1737259804,"current_range_meters":38000,"station_id":"ce4bhh12rcd13ifvqfg0","pricing_plan_id":"cebpf4jnsgd1na2vs0mg"},{"bike_id":"c77de84a-305d-47e5-b81a-44313d3b8aa9","system_id":"levelo_inurba_marseille","lat":43.25873,"lon":5.39899,"is_reserved":false,"is_disabled":false,"rental_uris":{"android":"levelo://app?vid=c77de84a-305d-47e5-b81a-44313d3b8aa9","ios":"levelo://app?vid=c77de84a-305d-47e5-b81a-44313d3b8aa9"},"vehicle_type_id":"4","last_reported":1737259804,"current_range_meters":29600,"station_id":"ce4bhl92rcd13ifvqghg","pricing_plan_id":"cebpf4jnsgd1na2vs0mg"},{"bike_id":"357eaeda-fef2-41f2-9ad0-621ae2cc5c09","system_id":"levelo_inurba_marseille","lat":43.33753,"lon":5.37518,"is_reserved":false,"is_disabled":false,"rental_uris":{"android":"levelo://app?vid=357eaeda-fef2-41f2-9ad0-621ae2cc5c09","ios":"levelo://app?vid=357eaeda-fef2-41f2-9ad0-621ae2cc5c09"},"vehicle_type_id":"4","last_reported":1737259804,"current_range_meters":34000,"station_id":"","pricing_plan_id":"cebpf4jnsgd1na2vs0mg"},{"bike_id":"8b9d5b41-6506-4548-8751-5848a15cd453","system_id":"levelo_inurba_marseille","lat":43.28668,"lon":5.3635,"is_reserved":false,"is_disabled":false,"rental_uris":{"android":"levelo://app?vid=8b9d5b41-6506-4548-8751-5848a15cd453","ios":"levelo://app?vid=8b9d5b41-6506-4548-8751-5848a15cd453"},"vehicle_type_id":"4","last_reported":1737259804,"current_range_meters":33600,"station_id":"ce4bhah2rcd13ifvqej0","pricing_plan_id":"cebpf4jnsgd1na2vs0mg"},{"bike_id":"d274786c-8899-43d5-94f3-d281c5dc0870","system_id":"levelo_inurba_marseille","lat":43.28271,"lon":5.35086,"is_reserved":false,"is_disabled":false,"rental_uris":{"android":"levelo://app?vid=d274786c-8899-43d5-94f3-d281c5dc0870","ios":"levelo://app?vid=d274786c-8899-43d5-94f3-d281c5dc0870"},"vehicle_type_id":"4","last_reported":1737259804,"current_range_meters":38800,"station_id":"ce4bhbp2rcd13ifvqerg","pricing_plan_id":"cebpf4jnsgd1na2vs0mg"},{"bike_id":"ad37be90-cd16-435d-9ccb-35b175ce6ca4","system_id":"levelo_inurba_marseille","lat":43.28456,"lon":5.359,"is_reserved":false,"is_disabled":false,"rental_uris":{"android":"levelo://app?vid=ad37be90-cd16-435d-9ccb-35b175ce6ca4","ios":"levelo://app?vid=ad37be90-cd16-435d-9ccb-35b175ce6ca4"},"vehicle_type_id":"4","last_reported":1737259804,"current_range_meters":25200,"station_id":"ce4bhah2rcd13ifvqei0","pricing_plan_id":"cebpf4jnsgd1na2vs0mg"},{"bike_id":"5ebc0e23-f2f4-4cc0-bd89-a31a0285ee53","system_id":"levelo_inurba_marseille","lat":43.31703,"lon":5.43719,"is_reserved":false,"is_disabled":false,"rental_uris":{"android":"levelo://app?vid=5ebc0e23-f2f4-4cc0-bd89-a31a0285ee53","ios":"levelo://app?vid=5ebc0e23-f2f4-4cc0-bd89-a31a0285ee53"},"vehicle_type_id":"4","last_reported":1737259804,"current_range_meters":38800,"station_id":"ce4bhp92rcd13ifvqhcg","pricing_plan_id":"cebpf4jnsgd1na2vs0mg"},{"bike_id":"c80d3782-9325-4182-b52d-ba6c51190c17","system_id":"levelo_inurba_marseille","lat":43.30643,"lon":5.40055,"is_reserved":false,"is_disabled":false,"rental_uris":{"android":"levelo://app?vid=c80d3782-9325-4182-b52d-ba6c51190c17","ios":"levelo://app?vid=c80d3782-9325-4182-b52d-ba6c51190c17"},"vehicle_type_id":"4","last_reported":1737259804,"current_range_meters":32800,"station_id":"ce4bh112rcd13ifvqda0","pricing_plan_id":"cebpf4jnsgd1na2vs0mg"},{"bike_id":"e2481d2d-ec3c-436f-9eeb-094327789afd","system_id":"levelo_inurba_marseille","lat":43.297,"lon":5.42361,"is_reserved":false,"is_disabled":false,"rental_uris":{"android":"levelo://app?vid=e2481d2d-ec3c-436f-9eeb-094327789afd","ios":"levelo://app?vid=e2481d2d-ec3c-436f-9eeb-094327789afd"},"vehicle_type_id":"4","last_reported":1737259804,"current_range_meters":9600,"station_id":"","pricing_plan_id":"cebpf4jnsgd1na2vs0mg"},{"bike_id":"4d4b0e98-71c8-4e53-9659-55113dc5e691","system_id":"levelo_inurba_marseille","lat":43.28834,"lon":5.35895,"is_reserved":false,"is_disabled":false,"rental_uris":{"android":"levelo://app?vid=4d4b0e98-71c8-4e53-9659-55113dc5e691","ios":"levelo://app?vid=4d4b0e98-71c8-4e53-9659-55113dc5e691"},"vehicle_type_id":"4","last_reported":1737259804,"current_range_meters":38800,"station_id":"ce4bhb12rcd13ifvqem0","pricing_plan_id":"cebpf4jnsgd1na2vs0mg"},{"bike_id":"406cf7e1-dd3a-472a-896f-d09b14680f3c","system_id":"levelo_inurba_marseille","lat":43.26051,"lon":5.39374,"is_reserved":false,"is_disabled":false,"rental_uris":{"android":"levelo://app?vid=406cf7e1-dd3a-472a-896f-d09b14680f3c","ios":"levelo://app?vid=406cf7e1-dd3a-472a-896f-d09b14680f3c"},"vehicle_type_id":"4","last_reported":1737259804,"current_range_meters":27600,"station_id":"ce4bhh92rcd13ifvqfj0","pricing_plan_id":"cebpf4jnsgd1na2vs0mg"},{"bike_id":"b9ead20d-5eb0-4a5e-a4d5-304db3ae33a5","system_id":"levelo_inurba_marseille","lat":43.29561,"lon":5.4226,"is_reserved":false,"is_disabled":false,"rental_uris":{"android":"levelo://app?vid=b9ead20d-5eb0-4a5e-a4d5-304db3ae33a5","ios":"levelo://app?vid=b9ead20d-5eb0-4a5e-a4d5-304db3ae33a5"},"vehicle_type_id":"4","last_reported":1737259804,"current_range_meters":28000,"station_id":"ce4bhph2rcd13ifvqhdg","pricing_plan_id":"cebpf4jnsgd1na2vs0mg"},{"bike_id":"01a07bd9-36a1-4c19-a88b-7c9e3a6ee490","system_id":"levelo_inurba_marseille","lat":43.25108,"lon":5.39507,"is_reserved":false,"is_disabled":false,"rental_uris":{"android":"levelo://app?vid=01a07bd9-36a1-4c19-a88b-7c9e3a6ee490","ios":"levelo://app?vid=01a07bd9-36a1-4c19-a88b-7c9e3a6ee490"},"vehicle_type_id":"4","last_reported":1737259804,"current_range_meters":34800,"station_id":"ce4bhm12rcd13ifvqgkg","pricing_plan_id":"cebpf4jnsgd1na2vs0mg"},{"bike_id":"b8afc682-20e6-4ef6-88df-d1557914e1a6","system_id":"levelo_inurba_marseille","lat":43.28461,"lon":5.35881,"is_reserved":false,"is_disabled":false,"rental_uris":{"android":"levelo://app?vid=b8afc682-20e6-4ef6-88df-d1557914e1a6","ios":"levelo://app?vid=b8afc682-20e6-4ef6-88df-d1557914e1a6"},"vehicle_type_id":"4","last_reported":1737259804,"current_range_meters":16400,"station_id":"ce4bhah2rcd13ifvqei0","pricing_plan_id":"cebpf4jnsgd1na2vs0mg"},{"bike_id":"f29e034a-17ca-48c5-967e-ab0409c174fe","system_id":"levelo_inurba_marseille","lat":43.30299,"lon":5.39214,"is_reserved":false,"is_disabled":false,"rental_uris":{"android":"levelo://app?vid=f29e034a-17ca-48c5-967e-ab0409c174fe","ios":"levelo://app?vid=f29e034a-17ca-48c5-967e-ab0409c174fe"},"vehicle_type_id":"4","last_reported":1737259804,"current_range_meters":38800,"station_id":"ce4bgkh2rcd13ifvqbk0","pricing_plan_id":"cebpf4jnsgd1na2vs0mg"},{"bike_id":"24d3b331-52fa-4564-a98e-732c1dea4a32","system_id":"levelo_inurba_marseille","lat":43.27497,"lon":5.42458,"is_reserved":false,"is_disabled":true,"rental_uris":{"android":"levelo://app?vid=24d3b331-52fa-4564-a98e-732c1dea4a32","ios":"levelo://app?vid=24d3b331-52fa-4564-a98e-732c1dea4a32"},"vehicle_type_id":"4","last_reported":1737259804,"current_range_meters":0,"station_id":"ce4bhn92rcd13ifvqgrg","pricing_plan_id":"cebpf4jnsgd1na2vs0mg"},{"bike_id":"9be957d2-26d1-49a4-9f85-b06ee3432064","system_id":"levelo_inurba_marseille","lat":43.337401,"lon":5.391871,"is_reserved":false,"is_disabled":false,"rental_uris":{"android":"levelo://app?vid=9be957d2-26d1-49a4-9f85-b06ee3432064","ios":"levelo://app?vid=9be957d2-26d1-49a4-9f85-b06ee3432064"},"vehicle_type_id":"4","last_reported":1737259804,"current_range_meters":24800,"station_id":"ce4bhr92rcd13ifvqhsg","pricing_plan_id":"cebpf4jnsgd1na2vs0mg"},{"bike_id":"830df493-d61b-4af0-9067-68cf38f60ac0","system_id":"levelo_inurba_marseille","lat":43.28474,"lon":5.35881,"is_reserved":false,"is_disabled":false,"rental_uris":{"android":"levelo://app?vid=830df493-d61b-4af0-9067-68cf38f60ac0","ios":"levelo://app?vid=830df493-d61b-4af0-9067-68cf38f60ac0"},"vehicle_type_id":"4","last_reported":1737259804,"current_range_meters":29600,"station_id":"ce4bhah2rcd13ifvqei0","pricing_plan_id":"cebpf4jnsgd1na2vs0mg"},{"bike_id":"524072f1-ace1-43cc-8007-f91dc732b1f7","system_id":"levelo_inurba_marseille","lat":43.25084,"lon":5.39513,"is_reserved":false,"is_disabled":false,"rental_uris":{"android":"levelo://app?vid=524072f1-ace1-43cc-8007-f91dc732b1f7","ios":"levelo://app?vid=524072f1-ace1-43cc-8007-f91dc732b1f7"},"vehicle_type_id":"4","last_reported":1737259804,"current_range_meters":33200,"station_id":"ce4bhm12rcd13ifvqgkg","pricing_plan_id":"cebpf4jnsgd1na2vs0mg"},{"bike_id":"910417d4-e402-4c49-a0d5-56ed108086dd","system_id":"levelo_inurba_marseille","lat":43.30927,"lon":5.40144,"is_reserved":false,"is_disabled":true,"rental_uris":{"android":"levelo://app?vid=910417d4-e402-4c49-a0d5-56ed108086dd","ios":"levelo://app?vid=910417d4-e402-4c49-a0d5-56ed108086dd"},"vehicle_type_id":"4","last_reported":1737259804,"current_range_meters":2000,"station_id":"ce4bgvp2rcd13ifvqct0","pricing_plan_id":"cebpf4jnsgd1na2vs0mg"},{"bike_id":"4176cd66-1893-4442-bd75-0360ec9d6e01","system_id":"levelo_inurba_marseille","lat":43.28945,"lon":5.36416,"is_reserved":false,"is_disabled":false,"rental_uris":{"android":"levelo://app?vid=4176cd66-1893-4442-bd75-0360ec9d6e01","ios":"levelo://app?vid=4176cd66-1893-4442-bd75-0360ec9d6e01"},"vehicle_type_id":"4","last_reported":1737259804,"current_range_meters":35200,"station_id":"ce4bhc92rcd13ifvqetg","pricing_plan_id":"cebpf4jnsgd1na2vs0mg"},{"bike_id":"cd195908-7692-40ef-8f14-bc81abd6e292","system_id":"levelo_inurba_marseille","lat":43.30327,"lon":5.40441,"is_reserved":false,"is_disabled":false,"rental_uris":{"android":"levelo://app?vid=cd195908-7692-40ef-8f14-bc81abd6e292","ios":"levelo://app?vid=cd195908-7692-40ef-8f14-bc81abd6e292"},"vehicle_type_id":"4","last_reported":1737259804,"current_range_meters":39200,"station_id":"ce4bh012rcd13ifvqd10","pricing_plan_id":"cebpf4jnsgd1na2vs0mg"},{"bike_id":"59829282-52a1-4f2c-9ab6-c535355001fb","system_id":"levelo_inurba_marseille","lat":43.304503,"lon":5.389083,"is_reserved":false,"is_disabled":false,"rental_uris":{"android":"levelo://app?vid=59829282-52a1-4f2c-9ab6-c535355001fb","ios":"levelo://app?vid=59829282-52a1-4f2c-9ab6-c535355001fb"},"vehicle_type_id":"4","last_reported":1737259804,"current_range_meters":35200,"station_id":"ce4bgk12rcd13ifvqbi0","pricing_plan_id":"cebpf4jnsgd1na2vs0mg"},{"bike_id":"52944324-56c0-4eb2-bed2-f2a48346d11b","system_id":"levelo_inurba_marseille","lat":43.28353,"lon":5.3811,"is_reserved":false,"is_disabled":false,"rental_uris":{"android":"levelo://app?vid=52944324-56c0-4eb2-bed2-f2a48346d11b","ios":"levelo://app?vid=52944324-56c0-4eb2-bed2-f2a48346d11b"},"vehicle_type_id":"4","last_reported":1737259804,"current_range_meters":38000,"station_id":"ce4bh412rcd13ifvqdr0","pricing_plan_id":"cebpf4jnsgd1na2vs0mg"},{"bike_id":"4291632b-b89c-4c47-8e03-1ac2c74e4815","system_id":"levelo_inurba_marseille","lat":43.24183,"lon":5.39734,"is_reserved":false,"is_disabled":false,"rental_uris":{"android":"levelo://app?vid=4291632b-b89c-4c47-8e03-1ac2c74e4815","ios":"levelo://app?vid=4291632b-b89c-4c47-8e03-1ac2c74e4815"},"vehicle_type_id":"4","last_reported":1737259804,"current_range_meters":38400,"station_id":"ce4bhn12rcd13ifvqgpg","pricing_plan_id":"cebpf4jnsgd1na2vs0mg"},{"bike_id":"804b3b4e-2b7b-432d-bee9-ad793eff9ddf","system_id":"levelo_inurba_marseille","lat":43.2572,"lon":5.41106,"is_reserved":false,"is_disabled":false,"rental_uris":{"android":"levelo://app?vid=804b3b4e-2b7b-432d-bee9-ad793eff9ddf","ios":"levelo://app?vid=804b3b4e-2b7b-432d-bee9-ad793eff9ddf"},"vehicle_type_id":"4","last_reported":1737259804,"current_range_meters":8800,"station_id":"ce4bhkp2rcd13ifvqgd0","pricing_plan_id":"cebpf4jnsgd1na2vs0mg"},{"bike_id":"63ee011d-7677-4e33-9490-1fd81b71f214","system_id":"levelo_inurba_marseille","lat":43.30877,"lon":5.39634,"is_reserved":false,"is_disabled":false,"rental_uris":{"android":"levelo://app?vid=63ee011d-7677-4e33-9490-1fd81b71f214","ios":"levelo://app?vid=63ee011d-7677-4e33-9490-1fd81b71f214"},"vehicle_type_id":"4","last_reported":1737259804,"current_range_meters":21600,"station_id":"ce4bh012rcd13ifvqcv0","pricing_plan_id":"cebpf4jnsgd1na2vs0mg"},{"bike_id":"a42901bb-97a1-46d1-b7fa-def21e84355e","system_id":"levelo_inurba_marseille","lat":43.30155,"lon":5.38062,"is_reserved":false,"is_disabled":false,"rental_uris":{"android":"levelo://app?vid=a42901bb-97a1-46d1-b7fa-def21e84355e","ios":"levelo://app?vid=a42901bb-97a1-46d1-b7fa-def21e84355e"},"vehicle_type_id":"4","last_reported":1737259804,"current_range_meters":38800,"station_id":"ce4bgjp2rcd13ifvqbh0","pricing_plan_id":"cebpf4jnsgd1na2vs0mg"},{"bike_id":"dfd96ebd-2cae-4ab5-8d13-f6e62258957e","system_id":"levelo_inurba_marseille","lat":43.3172,"lon":5.42407,"is_reserved":false,"is_disabled":false,"rental_uris":{"android":"levelo://app?vid=dfd96ebd-2cae-4ab5-8d13-f6e62258957e","ios":"levelo://app?vid=dfd96ebd-2cae-4ab5-8d13-f6e62258957e"},"vehicle_type_id":"4","last_reported":1737259804,"current_range_meters":38000,"station_id":"ce4bhp92rcd13ifvqhbg","pricing_plan_id":"cebpf4jnsgd1na2vs0mg"},{"bike_id":"5216534c-21a3-49c6-aa1a-f817992eca31","system_id":"levelo_inurba_marseille","lat":43.30409,"lon":5.39755,"is_reserved":false,"is_disabled":false,"rental_uris":{"android":"levelo://app?vid=5216534c-21a3-49c6-aa1a-f817992eca31","ios":"levelo://app?vid=5216534c-21a3-49c6-aa1a-f817992eca31"},"vehicle_type_id":"4","last_reported":1737259804,"current_range_meters":36400,"station_id":"ce4bh092rcd13ifvqd20","pricing_plan_id":"cebpf4jnsgd1na2vs0mg"},{"bike_id":"13d3fd97-e21c-4164-8b58-6e6c0cfe1ec1","system_id":"levelo_inurba_marseille","lat":43.28031,"lon":5.36956,"is_reserved":false,"is_disabled":false,"rental_uris":{"android":"levelo://app?vid=13d3fd97-e21c-4164-8b58-6e6c0cfe1ec1","ios":"levelo://app?vid=13d3fd97-e21c-4164-8b58-6e6c0cfe1ec1"},"vehicle_type_id":"4","last_reported":1737259804,"current_range_meters":38800,"station_id":"ce4bha12rcd13ifvqef0","pricing_plan_id":"cebpf4jnsgd1na2vs0mg"},{"bike_id":"fae143cc-e0b7-42e0-ac41-6327643321d0","system_id":"levelo_inurba_marseille","lat":43.25826,"lon":5.39427,"is_reserved":false,"is_disabled":false,"rental_uris":{"android":"levelo://app?vid=fae143cc-e0b7-42e0-ac41-6327643321d0","ios":"levelo://app?vid=fae143cc-e0b7-42e0-ac41-6327643321d0"},"vehicle_type_id":"4","last_reported":1737259804,"current_range_meters":29600,"station_id":"ce4bhip2rcd13ifvqft0","pricing_plan_id":"cebpf4jnsgd1na2vs0mg"},{"bike_id":"bcd96ff4-f53b-4513-aba6-d7a0a8f8f0c1","system_id":"levelo_inurba_marseille","lat":43.25816,"lon":5.3943,"is_reserved":false,"is_disabled":false,"rental_uris":{"android":"levelo://app?vid=bcd96ff4-f53b-4513-aba6-d7a0a8f8f0c1","ios":"levelo://app?vid=bcd96ff4-f53b-4513-aba6-d7a0a8f8f0c1"},"vehicle_type_id":"4","last_reported":1737259804,"current_range_meters":37600,"station_id":"ce4bhip2rcd13ifvqft0","pricing_plan_id":"cebpf4jnsgd1na2vs0mg"},{"bike_id":"8600d936-bbb2-4761-9f8e-aa4c1032bd26","system_id":"levelo_inurba_marseille","lat":43.30418,"lon":5.39749,"is_reserved":false,"is_disabled":false,"rental_uris":{"android":"levelo://app?vid=8600d936-bbb2-4761-9f8e-aa4c1032bd26","ios":"levelo://app?vid=8600d936-bbb2-4761-9f8e-aa4c1032bd26"},"vehicle_type_id":"4","last_reported":1737259804,"current_range_meters":38800,"station_id":"ce4bh092rcd13ifvqd20","pricing_plan_id":"cebpf4jnsgd1na2vs0mg"},{"bike_id":"1e439018-c0d6-4a96-9cf0-6ec46d1fa22b","system_id":"levelo_inurba_marseille","lat":43.33013,"lon":5.39009,"is_reserved":false,"is_disabled":false,"rental_uris":{"android":"levelo://app?vid=1e439018-c0d6-4a96-9cf0-6ec46d1fa22b","ios":"levelo://app?vid=1e439018-c0d6-4a96-9cf0-6ec46d1fa22b"},"vehicle_type_id":"4","last_reported":1737259804,"current_range_meters":38000,"station_id":"ce4bhr92rcd13ifvqhrg","pricing_plan_id":"cebpf4jnsgd1na2vs0mg"},{"bike_id":"f4a4a406-b0a5-42fc-9236-32e93ac6f6b2","system_id":"levelo_inurba_marseille","lat":43.23153,"lon":5.43713,"is_reserved":false,"is_disabled":true,"rental_uris":{"android":"levelo://app?vid=f4a4a406-b0a5-42fc-9236-32e93ac6f6b2","ios":"levelo://app?vid=f4a4a406-b0a5-42fc-9236-32e93ac6f6b2"},"vehicle_type_id":"4","last_reported":1737259804,"current_range_meters":27600,"station_id":"ce4bhmp2rcd13ifvqgog","pricing_plan_id":"cebpf4jnsgd1na2vs0mg"},{"bike_id":"210ffe2d-27bf-471a-a897-ba0eb55d9e2b","system_id":"levelo_inurba_marseille","lat":43.270676,"lon":5.42282,"is_reserved":false,"is_disabled":false,"rental_uris":{"android":"levelo://app?vid=210ffe2d-27bf-471a-a897-ba0eb55d9e2b","ios":"levelo://app?vid=210ffe2d-27bf-471a-a897-ba0eb55d9e2b"},"vehicle_type_id":"4","last_reported":1737259804,"current_range_meters":36800,"station_id":"ce4bhk92rcd13ifvqgb0","pricing_plan_id":"cebpf4jnsgd1na2vs0mg"},{"bike_id":"c7c1ebcf-0962-4712-a9cf-f1fcce193695","system_id":"levelo_inurba_marseille","lat":43.3081,"lon":5.38159,"is_reserved":false,"is_disabled":false,"rental_uris":{"android":"levelo://app?vid=c7c1ebcf-0962-4712-a9cf-f1fcce193695","ios":"levelo://app?vid=c7c1ebcf-0962-4712-a9cf-f1fcce193695"},"vehicle_type_id":"4","last_reported":1737259804,"current_range_meters":38000,"station_id":"ce4bgt12rcd13ifvqce0","pricing_plan_id":"cebpf4jnsgd1na2vs0mg"},{"bike_id":"861b4fe3-61e1-4d67-9253-1a6d24bf0615","system_id":"levelo_inurba_marseille","lat":43.29895,"lon":5.3975,"is_reserved":false,"is_disabled":false,"rental_uris":{"android":"levelo://app?vid=861b4fe3-61e1-4d67-9253-1a6d24bf0615","ios":"levelo://app?vid=861b4fe3-61e1-4d67-9253-1a6d24bf0615"},"vehicle_type_id":"4","last_reported":1737259804,"current_range_meters":38000,"station_id":"ce4bh0h2rcd13ifvqd50","pricing_plan_id":"cebpf4jnsgd1na2vs0mg"},{"bike_id":"5e49b4a3-75bf-4de6-a0e8-fdd2fc7a9cde","system_id":"levelo_inurba_marseille","lat":43.27046,"lon":5.40272,"is_reserved":false,"is_disabled":false,"rental_uris":{"android":"levelo://app?vid=5e49b4a3-75bf-4de6-a0e8-fdd2fc7a9cde","ios":"levelo://app?vid=5e49b4a3-75bf-4de6-a0e8-fdd2fc7a9cde"},"vehicle_type_id":"4","last_reported":1737259804,"current_range_meters":20400,"station_id":"ce4bhk92rcd13ifvqgc0","pricing_plan_id":"cebpf4jnsgd1na2vs0mg"},{"bike_id":"4ebcf35d-ba6a-4a63-a095-1b70c86871a7","system_id":"levelo_inurba_marseille","lat":43.30936,"lon":5.4015,"is_reserved":false,"is_disabled":false,"rental_uris":{"android":"levelo://app?vid=4ebcf35d-ba6a-4a63-a095-1b70c86871a7","ios":"levelo://app?vid=4ebcf35d-ba6a-4a63-a095-1b70c86871a7"},"vehicle_type_id":"4","last_reported":1737259804,"current_range_meters":39200,"station_id":"ce4bgvp2rcd13ifvqct0","pricing_plan_id":"cebpf4jnsgd1na2vs0mg"},{"bike_id":"2285d888-1ddc-4daf-8730-d9deb33b7651","system_id":"levelo_inurba_marseille","lat":43.29876,"lon":5.39747,"is_reserved":false,"is_disabled":false,"rental_uris":{"android":"levelo://app?vid=2285d888-1ddc-4daf-8730-d9deb33b7651","ios":"levelo://app?vid=2285d888-1ddc-4daf-8730-d9deb33b7651"},"vehicle_type_id":"4","last_reported":1737259804,"current_range_meters":37600,"station_id":"ce4bh0h2rcd13ifvqd50","pricing_plan_id":"cebpf4jnsgd1na2vs0mg"},{"bike_id":"4bd96a6e-5b62-4b7e-a075-ead23fa5c459","system_id":"levelo_inurba_marseille","lat":43.29921,"lon":5.37472,"is_reserved":false,"is_disabled":false,"rental_uris":{"android":"levelo://app?vid=4bd96a6e-5b62-4b7e-a075-ead23fa5c459","ios":"levelo://app?vid=4bd96a6e-5b62-4b7e-a075-ead23fa5c459"},"vehicle_type_id":"4","last_reported":1737259804,"current_range_meters":38800,"station_id":"ce4bgjh2rcd13ifvqbg0","pricing_plan_id":"cebpf4jnsgd1na2vs0mg"},{"bike_id":"74bd9320-6568-47aa-bc9d-f58f23afb672","system_id":"levelo_inurba_marseille","lat":43.2815,"lon":5.42651,"is_reserved":false,"is_disabled":false,"rental_uris":{"android":"levelo://app?vid=74bd9320-6568-47aa-bc9d-f58f23afb672","ios":"levelo://app?vid=74bd9320-6568-47aa-bc9d-f58f23afb672"},"vehicle_type_id":"4","last_reported":1737259804,"current_range_meters":27600,"station_id":"ce4bhnh2rcd13ifvqgug","pricing_plan_id":"cebpf4jnsgd1na2vs0mg"},{"bike_id":"5c2b48c5-c07c-4e33-a776-013e6e6e6b46","system_id":"levelo_inurba_marseille","lat":43.33605,"lon":5.41025,"is_reserved":false,"is_disabled":false,"rental_uris":{"android":"levelo://app?vid=5c2b48c5-c07c-4e33-a776-013e6e6e6b46","ios":"levelo://app?vid=5c2b48c5-c07c-4e33-a776-013e6e6e6b46"},"vehicle_type_id":"4","last_reported":1737259804,"current_range_meters":17600,"station_id":"ce4bhqh2rcd13ifvqhmg","pricing_plan_id":"cebpf4jnsgd1na2vs0mg"},{"bike_id":"b58dcef5-cab9-4732-933d-c18fb8a74b04","system_id":"levelo_inurba_marseille","lat":43.23152,"lon":5.43716,"is_reserved":false,"is_disabled":false,"rental_uris":{"android":"levelo://app?vid=b58dcef5-cab9-4732-933d-c18fb8a74b04","ios":"levelo://app?vid=b58dcef5-cab9-4732-933d-c18fb8a74b04"},"vehicle_type_id":"4","last_reported":1737259804,"current_range_meters":37600,"station_id":"ce4bhmp2rcd13ifvqgog","pricing_plan_id":"cebpf4jnsgd1na2vs0mg"},{"bike_id":"43be8db4-9685-40b5-9e9c-1a17c5402932","system_id":"levelo_inurba_marseille","lat":43.3237,"lon":5.38882,"is_reserved":false,"is_disabled":false,"rental_uris":{"android":"levelo://app?vid=43be8db4-9685-40b5-9e9c-1a17c5402932","ios":"levelo://app?vid=43be8db4-9685-40b5-9e9c-1a17c5402932"},"vehicle_type_id":"4","last_reported":1737259804,"current_range_meters":17200,"station_id":"ce4bhqp2rcd13ifvqhog","pricing_plan_id":"cebpf4jnsgd1na2vs0mg"},{"bike_id":"56bc8aaf-0f94-4e50-98d4-bba0e99201f1","system_id":"levelo_inurba_marseille","lat":43.25709,"lon":5.4111,"is_reserved":false,"is_disabled":false,"rental_uris":{"android":"levelo://app?vid=56bc8aaf-0f94-4e50-98d4-bba0e99201f1","ios":"levelo://app?vid=56bc8aaf-0f94-4e50-98d4-bba0e99201f1"},"vehicle_type_id":"4","last_reported":1737259804,"current_range_meters":24400,"station_id":"ce4bhkp2rcd13ifvqgd0","pricing_plan_id":"cebpf4jnsgd1na2vs0mg"},{"bike_id":"7b855d51-4b0d-4d46-b791-c89a66723c4e","system_id":"levelo_inurba_marseille","lat":43.30251,"lon":5.40047,"is_reserved":false,"is_disabled":false,"rental_uris":{"android":"levelo://app?vid=7b855d51-4b0d-4d46-b791-c89a66723c4e","ios":"levelo://app?vid=7b855d51-4b0d-4d46-b791-c89a66723c4e"},"vehicle_type_id":"4","last_reported":1737259804,"current_range_meters":29600,"station_id":"ce4bgvh2rcd13ifvqcs0","pricing_plan_id":"cebpf4jnsgd1na2vs0mg"},{"bike_id":"234d1550-b7dd-465b-9578-32049a642f2b","system_id":"levelo_inurba_marseille","lat":43.29964,"lon":5.41333,"is_reserved":false,"is_disabled":false,"rental_uris":{"android":"levelo://app?vid=234d1550-b7dd-465b-9578-32049a642f2b","ios":"levelo://app?vid=234d1550-b7dd-465b-9578-32049a642f2b"},"vehicle_type_id":"4","last_reported":1737259804,"current_range_meters":36800,"station_id":"ce4bhp12rcd13ifvqh9g","pricing_plan_id":"cebpf4jnsgd1na2vs0mg"},{"bike_id":"715ecd0b-2bb3-4d1c-8187-4121f3e8803d","system_id":"levelo_inurba_marseille","lat":43.24557,"lon":5.39529,"is_reserved":false,"is_disabled":false,"rental_uris":{"android":"levelo://app?vid=715ecd0b-2bb3-4d1c-8187-4121f3e8803d","ios":"levelo://app?vid=715ecd0b-2bb3-4d1c-8187-4121f3e8803d"},"vehicle_type_id":"4","last_reported":1737259804,"current_range_meters":8000,"station_id":"ce4bhlp2rcd13ifvqgjg","pricing_plan_id":"cebpf4jnsgd1na2vs0mg"},{"bike_id":"f67c5c26-72f1-437c-9ef5-261cb0b78c87","system_id":"levelo_inurba_marseille","lat":43.30964,"lon":5.39048,"is_reserved":false,"is_disabled":false,"rental_uris":{"android":"levelo://app?vid=f67c5c26-72f1-437c-9ef5-261cb0b78c87","ios":"levelo://app?vid=f67c5c26-72f1-437c-9ef5-261cb0b78c87"},"vehicle_type_id":"4","last_reported":1737259804,"current_range_meters":38800,"station_id":"ce4bgup2rcd13ifvqco0","pricing_plan_id":"cebpf4jnsgd1na2vs0mg"},{"bike_id":"c5c1e2c1-9b51-4cb1-879c-c0156dbad799","system_id":"levelo_inurba_marseille","lat":43.31722,"lon":5.42393,"is_reserved":false,"is_disabled":false,"rental_uris":{"android":"levelo://app?vid=c5c1e2c1-9b51-4cb1-879c-c0156dbad799","ios":"levelo://app?vid=c5c1e2c1-9b51-4cb1-879c-c0156dbad799"},"vehicle_type_id":"4","last_reported":1737259804,"current_range_meters":27600,"station_id":"ce4bhp92rcd13ifvqhbg","pricing_plan_id":"cebpf4jnsgd1na2vs0mg"},{"bike_id":"57d0217a-9f4d-4a5f-be75-d910388ab45d","system_id":"levelo_inurba_marseille","lat":43.27941,"lon":5.41051,"is_reserved":false,"is_disabled":false,"rental_uris":{"android":"levelo://app?vid=57d0217a-9f4d-4a5f-be75-d910388ab45d","ios":"levelo://app?vid=57d0217a-9f4d-4a5f-be75-d910388ab45d"},"vehicle_type_id":"4","last_reported":1737259804,"current_range_meters":16800,"station_id":"ce4bhnp2rcd13ifvqh0g","pricing_plan_id":"cebpf4jnsgd1na2vs0mg"},{"bike_id":"7cff5365-e703-478e-994f-b62528305bc1","system_id":"levelo_inurba_marseille","lat":43.27703,"lon":5.38883,"is_reserved":false,"is_disabled":true,"rental_uris":{"android":"levelo://app?vid=7cff5365-e703-478e-994f-b62528305bc1","ios":"levelo://app?vid=7cff5365-e703-478e-994f-b62528305bc1"},"vehicle_type_id":"4","last_reported":1737259804,"current_range_meters":0,"station_id":"ce4bhi12rcd13ifvqfo0","pricing_plan_id":"cebpf4jnsgd1na2vs0mg"},{"bike_id":"0505ce1f-f3a4-40dc-b7cb-e38492068cb0","system_id":"levelo_inurba_marseille","lat":43.30305,"lon":5.39217,"is_reserved":false,"is_disabled":false,"rental_uris":{"android":"levelo://app?vid=0505ce1f-f3a4-40dc-b7cb-e38492068cb0","ios":"levelo://app?vid=0505ce1f-f3a4-40dc-b7cb-e38492068cb0"},"vehicle_type_id":"4","last_reported":1737259804,"current_range_meters":35200,"station_id":"ce4bgkh2rcd13ifvqbk0","pricing_plan_id":"cebpf4jnsgd1na2vs0mg"},{"bike_id":"529dc2a7-7a3f-459d-9839-46273633cc3a","system_id":"levelo_inurba_marseille","lat":43.274968,"lon":5.424517,"is_reserved":false,"is_disabled":false,"rental_uris":{"android":"levelo://app?vid=529dc2a7-7a3f-459d-9839-46273633cc3a","ios":"levelo://app?vid=529dc2a7-7a3f-459d-9839-46273633cc3a"},"vehicle_type_id":"4","last_reported":1737259804,"current_range_meters":25600,"station_id":"ce4bhn92rcd13ifvqgrg","pricing_plan_id":"cebpf4jnsgd1na2vs0mg"},{"bike_id":"67db0aab-ab48-4c66-bcfc-c1e94a70b0cd","system_id":"levelo_inurba_marseille","lat":43.28855,"lon":5.3585,"is_reserved":false,"is_disabled":false,"rental_uris":{"android":"levelo://app?vid=67db0aab-ab48-4c66-bcfc-c1e94a70b0cd","ios":"levelo://app?vid=67db0aab-ab48-4c66-bcfc-c1e94a70b0cd"},"vehicle_type_id":"4","last_reported":1737259804,"current_range_meters":38800,"station_id":"ce4bhb12rcd13ifvqem0","pricing_plan_id":"cebpf4jnsgd1na2vs0mg"},{"bike_id":"56b8e9bc-f750-4815-bc98-9098414d16db","system_id":"levelo_inurba_marseille","lat":43.23199,"lon":5.35546,"is_reserved":false,"is_disabled":true,"rental_uris":{"android":"levelo://app?vid=56b8e9bc-f750-4815-bc98-9098414d16db","ios":"levelo://app?vid=56b8e9bc-f750-4815-bc98-9098414d16db"},"vehicle_type_id":"4","last_reported":1737259804,"current_range_meters":0,"station_id":"ce4bhu92rcd13ifvqi70","pricing_plan_id":"cebpf4jnsgd1na2vs0mg"},{"bike_id":"0e91b70c-1e42-4d65-a90a-72cbd40954b0","system_id":"levelo_inurba_marseille","lat":43.323619,"lon":5.367689,"is_reserved":false,"is_disabled":false,"rental_uris":{"android":"levelo://app?vid=0e91b70c-1e42-4d65-a90a-72cbd40954b0","ios":"levelo://app?vid=0e91b70c-1e42-4d65-a90a-72cbd40954b0"},"vehicle_type_id":"4","last_reported":1737259804,"current_range_meters":8800,"station_id":"ce4bhsh2rcd13ifvqi2g","pricing_plan_id":"cebpf4jnsgd1na2vs0mg"},{"bike_id":"5e918c77-bf2a-4fed-a39b-71b6079cd700","system_id":"levelo_inurba_marseille","lat":43.28432,"lon":5.39184,"is_reserved":false,"is_disabled":false,"rental_uris":{"android":"levelo://app?vid=5e918c77-bf2a-4fed-a39b-71b6079cd700","ios":"levelo://app?vid=5e918c77-bf2a-4fed-a39b-71b6079cd700"},"vehicle_type_id":"4","last_reported":1737259804,"current_range_meters":34000,"station_id":"ce4bhoh2rcd13ifvqh5g","pricing_plan_id":"cebpf4jnsgd1na2vs0mg"},{"bike_id":"fcff8b6e-6484-4e4c-8d98-9ab325ed2e27","system_id":"levelo_inurba_marseille","lat":43.32537,"lon":5.36554,"is_reserved":false,"is_disabled":false,"rental_uris":{"android":"levelo://app?vid=fcff8b6e-6484-4e4c-8d98-9ab325ed2e27","ios":"levelo://app?vid=fcff8b6e-6484-4e4c-8d98-9ab325ed2e27"},"vehicle_type_id":"4","last_reported":1737259804,"current_range_meters":38800,"station_id":"","pricing_plan_id":"cebpf4jnsgd1na2vs0mg"},{"bike_id":"362f2ba6-952e-4a62-8e77-110149e6c012","system_id":"levelo_inurba_marseille","lat":43.33617,"lon":5.41015,"is_reserved":false,"is_disabled":false,"rental_uris":{"android":"levelo://app?vid=362f2ba6-952e-4a62-8e77-110149e6c012","ios":"levelo://app?vid=362f2ba6-952e-4a62-8e77-110149e6c012"},"vehicle_type_id":"4","last_reported":1737259804,"current_range_meters":6400,"station_id":"ce4bhqh2rcd13ifvqhmg","pricing_plan_id":"cebpf4jnsgd1na2vs0mg"},{"bike_id":"ee5e46e2-1b7f-4f41-b9a7-702e7757e533","system_id":"levelo_inurba_marseille","lat":43.30242,"lon":5.40042,"is_reserved":false,"is_disabled":false,"rental_uris":{"android":"levelo://app?vid=ee5e46e2-1b7f-4f41-b9a7-702e7757e533","ios":"levelo://app?vid=ee5e46e2-1b7f-4f41-b9a7-702e7757e533"},"vehicle_type_id":"4","last_reported":1737259804,"current_range_meters":32800,"station_id":"ce4bgvh2rcd13ifvqcs0","pricing_plan_id":"cebpf4jnsgd1na2vs0mg"},{"bike_id":"2d51ed35-cd4a-4798-ae66-82a7306e8efd","system_id":"levelo_inurba_marseille","lat":43.31898,"lon":5.4074,"is_reserved":false,"is_disabled":false,"rental_uris":{"android":"levelo://app?vid=2d51ed35-cd4a-4798-ae66-82a7306e8efd","ios":"levelo://app?vid=2d51ed35-cd4a-4798-ae66-82a7306e8efd"},"vehicle_type_id":"4","last_reported":1737259804,"current_range_meters":16000,"station_id":"ce4bhq12rcd13ifvqhig","pricing_plan_id":"cebpf4jnsgd1na2vs0mg"},{"bike_id":"3fc83956-a2cd-441f-93bc-4508418b1783","system_id":"levelo_inurba_marseille","lat":43.29938,"lon":5.37471,"is_reserved":false,"is_disabled":false,"rental_uris":{"android":"levelo://app?vid=3fc83956-a2cd-441f-93bc-4508418b1783","ios":"levelo://app?vid=3fc83956-a2cd-441f-93bc-4508418b1783"},"vehicle_type_id":"4","last_reported":1737259804,"current_range_meters":9600,"station_id":"ce4bgjh2rcd13ifvqbg0","pricing_plan_id":"cebpf4jnsgd1na2vs0mg"},{"bike_id":"8f6b590a-fcef-4cef-ad62-ce286ade8a64","system_id":"levelo_inurba_marseille","lat":43.29572,"lon":5.39972,"is_reserved":false,"is_disabled":false,"rental_uris":{"android":"levelo://app?vid=8f6b590a-fcef-4cef-ad62-ce286ade8a64","ios":"levelo://app?vid=8f6b590a-fcef-4cef-ad62-ce286ade8a64"},"vehicle_type_id":"4","last_reported":1737259804,"current_range_meters":36400,"station_id":"ce4bh312rcd13ifvqdj0","pricing_plan_id":"cebpf4jnsgd1na2vs0mg"},{"bike_id":"0966a8a8-2d5b-449d-8d62-52bfeeb2bcde","system_id":"levelo_inurba_marseille","lat":43.297408,"lon":5.376723,"is_reserved":false,"is_disabled":true,"rental_uris":{"android":"levelo://app?vid=0966a8a8-2d5b-449d-8d62-52bfeeb2bcde","ios":"levelo://app?vid=0966a8a8-2d5b-449d-8d62-52bfeeb2bcde"},"vehicle_type_id":"4","last_reported":1737259804,"current_range_meters":38400,"station_id":"ce4bgkh2rcd13ifvqbl0","pricing_plan_id":"cebpf4jnsgd1na2vs0mg"},{"bike_id":"22465212-93af-4e0b-b803-6ee82bba56d5","system_id":"levelo_inurba_marseille","lat":43.33759,"lon":5.3748,"is_reserved":false,"is_disabled":false,"rental_uris":{"android":"levelo://app?vid=22465212-93af-4e0b-b803-6ee82bba56d5","ios":"levelo://app?vid=22465212-93af-4e0b-b803-6ee82bba56d5"},"vehicle_type_id":"4","last_reported":1737259804,"current_range_meters":30000,"station_id":"","pricing_plan_id":"cebpf4jnsgd1na2vs0mg"},{"bike_id":"2bba4a8f-966f-4b79-ad41-59d17bf0a02e","system_id":"levelo_inurba_marseille","lat":43.287298,"lon":5.36095,"is_reserved":false,"is_disabled":false,"rental_uris":{"android":"levelo://app?vid=2bba4a8f-966f-4b79-ad41-59d17bf0a02e","ios":"levelo://app?vid=2bba4a8f-966f-4b79-ad41-59d17bf0a02e"},"vehicle_type_id":"4","last_reported":1737259804,"current_range_meters":37600,"station_id":"cki0cbj6b192h4jlfktg","pricing_plan_id":"cebpf4jnsgd1na2vs0mg"},{"bike_id":"6f380cdc-1757-460d-84ff-c92d961c4f1e","system_id":"levelo_inurba_marseille","lat":43.31686,"lon":5.40477,"is_reserved":false,"is_disabled":false,"rental_uris":{"android":"levelo://app?vid=6f380cdc-1757-460d-84ff-c92d961c4f1e","ios":"levelo://app?vid=6f380cdc-1757-460d-84ff-c92d961c4f1e"},"vehicle_type_id":"4","last_reported":1737259804,"current_range_meters":22800,"station_id":"ce4bh012rcd13ifvqd00","pricing_plan_id":"cebpf4jnsgd1na2vs0mg"},{"bike_id":"27c10a5c-e5d3-4044-9edf-4f58b096712f","system_id":"levelo_inurba_marseille","lat":43.30315,"lon":5.404438,"is_reserved":false,"is_disabled":true,"rental_uris":{"android":"levelo://app?vid=27c10a5c-e5d3-4044-9edf-4f58b096712f","ios":"levelo://app?vid=27c10a5c-e5d3-4044-9edf-4f58b096712f"},"vehicle_type_id":"4","last_reported":1737259804,"current_range_meters":0,"station_id":"ce4bh012rcd13ifvqd10","pricing_plan_id":"cebpf4jnsgd1na2vs0mg"},{"bike_id":"01f1ff31-689b-418c-8855-79c26daa62ec","system_id":"levelo_inurba_marseille","lat":43.273607,"lon":5.36264,"is_reserved":false,"is_disabled":false,"rental_uris":{"android":"levelo://app?vid=01f1ff31-689b-418c-8855-79c26daa62ec","ios":"levelo://app?vid=01f1ff31-689b-418c-8855-79c26daa62ec"},"vehicle_type_id":"4","last_reported":1737259804,"current_range_meters":33600,"station_id":"ce4bhbh2rcd13ifvqeo0","pricing_plan_id":"cebpf4jnsgd1na2vs0mg"},{"bike_id":"19fb1931-f075-402c-a076-088e72accb76","system_id":"levelo_inurba_marseille","lat":43.24829,"lon":5.37473,"is_reserved":false,"is_disabled":false,"rental_uris":{"android":"levelo://app?vid=19fb1931-f075-402c-a076-088e72accb76","ios":"levelo://app?vid=19fb1931-f075-402c-a076-088e72accb76"},"vehicle_type_id":"4","last_reported":1737259804,"current_range_meters":12000,"station_id":"ce4bhgh2rcd13ifvqfb0","pricing_plan_id":"cebpf4jnsgd1na2vs0mg"},{"bike_id":"081f780a-421e-4d29-9981-68dbb84da5f6","system_id":"levelo_inurba_marseille","lat":43.317538,"lon":5.390104,"is_reserved":false,"is_disabled":false,"rental_uris":{"android":"levelo://app?vid=081f780a-421e-4d29-9981-68dbb84da5f6","ios":"levelo://app?vid=081f780a-421e-4d29-9981-68dbb84da5f6"},"vehicle_type_id":"4","last_reported":1737259804,"current_range_meters":38800,"station_id":"ce4bhqp2rcd13ifvqhng","pricing_plan_id":"cebpf4jnsgd1na2vs0mg"},{"bike_id":"86b1129b-34c7-4cb1-acb7-46aa8942c62c","system_id":"levelo_inurba_marseille","lat":43.23153,"lon":5.43708,"is_reserved":false,"is_disabled":false,"rental_uris":{"android":"levelo://app?vid=86b1129b-34c7-4cb1-acb7-46aa8942c62c","ios":"levelo://app?vid=86b1129b-34c7-4cb1-acb7-46aa8942c62c"},"vehicle_type_id":"4","last_reported":1737259804,"current_range_meters":37600,"station_id":"ce4bhmp2rcd13ifvqgog","pricing_plan_id":"cebpf4jnsgd1na2vs0mg"},{"bike_id":"b38d0e9b-522e-467c-9422-93d141c42f17","system_id":"levelo_inurba_marseille","lat":43.29566,"lon":5.42279,"is_reserved":false,"is_disabled":false,"rental_uris":{"android":"levelo://app?vid=b38d0e9b-522e-467c-9422-93d141c42f17","ios":"levelo://app?vid=b38d0e9b-522e-467c-9422-93d141c42f17"},"vehicle_type_id":"4","last_reported":1737259804,"current_range_meters":32800,"station_id":"ce4bhph2rcd13ifvqhdg","pricing_plan_id":"cebpf4jnsgd1na2vs0mg"},{"bike_id":"ab4da653-1994-420f-a89b-f6852d9c3743","system_id":"levelo_inurba_marseille","lat":43.30898,"lon":5.36859,"is_reserved":false,"is_disabled":false,"rental_uris":{"android":"levelo://app?vid=ab4da653-1994-420f-a89b-f6852d9c3743","ios":"levelo://app?vid=ab4da653-1994-420f-a89b-f6852d9c3743"},"vehicle_type_id":"4","last_reported":1737259804,"current_range_meters":28400,"station_id":"ce4bgn92rcd13ifvqbvg","pricing_plan_id":"cebpf4jnsgd1na2vs0mg"},{"bike_id":"fad73bdb-6dc6-4c07-95d2-7cbcf7b07690","system_id":"levelo_inurba_marseille","lat":43.30874,"lon":5.39637,"is_reserved":false,"is_disabled":false,"rental_uris":{"android":"levelo://app?vid=fad73bdb-6dc6-4c07-95d2-7cbcf7b07690","ios":"levelo://app?vid=fad73bdb-6dc6-4c07-95d2-7cbcf7b07690"},"vehicle_type_id":"4","last_reported":1737259804,"current_range_meters":27600,"station_id":"ce4bh012rcd13ifvqcv0","pricing_plan_id":"cebpf4jnsgd1na2vs0mg"},{"bike_id":"359264b6-cc9c-4d77-996c-c5218ed5c647","system_id":"levelo_inurba_marseille","lat":43.318871,"lon":5.407278,"is_reserved":false,"is_disabled":false,"rental_uris":{"android":"levelo://app?vid=359264b6-cc9c-4d77-996c-c5218ed5c647","ios":"levelo://app?vid=359264b6-cc9c-4d77-996c-c5218ed5c647"},"vehicle_type_id":"4","last_reported":1737259804,"current_range_meters":10000,"station_id":"ce4bhq12rcd13ifvqhig","pricing_plan_id":"cebpf4jnsgd1na2vs0mg"},{"bike_id":"ad918d02-2287-4eac-99fb-4c4d0533782b","system_id":"levelo_inurba_marseille","lat":43.25112,"lon":5.40324,"is_reserved":false,"is_disabled":false,"rental_uris":{"android":"levelo://app?vid=ad918d02-2287-4eac-99fb-4c4d0533782b","ios":"levelo://app?vid=ad918d02-2287-4eac-99fb-4c4d0533782b"},"vehicle_type_id":"4","last_reported":1737259804,"current_range_meters":12000,"station_id":"ce4bhlh2rcd13ifvqgig","pricing_plan_id":"cebpf4jnsgd1na2vs0mg"},{"bike_id":"c6f874ed-7baa-4ffa-b8dc-93b47368c64c","system_id":"levelo_inurba_marseille","lat":43.27377,"lon":5.36244,"is_reserved":false,"is_disabled":false,"rental_uris":{"android":"levelo://app?vid=c6f874ed-7baa-4ffa-b8dc-93b47368c64c","ios":"levelo://app?vid=c6f874ed-7baa-4ffa-b8dc-93b47368c64c"},"vehicle_type_id":"4","last_reported":1737259804,"current_range_meters":32000,"station_id":"ce4bhbh2rcd13ifvqeo0","pricing_plan_id":"cebpf4jnsgd1na2vs0mg"},{"bike_id":"82eafdac-bd81-479d-a7b0-05db8ca76c26","system_id":"levelo_inurba_marseille","lat":43.25828,"lon":5.39433,"is_reserved":false,"is_disabled":true,"rental_uris":{"android":"levelo://app?vid=82eafdac-bd81-479d-a7b0-05db8ca76c26","ios":"levelo://app?vid=82eafdac-bd81-479d-a7b0-05db8ca76c26"},"vehicle_type_id":"4","last_reported":1737259804,"current_range_meters":0,"station_id":"ce4bhip2rcd13ifvqft0","pricing_plan_id":"cebpf4jnsgd1na2vs0mg"},{"bike_id":"88b2d2e1-f031-4080-9cac-720a82058612","system_id":"levelo_inurba_marseille","lat":43.312708,"lon":5.401731,"is_reserved":false,"is_disabled":false,"rental_uris":{"android":"levelo://app?vid=88b2d2e1-f031-4080-9cac-720a82058612","ios":"levelo://app?vid=88b2d2e1-f031-4080-9cac-720a82058612"},"vehicle_type_id":"4","last_reported":1737259804,"current_range_meters":38800,"station_id":"ce4bh092rcd13ifvqd30","pricing_plan_id":"cebpf4jnsgd1na2vs0mg"},{"bike_id":"7fefe014-5ff5-4472-a513-faec3bd0f1ab","system_id":"levelo_inurba_marseille","lat":43.26059,"lon":5.39394,"is_reserved":false,"is_disabled":false,"rental_uris":{"android":"levelo://app?vid=7fefe014-5ff5-4472-a513-faec3bd0f1ab","ios":"levelo://app?vid=7fefe014-5ff5-4472-a513-faec3bd0f1ab"},"vehicle_type_id":"4","last_reported":1737259804,"current_range_meters":2800,"station_id":"ce4bhh92rcd13ifvqfj0","pricing_plan_id":"cebpf4jnsgd1na2vs0mg"},{"bike_id":"93887ba0-f4e1-4ca6-bcbb-ee5a285a43f8","system_id":"levelo_inurba_marseille","lat":43.31325,"lon":5.39703,"is_reserved":false,"is_disabled":false,"rental_uris":{"android":"levelo://app?vid=93887ba0-f4e1-4ca6-bcbb-ee5a285a43f8","ios":"levelo://app?vid=93887ba0-f4e1-4ca6-bcbb-ee5a285a43f8"},"vehicle_type_id":"4","last_reported":1737259804,"current_range_meters":5600,"station_id":"ce4bgvp2rcd13ifvqcu0","pricing_plan_id":"cebpf4jnsgd1na2vs0mg"},{"bike_id":"3cb8672c-9a07-4673-8693-dc9722ac9607","system_id":"levelo_inurba_marseille","lat":43.29556,"lon":5.42275,"is_reserved":false,"is_disabled":false,"rental_uris":{"android":"levelo://app?vid=3cb8672c-9a07-4673-8693-dc9722ac9607","ios":"levelo://app?vid=3cb8672c-9a07-4673-8693-dc9722ac9607"},"vehicle_type_id":"4","last_reported":1737259804,"current_range_meters":28400,"station_id":"ce4bhph2rcd13ifvqhdg","pricing_plan_id":"cebpf4jnsgd1na2vs0mg"},{"bike_id":"a88059c0-9442-4874-8b94-2e735de7f9ca","system_id":"levelo_inurba_marseille","lat":43.28707,"lon":5.37394,"is_reserved":false,"is_disabled":false,"rental_uris":{"android":"levelo://app?vid=a88059c0-9442-4874-8b94-2e735de7f9ca","ios":"levelo://app?vid=a88059c0-9442-4874-8b94-2e735de7f9ca"},"vehicle_type_id":"4","last_reported":1737259804,"current_range_meters":22400,"station_id":"ce4bh3p2rcd13ifvqdq0","pricing_plan_id":"cebpf4jnsgd1na2vs0mg"},{"bike_id":"2836157e-1694-4c00-8055-bccadf95fde4","system_id":"levelo_inurba_marseille","lat":43.231898,"lon":5.399858,"is_reserved":false,"is_disabled":false,"rental_uris":{"android":"levelo://app?vid=2836157e-1694-4c00-8055-bccadf95fde4","ios":"levelo://app?vid=2836157e-1694-4c00-8055-bccadf95fde4"},"vehicle_type_id":"4","last_reported":1737259804,"current_range_meters":24800,"station_id":"ce4bhn12rcd13ifvqgqg","pricing_plan_id":"cebpf4jnsgd1na2vs0mg"},{"bike_id":"2f229b84-0dd9-4150-b226-a007f85e4aa6","system_id":"levelo_inurba_marseille","lat":43.30134,"lon":5.37428,"is_reserved":false,"is_disabled":false,"rental_uris":{"android":"levelo://app?vid=2f229b84-0dd9-4150-b226-a007f85e4aa6","ios":"levelo://app?vid=2f229b84-0dd9-4150-b226-a007f85e4aa6"},"vehicle_type_id":"4","last_reported":1737259804,"current_range_meters":38800,"station_id":"ce4bgs92rcd13ifvqcc0","pricing_plan_id":"cebpf4jnsgd1na2vs0mg"},{"bike_id":"f2390374-e060-4fe1-bcfa-cb2711193e58","system_id":"levelo_inurba_marseille","lat":43.25091,"lon":5.39518,"is_reserved":false,"is_disabled":false,"rental_uris":{"android":"levelo://app?vid=f2390374-e060-4fe1-bcfa-cb2711193e58","ios":"levelo://app?vid=f2390374-e060-4fe1-bcfa-cb2711193e58"},"vehicle_type_id":"4","last_reported":1737259804,"current_range_meters":38800,"station_id":"ce4bhm12rcd13ifvqgkg","pricing_plan_id":"cebpf4jnsgd1na2vs0mg"},{"bike_id":"e013395f-6e2e-43e3-aa9b-9dc8ff0c226b","system_id":"levelo_inurba_marseille","lat":43.30795,"lon":5.43524,"is_reserved":false,"is_disabled":false,"rental_uris":{"android":"levelo://app?vid=e013395f-6e2e-43e3-aa9b-9dc8ff0c226b","ios":"levelo://app?vid=e013395f-6e2e-43e3-aa9b-9dc8ff0c226b"},"vehicle_type_id":"4","last_reported":1737259804,"current_range_meters":27600,"station_id":"ce4bhph2rcd13ifvqheg","pricing_plan_id":"cebpf4jnsgd1na2vs0mg"},{"bike_id":"d922a541-8d59-49fe-8950-daca6d5f04c0","system_id":"levelo_inurba_marseille","lat":43.292529,"lon":5.409175,"is_reserved":false,"is_disabled":false,"rental_uris":{"android":"levelo://app?vid=d922a541-8d59-49fe-8950-daca6d5f04c0","ios":"levelo://app?vid=d922a541-8d59-49fe-8950-daca6d5f04c0"},"vehicle_type_id":"4","last_reported":1737259804,"current_range_meters":38800,"station_id":"ce4bh192rcd13ifvqdc0","pricing_plan_id":"cebpf4jnsgd1na2vs0mg"},{"bike_id":"591b3bd2-5685-4ec2-843e-e45d69c9aabd","system_id":"levelo_inurba_marseille","lat":43.26052,"lon":5.39392,"is_reserved":false,"is_disabled":false,"rental_uris":{"android":"levelo://app?vid=591b3bd2-5685-4ec2-843e-e45d69c9aabd","ios":"levelo://app?vid=591b3bd2-5685-4ec2-843e-e45d69c9aabd"},"vehicle_type_id":"4","last_reported":1737259804,"current_range_meters":38000,"station_id":"ce4bhh92rcd13ifvqfj0","pricing_plan_id":"cebpf4jnsgd1na2vs0mg"},{"bike_id":"116c4031-b484-43b8-b0f9-b021c08b2f14","system_id":"levelo_inurba_marseille","lat":43.28934,"lon":5.36419,"is_reserved":false,"is_disabled":false,"rental_uris":{"android":"levelo://app?vid=116c4031-b484-43b8-b0f9-b021c08b2f14","ios":"levelo://app?vid=116c4031-b484-43b8-b0f9-b021c08b2f14"},"vehicle_type_id":"4","last_reported":1737259804,"current_range_meters":34800,"station_id":"ce4bhc92rcd13ifvqetg","pricing_plan_id":"cebpf4jnsgd1na2vs0mg"},{"bike_id":"535838d9-5884-4db7-a3a6-b956e4d0f129","system_id":"levelo_inurba_marseille","lat":43.30545,"lon":5.38438,"is_reserved":false,"is_disabled":false,"rental_uris":{"android":"levelo://app?vid=535838d9-5884-4db7-a3a6-b956e4d0f129","ios":"levelo://app?vid=535838d9-5884-4db7-a3a6-b956e4d0f129"},"vehicle_type_id":"4","last_reported":1737259804,"current_range_meters":18000,"station_id":"ce4bgg92rcd13ifvqb30","pricing_plan_id":"cebpf4jnsgd1na2vs0mg"},{"bike_id":"a3dd20f0-27d2-43cd-8b06-2b1035532be4","system_id":"levelo_inurba_marseille","lat":43.280797,"lon":5.396445,"is_reserved":false,"is_disabled":false,"rental_uris":{"android":"levelo://app?vid=a3dd20f0-27d2-43cd-8b06-2b1035532be4","ios":"levelo://app?vid=a3dd20f0-27d2-43cd-8b06-2b1035532be4"},"vehicle_type_id":"4","last_reported":1737259804,"current_range_meters":38800,"station_id":"ce4bho12rcd13ifvqh2g","pricing_plan_id":"cebpf4jnsgd1na2vs0mg"},{"bike_id":"cc8bd1cd-7577-4845-9507-33fc3924f547","system_id":"levelo_inurba_marseille","lat":43.29044,"lon":5.35901,"is_reserved":false,"is_disabled":false,"rental_uris":{"android":"levelo://app?vid=cc8bd1cd-7577-4845-9507-33fc3924f547","ios":"levelo://app?vid=cc8bd1cd-7577-4845-9507-33fc3924f547"},"vehicle_type_id":"4","last_reported":1737259804,"current_range_meters":36000,"station_id":"ce4bha92rcd13ifvqeg0","pricing_plan_id":"cebpf4jnsgd1na2vs0mg"},{"bike_id":"65bc6e4b-80b6-41da-bb7d-25f938e2741d","system_id":"levelo_inurba_marseille","lat":43.287017,"lon":5.399918,"is_reserved":false,"is_disabled":false,"rental_uris":{"android":"levelo://app?vid=65bc6e4b-80b6-41da-bb7d-25f938e2741d","ios":"levelo://app?vid=65bc6e4b-80b6-41da-bb7d-25f938e2741d"},"vehicle_type_id":"4","last_reported":1737259804,"current_range_meters":33600,"station_id":"ce4bho92rcd13ifvqh3g","pricing_plan_id":"cebpf4jnsgd1na2vs0mg"},{"bike_id":"d468c43b-79f9-4a69-9334-f2e452c76c01","system_id":"levelo_inurba_marseille","lat":43.31251,"lon":5.36861,"is_reserved":false,"is_disabled":false,"rental_uris":{"android":"levelo://app?vid=d468c43b-79f9-4a69-9334-f2e452c76c01","ios":"levelo://app?vid=d468c43b-79f9-4a69-9334-f2e452c76c01"},"vehicle_type_id":"4","last_reported":1737259804,"current_range_meters":36000,"station_id":"ce4bgl92rcd13ifvqbq0","pricing_plan_id":"cebpf4jnsgd1na2vs0mg"},{"bike_id":"0f6ac4af-0772-4e9d-8e8e-ecf1f5c1f7e9","system_id":"levelo_inurba_marseille","lat":43.30589,"lon":5.39338,"is_reserved":false,"is_disabled":false,"rental_uris":{"android":"levelo://app?vid=0f6ac4af-0772-4e9d-8e8e-ecf1f5c1f7e9","ios":"levelo://app?vid=0f6ac4af-0772-4e9d-8e8e-ecf1f5c1f7e9"},"vehicle_type_id":"4","last_reported":1737259804,"current_range_meters":38800,"station_id":"ce4bh0p2rcd13ifvqd80","pricing_plan_id":"cebpf4jnsgd1na2vs0mg"},{"bike_id":"5a3716de-7d12-4757-b7a0-e5e283057e63","system_id":"levelo_inurba_marseille","lat":43.240717,"lon":5.377618,"is_reserved":false,"is_disabled":false,"rental_uris":{"android":"levelo://app?vid=5a3716de-7d12-4757-b7a0-e5e283057e63","ios":"levelo://app?vid=5a3716de-7d12-4757-b7a0-e5e283057e63"},"vehicle_type_id":"4","last_reported":1737259804,"current_range_meters":30000,"station_id":"ce4bhnp2rcd13ifvqgvg","pricing_plan_id":"cebpf4jnsgd1na2vs0mg"},{"bike_id":"a95248e8-7ba2-479e-9b5c-9fb4d8e98c2b","system_id":"levelo_inurba_marseille","lat":43.280933,"lon":5.421875,"is_reserved":false,"is_disabled":true,"rental_uris":{"android":"levelo://app?vid=a95248e8-7ba2-479e-9b5c-9fb4d8e98c2b","ios":"levelo://app?vid=a95248e8-7ba2-479e-9b5c-9fb4d8e98c2b"},"vehicle_type_id":"4","last_reported":1737259804,"current_range_meters":0,"station_id":"","pricing_plan_id":"cebpf4jnsgd1na2vs0mg"},{"bike_id":"246f2aa1-d855-40ee-b8e2-0e541013d632","system_id":"levelo_inurba_marseille","lat":43.278231,"lon":5.407209,"is_reserved":false,"is_disabled":true,"rental_uris":{"android":"levelo://app?vid=246f2aa1-d855-40ee-b8e2-0e541013d632","ios":"levelo://app?vid=246f2aa1-d855-40ee-b8e2-0e541013d632"},"vehicle_type_id":"4","last_reported":1737259804,"current_range_meters":0,"station_id":"ce4bhnh2rcd13ifvqgtg","pricing_plan_id":"cebpf4jnsgd1na2vs0mg"},{"bike_id":"87cefc3a-e36a-4030-9c3f-9fc87455f3e3","system_id":"levelo_inurba_marseille","lat":43.27381,"lon":5.3625,"is_reserved":false,"is_disabled":false,"rental_uris":{"android":"levelo://app?vid=87cefc3a-e36a-4030-9c3f-9fc87455f3e3","ios":"levelo://app?vid=87cefc3a-e36a-4030-9c3f-9fc87455f3e3"},"vehicle_type_id":"4","last_reported":1737259804,"current_range_meters":38400,"station_id":"ce4bhbh2rcd13ifvqeo0","pricing_plan_id":"cebpf4jnsgd1na2vs0mg"},{"bike_id":"1cd83d06-5980-4320-b952-5d72bcbe2a3f","system_id":"levelo_inurba_marseille","lat":43.317,"lon":5.3781,"is_reserved":false,"is_disabled":false,"rental_uris":{"android":"levelo://app?vid=1cd83d06-5980-4320-b952-5d72bcbe2a3f","ios":"levelo://app?vid=1cd83d06-5980-4320-b952-5d72bcbe2a3f"},"vehicle_type_id":"4","last_reported":1737259804,"current_range_meters":38800,"station_id":"ce4bgth2rcd13ifvqch0","pricing_plan_id":"cebpf4jnsgd1na2vs0mg"},{"bike_id":"c5fd4115-ef9b-417b-9a07-50ba619cdb53","system_id":"levelo_inurba_marseille","lat":43.30228,"lon":5.39446,"is_reserved":false,"is_disabled":false,"rental_uris":{"android":"levelo://app?vid=c5fd4115-ef9b-417b-9a07-50ba619cdb53","ios":"levelo://app?vid=c5fd4115-ef9b-417b-9a07-50ba619cdb53"},"vehicle_type_id":"4","last_reported":1737259804,"current_range_meters":34000,"station_id":"ce4bh0p2rcd13ifvqd70","pricing_plan_id":"cebpf4jnsgd1na2vs0mg"},{"bike_id":"a8404ae2-4b03-4e79-b2fb-443e381045c4","system_id":"levelo_inurba_marseille","lat":43.27562,"lon":5.38435,"is_reserved":false,"is_disabled":false,"rental_uris":{"android":"levelo://app?vid=a8404ae2-4b03-4e79-b2fb-443e381045c4","ios":"levelo://app?vid=a8404ae2-4b03-4e79-b2fb-443e381045c4"},"vehicle_type_id":"4","last_reported":1737259804,"current_range_meters":38800,"station_id":"ce4bhh92rcd13ifvqfi0","pricing_plan_id":"cebpf4jnsgd1na2vs0mg"},{"bike_id":"dd310bee-2e8a-4a2f-91bc-662e51f1f228","system_id":"levelo_inurba_marseille","lat":43.24074,"lon":5.3777,"is_reserved":false,"is_disabled":false,"rental_uris":{"android":"levelo://app?vid=dd310bee-2e8a-4a2f-91bc-662e51f1f228","ios":"levelo://app?vid=dd310bee-2e8a-4a2f-91bc-662e51f1f228"},"vehicle_type_id":"4","last_reported":1737259804,"current_range_meters":25600,"station_id":"ce4bhnp2rcd13ifvqgvg","pricing_plan_id":"cebpf4jnsgd1na2vs0mg"},{"bike_id":"927159ff-ab29-4a04-84bb-c2b8f5dcea44","system_id":"levelo_inurba_marseille","lat":43.26563,"lon":5.37287,"is_reserved":false,"is_disabled":false,"rental_uris":{"android":"levelo://app?vid=927159ff-ab29-4a04-84bb-c2b8f5dcea44","ios":"levelo://app?vid=927159ff-ab29-4a04-84bb-c2b8f5dcea44"},"vehicle_type_id":"4","last_reported":1737259804,"current_range_meters":25600,"station_id":"ce4bhg12rcd13ifvqf70","pricing_plan_id":"cebpf4jnsgd1na2vs0mg"},{"bike_id":"282306e5-d3b7-4585-b8d7-8b5c45e36688","system_id":"levelo_inurba_marseille","lat":43.30786,"lon":5.37654,"is_reserved":false,"is_disabled":false,"rental_uris":{"android":"levelo://app?vid=282306e5-d3b7-4585-b8d7-8b5c45e36688","ios":"levelo://app?vid=282306e5-d3b7-4585-b8d7-8b5c45e36688"},"vehicle_type_id":"4","last_reported":1737259804,"current_range_meters":38800,"station_id":"ce4bgv92rcd13ifvqcq0","pricing_plan_id":"cebpf4jnsgd1na2vs0mg"},{"bike_id":"2189f33e-4cfd-4f76-9d91-913095d551c4","system_id":"levelo_inurba_marseille","lat":43.30354,"lon":5.390918,"is_reserved":false,"is_disabled":true,"rental_uris":{"android":"levelo://app?vid=2189f33e-4cfd-4f76-9d91-913095d551c4","ios":"levelo://app?vid=2189f33e-4cfd-4f76-9d91-913095d551c4"},"vehicle_type_id":"4","last_reported":1737259804,"current_range_meters":0,"station_id":"","pricing_plan_id":"cebpf4jnsgd1na2vs0mg"},{"bike_id":"d3d09a19-44d5-45b9-8a4d-51061f2a6f15","system_id":"levelo_inurba_marseille","lat":43.28005,"lon":5.40006,"is_reserved":false,"is_disabled":false,"rental_uris":{"android":"levelo://app?vid=d3d09a19-44d5-45b9-8a4d-51061f2a6f15","ios":"levelo://app?vid=d3d09a19-44d5-45b9-8a4d-51061f2a6f15"},"vehicle_type_id":"4","last_reported":1737259804,"current_range_meters":8400,"station_id":"ce4bho92rcd13ifvqh4g","pricing_plan_id":"cebpf4jnsgd1na2vs0mg"},{"bike_id":"5f710268-073d-4db3-8e21-1ae7b4b5a30d","system_id":"levelo_inurba_marseille","lat":43.33616,"lon":5.4103,"is_reserved":false,"is_disabled":false,"rental_uris":{"android":"levelo://app?vid=5f710268-073d-4db3-8e21-1ae7b4b5a30d","ios":"levelo://app?vid=5f710268-073d-4db3-8e21-1ae7b4b5a30d"},"vehicle_type_id":"4","last_reported":1737259804,"current_range_meters":10000,"station_id":"ce4bhqh2rcd13ifvqhmg","pricing_plan_id":"cebpf4jnsgd1na2vs0mg"},{"bike_id":"668f9767-c78d-438a-96bb-c0760f782967","system_id":"levelo_inurba_marseille","lat":43.26206,"lon":5.37921,"is_reserved":false,"is_disabled":false,"rental_uris":{"android":"levelo://app?vid=668f9767-c78d-438a-96bb-c0760f782967","ios":"levelo://app?vid=668f9767-c78d-438a-96bb-c0760f782967"},"vehicle_type_id":"4","last_reported":1737259804,"current_range_meters":35600,"station_id":"ce4bhjp2rcd13ifvqg90","pricing_plan_id":"cebpf4jnsgd1na2vs0mg"},{"bike_id":"10b07160-b2e6-4490-99c2-04ff44bfa0c3","system_id":"levelo_inurba_marseille","lat":43.30587,"lon":5.37207,"is_reserved":false,"is_disabled":false,"rental_uris":{"android":"levelo://app?vid=10b07160-b2e6-4490-99c2-04ff44bfa0c3","ios":"levelo://app?vid=10b07160-b2e6-4490-99c2-04ff44bfa0c3"},"vehicle_type_id":"4","last_reported":1737259804,"current_range_meters":38000,"station_id":"ce4bgqh2rcd13ifvqc4g","pricing_plan_id":"cebpf4jnsgd1na2vs0mg"},{"bike_id":"541b7769-8083-411e-ad4d-d20a4dfa7b91","system_id":"levelo_inurba_marseille","lat":43.31271,"lon":5.40174,"is_reserved":false,"is_disabled":false,"rental_uris":{"android":"levelo://app?vid=541b7769-8083-411e-ad4d-d20a4dfa7b91","ios":"levelo://app?vid=541b7769-8083-411e-ad4d-d20a4dfa7b91"},"vehicle_type_id":"4","last_reported":1737259804,"current_range_meters":38800,"station_id":"ce4bh092rcd13ifvqd30","pricing_plan_id":"cebpf4jnsgd1na2vs0mg"},{"bike_id":"298d2613-8659-4565-ade6-d6e216e8e84d","system_id":"levelo_inurba_marseille","lat":43.2583,"lon":5.39432,"is_reserved":false,"is_disabled":false,"rental_uris":{"android":"levelo://app?vid=298d2613-8659-4565-ade6-d6e216e8e84d","ios":"levelo://app?vid=298d2613-8659-4565-ade6-d6e216e8e84d"},"vehicle_type_id":"4","last_reported":1737259804,"current_range_meters":38000,"station_id":"ce4bhip2rcd13ifvqft0","pricing_plan_id":"cebpf4jnsgd1na2vs0mg"},{"bike_id":"e741f30c-f7c4-4a0a-821f-1b79968d8237","system_id":"levelo_inurba_marseille","lat":43.33606,"lon":5.41003,"is_reserved":false,"is_disabled":false,"rental_uris":{"android":"levelo://app?vid=e741f30c-f7c4-4a0a-821f-1b79968d8237","ios":"levelo://app?vid=e741f30c-f7c4-4a0a-821f-1b79968d8237"},"vehicle_type_id":"4","last_reported":1737259804,"current_range_meters":22000,"station_id":"ce4bhqh2rcd13ifvqhmg","pricing_plan_id":"cebpf4jnsgd1na2vs0mg"},{"bike_id":"3c394b72-4228-433d-9ab7-816eaad63650","system_id":"levelo_inurba_marseille","lat":43.28463,"lon":5.39204,"is_reserved":false,"is_disabled":false,"rental_uris":{"android":"levelo://app?vid=3c394b72-4228-433d-9ab7-816eaad63650","ios":"levelo://app?vid=3c394b72-4228-433d-9ab7-816eaad63650"},"vehicle_type_id":"4","last_reported":1737259804,"current_range_meters":38000,"station_id":"ce4bhoh2rcd13ifvqh5g","pricing_plan_id":"cebpf4jnsgd1na2vs0mg"},{"bike_id":"0d5bf58b-8962-4322-87c4-754920ec04ac","system_id":"levelo_inurba_marseille","lat":43.3119,"lon":5.38711,"is_reserved":false,"is_disabled":true,"rental_uris":{"android":"levelo://app?vid=0d5bf58b-8962-4322-87c4-754920ec04ac","ios":"levelo://app?vid=0d5bf58b-8962-4322-87c4-754920ec04ac"},"vehicle_type_id":"4","last_reported":1737259804,"current_range_meters":33600,"station_id":"ce4bgv12rcd13ifvqcp0","pricing_plan_id":"cebpf4jnsgd1na2vs0mg"},{"bike_id":"c92cbb9f-5a8c-4f30-b00a-221ba31b944d","system_id":"levelo_inurba_marseille","lat":43.284279,"lon":5.349835,"is_reserved":false,"is_disabled":true,"rental_uris":{"android":"levelo://app?vid=c92cbb9f-5a8c-4f30-b00a-221ba31b944d","ios":"levelo://app?vid=c92cbb9f-5a8c-4f30-b00a-221ba31b944d"},"vehicle_type_id":"4","last_reported":1737259804,"current_range_meters":33200,"station_id":"ce4bhbh2rcd13ifvqepg","pricing_plan_id":"cebpf4jnsgd1na2vs0mg"},{"bike_id":"41902fd9-fa18-46a4-b43c-51a2cb10a6db","system_id":"levelo_inurba_marseille","lat":43.303649,"lon":5.418885,"is_reserved":false,"is_disabled":false,"rental_uris":{"android":"levelo://app?vid=41902fd9-fa18-46a4-b43c-51a2cb10a6db","ios":"levelo://app?vid=41902fd9-fa18-46a4-b43c-51a2cb10a6db"},"vehicle_type_id":"4","last_reported":1737259804,"current_range_meters":38800,"station_id":"ce4bhop2rcd13ifvqh7g","pricing_plan_id":"cebpf4jnsgd1na2vs0mg"},{"bike_id":"4e35d48b-8446-4e2a-a4c2-e2ce4476ec82","system_id":"levelo_inurba_marseille","lat":43.28417,"lon":5.34987,"is_reserved":false,"is_disabled":false,"rental_uris":{"android":"levelo://app?vid=4e35d48b-8446-4e2a-a4c2-e2ce4476ec82","ios":"levelo://app?vid=4e35d48b-8446-4e2a-a4c2-e2ce4476ec82"},"vehicle_type_id":"4","last_reported":1737259804,"current_range_meters":31200,"station_id":"ce4bhbh2rcd13ifvqepg","pricing_plan_id":"cebpf4jnsgd1na2vs0mg"},{"bike_id":"d7c0872a-e6bf-430f-af66-52a0c0c846ba","system_id":"levelo_inurba_marseille","lat":43.29038,"lon":5.35915,"is_reserved":false,"is_disabled":false,"rental_uris":{"android":"levelo://app?vid=d7c0872a-e6bf-430f-af66-52a0c0c846ba","ios":"levelo://app?vid=d7c0872a-e6bf-430f-af66-52a0c0c846ba"},"vehicle_type_id":"4","last_reported":1737259804,"current_range_meters":16800,"station_id":"ce4bha92rcd13ifvqeg0","pricing_plan_id":"cebpf4jnsgd1na2vs0mg"},{"bike_id":"fe90f7a6-3920-456a-9451-50d213b7000f","system_id":"levelo_inurba_marseille","lat":43.28467,"lon":5.38434,"is_reserved":false,"is_disabled":true,"rental_uris":{"android":"levelo://app?vid=fe90f7a6-3920-456a-9451-50d213b7000f","ios":"levelo://app?vid=fe90f7a6-3920-456a-9451-50d213b7000f"},"vehicle_type_id":"4","last_reported":1737259804,"current_range_meters":33600,"station_id":"ce4bh512rcd13ifvqe3g","pricing_plan_id":"cebpf4jnsgd1na2vs0mg"},{"bike_id":"701eaa77-7a53-45d9-810d-85ea1065f324","system_id":"levelo_inurba_marseille","lat":43.31274,"lon":5.40169,"is_reserved":false,"is_disabled":false,"rental_uris":{"android":"levelo://app?vid=701eaa77-7a53-45d9-810d-85ea1065f324","ios":"levelo://app?vid=701eaa77-7a53-45d9-810d-85ea1065f324"},"vehicle_type_id":"4","last_reported":1737259804,"current_range_meters":38800,"station_id":"ce4bh092rcd13ifvqd30","pricing_plan_id":"cebpf4jnsgd1na2vs0mg"},{"bike_id":"919e93a6-0791-4d8a-9838-d57cbdc5d937","system_id":"levelo_inurba_marseille","lat":43.25112,"lon":5.40325,"is_reserved":false,"is_disabled":false,"rental_uris":{"android":"levelo://app?vid=919e93a6-0791-4d8a-9838-d57cbdc5d937","ios":"levelo://app?vid=919e93a6-0791-4d8a-9838-d57cbdc5d937"},"vehicle_type_id":"4","last_reported":1737259804,"current_range_meters":32800,"station_id":"ce4bhlh2rcd13ifvqgig","pricing_plan_id":"cebpf4jnsgd1na2vs0mg"},{"bike_id":"b2e5f39f-369e-4eff-87e9-360a19b541cc","system_id":"levelo_inurba_marseille","lat":43.290356,"lon":5.399577,"is_reserved":false,"is_disabled":false,"rental_uris":{"android":"levelo://app?vid=b2e5f39f-369e-4eff-87e9-360a19b541cc","ios":"levelo://app?vid=b2e5f39f-369e-4eff-87e9-360a19b541cc"},"vehicle_type_id":"4","last_reported":1737259804,"current_range_meters":28400,"station_id":"ce4bh392rcd13ifvqdm0","pricing_plan_id":"cebpf4jnsgd1na2vs0mg"},{"bike_id":"aeeb7245-8a7c-4b79-b9ac-efca69f7818a","system_id":"levelo_inurba_marseille","lat":43.32102,"lon":5.36778,"is_reserved":false,"is_disabled":false,"rental_uris":{"android":"levelo://app?vid=aeeb7245-8a7c-4b79-b9ac-efca69f7818a","ios":"levelo://app?vid=aeeb7245-8a7c-4b79-b9ac-efca69f7818a"},"vehicle_type_id":"4","last_reported":1737259804,"current_range_meters":22800,"station_id":"ce4bhrh2rcd13ifvqhug","pricing_plan_id":"cebpf4jnsgd1na2vs0mg"},{"bike_id":"0870bbda-c16c-498d-bd59-1063e9453e67","system_id":"levelo_inurba_marseille","lat":43.28711,"lon":5.3998,"is_reserved":false,"is_disabled":false,"rental_uris":{"android":"levelo://app?vid=0870bbda-c16c-498d-bd59-1063e9453e67","ios":"levelo://app?vid=0870bbda-c16c-498d-bd59-1063e9453e67"},"vehicle_type_id":"4","last_reported":1737259804,"current_range_meters":38800,"station_id":"ce4bho92rcd13ifvqh3g","pricing_plan_id":"cebpf4jnsgd1na2vs0mg"},{"bike_id":"c956dba7-ce5c-4209-aee6-f1213139e237","system_id":"levelo_inurba_marseille","lat":43.3045,"lon":5.38902,"is_reserved":false,"is_disabled":false,"rental_uris":{"android":"levelo://app?vid=c956dba7-ce5c-4209-aee6-f1213139e237","ios":"levelo://app?vid=c956dba7-ce5c-4209-aee6-f1213139e237"},"vehicle_type_id":"4","last_reported":1737259804,"current_range_meters":24800,"station_id":"ce4bgk12rcd13ifvqbi0","pricing_plan_id":"cebpf4jnsgd1na2vs0mg"},