{"last_updated":1702667130,"ttl":30,"version":"2.2","data":{"bikes":[{"bike_id":"46e2e0d9-f5a3-4e72-bb21-8b9599ab1efc","system_id":"levelo_inurba_marseille","lat":43.312239,"lon":5.368562,"is_reserved":false,"is_disabled":false,"rental_uris":{"android":"levelo://app?vid=46e2e0d9-f5a3-4e72-bb21-8b9599ab1efc","ios":"levelo://app?vid=46e2e0d9-f5a3-4e72-bb21-8b9599ab1efc"},"vehicle_type_id":"4","last_reported":1702667130,"current_range_meters":13200,"station_id":"ce4bgl92rcd13ifvqbq0","pricing_plan_id":"free"},{"bike_id":"5af697ef-3b44-46a7-80e2-9d7c976db5cb","system_id":"levelo_inurba_marseille","lat":43.312239,"lon":5.368562,"is_reserved":false,"is_disabled":false,"rental_uris":{"android":"levelo://app?vid=5af697ef-3b44-46a7-80e2-9d7c976db5cb","ios":"levelo://app?vid=5af697ef-3b44-46a7-80e2-9d7c976db5cb"},"vehicle_type_id":"4","last_reported":1702667130,"current_range_meters":6800,"station_id":"ce4bgl92rcd13ifvqbq0","pricing_plan_id":"free"},{"bike_id":"80256e48-0f93-444a-95fd-6e396eed3d4d","system_id":"levelo_inurba_marseille","lat":43.312239,"lon":5.368562,"is_reserved":false,"is_disabled":false,"rental_uris":{"android":"levelo://app?vid=80256e48-0f93-444a-95fd-6e396eed3d4d","ios":"levelo://app?vid=80256e48-0f93-444a-95fd-6e396eed3d4d"},"vehicle_type_id":"4","last_reported":1702667130,"current_range_meters":16000,"station_id":"ce4bgl92rcd13ifvqbq0","pricing_plan_id":"free"},{"bike_id":"5b37b296-ac12-4124-87b0-a35828d949f7","system_id":"levelo_inurba_marseille","lat":43.31222,"lon":5.36855,"is_reserved":false,"is_disabled":false,"rental_uris":{"android":"levelo://app?vid=5b37b296-ac12-4124-87b0-a35828d949f7","ios":"levelo://app?vid=5b37b296-ac12-4124-87b0-a35828d949f7"},"vehicle_type_id":"4","last_reported":1702667130,"current_range_meters":16000,"station_id":"ce4bgl92rcd13ifvqbq0","pricing_plan_id":"free"},{"bike_id":"89d14e8c-dc93-4f54-976a-8d74455e4035","system_id":"levelo_inurba_marseille","lat":43.312239,"lon":5.368562,"is_reserved":false,"is_disabled":false,"rental_uris":{"android":"levelo://app?vid=89d14e8c-dc93-4f54-976a-8d74455e4035","ios":"levelo://app?vid=89d14e8c-dc93-4f54-976a-8d74455e4035"},"vehicle_type_id":"4","last_reported":1702667130,"current_range_meters":1600,"station_id":"ce4bgl92rcd13ifvqbq0","pricing_plan_id":"free"},{"bike_id":"e80565ea-8cd8-4c9a-9a15-0775f9ab07f2","system_id":"levelo_inurba_marseille","lat":43.309076,"lon":5.368465,"is_reserved":false,"is_disabled":false,"rental_uris":{"android":"levelo://app?vid=e80565ea-8cd8-4c9a-9a15-0775f9ab07f2","ios":"levelo://app?vid=e80565ea-8cd8-4c9a-9a15-0775f9ab07f2"},"vehicle_type_id":"4","last_reported":1702667130,"current_range_meters":14400,"station_id":"ce4bgn92rcd13ifvqbvg","pricing_plan_id":"free"},{"bike_id":"173ddada-5b34-4078-9504-4709075bf474","system_id":"levelo_inurba_marseille","lat":43.314811,"lon":5.373104,"is_reserved":false,"is_disabled":false,"rental_uris":{"android":"levelo://app?vid=173ddada-5b34-4078-9504-4709075bf474","ios":"levelo://app?vid=173ddada-5b34-4078-9504-4709075bf474"},"vehicle_type_id":"4","last_reported":1702667130,"current_range_meters":11200,"station_id":"ce4bgt12rcd13ifvqcd0","pricing_plan_id":"free"},{"bike_id":"3f8b821f-e430-4a35-bf14-f8b6e777ea11","system_id":"levelo_inurba_marseille","lat":43.313939,"lon":5.375306,"is_reserved":false,"is_disabled":false,"rental_uris":{"android":"levelo://app?vid=3f8b821f-e430-4a35-bf14-f8b6e777ea11","ios":"levelo://app?vid=3f8b821f-e430-4a35-bf14-f8b6e777ea11"},"vehicle_type_id":"4","last_reported":1702667130,"current_range_meters":0,"station_id":"","pricing_plan_id":"free"},{"bike_id":"955e4ab2-16e5-44e8-a986-a2f50ff96c06","system_id":"levelo_inurba_marseille","lat":43.305382,"lon":5.365389,"is_reserved":false,"is_disabled":false,"rental_uris":{"android":"levelo://app?vid=955e4ab2-16e5-44e8-a986-a2f50ff96c06","ios":"levelo://app?vid=955e4ab2-16e5-44e8-a986-a2f50ff96c06"},"vehicle_type_id":"4","last_reported":1702667130,"current_range_meters":18400,"station_id":"","pricing_plan_id":"free"},{"bike_id":"66645550-f702-4e2e-85a6-bd26bcfc876e","system_id":"levelo_inurba_marseille","lat":43.311125,"lon":5.377624,"is_reserved":false,"is_disabled":false,"rental_uris":{"android":"levelo://app?vid=66645550-f702-4e2e-85a6-bd26bcfc876e","ios":"levelo://app?vid=66645550-f702-4e2e-85a6-bd26bcfc876e"},"vehicle_type_id":"4","last_reported":1702667130,"current_range_meters":20000,"station_id":"ce4bgt92rcd13ifvqcg0","pricing_plan_id":"free"},{"bike_id":"1d854393-9c64-4be7-9ab7-c905514e2c41","system_id":"levelo_inurba_marseille","lat":43.307945,"lon":5.376487,"is_reserved":false,"is_disabled":false,"rental_uris":{"android":"levelo://app?vid=1d854393-9c64-4be7-9ab7-c905514e2c41","ios":"levelo://app?vid=1d854393-9c64-4be7-9ab7-c905514e2c41"},"vehicle_type_id":"4","last_reported":1702667130,"current_range_meters":0,"station_id":"ce4bgv92rcd13ifvqcq0","pricing_plan_id":"free"},{"bike_id":"5fee9a9c-d585-498d-b0f6-40b6eaf7417b","system_id":"levelo_inurba_marseille","lat":43.316907,"lon":5.377517,"is_reserved":false,"is_disabled":false,"rental_uris":{"android":"levelo://app?vid=5fee9a9c-d585-498d-b0f6-40b6eaf7417b","ios":"levelo://app?vid=5fee9a9c-d585-498d-b0f6-40b6eaf7417b"},"vehicle_type_id":"4","last_reported":1702667130,"current_range_meters":2000,"station_id":"ce4bgth2rcd13ifvqch0","pricing_plan_id":"free"},{"bike_id":"18f65a18-b67f-4e81-a972-2b3b5dd94811","system_id":"levelo_inurba_marseille","lat":43.317075,"lon":5.377367,"is_reserved":false,"is_disabled":false,"rental_uris":{"android":"levelo://app?vid=18f65a18-b67f-4e81-a972-2b3b5dd94811","ios":"levelo://app?vid=18f65a18-b67f-4e81-a972-2b3b5dd94811"},"vehicle_type_id":"4","last_reported":1702667130,"current_range_meters":9200,"station_id":"ce4bgth2rcd13ifvqch0","pricing_plan_id":"free"},{"bike_id":"112889bc-8d0f-431d-9767-314715ea602b","system_id":"levelo_inurba_marseille","lat":43.315507,"lon":5.380269,"is_reserved":false,"is_disabled":false,"rental_uris":{"android":"levelo://app?vid=112889bc-8d0f-431d-9767-314715ea602b","ios":"levelo://app?vid=112889bc-8d0f-431d-9767-314715ea602b"},"vehicle_type_id":"4","last_reported":1702667130,"current_range_meters":19200,"station_id":"ce4bhsp2rcd13ifvqi50","pricing_plan_id":"free"},{"bike_id":"fb3f16d5-be05-4c97-812c-59301c1f20ed","system_id":"levelo_inurba_marseille","lat":43.30796,"lon":5.38161,"is_reserved":false,"is_disabled":false,"rental_uris":{"android":"levelo://app?vid=fb3f16d5-be05-4c97-812c-59301c1f20ed","ios":"levelo://app?vid=fb3f16d5-be05-4c97-812c-59301c1f20ed"},"vehicle_type_id":"4","last_reported":1702667130,"current_range_meters":0,"station_id":"ce4bgt12rcd13ifvqce0","pricing_plan_id":"free"},{"bike_id":"88f7ea2a-62f7-4a88-9e9d-900940b4d7e5","system_id":"levelo_inurba_marseille","lat":43.32477,"lon":5.365628,"is_reserved":false,"is_disabled":false,"rental_uris":{"android":"levelo://app?vid=88f7ea2a-62f7-4a88-9e9d-900940b4d7e5","ios":"levelo://app?vid=88f7ea2a-62f7-4a88-9e9d-900940b4d7e5"},"vehicle_type_id":"4","last_reported":1702667130,"current_range_meters":19600,"station_id":"ce4bhs12rcd13ifvqhvg","pricing_plan_id":"free"},{"bike_id":"f1cde3ff-6cd4-4e86-99bc-06e7a73fc0a0","system_id":"levelo_inurba_marseille","lat":43.32479,"lon":5.36558,"is_reserved":false,"is_disabled":false,"rental_uris":{"android":"levelo://app?vid=f1cde3ff-6cd4-4e86-99bc-06e7a73fc0a0","ios":"levelo://app?vid=f1cde3ff-6cd4-4e86-99bc-06e7a73fc0a0"},"vehicle_type_id":"4","last_reported":1702667130,"current_range_meters":20800,"station_id":"ce4bhs12rcd13ifvqhvg","pricing_plan_id":"free"},{"bike_id":"2b6071f4-1a1c-4b2b-b9f1-8f9689b86811","system_id":"levelo_inurba_marseille","lat":43.319935,"lon":5.381699,"is_reserved":false,"is_disabled":false,"rental_uris":{"android":"levelo://app?vid=2b6071f4-1a1c-4b2b-b9f1-8f9689b86811","ios":"levelo://app?vid=2b6071f4-1a1c-4b2b-b9f1-8f9689b86811"},"vehicle_type_id":"4","last_reported":1702667130,"current_range_meters":11600,"station_id":"ce4bhr12rcd13ifvqhpg","pricing_plan_id":"free"},{"bike_id":"ce6db4d4-8208-4aa2-9270-504898c26881","system_id":"levelo_inurba_marseille","lat":43.304274,"lon":5.388873,"is_reserved":false,"is_disabled":false,"rental_uris":{"android":"levelo://app?vid=ce6db4d4-8208-4aa2-9270-504898c26881","ios":"levelo://app?vid=ce6db4d4-8208-4aa2-9270-504898c26881"},"vehicle_type_id":"4","last_reported":1702667130,"current_range_meters":14000,"station_id":"ce4bgk12rcd13ifvqbi0","pricing_plan_id":"free"},{"bike_id":"e5a32586-ae75-49a8-a2c5-49b4a3210505","system_id":"levelo_inurba_marseille","lat":43.32001,"lon":5.38151,"is_reserved":false,"is_disabled":false,"rental_uris":{"android":"levelo://app?vid=e5a32586-ae75-49a8-a2c5-49b4a3210505","ios":"levelo://app?vid=e5a32586-ae75-49a8-a2c5-49b4a3210505"},"vehicle_type_id":"4","last_reported":1702667130,"current_range_meters":16000,"station_id":"ce4bhr12rcd13ifvqhpg","pricing_plan_id":"free"},{"bike_id":"b0980d73-490c-4e12-b23b-897f7025524f","system_id":"levelo_inurba_marseille","lat":43.313571,"lon":5.384829,"is_reserved":false,"is_disabled":false,"rental_uris":{"android":"levelo://app?vid=b0980d73-490c-4e12-b23b-897f7025524f","ios":"levelo://app?vid=b0980d73-490c-4e12-b23b-897f7025524f"},"vehicle_type_id":"4","last_reported":1702667130,"current_range_meters":18800,"station_id":"ce4bgt92rcd13ifvqcf0","pricing_plan_id":"free"},{"bike_id":"4cfeee5c-a63d-4ec0-b4ff-b5cc74f4f508","system_id":"levelo_inurba_marseille","lat":43.313017,"lon":5.38614,"is_reserved":false,"is_disabled":false,"rental_uris":{"android":"levelo://app?vid=4cfeee5c-a63d-4ec0-b4ff-b5cc74f4f508","ios":"levelo://app?vid=4cfeee5c-a63d-4ec0-b4ff-b5cc74f4f508"},"vehicle_type_id":"4","last_reported":1702667130,"current_range_meters":0,"station_id":"","pricing_plan_id":"free"},{"bike_id":"c4e77394-aef9-4077-b745-e99148625344","system_id":"levelo_inurba_marseille","lat":43.32733,"lon":5.36707,"is_reserved":false,"is_disabled":false,"rental_uris":{"android":"levelo://app?vid=c4e77394-aef9-4077-b745-e99148625344","ios":"levelo://app?vid=c4e77394-aef9-4077-b745-e99148625344"},"vehicle_type_id":"4","last_reported":1702667130,"current_range_meters":25600,"station_id":"","pricing_plan_id":"free"},{"bike_id":"c697c5d1-c048-4f10-b165-aaaa6b0c60a2","system_id":"levelo_inurba_marseille","lat":43.298433,"lon":5.362774,"is_reserved":false,"is_disabled":false,"rental_uris":{"android":"levelo://app?vid=c697c5d1-c048-4f10-b165-aaaa6b0c60a2","ios":"levelo://app?vid=c697c5d1-c048-4f10-b165-aaaa6b0c60a2"},"vehicle_type_id":"4","last_reported":1702667130,"current_range_meters":29600,"station_id":"ce4bgpp2rcd13ifvqc3g","pricing_plan_id":"free"},{"bike_id":"cd7c53e3-1e80-4e85-8079-eb9688369330","system_id":"levelo_inurba_marseille","lat":43.311722,"lon":5.387247,"is_reserved":false,"is_disabled":false,"rental_uris":{"android":"levelo://app?vid=cd7c53e3-1e80-4e85-8079-eb9688369330","ios":"levelo://app?vid=cd7c53e3-1e80-4e85-8079-eb9688369330"},"vehicle_type_id":"4","last_reported":1702667130,"current_range_meters":26000,"station_id":"ce4bgv12rcd13ifvqcp0","pricing_plan_id":"free"},{"bike_id":"e85a18a5-1778-4fd6-93f9-b641e870c561","system_id":"levelo_inurba_marseille","lat":43.32291,"lon":5.38266,"is_reserved":false,"is_disabled":false,"rental_uris":{"android":"levelo://app?vid=e85a18a5-1778-4fd6-93f9-b641e870c561","ios":"levelo://app?vid=e85a18a5-1778-4fd6-93f9-b641e870c561"},"vehicle_type_id":"4","last_reported":1702667130,"current_range_meters":29200,"station_id":"ce4bhr12rcd13ifvqhqg","pricing_plan_id":"free"},{"bike_id":"88838216-80d0-4fbb-a281-378562b2152b","system_id":"levelo_inurba_marseille","lat":43.297794,"lon":5.370888,"is_reserved":false,"is_disabled":false,"rental_uris":{"android":"levelo://app?vid=88838216-80d0-4fbb-a281-378562b2152b","ios":"levelo://app?vid=88838216-80d0-4fbb-a281-378562b2152b"},"vehicle_type_id":"4","last_reported":1702667130,"current_range_meters":2800,"station_id":"ce4bgop2rcd13ifvqc1g","pricing_plan_id":"free"},{"bike_id":"cb559df9-b405-48a1-9eb4-7367463ff55c","system_id":"levelo_inurba_marseille","lat":43.32296,"lon":5.38265,"is_reserved":false,"is_disabled":false,"rental_uris":{"android":"levelo://app?vid=cb559df9-b405-48a1-9eb4-7367463ff55c","ios":"levelo://app?vid=cb559df9-b405-48a1-9eb4-7367463ff55c"},"vehicle_type_id":"4","last_reported":1702667130,"current_range_meters":6000,"station_id":"ce4bhr12rcd13ifvqhqg","pricing_plan_id":"free"},{"bike_id":"f4d98847-0b02-4f81-b718-9a12855c5432","system_id":"levelo_inurba_marseille","lat":43.296935,"lon":5.376544,"is_reserved":false,"is_disabled":false,"rental_uris":{"android":"levelo://app?vid=f4d98847-0b02-4f81-b718-9a12855c5432","ios":"levelo://app?vid=f4d98847-0b02-4f81-b718-9a12855c5432"},"vehicle_type_id":"4","last_reported":1702667130,"current_range_meters":7200,"station_id":"ce4bgkh2rcd13ifvqbl0","pricing_plan_id":"free"},{"bike_id":"ccd5db5c-5a76-44c7-b76a-e5878873376f","system_id":"levelo_inurba_marseille","lat":43.29601,"lon":5.381084,"is_reserved":false,"is_disabled":false,"rental_uris":{"android":"levelo://app?vid=ccd5db5c-5a76-44c7-b76a-e5878873376f","ios":"levelo://app?vid=ccd5db5c-5a76-44c7-b76a-e5878873376f"},"vehicle_type_id":"4","last_reported":1702667130,"current_range_meters":0,"station_id":"ce4bgl12rcd13ifvqbo0","pricing_plan_id":"free"},{"bike_id":"5dfae3b8-b431-4485-b6e7-699a119d2154","system_id":"levelo_inurba_marseille","lat":43.292749,"lon":5.368402,"is_reserved":false,"is_disabled":false,"rental_uris":{"android":"levelo://app?vid=5dfae3b8-b431-4485-b6e7-699a119d2154","ios":"levelo://app?vid=5dfae3b8-b431-4485-b6e7-699a119d2154"},"vehicle_type_id":"4","last_reported":1702667130,"current_range_meters":9600,"station_id":"ce4bhbp2rcd13ifvqesg","pricing_plan_id":"free"},{"bike_id":"9917d7eb-0609-4c5e-975c-4ab8e088cde6","system_id":"levelo_inurba_marseille","lat":43.293083,"lon":5.371873,"is_reserved":false,"is_disabled":false,"rental_uris":{"android":"levelo://app?vid=9917d7eb-0609-4c5e-975c-4ab8e088cde6","ios":"levelo://app?vid=9917d7eb-0609-4c5e-975c-4ab8e088cde6"},"vehicle_type_id":"4","last_reported":1702667130,"current_range_meters":8800,"station_id":"","pricing_plan_id":"free"},{"bike_id":"153e7085-9fbb-43ac-8e23-57d4b5cda2ab","system_id":"levelo_inurba_marseille","lat":43.293259,"lon":5.371586,"is_reserved":false,"is_disabled":false,"rental_uris":{"android":"levelo://app?vid=153e7085-9fbb-43ac-8e23-57d4b5cda2ab","ios":"levelo://app?vid=153e7085-9fbb-43ac-8e23-57d4b5cda2ab"},"vehicle_type_id":"4","last_reported":1702667130,"current_range_meters":21600,"station_id":"ce4bgh92rcd13ifvqb40","pricing_plan_id":"free"},{"bike_id":"18a30792-f4bb-4c73-b179-6eb4681fc5a7","system_id":"levelo_inurba_marseille","lat":43.292749,"lon":5.368402,"is_reserved":false,"is_disabled":false,"rental_uris":{"android":"levelo://app?vid=18a30792-f4bb-4c73-b179-6eb4681fc5a7","ios":"levelo://app?vid=18a30792-f4bb-4c73-b179-6eb4681fc5a7"},"vehicle_type_id":"4","last_reported":1702667130,"current_range_meters":17200,"station_id":"ce4bhbp2rcd13ifvqesg","pricing_plan_id":"free"},{"bike_id":"8373a051-a405-4ad8-b8bd-9c01b438a6a9","system_id":"levelo_inurba_marseille","lat":43.305994,"lon":5.393687,"is_reserved":false,"is_disabled":false,"rental_uris":{"android":"levelo://app?vid=8373a051-a405-4ad8-b8bd-9c01b438a6a9","ios":"levelo://app?vid=8373a051-a405-4ad8-b8bd-9c01b438a6a9"},"vehicle_type_id":"4","last_reported":1702667130,"current_range_meters":12000,"station_id":"ce4bh0p2rcd13ifvqd80","pricing_plan_id":"free"},{"bike_id":"45532d91-047d-4c27-b63c-04505cf91962","system_id":"levelo_inurba_marseille","lat":43.293009,"lon":5.374584,"is_reserved":false,"is_disabled":false,"rental_uris":{"android":"levelo://app?vid=45532d91-047d-4c27-b63c-04505cf91962","ios":"levelo://app?vid=45532d91-047d-4c27-b63c-04505cf91962"},"vehicle_type_id":"4","last_reported":1702667130,"current_range_meters":0,"station_id":"ce4bgi12rcd13ifvqb70","pricing_plan_id":"free"},{"bike_id":"36a7eaa5-0e80-44e5-82ee-310f0833fbb8","system_id":"levelo_inurba_marseille","lat":43.305994,"lon":5.393687,"is_reserved":false,"is_disabled":false,"rental_uris":{"android":"levelo://app?vid=36a7eaa5-0e80-44e5-82ee-310f0833fbb8","ios":"levelo://app?vid=36a7eaa5-0e80-44e5-82ee-310f0833fbb8"},"vehicle_type_id":"4","last_reported":1702667130,"current_range_meters":21600,"station_id":"ce4bh0p2rcd13ifvqd80","pricing_plan_id":"free"},{"bike_id":"8a748f69-ffda-4a5d-af80-ac4e590da0e3","system_id":"levelo_inurba_marseille","lat":43.302992,"lon":5.392136,"is_reserved":false,"is_disabled":false,"rental_uris":{"android":"levelo://app?vid=8a748f69-ffda-4a5d-af80-ac4e590da0e3","ios":"levelo://app?vid=8a748f69-ffda-4a5d-af80-ac4e590da0e3"},"vehicle_type_id":"4","last_reported":1702667130,"current_range_meters":9600,"station_id":"ce4bgkh2rcd13ifvqbk0","pricing_plan_id":"free"},{"bike_id":"00d6669a-7809-401d-91ba-aa4cbabd7546","system_id":"levelo_inurba_marseille","lat":43.302992,"lon":5.392136,"is_reserved":false,"is_disabled":false,"rental_uris":{"android":"levelo://app?vid=00d6669a-7809-401d-91ba-aa4cbabd7546","ios":"levelo://app?vid=00d6669a-7809-401d-91ba-aa4cbabd7546"},"vehicle_type_id":"4","last_reported":1702667130,"current_range_meters":3200,"station_id":"ce4bgkh2rcd13ifvqbk0","pricing_plan_id":"free"},{"bike_id":"6479cb93-dc9a-42ed-9e4d-fcdd2c023ee2","system_id":"levelo_inurba_marseille","lat":43.300852,"lon":5.390859,"is_reserved":false,"is_disabled":false,"rental_uris":{"android":"levelo://app?vid=6479cb93-dc9a-42ed-9e4d-fcdd2c023ee2","ios":"levelo://app?vid=6479cb93-dc9a-42ed-9e4d-fcdd2c023ee2"},"vehicle_type_id":"4","last_reported":1702667130,"current_range_meters":29200,"station_id":"ce4bh192rcd13ifvqdb0","pricing_plan_id":"free"},{"bike_id":"1d2cd40e-b170-4122-ad93-f60c8dfdb2b3","system_id":"levelo_inurba_marseille","lat":43.300852,"lon":5.390859,"is_reserved":false,"is_disabled":false,"rental_uris":{"android":"levelo://app?vid=1d2cd40e-b170-4122-ad93-f60c8dfdb2b3","ios":"levelo://app?vid=1d2cd40e-b170-4122-ad93-f60c8dfdb2b3"},"vehicle_type_id":"4","last_reported":1702667130,"current_range_meters":20400,"station_id":"ce4bh192rcd13ifvqdb0","pricing_plan_id":"free"},{"bike_id":"a1e9817e-cd2c-49c3-b1c2-1dfd5c3550f8","system_id":"levelo_inurba_marseille","lat":43.291671,"lon":5.371575,"is_reserved":false,"is_disabled":false,"rental_uris":{"android":"levelo://app?vid=a1e9817e-cd2c-49c3-b1c2-1dfd5c3550f8","ios":"levelo://app?vid=a1e9817e-cd2c-49c3-b1c2-1dfd5c3550f8"},"vehicle_type_id":"4","last_reported":1702667130,"current_range_meters":30400,"station_id":"ce4bha92rcd13ifvqeh0","pricing_plan_id":"free"},{"bike_id":"cefa2ff1-3dd1-4d07-acca-0a4e3051a600","system_id":"levelo_inurba_marseille","lat":43.29872,"lon":5.38906,"is_reserved":false,"is_disabled":false,"rental_uris":{"android":"levelo://app?vid=cefa2ff1-3dd1-4d07-acca-0a4e3051a600","ios":"levelo://app?vid=cefa2ff1-3dd1-4d07-acca-0a4e3051a600"},"vehicle_type_id":"4","last_reported":1702667130,"current_range_meters":17600,"station_id":"","pricing_plan_id":"free"},{"bike_id":"556dde74-226b-4371-9bb7-097946381fc4","system_id":"levelo_inurba_marseille","lat":43.309589,"lon":5.390258,"is_reserved":false,"is_disabled":false,"rental_uris":{"android":"levelo://app?vid=556dde74-226b-4371-9bb7-097946381fc4","ios":"levelo://app?vid=556dde74-226b-4371-9bb7-097946381fc4"},"vehicle_type_id":"4","last_reported":1702667130,"current_range_meters":28000,"station_id":"ce4bgup2rcd13ifvqco0","pricing_plan_id":"free"},{"bike_id":"22583c32-1a20-45fe-abc1-1b2d6900710a","system_id":"levelo_inurba_marseille","lat":43.309038,"lon":5.396546,"is_reserved":false,"is_disabled":false,"rental_uris":{"android":"levelo://app?vid=22583c32-1a20-45fe-abc1-1b2d6900710a","ios":"levelo://app?vid=22583c32-1a20-45fe-abc1-1b2d6900710a"},"vehicle_type_id":"4","last_reported":1702667130,"current_range_meters":22000,"station_id":"ce4bh012rcd13ifvqcv0","pricing_plan_id":"free"},{"bike_id":"dc34cceb-bdce-4bbb-88b5-b258183e22f9","system_id":"levelo_inurba_marseille","lat":43.29529,"lon":5.385581,"is_reserved":false,"is_disabled":false,"rental_uris":{"android":"levelo://app?vid=dc34cceb-bdce-4bbb-88b5-b258183e22f9","ios":"levelo://app?vid=dc34cceb-bdce-4bbb-88b5-b258183e22f9"},"vehicle_type_id":"4","last_reported":1702667130,"current_range_meters":5200,"station_id":"ce4bgih2rcd13ifvqba0","pricing_plan_id":"free"},{"bike_id":"fdd2a506-3ce4-45f2-96cb-38173ec0e746","system_id":"levelo_inurba_marseille","lat":43.273129,"lon":5.390725,"is_reserved":false,"is_disabled":false,"rental_uris":{"android":"levelo://app?vid=fdd2a506-3ce4-45f2-96cb-38173ec0e746","ios":"levelo://app?vid=fdd2a506-3ce4-45f2-96cb-38173ec0e746"},"vehicle_type_id":"4","last_reported":1702667130,"current_range_meters":800,"station_id":"ce4bhgp2rcd13ifvqfe0","pricing_plan_id":"free"},{"bike_id":"51f5dfca-c9f9-4579-834f-b800d251f0a5","system_id":"levelo_inurba_marseille","lat":43.290779,"lon":5.371482,"is_reserved":false,"is_disabled":false,"rental_uris":{"android":"levelo://app?vid=51f5dfca-c9f9-4579-834f-b800d251f0a5","ios":"levelo://app?vid=51f5dfca-c9f9-4579-834f-b800d251f0a5"},"vehicle_type_id":"4","last_reported":1702667130,"current_range_meters":16000,"station_id":"ce4bh5p2rcd13ifvqe4g","pricing_plan_id":"free"},{"bike_id":"61c9f2aa-4a02-463c-8302-07bdc8998495","system_id":"levelo_inurba_marseille","lat":43.290779,"lon":5.371482,"is_reserved":false,"is_disabled":false,"rental_uris":{"android":"levelo://app?vid=61c9f2aa-4a02-463c-8302-07bdc8998495","ios":"levelo://app?vid=61c9f2aa-4a02-463c-8302-07bdc8998495"},"vehicle_type_id":"4","last_reported":1702667130,"current_range_meters":22400,"station_id":"ce4bh5p2rcd13ifvqe4g","pricing_plan_id":"free"},{"bike_id":"5e382d77-771b-471e-bf39-9964e329ba14","system_id":"levelo_inurba_marseille","lat":43.290631,"lon":5.359244,"is_reserved":false,"is_disabled":false,"rental_uris":{"android":"levelo://app?vid=5e382d77-771b-471e-bf39-9964e329ba14","ios":"levelo://app?vid=5e382d77-771b-471e-bf39-9964e329ba14"},"vehicle_type_id":"4","last_reported":1702667130,"current_range_meters":6800,"station_id":"ce4bha92rcd13ifvqeg0","pricing_plan_id":"free"},{"bike_id":"1636edde-5a44-419d-806f-010f1d86a06f","system_id":"levelo_inurba_marseille","lat":43.292644,"lon":5.384257,"is_reserved":false,"is_disabled":false,"rental_uris":{"android":"levelo://app?vid=1636edde-5a44-419d-806f-010f1d86a06f","ios":"levelo://app?vid=1636edde-5a44-419d-806f-010f1d86a06f"},"vehicle_type_id":"4","last_reported":1702667130,"current_range_meters":25600,"station_id":"ce4bh692rcd13ifvqea0","pricing_plan_id":"free"},{"bike_id":"08f1976a-5524-4c5c-a6c3-b584ae6df963","system_id":"levelo_inurba_marseille","lat":43.294153,"lon":5.386305,"is_reserved":false,"is_disabled":false,"rental_uris":{"android":"levelo://app?vid=08f1976a-5524-4c5c-a6c3-b584ae6df963","ios":"levelo://app?vid=08f1976a-5524-4c5c-a6c3-b584ae6df963"},"vehicle_type_id":"4","last_reported":1702667130,"current_range_meters":6800,"station_id":"ce4bh2h2rcd13ifvqdh0","pricing_plan_id":"free"},{"bike_id":"04ba313f-ba9a-42e5-8d9d-f5ed74437f94","system_id":"levelo_inurba_marseille","lat":43.2942,"lon":5.38612,"is_reserved":false,"is_disabled":false,"rental_uris":{"android":"levelo://app?vid=04ba313f-ba9a-42e5-8d9d-f5ed74437f94","ios":"levelo://app?vid=04ba313f-ba9a-42e5-8d9d-f5ed74437f94"},"vehicle_type_id":"4","last_reported":1702667130,"current_range_meters":0,"station_id":"ce4bh2h2rcd13ifvqdh0","pricing_plan_id":"free"},{"bike_id":"9e4cf36f-5e9f-4bb0-bafc-ef6e8ffb3c64","system_id":"levelo_inurba_marseille","lat":43.29422,"lon":5.38616,"is_reserved":false,"is_disabled":false,"rental_uris":{"android":"levelo://app?vid=9e4cf36f-5e9f-4bb0-bafc-ef6e8ffb3c64","ios":"levelo://app?vid=9e4cf36f-5e9f-4bb0-bafc-ef6e8ffb3c64"},"vehicle_type_id":"4","last_reported":1702667130,"current_range_meters":5600,"station_id":"ce4bh2h2rcd13ifvqdh0","pricing_plan_id":"free"},{"bike_id":"d5c71e78-d85e-48a8-9273-9cbd5b975a0e","system_id":"levelo_inurba_marseille","lat":43.29421,"lon":5.38619,"is_reserved":false,"is_disabled":false,"rental_uris":{"android":"levelo://app?vid=d5c71e78-d85e-48a8-9273-9cbd5b975a0e","ios":"levelo://app?vid=d5c71e78-d85e-48a8-9273-9cbd5b975a0e"},"vehicle_type_id":"4","last_reported":1702667130,"current_range_meters":22400,"station_id":"ce4bh2h2rcd13ifvqdh0","pricing_plan_id":"free"},{"bike_id":"5b2efb45-c2a3-4e4e-9689-0f0c71f4b141","system_id":"levelo_inurba_marseille","lat":43.29421,"lon":5.38619,"is_reserved":false,"is_disabled":false,"rental_uris":{"android":"levelo://app?vid=5b2efb45-c2a3-4e4e-9689-0f0c71f4b141","ios":"levelo://app?vid=5b2efb45-c2a3-4e4e-9689-0f0c71f4b141"},"vehicle_type_id":"4","last_reported":1702667130,"current_range_meters":14400,"station_id":"ce4bh2h2rcd13ifvqdh0","pricing_plan_id":"free"},{"bike_id":"2b9cb219-0df7-4034-9dae-c508a9fd3153","system_id":"levelo_inurba_marseille","lat":43.29418,"lon":5.38622,"is_reserved":false,"is_disabled":false,"rental_uris":{"android":"levelo://app?vid=2b9cb219-0df7-4034-9dae-c508a9fd3153","ios":"levelo://app?vid=2b9cb219-0df7-4034-9dae-c508a9fd3153"},"vehicle_type_id":"4","last_reported":1702667130,"current_range_meters":4000,"station_id":"ce4bh2h2rcd13ifvqdh0","pricing_plan_id":"free"},{"bike_id":"d41ab038-72b8-4867-b894-1641579870d1","system_id":"levelo_inurba_marseille","lat":43.289184,"lon":5.366408,"is_reserved":false,"is_disabled":false,"rental_uris":{"android":"levelo://app?vid=d41ab038-72b8-4867-b894-1641579870d1","ios":"levelo://app?vid=d41ab038-72b8-4867-b894-1641579870d1"},"vehicle_type_id":"4","last_reported":1702667130,"current_range_meters":24800,"station_id":"ce4bhap2rcd13ifvqek0","pricing_plan_id":"free"},{"bike_id":"56189deb-736f-4768-b86d-de3b88376ae6","system_id":"levelo_inurba_marseille","lat":43.289184,"lon":5.366408,"is_reserved":false,"is_disabled":false,"rental_uris":{"android":"levelo://app?vid=56189deb-736f-4768-b86d-de3b88376ae6","ios":"levelo://app?vid=56189deb-736f-4768-b86d-de3b88376ae6"},"vehicle_type_id":"4","last_reported":1702667130,"current_range_meters":5600,"station_id":"ce4bhap2rcd13ifvqek0","pricing_plan_id":"free"},{"bike_id":"919f0c7b-2d45-4a21-9b66-261388899f18","system_id":"levelo_inurba_marseille","lat":43.289407,"lon":5.36398,"is_reserved":false,"is_disabled":false,"rental_uris":{"android":"levelo://app?vid=919f0c7b-2d45-4a21-9b66-261388899f18","ios":"levelo://app?vid=919f0c7b-2d45-4a21-9b66-261388899f18"},"vehicle_type_id":"4","last_reported":1702667130,"current_range_meters":26800,"station_id":"ce4bhc92rcd13ifvqetg","pricing_plan_id":"free"},{"bike_id":"350caa6f-99c6-4f15-86f2-b3df17d0e6a5","system_id":"levelo_inurba_marseille","lat":43.292644,"lon":5.384257,"is_reserved":false,"is_disabled":false,"rental_uris":{"android":"levelo://app?vid=350caa6f-99c6-4f15-86f2-b3df17d0e6a5","ios":"levelo://app?vid=350caa6f-99c6-4f15-86f2-b3df17d0e6a5"},"vehicle_type_id":"4","last_reported":1702667130,"current_range_meters":4400,"station_id":"ce4bh692rcd13ifvqea0","pricing_plan_id":"free"},{"bike_id":"1911edda-c07c-4798-a50d-7ff8acf88b55","system_id":"levelo_inurba_marseille","lat":43.292644,"lon":5.384257,"is_reserved":false,"is_disabled":false,"rental_uris":{"android":"levelo://app?vid=1911edda-c07c-4798-a50d-7ff8acf88b55","ios":"levelo://app?vid=1911edda-c07c-4798-a50d-7ff8acf88b55"},"vehicle_type_id":"4","last_reported":1702667130,"current_range_meters":2800,"station_id":"ce4bh692rcd13ifvqea0","pricing_plan_id":"free"},{"bike_id":"92bab57e-24ac-4363-ae0f-d449672c101a","system_id":"levelo_inurba_marseille","lat":43.29262,"lon":5.38438,"is_reserved":false,"is_disabled":false,"rental_uris":{"android":"levelo://app?vid=92bab57e-24ac-4363-ae0f-d449672c101a","ios":"levelo://app?vid=92bab57e-24ac-4363-ae0f-d449672c101a"},"vehicle_type_id":"4","last_reported":1702667130,"current_range_meters":800,"station_id":"ce4bh692rcd13ifvqea0","pricing_plan_id":"free"},{"bike_id":"8395c2af-866b-4e5c-9699-2f5b3e3585f4","system_id":"levelo_inurba_marseille","lat":43.33044,"lon":5.38913,"is_reserved":false,"is_disabled":false,"rental_uris":{"android":"levelo://app?vid=8395c2af-866b-4e5c-9699-2f5b3e3585f4","ios":"levelo://app?vid=8395c2af-866b-4e5c-9699-2f5b3e3585f4"},"vehicle_type_id":"4","last_reported":1702667130,"current_range_meters":13600,"station_id":"ce4bhr92rcd13ifvqhrg","pricing_plan_id":"free"},{"bike_id":"f2c160a8-4c8e-4357-a555-9fdd0cb55b4f","system_id":"levelo_inurba_marseille","lat":43.3304,"lon":5.38926,"is_reserved":false,"is_disabled":false,"rental_uris":{"android":"levelo://app?vid=f2c160a8-4c8e-4357-a555-9fdd0cb55b4f","ios":"levelo://app?vid=f2c160a8-4c8e-4357-a555-9fdd0cb55b4f"},"vehicle_type_id":"4","last_reported":1702667130,"current_range_meters":19600,"station_id":"ce4bhr92rcd13ifvqhrg","pricing_plan_id":"free"},{"bike_id":"619f56f6-7081-49f4-96da-10fe5331abfe","system_id":"levelo_inurba_marseille","lat":43.290094,"lon":5.381264,"is_reserved":false,"is_disabled":false,"rental_uris":{"android":"levelo://app?vid=619f56f6-7081-49f4-96da-10fe5331abfe","ios":"levelo://app?vid=619f56f6-7081-49f4-96da-10fe5331abfe"},"vehicle_type_id":"4","last_reported":1702667130,"current_range_meters":16800,"station_id":"ce4bh4p2rcd13ifvqe1g","pricing_plan_id":"free"},{"bike_id":"271cdce5-60a1-448a-aa87-a666b78ab556","system_id":"levelo_inurba_marseille","lat":43.288557,"lon":5.3586,"is_reserved":false,"is_disabled":false,"rental_uris":{"android":"levelo://app?vid=271cdce5-60a1-448a-aa87-a666b78ab556","ios":"levelo://app?vid=271cdce5-60a1-448a-aa87-a666b78ab556"},"vehicle_type_id":"4","last_reported":1702667130,"current_range_meters":0,"station_id":"ce4bhb12rcd13ifvqem0","pricing_plan_id":"free"},{"bike_id":"9efaa7d8-bc7c-4b83-a0eb-5d48b0462e4d","system_id":"levelo_inurba_marseille","lat":43.28856,"lon":5.35842,"is_reserved":false,"is_disabled":false,"rental_uris":{"android":"levelo://app?vid=9efaa7d8-bc7c-4b83-a0eb-5d48b0462e4d","ios":"levelo://app?vid=9efaa7d8-bc7c-4b83-a0eb-5d48b0462e4d"},"vehicle_type_id":"4","last_reported":1702667130,"current_range_meters":2400,"station_id":"ce4bhb12rcd13ifvqem0","pricing_plan_id":"free"},{"bike_id":"104f6c73-6eca-4f0a-a7d1-31c16b75ead2","system_id":"levelo_inurba_marseille","lat":43.288521,"lon":5.358492,"is_reserved":false,"is_disabled":false,"rental_uris":{"android":"levelo://app?vid=104f6c73-6eca-4f0a-a7d1-31c16b75ead2","ios":"levelo://app?vid=104f6c73-6eca-4f0a-a7d1-31c16b75ead2"},"vehicle_type_id":"4","last_reported":1702667130,"current_range_meters":6000,"station_id":"ce4bhb12rcd13ifvqem0","pricing_plan_id":"free"},{"bike_id":"93ddb065-a271-41e8-9d16-a49af23b2332","system_id":"levelo_inurba_marseille","lat":43.31281,"lon":5.40154,"is_reserved":false,"is_disabled":false,"rental_uris":{"android":"levelo://app?vid=93ddb065-a271-41e8-9d16-a49af23b2332","ios":"levelo://app?vid=93ddb065-a271-41e8-9d16-a49af23b2332"},"vehicle_type_id":"4","last_reported":1702667130,"current_range_meters":10400,"station_id":"ce4bh092rcd13ifvqd30","pricing_plan_id":"free"},{"bike_id":"f0cd831c-cfb9-44c7-9487-103b6df223ca","system_id":"levelo_inurba_marseille","lat":43.337441,"lon":5.374601,"is_reserved":false,"is_disabled":false,"rental_uris":{"android":"levelo://app?vid=f0cd831c-cfb9-44c7-9487-103b6df223ca","ios":"levelo://app?vid=f0cd831c-cfb9-44c7-9487-103b6df223ca"},"vehicle_type_id":"4","last_reported":1702667130,"current_range_meters":29600,"station_id":"","pricing_plan_id":"free"},{"bike_id":"ac2d6e2f-1fa6-4095-a0ce-33759b29b5ce","system_id":"levelo_inurba_marseille","lat":43.309371,"lon":5.401449,"is_reserved":false,"is_disabled":false,"rental_uris":{"android":"levelo://app?vid=ac2d6e2f-1fa6-4095-a0ce-33759b29b5ce","ios":"levelo://app?vid=ac2d6e2f-1fa6-4095-a0ce-33759b29b5ce"},"vehicle_type_id":"4","last_reported":1702667130,"current_range_meters":13600,"station_id":"ce4bgvp2rcd13ifvqct0","pricing_plan_id":"free"},{"bike_id":"cabb5dfe-bce6-47a5-bf6a-168ffa93239b","system_id":"levelo_inurba_marseille","lat":43.30925,"lon":5.40142,"is_reserved":false,"is_disabled":false,"rental_uris":{"android":"levelo://app?vid=cabb5dfe-bce6-47a5-bf6a-168ffa93239b","ios":"levelo://app?vid=cabb5dfe-bce6-47a5-bf6a-168ffa93239b"},"vehicle_type_id":"4","last_reported":1702667130,"current_range_meters":6400,"station_id":"ce4bgvp2rcd13ifvqct0","pricing_plan_id":"free"},{"bike_id":"adfcfe3d-f0bb-41e3-92b3-fae985cb2ef0","system_id":"levelo_inurba_marseille","lat":43.33754,"lon":5.37433,"is_reserved":false,"is_disabled":false,"rental_uris":{"android":"levelo://app?vid=adfcfe3d-f0bb-41e3-92b3-fae985cb2ef0","ios":"levelo://app?vid=adfcfe3d-f0bb-41e3-92b3-fae985cb2ef0"},"vehicle_type_id":"4","last_reported":1702667130,"current_range_meters":29600,"station_id":"","pricing_plan_id":"free"},{"bike_id":"a15a6f31-d26a-498f-aab0-fad2629bd007","system_id":"levelo_inurba_marseille","lat":43.337535,"lon":5.37446,"is_reserved":false,"is_disabled":false,"rental_uris":{"android":"levelo://app?vid=a15a6f31-d26a-498f-aab0-fad2629bd007","ios":"levelo://app?vid=a15a6f31-d26a-498f-aab0-fad2629bd007"},"vehicle_type_id":"4","last_reported":1702667130,"current_range_meters":1600,"station_id":"","pricing_plan_id":"free"},{"bike_id":"9e5231e6-9497-41e6-bfd0-a7d79b8fad43","system_id":"levelo_inurba_marseille","lat":43.33755,"lon":5.37442,"is_reserved":false,"is_disabled":false,"rental_uris":{"android":"levelo://app?vid=9e5231e6-9497-41e6-bfd0-a7d79b8fad43","ios":"levelo://app?vid=9e5231e6-9497-41e6-bfd0-a7d79b8fad43"},"vehicle_type_id":"4","last_reported":1702667130,"current_range_meters":28400,"station_id":"","pricing_plan_id":"free"},{"bike_id":"930bba3a-4350-44cf-bb9b-310a6cbdb5ef","system_id":"levelo_inurba_marseille","lat":43.33762,"lon":5.37441,"is_reserved":false,"is_disabled":false,"rental_uris":{"android":"levelo://app?vid=930bba3a-4350-44cf-bb9b-310a6cbdb5ef","ios":"levelo://app?vid=930bba3a-4350-44cf-bb9b-310a6cbdb5ef"},"vehicle_type_id":"4","last_reported":1702667130,"current_range_meters":27600,"station_id":"","pricing_plan_id":"free"},{"bike_id":"1b1bd80c-92ec-4f8e-8e80-a125315f4b22","system_id":"levelo_inurba_marseille","lat":43.337657,"lon":5.374425,"is_reserved":false,"is_disabled":false,"rental_uris":{"android":"levelo://app?vid=1b1bd80c-92ec-4f8e-8e80-a125315f4b22","ios":"levelo://app?vid=1b1bd80c-92ec-4f8e-8e80-a125315f4b22"},"vehicle_type_id":"4","last_reported":1702667130,"current_range_meters":10000,"station_id":"","pricing_plan_id":"free"},{"bike_id":"811eac48-7c36-4ce9-9a27-879aa1e1514e","system_id":"levelo_inurba_marseille","lat":43.337664,"lon":5.374401,"is_reserved":false,"is_disabled":false,"rental_uris":{"android":"levelo://app?vid=811eac48-7c36-4ce9-9a27-879aa1e1514e","ios":"levelo://app?vid=811eac48-7c36-4ce9-9a27-879aa1e1514e"},"vehicle_type_id":"4","last_reported":1702667130,"current_range_meters":29600,"station_id":"","pricing_plan_id":"free"},{"bike_id":"990df8a7-4201-46ee-b4d8-44ba6bb9a2f4","system_id":"levelo_inurba_marseille","lat":43.306412,"lon":5.401035,"is_reserved":false,"is_disabled":false,"rental_uris":{"android":"levelo://app?vid=990df8a7-4201-46ee-b4d8-44ba6bb9a2f4","ios":"levelo://app?vid=990df8a7-4201-46ee-b4d8-44ba6bb9a2f4"},"vehicle_type_id":"4","last_reported":1702667130,"current_range_meters":21600,"station_id":"ce4bh112rcd13ifvqda0","pricing_plan_id":"free"},{"bike_id":"1d7cc9e5-177b-48ce-9cdd-cb6120014765","system_id":"levelo_inurba_marseille","lat":43.29827,"lon":5.395875,"is_reserved":false,"is_disabled":false,"rental_uris":{"android":"levelo://app?vid=1d7cc9e5-177b-48ce-9cdd-cb6120014765","ios":"levelo://app?vid=1d7cc9e5-177b-48ce-9cdd-cb6120014765"},"vehicle_type_id":"4","last_reported":1702667130,"current_range_meters":7600,"station_id":"ce4bh012rcd13ifvqd00","pricing_plan_id":"free"},{"bike_id":"4293d7aa-4955-46dc-888b-659755857e1e","system_id":"levelo_inurba_marseille","lat":43.301117,"lon":5.398795,"is_reserved":false,"is_disabled":false,"rental_uris":{"android":"levelo://app?vid=4293d7aa-4955-46dc-888b-659755857e1e","ios":"levelo://app?vid=4293d7aa-4955-46dc-888b-659755857e1e"},"vehicle_type_id":"4","last_reported":1702667130,"current_range_meters":13200,"station_id":"ce4bh0h2rcd13ifvqd40","pricing_plan_id":"free"},{"bike_id":"539045d8-6bbf-4910-a4c8-e2aa697fa56b","system_id":"levelo_inurba_marseille","lat":43.286961,"lon":5.373785,"is_reserved":false,"is_disabled":false,"rental_uris":{"android":"levelo://app?vid=539045d8-6bbf-4910-a4c8-e2aa697fa56b","ios":"levelo://app?vid=539045d8-6bbf-4910-a4c8-e2aa697fa56b"},"vehicle_type_id":"4","last_reported":1702667130,"current_range_meters":7200,"station_id":"ce4bh3p2rcd13ifvqdq0","pricing_plan_id":"free"},{"bike_id":"c3a68aa2-bc36-4fcb-8c4d-d5df808b4b09","system_id":"levelo_inurba_marseille","lat":43.301117,"lon":5.398795,"is_reserved":false,"is_disabled":false,"rental_uris":{"android":"levelo://app?vid=c3a68aa2-bc36-4fcb-8c4d-d5df808b4b09","ios":"levelo://app?vid=c3a68aa2-bc36-4fcb-8c4d-d5df808b4b09"},"vehicle_type_id":"4","last_reported":1702667130,"current_range_meters":0,"station_id":"ce4bh0h2rcd13ifvqd40","pricing_plan_id":"free"},{"bike_id":"c77eb0a9-a4dd-47c7-97e3-6dad77337983","system_id":"levelo_inurba_marseille","lat":43.28727,"lon":5.36078,"is_reserved":false,"is_disabled":false,"rental_uris":{"android":"levelo://app?vid=c77eb0a9-a4dd-47c7-97e3-6dad77337983","ios":"levelo://app?vid=c77eb0a9-a4dd-47c7-97e3-6dad77337983"},"vehicle_type_id":"4","last_reported":1702667130,"current_range_meters":14000,"station_id":"cki0cbj6b192h4jlfktg","pricing_plan_id":"free"},{"bike_id":"312cbc47-7543-443d-8c72-25ef45149854","system_id":"levelo_inurba_marseille","lat":43.28727,"lon":5.36078,"is_reserved":false,"is_disabled":false,"rental_uris":{"android":"levelo://app?vid=312cbc47-7543-443d-8c72-25ef45149854","ios":"levelo://app?vid=312cbc47-7543-443d-8c72-25ef45149854"},"vehicle_type_id":"4","last_reported":1702667130,"current_range_meters":15200,"station_id":"cki0cbj6b192h4jlfktg","pricing_plan_id":"free"},{"bike_id":"4189c09d-d993-419c-b27b-d4e06aeb42f7","system_id":"levelo_inurba_marseille","lat":43.286961,"lon":5.373785,"is_reserved":false,"is_disabled":false,"rental_uris":{"android":"levelo://app?vid=4189c09d-d993-419c-b27b-d4e06aeb42f7","ios":"levelo://app?vid=4189c09d-d993-419c-b27b-d4e06aeb42f7"},"vehicle_type_id":"4","last_reported":1702667130,"current_range_meters":23200,"station_id":"ce4bh3p2rcd13ifvqdq0","pricing_plan_id":"free"},{"bike_id":"268ca094-0178-4c3c-adb6-07d4570313c2","system_id":"levelo_inurba_marseille","lat":43.286591,"lon":5.363346,"is_reserved":false,"is_disabled":false,"rental_uris":{"android":"levelo://app?vid=268ca094-0178-4c3c-adb6-07d4570313c2","ios":"levelo://app?vid=268ca094-0178-4c3c-adb6-07d4570313c2"},"vehicle_type_id":"4","last_reported":1702667130,"current_range_meters":13600,"station_id":"ce4bhah2rcd13ifvqej0","pricing_plan_id":"free"},{"bike_id":"98b9973e-c092-4ba8-81aa-f660c44a7cd3","system_id":"levelo_inurba_marseille","lat":43.295196,"lon":5.39397,"is_reserved":false,"is_disabled":false,"rental_uris":{"android":"levelo://app?vid=98b9973e-c092-4ba8-81aa-f660c44a7cd3","ios":"levelo://app?vid=98b9973e-c092-4ba8-81aa-f660c44a7cd3"},"vehicle_type_id":"4","last_reported":1702667130,"current_range_meters":3200,"station_id":"ce4bh292rcd13ifvqdf0","pricing_plan_id":"free"},{"bike_id":"d1c621e4-534a-492c-80c7-80f7a03d6f06","system_id":"levelo_inurba_marseille","lat":43.290336,"lon":5.386425,"is_reserved":false,"is_disabled":false,"rental_uris":{"android":"levelo://app?vid=d1c621e4-534a-492c-80c7-80f7a03d6f06","ios":"levelo://app?vid=d1c621e4-534a-492c-80c7-80f7a03d6f06"},"vehicle_type_id":"4","last_reported":1702667130,"current_range_meters":0,"station_id":"ce4bh4p2rcd13ifvqe0g","pricing_plan_id":"free"},{"bike_id":"1b604e8e-1e44-44b6-acab-672a198b82a8","system_id":"levelo_inurba_marseille","lat":43.29506,"lon":5.39408,"is_reserved":false,"is_disabled":false,"rental_uris":{"android":"levelo://app?vid=1b604e8e-1e44-44b6-acab-672a198b82a8","ios":"levelo://app?vid=1b604e8e-1e44-44b6-acab-672a198b82a8"},"vehicle_type_id":"4","last_reported":1702667130,"current_range_meters":0,"station_id":"ce4bh292rcd13ifvqdf0","pricing_plan_id":"free"},{"bike_id":"417009f4-8276-4e54-a994-ba7be5b65cf4","system_id":"levelo_inurba_marseille","lat":43.290345,"lon":5.38646,"is_reserved":false,"is_disabled":false,"rental_uris":{"android":"levelo://app?vid=417009f4-8276-4e54-a994-ba7be5b65cf4","ios":"levelo://app?vid=417009f4-8276-4e54-a994-ba7be5b65cf4"},"vehicle_type_id":"4","last_reported":1702667130,"current_range_meters":14000,"station_id":"ce4bh4p2rcd13ifvqe0g","pricing_plan_id":"free"},{"bike_id":"c345df94-9363-4f9b-bfc6-e7007022b461","system_id":"levelo_inurba_marseille","lat":43.291994,"lon":5.392907,"is_reserved":false,"is_disabled":false,"rental_uris":{"android":"levelo://app?vid=c345df94-9363-4f9b-bfc6-e7007022b461","ios":"levelo://app?vid=c345df94-9363-4f9b-bfc6-e7007022b461"},"vehicle_type_id":"4","last_reported":1702667130,"current_range_meters":6400,"station_id":"ce4bh192rcd13ifvqdd0","pricing_plan_id":"free"},{"bike_id":"dc775f27-16f9-4c86-a142-653b39bc4aa6","system_id":"levelo_inurba_marseille","lat":43.284538,"lon":5.358657,"is_reserved":false,"is_disabled":false,"rental_uris":{"android":"levelo://app?vid=dc775f27-16f9-4c86-a142-653b39bc4aa6","ios":"levelo://app?vid=dc775f27-16f9-4c86-a142-653b39bc4aa6"},"vehicle_type_id":"4","last_reported":1702667130,"current_range_meters":18800,"station_id":"ce4bhah2rcd13ifvqei0","pricing_plan_id":"free"},{"bike_id":"c04b8017-ff70-442f-8c10-fa3fc18a0d39","system_id":"levelo_inurba_marseille","lat":43.284534,"lon":5.358662,"is_reserved":false,"is_disabled":false,"rental_uris":{"android":"levelo://app?vid=c04b8017-ff70-442f-8c10-fa3fc18a0d39","ios":"levelo://app?vid=c04b8017-ff70-442f-8c10-fa3fc18a0d39"},"vehicle_type_id":"4","last_reported":1702667130,"current_range_meters":0,"station_id":"ce4bhah2rcd13ifvqei0","pricing_plan_id":"free"},{"bike_id":"58081b01-b4a0-42d0-b0f3-cffea8a952d4","system_id":"levelo_inurba_marseille","lat":43.28616,"lon":5.35108,"is_reserved":false,"is_disabled":false,"rental_uris":{"android":"levelo://app?vid=58081b01-b4a0-42d0-b0f3-cffea8a952d4","ios":"levelo://app?vid=58081b01-b4a0-42d0-b0f3-cffea8a952d4"},"vehicle_type_id":"4","last_reported":1702667130,"current_range_meters":2000,"station_id":"ce4bhch2rcd13ifvqeug","pricing_plan_id":"free"},{"bike_id":"f6a8b12b-f6d4-46ba-939d-74c18fccd09b","system_id":"levelo_inurba_marseille","lat":43.286116,"lon":5.351058,"is_reserved":false,"is_disabled":false,"rental_uris":{"android":"levelo://app?vid=f6a8b12b-f6d4-46ba-939d-74c18fccd09b","ios":"levelo://app?vid=f6a8b12b-f6d4-46ba-939d-74c18fccd09b"},"vehicle_type_id":"4","last_reported":1702667130,"current_range_meters":19600,"station_id":"","pricing_plan_id":"free"},{"bike_id":"9896ffe3-cff3-4dbe-9a41-cbae86194005","system_id":"levelo_inurba_marseille","lat":43.283998,"lon":5.375062,"is_reserved":false,"is_disabled":false,"rental_uris":{"android":"levelo://app?vid=9896ffe3-cff3-4dbe-9a41-cbae86194005","ios":"levelo://app?vid=9896ffe3-cff3-4dbe-9a41-cbae86194005"},"vehicle_type_id":"4","last_reported":1702667130,"current_range_meters":8800,"station_id":"ce4bh412rcd13ifvqds0","pricing_plan_id":"free"},{"bike_id":"975ce48b-5ee6-4141-baec-20904ecd16ae","system_id":"levelo_inurba_marseille","lat":43.283998,"lon":5.375062,"is_reserved":false,"is_disabled":false,"rental_uris":{"android":"levelo://app?vid=975ce48b-5ee6-4141-baec-20904ecd16ae","ios":"levelo://app?vid=975ce48b-5ee6-4141-baec-20904ecd16ae"},"vehicle_type_id":"4","last_reported":1702667130,"current_range_meters":0,"station_id":"ce4bh412rcd13ifvqds0","pricing_plan_id":"free"},{"bike_id":"7dad4481-4867-4557-8614-5bf9a8d365e1","system_id":"levelo_inurba_marseille","lat":43.33716,"lon":5.3918,"is_reserved":false,"is_disabled":false,"rental_uris":{"android":"levelo://app?vid=7dad4481-4867-4557-8614-5bf9a8d365e1","ios":"levelo://app?vid=7dad4481-4867-4557-8614-5bf9a8d365e1"},"vehicle_type_id":"4","last_reported":1702667130,"current_range_meters":20000,"station_id":"ce4bhr92rcd13ifvqhsg","pricing_plan_id":"free"},{"bike_id":"16373837-b161-407f-b0fa-3d0f27559010","system_id":"levelo_inurba_marseille","lat":43.323464,"lon":5.406297,"is_reserved":false,"is_disabled":false,"rental_uris":{"android":"levelo://app?vid=16373837-b161-407f-b0fa-3d0f27559010","ios":"levelo://app?vid=16373837-b161-407f-b0fa-3d0f27559010"},"vehicle_type_id":"4","last_reported":1702667130,"current_range_meters":30000,"station_id":"ce4bhq92rcd13ifvqhjg","pricing_plan_id":"free"},{"bike_id":"d99365a6-d185-42b4-b588-a4a642eea3d5","system_id":"levelo_inurba_marseille","lat":43.288501,"lon":5.393087,"is_reserved":false,"is_disabled":false,"rental_uris":{"android":"levelo://app?vid=d99365a6-d185-42b4-b588-a4a642eea3d5","ios":"levelo://app?vid=d99365a6-d185-42b4-b588-a4a642eea3d5"},"vehicle_type_id":"4","last_reported":1702667130,"current_range_meters":28000,"station_id":"ce4bh2p2rcd13ifvqdi0","pricing_plan_id":"free"},{"bike_id":"10eb7ab8-9f08-415a-b860-105ad330a4ef","system_id":"levelo_inurba_marseille","lat":43.282754,"lon":5.350519,"is_reserved":false,"is_disabled":false,"rental_uris":{"android":"levelo://app?vid=10eb7ab8-9f08-415a-b860-105ad330a4ef","ios":"levelo://app?vid=10eb7ab8-9f08-415a-b860-105ad330a4ef"},"vehicle_type_id":"4","last_reported":1702667130,"current_range_meters":21200,"station_id":"ce4bhbp2rcd13ifvqerg","pricing_plan_id":"free"},{"bike_id":"641711f6-d8eb-46b1-b838-05d1065ef742","system_id":"levelo_inurba_marseille","lat":43.282754,"lon":5.350519,"is_reserved":false,"is_disabled":false,"rental_uris":{"android":"levelo://app?vid=641711f6-d8eb-46b1-b838-05d1065ef742","ios":"levelo://app?vid=641711f6-d8eb-46b1-b838-05d1065ef742"},"vehicle_type_id":"4","last_reported":1702667130,"current_range_meters":0,"station_id":"ce4bhbp2rcd13ifvqerg","pricing_plan_id":"free"},{"bike_id":"9a6fb82a-aa08-4b3c-aa30-d3428c8a9b00","system_id":"levelo_inurba_marseille","lat":43.282744,"lon":5.350533,"is_reserved":false,"is_disabled":false,"rental_uris":{"android":"levelo://app?vid=9a6fb82a-aa08-4b3c-aa30-d3428c8a9b00","ios":"levelo://app?vid=9a6fb82a-aa08-4b3c-aa30-d3428c8a9b00"},"vehicle_type_id":"4","last_reported":1702667130,"current_range_meters":2000,"station_id":"ce4bhbp2rcd13ifvqerg","pricing_plan_id":"free"},{"bike_id":"51c67930-0f81-4e81-8ba2-97e5f5bf98b2","system_id":"levelo_inurba_marseille","lat":43.280382,"lon":5.369291,"is_reserved":false,"is_disabled":false,"rental_uris":{"android":"levelo://app?vid=51c67930-0f81-4e81-8ba2-97e5f5bf98b2","ios":"levelo://app?vid=51c67930-0f81-4e81-8ba2-97e5f5bf98b2"},"vehicle_type_id":"4","last_reported":1702667130,"current_range_meters":10400,"station_id":"ce4bha12rcd13ifvqef0","pricing_plan_id":"free"},{"bike_id":"b447efc9-65f7-4094-b5d3-54972e9aab64","system_id":"levelo_inurba_marseille","lat":43.282744,"lon":5.350533,"is_reserved":false,"is_disabled":false,"rental_uris":{"android":"levelo://app?vid=b447efc9-65f7-4094-b5d3-54972e9aab64","ios":"levelo://app?vid=b447efc9-65f7-4094-b5d3-54972e9aab64"},"vehicle_type_id":"4","last_reported":1702667130,"current_range_meters":18400,"station_id":"ce4bhbp2rcd13ifvqerg","pricing_plan_id":"free"},{"bike_id":"e04d024f-d664-423c-b963-3e21ecbf2e8d","system_id":"levelo_inurba_marseille","lat":43.280382,"lon":5.369291,"is_reserved":false,"is_disabled":false,"rental_uris":{"android":"levelo://app?vid=e04d024f-d664-423c-b963-3e21ecbf2e8d","ios":"levelo://app?vid=e04d024f-d664-423c-b963-3e21ecbf2e8d"},"vehicle_type_id":"4","last_reported":1702667130,"current_range_meters":26000,"station_id":"ce4bha12rcd13ifvqef0","pricing_plan_id":"free"},{"bike_id":"8fb47eb9-d1de-47c3-9a4f-063d68d00739","system_id":"levelo_inurba_marseille","lat":43.280382,"lon":5.369291,"is_reserved":false,"is_disabled":false,"rental_uris":{"android":"levelo://app?vid=8fb47eb9-d1de-47c3-9a4f-063d68d00739","ios":"levelo://app?vid=8fb47eb9-d1de-47c3-9a4f-063d68d00739"},"vehicle_type_id":"4","last_reported":1702667130,"current_range_meters":30400,"station_id":"ce4bha12rcd13ifvqef0","pricing_plan_id":"free"},{"bike_id":"62c32a41-5c85-445e-a62d-27f8a6e615c9","system_id":"levelo_inurba_marseille","lat":43.280382,"lon":5.369291,"is_reserved":false,"is_disabled":false,"rental_uris":{"android":"levelo://app?vid=62c32a41-5c85-445e-a62d-27f8a6e615c9","ios":"levelo://app?vid=62c32a41-5c85-445e-a62d-27f8a6e615c9"},"vehicle_type_id":"4","last_reported":1702667130,"current_range_meters":26800,"station_id":"ce4bha12rcd13ifvqef0","pricing_plan_id":"free"},{"bike_id":"64f166a2-3938-4db9-b4af-890856044047","system_id":"levelo_inurba_marseille","lat":43.280382,"lon":5.369291,"is_reserved":false,"is_disabled":false,"rental_uris":{"android":"levelo://app?vid=64f166a2-3938-4db9-b4af-890856044047","ios":"levelo://app?vid=64f166a2-3938-4db9-b4af-890856044047"},"vehicle_type_id":"4","last_reported":1702667130,"current_range_meters":30400,"station_id":"ce4bha12rcd13ifvqef0","pricing_plan_id":"free"},{"bike_id":"0f06dbc8-292a-49cf-8aa2-d3c5634f6343","system_id":"levelo_inurba_marseille","lat":43.290412,"lon":5.399633,"is_reserved":false,"is_disabled":false,"rental_uris":{"android":"levelo://app?vid=0f06dbc8-292a-49cf-8aa2-d3c5634f6343","ios":"levelo://app?vid=0f06dbc8-292a-49cf-8aa2-d3c5634f6343"},"vehicle_type_id":"4","last_reported":1702667130,"current_range_meters":18000,"station_id":"ce4bh392rcd13ifvqdm0","pricing_plan_id":"free"},{"bike_id":"1c54e630-24bc-4fdf-b13b-e7f8056e4552","system_id":"levelo_inurba_marseille","lat":43.29041,"lon":5.399634,"is_reserved":false,"is_disabled":false,"rental_uris":{"android":"levelo://app?vid=1c54e630-24bc-4fdf-b13b-e7f8056e4552","ios":"levelo://app?vid=1c54e630-24bc-4fdf-b13b-e7f8056e4552"},"vehicle_type_id":"4","last_reported":1702667130,"current_range_meters":0,"station_id":"ce4bh392rcd13ifvqdm0","pricing_plan_id":"free"},{"bike_id":"8e08c37b-6547-499d-ac06-8ab8d44be4e8","system_id":"levelo_inurba_marseille","lat":43.284462,"lon":5.392121,"is_reserved":false,"is_disabled":false,"rental_uris":{"android":"levelo://app?vid=8e08c37b-6547-499d-ac06-8ab8d44be4e8","ios":"levelo://app?vid=8e08c37b-6547-499d-ac06-8ab8d44be4e8"},"vehicle_type_id":"4","last_reported":1702667130,"current_range_meters":17600,"station_id":"ce4bhoh2rcd13ifvqh5g","pricing_plan_id":"free"},{"bike_id":"c8c1d467-4256-474f-b891-41fb826818d6","system_id":"levelo_inurba_marseille","lat":43.28573,"lon":5.394992,"is_reserved":false,"is_disabled":false,"rental_uris":{"android":"levelo://app?vid=c8c1d467-4256-474f-b891-41fb826818d6","ios":"levelo://app?vid=c8c1d467-4256-474f-b891-41fb826818d6"},"vehicle_type_id":"4","last_reported":1702667130,"current_range_meters":30000,"station_id":"ce4bh292rcd13ifvqdg0","pricing_plan_id":"free"},{"bike_id":"e79e3b44-98ba-4ac6-835c-4d82dbc69092","system_id":"levelo_inurba_marseille","lat":43.326605,"lon":5.409903,"is_reserved":false,"is_disabled":false,"rental_uris":{"android":"levelo://app?vid=e79e3b44-98ba-4ac6-835c-4d82dbc69092","ios":"levelo://app?vid=e79e3b44-98ba-4ac6-835c-4d82dbc69092"},"vehicle_type_id":"4","last_reported":1702667130,"current_range_meters":26800,"station_id":"ce4bhpp2rcd13ifvqhgg","pricing_plan_id":"free"},{"bike_id":"14aae101-81e9-433e-bca6-3531f5c67abb","system_id":"levelo_inurba_marseille","lat":43.304188,"lon":5.412904,"is_reserved":false,"is_disabled":false,"rental_uris":{"android":"levelo://app?vid=14aae101-81e9-433e-bca6-3531f5c67abb","ios":"levelo://app?vid=14aae101-81e9-433e-bca6-3531f5c67abb"},"vehicle_type_id":"4","last_reported":1702667130,"current_range_meters":24000,"station_id":"ce4bhop2rcd13ifvqh8g","pricing_plan_id":"free"},{"bike_id":"ec7b5174-ea3e-4feb-8119-c31613646722","system_id":"levelo_inurba_marseille","lat":43.287154,"lon":5.399979,"is_reserved":false,"is_disabled":false,"rental_uris":{"android":"levelo://app?vid=ec7b5174-ea3e-4feb-8119-c31613646722","ios":"levelo://app?vid=ec7b5174-ea3e-4feb-8119-c31613646722"},"vehicle_type_id":"4","last_reported":1702667130,"current_range_meters":27200,"station_id":"ce4bho92rcd13ifvqh3g","pricing_plan_id":"free"},{"bike_id":"a2d52cca-cc4b-4f39-8077-567545d86154","system_id":"levelo_inurba_marseille","lat":43.287154,"lon":5.399979,"is_reserved":false,"is_disabled":false,"rental_uris":{"android":"levelo://app?vid=a2d52cca-cc4b-4f39-8077-567545d86154","ios":"levelo://app?vid=a2d52cca-cc4b-4f39-8077-567545d86154"},"vehicle_type_id":"4","last_reported":1702667130,"current_range_meters":20400,"station_id":"ce4bho92rcd13ifvqh3g","pricing_plan_id":"free"},{"bike_id":"4a773785-b88a-494f-85ec-4a31826fc3ab","system_id":"levelo_inurba_marseille","lat":43.279742,"lon":5.38744,"is_reserved":false,"is_disabled":false,"rental_uris":{"android":"levelo://app?vid=4a773785-b88a-494f-85ec-4a31826fc3ab","ios":"levelo://app?vid=4a773785-b88a-494f-85ec-4a31826fc3ab"},"vehicle_type_id":"4","last_reported":1702667130,"current_range_meters":6000,"station_id":"ce4bhg12rcd13ifvqf80","pricing_plan_id":"free"},{"bike_id":"bf9b9c00-a86c-4165-8ab6-3486b9189841","system_id":"levelo_inurba_marseille","lat":43.292571,"lon":5.409107,"is_reserved":false,"is_disabled":false,"rental_uris":{"android":"levelo://app?vid=bf9b9c00-a86c-4165-8ab6-3486b9189841","ios":"levelo://app?vid=bf9b9c00-a86c-4165-8ab6-3486b9189841"},"vehicle_type_id":"4","last_reported":1702667130,"current_range_meters":10800,"station_id":"ce4bh192rcd13ifvqdc0","pricing_plan_id":"free"},{"bike_id":"d5fbadad-ef48-4446-b18b-82826e68e394","system_id":"levelo_inurba_marseille","lat":43.292569,"lon":5.409107,"is_reserved":false,"is_disabled":false,"rental_uris":{"android":"levelo://app?vid=d5fbadad-ef48-4446-b18b-82826e68e394","ios":"levelo://app?vid=d5fbadad-ef48-4446-b18b-82826e68e394"},"vehicle_type_id":"4","last_reported":1702667130,"current_range_meters":3600,"station_id":"ce4bh192rcd13ifvqdc0","pricing_plan_id":"free"},{"bike_id":"2fcee072-6c68-432e-a56d-4cb6589de9b8","system_id":"levelo_inurba_marseille","lat":43.292569,"lon":5.409107,"is_reserved":false,"is_disabled":false,"rental_uris":{"android":"levelo://app?vid=2fcee072-6c68-432e-a56d-4cb6589de9b8","ios":"levelo://app?vid=2fcee072-6c68-432e-a56d-4cb6589de9b8"},"vehicle_type_id":"4","last_reported":1702667130,"current_range_meters":10800,"station_id":"ce4bh192rcd13ifvqdc0","pricing_plan_id":"free"},{"bike_id":"905b4bf8-3a18-4848-85b7-3d0a7187a758","system_id":"levelo_inurba_marseille","lat":43.292569,"lon":5.409107,"is_reserved":false,"is_disabled":false,"rental_uris":{"android":"levelo://app?vid=905b4bf8-3a18-4848-85b7-3d0a7187a758","ios":"levelo://app?vid=905b4bf8-3a18-4848-85b7-3d0a7187a758"},"vehicle_type_id":"4","last_reported":1702667130,"current_range_meters":9600,"station_id":"ce4bh192rcd13ifvqdc0","pricing_plan_id":"free"},{"bike_id":"adc39c46-2333-4fdb-9dc0-bff8b4e05824","system_id":"levelo_inurba_marseille","lat":43.292571,"lon":5.409107,"is_reserved":false,"is_disabled":false,"rental_uris":{"android":"levelo://app?vid=adc39c46-2333-4fdb-9dc0-bff8b4e05824","ios":"levelo://app?vid=adc39c46-2333-4fdb-9dc0-bff8b4e05824"},"vehicle_type_id":"4","last_reported":1702667130,"current_range_meters":31200,"station_id":"ce4bh192rcd13ifvqdc0","pricing_plan_id":"free"},{"bike_id":"10e0448a-13dc-45dd-b48e-7afb39a439f0","system_id":"levelo_inurba_marseille","lat":43.292569,"lon":5.409107,"is_reserved":false,"is_disabled":false,"rental_uris":{"android":"levelo://app?vid=10e0448a-13dc-45dd-b48e-7afb39a439f0","ios":"levelo://app?vid=10e0448a-13dc-45dd-b48e-7afb39a439f0"},"vehicle_type_id":"4","last_reported":1702667130,"current_range_meters":20000,"station_id":"ce4bh192rcd13ifvqdc0","pricing_plan_id":"free"},{"bike_id":"146727e3-1afa-4143-9d2e-46d420c240be","system_id":"levelo_inurba_marseille","lat":43.29257,"lon":5.40907,"is_reserved":false,"is_disabled":false,"rental_uris":{"android":"levelo://app?vid=146727e3-1afa-4143-9d2e-46d420c240be","ios":"levelo://app?vid=146727e3-1afa-4143-9d2e-46d420c240be"},"vehicle_type_id":"4","last_reported":1702667130,"current_range_meters":2800,"station_id":"ce4bh192rcd13ifvqdc0","pricing_plan_id":"free"},{"bike_id":"b206e64b-418d-400d-b7ad-a8ab7b4a7b77","system_id":"levelo_inurba_marseille","lat":43.292569,"lon":5.409107,"is_reserved":false,"is_disabled":false,"rental_uris":{"android":"levelo://app?vid=b206e64b-418d-400d-b7ad-a8ab7b4a7b77","ios":"levelo://app?vid=b206e64b-418d-400d-b7ad-a8ab7b4a7b77"},"vehicle_type_id":"4","last_reported":1702667130,"current_range_meters":23600,"station_id":"ce4bh192rcd13ifvqdc0","pricing_plan_id":"free"},{"bike_id":"c40aebd4-c148-4d4d-9243-dcfaa5c4b14c","system_id":"levelo_inurba_marseille","lat":43.27615,"lon":5.36115,"is_reserved":false,"is_disabled":false,"rental_uris":{"android":"levelo://app?vid=c40aebd4-c148-4d4d-9243-dcfaa5c4b14c","ios":"levelo://app?vid=c40aebd4-c148-4d4d-9243-dcfaa5c4b14c"},"vehicle_type_id":"4","last_reported":1702667130,"current_range_meters":18000,"station_id":"ce4bgj92rcd13ifvqbe0","pricing_plan_id":"free"},{"bike_id":"85967ac3-c8bf-4c4d-9f65-8f46db69571a","system_id":"levelo_inurba_marseille","lat":43.276137,"lon":5.36107,"is_reserved":false,"is_disabled":false,"rental_uris":{"android":"levelo://app?vid=85967ac3-c8bf-4c4d-9f65-8f46db69571a","ios":"levelo://app?vid=85967ac3-c8bf-4c4d-9f65-8f46db69571a"},"vehicle_type_id":"4","last_reported":1702667130,"current_range_meters":29600,"station_id":"ce4bgj92rcd13ifvqbe0","pricing_plan_id":"free"},{"bike_id":"8e1e848d-d96b-4302-ada5-5df8b44d4656","system_id":"levelo_inurba_marseille","lat":43.30346,"lon":5.41896,"is_reserved":false,"is_disabled":false,"rental_uris":{"android":"levelo://app?vid=8e1e848d-d96b-4302-ada5-5df8b44d4656","ios":"levelo://app?vid=8e1e848d-d96b-4302-ada5-5df8b44d4656"},"vehicle_type_id":"4","last_reported":1702667130,"current_range_meters":16800,"station_id":"ce4bhop2rcd13ifvqh7g","pricing_plan_id":"free"},{"bike_id":"6ac2844f-d840-4fbb-ab96-2e239b43d33b","system_id":"levelo_inurba_marseille","lat":43.275625,"lon":5.38418,"is_reserved":false,"is_disabled":false,"rental_uris":{"android":"levelo://app?vid=6ac2844f-d840-4fbb-ab96-2e239b43d33b","ios":"levelo://app?vid=6ac2844f-d840-4fbb-ab96-2e239b43d33b"},"vehicle_type_id":"4","last_reported":1702667130,"current_range_meters":20000,"station_id":"ce4bhh92rcd13ifvqfi0","pricing_plan_id":"free"},{"bike_id":"bc568226-81f1-4de0-854a-84ee36f76222","system_id":"levelo_inurba_marseille","lat":43.279952,"lon":5.400085,"is_reserved":false,"is_disabled":false,"rental_uris":{"android":"levelo://app?vid=bc568226-81f1-4de0-854a-84ee36f76222","ios":"levelo://app?vid=bc568226-81f1-4de0-854a-84ee36f76222"},"vehicle_type_id":"4","last_reported":1702667130,"current_range_meters":30800,"station_id":"ce4bho92rcd13ifvqh4g","pricing_plan_id":"free"},{"bike_id":"25042987-187e-4971-80aa-4edf5237efc1","system_id":"levelo_inurba_marseille","lat":43.279975,"lon":5.40009,"is_reserved":false,"is_disabled":false,"rental_uris":{"android":"levelo://app?vid=25042987-187e-4971-80aa-4edf5237efc1","ios":"levelo://app?vid=25042987-187e-4971-80aa-4edf5237efc1"},"vehicle_type_id":"4","last_reported":1702667130,"current_range_meters":18000,"station_id":"ce4bho92rcd13ifvqh4g","pricing_plan_id":"free"},{"bike_id":"bcccc262-9445-490b-8e10-137ab8bc680c","system_id":"levelo_inurba_marseille","lat":43.317121,"lon":5.423936,"is_reserved":false,"is_disabled":false,"rental_uris":{"android":"levelo://app?vid=bcccc262-9445-490b-8e10-137ab8bc680c","ios":"levelo://app?vid=bcccc262-9445-490b-8e10-137ab8bc680c"},"vehicle_type_id":"4","last_reported":1702667130,"current_range_meters":4000,"station_id":"ce4bhp92rcd13ifvqhbg","pricing_plan_id":"free"},{"bike_id":"58836c95-6366-4507-b317-696c63def311","system_id":"levelo_inurba_marseille","lat":43.317121,"lon":5.423936,"is_reserved":false,"is_disabled":false,"rental_uris":{"android":"levelo://app?vid=58836c95-6366-4507-b317-696c63def311","ios":"levelo://app?vid=58836c95-6366-4507-b317-696c63def311"},"vehicle_type_id":"4","last_reported":1702667130,"current_range_meters":30000,"station_id":"ce4bhp92rcd13ifvqhbg","pricing_plan_id":"free"},{"bike_id":"cdc69067-dad5-415d-b4f3-0a438e350196","system_id":"levelo_inurba_marseille","lat":43.317121,"lon":5.423936,"is_reserved":false,"is_disabled":false,"rental_uris":{"android":"levelo://app?vid=cdc69067-dad5-415d-b4f3-0a438e350196","ios":"levelo://app?vid=cdc69067-dad5-415d-b4f3-0a438e350196"},"vehicle_type_id":"4","last_reported":1702667130,"current_range_meters":26400,"station_id":"ce4bhp92rcd13ifvqhbg","pricing_plan_id":"free"},{"bike_id":"93a9a0b0-f09a-4679-973e-f3ebca0caf36","system_id":"levelo_inurba_marseille","lat":43.310785,"lon":5.424305,"is_reserved":false,"is_disabled":false,"rental_uris":{"android":"levelo://app?vid=93a9a0b0-f09a-4679-973e-f3ebca0caf36","ios":"levelo://app?vid=93a9a0b0-f09a-4679-973e-f3ebca0caf36"},"vehicle_type_id":"4","last_reported":1702667130,"current_range_meters":30000,"station_id":"ce4bhp92rcd13ifvqhag","pricing_plan_id":"free"},{"bike_id":"13b63d08-aaa3-4985-bf57-1f32727c58d1","system_id":"levelo_inurba_marseille","lat":43.310785,"lon":5.424305,"is_reserved":false,"is_disabled":false,"rental_uris":{"android":"levelo://app?vid=13b63d08-aaa3-4985-bf57-1f32727c58d1","ios":"levelo://app?vid=13b63d08-aaa3-4985-bf57-1f32727c58d1"},"vehicle_type_id":"4","last_reported":1702667130,"current_range_meters":28000,"station_id":"ce4bhp92rcd13ifvqhag","pricing_plan_id":"free"},{"bike_id":"3ca2c2d2-99b0-4aa6-a05d-e30f02e6a7fb","system_id":"levelo_inurba_marseille","lat":43.276092,"lon":5.395289,"is_reserved":false,"is_disabled":false,"rental_uris":{"android":"levelo://app?vid=3ca2c2d2-99b0-4aa6-a05d-e30f02e6a7fb","ios":"levelo://app?vid=3ca2c2d2-99b0-4aa6-a05d-e30f02e6a7fb"},"vehicle_type_id":"4","last_reported":1702667130,"current_range_meters":25600,"station_id":"","pricing_plan_id":"free"},{"bike_id":"f4db2b23-d26b-46ef-96f8-6dcc49abf2b8","system_id":"levelo_inurba_marseille","lat":43.274103,"lon":5.394016,"is_reserved":false,"is_disabled":false,"rental_uris":{"android":"levelo://app?vid=f4db2b23-d26b-46ef-96f8-6dcc49abf2b8","ios":"levelo://app?vid=f4db2b23-d26b-46ef-96f8-6dcc49abf2b8"},"vehicle_type_id":"4","last_reported":1702667130,"current_range_meters":18400,"station_id":"ce4bhdp2rcd13ifvqf20","pricing_plan_id":"free"},{"bike_id":"de9feb39-3844-4206-aa16-9fe6fe1926e0","system_id":"levelo_inurba_marseille","lat":43.295511,"lon":5.422926,"is_reserved":false,"is_disabled":false,"rental_uris":{"android":"levelo://app?vid=de9feb39-3844-4206-aa16-9fe6fe1926e0","ios":"levelo://app?vid=de9feb39-3844-4206-aa16-9fe6fe1926e0"},"vehicle_type_id":"4","last_reported":1702667130,"current_range_meters":18400,"station_id":"ce4bhph2rcd13ifvqhdg","pricing_plan_id":"free"},{"bike_id":"624d579c-bc37-4f4d-8491-66eb3a55fefa","system_id":"levelo_inurba_marseille","lat":43.295511,"lon":5.422926,"is_reserved":false,"is_disabled":false,"rental_uris":{"android":"levelo://app?vid=624d579c-bc37-4f4d-8491-66eb3a55fefa","ios":"levelo://app?vid=624d579c-bc37-4f4d-8491-66eb3a55fefa"},"vehicle_type_id":"4","last_reported":1702667130,"current_range_meters":18800,"station_id":"ce4bhph2rcd13ifvqhdg","pricing_plan_id":"free"},{"bike_id":"1d2472e2-350f-44fa-a627-38e6bb5829da","system_id":"levelo_inurba_marseille","lat":43.295511,"lon":5.422926,"is_reserved":false,"is_disabled":false,"rental_uris":{"android":"levelo://app?vid=1d2472e2-350f-44fa-a627-38e6bb5829da","ios":"levelo://app?vid=1d2472e2-350f-44fa-a627-38e6bb5829da"},"vehicle_type_id":"4","last_reported":1702667130,"current_range_meters":31200,"station_id":"ce4bhph2rcd13ifvqhdg","pricing_plan_id":"free"},{"bike_id":"c52928c9-4db5-4734-b2a1-722395fc76c7","system_id":"levelo_inurba_marseille","lat":43.27187,"lon":5.39224,"is_reserved":false,"is_disabled":false,"rental_uris":{"android":"levelo://app?vid=c52928c9-4db5-4734-b2a1-722395fc76c7","ios":"levelo://app?vid=c52928c9-4db5-4734-b2a1-722395fc76c7"},"vehicle_type_id":"4","last_reported":1702667130,"current_range_meters":20000,"station_id":"ce4bhhp2rcd13ifvqfm0","pricing_plan_id":"free"},{"bike_id":"64dba843-5b97-4f0c-823d-57e7c3a2de2a","system_id":"levelo_inurba_marseille","lat":43.278128,"lon":5.407195,"is_reserved":false,"is_disabled":false,"rental_uris":{"android":"levelo://app?vid=64dba843-5b97-4f0c-823d-57e7c3a2de2a","ios":"levelo://app?vid=64dba843-5b97-4f0c-823d-57e7c3a2de2a"},"vehicle_type_id":"4","last_reported":1702667130,"current_range_meters":9200,"station_id":"ce4bhnh2rcd13ifvqgtg","pricing_plan_id":"free"},{"bike_id":"9fd29f59-5307-4c84-8c42-adb6ed116c0a","system_id":"levelo_inurba_marseille","lat":43.269467,"lon":5.386439,"is_reserved":false,"is_disabled":false,"rental_uris":{"android":"levelo://app?vid=9fd29f59-5307-4c84-8c42-adb6ed116c0a","ios":"levelo://app?vid=9fd29f59-5307-4c84-8c42-adb6ed116c0a"},"vehicle_type_id":"4","last_reported":1702667130,"current_range_meters":11600,"station_id":"ce4bhh92rcd13ifvqfh0","pricing_plan_id":"free"},{"bike_id":"176d2912-2bb5-43b4-99d5-d3578938fdd7","system_id":"levelo_inurba_marseille","lat":43.269467,"lon":5.386439,"is_reserved":false,"is_disabled":false,"rental_uris":{"android":"levelo://app?vid=176d2912-2bb5-43b4-99d5-d3578938fdd7","ios":"levelo://app?vid=176d2912-2bb5-43b4-99d5-d3578938fdd7"},"vehicle_type_id":"4","last_reported":1702667130,"current_range_meters":26400,"station_id":"ce4bhh92rcd13ifvqfh0","pricing_plan_id":"free"},{"bike_id":"9b210e26-540e-4112-87ea-f0d1cb81baed","system_id":"levelo_inurba_marseille","lat":43.269467,"lon":5.386439,"is_reserved":false,"is_disabled":false,"rental_uris":{"android":"levelo://app?vid=9b210e26-540e-4112-87ea-f0d1cb81baed","ios":"levelo://app?vid=9b210e26-540e-4112-87ea-f0d1cb81baed"},"vehicle_type_id":"4","last_reported":1702667130,"current_range_meters":6400,"station_id":"ce4bhh92rcd13ifvqfh0","pricing_plan_id":"free"},{"bike_id":"fb361dbf-eed1-46f6-a8a7-ace29a33be31","system_id":"levelo_inurba_marseille","lat":43.2795,"lon":5.41033,"is_reserved":false,"is_disabled":false,"rental_uris":{"android":"levelo://app?vid=fb361dbf-eed1-46f6-a8a7-ace29a33be31","ios":"levelo://app?vid=fb361dbf-eed1-46f6-a8a7-ace29a33be31"},"vehicle_type_id":"4","last_reported":1702667130,"current_range_meters":15600,"station_id":"ce4bhnp2rcd13ifvqh0g","pricing_plan_id":"free"},{"bike_id":"cd8e6f14-5512-4134-8a47-6e1bc70d42e9","system_id":"levelo_inurba_marseille","lat":43.279465,"lon":5.410561,"is_reserved":false,"is_disabled":false,"rental_uris":{"android":"levelo://app?vid=cd8e6f14-5512-4134-8a47-6e1bc70d42e9","ios":"levelo://app?vid=cd8e6f14-5512-4134-8a47-6e1bc70d42e9"},"vehicle_type_id":"4","last_reported":1702667130,"current_range_meters":0,"station_id":"ce4bhnp2rcd13ifvqh0g","pricing_plan_id":"free"},{"bike_id":"db774753-4382-453e-a138-c32d538f9839","system_id":"levelo_inurba_marseille","lat":43.3587,"lon":5.35679,"is_reserved":false,"is_disabled":false,"rental_uris":{"android":"levelo://app?vid=db774753-4382-453e-a138-c32d538f9839","ios":"levelo://app?vid=db774753-4382-453e-a138-c32d538f9839"},"vehicle_type_id":"4","last_reported":1702667130,"current_range_meters":11200,"station_id":"","pricing_plan_id":"free"},{"bike_id":"8c6b63ed-6f70-4aeb-aa13-bc14999c5e16","system_id":"levelo_inurba_marseille","lat":43.267966,"lon":5.393976,"is_reserved":false,"is_disabled":false,"rental_uris":{"android":"levelo://app?vid=8c6b63ed-6f70-4aeb-aa13-bc14999c5e16","ios":"levelo://app?vid=8c6b63ed-6f70-4aeb-aa13-bc14999c5e16"},"vehicle_type_id":"4","last_reported":1702667130,"current_range_meters":23200,"station_id":"ce4bhh12rcd13ifvqfg0","pricing_plan_id":"free"},{"bike_id":"78621507-e96c-4b22-baca-d09ed39eb69e","system_id":"levelo_inurba_marseille","lat":43.267966,"lon":5.393976,"is_reserved":false,"is_disabled":false,"rental_uris":{"android":"levelo://app?vid=78621507-e96c-4b22-baca-d09ed39eb69e","ios":"levelo://app?vid=78621507-e96c-4b22-baca-d09ed39eb69e"},"vehicle_type_id":"4","last_reported":1702667130,"current_range_meters":30000,"station_id":"ce4bhh12rcd13ifvqfg0","pricing_plan_id":"free"},{"bike_id":"95e9dd1f-f2f5-405d-b720-08fe860b3dcc","system_id":"levelo_inurba_marseille","lat":43.308051,"lon":5.43527,"is_reserved":false,"is_disabled":false,"rental_uris":{"android":"levelo://app?vid=95e9dd1f-f2f5-405d-b720-08fe860b3dcc","ios":"levelo://app?vid=95e9dd1f-f2f5-405d-b720-08fe860b3dcc"},"vehicle_type_id":"4","last_reported":1702667130,"current_range_meters":24400,"station_id":"ce4bhph2rcd13ifvqheg","pricing_plan_id":"free"},{"bike_id":"12f3b4a0-282f-4973-9df7-658ea9a0d322","system_id":"levelo_inurba_marseille","lat":43.26565,"lon":5.39011,"is_reserved":false,"is_disabled":false,"rental_uris":{"android":"levelo://app?vid=12f3b4a0-282f-4973-9df7-658ea9a0d322","ios":"levelo://app?vid=12f3b4a0-282f-4973-9df7-658ea9a0d322"},"vehicle_type_id":"4","last_reported":1702667130,"current_range_meters":30000,"station_id":"ce4bhe12rcd13ifvqf30","pricing_plan_id":"free"},{"bike_id":"644d3aad-5e5d-43ba-8c13-486190b0531a","system_id":"levelo_inurba_marseille","lat":43.26561,"lon":5.39009,"is_reserved":false,"is_disabled":false,"rental_uris":{"android":"levelo://app?vid=644d3aad-5e5d-43ba-8c13-486190b0531a","ios":"levelo://app?vid=644d3aad-5e5d-43ba-8c13-486190b0531a"},"vehicle_type_id":"4","last_reported":1702667130,"current_range_meters":4000,"station_id":"ce4bhe12rcd13ifvqf30","pricing_plan_id":"free"},{"bike_id":"9a89f80e-f7d1-4157-8bd9-8182ba4b8b45","system_id":"levelo_inurba_marseille","lat":43.26939,"lon":5.40241,"is_reserved":false,"is_disabled":false,"rental_uris":{"android":"levelo://app?vid=9a89f80e-f7d1-4157-8bd9-8182ba4b8b45","ios":"levelo://app?vid=9a89f80e-f7d1-4157-8bd9-8182ba4b8b45"},"vehicle_type_id":"4","last_reported":1702667130,"current_range_meters":2800,"station_id":"cjm6bp8fraef2m0cb0m0","pricing_plan_id":"free"},{"bike_id":"b28581da-81eb-4bbf-80b8-852c89c15ff7","system_id":"levelo_inurba_marseille","lat":43.261782,"lon":5.374515,"is_reserved":false,"is_disabled":false,"rental_uris":{"android":"levelo://app?vid=b28581da-81eb-4bbf-80b8-852c89c15ff7","ios":"levelo://app?vid=b28581da-81eb-4bbf-80b8-852c89c15ff7"},"vehicle_type_id":"4","last_reported":1702667130,"current_range_meters":7600,"station_id":"ce4bhgp2rcd13ifvqfc0","pricing_plan_id":"free"},{"bike_id":"d9ca1354-0fe2-4d50-b154-fbb2c42af0ef","system_id":"levelo_inurba_marseille","lat":43.261782,"lon":5.374515,"is_reserved":false,"is_disabled":false,"rental_uris":{"android":"levelo://app?vid=d9ca1354-0fe2-4d50-b154-fbb2c42af0ef","ios":"levelo://app?vid=d9ca1354-0fe2-4d50-b154-fbb2c42af0ef"},"vehicle_type_id":"4","last_reported":1702667130,"current_range_meters":9600,"station_id":"ce4bhgp2rcd13ifvqfc0","pricing_plan_id":"free"},{"bike_id":"3da0d9bf-67b1-4a9f-a833-ad035b1c6b5d","system_id":"levelo_inurba_marseille","lat":43.261782,"lon":5.374515,"is_reserved":false,"is_disabled":false,"rental_uris":{"android":"levelo://app?vid=3da0d9bf-67b1-4a9f-a833-ad035b1c6b5d","ios":"levelo://app?vid=3da0d9bf-67b1-4a9f-a833-ad035b1c6b5d"},"vehicle_type_id":"4","last_reported":1702667130,"current_range_meters":31200,"station_id":"ce4bhgp2rcd13ifvqfc0","pricing_plan_id":"free"},{"bike_id":"aa7ebe32-f1a4-4d47-bd7a-34b412f08674","system_id":"levelo_inurba_marseille","lat":43.317104,"lon":5.436818,"is_reserved":false,"is_disabled":false,"rental_uris":{"android":"levelo://app?vid=aa7ebe32-f1a4-4d47-bd7a-34b412f08674","ios":"levelo://app?vid=aa7ebe32-f1a4-4d47-bd7a-34b412f08674"},"vehicle_type_id":"4","last_reported":1702667130,"current_range_meters":31200,"station_id":"ce4bhp92rcd13ifvqhcg","pricing_plan_id":"free"},{"bike_id":"b4aa56b2-3f9c-4024-ae31-b0072c6dc054","system_id":"levelo_inurba_marseille","lat":43.261782,"lon":5.374515,"is_reserved":false,"is_disabled":false,"rental_uris":{"android":"levelo://app?vid=b4aa56b2-3f9c-4024-ae31-b0072c6dc054","ios":"levelo://app?vid=b4aa56b2-3f9c-4024-ae31-b0072c6dc054"},"vehicle_type_id":"4","last_reported":1702667130,"current_range_meters":14000,"station_id":"ce4bhgp2rcd13ifvqfc0","pricing_plan_id":"free"},{"bike_id":"a530acdb-feac-4219-a37f-c9cf0c05c2fb","system_id":"levelo_inurba_marseille","lat":43.262012,"lon":5.379307,"is_reserved":false,"is_disabled":false,"rental_uris":{"android":"levelo://app?vid=a530acdb-feac-4219-a37f-c9cf0c05c2fb","ios":"levelo://app?vid=a530acdb-feac-4219-a37f-c9cf0c05c2fb"},"vehicle_type_id":"4","last_reported":1702667130,"current_range_meters":10800,"station_id":"ce4bhjp2rcd13ifvqg90","pricing_plan_id":"free"},{"bike_id":"3feeb233-5481-4cea-989c-30b75874f2b5","system_id":"levelo_inurba_marseille","lat":43.26198,"lon":5.37928,"is_reserved":false,"is_disabled":false,"rental_uris":{"android":"levelo://app?vid=3feeb233-5481-4cea-989c-30b75874f2b5","ios":"levelo://app?vid=3feeb233-5481-4cea-989c-30b75874f2b5"},"vehicle_type_id":"4","last_reported":1702667130,"current_range_meters":29600,"station_id":"ce4bhjp2rcd13ifvqg90","pricing_plan_id":"free"},{"bike_id":"5b37bf3b-1d3d-4bcb-b86b-d23003f4a8d2","system_id":"levelo_inurba_marseille","lat":43.271368,"lon":5.40928,"is_reserved":false,"is_disabled":false,"rental_uris":{"android":"levelo://app?vid=5b37bf3b-1d3d-4bcb-b86b-d23003f4a8d2","ios":"levelo://app?vid=5b37bf3b-1d3d-4bcb-b86b-d23003f4a8d2"},"vehicle_type_id":"4","last_reported":1702667130,"current_range_meters":29200,"station_id":"ce4bhl12rcd13ifvqgf0","pricing_plan_id":"free"},{"bike_id":"dd56b8c8-65e0-491e-8f20-9ee5b66ffaa9","system_id":"levelo_inurba_marseille","lat":43.298768,"lon":5.43643,"is_reserved":false,"is_disabled":false,"rental_uris":{"android":"levelo://app?vid=dd56b8c8-65e0-491e-8f20-9ee5b66ffaa9","ios":"levelo://app?vid=dd56b8c8-65e0-491e-8f20-9ee5b66ffaa9"},"vehicle_type_id":"4","last_reported":1702667130,"current_range_meters":7600,"station_id":"ce4bhpp2rcd13ifvqhfg","pricing_plan_id":"free"},{"bike_id":"aaddad12-acfd-4fbb-b792-835b525e3b7d","system_id":"levelo_inurba_marseille","lat":43.281548,"lon":5.42643,"is_reserved":false,"is_disabled":false,"rental_uris":{"android":"levelo://app?vid=aaddad12-acfd-4fbb-b792-835b525e3b7d","ios":"levelo://app?vid=aaddad12-acfd-4fbb-b792-835b525e3b7d"},"vehicle_type_id":"4","last_reported":1702667130,"current_range_meters":18400,"station_id":"ce4bhnh2rcd13ifvqgug","pricing_plan_id":"free"},{"bike_id":"5b29ac48-5ba9-4f57-847d-b41be8046c39","system_id":"levelo_inurba_marseille","lat":43.281548,"lon":5.42643,"is_reserved":false,"is_disabled":false,"rental_uris":{"android":"levelo://app?vid=5b29ac48-5ba9-4f57-847d-b41be8046c39","ios":"levelo://app?vid=5b29ac48-5ba9-4f57-847d-b41be8046c39"},"vehicle_type_id":"4","last_reported":1702667130,"current_range_meters":11600,"station_id":"ce4bhnh2rcd13ifvqgug","pricing_plan_id":"free"},{"bike_id":"13ab2930-72cd-4ff9-bbaa-268ddfa08a00","system_id":"levelo_inurba_marseille","lat":43.281548,"lon":5.42643,"is_reserved":false,"is_disabled":false,"rental_uris":{"android":"levelo://app?vid=13ab2930-72cd-4ff9-bbaa-268ddfa08a00","ios":"levelo://app?vid=13ab2930-72cd-4ff9-bbaa-268ddfa08a00"},"vehicle_type_id":"4","last_reported":1702667130,"current_range_meters":4400,"station_id":"ce4bhnh2rcd13ifvqgug","pricing_plan_id":"free"},{"bike_id":"ec9dc421-2ba5-40ff-a261-db41dedf38bd","system_id":"levelo_inurba_marseille","lat":43.281548,"lon":5.42643,"is_reserved":false,"is_disabled":false,"rental_uris":{"android":"levelo://app?vid=ec9dc421-2ba5-40ff-a261-db41dedf38bd","ios":"levelo://app?vid=ec9dc421-2ba5-40ff-a261-db41dedf38bd"},"vehicle_type_id":"4","last_reported":1702667130,"current_range_meters":8400,"station_id":"ce4bhnh2rcd13ifvqgug","pricing_plan_id":"free"},{"bike_id":"8bb68f77-a514-45db-ac8f-d0ee315c2c9c","system_id":"levelo_inurba_marseille","lat":43.281548,"lon":5.42643,"is_reserved":false,"is_disabled":false,"rental_uris":{"android":"levelo://app?vid=8bb68f77-a514-45db-ac8f-d0ee315c2c9c","ios":"levelo://app?vid=8bb68f77-a514-45db-ac8f-d0ee315c2c9c"},"vehicle_type_id":"4","last_reported":1702667130,"current_range_meters":29200,"station_id":"ce4bhnh2rcd13ifvqgug","pricing_plan_id":"free"},{"bike_id":"b76e4b50-f6f0-431f-a6f8-b141c06663a4","system_id":"levelo_inurba_marseille","lat":43.275028,"lon":5.424534,"is_reserved":false,"is_disabled":false,"rental_uris":{"android":"levelo://app?vid=b76e4b50-f6f0-431f-a6f8-b141c06663a4","ios":"levelo://app?vid=b76e4b50-f6f0-431f-a6f8-b141c06663a4"},"vehicle_type_id":"4","last_reported":1702667130,"current_range_meters":15600,"station_id":"ce4bhn92rcd13ifvqgrg","pricing_plan_id":"free"},{"bike_id":"cc5d76b0-a393-4a4c-baa6-a656fc269eb7","system_id":"levelo_inurba_marseille","lat":43.275028,"lon":5.424534,"is_reserved":false,"is_disabled":false,"rental_uris":{"android":"levelo://app?vid=cc5d76b0-a393-4a4c-baa6-a656fc269eb7","ios":"levelo://app?vid=cc5d76b0-a393-4a4c-baa6-a656fc269eb7"},"vehicle_type_id":"4","last_reported":1702667130,"current_range_meters":30400,"station_id":"ce4bhn92rcd13ifvqgrg","pricing_plan_id":"free"},{"bike_id":"e6d466f6-b708-4e03-b339-5726dbcaa258","system_id":"levelo_inurba_marseille","lat":43.255824,"lon":5.382226,"is_reserved":false,"is_disabled":false,"rental_uris":{"android":"levelo://app?vid=e6d466f6-b708-4e03-b339-5726dbcaa258","ios":"levelo://app?vid=e6d466f6-b708-4e03-b339-5726dbcaa258"},"vehicle_type_id":"4","last_reported":1702667130,"current_range_meters":3200,"station_id":"ce4bhih2rcd13ifvqfs0","pricing_plan_id":"free"},{"bike_id":"51db3d55-1508-44d3-a1ab-1ae837af26aa","system_id":"levelo_inurba_marseille","lat":43.258224,"lon":5.394369,"is_reserved":false,"is_disabled":false,"rental_uris":{"android":"levelo://app?vid=51db3d55-1508-44d3-a1ab-1ae837af26aa","ios":"levelo://app?vid=51db3d55-1508-44d3-a1ab-1ae837af26aa"},"vehicle_type_id":"4","last_reported":1702667130,"current_range_meters":11200,"station_id":"ce4bhip2rcd13ifvqft0","pricing_plan_id":"free"},{"bike_id":"684c1270-0092-4a86-ad29-c7608ce182e8","system_id":"levelo_inurba_marseille","lat":43.254947,"lon":5.376454,"is_reserved":false,"is_disabled":false,"rental_uris":{"android":"levelo://app?vid=684c1270-0092-4a86-ad29-c7608ce182e8","ios":"levelo://app?vid=684c1270-0092-4a86-ad29-c7608ce182e8"},"vehicle_type_id":"4","last_reported":1702667130,"current_range_meters":30000,"station_id":"ce4bhh12rcd13ifvqff0","pricing_plan_id":"free"},{"bike_id":"3713bc35-e5aa-450a-9791-04369ef7195f","system_id":"levelo_inurba_marseille","lat":43.254947,"lon":5.376454,"is_reserved":false,"is_disabled":false,"rental_uris":{"android":"levelo://app?vid=3713bc35-e5aa-450a-9791-04369ef7195f","ios":"levelo://app?vid=3713bc35-e5aa-450a-9791-04369ef7195f"},"vehicle_type_id":"4","last_reported":1702667130,"current_range_meters":19600,"station_id":"ce4bhh12rcd13ifvqff0","pricing_plan_id":"free"},{"bike_id":"111316c0-6736-470e-8765-a58f5e076013","system_id":"levelo_inurba_marseille","lat":43.254947,"lon":5.376454,"is_reserved":false,"is_disabled":false,"rental_uris":{"android":"levelo://app?vid=111316c0-6736-470e-8765-a58f5e076013","ios":"levelo://app?vid=111316c0-6736-470e-8765-a58f5e076013"},"vehicle_type_id":"4","last_reported":1702667130,"current_range_meters":8800,"station_id":"ce4bhh12rcd13ifvqff0","pricing_plan_id":"free"},{"bike_id":"774dd1c5-d7ab-4987-aaff-87ab2bdb72e5","system_id":"levelo_inurba_marseille","lat":43.254947,"lon":5.376454,"is_reserved":false,"is_disabled":false,"rental_uris":{"android":"levelo://app?vid=774dd1c5-d7ab-4987-aaff-87ab2bdb72e5","ios":"levelo://app?vid=774dd1c5-d7ab-4987-aaff-87ab2bdb72e5"},"vehicle_type_id":"4","last_reported":1702667130,"current_range_meters":31600,"station_id":"ce4bhh12rcd13ifvqff0","pricing_plan_id":"free"},{"bike_id":"c9f09b88-2f5a-4c7b-9b79-b379e0790abf","system_id":"levelo_inurba_marseille","lat":43.254947,"lon":5.376454,"is_reserved":false,"is_disabled":false,"rental_uris":{"android":"levelo://app?vid=c9f09b88-2f5a-4c7b-9b79-b379e0790abf","ios":"levelo://app?vid=c9f09b88-2f5a-4c7b-9b79-b379e0790abf"},"vehicle_type_id":"4","last_reported":1702667130,"current_range_meters":5200,"station_id":"ce4bhh12rcd13ifvqff0","pricing_plan_id":"free"},{"bike_id":"c0503cea-aed0-4e3a-936c-77ed5729d379","system_id":"levelo_inurba_marseille","lat":43.258658,"lon":5.398935,"is_reserved":false,"is_disabled":false,"rental_uris":{"android":"levelo://app?vid=c0503cea-aed0-4e3a-936c-77ed5729d379","ios":"levelo://app?vid=c0503cea-aed0-4e3a-936c-77ed5729d379"},"vehicle_type_id":"4","last_reported":1702667130,"current_range_meters":12800,"station_id":"ce4bhl92rcd13ifvqghg","pricing_plan_id":"free"},{"bike_id":"a6ccd2ca-1d5e-4bf8-8f94-a01891530f31","system_id":"levelo_inurba_marseille","lat":43.257079,"lon":5.411051,"is_reserved":false,"is_disabled":false,"rental_uris":{"android":"levelo://app?vid=a6ccd2ca-1d5e-4bf8-8f94-a01891530f31","ios":"levelo://app?vid=a6ccd2ca-1d5e-4bf8-8f94-a01891530f31"},"vehicle_type_id":"4","last_reported":1702667130,"current_range_meters":13600,"station_id":"ce4bhkp2rcd13ifvqgd0","pricing_plan_id":"free"},{"bike_id":"c6c15238-8e51-4d91-9c37-cee4f2654fdf","system_id":"levelo_inurba_marseille","lat":43.257079,"lon":5.411051,"is_reserved":false,"is_disabled":false,"rental_uris":{"android":"levelo://app?vid=c6c15238-8e51-4d91-9c37-cee4f2654fdf","ios":"levelo://app?vid=c6c15238-8e51-4d91-9c37-cee4f2654fdf"},"vehicle_type_id":"4","last_reported":1702667130,"current_range_meters":18000,"station_id":"ce4bhkp2rcd13ifvqgd0","pricing_plan_id":"free"},{"bike_id":"24d1c098-b883-44c3-a208-16c6275d5e25","system_id":"levelo_inurba_marseille","lat":43.2479,"lon":5.374457,"is_reserved":false,"is_disabled":false,"rental_uris":{"android":"levelo://app?vid=24d1c098-b883-44c3-a208-16c6275d5e25","ios":"levelo://app?vid=24d1c098-b883-44c3-a208-16c6275d5e25"},"vehicle_type_id":"4","last_reported":1702667130,"current_range_meters":1200,"station_id":"ce4bhgh2rcd13ifvqfb0","pricing_plan_id":"free"},{"bike_id":"c456e404-01cc-4015-9e46-3038043e8f45","system_id":"levelo_inurba_marseille","lat":43.24693,"lon":5.382096,"is_reserved":false,"is_disabled":false,"rental_uris":{"android":"levelo://app?vid=c456e404-01cc-4015-9e46-3038043e8f45","ios":"levelo://app?vid=c456e404-01cc-4015-9e46-3038043e8f45"},"vehicle_type_id":"4","last_reported":1702667130,"current_range_meters":31200,"station_id":"ce4bhih2rcd13ifvqfr0","pricing_plan_id":"free"},{"bike_id":"1792bf4b-2a7a-4e47-9b67-780a8c27534f","system_id":"levelo_inurba_marseille","lat":43.24693,"lon":5.382096,"is_reserved":false,"is_disabled":false,"rental_uris":{"android":"levelo://app?vid=1792bf4b-2a7a-4e47-9b67-780a8c27534f","ios":"levelo://app?vid=1792bf4b-2a7a-4e47-9b67-780a8c27534f"},"vehicle_type_id":"4","last_reported":1702667130,"current_range_meters":24400,"station_id":"ce4bhih2rcd13ifvqfr0","pricing_plan_id":"free"},{"bike_id":"24823af9-e338-40f7-b3ab-8a760ed4d424","system_id":"levelo_inurba_marseille","lat":43.24693,"lon":5.382096,"is_reserved":false,"is_disabled":false,"rental_uris":{"android":"levelo://app?vid=24823af9-e338-40f7-b3ab-8a760ed4d424","ios":"levelo://app?vid=24823af9-e338-40f7-b3ab-8a760ed4d424"},"vehicle_type_id":"4","last_reported":1702667130,"current_range_meters":30000,"station_id":"ce4bhih2rcd13ifvqfr0","pricing_plan_id":"free"},{"bike_id":"eb8ac342-463d-48e4-a88b-2f0fc9f85036","system_id":"levelo_inurba_marseille","lat":43.24693,"lon":5.382096,"is_reserved":false,"is_disabled":false,"rental_uris":{"android":"levelo://app?vid=eb8ac342-463d-48e4-a88b-2f0fc9f85036","ios":"levelo://app?vid=eb8ac342-463d-48e4-a88b-2f0fc9f85036"},"vehicle_type_id":"4","last_reported":1702667130,"current_range_meters":31200,"station_id":"ce4bhih2rcd13ifvqfr0","pricing_plan_id":"free"},{"bike_id":"3d344ad3-ec80-4da9-8a40-aab4f845ead3","system_id":"levelo_inurba_marseille","lat":43.24693,"lon":5.382096,"is_reserved":false,"is_disabled":false,"rental_uris":{"android":"levelo://app?vid=3d344ad3-ec80-4da9-8a40-aab4f845ead3","ios":"levelo://app?vid=3d344ad3-ec80-4da9-8a40-aab4f845ead3"},"vehicle_type_id":"4","last_reported":1702667130,"current_range_meters":0,"station_id":"ce4bhih2rcd13ifvqfr0","pricing_plan_id":"free"},{"bike_id":"8f2d7b2e-c3d6-4b8f-b256-abc9433d0bfe","system_id":"levelo_inurba_marseille","lat":43.24693,"lon":5.382096,"is_reserved":false,"is_disabled":false,"rental_uris":{"android":"levelo://app?vid=8f2d7b2e-c3d6-4b8f-b256-abc9433d0bfe","ios":"levelo://app?vid=8f2d7b2e-c3d6-4b8f-b256-abc9433d0bfe"},"vehicle_type_id":"4","last_reported":1702667130,"current_range_meters":11200,"station_id":"ce4bhih2rcd13ifvqfr0","pricing_plan_id":"free"},{"bike_id":"a9f2f701-d996-494f-84f7-d19f284cd5fb","system_id":"levelo_inurba_marseille","lat":43.25102,"lon":5.403214,"is_reserved":false,"is_disabled":false,"rental_uris":{"android":"levelo://app?vid=a9f2f701-d996-494f-84f7-d19f284cd5fb","ios":"levelo://app?vid=a9f2f701-d996-494f-84f7-d19f284cd5fb"},"vehicle_type_id":"4","last_reported":1702667130,"current_range_meters":2000,"station_id":"ce4bhlh2rcd13ifvqgig","pricing_plan_id":"free"},{"bike_id":"02b788d0-ed73-4da2-895e-58bccc899e05","system_id":"levelo_inurba_marseille","lat":43.25102,"lon":5.403214,"is_reserved":false,"is_disabled":false,"rental_uris":{"android":"levelo://app?vid=02b788d0-ed73-4da2-895e-58bccc899e05","ios":"levelo://app?vid=02b788d0-ed73-4da2-895e-58bccc899e05"},"vehicle_type_id":"4","last_reported":1702667130,"current_range_meters":3600,"station_id":"ce4bhlh2rcd13ifvqgig","pricing_plan_id":"free"},{"bike_id":"95d1b4f8-9ce5-4e02-9c82-5a2eb0a9e4f2","system_id":"levelo_inurba_marseille","lat":43.25102,"lon":5.403214,"is_reserved":false,"is_disabled":false,"rental_uris":{"android":"levelo://app?vid=95d1b4f8-9ce5-4e02-9c82-5a2eb0a9e4f2","ios":"levelo://app?vid=95d1b4f8-9ce5-4e02-9c82-5a2eb0a9e4f2"},"vehicle_type_id":"4","last_reported":1702667130,"current_range_meters":20000,"station_id":"ce4bhlh2rcd13ifvqgig","pricing_plan_id":"free"},{"bike_id":"84f783e2-f46b-4b03-a6d3-3dc7c5d064ee","system_id":"levelo_inurba_marseille","lat":43.246467,"lon":5.388984,"is_reserved":false,"is_disabled":false,"rental_uris":{"android":"levelo://app?vid=84f783e2-f46b-4b03-a6d3-3dc7c5d064ee","ios":"levelo://app?vid=84f783e2-f46b-4b03-a6d3-3dc7c5d064ee"},"vehicle_type_id":"4","last_reported":1702667130,"current_range_meters":12400,"station_id":"ce4bhg12rcd13ifvqf60","pricing_plan_id":"free"},{"bike_id":"e9aae6e1-229c-459c-ba5f-56228d518ab4","system_id":"levelo_inurba_marseille","lat":43.243884,"lon":5.370737,"is_reserved":false,"is_disabled":false,"rental_uris":{"android":"levelo://app?vid=e9aae6e1-229c-459c-ba5f-56228d518ab4","ios":"levelo://app?vid=e9aae6e1-229c-459c-ba5f-56228d518ab4"},"vehicle_type_id":"4","last_reported":1702667130,"current_range_meters":16400,"station_id":"ce4bhhh2rcd13ifvqfk0","pricing_plan_id":"free"},{"bike_id":"f13ee189-60e7-46f5-8544-a3f085497e42","system_id":"levelo_inurba_marseille","lat":43.243884,"lon":5.370736,"is_reserved":false,"is_disabled":false,"rental_uris":{"android":"levelo://app?vid=f13ee189-60e7-46f5-8544-a3f085497e42","ios":"levelo://app?vid=f13ee189-60e7-46f5-8544-a3f085497e42"},"vehicle_type_id":"4","last_reported":1702667130,"current_range_meters":17600,"station_id":"ce4bhhh2rcd13ifvqfk0","pricing_plan_id":"free"},{"bike_id":"9837b866-d59c-4c65-8f2c-c05e2aeb0bb5","system_id":"levelo_inurba_marseille","lat":43.245581,"lon":5.395069,"is_reserved":false,"is_disabled":false,"rental_uris":{"android":"levelo://app?vid=9837b866-d59c-4c65-8f2c-c05e2aeb0bb5","ios":"levelo://app?vid=9837b866-d59c-4c65-8f2c-c05e2aeb0bb5"},"vehicle_type_id":"4","last_reported":1702667130,"current_range_meters":0,"station_id":"ce4bhlp2rcd13ifvqgjg","pricing_plan_id":"free"},{"bike_id":"d4325813-b653-4d7b-981d-4f4c9cef3ffe","system_id":"levelo_inurba_marseille","lat":43.240623,"lon":5.377642,"is_reserved":false,"is_disabled":false,"rental_uris":{"android":"levelo://app?vid=d4325813-b653-4d7b-981d-4f4c9cef3ffe","ios":"levelo://app?vid=d4325813-b653-4d7b-981d-4f4c9cef3ffe"},"vehicle_type_id":"4","last_reported":1702667130,"current_range_meters":4000,"station_id":"ce4bhnp2rcd13ifvqgvg","pricing_plan_id":"free"},{"bike_id":"8c112bac-5f5a-407d-8532-bc3c79605cd8","system_id":"levelo_inurba_marseille","lat":43.239588,"lon":5.366238,"is_reserved":false,"is_disabled":false,"rental_uris":{"android":"levelo://app?vid=8c112bac-5f5a-407d-8532-bc3c79605cd8","ios":"levelo://app?vid=8c112bac-5f5a-407d-8532-bc3c79605cd8"},"vehicle_type_id":"4","last_reported":1702667130,"current_range_meters":31200,"station_id":"ce4bhi12rcd13ifvqfp0","pricing_plan_id":"free"},{"bike_id":"bf757ccf-203c-4888-ae5e-14c33561e0c0","system_id":"levelo_inurba_marseille","lat":43.239588,"lon":5.366238,"is_reserved":false,"is_disabled":false,"rental_uris":{"android":"levelo://app?vid=bf757ccf-203c-4888-ae5e-14c33561e0c0","ios":"levelo://app?vid=bf757ccf-203c-4888-ae5e-14c33561e0c0"},"vehicle_type_id":"4","last_reported":1702667130,"current_range_meters":2800,"station_id":"ce4bhi12rcd13ifvqfp0","pricing_plan_id":"free"},{"bike_id":"9ec6e627-bbad-4b65-9589-ccea6752ce9c","system_id":"levelo_inurba_marseille","lat":43.231794,"lon":5.400052,"is_reserved":false,"is_disabled":false,"rental_uris":{"android":"levelo://app?vid=9ec6e627-bbad-4b65-9589-ccea6752ce9c","ios":"levelo://app?vid=9ec6e627-bbad-4b65-9589-ccea6752ce9c"},"vehicle_type_id":"4","last_reported":1702667130,"current_range_meters":24400,"station_id":"ce4bhn12rcd13ifvqgqg","pricing_plan_id":"free"},{"bike_id":"600bdeb8-ea2a-4d1c-a6da-f7a255388a48","system_id":"levelo_inurba_marseille","lat":43.23198,"lon":5.35552,"is_reserved":false,"is_disabled":false,"rental_uris":{"android":"levelo://app?vid=600bdeb8-ea2a-4d1c-a6da-f7a255388a48","ios":"levelo://app?vid=600bdeb8-ea2a-4d1c-a6da-f7a255388a48"},"vehicle_type_id":"4","last_reported":1702667130,"current_range_meters":14000,"station_id":"ce4bhu92rcd13ifvqi70","pricing_plan_id":"free"},{"bike_id":"547672b1-18af-4711-b9a3-86e73cab70b4","system_id":"levelo_inurba_marseille","lat":43.231919,"lon":5.355532,"is_reserved":false,"is_disabled":false,"rental_uris":{"android":"levelo://app?vid=547672b1-18af-4711-b9a3-86e73cab70b4","ios":"levelo://app?vid=547672b1-18af-4711-b9a3-86e73cab70b4"},"vehicle_type_id":"4","last_reported":1702667130,"current_range_meters":20000,"station_id":"ce4bhu92rcd13ifvqi70","pricing_plan_id":"free"},{"bike_id":"185da70e-7a95-41eb-8b73-66c95513e7d7","system_id":"levelo_inurba_marseille","lat":43.231919,"lon":5.355532,"is_reserved":false,"is_disabled":false,"rental_uris":{"android":"levelo://app?vid=185da70e-7a95-41eb-8b73-66c95513e7d7","ios":"levelo://app?vid=185da70e-7a95-41eb-8b73-66c95513e7d7"},"vehicle_type_id":"4","last_reported":1702667130,"current_range_meters":19600,"station_id":"ce4bhu92rcd13ifvqi70","pricing_plan_id":"free"},{"bike_id":"a6ab5f0e-f0ee-41be-b237-17726a43f065","system_id":"levelo_inurba_marseille","lat":43.23193,"lon":5.35546,"is_reserved":false,"is_disabled":false,"rental_uris":{"android":"levelo://app?vid=a6ab5f0e-f0ee-41be-b237-17726a43f065","ios":"levelo://app?vid=a6ab5f0e-f0ee-41be-b237-17726a43f065"},"vehicle_type_id":"4","last_reported":1702667130,"current_range_meters":6800,"station_id":"ce4bhu92rcd13ifvqi70","pricing_plan_id":"free"},{"bike_id":"bad9b33d-de7d-4c7c-82d1-be01fc455f93","system_id":"levelo_inurba_marseille","lat":43.231919,"lon":5.355532,"is_reserved":false,"is_disabled":false,"rental_uris":{"android":"levelo://app?vid=bad9b33d-de7d-4c7c-82d1-be01fc455f93","ios":"levelo://app?vid=bad9b33d-de7d-4c7c-82d1-be01fc455f93"},"vehicle_type_id":"4","last_reported":1702667130,"current_range_meters":26000,"station_id":"ce4bhu92rcd13ifvqi70","pricing_plan_id":"free"},{"bike_id":"bb21ca5a-cb13-451e-943b-2dfa4a3b7fbc","system_id":"levelo_inurba_marseille","lat":43.231919,"lon":5.355532,"is_reserved":false,"is_disabled":false,"rental_uris":{"android":"levelo://app?vid=bb21ca5a-cb13-451e-943b-2dfa4a3b7fbc","ios":"levelo://app?vid=bb21ca5a-cb13-451e-943b-2dfa4a3b7fbc"},"vehicle_type_id":"4","last_reported":1702667130,"current_range_meters":31200,"station_id":"ce4bhu92rcd13ifvqi70","pricing_plan_id":"free"},{"bike_id":"5e675e68-5f89-4337-9f5e-8b0067b010c6","system_id":"levelo_inurba_marseille","lat":43.231794,"lon":5.400052,"is_reserved":false,"is_disabled":false,"rental_uris":{"android":"levelo://app?vid=5e675e68-5f89-4337-9f5e-8b0067b010c6","ios":"levelo://app?vid=5e675e68-5f89-4337-9f5e-8b0067b010c6"},"vehicle_type_id":"4","last_reported":1702667130,"current_range_meters":28400,"station_id":"ce4bhn12rcd13ifvqgqg","pricing_plan_id":"free"},{"bike_id":"4bbb9689-2e2d-4bda-9d3c-7b90daddfa8a","system_id":"levelo_inurba_marseille","lat":43.231793,"lon":5.400044,"is_reserved":false,"is_disabled":false,"rental_uris":{"android":"levelo://app?vid=4bbb9689-2e2d-4bda-9d3c-7b90daddfa8a","ios":"levelo://app?vid=4bbb9689-2e2d-4bda-9d3c-7b90daddfa8a"},"vehicle_type_id":"4","last_reported":1702667130,"current_range_meters":29600,"station_id":"ce4bhn12rcd13ifvqgqg","pricing_plan_id":"free"},{"bike_id":"f232aa67-6076-4223-8e5a-a70e7a8cdfcf","system_id":"levelo_inurba_marseille","lat":43.231794,"lon":5.400052,"is_reserved":false,"is_disabled":false,"rental_uris":{"android":"levelo://app?vid=f232aa67-6076-4223-8e5a-a70e7a8cdfcf","ios":"levelo://app?vid=f232aa67-6076-4223-8e5a-a70e7a8cdfcf"},"vehicle_type_id":"4","last_reported":1702667130,"current_range_meters":22400,"station_id":"ce4bhn12rcd13ifvqgqg","pricing_plan_id":"free"},{"bike_id":"76011e8e-8381-4dc8-a22b-7020e857666d","system_id":"levelo_inurba_marseille","lat":43.23186,"lon":5.39981,"is_reserved":false,"is_disabled":false,"rental_uris":{"android":"levelo://app?vid=76011e8e-8381-4dc8-a22b-7020e857666d","ios":"levelo://app?vid=76011e8e-8381-4dc8-a22b-7020e857666d"},"vehicle_type_id":"4","last_reported":1702667130,"current_range_meters":18000,"station_id":"ce4bhn12rcd13ifvqgqg","pricing_plan_id":"free"},{"bike_id":"ad4a709a-3bbc-4b66-b7ec-31b555a6fb6f","system_id":"levelo_inurba_marseille","lat":43.231794,"lon":5.400052,"is_reserved":false,"is_disabled":false,"rental_uris":{"android":"levelo://app?vid=ad4a709a-3bbc-4b66-b7ec-31b555a6fb6f","ios":"levelo://app?vid=ad4a709a-3bbc-4b66-b7ec-31b555a6fb6f"},"vehicle_type_id":"4","last_reported":1702667130,"current_range_meters":25200,"station_id":"ce4bhn12rcd13ifvqgqg","pricing_plan_id":"free"},{"bike_id":"11fffc33-48fc-46cd-acb2-ae0ed2f88292","system_id":"levelo_inurba_marseille","lat":43.231794,"lon":5.400052,"is_reserved":false,"is_disabled":false,"rental_uris":{"android":"levelo://app?vid=11fffc33-48fc-46cd-acb2-ae0ed2f88292","ios":"levelo://app?vid=11fffc33-48fc-46cd-acb2-ae0ed2f88292"},"vehicle_type_id":"4","last_reported":1702667130,"current_range_meters":0,"station_id":"ce4bhn12rcd13ifvqgqg","pricing_plan_id":"free"},{"bike_id":"b709f06c-bc25-400a-bc75-39c96c4cd26b","system_id":"levelo_inurba_marseille","lat":43.231794,"lon":5.400052,"is_reserved":false,"is_disabled":false,"rental_uris":{"android":"levelo://app?vid=b709f06c-bc25-400a-bc75-39c96c4cd26b","ios":"levelo://app?vid=b709f06c-bc25-400a-bc75-39c96c4cd26b"},"vehicle_type_id":"4","last_reported":1702667130,"current_range_meters":0,"station_id":"ce4bhn12rcd13ifvqgqg","pricing_plan_id":"free"},{"bike_id":"7591c304-548e-4cab-b2c2-be1de5925a19","system_id":"levelo_inurba_marseille","lat":43.231793,"lon":5.400044,"is_reserved":false,"is_disabled":false,"rental_uris":{"android":"levelo://app?vid=7591c304-548e-4cab-b2c2-be1de5925a19","ios":"levelo://app?vid=7591c304-548e-4cab-b2c2-be1de5925a19"},"vehicle_type_id":"4","last_reported":1702667130,"current_range_meters":21200,"station_id":"ce4bhn12rcd13ifvqgqg","pricing_plan_id":"free"},{"bike_id":"f0daebf7-48d1-4965-9af4-f0c1a8bd3366","system_id":"levelo_inurba_marseille","lat":43.23177,"lon":5.3999,"is_reserved":false,"is_disabled":false,"rental_uris":{"android":"levelo://app?vid=f0daebf7-48d1-4965-9af4-f0c1a8bd3366","ios":"levelo://app?vid=f0daebf7-48d1-4965-9af4-f0c1a8bd3366"},"vehicle_type_id":"4","last_reported":1702667130,"current_range_meters":20800,"station_id":"ce4bhn12rcd13ifvqgqg","pricing_plan_id":"free"}]}}