{"last_updated":1748340712,"ttl":60,"version":"2.2","data":{"bikes":[{"bike_id":"c0b9fd4f-e181-46ce-b0bf-f5119973334f","system_id":"levelo_inurba_marseille","lat":43.33771,"lon":5.37424,"is_reserved":false,"is_disabled":true,"rental_uris":{"android":"levelo://app?vid=c0b9fd4f-e181-46ce-b0bf-f5119973334f","ios":"levelo://app?vid=c0b9fd4f-e181-46ce-b0bf-f5119973334f"},"vehicle_type_id":"4","last_reported":1748340712,"current_range_meters":0,"station_id":"","pricing_plan_id":"cebpf4jnsgd1na2vs0mg"},{"bike_id":"7fe337a2-1b46-4c17-bdf9-15e9d383471b","system_id":"levelo_inurba_marseille","lat":43.272642,"lon":5.389951,"is_reserved":false,"is_disabled":true,"rental_uris":{"android":"levelo://app?vid=7fe337a2-1b46-4c17-bdf9-15e9d383471b","ios":"levelo://app?vid=7fe337a2-1b46-4c17-bdf9-15e9d383471b"},"vehicle_type_id":"4","last_reported":1748340712,"current_range_meters":0,"station_id":"","pricing_plan_id":"cebpf4jnsgd1na2vs0mg"},{"bike_id":"9dfea71a-4994-4298-98be-a818ae9ee8f8","system_id":"levelo_inurba_marseille","lat":43.33332,"lon":5.40702,"is_reserved":false,"is_disabled":true,"rental_uris":{"android":"levelo://app?vid=9dfea71a-4994-4298-98be-a818ae9ee8f8","ios":"levelo://app?vid=9dfea71a-4994-4298-98be-a818ae9ee8f8"},"vehicle_type_id":"4","last_reported":1748340712,"current_range_meters":0,"station_id":"","pricing_plan_id":"cebpf4jnsgd1na2vs0mg"},{"bike_id":"3fe3d6c4-138a-47df-b6b4-e6f19e8f7d46","system_id":"levelo_inurba_marseille","lat":43.21411,"lon":5.34114,"is_reserved":false,"is_disabled":true,"rental_uris":{"android":"levelo://app?vid=3fe3d6c4-138a-47df-b6b4-e6f19e8f7d46","ios":"levelo://app?vid=3fe3d6c4-138a-47df-b6b4-e6f19e8f7d46"},"vehicle_type_id":"4","last_reported":1748340712,"current_range_meters":0,"station_id":"","pricing_plan_id":"cebpf4jnsgd1na2vs0mg"},{"bike_id":"fd133867-b5d2-4fd2-aa0a-382781ea3f5a","system_id":"levelo_inurba_marseille","lat":43.28997,"lon":5.4303,"is_reserved":false,"is_disabled":true,"rental_uris":{"android":"levelo://app?vid=fd133867-b5d2-4fd2-aa0a-382781ea3f5a","ios":"levelo://app?vid=fd133867-b5d2-4fd2-aa0a-382781ea3f5a"},"vehicle_type_id":"4","last_reported":1748340712,"current_range_meters":0,"station_id":"","pricing_plan_id":"cebpf4jnsgd1na2vs0mg"},{"bike_id":"3cc6b360-d31b-4265-a77a-c13370fe8da7","system_id":"levelo_inurba_marseille","lat":43.295591,"lon":5.375243,"is_reserved":false,"is_disabled":true,"rental_uris":{"android":"levelo://app?vid=3cc6b360-d31b-4265-a77a-c13370fe8da7","ios":"levelo://app?vid=3cc6b360-d31b-4265-a77a-c13370fe8da7"},"vehicle_type_id":"4","last_reported":1748340712,"current_range_meters":0,"station_id":"","pricing_plan_id":"cebpf4jnsgd1na2vs0mg"},{"bike_id":"15dcdbbd-a41e-43eb-9ed6-26ec15ce7a50","system_id":"levelo_inurba_marseille","lat":43.21411,"lon":5.34113,"is_reserved":false,"is_disabled":true,"rental_uris":{"android":"levelo://app?vid=15dcdbbd-a41e-43eb-9ed6-26ec15ce7a50","ios":"levelo://app?vid=15dcdbbd-a41e-43eb-9ed6-26ec15ce7a50"},"vehicle_type_id":"4","last_reported":1748340712,"current_range_meters":0,"station_id":"","pricing_plan_id":"cebpf4jnsgd1na2vs0mg"},{"bike_id":"f9fb40c0-1fcd-48cb-8e26-3f2dc0fb2451","system_id":"levelo_inurba_marseille","lat":43.33751,"lon":5.37509,"is_reserved":false,"is_disabled":true,"rental_uris":{"android":"levelo://app?vid=f9fb40c0-1fcd-48cb-8e26-3f2dc0fb2451","ios":"levelo://app?vid=f9fb40c0-1fcd-48cb-8e26-3f2dc0fb2451"},"vehicle_type_id":"4","last_reported":1748340712,"current_range_meters":0,"station_id":"","pricing_plan_id":"cebpf4jnsgd1na2vs0mg"},{"bike_id":"e9dd3aa4-b5e7-4480-926d-d7f537719bfa","system_id":"levelo_inurba_marseille","lat":43.230331,"lon":5.401847,"is_reserved":false,"is_disabled":true,"rental_uris":{"android":"levelo://app?vid=e9dd3aa4-b5e7-4480-926d-d7f537719bfa","ios":"levelo://app?vid=e9dd3aa4-b5e7-4480-926d-d7f537719bfa"},"vehicle_type_id":"4","last_reported":1748340712,"current_range_meters":0,"station_id":"","pricing_plan_id":"cebpf4jnsgd1na2vs0mg"},{"bike_id":"dcd075ea-b4af-4d6d-90b2-1236858b7bc1","system_id":"levelo_inurba_marseille","lat":43.27609,"lon":5.35873,"is_reserved":false,"is_disabled":true,"rental_uris":{"android":"levelo://app?vid=dcd075ea-b4af-4d6d-90b2-1236858b7bc1","ios":"levelo://app?vid=dcd075ea-b4af-4d6d-90b2-1236858b7bc1"},"vehicle_type_id":"4","last_reported":1748340712,"current_range_meters":0,"station_id":"","pricing_plan_id":"cebpf4jnsgd1na2vs0mg"},{"bike_id":"cf9fdc8b-2a4e-4f69-bd6a-ff3e86df4988","system_id":"levelo_inurba_marseille","lat":43.29603,"lon":5.38106,"is_reserved":false,"is_disabled":true,"rental_uris":{"android":"levelo://app?vid=cf9fdc8b-2a4e-4f69-bd6a-ff3e86df4988","ios":"levelo://app?vid=cf9fdc8b-2a4e-4f69-bd6a-ff3e86df4988"},"vehicle_type_id":"4","last_reported":1748340712,"current_range_meters":0,"station_id":"ce4bgl12rcd13ifvqbo0","pricing_plan_id":"cebpf4jnsgd1na2vs0mg"},{"bike_id":"c1cdde3a-e3ae-4d8c-becb-dd026f15b64a","system_id":"levelo_inurba_marseille","lat":43.29589,"lon":5.38106,"is_reserved":false,"is_disabled":true,"rental_uris":{"android":"levelo://app?vid=c1cdde3a-e3ae-4d8c-becb-dd026f15b64a","ios":"levelo://app?vid=c1cdde3a-e3ae-4d8c-becb-dd026f15b64a"},"vehicle_type_id":"4","last_reported":1748340712,"current_range_meters":0,"station_id":"ce4bgl12rcd13ifvqbo0","pricing_plan_id":"cebpf4jnsgd1na2vs0mg"},{"bike_id":"3581c28c-41f2-4cb7-b494-0448776c0438","system_id":"levelo_inurba_marseille","lat":43.29854,"lon":5.36284,"is_reserved":false,"is_disabled":true,"rental_uris":{"android":"levelo://app?vid=3581c28c-41f2-4cb7-b494-0448776c0438","ios":"levelo://app?vid=3581c28c-41f2-4cb7-b494-0448776c0438"},"vehicle_type_id":"4","last_reported":1748340712,"current_range_meters":0,"station_id":"ce4bgpp2rcd13ifvqc3g","pricing_plan_id":"cebpf4jnsgd1na2vs0mg"},{"bike_id":"10244c39-3dea-4e73-ae71-84ea12cb8439","system_id":"levelo_inurba_marseille","lat":43.2847,"lon":5.38411,"is_reserved":false,"is_disabled":true,"rental_uris":{"android":"levelo://app?vid=10244c39-3dea-4e73-ae71-84ea12cb8439","ios":"levelo://app?vid=10244c39-3dea-4e73-ae71-84ea12cb8439"},"vehicle_type_id":"4","last_reported":1748340712,"current_range_meters":0,"station_id":"ce4bh512rcd13ifvqe3g","pricing_plan_id":"cebpf4jnsgd1na2vs0mg"},{"bike_id":"94cb938d-bc36-42ad-af73-a2aa616d60b8","system_id":"levelo_inurba_marseille","lat":48.855469,"lon":2.428297,"is_reserved":false,"is_disabled":true,"rental_uris":{"android":"levelo://app?vid=94cb938d-bc36-42ad-af73-a2aa616d60b8","ios":"levelo://app?vid=94cb938d-bc36-42ad-af73-a2aa616d60b8"},"vehicle_type_id":"4","last_reported":1748340712,"current_range_meters":0,"station_id":"ce4bhgh2rcd13ifvqfb0","pricing_plan_id":"cebpf4jnsgd1na2vs0mg"},{"bike_id":"2732b454-d02c-44c9-b7e7-138889c0e317","system_id":"levelo_inurba_marseille","lat":43.2316,"lon":5.43705,"is_reserved":false,"is_disabled":true,"rental_uris":{"android":"levelo://app?vid=2732b454-d02c-44c9-b7e7-138889c0e317","ios":"levelo://app?vid=2732b454-d02c-44c9-b7e7-138889c0e317"},"vehicle_type_id":"4","last_reported":1748340712,"current_range_meters":0,"station_id":"ce4bhmp2rcd13ifvqgog","pricing_plan_id":"cebpf4jnsgd1na2vs0mg"},{"bike_id":"b22e3fd3-705a-4a18-aa84-33d3e598db75","system_id":"levelo_inurba_marseille","lat":43.27994,"lon":5.41672,"is_reserved":false,"is_disabled":true,"rental_uris":{"android":"levelo://app?vid=b22e3fd3-705a-4a18-aa84-33d3e598db75","ios":"levelo://app?vid=b22e3fd3-705a-4a18-aa84-33d3e598db75"},"vehicle_type_id":"4","last_reported":1748340712,"current_range_meters":0,"station_id":"ce4bho12rcd13ifvqh1g","pricing_plan_id":"cebpf4jnsgd1na2vs0mg"},{"bike_id":"d9fa0449-e47c-4bbe-a91c-4939cab5d888","system_id":"levelo_inurba_marseille","lat":43.28514,"lon":5.4263,"is_reserved":false,"is_disabled":true,"rental_uris":{"android":"levelo://app?vid=d9fa0449-e47c-4bbe-a91c-4939cab5d888","ios":"levelo://app?vid=d9fa0449-e47c-4bbe-a91c-4939cab5d888"},"vehicle_type_id":"4","last_reported":1748340712,"current_range_meters":400,"station_id":"","pricing_plan_id":"cebpf4jnsgd1na2vs0mg"},{"bike_id":"fdda0b7e-2b07-4773-80f2-b8538aac2ac4","system_id":"levelo_inurba_marseille","lat":43.23122,"lon":5.43716,"is_reserved":false,"is_disabled":true,"rental_uris":{"android":"levelo://app?vid=fdda0b7e-2b07-4773-80f2-b8538aac2ac4","ios":"levelo://app?vid=fdda0b7e-2b07-4773-80f2-b8538aac2ac4"},"vehicle_type_id":"4","last_reported":1748340712,"current_range_meters":400,"station_id":"ce4bhmp2rcd13ifvqgog","pricing_plan_id":"cebpf4jnsgd1na2vs0mg"},{"bike_id":"da453a88-f81b-4e0f-9781-5a7f6c1d364c","system_id":"levelo_inurba_marseille","lat":43.337499,"lon":5.374469,"is_reserved":false,"is_disabled":true,"rental_uris":{"android":"levelo://app?vid=da453a88-f81b-4e0f-9781-5a7f6c1d364c","ios":"levelo://app?vid=da453a88-f81b-4e0f-9781-5a7f6c1d364c"},"vehicle_type_id":"4","last_reported":1748340712,"current_range_meters":800,"station_id":"","pricing_plan_id":"cebpf4jnsgd1na2vs0mg"},{"bike_id":"b1b28535-8175-4c9e-8e3d-e8b79587e5c3","system_id":"levelo_inurba_marseille","lat":43.29976,"lon":5.38499,"is_reserved":false,"is_disabled":true,"rental_uris":{"android":"levelo://app?vid=b1b28535-8175-4c9e-8e3d-e8b79587e5c3","ios":"levelo://app?vid=b1b28535-8175-4c9e-8e3d-e8b79587e5c3"},"vehicle_type_id":"4","last_reported":1748340712,"current_range_meters":1200,"station_id":"ce4bgj92rcd13ifvqbd0","pricing_plan_id":"cebpf4jnsgd1na2vs0mg"},{"bike_id":"4d0a9206-1caa-456e-8c6c-f37124a22523","system_id":"levelo_inurba_marseille","lat":43.27071,"lon":5.42268,"is_reserved":false,"is_disabled":true,"rental_uris":{"android":"levelo://app?vid=4d0a9206-1caa-456e-8c6c-f37124a22523","ios":"levelo://app?vid=4d0a9206-1caa-456e-8c6c-f37124a22523"},"vehicle_type_id":"4","last_reported":1748340712,"current_range_meters":1200,"station_id":"ce4bhk92rcd13ifvqgb0","pricing_plan_id":"cebpf4jnsgd1na2vs0mg"},{"bike_id":"ef2ef288-fc2a-4704-a70f-610f7e8c1938","system_id":"levelo_inurba_marseille","lat":43.29024,"lon":5.38639,"is_reserved":false,"is_disabled":true,"rental_uris":{"android":"levelo://app?vid=ef2ef288-fc2a-4704-a70f-610f7e8c1938","ios":"levelo://app?vid=ef2ef288-fc2a-4704-a70f-610f7e8c1938"},"vehicle_type_id":"4","last_reported":1748340712,"current_range_meters":1600,"station_id":"ce4bh4p2rcd13ifvqe0g","pricing_plan_id":"cebpf4jnsgd1na2vs0mg"},{"bike_id":"8491f505-e7cb-46fd-b2d7-852404d84e86","system_id":"levelo_inurba_marseille","lat":43.28273,"lon":5.3507,"is_reserved":false,"is_disabled":true,"rental_uris":{"android":"levelo://app?vid=8491f505-e7cb-46fd-b2d7-852404d84e86","ios":"levelo://app?vid=8491f505-e7cb-46fd-b2d7-852404d84e86"},"vehicle_type_id":"4","last_reported":1748340712,"current_range_meters":2000,"station_id":"","pricing_plan_id":"cebpf4jnsgd1na2vs0mg"},{"bike_id":"69b688bd-33f6-4327-9308-c35c786d6cd9","system_id":"levelo_inurba_marseille","lat":43.26667,"lon":5.38266,"is_reserved":false,"is_disabled":true,"rental_uris":{"android":"levelo://app?vid=69b688bd-33f6-4327-9308-c35c786d6cd9","ios":"levelo://app?vid=69b688bd-33f6-4327-9308-c35c786d6cd9"},"vehicle_type_id":"4","last_reported":1748340712,"current_range_meters":2000,"station_id":"ce4bhg92rcd13ifvqf90","pricing_plan_id":"cebpf4jnsgd1na2vs0mg"},{"bike_id":"9589e48b-d254-48c7-a520-59d155d46467","system_id":"levelo_inurba_marseille","lat":43.23155,"lon":5.43698,"is_reserved":false,"is_disabled":true,"rental_uris":{"android":"levelo://app?vid=9589e48b-d254-48c7-a520-59d155d46467","ios":"levelo://app?vid=9589e48b-d254-48c7-a520-59d155d46467"},"vehicle_type_id":"4","last_reported":1748340712,"current_range_meters":2000,"station_id":"ce4bhmp2rcd13ifvqgog","pricing_plan_id":"cebpf4jnsgd1na2vs0mg"},{"bike_id":"794f9358-531a-4ed9-a3d8-4313b752ba78","system_id":"levelo_inurba_marseille","lat":43.29037,"lon":5.39965,"is_reserved":false,"is_disabled":true,"rental_uris":{"android":"levelo://app?vid=794f9358-531a-4ed9-a3d8-4313b752ba78","ios":"levelo://app?vid=794f9358-531a-4ed9-a3d8-4313b752ba78"},"vehicle_type_id":"4","last_reported":1748340712,"current_range_meters":2800,"station_id":"ce4bh392rcd13ifvqdm0","pricing_plan_id":"cebpf4jnsgd1na2vs0mg"},{"bike_id":"7cd24168-7d16-4d1c-903c-f7a903bc08c9","system_id":"levelo_inurba_marseille","lat":43.295665,"lon":5.390779,"is_reserved":false,"is_disabled":false,"rental_uris":{"android":"levelo://app?vid=7cd24168-7d16-4d1c-903c-f7a903bc08c9","ios":"levelo://app?vid=7cd24168-7d16-4d1c-903c-f7a903bc08c9"},"vehicle_type_id":"4","last_reported":1748340712,"current_range_meters":2800,"station_id":"ce4bh3p2rcd13ifvqdp0","pricing_plan_id":"cebpf4jnsgd1na2vs0mg"},{"bike_id":"50d11eb9-6d46-4fb6-8d3c-de7737a605d6","system_id":"levelo_inurba_marseille","lat":43.286647,"lon":5.386727,"is_reserved":false,"is_disabled":false,"rental_uris":{"android":"levelo://app?vid=50d11eb9-6d46-4fb6-8d3c-de7737a605d6","ios":"levelo://app?vid=50d11eb9-6d46-4fb6-8d3c-de7737a605d6"},"vehicle_type_id":"4","last_reported":1748340712,"current_range_meters":2800,"station_id":"ce4bh492rcd13ifvqdug","pricing_plan_id":"cebpf4jnsgd1na2vs0mg"},{"bike_id":"69092c50-b595-4a45-a1a1-54e6556983b5","system_id":"levelo_inurba_marseille","lat":43.28937,"lon":5.36635,"is_reserved":false,"is_disabled":true,"rental_uris":{"android":"levelo://app?vid=69092c50-b595-4a45-a1a1-54e6556983b5","ios":"levelo://app?vid=69092c50-b595-4a45-a1a1-54e6556983b5"},"vehicle_type_id":"4","last_reported":1748340712,"current_range_meters":2800,"station_id":"ce4bhap2rcd13ifvqek0","pricing_plan_id":"cebpf4jnsgd1na2vs0mg"},{"bike_id":"6cc9359b-ebb1-4c1b-b524-31b08f4313c7","system_id":"levelo_inurba_marseille","lat":43.26679,"lon":5.38264,"is_reserved":false,"is_disabled":false,"rental_uris":{"android":"levelo://app?vid=6cc9359b-ebb1-4c1b-b524-31b08f4313c7","ios":"levelo://app?vid=6cc9359b-ebb1-4c1b-b524-31b08f4313c7"},"vehicle_type_id":"4","last_reported":1748340712,"current_range_meters":2800,"station_id":"ce4bhg92rcd13ifvqf90","pricing_plan_id":"cebpf4jnsgd1na2vs0mg"},{"bike_id":"90529845-d4e0-4976-a422-8141dc187740","system_id":"levelo_inurba_marseille","lat":43.26959,"lon":5.38628,"is_reserved":false,"is_disabled":false,"rental_uris":{"android":"levelo://app?vid=90529845-d4e0-4976-a422-8141dc187740","ios":"levelo://app?vid=90529845-d4e0-4976-a422-8141dc187740"},"vehicle_type_id":"4","last_reported":1748340712,"current_range_meters":2800,"station_id":"ce4bhh92rcd13ifvqfh0","pricing_plan_id":"cebpf4jnsgd1na2vs0mg"},{"bike_id":"b7ab4751-3dbf-4148-86b3-37e175a4d63e","system_id":"levelo_inurba_marseille","lat":43.24611,"lon":5.39329,"is_reserved":false,"is_disabled":false,"rental_uris":{"android":"levelo://app?vid=b7ab4751-3dbf-4148-86b3-37e175a4d63e","ios":"levelo://app?vid=b7ab4751-3dbf-4148-86b3-37e175a4d63e"},"vehicle_type_id":"4","last_reported":1748340712,"current_range_meters":3200,"station_id":"","pricing_plan_id":"cebpf4jnsgd1na2vs0mg"},{"bike_id":"ab485184-dee6-4278-8ed8-78cb97c31dd5","system_id":"levelo_inurba_marseille","lat":43.2921,"lon":5.35824,"is_reserved":false,"is_disabled":false,"rental_uris":{"android":"levelo://app?vid=ab485184-dee6-4278-8ed8-78cb97c31dd5","ios":"levelo://app?vid=ab485184-dee6-4278-8ed8-78cb97c31dd5"},"vehicle_type_id":"4","last_reported":1748340712,"current_range_meters":4000,"station_id":"","pricing_plan_id":"cebpf4jnsgd1na2vs0mg"},{"bike_id":"4b15c05b-7a78-452b-b2ef-7de72be20910","system_id":"levelo_inurba_marseille","lat":43.282707,"lon":5.350636,"is_reserved":false,"is_disabled":false,"rental_uris":{"android":"levelo://app?vid=4b15c05b-7a78-452b-b2ef-7de72be20910","ios":"levelo://app?vid=4b15c05b-7a78-452b-b2ef-7de72be20910"},"vehicle_type_id":"4","last_reported":1748340712,"current_range_meters":4000,"station_id":"","pricing_plan_id":"cebpf4jnsgd1na2vs0mg"},{"bike_id":"2866c1a8-a7be-4e20-ae43-bce3c957e4cd","system_id":"levelo_inurba_marseille","lat":43.29541,"lon":5.37476,"is_reserved":false,"is_disabled":false,"rental_uris":{"android":"levelo://app?vid=2866c1a8-a7be-4e20-ae43-bce3c957e4cd","ios":"levelo://app?vid=2866c1a8-a7be-4e20-ae43-bce3c957e4cd"},"vehicle_type_id":"4","last_reported":1748340712,"current_range_meters":4000,"station_id":"ce4bgkp2rcd13ifvqbmg","pricing_plan_id":"cebpf4jnsgd1na2vs0mg"},{"bike_id":"31088825-34b9-408f-9010-33be0b9f29b3","system_id":"levelo_inurba_marseille","lat":43.29005,"lon":5.35607,"is_reserved":false,"is_disabled":false,"rental_uris":{"android":"levelo://app?vid=31088825-34b9-408f-9010-33be0b9f29b3","ios":"levelo://app?vid=31088825-34b9-408f-9010-33be0b9f29b3"},"vehicle_type_id":"4","last_reported":1748340712,"current_range_meters":4000,"station_id":"ce4bhb92rcd13ifvqen0","pricing_plan_id":"cebpf4jnsgd1na2vs0mg"},{"bike_id":"abb59646-0f9a-44b1-8f07-3c4c107ff64a","system_id":"levelo_inurba_marseille","lat":43.31878,"lon":5.40732,"is_reserved":false,"is_disabled":true,"rental_uris":{"android":"levelo://app?vid=abb59646-0f9a-44b1-8f07-3c4c107ff64a","ios":"levelo://app?vid=abb59646-0f9a-44b1-8f07-3c4c107ff64a"},"vehicle_type_id":"4","last_reported":1748340712,"current_range_meters":4000,"station_id":"ce4bhq12rcd13ifvqhig","pricing_plan_id":"cebpf4jnsgd1na2vs0mg"},{"bike_id":"24c15e57-e637-474f-a05b-acd8d63c8233","system_id":"levelo_inurba_marseille","lat":43.29196,"lon":5.35814,"is_reserved":false,"is_disabled":false,"rental_uris":{"android":"levelo://app?vid=24c15e57-e637-474f-a05b-acd8d63c8233","ios":"levelo://app?vid=24c15e57-e637-474f-a05b-acd8d63c8233"},"vehicle_type_id":"4","last_reported":1748340712,"current_range_meters":4400,"station_id":"ce4bhb12rcd13ifvqel0","pricing_plan_id":"cebpf4jnsgd1na2vs0mg"},{"bike_id":"013b29b5-910d-4547-b953-a122dcc791ff","system_id":"levelo_inurba_marseille","lat":43.24664,"lon":5.3816,"is_reserved":false,"is_disabled":false,"rental_uris":{"android":"levelo://app?vid=013b29b5-910d-4547-b953-a122dcc791ff","ios":"levelo://app?vid=013b29b5-910d-4547-b953-a122dcc791ff"},"vehicle_type_id":"4","last_reported":1748340712,"current_range_meters":4400,"station_id":"ce4bhih2rcd13ifvqfr0","pricing_plan_id":"cebpf4jnsgd1na2vs0mg"},{"bike_id":"05a77d3b-8cd5-4f15-aa0a-e3a1c80da45a","system_id":"levelo_inurba_marseille","lat":43.29025,"lon":5.3814,"is_reserved":false,"is_disabled":false,"rental_uris":{"android":"levelo://app?vid=05a77d3b-8cd5-4f15-aa0a-e3a1c80da45a","ios":"levelo://app?vid=05a77d3b-8cd5-4f15-aa0a-e3a1c80da45a"},"vehicle_type_id":"4","last_reported":1748340712,"current_range_meters":4800,"station_id":"ce4bh4p2rcd13ifvqe1g","pricing_plan_id":"cebpf4jnsgd1na2vs0mg"},{"bike_id":"e9496718-b841-4999-823d-28c5bee5d6f1","system_id":"levelo_inurba_marseille","lat":43.26538,"lon":5.38997,"is_reserved":false,"is_disabled":false,"rental_uris":{"android":"levelo://app?vid=e9496718-b841-4999-823d-28c5bee5d6f1","ios":"levelo://app?vid=e9496718-b841-4999-823d-28c5bee5d6f1"},"vehicle_type_id":"4","last_reported":1748340712,"current_range_meters":4800,"station_id":"ce4bhe12rcd13ifvqf30","pricing_plan_id":"cebpf4jnsgd1na2vs0mg"},{"bike_id":"af02aa73-68b2-498b-ad6a-9a50456db18d","system_id":"levelo_inurba_marseille","lat":43.298933,"lon":5.3767,"is_reserved":false,"is_disabled":false,"rental_uris":{"android":"levelo://app?vid=af02aa73-68b2-498b-ad6a-9a50456db18d","ios":"levelo://app?vid=af02aa73-68b2-498b-ad6a-9a50456db18d"},"vehicle_type_id":"4","last_reported":1748340712,"current_range_meters":5600,"station_id":"","pricing_plan_id":"cebpf4jnsgd1na2vs0mg"},{"bike_id":"9dba8239-6956-4394-b88b-f67913567de3","system_id":"levelo_inurba_marseille","lat":43.26565,"lon":5.40325,"is_reserved":false,"is_disabled":false,"rental_uris":{"android":"levelo://app?vid=9dba8239-6956-4394-b88b-f67913567de3","ios":"levelo://app?vid=9dba8239-6956-4394-b88b-f67913567de3"},"vehicle_type_id":"4","last_reported":1748340712,"current_range_meters":5600,"station_id":"","pricing_plan_id":"cebpf4jnsgd1na2vs0mg"},{"bike_id":"3853ebe7-6092-472c-acdd-315df2827b47","system_id":"levelo_inurba_marseille","lat":43.29371,"lon":5.37843,"is_reserved":false,"is_disabled":false,"rental_uris":{"android":"levelo://app?vid=3853ebe7-6092-472c-acdd-315df2827b47","ios":"levelo://app?vid=3853ebe7-6092-472c-acdd-315df2827b47"},"vehicle_type_id":"4","last_reported":1748340712,"current_range_meters":5600,"station_id":"ce4bgjh2rcd13ifvqbf0","pricing_plan_id":"cebpf4jnsgd1na2vs0mg"},{"bike_id":"fb6da659-b94d-4a3f-8490-dd24a7489d87","system_id":"levelo_inurba_marseille","lat":43.31167,"lon":5.38722,"is_reserved":false,"is_disabled":false,"rental_uris":{"android":"levelo://app?vid=fb6da659-b94d-4a3f-8490-dd24a7489d87","ios":"levelo://app?vid=fb6da659-b94d-4a3f-8490-dd24a7489d87"},"vehicle_type_id":"4","last_reported":1748340712,"current_range_meters":5600,"station_id":"ce4bgv12rcd13ifvqcp0","pricing_plan_id":"cebpf4jnsgd1na2vs0mg"},{"bike_id":"03659a1a-2974-44c4-8f0b-c679fa0465ce","system_id":"levelo_inurba_marseille","lat":43.26952,"lon":5.38632,"is_reserved":false,"is_disabled":false,"rental_uris":{"android":"levelo://app?vid=03659a1a-2974-44c4-8f0b-c679fa0465ce","ios":"levelo://app?vid=03659a1a-2974-44c4-8f0b-c679fa0465ce"},"vehicle_type_id":"4","last_reported":1748340712,"current_range_meters":5600,"station_id":"ce4bhh92rcd13ifvqfh0","pricing_plan_id":"cebpf4jnsgd1na2vs0mg"},{"bike_id":"c27b8244-4bf7-40d0-9439-e8421c2e6189","system_id":"levelo_inurba_marseille","lat":43.25718,"lon":5.41085,"is_reserved":false,"is_disabled":false,"rental_uris":{"android":"levelo://app?vid=c27b8244-4bf7-40d0-9439-e8421c2e6189","ios":"levelo://app?vid=c27b8244-4bf7-40d0-9439-e8421c2e6189"},"vehicle_type_id":"4","last_reported":1748340712,"current_range_meters":5600,"station_id":"ce4bhkp2rcd13ifvqgd0","pricing_plan_id":"cebpf4jnsgd1na2vs0mg"},{"bike_id":"a4aef2b9-b7e8-4e2d-8340-592d28bc6c85","system_id":"levelo_inurba_marseille","lat":43.337654,"lon":5.37434,"is_reserved":false,"is_disabled":false,"rental_uris":{"android":"levelo://app?vid=a4aef2b9-b7e8-4e2d-8340-592d28bc6c85","ios":"levelo://app?vid=a4aef2b9-b7e8-4e2d-8340-592d28bc6c85"},"vehicle_type_id":"4","last_reported":1748340712,"current_range_meters":6000,"station_id":"","pricing_plan_id":"cebpf4jnsgd1na2vs0mg"},{"bike_id":"56ed488e-8a77-43b8-9789-d75b639877bb","system_id":"levelo_inurba_marseille","lat":43.31107,"lon":5.37784,"is_reserved":false,"is_disabled":false,"rental_uris":{"android":"levelo://app?vid=56ed488e-8a77-43b8-9789-d75b639877bb","ios":"levelo://app?vid=56ed488e-8a77-43b8-9789-d75b639877bb"},"vehicle_type_id":"4","last_reported":1748340712,"current_range_meters":6000,"station_id":"ce4bgt92rcd13ifvqcg0","pricing_plan_id":"cebpf4jnsgd1na2vs0mg"},{"bike_id":"6eb6b7ee-0688-4277-b73d-283777dcf4e4","system_id":"levelo_inurba_marseille","lat":43.29867,"lon":5.39727,"is_reserved":false,"is_disabled":false,"rental_uris":{"android":"levelo://app?vid=6eb6b7ee-0688-4277-b73d-283777dcf4e4","ios":"levelo://app?vid=6eb6b7ee-0688-4277-b73d-283777dcf4e4"},"vehicle_type_id":"4","last_reported":1748340712,"current_range_meters":6000,"station_id":"ce4bh0h2rcd13ifvqd50","pricing_plan_id":"cebpf4jnsgd1na2vs0mg"},{"bike_id":"ed9f862b-b077-46c5-b196-9b4679e1c225","system_id":"levelo_inurba_marseille","lat":43.26217,"lon":5.40453,"is_reserved":false,"is_disabled":false,"rental_uris":{"android":"levelo://app?vid=ed9f862b-b077-46c5-b196-9b4679e1c225","ios":"levelo://app?vid=ed9f862b-b077-46c5-b196-9b4679e1c225"},"vehicle_type_id":"4","last_reported":1748340712,"current_range_meters":6000,"station_id":"ce4bhmh2rcd13ifvqgmg","pricing_plan_id":"cebpf4jnsgd1na2vs0mg"},{"bike_id":"e94f5885-66fa-4222-84cb-33e6ca8e260b","system_id":"levelo_inurba_marseille","lat":43.23152,"lon":5.43709,"is_reserved":false,"is_disabled":false,"rental_uris":{"android":"levelo://app?vid=e94f5885-66fa-4222-84cb-33e6ca8e260b","ios":"levelo://app?vid=e94f5885-66fa-4222-84cb-33e6ca8e260b"},"vehicle_type_id":"4","last_reported":1748340712,"current_range_meters":6000,"station_id":"ce4bhmp2rcd13ifvqgog","pricing_plan_id":"cebpf4jnsgd1na2vs0mg"},{"bike_id":"cb9185be-bf1c-4b28-832a-904bb433a18b","system_id":"levelo_inurba_marseille","lat":43.30426,"lon":5.39738,"is_reserved":false,"is_disabled":false,"rental_uris":{"android":"levelo://app?vid=cb9185be-bf1c-4b28-832a-904bb433a18b","ios":"levelo://app?vid=cb9185be-bf1c-4b28-832a-904bb433a18b"},"vehicle_type_id":"4","last_reported":1748340712,"current_range_meters":6400,"station_id":"ce4bh092rcd13ifvqd20","pricing_plan_id":"cebpf4jnsgd1na2vs0mg"},{"bike_id":"35faf31f-b5a2-4be7-b14c-166fa5c362b3","system_id":"levelo_inurba_marseille","lat":43.24388,"lon":5.37055,"is_reserved":false,"is_disabled":false,"rental_uris":{"android":"levelo://app?vid=35faf31f-b5a2-4be7-b14c-166fa5c362b3","ios":"levelo://app?vid=35faf31f-b5a2-4be7-b14c-166fa5c362b3"},"vehicle_type_id":"4","last_reported":1748340712,"current_range_meters":6400,"station_id":"ce4bhhh2rcd13ifvqfk0","pricing_plan_id":"cebpf4jnsgd1na2vs0mg"},{"bike_id":"914b0cdd-674e-4033-aea7-b6f07b686478","system_id":"levelo_inurba_marseille","lat":43.272031,"lon":5.391977,"is_reserved":false,"is_disabled":false,"rental_uris":{"android":"levelo://app?vid=914b0cdd-674e-4033-aea7-b6f07b686478","ios":"levelo://app?vid=914b0cdd-674e-4033-aea7-b6f07b686478"},"vehicle_type_id":"4","last_reported":1748340712,"current_range_meters":6400,"station_id":"ce4bhi12rcd13ifvqfo0","pricing_plan_id":"cebpf4jnsgd1na2vs0mg"},{"bike_id":"72896a3b-b1ed-438a-978e-43f56aeeea39","system_id":"levelo_inurba_marseille","lat":43.23147,"lon":5.43712,"is_reserved":false,"is_disabled":false,"rental_uris":{"android":"levelo://app?vid=72896a3b-b1ed-438a-978e-43f56aeeea39","ios":"levelo://app?vid=72896a3b-b1ed-438a-978e-43f56aeeea39"},"vehicle_type_id":"4","last_reported":1748340712,"current_range_meters":6400,"station_id":"ce4bhmp2rcd13ifvqgog","pricing_plan_id":"cebpf4jnsgd1na2vs0mg"},{"bike_id":"a3fdfab4-cb8b-4639-a8f9-ac99f398c758","system_id":"levelo_inurba_marseille","lat":43.2417,"lon":5.36382,"is_reserved":false,"is_disabled":false,"rental_uris":{"android":"levelo://app?vid=a3fdfab4-cb8b-4639-a8f9-ac99f398c758","ios":"levelo://app?vid=a3fdfab4-cb8b-4639-a8f9-ac99f398c758"},"vehicle_type_id":"4","last_reported":1748340712,"current_range_meters":6400,"station_id":"cpo36qri1sfpv3e86is0","pricing_plan_id":"cebpf4jnsgd1na2vs0mg"},{"bike_id":"b744080c-dd77-486d-9609-00c9cf60c1ad","system_id":"levelo_inurba_marseille","lat":43.23633,"lon":5.39198,"is_reserved":false,"is_disabled":false,"rental_uris":{"android":"levelo://app?vid=b744080c-dd77-486d-9609-00c9cf60c1ad","ios":"levelo://app?vid=b744080c-dd77-486d-9609-00c9cf60c1ad"},"vehicle_type_id":"4","last_reported":1748340712,"current_range_meters":6800,"station_id":"","pricing_plan_id":"cebpf4jnsgd1na2vs0mg"},{"bike_id":"86461345-ae83-4df3-95fb-cd9c3c6316ee","system_id":"levelo_inurba_marseille","lat":43.23151,"lon":5.43708,"is_reserved":false,"is_disabled":false,"rental_uris":{"android":"levelo://app?vid=86461345-ae83-4df3-95fb-cd9c3c6316ee","ios":"levelo://app?vid=86461345-ae83-4df3-95fb-cd9c3c6316ee"},"vehicle_type_id":"4","last_reported":1748340712,"current_range_meters":6800,"station_id":"ce4bhmp2rcd13ifvqgog","pricing_plan_id":"cebpf4jnsgd1na2vs0mg"},{"bike_id":"15895a4c-6504-4c01-aecb-996f77f1a3b5","system_id":"levelo_inurba_marseille","lat":43.3211,"lon":5.36761,"is_reserved":false,"is_disabled":false,"rental_uris":{"android":"levelo://app?vid=15895a4c-6504-4c01-aecb-996f77f1a3b5","ios":"levelo://app?vid=15895a4c-6504-4c01-aecb-996f77f1a3b5"},"vehicle_type_id":"4","last_reported":1748340712,"current_range_meters":7200,"station_id":"ce4bhrh2rcd13ifvqhug","pricing_plan_id":"cebpf4jnsgd1na2vs0mg"},{"bike_id":"91e7aa13-0095-455f-8489-00cd8c762786","system_id":"levelo_inurba_marseille","lat":43.30631,"lon":5.40091,"is_reserved":false,"is_disabled":false,"rental_uris":{"android":"levelo://app?vid=91e7aa13-0095-455f-8489-00cd8c762786","ios":"levelo://app?vid=91e7aa13-0095-455f-8489-00cd8c762786"},"vehicle_type_id":"4","last_reported":1748340712,"current_range_meters":8000,"station_id":"ce4bh112rcd13ifvqda0","pricing_plan_id":"cebpf4jnsgd1na2vs0mg"},{"bike_id":"ce774b24-e1b1-46f4-ac51-05d81ca0ea34","system_id":"levelo_inurba_marseille","lat":43.28265,"lon":5.350649,"is_reserved":false,"is_disabled":false,"rental_uris":{"android":"levelo://app?vid=ce774b24-e1b1-46f4-ac51-05d81ca0ea34","ios":"levelo://app?vid=ce774b24-e1b1-46f4-ac51-05d81ca0ea34"},"vehicle_type_id":"4","last_reported":1748340712,"current_range_meters":8000,"station_id":"ce4bhbp2rcd13ifvqerg","pricing_plan_id":"cebpf4jnsgd1na2vs0mg"},{"bike_id":"0a39277b-5b56-4b3f-a743-9c62bbc310fd","system_id":"levelo_inurba_marseille","lat":43.26686,"lon":5.38268,"is_reserved":false,"is_disabled":false,"rental_uris":{"android":"levelo://app?vid=0a39277b-5b56-4b3f-a743-9c62bbc310fd","ios":"levelo://app?vid=0a39277b-5b56-4b3f-a743-9c62bbc310fd"},"vehicle_type_id":"4","last_reported":1748340712,"current_range_meters":8000,"station_id":"ce4bhg92rcd13ifvqf90","pricing_plan_id":"cebpf4jnsgd1na2vs0mg"},{"bike_id":"39b9e6f9-7f50-4c15-865f-e83796dd4da6","system_id":"levelo_inurba_marseille","lat":43.25571,"lon":5.38234,"is_reserved":false,"is_disabled":false,"rental_uris":{"android":"levelo://app?vid=39b9e6f9-7f50-4c15-865f-e83796dd4da6","ios":"levelo://app?vid=39b9e6f9-7f50-4c15-865f-e83796dd4da6"},"vehicle_type_id":"4","last_reported":1748340712,"current_range_meters":8000,"station_id":"ce4bhih2rcd13ifvqfs0","pricing_plan_id":"cebpf4jnsgd1na2vs0mg"},{"bike_id":"6a80d0cd-0ed1-4299-94b2-c768810a3301","system_id":"levelo_inurba_marseille","lat":43.25927,"lon":5.40921,"is_reserved":false,"is_disabled":false,"rental_uris":{"android":"levelo://app?vid=6a80d0cd-0ed1-4299-94b2-c768810a3301","ios":"levelo://app?vid=6a80d0cd-0ed1-4299-94b2-c768810a3301"},"vehicle_type_id":"4","last_reported":1748340712,"current_range_meters":8000,"station_id":"ce4bhm92rcd13ifvqglg","pricing_plan_id":"cebpf4jnsgd1na2vs0mg"},{"bike_id":"ab38c358-cac1-441f-8c4f-fedc45bd4803","system_id":"levelo_inurba_marseille","lat":43.23137,"lon":5.43719,"is_reserved":false,"is_disabled":false,"rental_uris":{"android":"levelo://app?vid=ab38c358-cac1-441f-8c4f-fedc45bd4803","ios":"levelo://app?vid=ab38c358-cac1-441f-8c4f-fedc45bd4803"},"vehicle_type_id":"4","last_reported":1748340712,"current_range_meters":8000,"station_id":"ce4bhmp2rcd13ifvqgog","pricing_plan_id":"cebpf4jnsgd1na2vs0mg"},{"bike_id":"ba18cbc7-b051-427a-94cc-a2664c88c3a6","system_id":"levelo_inurba_marseille","lat":43.31907,"lon":5.4071,"is_reserved":false,"is_disabled":false,"rental_uris":{"android":"levelo://app?vid=ba18cbc7-b051-427a-94cc-a2664c88c3a6","ios":"levelo://app?vid=ba18cbc7-b051-427a-94cc-a2664c88c3a6"},"vehicle_type_id":"4","last_reported":1748340712,"current_range_meters":8000,"station_id":"ce4bhq12rcd13ifvqhig","pricing_plan_id":"cebpf4jnsgd1na2vs0mg"},{"bike_id":"8654a797-522d-48db-9c8f-3e52a37eb0a7","system_id":"levelo_inurba_marseille","lat":43.24666,"lon":5.38159,"is_reserved":false,"is_disabled":false,"rental_uris":{"android":"levelo://app?vid=8654a797-522d-48db-9c8f-3e52a37eb0a7","ios":"levelo://app?vid=8654a797-522d-48db-9c8f-3e52a37eb0a7"},"vehicle_type_id":"4","last_reported":1748340712,"current_range_meters":8400,"station_id":"","pricing_plan_id":"cebpf4jnsgd1na2vs0mg"},{"bike_id":"cea9d3d1-702c-46d2-a00d-c2d96a27484e","system_id":"levelo_inurba_marseille","lat":43.30556,"lon":5.36525,"is_reserved":false,"is_disabled":false,"rental_uris":{"android":"levelo://app?vid=cea9d3d1-702c-46d2-a00d-c2d96a27484e","ios":"levelo://app?vid=cea9d3d1-702c-46d2-a00d-c2d96a27484e"},"vehicle_type_id":"4","last_reported":1748340712,"current_range_meters":8400,"station_id":"ce4bgs12rcd13ifvqcag","pricing_plan_id":"cebpf4jnsgd1na2vs0mg"},{"bike_id":"201fe9ed-4519-4664-ada5-2deaa830c7e0","system_id":"levelo_inurba_marseille","lat":43.29193,"lon":5.35794,"is_reserved":false,"is_disabled":false,"rental_uris":{"android":"levelo://app?vid=201fe9ed-4519-4664-ada5-2deaa830c7e0","ios":"levelo://app?vid=201fe9ed-4519-4664-ada5-2deaa830c7e0"},"vehicle_type_id":"4","last_reported":1748340712,"current_range_meters":8400,"station_id":"ce4bhb12rcd13ifvqel0","pricing_plan_id":"cebpf4jnsgd1na2vs0mg"},{"bike_id":"90bb2aaf-50c5-426e-b973-128f3143ef50","system_id":"levelo_inurba_marseille","lat":43.29003,"lon":5.3561,"is_reserved":false,"is_disabled":false,"rental_uris":{"android":"levelo://app?vid=90bb2aaf-50c5-426e-b973-128f3143ef50","ios":"levelo://app?vid=90bb2aaf-50c5-426e-b973-128f3143ef50"},"vehicle_type_id":"4","last_reported":1748340712,"current_range_meters":8400,"station_id":"ce4bhb92rcd13ifvqen0","pricing_plan_id":"cebpf4jnsgd1na2vs0mg"},{"bike_id":"fb1a3b4e-0be5-4550-bfd4-854affb491cd","system_id":"levelo_inurba_marseille","lat":43.25926,"lon":5.40907,"is_reserved":false,"is_disabled":false,"rental_uris":{"android":"levelo://app?vid=fb1a3b4e-0be5-4550-bfd4-854affb491cd","ios":"levelo://app?vid=fb1a3b4e-0be5-4550-bfd4-854affb491cd"},"vehicle_type_id":"4","last_reported":1748340712,"current_range_meters":8400,"station_id":"ce4bhm92rcd13ifvqglg","pricing_plan_id":"cebpf4jnsgd1na2vs0mg"},{"bike_id":"179e670b-338a-4c35-90c1-db1256311ade","system_id":"levelo_inurba_marseille","lat":43.23183,"lon":5.39989,"is_reserved":false,"is_disabled":false,"rental_uris":{"android":"levelo://app?vid=179e670b-338a-4c35-90c1-db1256311ade","ios":"levelo://app?vid=179e670b-338a-4c35-90c1-db1256311ade"},"vehicle_type_id":"4","last_reported":1748340712,"current_range_meters":8400,"station_id":"ce4bhn12rcd13ifvqgqg","pricing_plan_id":"cebpf4jnsgd1na2vs0mg"},{"bike_id":"f0ea11cc-6b49-4c9c-90a7-c9e4ead2f0fb","system_id":"levelo_inurba_marseille","lat":43.254969,"lon":5.37649,"is_reserved":false,"is_disabled":false,"rental_uris":{"android":"levelo://app?vid=f0ea11cc-6b49-4c9c-90a7-c9e4ead2f0fb","ios":"levelo://app?vid=f0ea11cc-6b49-4c9c-90a7-c9e4ead2f0fb"},"vehicle_type_id":"4","last_reported":1748340712,"current_range_meters":8800,"station_id":"","pricing_plan_id":"cebpf4jnsgd1na2vs0mg"},{"bike_id":"c77eee7b-99dd-4d03-850f-32671edf74b2","system_id":"levelo_inurba_marseille","lat":43.302066,"lon":5.400682,"is_reserved":false,"is_disabled":false,"rental_uris":{"android":"levelo://app?vid=c77eee7b-99dd-4d03-850f-32671edf74b2","ios":"levelo://app?vid=c77eee7b-99dd-4d03-850f-32671edf74b2"},"vehicle_type_id":"4","last_reported":1748340712,"current_range_meters":8800,"station_id":"ce4bgvh2rcd13ifvqcs0","pricing_plan_id":"cebpf4jnsgd1na2vs0mg"},{"bike_id":"161a16d5-20ae-42d7-91ca-383991f20d8c","system_id":"levelo_inurba_marseille","lat":43.28693,"lon":5.37391,"is_reserved":false,"is_disabled":false,"rental_uris":{"android":"levelo://app?vid=161a16d5-20ae-42d7-91ca-383991f20d8c","ios":"levelo://app?vid=161a16d5-20ae-42d7-91ca-383991f20d8c"},"vehicle_type_id":"4","last_reported":1748340712,"current_range_meters":8800,"station_id":"ce4bh3p2rcd13ifvqdq0","pricing_plan_id":"cebpf4jnsgd1na2vs0mg"},{"bike_id":"6c20acb1-25c9-414d-91e8-cb3caa814195","system_id":"levelo_inurba_marseille","lat":43.2707,"lon":5.42262,"is_reserved":false,"is_disabled":false,"rental_uris":{"android":"levelo://app?vid=6c20acb1-25c9-414d-91e8-cb3caa814195","ios":"levelo://app?vid=6c20acb1-25c9-414d-91e8-cb3caa814195"},"vehicle_type_id":"4","last_reported":1748340712,"current_range_meters":8800,"station_id":"ce4bhk92rcd13ifvqgb0","pricing_plan_id":"cebpf4jnsgd1na2vs0mg"},{"bike_id":"b351c5db-868c-4139-a29e-47665b4d6171","system_id":"levelo_inurba_marseille","lat":43.259289,"lon":5.409026,"is_reserved":false,"is_disabled":false,"rental_uris":{"android":"levelo://app?vid=b351c5db-868c-4139-a29e-47665b4d6171","ios":"levelo://app?vid=b351c5db-868c-4139-a29e-47665b4d6171"},"vehicle_type_id":"4","last_reported":1748340712,"current_range_meters":8800,"station_id":"ce4bhm92rcd13ifvqglg","pricing_plan_id":"cebpf4jnsgd1na2vs0mg"},{"bike_id":"28d55f7a-98cd-4aaa-95b2-35edf61c17cc","system_id":"levelo_inurba_marseille","lat":43.26805,"lon":5.40257,"is_reserved":false,"is_disabled":false,"rental_uris":{"android":"levelo://app?vid=28d55f7a-98cd-4aaa-95b2-35edf61c17cc","ios":"levelo://app?vid=28d55f7a-98cd-4aaa-95b2-35edf61c17cc"},"vehicle_type_id":"4","last_reported":1748340712,"current_range_meters":8800,"station_id":"ce501612rcd8frsf0b60","pricing_plan_id":"cebpf4jnsgd1na2vs0mg"},{"bike_id":"1a0998e5-8bb9-474f-a827-53cad24c9e8f","system_id":"levelo_inurba_marseille","lat":43.320356,"lon":5.449498,"is_reserved":false,"is_disabled":false,"rental_uris":{"android":"levelo://app?vid=1a0998e5-8bb9-474f-a827-53cad24c9e8f","ios":"levelo://app?vid=1a0998e5-8bb9-474f-a827-53cad24c9e8f"},"vehicle_type_id":"4","last_reported":1748340712,"current_range_meters":9200,"station_id":"","pricing_plan_id":"cebpf4jnsgd1na2vs0mg"},{"bike_id":"ae6e6868-2635-4f49-b7c1-b03759c58ec7","system_id":"levelo_inurba_marseille","lat":43.272782,"lon":5.415857,"is_reserved":false,"is_disabled":false,"rental_uris":{"android":"levelo://app?vid=ae6e6868-2635-4f49-b7c1-b03759c58ec7","ios":"levelo://app?vid=ae6e6868-2635-4f49-b7c1-b03759c58ec7"},"vehicle_type_id":"4","last_reported":1748340712,"current_range_meters":9200,"station_id":"","pricing_plan_id":"cebpf4jnsgd1na2vs0mg"},{"bike_id":"5c410044-783a-4bf0-a539-9010017a1490","system_id":"levelo_inurba_marseille","lat":43.27069,"lon":5.42278,"is_reserved":false,"is_disabled":false,"rental_uris":{"android":"levelo://app?vid=5c410044-783a-4bf0-a539-9010017a1490","ios":"levelo://app?vid=5c410044-783a-4bf0-a539-9010017a1490"},"vehicle_type_id":"4","last_reported":1748340712,"current_range_meters":9200,"station_id":"ce4bhk92rcd13ifvqgb0","pricing_plan_id":"cebpf4jnsgd1na2vs0mg"},{"bike_id":"58deb834-310a-4184-a3a3-8095fc8bd715","system_id":"levelo_inurba_marseille","lat":43.25721,"lon":5.41113,"is_reserved":false,"is_disabled":false,"rental_uris":{"android":"levelo://app?vid=58deb834-310a-4184-a3a3-8095fc8bd715","ios":"levelo://app?vid=58deb834-310a-4184-a3a3-8095fc8bd715"},"vehicle_type_id":"4","last_reported":1748340712,"current_range_meters":9200,"station_id":"ce4bhkp2rcd13ifvqgd0","pricing_plan_id":"cebpf4jnsgd1na2vs0mg"},{"bike_id":"b36d6891-4c30-4070-b13d-5c313b80adf0","system_id":"levelo_inurba_marseille","lat":43.23148,"lon":5.43705,"is_reserved":false,"is_disabled":false,"rental_uris":{"android":"levelo://app?vid=b36d6891-4c30-4070-b13d-5c313b80adf0","ios":"levelo://app?vid=b36d6891-4c30-4070-b13d-5c313b80adf0"},"vehicle_type_id":"4","last_reported":1748340712,"current_range_meters":9200,"station_id":"ce4bhmp2rcd13ifvqgog","pricing_plan_id":"cebpf4jnsgd1na2vs0mg"},{"bike_id":"f6a291c8-009c-4799-858f-3d0684b35fea","system_id":"levelo_inurba_marseille","lat":43.23123,"lon":5.43679,"is_reserved":false,"is_disabled":false,"rental_uris":{"android":"levelo://app?vid=f6a291c8-009c-4799-858f-3d0684b35fea","ios":"levelo://app?vid=f6a291c8-009c-4799-858f-3d0684b35fea"},"vehicle_type_id":"4","last_reported":1748340712,"current_range_meters":9200,"station_id":"ce4bhmp2rcd13ifvqgog","pricing_plan_id":"cebpf4jnsgd1na2vs0mg"},{"bike_id":"5e8d4f34-39c8-4911-92c6-fe295bc454c6","system_id":"levelo_inurba_marseille","lat":43.29621,"lon":5.37161,"is_reserved":false,"is_disabled":false,"rental_uris":{"android":"levelo://app?vid=5e8d4f34-39c8-4911-92c6-fe295bc454c6","ios":"levelo://app?vid=5e8d4f34-39c8-4911-92c6-fe295bc454c6"},"vehicle_type_id":"4","last_reported":1748340712,"current_range_meters":9600,"station_id":"ce4bgnh2rcd13ifvqc0g","pricing_plan_id":"cebpf4jnsgd1na2vs0mg"},{"bike_id":"7cc3a723-8eb2-4746-83d4-a4a1b58fb8de","system_id":"levelo_inurba_marseille","lat":43.30251,"lon":5.40057,"is_reserved":false,"is_disabled":false,"rental_uris":{"android":"levelo://app?vid=7cc3a723-8eb2-4746-83d4-a4a1b58fb8de","ios":"levelo://app?vid=7cc3a723-8eb2-4746-83d4-a4a1b58fb8de"},"vehicle_type_id":"4","last_reported":1748340712,"current_range_meters":9600,"station_id":"ce4bgvh2rcd13ifvqcs0","pricing_plan_id":"cebpf4jnsgd1na2vs0mg"},{"bike_id":"de7de93d-7329-426c-a55a-9e1f5b37f3bc","system_id":"levelo_inurba_marseille","lat":43.30174,"lon":5.37434,"is_reserved":false,"is_disabled":false,"rental_uris":{"android":"levelo://app?vid=de7de93d-7329-426c-a55a-9e1f5b37f3bc","ios":"levelo://app?vid=de7de93d-7329-426c-a55a-9e1f5b37f3bc"},"vehicle_type_id":"4","last_reported":1748340712,"current_range_meters":10000,"station_id":"ce4bgs92rcd13ifvqcc0","pricing_plan_id":"cebpf4jnsgd1na2vs0mg"},{"bike_id":"d837e779-67af-4960-9256-f8664dc63886","system_id":"levelo_inurba_marseille","lat":43.30426,"lon":5.39763,"is_reserved":false,"is_disabled":false,"rental_uris":{"android":"levelo://app?vid=d837e779-67af-4960-9256-f8664dc63886","ios":"levelo://app?vid=d837e779-67af-4960-9256-f8664dc63886"},"vehicle_type_id":"4","last_reported":1748340712,"current_range_meters":10000,"station_id":"ce4bh092rcd13ifvqd20","pricing_plan_id":"cebpf4jnsgd1na2vs0mg"},{"bike_id":"229194fe-ea55-44e7-82b9-887f5213f41f","system_id":"levelo_inurba_marseille","lat":43.28455,"lon":5.35896,"is_reserved":false,"is_disabled":false,"rental_uris":{"android":"levelo://app?vid=229194fe-ea55-44e7-82b9-887f5213f41f","ios":"levelo://app?vid=229194fe-ea55-44e7-82b9-887f5213f41f"},"vehicle_type_id":"4","last_reported":1748340712,"current_range_meters":10000,"station_id":"ce4bhah2rcd13ifvqei0","pricing_plan_id":"cebpf4jnsgd1na2vs0mg"},{"bike_id":"905c16b8-c272-4d06-94b0-b90d2cba5511","system_id":"levelo_inurba_marseille","lat":43.29004,"lon":5.35615,"is_reserved":false,"is_disabled":false,"rental_uris":{"android":"levelo://app?vid=905c16b8-c272-4d06-94b0-b90d2cba5511","ios":"levelo://app?vid=905c16b8-c272-4d06-94b0-b90d2cba5511"},"vehicle_type_id":"4","last_reported":1748340712,"current_range_meters":10000,"station_id":"ce4bhb92rcd13ifvqen0","pricing_plan_id":"cebpf4jnsgd1na2vs0mg"},{"bike_id":"7e3fffbc-5a0f-4ece-b481-63e40e5aabfe","system_id":"levelo_inurba_marseille","lat":43.337244,"lon":5.391857,"is_reserved":false,"is_disabled":false,"rental_uris":{"android":"levelo://app?vid=7e3fffbc-5a0f-4ece-b481-63e40e5aabfe","ios":"levelo://app?vid=7e3fffbc-5a0f-4ece-b481-63e40e5aabfe"},"vehicle_type_id":"4","last_reported":1748340712,"current_range_meters":10000,"station_id":"ce4bhr92rcd13ifvqhsg","pricing_plan_id":"cebpf4jnsgd1na2vs0mg"},{"bike_id":"6ef27e84-462a-46f9-afe5-e09b209cc7f0","system_id":"levelo_inurba_marseille","lat":43.33114,"lon":5.36197,"is_reserved":false,"is_disabled":false,"rental_uris":{"android":"levelo://app?vid=6ef27e84-462a-46f9-afe5-e09b209cc7f0","ios":"levelo://app?vid=6ef27e84-462a-46f9-afe5-e09b209cc7f0"},"vehicle_type_id":"4","last_reported":1748340712,"current_range_meters":10800,"station_id":"","pricing_plan_id":"cebpf4jnsgd1na2vs0mg"},{"bike_id":"d83eef65-072a-4ce2-aebe-0c714ccc6411","system_id":"levelo_inurba_marseille","lat":43.27903,"lon":5.39593,"is_reserved":false,"is_disabled":false,"rental_uris":{"android":"levelo://app?vid=d83eef65-072a-4ce2-aebe-0c714ccc6411","ios":"levelo://app?vid=d83eef65-072a-4ce2-aebe-0c714ccc6411"},"vehicle_type_id":"4","last_reported":1748340712,"current_range_meters":10800,"station_id":"ce4bhf92rcd13ifvqf40","pricing_plan_id":"cebpf4jnsgd1na2vs0mg"},{"bike_id":"1a775a5e-1792-4706-b4f6-ec50ef749d53","system_id":"levelo_inurba_marseille","lat":43.255796,"lon":5.38223,"is_reserved":false,"is_disabled":false,"rental_uris":{"android":"levelo://app?vid=1a775a5e-1792-4706-b4f6-ec50ef749d53","ios":"levelo://app?vid=1a775a5e-1792-4706-b4f6-ec50ef749d53"},"vehicle_type_id":"4","last_reported":1748340712,"current_range_meters":10800,"station_id":"ce4bhih2rcd13ifvqfs0","pricing_plan_id":"cebpf4jnsgd1na2vs0mg"},{"bike_id":"cd431521-2266-4f45-ac9a-95e56b6903c9","system_id":"levelo_inurba_marseille","lat":43.24174,"lon":5.39718,"is_reserved":false,"is_disabled":false,"rental_uris":{"android":"levelo://app?vid=cd431521-2266-4f45-ac9a-95e56b6903c9","ios":"levelo://app?vid=cd431521-2266-4f45-ac9a-95e56b6903c9"},"vehicle_type_id":"4","last_reported":1748340712,"current_range_meters":10800,"station_id":"ce4bhn12rcd13ifvqgpg","pricing_plan_id":"cebpf4jnsgd1na2vs0mg"},{"bike_id":"f9a1ccb4-eefa-4aee-bcfd-72472de0c30f","system_id":"levelo_inurba_marseille","lat":43.29245,"lon":5.3763,"is_reserved":false,"is_disabled":false,"rental_uris":{"android":"levelo://app?vid=f9a1ccb4-eefa-4aee-bcfd-72472de0c30f","ios":"levelo://app?vid=f9a1ccb4-eefa-4aee-bcfd-72472de0c30f"},"vehicle_type_id":"4","last_reported":1748340712,"current_range_meters":11200,"station_id":"ce4bgi12rcd13ifvqb80","pricing_plan_id":"cebpf4jnsgd1na2vs0mg"},{"bike_id":"5f9391d7-2924-464d-abdc-d40ada4b1c07","system_id":"levelo_inurba_marseille","lat":43.30133,"lon":5.37417,"is_reserved":false,"is_disabled":false,"rental_uris":{"android":"levelo://app?vid=5f9391d7-2924-464d-abdc-d40ada4b1c07","ios":"levelo://app?vid=5f9391d7-2924-464d-abdc-d40ada4b1c07"},"vehicle_type_id":"4","last_reported":1748340712,"current_range_meters":11200,"station_id":"ce4bgs92rcd13ifvqcc0","pricing_plan_id":"cebpf4jnsgd1na2vs0mg"},{"bike_id":"615f0125-b053-434c-b183-23ab1b4c0edc","system_id":"levelo_inurba_marseille","lat":43.27968,"lon":5.38724,"is_reserved":false,"is_disabled":false,"rental_uris":{"android":"levelo://app?vid=615f0125-b053-434c-b183-23ab1b4c0edc","ios":"levelo://app?vid=615f0125-b053-434c-b183-23ab1b4c0edc"},"vehicle_type_id":"4","last_reported":1748340712,"current_range_meters":11200,"station_id":"ce4bhg12rcd13ifvqf80","pricing_plan_id":"cebpf4jnsgd1na2vs0mg"},{"bike_id":"48cd0317-1c6f-4804-9cd1-21cb1ebe5af3","system_id":"levelo_inurba_marseille","lat":43.25491,"lon":5.37635,"is_reserved":false,"is_disabled":false,"rental_uris":{"android":"levelo://app?vid=48cd0317-1c6f-4804-9cd1-21cb1ebe5af3","ios":"levelo://app?vid=48cd0317-1c6f-4804-9cd1-21cb1ebe5af3"},"vehicle_type_id":"4","last_reported":1748340712,"current_range_meters":11200,"station_id":"ce4bhh12rcd13ifvqff0","pricing_plan_id":"cebpf4jnsgd1na2vs0mg"},{"bike_id":"574a5384-3718-4ee1-ac7a-c93ae74144c2","system_id":"levelo_inurba_marseille","lat":43.25568,"lon":5.38226,"is_reserved":false,"is_disabled":false,"rental_uris":{"android":"levelo://app?vid=574a5384-3718-4ee1-ac7a-c93ae74144c2","ios":"levelo://app?vid=574a5384-3718-4ee1-ac7a-c93ae74144c2"},"vehicle_type_id":"4","last_reported":1748340712,"current_range_meters":11200,"station_id":"ce4bhih2rcd13ifvqfs0","pricing_plan_id":"cebpf4jnsgd1na2vs0mg"},{"bike_id":"3d7ac9f3-e7bd-49c5-babc-b1f73503bf56","system_id":"levelo_inurba_marseille","lat":43.28077,"lon":5.39657,"is_reserved":false,"is_disabled":false,"rental_uris":{"android":"levelo://app?vid=3d7ac9f3-e7bd-49c5-babc-b1f73503bf56","ios":"levelo://app?vid=3d7ac9f3-e7bd-49c5-babc-b1f73503bf56"},"vehicle_type_id":"4","last_reported":1748340712,"current_range_meters":11200,"station_id":"ce4bho12rcd13ifvqh2g","pricing_plan_id":"cebpf4jnsgd1na2vs0mg"},{"bike_id":"e6c65de3-7d92-4979-809c-6677188473c0","system_id":"levelo_inurba_marseille","lat":43.337598,"lon":5.374632,"is_reserved":false,"is_disabled":false,"rental_uris":{"android":"levelo://app?vid=e6c65de3-7d92-4979-809c-6677188473c0","ios":"levelo://app?vid=e6c65de3-7d92-4979-809c-6677188473c0"},"vehicle_type_id":"4","last_reported":1748340712,"current_range_meters":11600,"station_id":"","pricing_plan_id":"cebpf4jnsgd1na2vs0mg"},{"bike_id":"2a046dee-b3af-48c9-9659-b7d30ba20af5","system_id":"levelo_inurba_marseille","lat":43.24318,"lon":5.37977,"is_reserved":false,"is_disabled":false,"rental_uris":{"android":"levelo://app?vid=2a046dee-b3af-48c9-9659-b7d30ba20af5","ios":"levelo://app?vid=2a046dee-b3af-48c9-9659-b7d30ba20af5"},"vehicle_type_id":"4","last_reported":1748340712,"current_range_meters":11600,"station_id":"","pricing_plan_id":"cebpf4jnsgd1na2vs0mg"},{"bike_id":"7c6e591e-09f5-445f-85c0-1ea557a12752","system_id":"levelo_inurba_marseille","lat":43.29052,"lon":5.35915,"is_reserved":false,"is_disabled":false,"rental_uris":{"android":"levelo://app?vid=7c6e591e-09f5-445f-85c0-1ea557a12752","ios":"levelo://app?vid=7c6e591e-09f5-445f-85c0-1ea557a12752"},"vehicle_type_id":"4","last_reported":1748340712,"current_range_meters":11600,"station_id":"ce4bha92rcd13ifvqeg0","pricing_plan_id":"cebpf4jnsgd1na2vs0mg"},{"bike_id":"26cefabb-6a16-41aa-96ef-b636f51d675a","system_id":"levelo_inurba_marseille","lat":43.23153,"lon":5.43714,"is_reserved":false,"is_disabled":false,"rental_uris":{"android":"levelo://app?vid=26cefabb-6a16-41aa-96ef-b636f51d675a","ios":"levelo://app?vid=26cefabb-6a16-41aa-96ef-b636f51d675a"},"vehicle_type_id":"4","last_reported":1748340712,"current_range_meters":11600,"station_id":"ce4bhmp2rcd13ifvqgog","pricing_plan_id":"cebpf4jnsgd1na2vs0mg"},{"bike_id":"5a5d3cd9-43c9-4580-afc1-94b3cc3c8454","system_id":"levelo_inurba_marseille","lat":43.23139,"lon":5.437,"is_reserved":false,"is_disabled":false,"rental_uris":{"android":"levelo://app?vid=5a5d3cd9-43c9-4580-afc1-94b3cc3c8454","ios":"levelo://app?vid=5a5d3cd9-43c9-4580-afc1-94b3cc3c8454"},"vehicle_type_id":"4","last_reported":1748340712,"current_range_meters":11600,"station_id":"ce4bhmp2rcd13ifvqgog","pricing_plan_id":"cebpf4jnsgd1na2vs0mg"},{"bike_id":"82e61e28-6553-43b1-802a-e27fca196057","system_id":"levelo_inurba_marseille","lat":43.23185,"lon":5.39968,"is_reserved":false,"is_disabled":false,"rental_uris":{"android":"levelo://app?vid=82e61e28-6553-43b1-802a-e27fca196057","ios":"levelo://app?vid=82e61e28-6553-43b1-802a-e27fca196057"},"vehicle_type_id":"4","last_reported":1748340712,"current_range_meters":11600,"station_id":"ce4bhn12rcd13ifvqgqg","pricing_plan_id":"cebpf4jnsgd1na2vs0mg"},{"bike_id":"3f855aa9-a03a-4d28-bbc8-2f3b26d07315","system_id":"levelo_inurba_marseille","lat":43.22938,"lon":5.35357,"is_reserved":false,"is_disabled":false,"rental_uris":{"android":"levelo://app?vid=3f855aa9-a03a-4d28-bbc8-2f3b26d07315","ios":"levelo://app?vid=3f855aa9-a03a-4d28-bbc8-2f3b26d07315"},"vehicle_type_id":"4","last_reported":1748340712,"current_range_meters":11600,"station_id":"cpo3532slgdg3j2ikp40","pricing_plan_id":"cebpf4jnsgd1na2vs0mg"},{"bike_id":"f9983f5d-2ff3-4428-9418-c52921c46658","system_id":"levelo_inurba_marseille","lat":43.3073,"lon":5.42439,"is_reserved":false,"is_disabled":false,"rental_uris":{"android":"levelo://app?vid=f9983f5d-2ff3-4428-9418-c52921c46658","ios":"levelo://app?vid=f9983f5d-2ff3-4428-9418-c52921c46658"},"vehicle_type_id":"4","last_reported":1748340712,"current_range_meters":11600,"station_id":"st_cvj6ca6bvosntc0bfgr0","pricing_plan_id":"cebpf4jnsgd1na2vs0mg"},{"bike_id":"17b0d8ff-aa28-408b-9628-4a545be2c769","system_id":"levelo_inurba_marseille","lat":43.31934,"lon":5.37999,"is_reserved":false,"is_disabled":false,"rental_uris":{"android":"levelo://app?vid=17b0d8ff-aa28-408b-9628-4a545be2c769","ios":"levelo://app?vid=17b0d8ff-aa28-408b-9628-4a545be2c769"},"vehicle_type_id":"4","last_reported":1748340712,"current_range_meters":12000,"station_id":"","pricing_plan_id":"cebpf4jnsgd1na2vs0mg"},{"bike_id":"e2dbc778-4e93-4bcb-881b-2b7d7336accd","system_id":"levelo_inurba_marseille","lat":43.26558,"lon":5.3728,"is_reserved":false,"is_disabled":false,"rental_uris":{"android":"levelo://app?vid=e2dbc778-4e93-4bcb-881b-2b7d7336accd","ios":"levelo://app?vid=e2dbc778-4e93-4bcb-881b-2b7d7336accd"},"vehicle_type_id":"4","last_reported":1748340712,"current_range_meters":12000,"station_id":"ce4bhg12rcd13ifvqf70","pricing_plan_id":"cebpf4jnsgd1na2vs0mg"},{"bike_id":"2a9b9f6f-e086-4a48-b343-0410abb19aae","system_id":"levelo_inurba_marseille","lat":43.2591,"lon":5.40879,"is_reserved":false,"is_disabled":false,"rental_uris":{"android":"levelo://app?vid=2a9b9f6f-e086-4a48-b343-0410abb19aae","ios":"levelo://app?vid=2a9b9f6f-e086-4a48-b343-0410abb19aae"},"vehicle_type_id":"4","last_reported":1748340712,"current_range_meters":12000,"station_id":"ce4bhm92rcd13ifvqglg","pricing_plan_id":"cebpf4jnsgd1na2vs0mg"},{"bike_id":"6b482028-512e-4dbe-b943-3138dd0f6f46","system_id":"levelo_inurba_marseille","lat":43.29683,"lon":5.36882,"is_reserved":false,"is_disabled":false,"rental_uris":{"android":"levelo://app?vid=6b482028-512e-4dbe-b943-3138dd0f6f46","ios":"levelo://app?vid=6b482028-512e-4dbe-b943-3138dd0f6f46"},"vehicle_type_id":"4","last_reported":1748340712,"current_range_meters":12400,"station_id":"","pricing_plan_id":"cebpf4jnsgd1na2vs0mg"},{"bike_id":"f7dc54fc-d31f-4da9-b1f8-48c21978e801","system_id":"levelo_inurba_marseille","lat":43.30541,"lon":5.36515,"is_reserved":false,"is_disabled":false,"rental_uris":{"android":"levelo://app?vid=f7dc54fc-d31f-4da9-b1f8-48c21978e801","ios":"levelo://app?vid=f7dc54fc-d31f-4da9-b1f8-48c21978e801"},"vehicle_type_id":"4","last_reported":1748340712,"current_range_meters":12400,"station_id":"ce4bgs12rcd13ifvqcag","pricing_plan_id":"cebpf4jnsgd1na2vs0mg"},{"bike_id":"a3a1e2f8-c082-4657-9cf8-ceb282e14a71","system_id":"levelo_inurba_marseille","lat":43.23193,"lon":5.39984,"is_reserved":false,"is_disabled":false,"rental_uris":{"android":"levelo://app?vid=a3a1e2f8-c082-4657-9cf8-ceb282e14a71","ios":"levelo://app?vid=a3a1e2f8-c082-4657-9cf8-ceb282e14a71"},"vehicle_type_id":"4","last_reported":1748340712,"current_range_meters":12400,"station_id":"ce4bhn12rcd13ifvqgqg","pricing_plan_id":"cebpf4jnsgd1na2vs0mg"},{"bike_id":"ceb81090-b40e-47dd-bc35-8598d269ef58","system_id":"levelo_inurba_marseille","lat":43.26663,"lon":5.38431,"is_reserved":false,"is_disabled":false,"rental_uris":{"android":"levelo://app?vid=ceb81090-b40e-47dd-bc35-8598d269ef58","ios":"levelo://app?vid=ceb81090-b40e-47dd-bc35-8598d269ef58"},"vehicle_type_id":"4","last_reported":1748340712,"current_range_meters":12800,"station_id":"","pricing_plan_id":"cebpf4jnsgd1na2vs0mg"},{"bike_id":"0551cf91-8408-4c9b-825e-b0d4658b156c","system_id":"levelo_inurba_marseille","lat":43.3059,"lon":5.39354,"is_reserved":false,"is_disabled":false,"rental_uris":{"android":"levelo://app?vid=0551cf91-8408-4c9b-825e-b0d4658b156c","ios":"levelo://app?vid=0551cf91-8408-4c9b-825e-b0d4658b156c"},"vehicle_type_id":"4","last_reported":1748340712,"current_range_meters":12800,"station_id":"ce4bh0p2rcd13ifvqd80","pricing_plan_id":"cebpf4jnsgd1na2vs0mg"},{"bike_id":"e02448a0-3844-4145-b6e3-b327403c02f6","system_id":"levelo_inurba_marseille","lat":43.25926,"lon":5.40898,"is_reserved":false,"is_disabled":false,"rental_uris":{"android":"levelo://app?vid=e02448a0-3844-4145-b6e3-b327403c02f6","ios":"levelo://app?vid=e02448a0-3844-4145-b6e3-b327403c02f6"},"vehicle_type_id":"4","last_reported":1748340712,"current_range_meters":12800,"station_id":"ce4bhm92rcd13ifvqglg","pricing_plan_id":"cebpf4jnsgd1na2vs0mg"},{"bike_id":"3f1c2676-c3e9-4a42-a936-f25869d92038","system_id":"levelo_inurba_marseille","lat":43.28159,"lon":5.42608,"is_reserved":false,"is_disabled":false,"rental_uris":{"android":"levelo://app?vid=3f1c2676-c3e9-4a42-a936-f25869d92038","ios":"levelo://app?vid=3f1c2676-c3e9-4a42-a936-f25869d92038"},"vehicle_type_id":"4","last_reported":1748340712,"current_range_meters":12800,"station_id":"ce4bhnh2rcd13ifvqgug","pricing_plan_id":"cebpf4jnsgd1na2vs0mg"},{"bike_id":"75c77fc0-b5b2-4e32-a3cb-6ea0da5840a6","system_id":"levelo_inurba_marseille","lat":43.28704,"lon":5.39995,"is_reserved":false,"is_disabled":false,"rental_uris":{"android":"levelo://app?vid=75c77fc0-b5b2-4e32-a3cb-6ea0da5840a6","ios":"levelo://app?vid=75c77fc0-b5b2-4e32-a3cb-6ea0da5840a6"},"vehicle_type_id":"4","last_reported":1748340712,"current_range_meters":12800,"station_id":"ce4bho92rcd13ifvqh3g","pricing_plan_id":"cebpf4jnsgd1na2vs0mg"},{"bike_id":"be7f764e-2984-4a0e-98c1-6f463f735013","system_id":"levelo_inurba_marseille","lat":43.32309,"lon":5.41351,"is_reserved":false,"is_disabled":false,"rental_uris":{"android":"levelo://app?vid=be7f764e-2984-4a0e-98c1-6f463f735013","ios":"levelo://app?vid=be7f764e-2984-4a0e-98c1-6f463f735013"},"vehicle_type_id":"4","last_reported":1748340712,"current_range_meters":12800,"station_id":"ce4bhq12rcd13ifvqhhg","pricing_plan_id":"cebpf4jnsgd1na2vs0mg"},{"bike_id":"e5c82b4c-e30f-487a-ae65-76f66da567ea","system_id":"levelo_inurba_marseille","lat":43.32344,"lon":5.36716,"is_reserved":false,"is_disabled":false,"rental_uris":{"android":"levelo://app?vid=e5c82b4c-e30f-487a-ae65-76f66da567ea","ios":"levelo://app?vid=e5c82b4c-e30f-487a-ae65-76f66da567ea"},"vehicle_type_id":"4","last_reported":1748340712,"current_range_meters":12800,"station_id":"ce4bhsh2rcd13ifvqi2g","pricing_plan_id":"cebpf4jnsgd1na2vs0mg"},{"bike_id":"37f0770d-8337-46b7-828b-992de5e447e4","system_id":"levelo_inurba_marseille","lat":43.29305,"lon":5.37153,"is_reserved":false,"is_disabled":false,"rental_uris":{"android":"levelo://app?vid=37f0770d-8337-46b7-828b-992de5e447e4","ios":"levelo://app?vid=37f0770d-8337-46b7-828b-992de5e447e4"},"vehicle_type_id":"4","last_reported":1748340712,"current_range_meters":13600,"station_id":"ce4bgh92rcd13ifvqb40","pricing_plan_id":"cebpf4jnsgd1na2vs0mg"},{"bike_id":"574f6f77-89cd-4298-bae3-ac2053d069dd","system_id":"levelo_inurba_marseille","lat":43.30462,"lon":5.37896,"is_reserved":false,"is_disabled":false,"rental_uris":{"android":"levelo://app?vid=574f6f77-89cd-4298-bae3-ac2053d069dd","ios":"levelo://app?vid=574f6f77-89cd-4298-bae3-ac2053d069dd"},"vehicle_type_id":"4","last_reported":1748340712,"current_range_meters":13600,"station_id":"ce4bgup2rcd13ifvqcn0","pricing_plan_id":"cebpf4jnsgd1na2vs0mg"},{"bike_id":"2a309120-3fbb-4e5f-aee9-d0eab93b58c6","system_id":"levelo_inurba_marseille","lat":43.25493,"lon":5.37645,"is_reserved":false,"is_disabled":false,"rental_uris":{"android":"levelo://app?vid=2a309120-3fbb-4e5f-aee9-d0eab93b58c6","ios":"levelo://app?vid=2a309120-3fbb-4e5f-aee9-d0eab93b58c6"},"vehicle_type_id":"4","last_reported":1748340712,"current_range_meters":13600,"station_id":"ce4bhh12rcd13ifvqff0","pricing_plan_id":"cebpf4jnsgd1na2vs0mg"},{"bike_id":"0faa77cd-73c9-4445-b2e2-e790c9db7859","system_id":"levelo_inurba_marseille","lat":43.25583,"lon":5.38223,"is_reserved":false,"is_disabled":false,"rental_uris":{"android":"levelo://app?vid=0faa77cd-73c9-4445-b2e2-e790c9db7859","ios":"levelo://app?vid=0faa77cd-73c9-4445-b2e2-e790c9db7859"},"vehicle_type_id":"4","last_reported":1748340712,"current_range_meters":13600,"station_id":"ce4bhih2rcd13ifvqfs0","pricing_plan_id":"cebpf4jnsgd1na2vs0mg"},{"bike_id":"54d54403-4df4-448b-b522-41aee07a2743","system_id":"levelo_inurba_marseille","lat":43.29853,"lon":5.36285,"is_reserved":false,"is_disabled":false,"rental_uris":{"android":"levelo://app?vid=54d54403-4df4-448b-b522-41aee07a2743","ios":"levelo://app?vid=54d54403-4df4-448b-b522-41aee07a2743"},"vehicle_type_id":"4","last_reported":1748340712,"current_range_meters":14000,"station_id":"ce4bgpp2rcd13ifvqc3g","pricing_plan_id":"cebpf4jnsgd1na2vs0mg"},{"bike_id":"dc14e786-376f-4808-b840-5153314baf38","system_id":"levelo_inurba_marseille","lat":43.28353,"lon":5.38102,"is_reserved":false,"is_disabled":false,"rental_uris":{"android":"levelo://app?vid=dc14e786-376f-4808-b840-5153314baf38","ios":"levelo://app?vid=dc14e786-376f-4808-b840-5153314baf38"},"vehicle_type_id":"4","last_reported":1748340712,"current_range_meters":14000,"station_id":"ce4bh412rcd13ifvqdr0","pricing_plan_id":"cebpf4jnsgd1na2vs0mg"},{"bike_id":"03a878d5-7464-43c2-bb12-8804355fff55","system_id":"levelo_inurba_marseille","lat":43.25577,"lon":5.38232,"is_reserved":false,"is_disabled":false,"rental_uris":{"android":"levelo://app?vid=03a878d5-7464-43c2-bb12-8804355fff55","ios":"levelo://app?vid=03a878d5-7464-43c2-bb12-8804355fff55"},"vehicle_type_id":"4","last_reported":1748340712,"current_range_meters":14000,"station_id":"ce4bhih2rcd13ifvqfs0","pricing_plan_id":"cebpf4jnsgd1na2vs0mg"},{"bike_id":"ade626e2-c9d9-42b7-b26b-cdded97b1af7","system_id":"levelo_inurba_marseille","lat":43.25935,"lon":5.40945,"is_reserved":false,"is_disabled":false,"rental_uris":{"android":"levelo://app?vid=ade626e2-c9d9-42b7-b26b-cdded97b1af7","ios":"levelo://app?vid=ade626e2-c9d9-42b7-b26b-cdded97b1af7"},"vehicle_type_id":"4","last_reported":1748340712,"current_range_meters":14000,"station_id":"ce4bhm92rcd13ifvqglg","pricing_plan_id":"cebpf4jnsgd1na2vs0mg"},{"bike_id":"91778dc6-5ac3-4d73-a11f-9b1ddc717184","system_id":"levelo_inurba_marseille","lat":43.23182,"lon":5.39968,"is_reserved":false,"is_disabled":false,"rental_uris":{"android":"levelo://app?vid=91778dc6-5ac3-4d73-a11f-9b1ddc717184","ios":"levelo://app?vid=91778dc6-5ac3-4d73-a11f-9b1ddc717184"},"vehicle_type_id":"4","last_reported":1748340712,"current_range_meters":14000,"station_id":"ce4bhn12rcd13ifvqgqg","pricing_plan_id":"cebpf4jnsgd1na2vs0mg"},{"bike_id":"a40588ee-00f9-4620-a7e7-03b577ebbb6e","system_id":"levelo_inurba_marseille","lat":43.23194,"lon":5.39983,"is_reserved":false,"is_disabled":false,"rental_uris":{"android":"levelo://app?vid=a40588ee-00f9-4620-a7e7-03b577ebbb6e","ios":"levelo://app?vid=a40588ee-00f9-4620-a7e7-03b577ebbb6e"},"vehicle_type_id":"4","last_reported":1748340712,"current_range_meters":14000,"station_id":"ce4bhn12rcd13ifvqgqg","pricing_plan_id":"cebpf4jnsgd1na2vs0mg"},{"bike_id":"23c71bd3-bf6e-435b-b9e7-e4933e1bbf0e","system_id":"levelo_inurba_marseille","lat":43.280013,"lon":5.416621,"is_reserved":false,"is_disabled":false,"rental_uris":{"android":"levelo://app?vid=23c71bd3-bf6e-435b-b9e7-e4933e1bbf0e","ios":"levelo://app?vid=23c71bd3-bf6e-435b-b9e7-e4933e1bbf0e"},"vehicle_type_id":"4","last_reported":1748340712,"current_range_meters":14000,"station_id":"ce4bho12rcd13ifvqh1g","pricing_plan_id":"cebpf4jnsgd1na2vs0mg"},{"bike_id":"064e6fa0-0d7c-4ec8-b1ad-7f69178c75b7","system_id":"levelo_inurba_marseille","lat":43.29899,"lon":5.436764,"is_reserved":false,"is_disabled":false,"rental_uris":{"android":"levelo://app?vid=064e6fa0-0d7c-4ec8-b1ad-7f69178c75b7","ios":"levelo://app?vid=064e6fa0-0d7c-4ec8-b1ad-7f69178c75b7"},"vehicle_type_id":"4","last_reported":1748340712,"current_range_meters":14000,"station_id":"ce4bhpp2rcd13ifvqhfg","pricing_plan_id":"cebpf4jnsgd1na2vs0mg"},{"bike_id":"973ee30b-9f6f-411e-8470-8c0f868b3c62","system_id":"levelo_inurba_marseille","lat":43.23062,"lon":5.35493,"is_reserved":false,"is_disabled":false,"rental_uris":{"android":"levelo://app?vid=973ee30b-9f6f-411e-8470-8c0f868b3c62","ios":"levelo://app?vid=973ee30b-9f6f-411e-8470-8c0f868b3c62"},"vehicle_type_id":"4","last_reported":1748340712,"current_range_meters":14000,"station_id":"cpo3342slgdg3j2ifvpg","pricing_plan_id":"cebpf4jnsgd1na2vs0mg"},{"bike_id":"c496a8dc-a9ff-46b9-a201-777f552ac51a","system_id":"levelo_inurba_marseille","lat":43.27938,"lon":5.41045,"is_reserved":false,"is_disabled":false,"rental_uris":{"android":"levelo://app?vid=c496a8dc-a9ff-46b9-a201-777f552ac51a","ios":"levelo://app?vid=c496a8dc-a9ff-46b9-a201-777f552ac51a"},"vehicle_type_id":"4","last_reported":1748340712,"current_range_meters":14400,"station_id":"ce4bhnp2rcd13ifvqh0g","pricing_plan_id":"cebpf4jnsgd1na2vs0mg"},{"bike_id":"56303e41-2b27-4d35-8ea7-4c7f6f219c1a","system_id":"levelo_inurba_marseille","lat":43.21753,"lon":5.34602,"is_reserved":false,"is_disabled":false,"rental_uris":{"android":"levelo://app?vid=56303e41-2b27-4d35-8ea7-4c7f6f219c1a","ios":"levelo://app?vid=56303e41-2b27-4d35-8ea7-4c7f6f219c1a"},"vehicle_type_id":"4","last_reported":1748340712,"current_range_meters":14800,"station_id":"","pricing_plan_id":"cebpf4jnsgd1na2vs0mg"},{"bike_id":"980e8cca-89ef-4b30-82fe-412e2b552861","system_id":"levelo_inurba_marseille","lat":43.31232,"lon":5.36838,"is_reserved":false,"is_disabled":false,"rental_uris":{"android":"levelo://app?vid=980e8cca-89ef-4b30-82fe-412e2b552861","ios":"levelo://app?vid=980e8cca-89ef-4b30-82fe-412e2b552861"},"vehicle_type_id":"4","last_reported":1748340712,"current_range_meters":14800,"station_id":"ce4bgl92rcd13ifvqbq0","pricing_plan_id":"cebpf4jnsgd1na2vs0mg"},{"bike_id":"01fb0934-c8b9-4fd3-a118-fc6aab7694f9","system_id":"levelo_inurba_marseille","lat":43.30544,"lon":5.36584,"is_reserved":false,"is_disabled":false,"rental_uris":{"android":"levelo://app?vid=01fb0934-c8b9-4fd3-a118-fc6aab7694f9","ios":"levelo://app?vid=01fb0934-c8b9-4fd3-a118-fc6aab7694f9"},"vehicle_type_id":"4","last_reported":1748340712,"current_range_meters":14800,"station_id":"ce4bgs12rcd13ifvqcag","pricing_plan_id":"cebpf4jnsgd1na2vs0mg"},{"bike_id":"cce402bc-3d68-4988-a141-10b109e58c4c","system_id":"levelo_inurba_marseille","lat":43.29193,"lon":5.39326,"is_reserved":false,"is_disabled":false,"rental_uris":{"android":"levelo://app?vid=cce402bc-3d68-4988-a141-10b109e58c4c","ios":"levelo://app?vid=cce402bc-3d68-4988-a141-10b109e58c4c"},"vehicle_type_id":"4","last_reported":1748340712,"current_range_meters":14800,"station_id":"ce4bh192rcd13ifvqdd0","pricing_plan_id":"cebpf4jnsgd1na2vs0mg"},{"bike_id":"9198b550-c5cf-463c-bb76-767cf162342b","system_id":"levelo_inurba_marseille","lat":43.25569,"lon":5.38249,"is_reserved":false,"is_disabled":false,"rental_uris":{"android":"levelo://app?vid=9198b550-c5cf-463c-bb76-767cf162342b","ios":"levelo://app?vid=9198b550-c5cf-463c-bb76-767cf162342b"},"vehicle_type_id":"4","last_reported":1748340712,"current_range_meters":14800,"station_id":"ce4bhih2rcd13ifvqfs0","pricing_plan_id":"cebpf4jnsgd1na2vs0mg"},{"bike_id":"01483357-963a-4f2b-b8b0-5b9f7615ef4c","system_id":"levelo_inurba_marseille","lat":43.27171,"lon":5.40994,"is_reserved":false,"is_disabled":false,"rental_uris":{"android":"levelo://app?vid=01483357-963a-4f2b-b8b0-5b9f7615ef4c","ios":"levelo://app?vid=01483357-963a-4f2b-b8b0-5b9f7615ef4c"},"vehicle_type_id":"4","last_reported":1748340712,"current_range_meters":14800,"station_id":"ce4bhl12rcd13ifvqgf0","pricing_plan_id":"cebpf4jnsgd1na2vs0mg"},{"bike_id":"3ca578f3-f6b6-487e-b8e7-abd4707c54dd","system_id":"levelo_inurba_marseille","lat":43.25923,"lon":5.4091,"is_reserved":false,"is_disabled":false,"rental_uris":{"android":"levelo://app?vid=3ca578f3-f6b6-487e-b8e7-abd4707c54dd","ios":"levelo://app?vid=3ca578f3-f6b6-487e-b8e7-abd4707c54dd"},"vehicle_type_id":"4","last_reported":1748340712,"current_range_meters":14800,"station_id":"ce4bhm92rcd13ifvqglg","pricing_plan_id":"cebpf4jnsgd1na2vs0mg"},{"bike_id":"2b167dc9-070b-405b-a30c-19405a6a068f","system_id":"levelo_inurba_marseille","lat":43.28076,"lon":5.39656,"is_reserved":false,"is_disabled":false,"rental_uris":{"android":"levelo://app?vid=2b167dc9-070b-405b-a30c-19405a6a068f","ios":"levelo://app?vid=2b167dc9-070b-405b-a30c-19405a6a068f"},"vehicle_type_id":"4","last_reported":1748340712,"current_range_meters":14800,"station_id":"ce4bho12rcd13ifvqh2g","pricing_plan_id":"cebpf4jnsgd1na2vs0mg"},{"bike_id":"c359ce31-503c-4864-81a4-8b7ff30ded70","system_id":"levelo_inurba_marseille","lat":43.324814,"lon":5.365728,"is_reserved":false,"is_disabled":false,"rental_uris":{"android":"levelo://app?vid=c359ce31-503c-4864-81a4-8b7ff30ded70","ios":"levelo://app?vid=c359ce31-503c-4864-81a4-8b7ff30ded70"},"vehicle_type_id":"4","last_reported":1748340712,"current_range_meters":14800,"station_id":"ce4bhs12rcd13ifvqhvg","pricing_plan_id":"cebpf4jnsgd1na2vs0mg"},{"bike_id":"e5c41bcc-15b4-4856-a15a-1d642ce07776","system_id":"levelo_inurba_marseille","lat":43.29831,"lon":5.36273,"is_reserved":false,"is_disabled":false,"rental_uris":{"android":"levelo://app?vid=e5c41bcc-15b4-4856-a15a-1d642ce07776","ios":"levelo://app?vid=e5c41bcc-15b4-4856-a15a-1d642ce07776"},"vehicle_type_id":"4","last_reported":1748340712,"current_range_meters":15200,"station_id":"ce4bgpp2rcd13ifvqc3g","pricing_plan_id":"cebpf4jnsgd1na2vs0mg"},{"bike_id":"66edb79c-6bb2-418b-9ffd-57411d4997b2","system_id":"levelo_inurba_marseille","lat":43.31343,"lon":5.36735,"is_reserved":false,"is_disabled":false,"rental_uris":{"android":"levelo://app?vid=66edb79c-6bb2-418b-9ffd-57411d4997b2","ios":"levelo://app?vid=66edb79c-6bb2-418b-9ffd-57411d4997b2"},"vehicle_type_id":"4","last_reported":1748340712,"current_range_meters":15200,"station_id":"ce4bgr92rcd13ifvqc6g","pricing_plan_id":"cebpf4jnsgd1na2vs0mg"},{"bike_id":"bfa252e4-c86d-4beb-bb7a-77fc01839e19","system_id":"levelo_inurba_marseille","lat":43.30326,"lon":5.4043,"is_reserved":false,"is_disabled":false,"rental_uris":{"android":"levelo://app?vid=bfa252e4-c86d-4beb-bb7a-77fc01839e19","ios":"levelo://app?vid=bfa252e4-c86d-4beb-bb7a-77fc01839e19"},"vehicle_type_id":"4","last_reported":1748340712,"current_range_meters":15200,"station_id":"ce4bh012rcd13ifvqd10","pricing_plan_id":"cebpf4jnsgd1na2vs0mg"},{"bike_id":"dbec5777-e1be-405e-94c6-afded2aa4329","system_id":"levelo_inurba_marseille","lat":43.3037,"lon":5.42477,"is_reserved":false,"is_disabled":false,"rental_uris":{"android":"levelo://app?vid=dbec5777-e1be-405e-94c6-afded2aa4329","ios":"levelo://app?vid=dbec5777-e1be-405e-94c6-afded2aa4329"},"vehicle_type_id":"4","last_reported":1748340712,"current_range_meters":15200,"station_id":"ce4bhoh2rcd13ifvqh6g","pricing_plan_id":"cebpf4jnsgd1na2vs0mg"},{"bike_id":"0298550e-f6fc-452f-9590-1d55a14697e8","system_id":"levelo_inurba_marseille","lat":43.28421,"lon":5.34984,"is_reserved":false,"is_disabled":false,"rental_uris":{"android":"levelo://app?vid=0298550e-f6fc-452f-9590-1d55a14697e8","ios":"levelo://app?vid=0298550e-f6fc-452f-9590-1d55a14697e8"},"vehicle_type_id":"4","last_reported":1748340712,"current_range_meters":16000,"station_id":"","pricing_plan_id":"cebpf4jnsgd1na2vs0mg"},{"bike_id":"b9feece3-8db7-4d9c-b5c4-3d592ac61b90","system_id":"levelo_inurba_marseille","lat":43.291848,"lon":5.358085,"is_reserved":false,"is_disabled":false,"rental_uris":{"android":"levelo://app?vid=b9feece3-8db7-4d9c-b5c4-3d592ac61b90","ios":"levelo://app?vid=b9feece3-8db7-4d9c-b5c4-3d592ac61b90"},"vehicle_type_id":"4","last_reported":1748340712,"current_range_meters":16000,"station_id":"","pricing_plan_id":"cebpf4jnsgd1na2vs0mg"},{"bike_id":"3895a2a6-881b-40e2-b69a-e9da3f005855","system_id":"levelo_inurba_marseille","lat":43.25487,"lon":5.37649,"is_reserved":false,"is_disabled":false,"rental_uris":{"android":"levelo://app?vid=3895a2a6-881b-40e2-b69a-e9da3f005855","ios":"levelo://app?vid=3895a2a6-881b-40e2-b69a-e9da3f005855"},"vehicle_type_id":"4","last_reported":1748340712,"current_range_meters":16000,"station_id":"ce4bhh12rcd13ifvqff0","pricing_plan_id":"cebpf4jnsgd1na2vs0mg"},{"bike_id":"69ac8acb-6816-4e3d-b61e-e01a1548e4df","system_id":"levelo_inurba_marseille","lat":43.231447,"lon":5.437139,"is_reserved":false,"is_disabled":false,"rental_uris":{"android":"levelo://app?vid=69ac8acb-6816-4e3d-b61e-e01a1548e4df","ios":"levelo://app?vid=69ac8acb-6816-4e3d-b61e-e01a1548e4df"},"vehicle_type_id":"4","last_reported":1748340712,"current_range_meters":16000,"station_id":"ce4bhmp2rcd13ifvqgog","pricing_plan_id":"cebpf4jnsgd1na2vs0mg"},{"bike_id":"091b394d-0871-4b3c-b0af-1c6602c327fa","system_id":"levelo_inurba_marseille","lat":43.28154,"lon":5.42653,"is_reserved":false,"is_disabled":false,"rental_uris":{"android":"levelo://app?vid=091b394d-0871-4b3c-b0af-1c6602c327fa","ios":"levelo://app?vid=091b394d-0871-4b3c-b0af-1c6602c327fa"},"vehicle_type_id":"4","last_reported":1748340712,"current_range_meters":16000,"station_id":"ce4bhnh2rcd13ifvqgug","pricing_plan_id":"cebpf4jnsgd1na2vs0mg"},{"bike_id":"ed471ecb-eb53-4e38-a634-5a138becd5b9","system_id":"levelo_inurba_marseille","lat":43.284611,"lon":5.391886,"is_reserved":false,"is_disabled":false,"rental_uris":{"android":"levelo://app?vid=ed471ecb-eb53-4e38-a634-5a138becd5b9","ios":"levelo://app?vid=ed471ecb-eb53-4e38-a634-5a138becd5b9"},"vehicle_type_id":"4","last_reported":1748340712,"current_range_meters":16000,"station_id":"ce4bhoh2rcd13ifvqh5g","pricing_plan_id":"cebpf4jnsgd1na2vs0mg"},{"bike_id":"0feb5fc7-c1f1-435d-b268-924592d7b8a0","system_id":"levelo_inurba_marseille","lat":43.3055,"lon":5.36709,"is_reserved":false,"is_disabled":false,"rental_uris":{"android":"levelo://app?vid=0feb5fc7-c1f1-435d-b268-924592d7b8a0","ios":"levelo://app?vid=0feb5fc7-c1f1-435d-b268-924592d7b8a0"},"vehicle_type_id":"4","last_reported":1748340712,"current_range_meters":16400,"station_id":"ce4bgrp2rcd13ifvqc9g","pricing_plan_id":"cebpf4jnsgd1na2vs0mg"},{"bike_id":"4807cc62-6a9b-4bb6-9a64-b3c1da7dd454","system_id":"levelo_inurba_marseille","lat":43.30529,"lon":5.36544,"is_reserved":false,"is_disabled":false,"rental_uris":{"android":"levelo://app?vid=4807cc62-6a9b-4bb6-9a64-b3c1da7dd454","ios":"levelo://app?vid=4807cc62-6a9b-4bb6-9a64-b3c1da7dd454"},"vehicle_type_id":"4","last_reported":1748340712,"current_range_meters":16400,"station_id":"ce4bgs12rcd13ifvqcag","pricing_plan_id":"cebpf4jnsgd1na2vs0mg"},{"bike_id":"05979feb-1446-4c15-aac7-282f043c0049","system_id":"levelo_inurba_marseille","lat":43.26561,"lon":5.39023,"is_reserved":false,"is_disabled":false,"rental_uris":{"android":"levelo://app?vid=05979feb-1446-4c15-aac7-282f043c0049","ios":"levelo://app?vid=05979feb-1446-4c15-aac7-282f043c0049"},"vehicle_type_id":"4","last_reported":1748340712,"current_range_meters":16400,"station_id":"ce4bhe12rcd13ifvqf30","pricing_plan_id":"cebpf4jnsgd1na2vs0mg"},{"bike_id":"88a707c9-37b0-4219-8da9-01ec3b86afdb","system_id":"levelo_inurba_marseille","lat":43.27925,"lon":5.39558,"is_reserved":false,"is_disabled":false,"rental_uris":{"android":"levelo://app?vid=88a707c9-37b0-4219-8da9-01ec3b86afdb","ios":"levelo://app?vid=88a707c9-37b0-4219-8da9-01ec3b86afdb"},"vehicle_type_id":"4","last_reported":1748340712,"current_range_meters":16400,"station_id":"ce4bhf92rcd13ifvqf40","pricing_plan_id":"cebpf4jnsgd1na2vs0mg"},{"bike_id":"571eb2a1-421c-40e7-9c32-79a85d9c8467","system_id":"levelo_inurba_marseille","lat":43.25494,"lon":5.37648,"is_reserved":false,"is_disabled":false,"rental_uris":{"android":"levelo://app?vid=571eb2a1-421c-40e7-9c32-79a85d9c8467","ios":"levelo://app?vid=571eb2a1-421c-40e7-9c32-79a85d9c8467"},"vehicle_type_id":"4","last_reported":1748340712,"current_range_meters":16400,"station_id":"ce4bhh12rcd13ifvqff0","pricing_plan_id":"cebpf4jnsgd1na2vs0mg"},{"bike_id":"34c85f29-fdda-482f-acf8-db1e2e9f946f","system_id":"levelo_inurba_marseille","lat":43.25925,"lon":5.40878,"is_reserved":false,"is_disabled":false,"rental_uris":{"android":"levelo://app?vid=34c85f29-fdda-482f-acf8-db1e2e9f946f","ios":"levelo://app?vid=34c85f29-fdda-482f-acf8-db1e2e9f946f"},"vehicle_type_id":"4","last_reported":1748340712,"current_range_meters":16400,"station_id":"ce4bhm92rcd13ifvqglg","pricing_plan_id":"cebpf4jnsgd1na2vs0mg"},{"bike_id":"bcaed641-032b-433f-8a0a-283ee03d0a12","system_id":"levelo_inurba_marseille","lat":43.211964,"lon":5.350698,"is_reserved":false,"is_disabled":false,"rental_uris":{"android":"levelo://app?vid=bcaed641-032b-433f-8a0a-283ee03d0a12","ios":"levelo://app?vid=bcaed641-032b-433f-8a0a-283ee03d0a12"},"vehicle_type_id":"4","last_reported":1748340712,"current_range_meters":16400,"station_id":"st_cvj6sg6p6f1abm77japg","pricing_plan_id":"cebpf4jnsgd1na2vs0mg"},{"bike_id":"134c70cc-46f1-414c-ba60-b99ba2b4a992","system_id":"levelo_inurba_marseille","lat":43.34811,"lon":5.35129,"is_reserved":false,"is_disabled":false,"rental_uris":{"android":"levelo://app?vid=134c70cc-46f1-414c-ba60-b99ba2b4a992","ios":"levelo://app?vid=134c70cc-46f1-414c-ba60-b99ba2b4a992"},"vehicle_type_id":"4","last_reported":1748340712,"current_range_meters":16800,"station_id":"","pricing_plan_id":"cebpf4jnsgd1na2vs0mg"},{"bike_id":"96a95844-1a9c-41bf-be5f-c2dea3832721","system_id":"levelo_inurba_marseille","lat":43.29679,"lon":5.37287,"is_reserved":false,"is_disabled":false,"rental_uris":{"android":"levelo://app?vid=96a95844-1a9c-41bf-be5f-c2dea3832721","ios":"levelo://app?vid=96a95844-1a9c-41bf-be5f-c2dea3832721"},"vehicle_type_id":"4","last_reported":1748340712,"current_range_meters":16800,"station_id":"ce4bgk12rcd13ifvqbj0","pricing_plan_id":"cebpf4jnsgd1na2vs0mg"},{"bike_id":"0e8dcc92-08cd-4501-aca1-fa90a8bf6352","system_id":"levelo_inurba_marseille","lat":43.297024,"lon":5.376934,"is_reserved":false,"is_disabled":false,"rental_uris":{"android":"levelo://app?vid=0e8dcc92-08cd-4501-aca1-fa90a8bf6352","ios":"levelo://app?vid=0e8dcc92-08cd-4501-aca1-fa90a8bf6352"},"vehicle_type_id":"4","last_reported":1748340712,"current_range_meters":16800,"station_id":"ce4bgkh2rcd13ifvqbl0","pricing_plan_id":"cebpf4jnsgd1na2vs0mg"},{"bike_id":"e21355d0-d87e-4401-86dd-5f9df401d5d3","system_id":"levelo_inurba_marseille","lat":43.305627,"lon":5.365398,"is_reserved":false,"is_disabled":false,"rental_uris":{"android":"levelo://app?vid=e21355d0-d87e-4401-86dd-5f9df401d5d3","ios":"levelo://app?vid=e21355d0-d87e-4401-86dd-5f9df401d5d3"},"vehicle_type_id":"4","last_reported":1748340712,"current_range_meters":16800,"station_id":"ce4bgs12rcd13ifvqcag","pricing_plan_id":"cebpf4jnsgd1na2vs0mg"},{"bike_id":"db534f2e-558f-4938-a255-680044c6e0fa","system_id":"levelo_inurba_marseille","lat":43.24388,"lon":5.37056,"is_reserved":false,"is_disabled":false,"rental_uris":{"android":"levelo://app?vid=db534f2e-558f-4938-a255-680044c6e0fa","ios":"levelo://app?vid=db534f2e-558f-4938-a255-680044c6e0fa"},"vehicle_type_id":"4","last_reported":1748340712,"current_range_meters":16800,"station_id":"ce4bhhh2rcd13ifvqfk0","pricing_plan_id":"cebpf4jnsgd1na2vs0mg"},{"bike_id":"d4bcc636-6bd2-4d89-a14b-857f593b977a","system_id":"levelo_inurba_marseille","lat":43.25575,"lon":5.38239,"is_reserved":false,"is_disabled":false,"rental_uris":{"android":"levelo://app?vid=d4bcc636-6bd2-4d89-a14b-857f593b977a","ios":"levelo://app?vid=d4bcc636-6bd2-4d89-a14b-857f593b977a"},"vehicle_type_id":"4","last_reported":1748340712,"current_range_meters":16800,"station_id":"ce4bhih2rcd13ifvqfs0","pricing_plan_id":"cebpf4jnsgd1na2vs0mg"},{"bike_id":"1e952921-7125-4c5a-896c-77bb737f2457","system_id":"levelo_inurba_marseille","lat":43.25697,"lon":5.41076,"is_reserved":false,"is_disabled":false,"rental_uris":{"android":"levelo://app?vid=1e952921-7125-4c5a-896c-77bb737f2457","ios":"levelo://app?vid=1e952921-7125-4c5a-896c-77bb737f2457"},"vehicle_type_id":"4","last_reported":1748340712,"current_range_meters":16800,"station_id":"ce4bhkp2rcd13ifvqgd0","pricing_plan_id":"cebpf4jnsgd1na2vs0mg"},{"bike_id":"7e75b3bc-0075-4903-9da5-f4d99ff79813","system_id":"levelo_inurba_marseille","lat":43.25703,"lon":5.41084,"is_reserved":false,"is_disabled":false,"rental_uris":{"android":"levelo://app?vid=7e75b3bc-0075-4903-9da5-f4d99ff79813","ios":"levelo://app?vid=7e75b3bc-0075-4903-9da5-f4d99ff79813"},"vehicle_type_id":"4","last_reported":1748340712,"current_range_meters":16800,"station_id":"ce4bhkp2rcd13ifvqgd0","pricing_plan_id":"cebpf4jnsgd1na2vs0mg"},{"bike_id":"e3d8d668-a817-4f08-82de-1f66bda33eb3","system_id":"levelo_inurba_marseille","lat":43.27169,"lon":5.40984,"is_reserved":false,"is_disabled":false,"rental_uris":{"android":"levelo://app?vid=e3d8d668-a817-4f08-82de-1f66bda33eb3","ios":"levelo://app?vid=e3d8d668-a817-4f08-82de-1f66bda33eb3"},"vehicle_type_id":"4","last_reported":1748340712,"current_range_meters":16800,"station_id":"ce4bhl12rcd13ifvqgf0","pricing_plan_id":"cebpf4jnsgd1na2vs0mg"},{"bike_id":"915757f8-6b87-4222-af9b-1f9fece71434","system_id":"levelo_inurba_marseille","lat":43.31333,"lon":5.36715,"is_reserved":false,"is_disabled":false,"rental_uris":{"android":"levelo://app?vid=915757f8-6b87-4222-af9b-1f9fece71434","ios":"levelo://app?vid=915757f8-6b87-4222-af9b-1f9fece71434"},"vehicle_type_id":"4","last_reported":1748340712,"current_range_meters":17200,"station_id":"ce4bgr92rcd13ifvqc6g","pricing_plan_id":"cebpf4jnsgd1na2vs0mg"},{"bike_id":"78c191aa-fef5-43cf-9265-914d56e75dd1","system_id":"levelo_inurba_marseille","lat":43.31685,"lon":5.40474,"is_reserved":false,"is_disabled":false,"rental_uris":{"android":"levelo://app?vid=78c191aa-fef5-43cf-9265-914d56e75dd1","ios":"levelo://app?vid=78c191aa-fef5-43cf-9265-914d56e75dd1"},"vehicle_type_id":"4","last_reported":1748340712,"current_range_meters":17200,"station_id":"ce4bh012rcd13ifvqd00","pricing_plan_id":"cebpf4jnsgd1na2vs0mg"},{"bike_id":"06ab0218-5a88-4d49-a7dd-7ca72f0219d2","system_id":"levelo_inurba_marseille","lat":43.28712,"lon":5.37927,"is_reserved":false,"is_disabled":false,"rental_uris":{"android":"levelo://app?vid=06ab0218-5a88-4d49-a7dd-7ca72f0219d2","ios":"levelo://app?vid=06ab0218-5a88-4d49-a7dd-7ca72f0219d2"},"vehicle_type_id":"4","last_reported":1748340712,"current_range_meters":17200,"station_id":"ce4bh9p2rcd13ifvqec0","pricing_plan_id":"cebpf4jnsgd1na2vs0mg"},{"bike_id":"f553d2bf-8903-4cef-afe7-aeb793950569","system_id":"levelo_inurba_marseille","lat":43.29264,"lon":5.36849,"is_reserved":false,"is_disabled":false,"rental_uris":{"android":"levelo://app?vid=f553d2bf-8903-4cef-afe7-aeb793950569","ios":"levelo://app?vid=f553d2bf-8903-4cef-afe7-aeb793950569"},"vehicle_type_id":"4","last_reported":1748340712,"current_range_meters":17200,"station_id":"ce4bhbp2rcd13ifvqesg","pricing_plan_id":"cebpf4jnsgd1na2vs0mg"},{"bike_id":"b03801a0-915c-496a-a3fa-9a549955af5c","system_id":"levelo_inurba_marseille","lat":43.26931,"lon":5.3891,"is_reserved":false,"is_disabled":false,"rental_uris":{"android":"levelo://app?vid=b03801a0-915c-496a-a3fa-9a549955af5c","ios":"levelo://app?vid=b03801a0-915c-496a-a3fa-9a549955af5c"},"vehicle_type_id":"4","last_reported":1748340712,"current_range_meters":17200,"station_id":"ce4bhhh2rcd13ifvqfl0","pricing_plan_id":"cebpf4jnsgd1na2vs0mg"},{"bike_id":"e8264270-6e82-48a0-9de5-a3f73f59db95","system_id":"levelo_inurba_marseille","lat":43.23181,"lon":5.39972,"is_reserved":false,"is_disabled":false,"rental_uris":{"android":"levelo://app?vid=e8264270-6e82-48a0-9de5-a3f73f59db95","ios":"levelo://app?vid=e8264270-6e82-48a0-9de5-a3f73f59db95"},"vehicle_type_id":"4","last_reported":1748340712,"current_range_meters":17200,"station_id":"ce4bhn12rcd13ifvqgqg","pricing_plan_id":"cebpf4jnsgd1na2vs0mg"},{"bike_id":"53b5a3f4-731c-4f3e-ae19-9a2d7c970ad3","system_id":"levelo_inurba_marseille","lat":43.31237,"lon":5.36848,"is_reserved":false,"is_disabled":false,"rental_uris":{"android":"levelo://app?vid=53b5a3f4-731c-4f3e-ae19-9a2d7c970ad3","ios":"levelo://app?vid=53b5a3f4-731c-4f3e-ae19-9a2d7c970ad3"},"vehicle_type_id":"4","last_reported":1748340712,"current_range_meters":17600,"station_id":"ce4bgl92rcd13ifvqbq0","pricing_plan_id":"cebpf4jnsgd1na2vs0mg"},{"bike_id":"44ec1f37-be60-49e4-bb5a-83e871444fde","system_id":"levelo_inurba_marseille","lat":43.290045,"lon":5.356169,"is_reserved":false,"is_disabled":false,"rental_uris":{"android":"levelo://app?vid=44ec1f37-be60-49e4-bb5a-83e871444fde","ios":"levelo://app?vid=44ec1f37-be60-49e4-bb5a-83e871444fde"},"vehicle_type_id":"4","last_reported":1748340712,"current_range_meters":17600,"station_id":"ce4bhb92rcd13ifvqen0","pricing_plan_id":"cebpf4jnsgd1na2vs0mg"},{"bike_id":"97f983d1-e040-48f5-8dd7-e3180b172054","system_id":"levelo_inurba_marseille","lat":43.26783,"lon":5.39417,"is_reserved":false,"is_disabled":false,"rental_uris":{"android":"levelo://app?vid=97f983d1-e040-48f5-8dd7-e3180b172054","ios":"levelo://app?vid=97f983d1-e040-48f5-8dd7-e3180b172054"},"vehicle_type_id":"4","last_reported":1748340712,"current_range_meters":17600,"station_id":"ce4bhh12rcd13ifvqfg0","pricing_plan_id":"cebpf4jnsgd1na2vs0mg"},{"bike_id":"1dafdf51-656d-4975-819b-79ae74d93918","system_id":"levelo_inurba_marseille","lat":43.231583,"lon":5.43682,"is_reserved":false,"is_disabled":false,"rental_uris":{"android":"levelo://app?vid=1dafdf51-656d-4975-819b-79ae74d93918","ios":"levelo://app?vid=1dafdf51-656d-4975-819b-79ae74d93918"},"vehicle_type_id":"4","last_reported":1748340712,"current_range_meters":17600,"station_id":"ce4bhmp2rcd13ifvqgog","pricing_plan_id":"cebpf4jnsgd1na2vs0mg"},{"bike_id":"c5f82f55-1c2b-420f-a2b8-a797003d8761","system_id":"levelo_inurba_marseille","lat":43.27976,"lon":5.4165,"is_reserved":false,"is_disabled":false,"rental_uris":{"android":"levelo://app?vid=c5f82f55-1c2b-420f-a2b8-a797003d8761","ios":"levelo://app?vid=c5f82f55-1c2b-420f-a2b8-a797003d8761"},"vehicle_type_id":"4","last_reported":1748340712,"current_range_meters":17600,"station_id":"ce4bho12rcd13ifvqh1g","pricing_plan_id":"cebpf4jnsgd1na2vs0mg"},{"bike_id":"ed9771b0-7eaa-495d-943a-62208655fa9c","system_id":"levelo_inurba_marseille","lat":43.31571,"lon":5.38379,"is_reserved":false,"is_disabled":false,"rental_uris":{"android":"levelo://app?vid=ed9771b0-7eaa-495d-943a-62208655fa9c","ios":"levelo://app?vid=ed9771b0-7eaa-495d-943a-62208655fa9c"},"vehicle_type_id":"4","last_reported":1748340712,"current_range_meters":18000,"station_id":"","pricing_plan_id":"cebpf4jnsgd1na2vs0mg"},{"bike_id":"329a6f0a-1f73-4e11-92f5-cd0525da8dd9","system_id":"levelo_inurba_marseille","lat":43.30125,"lon":5.3742,"is_reserved":false,"is_disabled":false,"rental_uris":{"android":"levelo://app?vid=329a6f0a-1f73-4e11-92f5-cd0525da8dd9","ios":"levelo://app?vid=329a6f0a-1f73-4e11-92f5-cd0525da8dd9"},"vehicle_type_id":"4","last_reported":1748340712,"current_range_meters":18000,"station_id":"ce4bgs92rcd13ifvqcc0","pricing_plan_id":"cebpf4jnsgd1na2vs0mg"},{"bike_id":"98cbf70d-d9f6-4b71-bf03-63425172bed7","system_id":"levelo_inurba_marseille","lat":43.231504,"lon":5.437218,"is_reserved":false,"is_disabled":false,"rental_uris":{"android":"levelo://app?vid=98cbf70d-d9f6-4b71-bf03-63425172bed7","ios":"levelo://app?vid=98cbf70d-d9f6-4b71-bf03-63425172bed7"},"vehicle_type_id":"4","last_reported":1748340712,"current_range_meters":18000,"station_id":"ce4bhmp2rcd13ifvqgog","pricing_plan_id":"cebpf4jnsgd1na2vs0mg"},{"bike_id":"8288cca6-9c4f-4599-813e-aa707c880658","system_id":"levelo_inurba_marseille","lat":43.23192,"lon":5.35559,"is_reserved":false,"is_disabled":false,"rental_uris":{"android":"levelo://app?vid=8288cca6-9c4f-4599-813e-aa707c880658","ios":"levelo://app?vid=8288cca6-9c4f-4599-813e-aa707c880658"},"vehicle_type_id":"4","last_reported":1748340712,"current_range_meters":18000,"station_id":"ce4bhu92rcd13ifvqi70","pricing_plan_id":"cebpf4jnsgd1na2vs0mg"},{"bike_id":"fc374944-cd63-4d3d-8efa-ce3bae07a3c1","system_id":"levelo_inurba_marseille","lat":43.3141,"lon":5.36763,"is_reserved":false,"is_disabled":false,"rental_uris":{"android":"levelo://app?vid=fc374944-cd63-4d3d-8efa-ce3bae07a3c1","ios":"levelo://app?vid=fc374944-cd63-4d3d-8efa-ce3bae07a3c1"},"vehicle_type_id":"4","last_reported":1748340712,"current_range_meters":18800,"station_id":"","pricing_plan_id":"cebpf4jnsgd1na2vs0mg"},{"bike_id":"1f376cb5-5b89-4b96-8257-608fa2a7336e","system_id":"levelo_inurba_marseille","lat":43.2175,"lon":5.34599,"is_reserved":false,"is_disabled":false,"rental_uris":{"android":"levelo://app?vid=1f376cb5-5b89-4b96-8257-608fa2a7336e","ios":"levelo://app?vid=1f376cb5-5b89-4b96-8257-608fa2a7336e"},"vehicle_type_id":"4","last_reported":1748340712,"current_range_meters":18800,"station_id":"","pricing_plan_id":"cebpf4jnsgd1na2vs0mg"},{"bike_id":"ec5612cb-98f6-474d-af9e-4e3c8d95f3e3","system_id":"levelo_inurba_marseille","lat":43.29262,"lon":5.37595,"is_reserved":false,"is_disabled":false,"rental_uris":{"android":"levelo://app?vid=ec5612cb-98f6-474d-af9e-4e3c8d95f3e3","ios":"levelo://app?vid=ec5612cb-98f6-474d-af9e-4e3c8d95f3e3"},"vehicle_type_id":"4","last_reported":1748340712,"current_range_meters":18800,"station_id":"ce4bgi12rcd13ifvqb80","pricing_plan_id":"cebpf4jnsgd1na2vs0mg"},{"bike_id":"a309c506-2fa8-4ad7-bdc6-e8782b420c6f","system_id":"levelo_inurba_marseille","lat":43.2952,"lon":5.37508,"is_reserved":false,"is_disabled":false,"rental_uris":{"android":"levelo://app?vid=a309c506-2fa8-4ad7-bdc6-e8782b420c6f","ios":"levelo://app?vid=a309c506-2fa8-4ad7-bdc6-e8782b420c6f"},"vehicle_type_id":"4","last_reported":1748340712,"current_range_meters":18800,"station_id":"ce4bgkp2rcd13ifvqbmg","pricing_plan_id":"cebpf4jnsgd1na2vs0mg"},{"bike_id":"94b67f6d-9aae-4eb8-8e82-9d6f96260887","system_id":"levelo_inurba_marseille","lat":43.30597,"lon":5.37221,"is_reserved":false,"is_disabled":false,"rental_uris":{"android":"levelo://app?vid=94b67f6d-9aae-4eb8-8e82-9d6f96260887","ios":"levelo://app?vid=94b67f6d-9aae-4eb8-8e82-9d6f96260887"},"vehicle_type_id":"4","last_reported":1748340712,"current_range_meters":18800,"station_id":"ce4bgqh2rcd13ifvqc4g","pricing_plan_id":"cebpf4jnsgd1na2vs0mg"},{"bike_id":"c46b71f6-4655-46cb-9e88-72f1706034c8","system_id":"levelo_inurba_marseille","lat":43.29512,"lon":5.39046,"is_reserved":false,"is_disabled":false,"rental_uris":{"android":"levelo://app?vid=c46b71f6-4655-46cb-9e88-72f1706034c8","ios":"levelo://app?vid=c46b71f6-4655-46cb-9e88-72f1706034c8"},"vehicle_type_id":"4","last_reported":1748340712,"current_range_meters":18800,"station_id":"ce4bh3p2rcd13ifvqdp0","pricing_plan_id":"cebpf4jnsgd1na2vs0mg"},{"bike_id":"e337d8fd-65bb-455a-8323-5ffee966d9e9","system_id":"levelo_inurba_marseille","lat":43.27556,"lon":5.38433,"is_reserved":false,"is_disabled":false,"rental_uris":{"android":"levelo://app?vid=e337d8fd-65bb-455a-8323-5ffee966d9e9","ios":"levelo://app?vid=e337d8fd-65bb-455a-8323-5ffee966d9e9"},"vehicle_type_id":"4","last_reported":1748340712,"current_range_meters":18800,"station_id":"ce4bhh92rcd13ifvqfi0","pricing_plan_id":"cebpf4jnsgd1na2vs0mg"},{"bike_id":"799d75e0-088b-4441-bd94-28f251fa8a3d","system_id":"levelo_inurba_marseille","lat":43.231448,"lon":5.437091,"is_reserved":false,"is_disabled":false,"rental_uris":{"android":"levelo://app?vid=799d75e0-088b-4441-bd94-28f251fa8a3d","ios":"levelo://app?vid=799d75e0-088b-4441-bd94-28f251fa8a3d"},"vehicle_type_id":"4","last_reported":1748340712,"current_range_meters":18800,"station_id":"ce4bhmp2rcd13ifvqgog","pricing_plan_id":"cebpf4jnsgd1na2vs0mg"},{"bike_id":"19217430-6303-4fd8-af99-5b72c9bade43","system_id":"levelo_inurba_marseille","lat":43.32659,"lon":5.40989,"is_reserved":false,"is_disabled":false,"rental_uris":{"android":"levelo://app?vid=19217430-6303-4fd8-af99-5b72c9bade43","ios":"levelo://app?vid=19217430-6303-4fd8-af99-5b72c9bade43"},"vehicle_type_id":"4","last_reported":1748340712,"current_range_meters":18800,"station_id":"ce4bhpp2rcd13ifvqhgg","pricing_plan_id":"cebpf4jnsgd1na2vs0mg"},{"bike_id":"3b07f020-3d8e-47eb-b723-de46e817e2a3","system_id":"levelo_inurba_marseille","lat":43.29746,"lon":5.3835,"is_reserved":false,"is_disabled":false,"rental_uris":{"android":"levelo://app?vid=3b07f020-3d8e-47eb-b723-de46e817e2a3","ios":"levelo://app?vid=3b07f020-3d8e-47eb-b723-de46e817e2a3"},"vehicle_type_id":"4","last_reported":1748340712,"current_range_meters":19200,"station_id":"","pricing_plan_id":"cebpf4jnsgd1na2vs0mg"},{"bike_id":"ab2ba282-f46b-4fed-9294-ac481db830a1","system_id":"levelo_inurba_marseille","lat":43.2985,"lon":5.36286,"is_reserved":false,"is_disabled":false,"rental_uris":{"android":"levelo://app?vid=ab2ba282-f46b-4fed-9294-ac481db830a1","ios":"levelo://app?vid=ab2ba282-f46b-4fed-9294-ac481db830a1"},"vehicle_type_id":"4","last_reported":1748340712,"current_range_meters":19200,"station_id":"ce4bgpp2rcd13ifvqc3g","pricing_plan_id":"cebpf4jnsgd1na2vs0mg"},{"bike_id":"289abd39-a0e9-45f2-8b8c-d1d53081b8bc","system_id":"levelo_inurba_marseille","lat":43.30566,"lon":5.365297,"is_reserved":false,"is_disabled":false,"rental_uris":{"android":"levelo://app?vid=289abd39-a0e9-45f2-8b8c-d1d53081b8bc","ios":"levelo://app?vid=289abd39-a0e9-45f2-8b8c-d1d53081b8bc"},"vehicle_type_id":"4","last_reported":1748340712,"current_range_meters":19200,"station_id":"ce4bgs12rcd13ifvqcag","pricing_plan_id":"cebpf4jnsgd1na2vs0mg"},{"bike_id":"a907d191-4db7-4dc3-a4dc-9158bef5cf07","system_id":"levelo_inurba_marseille","lat":43.28355,"lon":5.38103,"is_reserved":false,"is_disabled":false,"rental_uris":{"android":"levelo://app?vid=a907d191-4db7-4dc3-a4dc-9158bef5cf07","ios":"levelo://app?vid=a907d191-4db7-4dc3-a4dc-9158bef5cf07"},"vehicle_type_id":"4","last_reported":1748340712,"current_range_meters":19200,"station_id":"ce4bh412rcd13ifvqdr0","pricing_plan_id":"cebpf4jnsgd1na2vs0mg"},{"bike_id":"eee6d784-72d1-496f-82b6-b282defcde4c","system_id":"levelo_inurba_marseille","lat":43.286533,"lon":5.392729,"is_reserved":false,"is_disabled":false,"rental_uris":{"android":"levelo://app?vid=eee6d784-72d1-496f-82b6-b282defcde4c","ios":"levelo://app?vid=eee6d784-72d1-496f-82b6-b282defcde4c"},"vehicle_type_id":"4","last_reported":1748340712,"current_range_meters":19200,"station_id":"ce4bhap2rcd13ifvqek0","pricing_plan_id":"cebpf4jnsgd1na2vs0mg"},{"bike_id":"b2727cc3-89da-4e11-b118-8c81be87c61e","system_id":"levelo_inurba_marseille","lat":43.24547,"lon":5.39524,"is_reserved":false,"is_disabled":false,"rental_uris":{"android":"levelo://app?vid=b2727cc3-89da-4e11-b118-8c81be87c61e","ios":"levelo://app?vid=b2727cc3-89da-4e11-b118-8c81be87c61e"},"vehicle_type_id":"4","last_reported":1748340712,"current_range_meters":19200,"station_id":"ce4bhlp2rcd13ifvqgjg","pricing_plan_id":"cebpf4jnsgd1na2vs0mg"},{"bike_id":"5046fad6-7e56-4b3d-b074-accb7f2f5a2e","system_id":"levelo_inurba_marseille","lat":43.23155,"lon":5.43709,"is_reserved":false,"is_disabled":false,"rental_uris":{"android":"levelo://app?vid=5046fad6-7e56-4b3d-b074-accb7f2f5a2e","ios":"levelo://app?vid=5046fad6-7e56-4b3d-b074-accb7f2f5a2e"},"vehicle_type_id":"4","last_reported":1748340712,"current_range_meters":19200,"station_id":"ce4bhmp2rcd13ifvqgog","pricing_plan_id":"cebpf4jnsgd1na2vs0mg"},{"bike_id":"1be24196-7e90-4f9d-9fc8-24d153682613","system_id":"levelo_inurba_marseille","lat":43.23155,"lon":5.43697,"is_reserved":false,"is_disabled":false,"rental_uris":{"android":"levelo://app?vid=1be24196-7e90-4f9d-9fc8-24d153682613","ios":"levelo://app?vid=1be24196-7e90-4f9d-9fc8-24d153682613"},"vehicle_type_id":"4","last_reported":1748340712,"current_range_meters":19200,"station_id":"ce4bhmp2rcd13ifvqgog","pricing_plan_id":"cebpf4jnsgd1na2vs0mg"},{"bike_id":"bb74596b-7904-48a9-8f5a-27a35715b480","system_id":"levelo_inurba_marseille","lat":43.336035,"lon":5.410323,"is_reserved":false,"is_disabled":false,"rental_uris":{"android":"levelo://app?vid=bb74596b-7904-48a9-8f5a-27a35715b480","ios":"levelo://app?vid=bb74596b-7904-48a9-8f5a-27a35715b480"},"vehicle_type_id":"4","last_reported":1748340712,"current_range_meters":19200,"station_id":"ce4bhqh2rcd13ifvqhmg","pricing_plan_id":"cebpf4jnsgd1na2vs0mg"},{"bike_id":"13f44831-c6c1-4d03-9899-2a7d2c674a4b","system_id":"levelo_inurba_marseille","lat":43.28101,"lon":5.40636,"is_reserved":false,"is_disabled":false,"rental_uris":{"android":"levelo://app?vid=13f44831-c6c1-4d03-9899-2a7d2c674a4b","ios":"levelo://app?vid=13f44831-c6c1-4d03-9899-2a7d2c674a4b"},"vehicle_type_id":"4","last_reported":1748340712,"current_range_meters":19600,"station_id":"","pricing_plan_id":"cebpf4jnsgd1na2vs0mg"},{"bike_id":"3e930913-8d91-4d94-a4b2-fea6f3fdcd15","system_id":"levelo_inurba_marseille","lat":43.298407,"lon":5.3627,"is_reserved":false,"is_disabled":false,"rental_uris":{"android":"levelo://app?vid=3e930913-8d91-4d94-a4b2-fea6f3fdcd15","ios":"levelo://app?vid=3e930913-8d91-4d94-a4b2-fea6f3fdcd15"},"vehicle_type_id":"4","last_reported":1748340712,"current_range_meters":19600,"station_id":"ce4bgpp2rcd13ifvqc3g","pricing_plan_id":"cebpf4jnsgd1na2vs0mg"},{"bike_id":"0e2d4175-f1d6-43fe-947f-552fbc78ac6c","system_id":"levelo_inurba_marseille","lat":43.28995,"lon":5.35592,"is_reserved":false,"is_disabled":false,"rental_uris":{"android":"levelo://app?vid=0e2d4175-f1d6-43fe-947f-552fbc78ac6c","ios":"levelo://app?vid=0e2d4175-f1d6-43fe-947f-552fbc78ac6c"},"vehicle_type_id":"4","last_reported":1748340712,"current_range_meters":19600,"station_id":"ce4bhb92rcd13ifvqen0","pricing_plan_id":"cebpf4jnsgd1na2vs0mg"},{"bike_id":"0187335e-5176-482f-81f2-307f68483bde","system_id":"levelo_inurba_marseille","lat":43.2861,"lon":5.35098,"is_reserved":false,"is_disabled":false,"rental_uris":{"android":"levelo://app?vid=0187335e-5176-482f-81f2-307f68483bde","ios":"levelo://app?vid=0187335e-5176-482f-81f2-307f68483bde"},"vehicle_type_id":"4","last_reported":1748340712,"current_range_meters":19600,"station_id":"ce4bhch2rcd13ifvqeug","pricing_plan_id":"cebpf4jnsgd1na2vs0mg"},{"bike_id":"816f40ed-409f-478a-8639-8f52fd57f1bf","system_id":"levelo_inurba_marseille","lat":43.241787,"lon":5.397211,"is_reserved":false,"is_disabled":false,"rental_uris":{"android":"levelo://app?vid=816f40ed-409f-478a-8639-8f52fd57f1bf","ios":"levelo://app?vid=816f40ed-409f-478a-8639-8f52fd57f1bf"},"vehicle_type_id":"4","last_reported":1748340712,"current_range_meters":19600,"station_id":"ce4bhn12rcd13ifvqgpg","pricing_plan_id":"cebpf4jnsgd1na2vs0mg"},{"bike_id":"de4f922a-15bf-46b9-a7bf-d208f7b26502","system_id":"levelo_inurba_marseille","lat":43.33753,"lon":5.39196,"is_reserved":false,"is_disabled":false,"rental_uris":{"android":"levelo://app?vid=de4f922a-15bf-46b9-a7bf-d208f7b26502","ios":"levelo://app?vid=de4f922a-15bf-46b9-a7bf-d208f7b26502"},"vehicle_type_id":"4","last_reported":1748340712,"current_range_meters":19600,"station_id":"ce4bhr92rcd13ifvqhsg","pricing_plan_id":"cebpf4jnsgd1na2vs0mg"},{"bike_id":"7adbd369-f684-4c09-90a5-6bbf2f150346","system_id":"levelo_inurba_marseille","lat":43.32118,"lon":5.36775,"is_reserved":false,"is_disabled":false,"rental_uris":{"android":"levelo://app?vid=7adbd369-f684-4c09-90a5-6bbf2f150346","ios":"levelo://app?vid=7adbd369-f684-4c09-90a5-6bbf2f150346"},"vehicle_type_id":"4","last_reported":1748340712,"current_range_meters":19600,"station_id":"ce4bhrh2rcd13ifvqhug","pricing_plan_id":"cebpf4jnsgd1na2vs0mg"},{"bike_id":"e1fd86fc-1042-4bad-a29f-96c6e4b3c8fa","system_id":"levelo_inurba_marseille","lat":43.30511,"lon":5.36584,"is_reserved":false,"is_disabled":false,"rental_uris":{"android":"levelo://app?vid=e1fd86fc-1042-4bad-a29f-96c6e4b3c8fa","ios":"levelo://app?vid=e1fd86fc-1042-4bad-a29f-96c6e4b3c8fa"},"vehicle_type_id":"4","last_reported":1748340712,"current_range_meters":20000,"station_id":"","pricing_plan_id":"cebpf4jnsgd1na2vs0mg"},{"bike_id":"9f96c977-918e-4d59-937c-78e2d60493ee","system_id":"levelo_inurba_marseille","lat":43.273,"lon":5.41024,"is_reserved":false,"is_disabled":false,"rental_uris":{"android":"levelo://app?vid=9f96c977-918e-4d59-937c-78e2d60493ee","ios":"levelo://app?vid=9f96c977-918e-4d59-937c-78e2d60493ee"},"vehicle_type_id":"4","last_reported":1748340712,"current_range_meters":20000,"station_id":"","pricing_plan_id":"cebpf4jnsgd1na2vs0mg"},{"bike_id":"a33b17e3-05cf-4136-812e-431aaaaa5833","system_id":"levelo_inurba_marseille","lat":43.30543,"lon":5.3655,"is_reserved":false,"is_disabled":false,"rental_uris":{"android":"levelo://app?vid=a33b17e3-05cf-4136-812e-431aaaaa5833","ios":"levelo://app?vid=a33b17e3-05cf-4136-812e-431aaaaa5833"},"vehicle_type_id":"4","last_reported":1748340712,"current_range_meters":20000,"station_id":"ce4bgs12rcd13ifvqcag","pricing_plan_id":"cebpf4jnsgd1na2vs0mg"},{"bike_id":"aaa5edaa-a560-48e2-93af-cdefbeab5609","system_id":"levelo_inurba_marseille","lat":43.28989,"lon":5.35631,"is_reserved":false,"is_disabled":false,"rental_uris":{"android":"levelo://app?vid=aaa5edaa-a560-48e2-93af-cdefbeab5609","ios":"levelo://app?vid=aaa5edaa-a560-48e2-93af-cdefbeab5609"},"vehicle_type_id":"4","last_reported":1748340712,"current_range_meters":20000,"station_id":"ce4bhb92rcd13ifvqen0","pricing_plan_id":"cebpf4jnsgd1na2vs0mg"},{"bike_id":"840a4e5d-5d2a-4f91-b1be-fd932fffba66","system_id":"levelo_inurba_marseille","lat":43.28613,"lon":5.35092,"is_reserved":false,"is_disabled":false,"rental_uris":{"android":"levelo://app?vid=840a4e5d-5d2a-4f91-b1be-fd932fffba66","ios":"levelo://app?vid=840a4e5d-5d2a-4f91-b1be-fd932fffba66"},"vehicle_type_id":"4","last_reported":1748340712,"current_range_meters":20000,"station_id":"ce4bhch2rcd13ifvqeug","pricing_plan_id":"cebpf4jnsgd1na2vs0mg"},{"bike_id":"59252cdc-da66-4954-9ac6-808461a5c827","system_id":"levelo_inurba_marseille","lat":43.25939,"lon":5.4088,"is_reserved":false,"is_disabled":false,"rental_uris":{"android":"levelo://app?vid=59252cdc-da66-4954-9ac6-808461a5c827","ios":"levelo://app?vid=59252cdc-da66-4954-9ac6-808461a5c827"},"vehicle_type_id":"4","last_reported":1748340712,"current_range_meters":20000,"station_id":"ce4bhm92rcd13ifvqglg","pricing_plan_id":"cebpf4jnsgd1na2vs0mg"},{"bike_id":"ef77543b-22de-44af-930a-38e7dfe2d4e6","system_id":"levelo_inurba_marseille","lat":43.231949,"lon":5.399834,"is_reserved":false,"is_disabled":false,"rental_uris":{"android":"levelo://app?vid=ef77543b-22de-44af-930a-38e7dfe2d4e6","ios":"levelo://app?vid=ef77543b-22de-44af-930a-38e7dfe2d4e6"},"vehicle_type_id":"4","last_reported":1748340712,"current_range_meters":20000,"station_id":"ce4bhn12rcd13ifvqgqg","pricing_plan_id":"cebpf4jnsgd1na2vs0mg"},{"bike_id":"8791eee7-8b82-4388-b86b-5810658e1a45","system_id":"levelo_inurba_marseille","lat":43.32107,"lon":5.36766,"is_reserved":false,"is_disabled":false,"rental_uris":{"android":"levelo://app?vid=8791eee7-8b82-4388-b86b-5810658e1a45","ios":"levelo://app?vid=8791eee7-8b82-4388-b86b-5810658e1a45"},