{"last_updated":1706375158,"ttl":30,"version":"2.2","data":{"bikes":[{"bike_id":"605d6aa7-27af-4a85-84d2-cb087e1c0a07","system_id":"levelo_inurba_marseille","lat":43.313391,"lon":5.36706,"is_reserved":false,"is_disabled":false,"rental_uris":{"android":"levelo://app?vid=605d6aa7-27af-4a85-84d2-cb087e1c0a07","ios":"levelo://app?vid=605d6aa7-27af-4a85-84d2-cb087e1c0a07"},"vehicle_type_id":"4","last_reported":1706375158,"current_range_meters":29600,"station_id":"ce4bgr92rcd13ifvqc6g","pricing_plan_id":"free"},{"bike_id":"65662388-833f-4a32-b8c6-2750313b8c60","system_id":"levelo_inurba_marseille","lat":43.313391,"lon":5.36706,"is_reserved":false,"is_disabled":false,"rental_uris":{"android":"levelo://app?vid=65662388-833f-4a32-b8c6-2750313b8c60","ios":"levelo://app?vid=65662388-833f-4a32-b8c6-2750313b8c60"},"vehicle_type_id":"4","last_reported":1706375158,"current_range_meters":16000,"station_id":"ce4bgr92rcd13ifvqc6g","pricing_plan_id":"free"},{"bike_id":"2744c676-6e27-44d6-a3c1-285bbeb9a60e","system_id":"levelo_inurba_marseille","lat":43.312239,"lon":5.368562,"is_reserved":false,"is_disabled":false,"rental_uris":{"android":"levelo://app?vid=2744c676-6e27-44d6-a3c1-285bbeb9a60e","ios":"levelo://app?vid=2744c676-6e27-44d6-a3c1-285bbeb9a60e"},"vehicle_type_id":"4","last_reported":1706375158,"current_range_meters":20000,"station_id":"ce4bgl92rcd13ifvqbq0","pricing_plan_id":"free"},{"bike_id":"614e5ffc-a73b-44ce-be30-89dd69c3142b","system_id":"levelo_inurba_marseille","lat":43.312239,"lon":5.368562,"is_reserved":false,"is_disabled":false,"rental_uris":{"android":"levelo://app?vid=614e5ffc-a73b-44ce-be30-89dd69c3142b","ios":"levelo://app?vid=614e5ffc-a73b-44ce-be30-89dd69c3142b"},"vehicle_type_id":"4","last_reported":1706375158,"current_range_meters":15200,"station_id":"ce4bgl92rcd13ifvqbq0","pricing_plan_id":"free"},{"bike_id":"dc1976f5-2ab3-40fd-a0e7-91519435cb39","system_id":"levelo_inurba_marseille","lat":43.309039,"lon":5.371797,"is_reserved":false,"is_disabled":false,"rental_uris":{"android":"levelo://app?vid=dc1976f5-2ab3-40fd-a0e7-91519435cb39","ios":"levelo://app?vid=dc1976f5-2ab3-40fd-a0e7-91519435cb39"},"vehicle_type_id":"4","last_reported":1706375158,"current_range_meters":3200,"station_id":"ce4bguh2rcd13ifvqckg","pricing_plan_id":"free"},{"bike_id":"e5456697-d859-4dcd-88a2-595ee84c4a6d","system_id":"levelo_inurba_marseille","lat":43.309039,"lon":5.371797,"is_reserved":false,"is_disabled":false,"rental_uris":{"android":"levelo://app?vid=e5456697-d859-4dcd-88a2-595ee84c4a6d","ios":"levelo://app?vid=e5456697-d859-4dcd-88a2-595ee84c4a6d"},"vehicle_type_id":"4","last_reported":1706375158,"current_range_meters":800,"station_id":"ce4bguh2rcd13ifvqckg","pricing_plan_id":"free"},{"bike_id":"b3a4c76c-4b91-4838-bce7-c17a779a0349","system_id":"levelo_inurba_marseille","lat":43.30541,"lon":5.36554,"is_reserved":false,"is_disabled":false,"rental_uris":{"android":"levelo://app?vid=b3a4c76c-4b91-4838-bce7-c17a779a0349","ios":"levelo://app?vid=b3a4c76c-4b91-4838-bce7-c17a779a0349"},"vehicle_type_id":"4","last_reported":1706375158,"current_range_meters":0,"station_id":"ce4bgs12rcd13ifvqcag","pricing_plan_id":"free"},{"bike_id":"61633d22-f786-43bf-8b03-07c3f027239b","system_id":"levelo_inurba_marseille","lat":43.30495,"lon":5.36755,"is_reserved":false,"is_disabled":false,"rental_uris":{"android":"levelo://app?vid=61633d22-f786-43bf-8b03-07c3f027239b","ios":"levelo://app?vid=61633d22-f786-43bf-8b03-07c3f027239b"},"vehicle_type_id":"4","last_reported":1706375158,"current_range_meters":0,"station_id":"","pricing_plan_id":"free"},{"bike_id":"96a1aa84-8101-471f-976b-0319fd257f16","system_id":"levelo_inurba_marseille","lat":43.31112,"lon":5.37768,"is_reserved":false,"is_disabled":false,"rental_uris":{"android":"levelo://app?vid=96a1aa84-8101-471f-976b-0319fd257f16","ios":"levelo://app?vid=96a1aa84-8101-471f-976b-0319fd257f16"},"vehicle_type_id":"4","last_reported":1706375158,"current_range_meters":0,"station_id":"ce4bgt92rcd13ifvqcg0","pricing_plan_id":"free"},{"bike_id":"6aa293fb-5857-4ef4-ad4a-81c6c4be08d8","system_id":"levelo_inurba_marseille","lat":43.311131,"lon":5.377651,"is_reserved":false,"is_disabled":false,"rental_uris":{"android":"levelo://app?vid=6aa293fb-5857-4ef4-ad4a-81c6c4be08d8","ios":"levelo://app?vid=6aa293fb-5857-4ef4-ad4a-81c6c4be08d8"},"vehicle_type_id":"4","last_reported":1706375158,"current_range_meters":3600,"station_id":"ce4bgt92rcd13ifvqcg0","pricing_plan_id":"free"},{"bike_id":"36fdf3a9-6637-4abe-9106-b80fdb7b6025","system_id":"levelo_inurba_marseille","lat":43.3109,"lon":5.37824,"is_reserved":false,"is_disabled":false,"rental_uris":{"android":"levelo://app?vid=36fdf3a9-6637-4abe-9106-b80fdb7b6025","ios":"levelo://app?vid=36fdf3a9-6637-4abe-9106-b80fdb7b6025"},"vehicle_type_id":"4","last_reported":1706375158,"current_range_meters":23600,"station_id":"","pricing_plan_id":"free"},{"bike_id":"2c9bc55b-7862-4fee-93cf-332da9ff1878","system_id":"levelo_inurba_marseille","lat":43.317075,"lon":5.377367,"is_reserved":false,"is_disabled":false,"rental_uris":{"android":"levelo://app?vid=2c9bc55b-7862-4fee-93cf-332da9ff1878","ios":"levelo://app?vid=2c9bc55b-7862-4fee-93cf-332da9ff1878"},"vehicle_type_id":"4","last_reported":1706375158,"current_range_meters":22400,"station_id":"ce4bgth2rcd13ifvqch0","pricing_plan_id":"free"},{"bike_id":"683344d2-cb2b-435f-a24e-4880804be916","system_id":"levelo_inurba_marseille","lat":43.30304,"lon":5.368987,"is_reserved":false,"is_disabled":false,"rental_uris":{"android":"levelo://app?vid=683344d2-cb2b-435f-a24e-4880804be916","ios":"levelo://app?vid=683344d2-cb2b-435f-a24e-4880804be916"},"vehicle_type_id":"4","last_reported":1706375158,"current_range_meters":14400,"station_id":"ce4bgqh2rcd13ifvqc5g","pricing_plan_id":"free"},{"bike_id":"fda60680-47e0-4bdd-af7d-beb04516896e","system_id":"levelo_inurba_marseille","lat":43.30304,"lon":5.368987,"is_reserved":false,"is_disabled":false,"rental_uris":{"android":"levelo://app?vid=fda60680-47e0-4bdd-af7d-beb04516896e","ios":"levelo://app?vid=fda60680-47e0-4bdd-af7d-beb04516896e"},"vehicle_type_id":"4","last_reported":1706375158,"current_range_meters":4000,"station_id":"ce4bgqh2rcd13ifvqc5g","pricing_plan_id":"free"},{"bike_id":"b83daeb9-a39c-4884-86e2-16a37c651f7f","system_id":"levelo_inurba_marseille","lat":43.320049,"lon":5.37616,"is_reserved":false,"is_disabled":false,"rental_uris":{"android":"levelo://app?vid=b83daeb9-a39c-4884-86e2-16a37c651f7f","ios":"levelo://app?vid=b83daeb9-a39c-4884-86e2-16a37c651f7f"},"vehicle_type_id":"4","last_reported":1706375158,"current_range_meters":10000,"station_id":"","pricing_plan_id":"free"},{"bike_id":"5994bace-6f11-4824-aa33-eae84e1037d6","system_id":"levelo_inurba_marseille","lat":43.308012,"lon":5.381511,"is_reserved":false,"is_disabled":false,"rental_uris":{"android":"levelo://app?vid=5994bace-6f11-4824-aa33-eae84e1037d6","ios":"levelo://app?vid=5994bace-6f11-4824-aa33-eae84e1037d6"},"vehicle_type_id":"4","last_reported":1706375158,"current_range_meters":0,"station_id":"ce4bgt12rcd13ifvqce0","pricing_plan_id":"free"},{"bike_id":"d462dd8f-aec3-445c-89f6-947e7a4e9853","system_id":"levelo_inurba_marseille","lat":43.304606,"lon":5.379026,"is_reserved":false,"is_disabled":false,"rental_uris":{"android":"levelo://app?vid=d462dd8f-aec3-445c-89f6-947e7a4e9853","ios":"levelo://app?vid=d462dd8f-aec3-445c-89f6-947e7a4e9853"},"vehicle_type_id":"4","last_reported":1706375158,"current_range_meters":0,"station_id":"ce4bgup2rcd13ifvqcn0","pricing_plan_id":"free"},{"bike_id":"cac8b72a-1faf-4374-a6ca-ec35cc2dcb39","system_id":"levelo_inurba_marseille","lat":43.30456,"lon":5.37908,"is_reserved":false,"is_disabled":false,"rental_uris":{"android":"levelo://app?vid=cac8b72a-1faf-4374-a6ca-ec35cc2dcb39","ios":"levelo://app?vid=cac8b72a-1faf-4374-a6ca-ec35cc2dcb39"},"vehicle_type_id":"4","last_reported":1706375158,"current_range_meters":0,"station_id":"ce4bgup2rcd13ifvqcn0","pricing_plan_id":"free"},{"bike_id":"3d70903c-8e3e-4187-b2fe-8cb7e05cf8c4","system_id":"levelo_inurba_marseille","lat":43.30143,"lon":5.37413,"is_reserved":false,"is_disabled":false,"rental_uris":{"android":"levelo://app?vid=3d70903c-8e3e-4187-b2fe-8cb7e05cf8c4","ios":"levelo://app?vid=3d70903c-8e3e-4187-b2fe-8cb7e05cf8c4"},"vehicle_type_id":"4","last_reported":1706375158,"current_range_meters":23200,"station_id":"ce4bgs92rcd13ifvqcc0","pricing_plan_id":"free"},{"bike_id":"83dd9cf1-2831-4e9d-9d74-de0b2318bc3e","system_id":"levelo_inurba_marseille","lat":43.302784,"lon":5.377158,"is_reserved":false,"is_disabled":false,"rental_uris":{"android":"levelo://app?vid=83dd9cf1-2831-4e9d-9d74-de0b2318bc3e","ios":"levelo://app?vid=83dd9cf1-2831-4e9d-9d74-de0b2318bc3e"},"vehicle_type_id":"4","last_reported":1706375158,"current_range_meters":1200,"station_id":"ce4bguh2rcd13ifvqcj0","pricing_plan_id":"free"},{"bike_id":"fbd1c7c8-59f4-40f3-bd13-92a41198f404","system_id":"levelo_inurba_marseille","lat":43.319961,"lon":5.38154,"is_reserved":false,"is_disabled":false,"rental_uris":{"android":"levelo://app?vid=fbd1c7c8-59f4-40f3-bd13-92a41198f404","ios":"levelo://app?vid=fbd1c7c8-59f4-40f3-bd13-92a41198f404"},"vehicle_type_id":"4","last_reported":1706375158,"current_range_meters":15600,"station_id":"ce4bhr12rcd13ifvqhpg","pricing_plan_id":"free"},{"bike_id":"ae7ab608-8fac-4c0d-9f43-8ffacb07a49d","system_id":"levelo_inurba_marseille","lat":43.319935,"lon":5.381699,"is_reserved":false,"is_disabled":false,"rental_uris":{"android":"levelo://app?vid=ae7ab608-8fac-4c0d-9f43-8ffacb07a49d","ios":"levelo://app?vid=ae7ab608-8fac-4c0d-9f43-8ffacb07a49d"},"vehicle_type_id":"4","last_reported":1706375158,"current_range_meters":2000,"station_id":"ce4bhr12rcd13ifvqhpg","pricing_plan_id":"free"},{"bike_id":"797d1309-cf99-43f5-beb7-0d97c5448ab0","system_id":"levelo_inurba_marseille","lat":43.313571,"lon":5.384829,"is_reserved":false,"is_disabled":false,"rental_uris":{"android":"levelo://app?vid=797d1309-cf99-43f5-beb7-0d97c5448ab0","ios":"levelo://app?vid=797d1309-cf99-43f5-beb7-0d97c5448ab0"},"vehicle_type_id":"4","last_reported":1706375158,"current_range_meters":15200,"station_id":"ce4bgt92rcd13ifvqcf0","pricing_plan_id":"free"},{"bike_id":"8e660c13-24fa-49a4-8102-d5e563ad9536","system_id":"levelo_inurba_marseille","lat":43.313571,"lon":5.384829,"is_reserved":false,"is_disabled":false,"rental_uris":{"android":"levelo://app?vid=8e660c13-24fa-49a4-8102-d5e563ad9536","ios":"levelo://app?vid=8e660c13-24fa-49a4-8102-d5e563ad9536"},"vehicle_type_id":"4","last_reported":1706375158,"current_range_meters":18400,"station_id":"ce4bgt92rcd13ifvqcf0","pricing_plan_id":"free"},{"bike_id":"6ca78df6-af0e-4022-90ce-9a4ffd587e63","system_id":"levelo_inurba_marseille","lat":43.313571,"lon":5.384829,"is_reserved":false,"is_disabled":false,"rental_uris":{"android":"levelo://app?vid=6ca78df6-af0e-4022-90ce-9a4ffd587e63","ios":"levelo://app?vid=6ca78df6-af0e-4022-90ce-9a4ffd587e63"},"vehicle_type_id":"4","last_reported":1706375158,"current_range_meters":2400,"station_id":"ce4bgt92rcd13ifvqcf0","pricing_plan_id":"free"},{"bike_id":"9418fba5-0393-4eec-8c2c-f1d7bdcb1583","system_id":"levelo_inurba_marseille","lat":43.299724,"lon":5.371829,"is_reserved":false,"is_disabled":false,"rental_uris":{"android":"levelo://app?vid=9418fba5-0393-4eec-8c2c-f1d7bdcb1583","ios":"levelo://app?vid=9418fba5-0393-4eec-8c2c-f1d7bdcb1583"},"vehicle_type_id":"4","last_reported":1706375158,"current_range_meters":4000,"station_id":"ce4bgr92rcd13ifvqc7g","pricing_plan_id":"free"},{"bike_id":"ecce765b-a880-4b5b-8799-107b0a227868","system_id":"levelo_inurba_marseille","lat":43.299724,"lon":5.371829,"is_reserved":false,"is_disabled":false,"rental_uris":{"android":"levelo://app?vid=ecce765b-a880-4b5b-8799-107b0a227868","ios":"levelo://app?vid=ecce765b-a880-4b5b-8799-107b0a227868"},"vehicle_type_id":"4","last_reported":1706375158,"current_range_meters":800,"station_id":"ce4bgr92rcd13ifvqc7g","pricing_plan_id":"free"},{"bike_id":"965a5dab-e227-4efc-b518-9780186a9de9","system_id":"levelo_inurba_marseille","lat":43.322872,"lon":5.382756,"is_reserved":false,"is_disabled":false,"rental_uris":{"android":"levelo://app?vid=965a5dab-e227-4efc-b518-9780186a9de9","ios":"levelo://app?vid=965a5dab-e227-4efc-b518-9780186a9de9"},"vehicle_type_id":"4","last_reported":1706375158,"current_range_meters":24000,"station_id":"ce4bhr12rcd13ifvqhqg","pricing_plan_id":"free"},{"bike_id":"5e98879a-df25-42d7-a72e-59c9369b5f46","system_id":"levelo_inurba_marseille","lat":43.322887,"lon":5.382692,"is_reserved":false,"is_disabled":false,"rental_uris":{"android":"levelo://app?vid=5e98879a-df25-42d7-a72e-59c9369b5f46","ios":"levelo://app?vid=5e98879a-df25-42d7-a72e-59c9369b5f46"},"vehicle_type_id":"4","last_reported":1706375158,"current_range_meters":30800,"station_id":"ce4bhr12rcd13ifvqhqg","pricing_plan_id":"free"},{"bike_id":"a3b74381-0d58-448f-9a1c-2f1261e3769d","system_id":"levelo_inurba_marseille","lat":43.322872,"lon":5.382756,"is_reserved":false,"is_disabled":false,"rental_uris":{"android":"levelo://app?vid=a3b74381-0d58-448f-9a1c-2f1261e3769d","ios":"levelo://app?vid=a3b74381-0d58-448f-9a1c-2f1261e3769d"},"vehicle_type_id":"4","last_reported":1706375158,"current_range_meters":26400,"station_id":"ce4bhr12rcd13ifvqhqg","pricing_plan_id":"free"},{"bike_id":"12edd8fe-ac42-424b-86a0-ddbc64b4f114","system_id":"levelo_inurba_marseille","lat":43.32828,"lon":5.36688,"is_reserved":false,"is_disabled":false,"rental_uris":{"android":"levelo://app?vid=12edd8fe-ac42-424b-86a0-ddbc64b4f114","ios":"levelo://app?vid=12edd8fe-ac42-424b-86a0-ddbc64b4f114"},"vehicle_type_id":"4","last_reported":1706375158,"current_range_meters":17200,"station_id":"ce4bhs92rcd13ifvqi0g","pricing_plan_id":"free"},{"bike_id":"4eb0ce35-1e01-4f06-bddc-098b367e5edb","system_id":"levelo_inurba_marseille","lat":43.328335,"lon":5.366871,"is_reserved":false,"is_disabled":false,"rental_uris":{"android":"levelo://app?vid=4eb0ce35-1e01-4f06-bddc-098b367e5edb","ios":"levelo://app?vid=4eb0ce35-1e01-4f06-bddc-098b367e5edb"},"vehicle_type_id":"4","last_reported":1706375158,"current_range_meters":4000,"station_id":"","pricing_plan_id":"free"},{"bike_id":"cd351fb0-0c10-441e-b663-13e0753783f9","system_id":"levelo_inurba_marseille","lat":43.297163,"lon":5.365866,"is_reserved":false,"is_disabled":false,"rental_uris":{"android":"levelo://app?vid=cd351fb0-0c10-441e-b663-13e0753783f9","ios":"levelo://app?vid=cd351fb0-0c10-441e-b663-13e0753783f9"},"vehicle_type_id":"4","last_reported":1706375158,"current_range_meters":8000,"station_id":"ce4bgn12rcd13ifvqbt0","pricing_plan_id":"free"},{"bike_id":"54d8abe6-746b-4be6-9341-8f323a368dcf","system_id":"levelo_inurba_marseille","lat":43.29707,"lon":5.36608,"is_reserved":false,"is_disabled":false,"rental_uris":{"android":"levelo://app?vid=54d8abe6-746b-4be6-9341-8f323a368dcf","ios":"levelo://app?vid=54d8abe6-746b-4be6-9341-8f323a368dcf"},"vehicle_type_id":"4","last_reported":1706375158,"current_range_meters":0,"station_id":"ce4bgn12rcd13ifvqbt0","pricing_plan_id":"free"},{"bike_id":"419770a0-4a5f-4b49-a4bc-fe1f93efa0b5","system_id":"levelo_inurba_marseille","lat":43.29573,"lon":5.367355,"is_reserved":false,"is_disabled":false,"rental_uris":{"android":"levelo://app?vid=419770a0-4a5f-4b49-a4bc-fe1f93efa0b5","ios":"levelo://app?vid=419770a0-4a5f-4b49-a4bc-fe1f93efa0b5"},"vehicle_type_id":"4","last_reported":1706375158,"current_range_meters":0,"station_id":"ce4bgph2rcd13ifvqc2g","pricing_plan_id":"free"},{"bike_id":"d20135e8-1e70-4526-ad12-1544f9f7662e","system_id":"levelo_inurba_marseille","lat":43.29573,"lon":5.367355,"is_reserved":false,"is_disabled":false,"rental_uris":{"android":"levelo://app?vid=d20135e8-1e70-4526-ad12-1544f9f7662e","ios":"levelo://app?vid=d20135e8-1e70-4526-ad12-1544f9f7662e"},"vehicle_type_id":"4","last_reported":1706375158,"current_range_meters":18000,"station_id":"ce4bgph2rcd13ifvqc2g","pricing_plan_id":"free"},{"bike_id":"7df2a551-541d-48a5-aba7-330f710e11c2","system_id":"levelo_inurba_marseille","lat":43.296921,"lon":5.376579,"is_reserved":false,"is_disabled":false,"rental_uris":{"android":"levelo://app?vid=7df2a551-541d-48a5-aba7-330f710e11c2","ios":"levelo://app?vid=7df2a551-541d-48a5-aba7-330f710e11c2"},"vehicle_type_id":"4","last_reported":1706375158,"current_range_meters":0,"station_id":"ce4bgkh2rcd13ifvqbl0","pricing_plan_id":"free"},{"bike_id":"c818a8bd-3fd0-4f9f-9d64-f22578face99","system_id":"levelo_inurba_marseille","lat":43.299028,"lon":5.381509,"is_reserved":false,"is_disabled":false,"rental_uris":{"android":"levelo://app?vid=c818a8bd-3fd0-4f9f-9d64-f22578face99","ios":"levelo://app?vid=c818a8bd-3fd0-4f9f-9d64-f22578face99"},"vehicle_type_id":"4","last_reported":1706375158,"current_range_meters":11600,"station_id":"ce4bgj12rcd13ifvqbc0","pricing_plan_id":"free"},{"bike_id":"208ef91e-71fc-424b-b3d4-096c2c488c6a","system_id":"levelo_inurba_marseille","lat":43.299028,"lon":5.381509,"is_reserved":false,"is_disabled":false,"rental_uris":{"android":"levelo://app?vid=208ef91e-71fc-424b-b3d4-096c2c488c6a","ios":"levelo://app?vid=208ef91e-71fc-424b-b3d4-096c2c488c6a"},"vehicle_type_id":"4","last_reported":1706375158,"current_range_meters":3200,"station_id":"ce4bgj12rcd13ifvqbc0","pricing_plan_id":"free"},{"bike_id":"5849c8f1-de07-480c-ab10-c023b55280ba","system_id":"levelo_inurba_marseille","lat":43.32223,"lon":5.38691,"is_reserved":false,"is_disabled":false,"rental_uris":{"android":"levelo://app?vid=5849c8f1-de07-480c-ab10-c023b55280ba","ios":"levelo://app?vid=5849c8f1-de07-480c-ab10-c023b55280ba"},"vehicle_type_id":"4","last_reported":1706375158,"current_range_meters":1600,"station_id":"","pricing_plan_id":"free"},{"bike_id":"1843a16f-5926-4ba5-ab13-d972d3f50e10","system_id":"levelo_inurba_marseille","lat":43.317557,"lon":5.390173,"is_reserved":false,"is_disabled":false,"rental_uris":{"android":"levelo://app?vid=1843a16f-5926-4ba5-ab13-d972d3f50e10","ios":"levelo://app?vid=1843a16f-5926-4ba5-ab13-d972d3f50e10"},"vehicle_type_id":"4","last_reported":1706375158,"current_range_meters":0,"station_id":"ce4bhqp2rcd13ifvqhng","pricing_plan_id":"free"},{"bike_id":"70181dc9-1dd9-4157-8427-fa477c82bef4","system_id":"levelo_inurba_marseille","lat":43.295748,"lon":5.37522,"is_reserved":false,"is_disabled":false,"rental_uris":{"android":"levelo://app?vid=70181dc9-1dd9-4157-8427-fa477c82bef4","ios":"levelo://app?vid=70181dc9-1dd9-4157-8427-fa477c82bef4"},"vehicle_type_id":"4","last_reported":1706375158,"current_range_meters":8800,"station_id":"ce4bgh92rcd13ifvqb50","pricing_plan_id":"free"},{"bike_id":"65d229a9-d104-436c-85d7-73ee1f4db661","system_id":"levelo_inurba_marseille","lat":43.298037,"lon":5.381066,"is_reserved":false,"is_disabled":false,"rental_uris":{"android":"levelo://app?vid=65d229a9-d104-436c-85d7-73ee1f4db661","ios":"levelo://app?vid=65d229a9-d104-436c-85d7-73ee1f4db661"},"vehicle_type_id":"4","last_reported":1706375158,"current_range_meters":12800,"station_id":"ce4bgip2rcd13ifvqbb0","pricing_plan_id":"free"},{"bike_id":"8e6aa868-0668-458f-9d86-7e763a034dea","system_id":"levelo_inurba_marseille","lat":43.298037,"lon":5.381066,"is_reserved":false,"is_disabled":false,"rental_uris":{"android":"levelo://app?vid=8e6aa868-0668-458f-9d86-7e763a034dea","ios":"levelo://app?vid=8e6aa868-0668-458f-9d86-7e763a034dea"},"vehicle_type_id":"4","last_reported":1706375158,"current_range_meters":14000,"station_id":"ce4bgip2rcd13ifvqbb0","pricing_plan_id":"free"},{"bike_id":"0006ad74-8492-4dd5-a1f9-38ac03cba767","system_id":"levelo_inurba_marseille","lat":43.295748,"lon":5.37522,"is_reserved":false,"is_disabled":false,"rental_uris":{"android":"levelo://app?vid=0006ad74-8492-4dd5-a1f9-38ac03cba767","ios":"levelo://app?vid=0006ad74-8492-4dd5-a1f9-38ac03cba767"},"vehicle_type_id":"4","last_reported":1706375158,"current_range_meters":0,"station_id":"ce4bgh92rcd13ifvqb50","pricing_plan_id":"free"},{"bike_id":"97dcaa57-ec97-4664-b3a6-78bc80186302","system_id":"levelo_inurba_marseille","lat":43.304274,"lon":5.388873,"is_reserved":false,"is_disabled":false,"rental_uris":{"android":"levelo://app?vid=97dcaa57-ec97-4664-b3a6-78bc80186302","ios":"levelo://app?vid=97dcaa57-ec97-4664-b3a6-78bc80186302"},"vehicle_type_id":"4","last_reported":1706375158,"current_range_meters":1200,"station_id":"ce4bgk12rcd13ifvqbi0","pricing_plan_id":"free"},{"bike_id":"98b8aeb4-64b5-4106-a8cd-474e14144c7f","system_id":"levelo_inurba_marseille","lat":43.299717,"lon":5.384845,"is_reserved":false,"is_disabled":false,"rental_uris":{"android":"levelo://app?vid=98b8aeb4-64b5-4106-a8cd-474e14144c7f","ios":"levelo://app?vid=98b8aeb4-64b5-4106-a8cd-474e14144c7f"},"vehicle_type_id":"4","last_reported":1706375158,"current_range_meters":0,"station_id":"ce4bgj92rcd13ifvqbd0","pricing_plan_id":"free"},{"bike_id":"74dc548a-33d0-4526-be26-b8322bda79eb","system_id":"levelo_inurba_marseille","lat":43.293183,"lon":5.37145,"is_reserved":false,"is_disabled":false,"rental_uris":{"android":"levelo://app?vid=74dc548a-33d0-4526-be26-b8322bda79eb","ios":"levelo://app?vid=74dc548a-33d0-4526-be26-b8322bda79eb"},"vehicle_type_id":"4","last_reported":1706375158,"current_range_meters":0,"station_id":"ce4bgh92rcd13ifvqb40","pricing_plan_id":"free"},{"bike_id":"2a79dede-d0d3-4eaa-a02a-3ee0758a520f","system_id":"levelo_inurba_marseille","lat":43.2936,"lon":5.37835,"is_reserved":false,"is_disabled":false,"rental_uris":{"android":"levelo://app?vid=2a79dede-d0d3-4eaa-a02a-3ee0758a520f","ios":"levelo://app?vid=2a79dede-d0d3-4eaa-a02a-3ee0758a520f"},"vehicle_type_id":"4","last_reported":1706375158,"current_range_meters":21600,"station_id":"ce4bgjh2rcd13ifvqbf0","pricing_plan_id":"free"},{"bike_id":"84a1007d-28fb-46ee-a56f-ddc6d4437d0e","system_id":"levelo_inurba_marseille","lat":43.29365,"lon":5.37864,"is_reserved":false,"is_disabled":false,"rental_uris":{"android":"levelo://app?vid=84a1007d-28fb-46ee-a56f-ddc6d4437d0e","ios":"levelo://app?vid=84a1007d-28fb-46ee-a56f-ddc6d4437d0e"},"vehicle_type_id":"4","last_reported":1706375158,"current_range_meters":0,"station_id":"ce4bgjh2rcd13ifvqbf0","pricing_plan_id":"free"},{"bike_id":"39bd56e6-b238-4ceb-8086-9abecca0933e","system_id":"levelo_inurba_marseille","lat":43.292311,"lon":5.360731,"is_reserved":false,"is_disabled":false,"rental_uris":{"android":"levelo://app?vid=39bd56e6-b238-4ceb-8086-9abecca0933e","ios":"levelo://app?vid=39bd56e6-b238-4ceb-8086-9abecca0933e"},"vehicle_type_id":"4","last_reported":1706375158,"current_range_meters":28400,"station_id":"ce4bhbh2rcd13ifvqeqg","pricing_plan_id":"free"},{"bike_id":"9dad0c12-27de-4815-9acd-6e8d86a4347e","system_id":"levelo_inurba_marseille","lat":43.292311,"lon":5.360731,"is_reserved":false,"is_disabled":false,"rental_uris":{"android":"levelo://app?vid=9dad0c12-27de-4815-9acd-6e8d86a4347e","ios":"levelo://app?vid=9dad0c12-27de-4815-9acd-6e8d86a4347e"},"vehicle_type_id":"4","last_reported":1706375158,"current_range_meters":30000,"station_id":"ce4bhbh2rcd13ifvqeqg","pricing_plan_id":"free"},{"bike_id":"d4bc58cc-efee-43bd-8104-0cdc20dbc42b","system_id":"levelo_inurba_marseille","lat":43.292311,"lon":5.360731,"is_reserved":false,"is_disabled":false,"rental_uris":{"android":"levelo://app?vid=d4bc58cc-efee-43bd-8104-0cdc20dbc42b","ios":"levelo://app?vid=d4bc58cc-efee-43bd-8104-0cdc20dbc42b"},"vehicle_type_id":"4","last_reported":1706375158,"current_range_meters":26400,"station_id":"ce4bhbh2rcd13ifvqeqg","pricing_plan_id":"free"},{"bike_id":"bdfb28d5-9745-48d2-b0cb-a95d52b1f222","system_id":"levelo_inurba_marseille","lat":43.292311,"lon":5.360731,"is_reserved":false,"is_disabled":false,"rental_uris":{"android":"levelo://app?vid=bdfb28d5-9745-48d2-b0cb-a95d52b1f222","ios":"levelo://app?vid=bdfb28d5-9745-48d2-b0cb-a95d52b1f222"},"vehicle_type_id":"4","last_reported":1706375158,"current_range_meters":30000,"station_id":"ce4bhbh2rcd13ifvqeqg","pricing_plan_id":"free"},{"bike_id":"07434899-241e-4c56-abc0-3c34abf2c6db","system_id":"levelo_inurba_marseille","lat":43.29217,"lon":5.36073,"is_reserved":false,"is_disabled":false,"rental_uris":{"android":"levelo://app?vid=07434899-241e-4c56-abc0-3c34abf2c6db","ios":"levelo://app?vid=07434899-241e-4c56-abc0-3c34abf2c6db"},"vehicle_type_id":"4","last_reported":1706375158,"current_range_meters":31200,"station_id":"ce4bhbh2rcd13ifvqeqg","pricing_plan_id":"free"},{"bike_id":"41460f3e-72a1-4dac-8255-2131684b43dd","system_id":"levelo_inurba_marseille","lat":43.292185,"lon":5.360565,"is_reserved":false,"is_disabled":false,"rental_uris":{"android":"levelo://app?vid=41460f3e-72a1-4dac-8255-2131684b43dd","ios":"levelo://app?vid=41460f3e-72a1-4dac-8255-2131684b43dd"},"vehicle_type_id":"4","last_reported":1706375158,"current_range_meters":31200,"station_id":"ce4bhbh2rcd13ifvqeqg","pricing_plan_id":"free"},{"bike_id":"b397a939-3e72-4624-888c-f0cab6401707","system_id":"levelo_inurba_marseille","lat":43.29214,"lon":5.36056,"is_reserved":false,"is_disabled":false,"rental_uris":{"android":"levelo://app?vid=b397a939-3e72-4624-888c-f0cab6401707","ios":"levelo://app?vid=b397a939-3e72-4624-888c-f0cab6401707"},"vehicle_type_id":"4","last_reported":1706375158,"current_range_meters":31200,"station_id":"ce4bhbh2rcd13ifvqeqg","pricing_plan_id":"free"},{"bike_id":"1eb8a413-37d4-4e3e-a020-235678bb41b0","system_id":"levelo_inurba_marseille","lat":43.29213,"lon":5.36045,"is_reserved":false,"is_disabled":false,"rental_uris":{"android":"levelo://app?vid=1eb8a413-37d4-4e3e-a020-235678bb41b0","ios":"levelo://app?vid=1eb8a413-37d4-4e3e-a020-235678bb41b0"},"vehicle_type_id":"4","last_reported":1706375158,"current_range_meters":29200,"station_id":"ce4bhbh2rcd13ifvqeqg","pricing_plan_id":"free"},{"bike_id":"ceb1f494-fcd5-4c45-b557-aeed77783d61","system_id":"levelo_inurba_marseille","lat":43.29212,"lon":5.36046,"is_reserved":false,"is_disabled":false,"rental_uris":{"android":"levelo://app?vid=ceb1f494-fcd5-4c45-b557-aeed77783d61","ios":"levelo://app?vid=ceb1f494-fcd5-4c45-b557-aeed77783d61"},"vehicle_type_id":"4","last_reported":1706375158,"current_range_meters":13600,"station_id":"ce4bhbh2rcd13ifvqeqg","pricing_plan_id":"free"},{"bike_id":"519cb416-7c04-4d6a-bd79-20934dc2dcef","system_id":"levelo_inurba_marseille","lat":43.298764,"lon":5.388973,"is_reserved":false,"is_disabled":false,"rental_uris":{"android":"levelo://app?vid=519cb416-7c04-4d6a-bd79-20934dc2dcef","ios":"levelo://app?vid=519cb416-7c04-4d6a-bd79-20934dc2dcef"},"vehicle_type_id":"4","last_reported":1706375158,"current_range_meters":0,"station_id":"ce4bh392rcd13ifvqdl0","pricing_plan_id":"free"},{"bike_id":"2cdd5039-e8ec-441b-9bd5-4c34b690b828","system_id":"levelo_inurba_marseille","lat":43.30492,"lon":5.394199,"is_reserved":false,"is_disabled":false,"rental_uris":{"android":"levelo://app?vid=2cdd5039-e8ec-441b-9bd5-4c34b690b828","ios":"levelo://app?vid=2cdd5039-e8ec-441b-9bd5-4c34b690b828"},"vehicle_type_id":"4","last_reported":1706375158,"current_range_meters":19600,"station_id":"","pricing_plan_id":"free"},{"bike_id":"35a5a8f9-cff3-4876-955f-37d30e34a46e","system_id":"levelo_inurba_marseille","lat":43.295345,"lon":5.385555,"is_reserved":false,"is_disabled":false,"rental_uris":{"android":"levelo://app?vid=35a5a8f9-cff3-4876-955f-37d30e34a46e","ios":"levelo://app?vid=35a5a8f9-cff3-4876-955f-37d30e34a46e"},"vehicle_type_id":"4","last_reported":1706375158,"current_range_meters":0,"station_id":"ce4bgih2rcd13ifvqba0","pricing_plan_id":"free"},{"bike_id":"292c0037-c236-4478-8b46-d108e6946870","system_id":"levelo_inurba_marseille","lat":43.29529,"lon":5.385581,"is_reserved":false,"is_disabled":false,"rental_uris":{"android":"levelo://app?vid=292c0037-c236-4478-8b46-d108e6946870","ios":"levelo://app?vid=292c0037-c236-4478-8b46-d108e6946870"},"vehicle_type_id":"4","last_reported":1706375158,"current_range_meters":2400,"station_id":"ce4bgih2rcd13ifvqba0","pricing_plan_id":"free"},{"bike_id":"ead0a0d4-1c0d-478c-ba81-01a0c748c925","system_id":"levelo_inurba_marseille","lat":43.290779,"lon":5.371482,"is_reserved":false,"is_disabled":false,"rental_uris":{"android":"levelo://app?vid=ead0a0d4-1c0d-478c-ba81-01a0c748c925","ios":"levelo://app?vid=ead0a0d4-1c0d-478c-ba81-01a0c748c925"},"vehicle_type_id":"4","last_reported":1706375158,"current_range_meters":0,"station_id":"ce4bh5p2rcd13ifvqe4g","pricing_plan_id":"free"},{"bike_id":"6376fa62-1aba-427c-855f-083c5b046223","system_id":"levelo_inurba_marseille","lat":43.302008,"lon":5.394694,"is_reserved":false,"is_disabled":false,"rental_uris":{"android":"levelo://app?vid=6376fa62-1aba-427c-855f-083c5b046223","ios":"levelo://app?vid=6376fa62-1aba-427c-855f-083c5b046223"},"vehicle_type_id":"4","last_reported":1706375158,"current_range_meters":0,"station_id":"ce4bh0p2rcd13ifvqd70","pricing_plan_id":"free"},{"bike_id":"e00a2eb7-b003-488c-9e63-d47aa107d4fe","system_id":"levelo_inurba_marseille","lat":43.290624,"lon":5.359245,"is_reserved":false,"is_disabled":false,"rental_uris":{"android":"levelo://app?vid=e00a2eb7-b003-488c-9e63-d47aa107d4fe","ios":"levelo://app?vid=e00a2eb7-b003-488c-9e63-d47aa107d4fe"},"vehicle_type_id":"4","last_reported":1706375158,"current_range_meters":12000,"station_id":"ce4bha92rcd13ifvqeg0","pricing_plan_id":"free"},{"bike_id":"17ca140e-4917-4167-b27c-941c65672e92","system_id":"levelo_inurba_marseille","lat":43.290441,"lon":5.359123,"is_reserved":false,"is_disabled":false,"rental_uris":{"android":"levelo://app?vid=17ca140e-4917-4167-b27c-941c65672e92","ios":"levelo://app?vid=17ca140e-4917-4167-b27c-941c65672e92"},"vehicle_type_id":"4","last_reported":1706375158,"current_range_meters":28800,"station_id":"","pricing_plan_id":"free"},{"bike_id":"e431e4f6-a588-4703-ae7b-657c1735f41c","system_id":"levelo_inurba_marseille","lat":43.289184,"lon":5.366408,"is_reserved":false,"is_disabled":false,"rental_uris":{"android":"levelo://app?vid=e431e4f6-a588-4703-ae7b-657c1735f41c","ios":"levelo://app?vid=e431e4f6-a588-4703-ae7b-657c1735f41c"},"vehicle_type_id":"4","last_reported":1706375158,"current_range_meters":6800,"station_id":"ce4bhap2rcd13ifvqek0","pricing_plan_id":"free"},{"bike_id":"10cc56ac-40d2-4f68-aa69-d1c492d33279","system_id":"levelo_inurba_marseille","lat":43.289184,"lon":5.366408,"is_reserved":false,"is_disabled":false,"rental_uris":{"android":"levelo://app?vid=10cc56ac-40d2-4f68-aa69-d1c492d33279","ios":"levelo://app?vid=10cc56ac-40d2-4f68-aa69-d1c492d33279"},"vehicle_type_id":"4","last_reported":1706375158,"current_range_meters":0,"station_id":"ce4bhap2rcd13ifvqek0","pricing_plan_id":"free"},{"bike_id":"d06060c5-90b0-46ba-8ca4-b29b3bfd6c8d","system_id":"levelo_inurba_marseille","lat":43.289184,"lon":5.366408,"is_reserved":false,"is_disabled":false,"rental_uris":{"android":"levelo://app?vid=d06060c5-90b0-46ba-8ca4-b29b3bfd6c8d","ios":"levelo://app?vid=d06060c5-90b0-46ba-8ca4-b29b3bfd6c8d"},"vehicle_type_id":"4","last_reported":1706375158,"current_range_meters":2000,"station_id":"ce4bhap2rcd13ifvqek0","pricing_plan_id":"free"},{"bike_id":"7f8e47be-b8b7-4bde-bcce-53001b7e8303","system_id":"levelo_inurba_marseille","lat":43.289357,"lon":5.366307,"is_reserved":false,"is_disabled":false,"rental_uris":{"android":"levelo://app?vid=7f8e47be-b8b7-4bde-bcce-53001b7e8303","ios":"levelo://app?vid=7f8e47be-b8b7-4bde-bcce-53001b7e8303"},"vehicle_type_id":"4","last_reported":1706375158,"current_range_meters":0,"station_id":"ce4bhap2rcd13ifvqek0","pricing_plan_id":"free"},{"bike_id":"dadbaed8-b3f9-4b51-92ca-eb91efae7533","system_id":"levelo_inurba_marseille","lat":43.289184,"lon":5.366408,"is_reserved":false,"is_disabled":false,"rental_uris":{"android":"levelo://app?vid=dadbaed8-b3f9-4b51-92ca-eb91efae7533","ios":"levelo://app?vid=dadbaed8-b3f9-4b51-92ca-eb91efae7533"},"vehicle_type_id":"4","last_reported":1706375158,"current_range_meters":6000,"station_id":"ce4bhap2rcd13ifvqek0","pricing_plan_id":"free"},{"bike_id":"b6534b53-c1f7-4e51-a563-268acb6d2a0e","system_id":"levelo_inurba_marseille","lat":43.289468,"lon":5.363719,"is_reserved":false,"is_disabled":false,"rental_uris":{"android":"levelo://app?vid=b6534b53-c1f7-4e51-a563-268acb6d2a0e","ios":"levelo://app?vid=b6534b53-c1f7-4e51-a563-268acb6d2a0e"},"vehicle_type_id":"4","last_reported":1706375158,"current_range_meters":8000,"station_id":"ce4bhc92rcd13ifvqetg","pricing_plan_id":"free"},{"bike_id":"032fd611-238c-4a14-b2df-aa1ab6bd5b81","system_id":"levelo_inurba_marseille","lat":43.289468,"lon":5.363719,"is_reserved":false,"is_disabled":false,"rental_uris":{"android":"levelo://app?vid=032fd611-238c-4a14-b2df-aa1ab6bd5b81","ios":"levelo://app?vid=032fd611-238c-4a14-b2df-aa1ab6bd5b81"},"vehicle_type_id":"4","last_reported":1706375158,"current_range_meters":20400,"station_id":"ce4bhc92rcd13ifvqetg","pricing_plan_id":"free"},{"bike_id":"91f4ca12-537c-432c-aa89-9103a7ccc709","system_id":"levelo_inurba_marseille","lat":43.304274,"lon":5.397513,"is_reserved":false,"is_disabled":false,"rental_uris":{"android":"levelo://app?vid=91f4ca12-537c-432c-aa89-9103a7ccc709","ios":"levelo://app?vid=91f4ca12-537c-432c-aa89-9103a7ccc709"},"vehicle_type_id":"4","last_reported":1706375158,"current_range_meters":0,"station_id":"ce4bh092rcd13ifvqd20","pricing_plan_id":"free"},{"bike_id":"d07c3f84-c53d-41b9-aa5d-59d3ac0ce9ae","system_id":"levelo_inurba_marseille","lat":43.290995,"lon":5.381361,"is_reserved":false,"is_disabled":false,"rental_uris":{"android":"levelo://app?vid=d07c3f84-c53d-41b9-aa5d-59d3ac0ce9ae","ios":"levelo://app?vid=d07c3f84-c53d-41b9-aa5d-59d3ac0ce9ae"},"vehicle_type_id":"4","last_reported":1706375158,"current_range_meters":400,"station_id":"ce4bh512rcd13ifvqe2g","pricing_plan_id":"free"},{"bike_id":"e7bc585e-c88b-458e-a4d7-5760678a9a0a","system_id":"levelo_inurba_marseille","lat":43.29788,"lon":5.39332,"is_reserved":false,"is_disabled":false,"rental_uris":{"android":"levelo://app?vid=e7bc585e-c88b-458e-a4d7-5760678a9a0a","ios":"levelo://app?vid=e7bc585e-c88b-458e-a4d7-5760678a9a0a"},"vehicle_type_id":"4","last_reported":1706375158,"current_range_meters":25200,"station_id":"chh1huq6cuj3fo74tm60","pricing_plan_id":"free"},{"bike_id":"5812dda4-8878-4d9a-8741-e35e4b974a8a","system_id":"levelo_inurba_marseille","lat":43.28727,"lon":5.36078,"is_reserved":false,"is_disabled":false,"rental_uris":{"android":"levelo://app?vid=5812dda4-8878-4d9a-8741-e35e4b974a8a","ios":"levelo://app?vid=5812dda4-8878-4d9a-8741-e35e4b974a8a"},"vehicle_type_id":"4","last_reported":1706375158,"current_range_meters":6400,"station_id":"cki0cbj6b192h4jlfktg","pricing_plan_id":"free"},{"bike_id":"1f8301df-1f09-4bc7-859e-769c82138102","system_id":"levelo_inurba_marseille","lat":43.295169,"lon":5.390426,"is_reserved":false,"is_disabled":false,"rental_uris":{"android":"levelo://app?vid=1f8301df-1f09-4bc7-859e-769c82138102","ios":"levelo://app?vid=1f8301df-1f09-4bc7-859e-769c82138102"},"vehicle_type_id":"4","last_reported":1706375158,"current_range_meters":8000,"station_id":"ce4bh3p2rcd13ifvqdp0","pricing_plan_id":"free"},{"bike_id":"5425a5f3-ce88-4189-afd1-9f08acaf5470","system_id":"levelo_inurba_marseille","lat":43.29522,"lon":5.39041,"is_reserved":false,"is_disabled":false,"rental_uris":{"android":"levelo://app?vid=5425a5f3-ce88-4189-afd1-9f08acaf5470","ios":"levelo://app?vid=5425a5f3-ce88-4189-afd1-9f08acaf5470"},"vehicle_type_id":"4","last_reported":1706375158,"current_range_meters":5200,"station_id":"ce4bh3p2rcd13ifvqdp0","pricing_plan_id":"free"},{"bike_id":"5bccb220-e9a2-4490-bf06-b98f32528009","system_id":"levelo_inurba_marseille","lat":43.330442,"lon":5.389148,"is_reserved":false,"is_disabled":false,"rental_uris":{"android":"levelo://app?vid=5bccb220-e9a2-4490-bf06-b98f32528009","ios":"levelo://app?vid=5bccb220-e9a2-4490-bf06-b98f32528009"},"vehicle_type_id":"4","last_reported":1706375158,"current_range_meters":2000,"station_id":"ce4bhr92rcd13ifvqhrg","pricing_plan_id":"free"},{"bike_id":"4d68e486-89e8-4259-912c-19f8a90ace79","system_id":"levelo_inurba_marseille","lat":43.29774,"lon":5.39354,"is_reserved":false,"is_disabled":false,"rental_uris":{"android":"levelo://app?vid=4d68e486-89e8-4259-912c-19f8a90ace79","ios":"levelo://app?vid=4d68e486-89e8-4259-912c-19f8a90ace79"},"vehicle_type_id":"4","last_reported":1706375158,"current_range_meters":0,"station_id":"chh1huq6cuj3fo74tm60","pricing_plan_id":"free"},{"bike_id":"652f5fca-cb0c-4af7-b2aa-b051d68b6772","system_id":"levelo_inurba_marseille","lat":43.289307,"lon":5.38406,"is_reserved":false,"is_disabled":false,"rental_uris":{"android":"levelo://app?vid=652f5fca-cb0c-4af7-b2aa-b051d68b6772","ios":"levelo://app?vid=652f5fca-cb0c-4af7-b2aa-b051d68b6772"},"vehicle_type_id":"4","last_reported":1706375158,"current_range_meters":1600,"station_id":"ce4bh612rcd13ifvqe6g","pricing_plan_id":"free"},{"bike_id":"8dd9a4f8-a946-46fb-b17a-6fe54d60bcfd","system_id":"levelo_inurba_marseille","lat":43.295169,"lon":5.390426,"is_reserved":false,"is_disabled":false,"rental_uris":{"android":"levelo://app?vid=8dd9a4f8-a946-46fb-b17a-6fe54d60bcfd","ios":"levelo://app?vid=8dd9a4f8-a946-46fb-b17a-6fe54d60bcfd"},"vehicle_type_id":"4","last_reported":1706375158,"current_range_meters":2000,"station_id":"ce4bh3p2rcd13ifvqdp0","pricing_plan_id":"free"},{"bike_id":"d3964518-0a31-4af0-a778-64ffc6c2256b","system_id":"levelo_inurba_marseille","lat":43.29764,"lon":5.3936,"is_reserved":false,"is_disabled":false,"rental_uris":{"android":"levelo://app?vid=d3964518-0a31-4af0-a778-64ffc6c2256b","ios":"levelo://app?vid=d3964518-0a31-4af0-a778-64ffc6c2256b"},"vehicle_type_id":"4","last_reported":1706375158,"current_range_meters":13200,"station_id":"chh1huq6cuj3fo74tm60","pricing_plan_id":"free"},{"bike_id":"273b5323-bfe7-4d86-986e-73251b679424","system_id":"levelo_inurba_marseille","lat":43.289741,"lon":5.378306,"is_reserved":false,"is_disabled":false,"rental_uris":{"android":"levelo://app?vid=273b5323-bfe7-4d86-986e-73251b679424","ios":"levelo://app?vid=273b5323-bfe7-4d86-986e-73251b679424"},"vehicle_type_id":"4","last_reported":1706375158,"current_range_meters":1200,"station_id":"ce4bh9p2rcd13ifvqed0","pricing_plan_id":"free"},{"bike_id":"d4000725-0694-4a5c-b0f1-bee6cc354466","system_id":"levelo_inurba_marseille","lat":43.28856,"lon":5.358371,"is_reserved":false,"is_disabled":false,"rental_uris":{"android":"levelo://app?vid=d4000725-0694-4a5c-b0f1-bee6cc354466","ios":"levelo://app?vid=d4000725-0694-4a5c-b0f1-bee6cc354466"},"vehicle_type_id":"4","last_reported":1706375158,"current_range_meters":14400,"station_id":"ce4bhb12rcd13ifvqem0","pricing_plan_id":"free"},{"bike_id":"91061484-dc67-44a1-ba90-f981df2236b0","system_id":"levelo_inurba_marseille","lat":43.290104,"lon":5.356111,"is_reserved":false,"is_disabled":false,"rental_uris":{"android":"levelo://app?vid=91061484-dc67-44a1-ba90-f981df2236b0","ios":"levelo://app?vid=91061484-dc67-44a1-ba90-f981df2236b0"},"vehicle_type_id":"4","last_reported":1706375158,"current_range_meters":8400,"station_id":"ce4bhb92rcd13ifvqen0","pricing_plan_id":"free"},{"bike_id":"c80b7760-53ec-415b-9b7c-76734b7da22c","system_id":"levelo_inurba_marseille","lat":43.309371,"lon":5.401449,"is_reserved":false,"is_disabled":false,"rental_uris":{"android":"levelo://app?vid=c80b7760-53ec-415b-9b7c-76734b7da22c","ios":"levelo://app?vid=c80b7760-53ec-415b-9b7c-76734b7da22c"},"vehicle_type_id":"4","last_reported":1706375158,"current_range_meters":0,"station_id":"ce4bgvp2rcd13ifvqct0","pricing_plan_id":"free"},{"bike_id":"9a508294-f426-4206-8b2c-2ed5648f5230","system_id":"levelo_inurba_marseille","lat":43.309371,"lon":5.401449,"is_reserved":false,"is_disabled":false,"rental_uris":{"android":"levelo://app?vid=9a508294-f426-4206-8b2c-2ed5648f5230","ios":"levelo://app?vid=9a508294-f426-4206-8b2c-2ed5648f5230"},"vehicle_type_id":"4","last_reported":1706375158,"current_range_meters":0,"station_id":"ce4bgvp2rcd13ifvqct0","pricing_plan_id":"free"},{"bike_id":"19eb03d2-c611-4d37-a762-7efb1f3a3fc9","system_id":"levelo_inurba_marseille","lat":43.309371,"lon":5.401449,"is_reserved":false,"is_disabled":false,"rental_uris":{"android":"levelo://app?vid=19eb03d2-c611-4d37-a762-7efb1f3a3fc9","ios":"levelo://app?vid=19eb03d2-c611-4d37-a762-7efb1f3a3fc9"},"vehicle_type_id":"4","last_reported":1706375158,"current_range_meters":0,"station_id":"ce4bgvp2rcd13ifvqct0","pricing_plan_id":"free"},{"bike_id":"a563cdbf-78b8-441c-8dce-8da1c3325b92","system_id":"levelo_inurba_marseille","lat":43.33748,"lon":5.37462,"is_reserved":false,"is_disabled":false,"rental_uris":{"android":"levelo://app?vid=a563cdbf-78b8-441c-8dce-8da1c3325b92","ios":"levelo://app?vid=a563cdbf-78b8-441c-8dce-8da1c3325b92"},"vehicle_type_id":"4","last_reported":1706375158,"current_range_meters":18000,"station_id":"","pricing_plan_id":"free"},{"bike_id":"1facbbf3-baac-42f8-85eb-cb1e36f3e4b9","system_id":"levelo_inurba_marseille","lat":43.33758,"lon":5.37493,"is_reserved":false,"is_disabled":false,"rental_uris":{"android":"levelo://app?vid=1facbbf3-baac-42f8-85eb-cb1e36f3e4b9","ios":"levelo://app?vid=1facbbf3-baac-42f8-85eb-cb1e36f3e4b9"},"vehicle_type_id":"4","last_reported":1706375158,"current_range_meters":18800,"station_id":"","pricing_plan_id":"free"},{"bike_id":"b7f12eab-e0a6-499e-87ec-2b4381c4602a","system_id":"levelo_inurba_marseille","lat":43.33761,"lon":5.37491,"is_reserved":false,"is_disabled":false,"rental_uris":{"android":"levelo://app?vid=b7f12eab-e0a6-499e-87ec-2b4381c4602a","ios":"levelo://app?vid=b7f12eab-e0a6-499e-87ec-2b4381c4602a"},"vehicle_type_id":"4","last_reported":1706375158,"current_range_meters":23600,"station_id":"","pricing_plan_id":"free"},{"bike_id":"b7d3b81d-d85a-44b5-a0c7-8f9c9f74639e","system_id":"levelo_inurba_marseille","lat":43.33765,"lon":5.374672,"is_reserved":false,"is_disabled":false,"rental_uris":{"android":"levelo://app?vid=b7d3b81d-d85a-44b5-a0c7-8f9c9f74639e","ios":"levelo://app?vid=b7d3b81d-d85a-44b5-a0c7-8f9c9f74639e"},"vehicle_type_id":"4","last_reported":1706375158,"current_range_meters":30000,"station_id":"","pricing_plan_id":"free"},{"bike_id":"a9554a78-0f9d-4cdd-9ecd-598bb2d54931","system_id":"levelo_inurba_marseille","lat":43.337655,"lon":5.374792,"is_reserved":false,"is_disabled":false,"rental_uris":{"android":"levelo://app?vid=a9554a78-0f9d-4cdd-9ecd-598bb2d54931","ios":"levelo://app?vid=a9554a78-0f9d-4cdd-9ecd-598bb2d54931"},"vehicle_type_id":"4","last_reported":1706375158,"current_range_meters":31200,"station_id":"","pricing_plan_id":"free"},{"bike_id":"02cc1ce4-717f-4b60-a8ae-e32a4e8fb56c","system_id":"levelo_inurba_marseille","lat":43.33764,"lon":5.37491,"is_reserved":false,"is_disabled":false,"rental_uris":{"android":"levelo://app?vid=02cc1ce4-717f-4b60-a8ae-e32a4e8fb56c","ios":"levelo://app?vid=02cc1ce4-717f-4b60-a8ae-e32a4e8fb56c"},"vehicle_type_id":"4","last_reported":1706375158,"current_range_meters":12000,"station_id":"","pricing_plan_id":"free"},{"bike_id":"0a270017-e5be-4177-98a4-38dc2431d7fb","system_id":"levelo_inurba_marseille","lat":43.30642,"lon":5.401031,"is_reserved":false,"is_disabled":false,"rental_uris":{"android":"levelo://app?vid=0a270017-e5be-4177-98a4-38dc2431d7fb","ios":"levelo://app?vid=0a270017-e5be-4177-98a4-38dc2431d7fb"},"vehicle_type_id":"4","last_reported":1706375158,"current_range_meters":12000,"station_id":"ce4bh112rcd13ifvqda0","pricing_plan_id":"free"},{"bike_id":"eaeff2f9-be33-4cbc-b315-c230be10dd9b","system_id":"levelo_inurba_marseille","lat":43.33766,"lon":5.37495,"is_reserved":false,"is_disabled":false,"rental_uris":{"android":"levelo://app?vid=eaeff2f9-be33-4cbc-b315-c230be10dd9b","ios":"levelo://app?vid=eaeff2f9-be33-4cbc-b315-c230be10dd9b"},"vehicle_type_id":"4","last_reported":1706375158,"current_range_meters":10000,"station_id":"","pricing_plan_id":"free"},{"bike_id":"bd7c49e0-243f-4049-bc25-2de8f060bb29","system_id":"levelo_inurba_marseille","lat":43.337706,"lon":5.374854,"is_reserved":false,"is_disabled":false,"rental_uris":{"android":"levelo://app?vid=bd7c49e0-243f-4049-bc25-2de8f060bb29","ios":"levelo://app?vid=bd7c49e0-243f-4049-bc25-2de8f060bb29"},"vehicle_type_id":"4","last_reported":1706375158,"current_range_meters":24000,"station_id":"","pricing_plan_id":"free"},{"bike_id":"de623bca-2efb-40fa-9c56-9e3dac93c6c7","system_id":"levelo_inurba_marseille","lat":43.301117,"lon":5.398795,"is_reserved":false,"is_disabled":false,"rental_uris":{"android":"levelo://app?vid=de623bca-2efb-40fa-9c56-9e3dac93c6c7","ios":"levelo://app?vid=de623bca-2efb-40fa-9c56-9e3dac93c6c7"},"vehicle_type_id":"4","last_reported":1706375158,"current_range_meters":1200,"station_id":"ce4bh0h2rcd13ifvqd40","pricing_plan_id":"free"},{"bike_id":"6f7c50b9-3975-4d9a-a1ac-f00db1257c10","system_id":"levelo_inurba_marseille","lat":43.301117,"lon":5.398795,"is_reserved":false,"is_disabled":false,"rental_uris":{"android":"levelo://app?vid=6f7c50b9-3975-4d9a-a1ac-f00db1257c10","ios":"levelo://app?vid=6f7c50b9-3975-4d9a-a1ac-f00db1257c10"},"vehicle_type_id":"4","last_reported":1706375158,"current_range_meters":21600,"station_id":"ce4bh0h2rcd13ifvqd40","pricing_plan_id":"free"},{"bike_id":"b519b0af-4393-4a64-a1cf-96898ee8a8de","system_id":"levelo_inurba_marseille","lat":43.28727,"lon":5.36078,"is_reserved":false,"is_disabled":false,"rental_uris":{"android":"levelo://app?vid=b519b0af-4393-4a64-a1cf-96898ee8a8de","ios":"levelo://app?vid=b519b0af-4393-4a64-a1cf-96898ee8a8de"},"vehicle_type_id":"4","last_reported":1706375158,"current_range_meters":8800,"station_id":"cki0cbj6b192h4jlfktg","pricing_plan_id":"free"},{"bike_id":"8cbe545f-7fb9-4192-bba6-8a6b6350c923","system_id":"levelo_inurba_marseille","lat":43.28727,"lon":5.36078,"is_reserved":false,"is_disabled":false,"rental_uris":{"android":"levelo://app?vid=8cbe545f-7fb9-4192-bba6-8a6b6350c923","ios":"levelo://app?vid=8cbe545f-7fb9-4192-bba6-8a6b6350c923"},"vehicle_type_id":"4","last_reported":1706375158,"current_range_meters":5600,"station_id":"cki0cbj6b192h4jlfktg","pricing_plan_id":"free"},{"bike_id":"a4b7e777-10ad-4fff-8c04-d3539d61a663","system_id":"levelo_inurba_marseille","lat":43.28727,"lon":5.36078,"is_reserved":false,"is_disabled":false,"rental_uris":{"android":"levelo://app?vid=a4b7e777-10ad-4fff-8c04-d3539d61a663","ios":"levelo://app?vid=a4b7e777-10ad-4fff-8c04-d3539d61a663"},"vehicle_type_id":"4","last_reported":1706375158,"current_range_meters":12400,"station_id":"cki0cbj6b192h4jlfktg","pricing_plan_id":"free"},{"bike_id":"4a9528a6-2771-4aa5-a7f2-fae99dea0739","system_id":"levelo_inurba_marseille","lat":43.28727,"lon":5.36078,"is_reserved":false,"is_disabled":false,"rental_uris":{"android":"levelo://app?vid=4a9528a6-2771-4aa5-a7f2-fae99dea0739","ios":"levelo://app?vid=4a9528a6-2771-4aa5-a7f2-fae99dea0739"},"vehicle_type_id":"4","last_reported":1706375158,"current_range_meters":7200,"station_id":"cki0cbj6b192h4jlfktg","pricing_plan_id":"free"},{"bike_id":"bed24fba-0b19-46c9-a16c-920bf0d1741f","system_id":"levelo_inurba_marseille","lat":43.287184,"lon":5.37937,"is_reserved":false,"is_disabled":false,"rental_uris":{"android":"levelo://app?vid=bed24fba-0b19-46c9-a16c-920bf0d1741f","ios":"levelo://app?vid=bed24fba-0b19-46c9-a16c-920bf0d1741f"},"vehicle_type_id":"4","last_reported":1706375158,"current_range_meters":5200,"station_id":"ce4bh9p2rcd13ifvqec0","pricing_plan_id":"free"},{"bike_id":"e2d081a3-d0b0-4c35-92a8-80c84787a4f2","system_id":"levelo_inurba_marseille","lat":43.286591,"lon":5.363346,"is_reserved":false,"is_disabled":false,"rental_uris":{"android":"levelo://app?vid=e2d081a3-d0b0-4c35-92a8-80c84787a4f2","ios":"levelo://app?vid=e2d081a3-d0b0-4c35-92a8-80c84787a4f2"},"vehicle_type_id":"4","last_reported":1706375158,"current_range_meters":22800,"station_id":"ce4bhah2rcd13ifvqej0","pricing_plan_id":"free"},{"bike_id":"35716c5c-0b3e-4dc1-9247-98dde945be13","system_id":"levelo_inurba_marseille","lat":43.28661,"lon":5.363537,"is_reserved":false,"is_disabled":false,"rental_uris":{"android":"levelo://app?vid=35716c5c-0b3e-4dc1-9247-98dde945be13","ios":"levelo://app?vid=35716c5c-0b3e-4dc1-9247-98dde945be13"},"vehicle_type_id":"4","last_reported":1706375158,"current_range_meters":5600,"station_id":"","pricing_plan_id":"free"},{"bike_id":"f30ba714-f235-4db2-9d1e-ab769891c640","system_id":"levelo_inurba_marseille","lat":43.290345,"lon":5.38646,"is_reserved":false,"is_disabled":false,"rental_uris":{"android":"levelo://app?vid=f30ba714-f235-4db2-9d1e-ab769891c640","ios":"levelo://app?vid=f30ba714-f235-4db2-9d1e-ab769891c640"},"vehicle_type_id":"4","last_reported":1706375158,"current_range_meters":9200,"station_id":"ce4bh4p2rcd13ifvqe0g","pricing_plan_id":"free"},{"bike_id":"c80dd7cc-fe99-4d5e-a45d-6d100e3c3e5d","system_id":"levelo_inurba_marseille","lat":43.290345,"lon":5.38646,"is_reserved":false,"is_disabled":false,"rental_uris":{"android":"levelo://app?vid=c80dd7cc-fe99-4d5e-a45d-6d100e3c3e5d","ios":"levelo://app?vid=c80dd7cc-fe99-4d5e-a45d-6d100e3c3e5d"},"vehicle_type_id":"4","last_reported":1706375158,"current_range_meters":4400,"station_id":"ce4bh4p2rcd13ifvqe0g","pricing_plan_id":"free"},{"bike_id":"e5e50965-e3ae-44e1-a2f4-759c36a557fd","system_id":"levelo_inurba_marseille","lat":43.302759,"lon":5.400793,"is_reserved":false,"is_disabled":false,"rental_uris":{"android":"levelo://app?vid=e5e50965-e3ae-44e1-a2f4-759c36a557fd","ios":"levelo://app?vid=e5e50965-e3ae-44e1-a2f4-759c36a557fd"},"vehicle_type_id":"4","last_reported":1706375158,"current_range_meters":0,"station_id":"ce4bgvh2rcd13ifvqcs0","pricing_plan_id":"free"},{"bike_id":"183bb1c1-398f-466c-b05d-327ac4efc436","system_id":"levelo_inurba_marseille","lat":43.302511,"lon":5.400653,"is_reserved":false,"is_disabled":false,"rental_uris":{"android":"levelo://app?vid=183bb1c1-398f-466c-b05d-327ac4efc436","ios":"levelo://app?vid=183bb1c1-398f-466c-b05d-327ac4efc436"},"vehicle_type_id":"4","last_reported":1706375158,"current_range_meters":14400,"station_id":"ce4bgth2rcd13ifvqch0","pricing_plan_id":"free"},{"bike_id":"3a1a7267-d72e-44b1-bad7-f37af2048509","system_id":"levelo_inurba_marseille","lat":43.302759,"lon":5.400793,"is_reserved":false,"is_disabled":false,"rental_uris":{"android":"levelo://app?vid=3a1a7267-d72e-44b1-bad7-f37af2048509","ios":"levelo://app?vid=3a1a7267-d72e-44b1-bad7-f37af2048509"},"vehicle_type_id":"4","last_reported":1706375158,"current_range_meters":16400,"station_id":"ce4bgvh2rcd13ifvqcs0","pricing_plan_id":"free"},{"bike_id":"b87f75b9-9a1f-4d9e-b5bf-bb53725fa4b1","system_id":"levelo_inurba_marseille","lat":43.302759,"lon":5.400793,"is_reserved":false,"is_disabled":false,"rental_uris":{"android":"levelo://app?vid=b87f75b9-9a1f-4d9e-b5bf-bb53725fa4b1","ios":"levelo://app?vid=b87f75b9-9a1f-4d9e-b5bf-bb53725fa4b1"},"vehicle_type_id":"4","last_reported":1706375158,"current_range_meters":2000,"station_id":"ce4bgvh2rcd13ifvqcs0","pricing_plan_id":"free"},{"bike_id":"9ca77934-8be9-4afb-b860-7294569cf8d4","system_id":"levelo_inurba_marseille","lat":43.290336,"lon":5.386425,"is_reserved":false,"is_disabled":false,"rental_uris":{"android":"levelo://app?vid=9ca77934-8be9-4afb-b860-7294569cf8d4","ios":"levelo://app?vid=9ca77934-8be9-4afb-b860-7294569cf8d4"},"vehicle_type_id":"4","last_reported":1706375158,"current_range_meters":12400,"station_id":"ce4bh4p2rcd13ifvqe0g","pricing_plan_id":"free"},{"bike_id":"fd2e2799-edf7-4899-a0f2-8256a1673311","system_id":"levelo_inurba_marseille","lat":43.286039,"lon":5.370681,"is_reserved":false,"is_disabled":false,"rental_uris":{"android":"levelo://app?vid=fd2e2799-edf7-4899-a0f2-8256a1673311","ios":"levelo://app?vid=fd2e2799-edf7-4899-a0f2-8256a1673311"},"vehicle_type_id":"4","last_reported":1706375158,"current_range_meters":0,"station_id":"ce4bht12rcd13ifvqi60","pricing_plan_id":"free"},{"bike_id":"2fe24097-b1c2-4583-ba1f-cf8501171a4c","system_id":"levelo_inurba_marseille","lat":43.338861,"lon":5.378041,"is_reserved":false,"is_disabled":false,"rental_uris":{"android":"levelo://app?vid=2fe24097-b1c2-4583-ba1f-cf8501171a4c","ios":"levelo://app?vid=2fe24097-b1c2-4583-ba1f-cf8501171a4c"},"vehicle_type_id":"4","last_reported":1706375158,"current_range_meters":15600,"station_id":"","pricing_plan_id":"free"},{"bike_id":"c58bc56b-5d9e-4b2a-be7c-cde77e1464b1","system_id":"levelo_inurba_marseille","lat":43.284538,"lon":5.358657,"is_reserved":false,"is_disabled":false,"rental_uris":{"android":"levelo://app?vid=c58bc56b-5d9e-4b2a-be7c-cde77e1464b1","ios":"levelo://app?vid=c58bc56b-5d9e-4b2a-be7c-cde77e1464b1"},"vehicle_type_id":"4","last_reported":1706375158,"current_range_meters":7200,"station_id":"ce4bhah2rcd13ifvqei0","pricing_plan_id":"free"},{"bike_id":"2108e2fe-d57a-44d3-9d9e-194cf6c0a069","system_id":"levelo_inurba_marseille","lat":43.284604,"lon":5.358872,"is_reserved":false,"is_disabled":false,"rental_uris":{"android":"levelo://app?vid=2108e2fe-d57a-44d3-9d9e-194cf6c0a069","ios":"levelo://app?vid=2108e2fe-d57a-44d3-9d9e-194cf6c0a069"},"vehicle_type_id":"4","last_reported":1706375158,"current_range_meters":800,"station_id":"ce4bhah2rcd13ifvqei0","pricing_plan_id":"free"},{"bike_id":"cbc49243-8706-44af-8224-17eefd2560d5","system_id":"levelo_inurba_marseille","lat":43.284534,"lon":5.358662,"is_reserved":false,"is_disabled":false,"rental_uris":{"android":"levelo://app?vid=cbc49243-8706-44af-8224-17eefd2560d5","ios":"levelo://app?vid=cbc49243-8706-44af-8224-17eefd2560d5"},"vehicle_type_id":"4","last_reported":1706375158,"current_range_meters":19600,"station_id":"ce4bhah2rcd13ifvqei0","pricing_plan_id":"free"},{"bike_id":"595587ea-a9b7-40ef-9e5b-cffdf6ce5c06","system_id":"levelo_inurba_marseille","lat":43.28615,"lon":5.35099,"is_reserved":false,"is_disabled":false,"rental_uris":{"android":"levelo://app?vid=595587ea-a9b7-40ef-9e5b-cffdf6ce5c06","ios":"levelo://app?vid=595587ea-a9b7-40ef-9e5b-cffdf6ce5c06"},"vehicle_type_id":"4","last_reported":1706375158,"current_range_meters":26000,"station_id":"ce4bhch2rcd13ifvqeug","pricing_plan_id":"free"},{"bike_id":"c315ccf5-e675-4462-bcc2-fb16d77d90e2","system_id":"levelo_inurba_marseille","lat":43.28614,"lon":5.35099,"is_reserved":false,"is_disabled":false,"rental_uris":{"android":"levelo://app?vid=c315ccf5-e675-4462-bcc2-fb16d77d90e2","ios":"levelo://app?vid=c315ccf5-e675-4462-bcc2-fb16d77d90e2"},"vehicle_type_id":"4","last_reported":1706375158,"current_range_meters":0,"station_id":"ce4bhch2rcd13ifvqeug","pricing_plan_id":"free"},{"bike_id":"1866bd48-2870-4bf8-8a30-60eb5a0390bc","system_id":"levelo_inurba_marseille","lat":43.28612,"lon":5.35099,"is_reserved":false,"is_disabled":false,"rental_uris":{"android":"levelo://app?vid=1866bd48-2870-4bf8-8a30-60eb5a0390bc","ios":"levelo://app?vid=1866bd48-2870-4bf8-8a30-60eb5a0390bc"},"vehicle_type_id":"4","last_reported":1706375158,"current_range_meters":0,"station_id":"ce4bhch2rcd13ifvqeug","pricing_plan_id":"free"},{"bike_id":"ecb4be4c-7f8a-4f96-9945-a5df8d867695","system_id":"levelo_inurba_marseille","lat":43.2861,"lon":5.351,"is_reserved":false,"is_disabled":false,"rental_uris":{"android":"levelo://app?vid=ecb4be4c-7f8a-4f96-9945-a5df8d867695","ios":"levelo://app?vid=ecb4be4c-7f8a-4f96-9945-a5df8d867695"},"vehicle_type_id":"4","last_reported":1706375158,"current_range_meters":0,"station_id":"ce4bhch2rcd13ifvqeug","pricing_plan_id":"free"},{"bike_id":"4fe0ed41-c883-477e-b242-04f5dd94bd36","system_id":"levelo_inurba_marseille","lat":43.283998,"lon":5.375062,"is_reserved":false,"is_disabled":false,"rental_uris":{"android":"levelo://app?vid=4fe0ed41-c883-477e-b242-04f5dd94bd36","ios":"levelo://app?vid=4fe0ed41-c883-477e-b242-04f5dd94bd36"},"vehicle_type_id":"4","last_reported":1706375158,"current_range_meters":10400,"station_id":"ce4bh412rcd13ifvqds0","pricing_plan_id":"free"},{"bike_id":"1d4e71b7-244c-4e92-9005-44f1ae742810","system_id":"levelo_inurba_marseille","lat":43.283998,"lon":5.375062,"is_reserved":false,"is_disabled":false,"rental_uris":{"android":"levelo://app?vid=1d4e71b7-244c-4e92-9005-44f1ae742810","ios":"levelo://app?vid=1d4e71b7-244c-4e92-9005-44f1ae742810"},"vehicle_type_id":"4","last_reported":1706375158,"current_range_meters":22800,"station_id":"ce4bh412rcd13ifvqds0","pricing_plan_id":"free"},{"bike_id":"d950667a-c09c-45af-a25e-32aebaa50771","system_id":"levelo_inurba_marseille","lat":43.286595,"lon":5.386795,"is_reserved":false,"is_disabled":false,"rental_uris":{"android":"levelo://app?vid=d950667a-c09c-45af-a25e-32aebaa50771","ios":"levelo://app?vid=d950667a-c09c-45af-a25e-32aebaa50771"},"vehicle_type_id":"4","last_reported":1706375158,"current_range_meters":19200,"station_id":"ce4bh492rcd13ifvqdug","pricing_plan_id":"free"},{"bike_id":"a3fd4d45-5046-4f5e-8c9b-a9dacfc99484","system_id":"levelo_inurba_marseille","lat":43.284793,"lon":5.384119,"is_reserved":false,"is_disabled":false,"rental_uris":{"android":"levelo://app?vid=a3fd4d45-5046-4f5e-8c9b-a9dacfc99484","ios":"levelo://app?vid=a3fd4d45-5046-4f5e-8c9b-a9dacfc99484"},"vehicle_type_id":"4","last_reported":1706375158,"current_range_meters":5600,"station_id":"ce4bh512rcd13ifvqe3g","pricing_plan_id":"free"},{"bike_id":"0827b820-0e50-47a6-80cb-59ed1c5cd9d6","system_id":"levelo_inurba_marseille","lat":43.283498,"lon":5.380948,"is_reserved":false,"is_disabled":false,"rental_uris":{"android":"levelo://app?vid=0827b820-0e50-47a6-80cb-59ed1c5cd9d6","ios":"levelo://app?vid=0827b820-0e50-47a6-80cb-59ed1c5cd9d6"},"vehicle_type_id":"4","last_reported":1706375158,"current_range_meters":14000,"station_id":"ce4bh412rcd13ifvqdr0","pricing_plan_id":"free"},{"bike_id":"8a22fcde-0b73-4dbd-857d-6391644d7d79","system_id":"levelo_inurba_marseille","lat":43.289363,"lon":5.396322,"is_reserved":false,"is_disabled":false,"rental_uris":{"android":"levelo://app?vid=8a22fcde-0b73-4dbd-857d-6391644d7d79","ios":"levelo://app?vid=8a22fcde-0b73-4dbd-857d-6391644d7d79"},"vehicle_type_id":"4","last_reported":1706375158,"current_range_meters":0,"station_id":"ce4bh3h2rcd13ifvqdn0","pricing_plan_id":"free"},{"bike_id":"b41bcd76-cb12-4b33-95cd-9444d1e23578","system_id":"levelo_inurba_marseille","lat":43.293556,"lon":5.401561,"is_reserved":false,"is_disabled":false,"rental_uris":{"android":"levelo://app?vid=b41bcd76-cb12-4b33-95cd-9444d1e23578","ios":"levelo://app?vid=b41bcd76-cb12-4b33-95cd-9444d1e23578"},"vehicle_type_id":"4","last_reported":1706375158,"current_range_meters":9200,"station_id":"","pricing_plan_id":"free"},{"bike_id":"893c0153-1c0d-4163-b212-cf35575692b7","system_id":"levelo_inurba_marseille","lat":43.289363,"lon":5.396322,"is_reserved":false,"is_disabled":false,"rental_uris":{"android":"levelo://app?vid=893c0153-1c0d-4163-b212-cf35575692b7","ios":"levelo://app?vid=893c0153-1c0d-4163-b212-cf35575692b7"},"vehicle_type_id":"4","last_reported":1706375158,"current_range_meters":2000,"station_id":"ce4bh3h2rcd13ifvqdn0","pricing_plan_id":"free"},{"bike_id":"a26ca627-64a2-4703-b6b6-bc640605b925","system_id":"levelo_inurba_marseille","lat":43.282744,"lon":5.350533,"is_reserved":false,"is_disabled":false,"rental_uris":{"android":"levelo://app?vid=a26ca627-64a2-4703-b6b6-bc640605b925","ios":"levelo://app?vid=a26ca627-64a2-4703-b6b6-bc640605b925"},"vehicle_type_id":"4","last_reported":1706375158,"current_range_meters":0,"station_id":"ce4bhbp2rcd13ifvqerg","pricing_plan_id":"free"},{"bike_id":"1226a99e-a541-4f18-8598-5357d46b4c18","system_id":"levelo_inurba_marseille","lat":43.283502,"lon":5.386471,"is_reserved":false,"is_disabled":false,"rental_uris":{"android":"levelo://app?vid=1226a99e-a541-4f18-8598-5357d46b4c18","ios":"levelo://app?vid=1226a99e-a541-4f18-8598-5357d46b4c18"},"vehicle_type_id":"4","last_reported":1706375158,"current_range_meters":21200,"station_id":"ce4bh492rcd13ifvqdvg","pricing_plan_id":"free"},{"bike_id":"e290b3ab-ec13-47fd-be2c-873fcfeaac01","system_id":"levelo_inurba_marseille","lat":43.282693,"lon":5.35072,"is_reserved":false,"is_disabled":false,"rental_uris":{"android":"levelo://app?vid=e290b3ab-ec13-47fd-be2c-873fcfeaac01","ios":"levelo://app?vid=e290b3ab-ec13-47fd-be2c-873fcfeaac01"},"vehicle_type_id":"4","last_reported":1706375158,"current_range_meters":0,"station_id":"ce4bhbp2rcd13ifvqerg","pricing_plan_id":"free"},{"bike_id":"83991c66-2e84-4837-b91f-2f42b4754bc3","system_id":"levelo_inurba_marseille","lat":43.28266,"lon":5.35074,"is_reserved":false,"is_disabled":false,"rental_uris":{"android":"levelo://app?vid=83991c66-2e84-4837-b91f-2f42b4754bc3","ios":"levelo://app?vid=83991c66-2e84-4837-b91f-2f42b4754bc3"},"vehicle_type_id":"4","last_reported":1706375158,"current_range_meters":0,"station_id":"ce4bhbp2rcd13ifvqerg","pricing_plan_id":"free"},{"bike_id":"c0bb1e02-9858-41ac-a3d5-3b32674e9087","system_id":"levelo_inurba_marseille","lat":43.282754,"lon":5.350519,"is_reserved":false,"is_disabled":false,"rental_uris":{"android":"levelo://app?vid=c0bb1e02-9858-41ac-a3d5-3b32674e9087","ios":"levelo://app?vid=c0bb1e02-9858-41ac-a3d5-3b32674e9087"},"vehicle_type_id":"4","last_reported":1706375158,"current_range_meters":0,"station_id":"ce4bhbp2rcd13ifvqerg","pricing_plan_id":"free"},{"bike_id":"f17e2d04-72c6-4848-9466-1e58f718a9b9","system_id":"levelo_inurba_marseille","lat":43.28263,"lon":5.35065,"is_reserved":false,"is_disabled":false,"rental_uris":{"android":"levelo://app?vid=f17e2d04-72c6-4848-9466-1e58f718a9b9","ios":"levelo://app?vid=f17e2d04-72c6-4848-9466-1e58f718a9b9"},"vehicle_type_id":"4","last_reported":1706375158,"current_range_meters":0,"station_id":"ce4bhbp2rcd13ifvqerg","pricing_plan_id":"free"},{"bike_id":"99f0f768-936d-438f-bfb4-bb3e57f3c013","system_id":"levelo_inurba_marseille","lat":43.28039,"lon":5.369297,"is_reserved":false,"is_disabled":false,"rental_uris":{"android":"levelo://app?vid=99f0f768-936d-438f-bfb4-bb3e57f3c013","ios":"levelo://app?vid=99f0f768-936d-438f-bfb4-bb3e57f3c013"},"vehicle_type_id":"4","last_reported":1706375158,"current_range_meters":7600,"station_id":"ce4bha12rcd13ifvqef0","pricing_plan_id":"free"},{"bike_id":"fb678a14-6da8-40eb-991a-695f7e337c0a","system_id":"levelo_inurba_marseille","lat":43.280382,"lon":5.369291,"is_reserved":false,"is_disabled":false,"rental_uris":{"android":"levelo://app?vid=fb678a14-6da8-40eb-991a-695f7e337c0a","ios":"levelo://app?vid=fb678a14-6da8-40eb-991a-695f7e337c0a"},"vehicle_type_id":"4","last_reported":1706375158,"current_range_meters":10400,"station_id":"ce4bha12rcd13ifvqef0","pricing_plan_id":"free"},{"bike_id":"9303710e-5522-4811-b75a-196593693af0","system_id":"levelo_inurba_marseille","lat":43.280382,"lon":5.369291,"is_reserved":false,"is_disabled":false,"rental_uris":{"android":"levelo://app?vid=9303710e-5522-4811-b75a-196593693af0","ios":"levelo://app?vid=9303710e-5522-4811-b75a-196593693af0"},"vehicle_type_id":"4","last_reported":1706375158,"current_range_meters":6000,"station_id":"ce4bha12rcd13ifvqef0","pricing_plan_id":"free"},{"bike_id":"c311ea8c-5511-4c27-bfb7-8fd64310a88e","system_id":"levelo_inurba_marseille","lat":43.28005,"lon":5.36529,"is_reserved":false,"is_disabled":false,"rental_uris":{"android":"levelo://app?vid=c311ea8c-5511-4c27-bfb7-8fd64310a88e","ios":"levelo://app?vid=c311ea8c-5511-4c27-bfb7-8fd64310a88e"},"vehicle_type_id":"4","last_reported":1706375158,"current_range_meters":26000,"station_id":"","pricing_plan_id":"free"},{"bike_id":"7b92a074-8b28-4e88-a41f-052573e37161","system_id":"levelo_inurba_marseille","lat":43.290412,"lon":5.399633,"is_reserved":false,"is_disabled":false,"rental_uris":{"android":"levelo://app?vid=7b92a074-8b28-4e88-a41f-052573e37161","ios":"levelo://app?vid=7b92a074-8b28-4e88-a41f-052573e37161"},"vehicle_type_id":"4","last_reported":1706375158,"current_range_meters":16800,"station_id":"ce4bh392rcd13ifvqdm0","pricing_plan_id":"free"},{"bike_id":"893445be-febb-4dca-8418-0c6209844b8d","system_id":"levelo_inurba_marseille","lat":43.281044,"lon":5.378308,"is_reserved":false,"is_disabled":false,"rental_uris":{"android":"levelo://app?vid=893445be-febb-4dca-8418-0c6209844b8d","ios":"levelo://app?vid=893445be-febb-4dca-8418-0c6209844b8d"},"vehicle_type_id":"4","last_reported":1706375158,"current_range_meters":5600,"station_id":"ce4bha12rcd13ifvqee0","pricing_plan_id":"free"},{"bike_id":"3feee634-49c6-4de3-a1bc-4c3e5861906f","system_id":"levelo_inurba_marseille","lat":43.28573,"lon":5.394992,"is_reserved":false,"is_disabled":false,"rental_uris":{"android":"levelo://app?vid=3feee634-49c6-4de3-a1bc-4c3e5861906f","ios":"levelo://app?vid=3feee634-49c6-4de3-a1bc-4c3e5861906f"},"vehicle_type_id":"4","last_reported":1706375158,"current_range_meters":9600,"station_id":"ce4bh292rcd13ifvqdg0","pricing_plan_id":"free"},{"bike_id":"e4b375df-0065-41c8-87d4-8c449a1713ca","system_id":"levelo_inurba_marseille","lat":43.304188,"lon":5.412904,"is_reserved":false,"is_disabled":false,"rental_uris":{"android":"levelo://app?vid=e4b375df-0065-41c8-87d4-8c449a1713ca","ios":"levelo://app?vid=e4b375df-0065-41c8-87d4-8c449a1713ca"},"vehicle_type_id":"4","last_reported":1706375158,"current_range_meters":10000,"station_id":"ce4bhop2rcd13ifvqh8g","pricing_plan_id":"free"},{"bike_id":"7b2e6cc4-d84f-4dd1-98b9-fc9f8c3a9992","system_id":"levelo_inurba_marseille","lat":43.28287,"lon":5.3909,"is_reserved":false,"is_disabled":false,"rental_uris":{"android":"levelo://app?vid=7b2e6cc4-d84f-4dd1-98b9-fc9f8c3a9992","ios":"levelo://app?vid=7b2e6cc4-d84f-4dd1-98b9-fc9f8c3a9992"},"vehicle_type_id":"4","last_reported":1706375158,"current_range_meters":0,"station_id":"","pricing_plan_id":"free"},{"bike_id":"07c3e4f9-914a-4b7d-af12-469208ed427d","system_id":"levelo_inurba_marseille","lat":43.279087,"lon":5.380114,"is_reserved":false,"is_disabled":false,"rental_uris":{"android":"levelo://app?vid=07c3e4f9-914a-4b7d-af12-469208ed427d","ios":"levelo://app?vid=07c3e4f9-914a-4b7d-af12-469208ed427d"},"vehicle_type_id":"4","last_reported":1706375158,"current_range_meters":3200,"station_id":"ce4bhf92rcd13ifvqf50","pricing_plan_id":"free"},{"bike_id":"5b1122ee-d12d-469f-a406-8b8c6f704ee7","system_id":"levelo_inurba_marseille","lat":43.279087,"lon":5.380114,"is_reserved":false,"is_disabled":false,"rental_uris":{"android":"levelo://app?vid=5b1122ee-d12d-469f-a406-8b8c6f704ee7","ios":"levelo://app?vid=5b1122ee-d12d-469f-a406-8b8c6f704ee7"},"vehicle_type_id":"4","last_reported":1706375158,"current_range_meters":0,"station_id":"ce4bhf92rcd13ifvqf50","pricing_plan_id":"free"},{"bike_id":"734c7b3d-a3a5-40cc-af8e-14cfd3b46f49","system_id":"levelo_inurba_marseille","lat":43.279087,"lon":5.380114,"is_reserved":false,"is_disabled":false,"rental_uris":{"android":"levelo://app?vid=734c7b3d-a3a5-40cc-af8e-14cfd3b46f49","ios":"levelo://app?vid=734c7b3d-a3a5-40cc-af8e-14cfd3b46f49"},"vehicle_type_id":"4","last_reported":1706375158,"current_range_meters":0,"station_id":"ce4bhf92rcd13ifvqf50","pricing_plan_id":"free"},{"bike_id":"f83a3a7e-1d78-42cc-a2d9-6a1634b4b2ae","system_id":"levelo_inurba_marseille","lat":43.320045,"lon":5.415046,"is_reserved":false,"is_disabled":false,"rental_uris":{"android":"levelo://app?vid=f83a3a7e-1d78-42cc-a2d9-6a1634b4b2ae","ios":"levelo://app?vid=f83a3a7e-1d78-42cc-a2d9-6a1634b4b2ae"},"vehicle_type_id":"4","last_reported":1706375158,"current_range_meters":31200,"station_id":"ce4bhq92rcd13ifvqhkg","pricing_plan_id":"free"},{"bike_id":"ec389e75-8cea-4be6-8517-e15f0b47835c","system_id":"levelo_inurba_marseille","lat":43.320045,"lon":5.415046,"is_reserved":false,"is_disabled":false,"rental_uris":{"android":"levelo://app?vid=ec389e75-8cea-4be6-8517-e15f0b47835c","ios":"levelo://app?vid=ec389e75-8cea-4be6-8517-e15f0b47835c"},"vehicle_type_id":"4","last_reported":1706375158,"current_range_meters":24000,"station_id":"ce4bhq92rcd13ifvqhkg","pricing_plan_id":"free"},{"bike_id":"4977dd65-369e-417b-9c52-fe977a945b82","system_id":"levelo_inurba_marseille","lat":43.320045,"lon":5.415048,"is_reserved":false,"is_disabled":false,"rental_uris":{"android":"levelo://app?vid=4977dd65-369e-417b-9c52-fe977a945b82","ios":"levelo://app?vid=4977dd65-369e-417b-9c52-fe977a945b82"},"vehicle_type_id":"4","last_reported":1706375158,"current_range_meters":29200,"station_id":"ce4bhq92rcd13ifvqhkg","pricing_plan_id":"free"},{"bike_id":"fcf5ad55-9d29-48f4-b96b-b5827880831a","system_id":"levelo_inurba_marseille","lat":43.320455,"lon":5.415498,"is_reserved":false,"is_disabled":false,"rental_uris":{"android":"levelo://app?vid=fcf5ad55-9d29-48f4-b96b-b5827880831a","ios":"levelo://app?vid=fcf5ad55-9d29-48f4-b96b-b5827880831a"},"vehicle_type_id":"4","last_reported":1706375158,"current_range_meters":17200,"station_id":"ce4bhq92rcd13ifvqhkg","pricing_plan_id":"free"},{"bike_id":"09b6ee3e-51fd-4add-b1f5-fb3703f213ce","system_id":"levelo_inurba_marseille","lat":43.320045,"lon":5.415046,"is_reserved":false,"is_disabled":false,"rental_uris":{"android":"levelo://app?vid=09b6ee3e-51fd-4add-b1f5-fb3703f213ce","ios":"levelo://app?vid=09b6ee3e-51fd-4add-b1f5-fb3703f213ce"},"vehicle_type_id":"4","last_reported":1706375158,"current_range_meters":8000,"station_id":"ce4bhq92rcd13ifvqhkg","pricing_plan_id":"free"},{"bike_id":"0df7ab94-22d0-4a71-932b-2163f6ac9126","system_id":"levelo_inurba_marseille","lat":43.279742,"lon":5.38744,"is_reserved":false,"is_disabled":false,"rental_uris":{"android":"levelo://app?vid=0df7ab94-22d0-4a71-932b-2163f6ac9126","ios":"levelo://app?vid=0df7ab94-22d0-4a71-932b-2163f6ac9126"},"vehicle_type_id":"4","last_reported":1706375158,"current_range_meters":0,"station_id":"ce4bhg12rcd13ifvqf80","pricing_plan_id":"free"},{"bike_id":"d0e33b91-a1fc-4c6e-928a-1ff79b844f3e","system_id":"levelo_inurba_marseille","lat":43.320491,"lon":5.415809,"is_reserved":false,"is_disabled":false,"rental_uris":{"android":"levelo://app?vid=d0e33b91-a1fc-4c6e-928a-1ff79b844f3e","ios":"levelo://app?vid=d0e33b91-a1fc-4c6e-928a-1ff79b844f3e"},"vehicle_type_id":"4","last_reported":1706375158,"current_range_meters":27600,"station_id":"ce4bhq92rcd13ifvqhkg","pricing_plan_id":"free"},{"bike_id":"f32134a7-23ab-4bd2-9f18-8d28a84754d3","system_id":"levelo_inurba_marseille","lat":43.276179,"lon":5.361009,"is_reserved":false,"is_disabled":false,"rental_uris":{"android":"levelo://app?vid=f32134a7-23ab-4bd2-9f18-8d28a84754d3","ios":"levelo://app?vid=f32134a7-23ab-4bd2-9f18-8d28a84754d3"},"vehicle_type_id":"4","last_reported":1706375158,"current_range_meters":26000,"station_id":"ce4bgj92rcd13ifvqbe0","pricing_plan_id":"free"},{"bike_id":"239540cd-7c62-42a3-bb49-9dfa3eafc143","system_id":"levelo_inurba_marseille","lat":43.27618,"lon":5.361009,"is_reserved":false,"is_disabled":false,"rental_uris":{"android":"levelo://app?vid=239540cd-7c62-42a3-bb49-9dfa3eafc143","ios":"levelo://app?vid=239540cd-7c62-42a3-bb49-9dfa3eafc143"},"vehicle_type_id":"4","last_reported":1706375158,"current_range_meters":20400,"station_id":"ce4bgj92rcd13ifvqbe0","pricing_plan_id":"free"},{"bike_id":"c9c95dab-6810-4a87-b02a-a06f14da5599","system_id":"levelo_inurba_marseille","lat":43.27618,"lon":5.361009,"is_reserved":false,"is_disabled":false,"rental_uris":{"android":"levelo://app?vid=c9c95dab-6810-4a87-b02a-a06f14da5599","ios":"levelo://app?vid=c9c95dab-6810-4a87-b02a-a06f14da5599"},"vehicle_type_id":"4","last_reported":1706375158,"current_range_meters":19200,"station_id":"ce4bgj92rcd13ifvqbe0","pricing_plan_id":"free"},{"bike_id":"95d1494b-79a8-4a75-944d-fb0d89dbcf6c","system_id":"levelo_inurba_marseille","lat":43.27618,"lon":5.361009,"is_reserved":false,"is_disabled":false,"rental_uris":{"android":"levelo://app?vid=95d1494b-79a8-4a75-944d-fb0d89dbcf6c","ios":"levelo://app?vid=95d1494b-79a8-4a75-944d-fb0d89dbcf6c"},"vehicle_type_id":"4","last_reported":1706375158,"current_range_meters":400,"station_id":"ce4bgj92rcd13ifvqbe0","pricing_plan_id":"free"},{"bike_id":"f73ffbb6-0f7a-4f38-8b75-9f8768021af0","system_id":"levelo_inurba_marseille","lat":43.27618,"lon":5.36104,"is_reserved":false,"is_disabled":false,"rental_uris":{"android":"levelo://app?vid=f73ffbb6-0f7a-4f38-8b75-9f8768021af0","ios":"levelo://app?vid=f73ffbb6-0f7a-4f38-8b75-9f8768021af0"},"vehicle_type_id":"4","last_reported":1706375158,"current_range_meters":0,"station_id":"ce4bgj92rcd13ifvqbe0","pricing_plan_id":"free"},{"bike_id":"a47de7ae-2fef-4856-9b82-61e67a476fca","system_id":"levelo_inurba_marseille","lat":43.27618,"lon":5.361009,"is_reserved":false,"is_disabled":false,"rental_uris":{"android":"levelo://app?vid=a47de7ae-2fef-4856-9b82-61e67a476fca","ios":"levelo://app?vid=a47de7ae-2fef-4856-9b82-61e67a476fca"},"vehicle_type_id":"4","last_reported":1706375158,"current_range_meters":11600,"station_id":"ce4bgj92rcd13ifvqbe0","pricing_plan_id":"free"},{"bike_id":"bb4af9de-167e-4d34-aa15-9540c0bec969","system_id":"levelo_inurba_marseille","lat":43.280784,"lon":5.396622,"is_reserved":false,"is_disabled":false,"rental_uris":{"android":"levelo://app?vid=bb4af9de-167e-4d34-aa15-9540c0bec969","ios":"levelo://app?vid=bb4af9de-167e-4d34-aa15-9540c0bec969"},"vehicle_type_id":"4","last_reported":1706375158,"current_range_meters":9200,"station_id":"ce4bho12rcd13ifvqh2g","pricing_plan_id":"free"},{"bike_id":"055268c3-6471-4261-8b36-4db1441a842e","system_id":"levelo_inurba_marseille","lat":43.303837,"lon":5.418724,"is_reserved":false,"is_disabled":false,"rental_uris":{"android":"levelo://app?vid=055268c3-6471-4261-8b36-4db1441a842e","ios":"levelo://app?vid=055268c3-6471-4261-8b36-4db1441a842e"},"vehicle_type_id":"4","last_reported":1706375158,"current_range_meters":8400,"station_id":"ce4bhop2rcd13ifvqh7g","pricing_plan_id":"free"},{"bike_id":"427ab1a8-ef7b-40e6-9ef0-a21ee9a71fae","system_id":"levelo_inurba_marseille","lat":43.303837,"lon":5.418724,"is_reserved":false,"is_disabled":false,"rental_uris":{"android":"levelo://app?vid=427ab1a8-ef7b-40e6-9ef0-a21ee9a71fae","ios":"levelo://app?vid=427ab1a8-ef7b-40e6-9ef0-a21ee9a71fae"},"vehicle_type_id":"4","last_reported":1706375158,"current_range_meters":7200,"station_id":"ce4bhop2rcd13ifvqh7g","pricing_plan_id":"free"},{"bike_id":"fecf969f-d050-4d3b-aa81-32e0fd7f0eb5","system_id":"levelo_inurba_marseille","lat":43.273613,"lon":5.362705,"is_reserved":false,"is_disabled":false,"rental_uris":{"android":"levelo://app?vid=fecf969f-d050-4d3b-aa81-32e0fd7f0eb5","ios":"levelo://app?vid=fecf969f-d050-4d3b-aa81-32e0fd7f0eb5"},"vehicle_type_id":"4","last_reported":1706375158,"current_range_meters":5200,"station_id":"ce4bhbh2rcd13ifvqeo0","pricing_plan_id":"free"},{"bike_id":"f1eee0f8-9f55-4a8d-91d1-4d48ff17f0fc","system_id":"levelo_inurba_marseille","lat":43.273613,"lon":5.362705,"is_reserved":false,"is_disabled":false,"rental_uris":{"android":"levelo://app?vid=f1eee0f8-9f55-4a8d-91d1-4d48ff17f0fc","ios":"levelo://app?vid=f1eee0f8-9f55-4a8d-91d1-4d48ff17f0fc"},"vehicle_type_id":"4","last_reported":1706375158,"current_range_meters":0,"station_id":"ce4bhbh2rcd13ifvqeo0","pricing_plan_id":"free"},{"bike_id":"d3ed1802-3642-4645-8a08-1420a357a1a1","system_id":"levelo_inurba_marseille","lat":43.336056,"lon":5.41017,"is_reserved":false,"is_disabled":false,"rental_uris":{"android":"levelo://app?vid=d3ed1802-3642-4645-8a08-1420a357a1a1","ios":"levelo://app?vid=d3ed1802-3642-4645-8a08-1420a357a1a1"},"vehicle_type_id":"4","last_reported":1706375158,"current_range_meters":0,"station_id":"ce4bhqh2rcd13ifvqhmg","pricing_plan_id":"free"},{"bike_id":"877cbc6f-b274-4ede-9567-ad7a686da949","system_id":"levelo_inurba_marseille","lat":43.275625,"lon":5.384392,"is_reserved":false,"is_disabled":false,"rental_uris":{"android":"levelo://app?vid=877cbc6f-b274-4ede-9567-ad7a686da949","ios":"levelo://app?vid=877cbc6f-b274-4ede-9567-ad7a686da949"},"vehicle_type_id":"4","last_reported":1706375158,"current_range_meters":12800,"station_id":"ce4bhh92rcd13ifvqfi0","pricing_plan_id":"free"},{"bike_id":"11ea6f74-54f0-4257-917e-d94d1d958a16","system_id":"levelo_inurba_marseille","lat":43.275625,"lon":5.384392,"is_reserved":false,"is_disabled":false,"rental_uris":{"android":"levelo://app?vid=11ea6f74-54f0-4257-917e-d94d1d958a16","ios":"levelo://app?vid=11ea6f74-54f0-4257-917e-d94d1d958a16"},"vehicle_type_id":"4","last_reported":1706375158,"current_range_meters":14000,"station_id":"ce4bhh92rcd13ifvqfi0","pricing_plan_id":"free"},{"bike_id":"47e1d2c3-0629-436f-bb41-44554e63c6da","system_id":"levelo_inurba_marseille","lat":43.336134,"lon":5.410341,"is_reserved":false,"is_disabled":false,"rental_uris":{"android":"levelo://app?vid=47e1d2c3-0629-436f-bb41-44554e63c6da","ios":"levelo://app?vid=47e1d2c3-0629-436f-bb41-44554e63c6da"},"vehicle_type_id":"4","last_reported":1706375158,"current_range_meters":22000,"station_id":"ce4bhqh2rcd13ifvqhmg","pricing_plan_id":"free"},{"bike_id":"586742c5-31b8-4324-a2f1-69d5676d9018","system_id":"levelo_inurba_marseille","lat":43.275625,"lon":5.384392,"is_reserved":false,"is_disabled":false,"rental_uris":{"android":"levelo://app?vid=586742c5-31b8-4324-a2f1-69d5676d9018","ios":"levelo://app?vid=586742c5-31b8-4324-a2f1-69d5676d9018"},"vehicle_type_id":"4","last_reported":1706375158,"current_range_meters":16000,"station_id":"ce4bhh92rcd13ifvqfi0","pricing_plan_id":"free"},{"bike_id":"ec662af9-1138-4bad-829a-156f06ad09bb","system_id":"levelo_inurba_marseille","lat":43.276771,"lon":5.388799,"is_reserved":false,"is_disabled":false,"rental_uris":{"android":"levelo://app?vid=ec662af9-1138-4bad-829a-156f06ad09bb","ios":"levelo://app?vid=ec662af9-1138-4bad-829a-156f06ad09bb"},"vehicle_type_id":"4","last_reported":1706375158,"current_range_meters":800,"station_id":"ce4bhi12rcd13ifvqfo0","pricing_plan_id":"free"},{"bike_id":"847e4d19-2bbb-4427-a402-47c79107a8f1","system_id":"levelo_inurba_marseille","lat":43.279952,"lon":5.400085,"is_reserved":false,"is_disabled":false,"rental_uris":{"android":"levelo://app?vid=847e4d19-2bbb-4427-a402-47c79107a8f1","ios":"levelo://app?vid=847e4d19-2bbb-4427-a402-47c79107a8f1"},"vehicle_type_id":"4","last_reported":1706375158,"current_range_meters":9600,"station_id":"ce4bho92rcd13ifvqh4g","pricing_plan_id":"free"},{"bike_id":"3160b18f-3fcb-4b80-99b1-8fc4696f08df","system_id":"levelo_inurba_marseille","lat":43.279975,"lon":5.40009,"is_reserved":false,"is_disabled":false,"rental_uris":{"android":"levelo://app?vid=3160b18f-3fcb-4b80-99b1-8fc4696f08df","ios":"levelo://app?vid=3160b18f-3fcb-4b80-99b1-8fc4696f08df"},"vehicle_type_id":"4","last_reported":1706375158,"current_range_meters":12000,"station_id":"ce4bho92rcd13ifvqh4g","pricing_plan_id":"free"},{"bike_id":"6f46a34b-d5d1-4592-8607-98eec5146735","system_id":"levelo_inurba_marseille","lat":43.283701,"lon":5.407104,"is_reserved":false,"is_disabled":false,"rental_uris":{"android":"levelo://app?vid=6f46a34b-d5d1-4592-8607-98eec5146735","ios":"levelo://app?vid=6f46a34b-d5d1-4592-8607-98eec5146735"},"vehicle_type_id":"4","last_reported":1706375158,"current_range_meters":6400,"station_id":"","pricing_plan_id":"free"},{"bike_id":"76a1444e-7429-4c72-9ae5-313749a04157","system_id":"levelo_inurba_marseille","lat":43.31089,"lon":5.42432,"is_reserved":false,"is_disabled":false,"rental_uris":{"android":"levelo://app?vid=76a1444e-7429-4c72-9ae5-313749a04157","ios":"levelo://app?vid=76a1444e-7429-4c72-9ae5-313749a04157"},"vehicle_type_id":"4","last_reported":1706375158,"current_range_meters":18000,"station_id":"ce4bhp92rcd13ifvqhag","pricing_plan_id":"free"},{"bike_id":"ee875769-e8b7-4caa-b3b8-2dad519b3fb1","system_id":"levelo_inurba_marseille","lat":43.310785,"lon":5.424305,"is_reserved":false,"is_disabled":false,"rental_uris":{"android":"levelo://app?vid=ee875769-e8b7-4caa-b3b8-2dad519b3fb1","ios":"levelo://app?vid=ee875769-e8b7-4caa-b3b8-2dad519b3fb1"},"vehicle_type_id":"4","last_reported":1706375158,"current_range_meters":15200,"station_id":"ce4bhp92rcd13ifvqhag","pricing_plan_id":"free"},{"bike_id":"9d9a6c6e-3ad8-4aa2-9959-86d525dd854d","system_id":"levelo_inurba_marseille","lat":43.340804,"lon":5.410219,"is_reserved":false,"is_disabled":false,"rental_uris":{"android":"levelo://app?vid=9d9a6c6e-3ad8-4aa2-9959-86d525dd854d","ios":"levelo://app?vid=9d9a6c6e-3ad8-4aa2-9959-86d525dd854d"},"vehicle_type_id":"4","last_reported":1706375158,"current_range_meters":18400,"station_id":"ce4bhqh2rcd13ifvqhlg","pricing_plan_id":"free"},{"bike_id":"cd115e35-82e7-4ac2-903a-05bf7590ca61","system_id":"levelo_inurba_marseille","lat":43.273125,"lon":5.390731,"is_reserved":false,"is_disabled":false,"rental_uris":{"android":"levelo://app?vid=cd115e35-82e7-4ac2-903a-05bf7590ca61","ios":"levelo://app?vid=cd115e35-82e7-4ac2-903a-05bf7590ca61"},"vehicle_type_id":"4","last_reported":1706375158,"current_range_meters":24000,"station_id":"ce4bhgp2rcd13ifvqfe0","pricing_plan_id":"free"},{"bike_id":"409556af-8ddf-4b73-a546-e1269514c1ac","system_id":"levelo_inurba_marseille","lat":43.273125,"lon":5.390731,"is_reserved":false,"is_disabled":false,"rental_uris":{"android":"levelo://app?vid=409556af-8ddf-4b73-a546-e1269514c1ac","ios":"levelo://app?vid=409556af-8ddf-4b73-a546-e1269514c1ac"},"vehicle_type_id":"4","last_reported":1706375158,"current_range_meters":0,"station_id":"ce4bhgp2rcd13ifvqfe0","pricing_plan_id":"free"},{"bike_id":"0f08aed1-c35f-4345-90ce-a50d6d911d39","system_id":"levelo_inurba_marseille","lat":43.274099,"lon":5.394019,"is_reserved":false,"is_disabled":false,"rental_uris":{"android":"levelo://app?vid=0f08aed1-c35f-4345-90ce-a50d6d911d39","ios":"levelo://app?vid=0f08aed1-c35f-4345-90ce-a50d6d911d39"},"vehicle_type_id":"4","last_reported":1706375158,"current_range_meters":19600,"station_id":"ce4bhdp2rcd13ifvqf20","pricing_plan_id":"free"},{"bike_id":"b4e70a18-a5b2-4f26-ae60-7c56f73ad72a","system_id":"levelo_inurba_marseille","lat":43.274099,"lon":5.394019,"is_reserved":false,"is_disabled":false,"rental_uris":{"android":"levelo://app?vid=b4e70a18-a5b2-4f26-ae60-7c56f73ad72a","ios":"levelo://app?vid=b4e70a18-a5b2-4f26-ae60-7c56f73ad72a"},"vehicle_type_id":"4","last_reported":1706375158,"current_range_meters":21600,"station_id":"ce4bhdp2rcd13ifvqf20","pricing_plan_id":"free"},{"bike_id":"4496f75f-1b2b-4e0b-93b9-eb0999f08b58","system_id":"levelo_inurba_marseille","lat":43.274099,"lon":5.394019,"is_reserved":false,"is_disabled":false,"rental_uris":{"android":"levelo://app?vid=4496f75f-1b2b-4e0b-93b9-eb0999f08b58","ios":"levelo://app?vid=4496f75f-1b2b-4e0b-93b9-eb0999f08b58"},"vehicle_type_id":"4","last_reported":1706375158,"current_range_meters":4000,"station_id":"ce4bhdp2rcd13ifvqf20","pricing_plan_id":"free"},{"bike_id":"1e8a4928-2087-4f36-a906-ef996ea4d5ed","system_id":"levelo_inurba_marseille","lat":43.295523,"lon":5.422926,"is_reserved":false,"is_disabled":false,"rental_uris":{"android":"levelo://app?vid=1e8a4928-2087-4f36-a906-ef996ea4d5ed","ios":"levelo://app?vid=1e8a4928-2087-4f36-a906-ef996ea4d5ed"},"vehicle_type_id":"4","last_reported":1706375158,"current_range_meters":30800,"station_id":"ce4bhph2rcd13ifvqhdg","pricing_plan_id":"free"},{"bike_id":"b14eccbe-4a04-4adc-9837-27b973fdae43","system_id":"levelo_inurba_marseille","lat":43.295539,"lon":5.422844,"is_reserved":false,"is_disabled":false,"rental_uris":{"android":"levelo://app?vid=b14eccbe-4a04-4adc-9837-27b973fdae43","ios":"levelo://app?vid=b14eccbe-4a04-4adc-9837-27b973fdae43"},"vehicle_type_id":"4","last_reported":1706375158,"current_range_meters":5600,"station_id":"ce4bhph2rcd13ifvqhdg","pricing_plan_id":"free"},{"bike_id":"12215b57-d017-4dc3-b745-7bf2055953bb","system_id":"levelo_inurba_marseille","lat":43.295511,"lon":5.422926,"is_reserved":false,"is_disabled":false,"rental_uris":{"android":"levelo://app?vid=12215b57-d017-4dc3-b745-7bf2055953bb","ios":"levelo://app?vid=12215b57-d017-4dc3-b745-7bf2055953bb"},"vehicle_type_id":"4","last_reported":1706375158,"current_range_meters":1200,"station_id":"ce4bhph2rcd13ifvqhdg","pricing_plan_id":"free"},{"bike_id":"05da7b09-5f85-44cb-b065-fd038c18b6ad","system_id":"levelo_inurba_marseille","lat":43.295523,"lon":5.422926,"is_reserved":false,"is_disabled":false,"rental_uris":{"android":"levelo://app?vid=05da7b09-5f85-44cb-b065-fd038c18b6ad","ios":"levelo://app?vid=05da7b09-5f85-44cb-b065-fd038c18b6ad"},"vehicle_type_id":"4","last_reported":1706375158,"current_range_meters":19600,"station_id":"ce4bhph2rcd13ifvqhdg","pricing_plan_id":"free"},{"bike_id":"5b8abb81-a8e3-4bf5-9691-1cf67236940c","system_id":"levelo_inurba_marseille","lat":43.295523,"lon":5.422926,"is_reserved":false,"is_disabled":false,"rental_uris":{"android":"levelo://app?vid=5b8abb81-a8e3-4bf5-9691-1cf67236940c","ios":"levelo://app?vid=5b8abb81-a8e3-4bf5-9691-1cf67236940c"},"vehicle_type_id":"4","last_reported":1706375158,"current_range_meters":26800,"station_id":"ce4bhph2rcd13ifvqhdg","pricing_plan_id":"free"},{"bike_id":"79aba3fd-e7b6-41fe-974b-a11d6cc1ed17","system_id":"levelo_inurba_marseille","lat":43.29521,"lon":5.42268,"is_reserved":false,"is_disabled":false,"rental_uris":{"android":"levelo://app?vid=79aba3fd-e7b6-41fe-974b-a11d6cc1ed17","ios":"levelo://app?vid=79aba3fd-e7b6-41fe-974b-a11d6cc1ed17"},"vehicle_type_id":"4","last_reported":1706375158,"current_range_meters":21200,"station_id":"ce4bhph2rcd13ifvqhdg","pricing_plan_id":"free"},{"bike_id":"0a57c021-bea0-4d63-ba83-0ec10450f5c4","system_id":"levelo_inurba_marseille","lat":43.295511,"lon":5.422926,"is_reserved":false,"is_disabled":false,"rental_uris":{"android":"levelo://app?vid=0a57c021-bea0-4d63-ba83-0ec10450f5c4","ios":"levelo://app?vid=0a57c021-bea0-4d63-ba83-0ec10450f5c4"},"vehicle_type_id":"4","last_reported":1706375158,"current_range_meters":20400,"station_id":"ce4bhph2rcd13ifvqhdg","pricing_plan_id":"free"},{"bike_id":"ce8546be-7ea0-4f38-904b-567ba5b62295","system_id":"levelo_inurba_marseille","lat":43.272124,"lon":5.391768,"is_reserved":false,"is_disabled":false,"rental_uris":{"android":"levelo://app?vid=ce8546be-7ea0-4f38-904b-567ba5b62295","ios":"levelo://app?vid=ce8546be-7ea0-4f38-904b-567ba5b62295"},"vehicle_type_id":"4","last_reported":1706375158,"current_range_meters":0,"station_id":"ce4bhhp2rcd13ifvqfm0","pricing_plan_id":"free"},{"bike_id":"f7f05bd4-88fe-432e-a2a0-7308c04f1ef3","system_id":"levelo_inurba_marseille","lat":43.272116,"lon":5.391763,"is_reserved":false,"is_disabled":false,"rental_uris":{"android":"levelo://app?vid=f7f05bd4-88fe-432e-a2a0-7308c04f1ef3","ios":"levelo://app?vid=f7f05bd4-88fe-432e-a2a0-7308c04f1ef3"},"vehicle_type_id":"4","last_reported":1706375158,"current_range_meters":1200,"station_id":"ce4bhhp2rcd13ifvqfm0","pricing_plan_id":"free"},{"bike_id":"5793dfa2-355e-4c87-b97b-f2e3a825fa86","system_id":"levelo_inurba_marseille","lat":43.278128,"lon":5.407195,"is_reserved":false,"is_disabled":false,"rental_uris":{"android":"levelo://app?vid=5793dfa2-355e-4c87-b97b-f2e3a825fa86","ios":"levelo://app?vid=5793dfa2-355e-4c87-b97b-f2e3a825fa86"},"vehicle_type_id":"4","last_reported":1706375158,"current_range_meters":9600,"station_id":"ce4bhnh2rcd13ifvqgtg","pricing_plan_id":"free"},{"bike_id":"81039384-5a65-4f2b-b7a3-9127034c9389","system_id":"levelo_inurba_marseille","lat":43.269467,"lon":5.386439,"is_reserved":false,"is_disabled":false,"rental_uris":{"android":"levelo://app?vid=81039384-5a65-4f2b-b7a3-9127034c9389","ios":"levelo://app?vid=81039384-5a65-4f2b-b7a3-9127034c9389"},"vehicle_type_id":"4","last_reported":1706375158,"current_range_meters":4800,"station_id":"ce4bhh92rcd13ifvqfh0","pricing_plan_id":"free"},{"bike_id":"67428a34-da3b-43b4-a95d-84909adf1988","system_id":"levelo_inurba_marseille","lat":43.279465,"lon":5.410561,"is_reserved":false,"is_disabled":false,"rental_uris":{"android":"levelo://app?vid=67428a34-da3b-43b4-a95d-84909adf1988","ios":"levelo://app?vid=67428a34-da3b-43b4-a95d-84909adf1988"},"vehicle_type_id":"4","last_reported":1706375158,"current_range_meters":18800,"station_id":"ce4bhnp2rcd13ifvqh0g","pricing_plan_id":"free"},{"bike_id":"b0782314-3536-4e91-bad0-41ed9d871198","system_id":"levelo_inurba_marseille","lat":43.279465,"lon":5.410561,"is_reserved":false,"is_disabled":false,"rental_uris":{"android":"levelo://app?vid=b0782314-3536-4e91-bad0-41ed9d871198","ios":"levelo://app?vid=b0782314-3536-4e91-bad0-41ed9d871198"},"vehicle_type_id":"4","last_reported":1706375158,"current_range_meters":21600,"station_id":"ce4bhnp2rcd13ifvqh0g","pricing_plan_id":"free"},{"bike_id":"c411e487-7317-4d9d-8d43-f71a54416527","system_id":"levelo_inurba_marseille","lat":43.26681,"lon":5.382694,"is_reserved":false,"is_disabled":false,"rental_uris":{"android":"levelo://app?vid=c411e487-7317-4d9d-8d43-f71a54416527","ios":"levelo://app?vid=c411e487-7317-4d9d-8d43-f71a54416527"},"vehicle_type_id":"4","last_reported":1706375158,"current_range_meters":13200,"station_id":"ce4bhg92rcd13ifvqf90","pricing_plan_id":"free"},{"bike_id":"3201fdd9-0f49-4960-9d5b-d3a54da77531","system_id":"levelo_inurba_marseille","lat":43.26681,"lon":5.382694,"is_reserved":false,"is_disabled":false,"rental_uris":{"android":"levelo://app?vid=3201fdd9-0f49-4960-9d5b-d3a54da77531","ios":"levelo://app?vid=3201fdd9-0f49-4960-9d5b-d3a54da77531"},"vehicle_type_id":"4","last_reported":1706375158,"current_range_meters":12400,"station_id":"ce4bhg92rcd13ifvqf90","pricing_plan_id":"free"},{"bike_id":"f8c657a5-2994-4aa2-b0f7-2de34349734d","system_id":"levelo_inurba_marseille","lat":43.279873,"lon":5.416596,"is_reserved":false,"is_disabled":false,"rental_uris":{"android":"levelo://app?vid=f8c657a5-2994-4aa2-b0f7-2de34349734d","ios":"levelo://app?vid=f8c657a5-2994-4aa2-b0f7-2de34349734d"},"vehicle_type_id":"4","last_reported":1706375158,"current_range_meters":28800,"station_id":"ce4bho12rcd13ifvqh1g","pricing_plan_id":"free"},{"bike_id":"28ad5752-2cdd-4266-8d24-b7bd0c91d826","system_id":"levelo_inurba_marseille","lat":43.27996,"lon":5.416624,"is_reserved":false,"is_disabled":false,"rental_uris":{"android":"levelo://app?vid=28ad5752-2cdd-4266-8d24-b7bd0c91d826","ios":"levelo://app?vid=28ad5752-2cdd-4266-8d24-b7bd0c91d826"},"vehicle_type_id":"4","last_reported":1706375158,"current_range_meters":7600,"station_id":"ce4bho12rcd13ifvqh1g","pricing_plan_id":"free"},{"bike_id":"4f735749-c87d-4d72-92b0-f9a0f2f9c13a","system_id":"levelo_inurba_marseille","lat":43.26787,"lon":5.39422,"is_reserved":false,"is_disabled":false,"rental_uris":{"android":"levelo://app?vid=4f735749-c87d-4d72-92b0-f9a0f2f9c13a","ios":"levelo://app?vid=4f735749-c87d-4d72-92b0-f9a0f2f9c13a"},"vehicle_type_id":"4","last_reported":1706375158,"current_range_meters":0,"station_id":"ce4bhh12rcd13ifvqfg0","pricing_plan_id":"free"},{"bike_id":"e515107f-d284-4a36-a195-f165f6207fc2","system_id":"levelo_inurba_marseille","lat":43.308051,"lon":5.43527,"is_reserved":false,"is_disabled":false,"rental_uris":{"android":"levelo://app?vid=e515107f-d284-4a36-a195-f165f6207fc2","ios":"levelo://app?vid=e515107f-d284-4a36-a195-f165f6207fc2"},"vehicle_type_id":"4","last_reported":1706375158,"current_range_meters":24000,"station_id":"ce4bhph2rcd13ifvqheg","pricing_plan_id":"free"},{"bike_id":"6e523f1e-25fe-40c0-b225-17fdae5aabf3","system_id":"levelo_inurba_marseille","lat":43.265571,"lon":5.390032,"is_reserved":false,"is_disabled":false,"rental_uris":{"android":"levelo://app?vid=6e523f1e-25fe-40c0-b225-17fdae5aabf3","ios":"levelo://app?vid=6e523f1e-25fe-40c0-b225-17fdae5aabf3"},"vehicle_type_id":"4","last_reported":1706375158,"current_range_meters":0,"station_id":"ce4bhe12rcd13ifvqf30","pricing_plan_id":"free"},{"bike_id":"6ce2ebba-b95a-4af1-a709-8e6850c9688a","system_id":"levelo_inurba_marseille","lat":43.26949,"lon":5.40262,"is_reserved":false,"is_disabled":false,"rental_uris":{"android":"levelo://app?vid=6ce2ebba-b95a-4af1-a709-8e6850c9688a","ios":"levelo://app?vid=6ce2ebba-b95a-4af1-a709-8e6850c9688a"},"vehicle_type_id":"4","last_reported":1706375158,"current_range_meters":22800,"station_id":"cjm6bp8fraef2m0cb0m0","pricing_plan_id":"free"},{"bike_id":"5c8f64c6-f0b4-4365-9cd8-27f301231d21","system_id":"levelo_inurba_marseille","lat":43.261782,"lon":5.374515,"is_reserved":false,"is_disabled":false,"rental_uris":{"android":"levelo://app?vid=5c8f64c6-f0b4-4365-9cd8-27f301231d21","ios":"levelo://app?vid=5c8f64c6-f0b4-4365-9cd8-27f301231d21"},"vehicle_type_id":"4","last_reported":1706375158,"current_range_meters":11600,"station_id":"ce4bhgp2rcd13ifvqfc0","pricing_plan_id":"free"},{"bike_id":"66e74648-c9bb-40b6-bdd5-4c55a9523450","system_id":"levelo_inurba_marseille","lat":43.261782,"lon":5.374515,"is_reserved":false,"is_disabled":false,"rental_uris":{"android":"levelo://app?vid=66e74648-c9bb-40b6-bdd5-4c55a9523450","ios":"levelo://app?vid=66e74648-c9bb-40b6-bdd5-4c55a9523450"},"vehicle_type_id":"4","last_reported":1706375158,"current_range_meters":3600,"station_id":"ce4bhgp2rcd13ifvqfc0","pricing_plan_id":"free"},{"bike_id":"5652b066-6b87-4c30-9112-6be93fc1f92d","system_id":"levelo_inurba_marseille","lat":43.261782,"lon":5.374515,"is_reserved":false,"is_disabled":false,"rental_uris":{"android":"levelo://app?vid=5652b066-6b87-4c30-9112-6be93fc1f92d","ios":"levelo://app?vid=5652b066-6b87-4c30-9112-6be93fc1f92d"},"vehicle_type_id":"4","last_reported":1706375158,"current_range_meters":6400,"station_id":"ce4bhgp2rcd13ifvqfc0","pricing_plan_id":"free"},{"bike_id":"aba58eb5-1597-4736-a5f4-0b53431bccf2","system_id":"levelo_inurba_marseille","lat":43.26186,"lon":5.374431,"is_reserved":false,"is_disabled":false,"rental_uris":{"android":"levelo://app?vid=aba58eb5-1597-4736-a5f4-0b53431bccf2","ios":"levelo://app?vid=aba58eb5-1597-4736-a5f4-0b53431bccf2"},"vehicle_type_id":"4","last_reported":1706375158,"current_range_meters":4800,"station_id":"","pricing_plan_id":"free"},{"bike_id":"547c7961-8bcb-4508-9d84-9078c5492d2d","system_id":"levelo_inurba_marseille","lat":43.261782,"lon":5.374515,"is_reserved":false,"is_disabled":false,"rental_uris":{"android":"levelo://app?vid=547c7961-8bcb-4508-9d84-9078c5492d2d","ios":"levelo://app?vid=547c7961-8bcb-4508-9d84-9078c5492d2d"},"vehicle_type_id":"4","last_reported":1706375158,"current_range_meters":19200,"station_id":"ce4bhgp2rcd13ifvqfc0","pricing_plan_id":"free"},{"bike_id":"9fe7237b-e56e-438f-b7ef-c82767c40c4b","system_id":"levelo_inurba_marseille","lat":43.261782,"lon":5.374515,"is_reserved":false,"is_disabled":false,"rental_uris":{"android":"levelo://app?vid=9fe7237b-e56e-438f-b7ef-c82767c40c4b","ios":"levelo://app?vid=9fe7237b-e56e-438f-b7ef-c82767c40c4b"},"vehicle_type_id":"4","last_reported":1706375158,"current_range_meters":13200,"station_id":"ce4bhgp2rcd13ifvqfc0","pricing_plan_id":"free"},{"bike_id":"1279bb4f-a759-40a0-8b40-219242164da9","system_id":"levelo_inurba_marseille","lat":43.261782,"lon":5.374515,"is_reserved":false,"is_disabled":false,"rental_uris":{"android":"levelo://app?vid=1279bb4f-a759-40a0-8b40-219242164da9","ios":"levelo://app?vid=1279bb4f-a759-40a0-8b40-219242164da9"},"vehicle_type_id":"4","last_reported":1706375158,"current_range_meters":11600,"station_id":"ce4bhgp2rcd13ifvqfc0","pricing_plan_id":"free"},{"bike_id":"6d8cedc1-82fb-41af-b80a-2ac53f94e6e4","system_id":"levelo_inurba_marseille","lat":43.261782,"lon":5.374515,"is_reserved":false,"is_disabled":false,"rental_uris":{"android":"levelo://app?vid=6d8cedc1-82fb-41af-b80a-2ac53f94e6e4","ios":"levelo://app?vid=6d8cedc1-82fb-41af-b80a-2ac53f94e6e4"},"vehicle_type_id":"4","last_reported":1706375158,"current_range_meters":2800,"station_id":"ce4bhgp2rcd13ifvqfc0","pricing_plan_id":"free"},{"bike_id":"270a81f1-f2c1-487b-ad00-6eac2942d2ba","system_id":"levelo_inurba_marseille","lat":43.261782,"lon":5.374515,"is_reserved":false,"is_disabled":false,"rental_uris":{"android":"levelo://app?vid=270a81f1-f2c1-487b-ad00-6eac2942d2ba","ios":"levelo://app?vid=270a81f1-f2c1-487b-ad00-6eac2942d2ba"},"vehicle_type_id":"4","last_reported":1706375158,"current_range_meters":0,"station_id":"ce4bhgp2rcd13ifvqfc0","pricing_plan_id":"free"},{"bike_id":"e5562434-379d-4973-a1c3-63a853176f70","system_id":"levelo_inurba_marseille","lat":43.261782,"lon":5.374515,"is_reserved":false,"is_disabled":false,"rental_uris":{"android":"levelo://app?vid=e5562434-379d-4973-a1c3-63a853176f70","ios":"levelo://app?vid=e5562434-379d-4973-a1c3-63a853176f70"},"vehicle_type_id":"4","last_reported":1706375158,"current_range_meters":0,"station_id":"ce4bhgp2rcd13ifvqfc0","pricing_plan_id":"free"},{"bike_id":"a0fd637b-4550-47fc-a03f-974fa23801ba","system_id":"levelo_inurba_marseille","lat":43.261782,"lon":5.374515,"is_reserved":false,"is_disabled":false,"rental_uris":{"android":"levelo://app?vid=a0fd637b-4550-47fc-a03f-974fa23801ba","ios":"levelo://app?vid=a0fd637b-4550-47fc-a03f-974fa23801ba"},"vehicle_type_id":"4","last_reported":1706375158,"current_range_meters":0,"station_id":"ce4bhgp2rcd13ifvqfc0","pricing_plan_id":"free"},{"bike_id":"3e622fe7-da1c-4c19-a3f0-11c6578a7687","system_id":"levelo_inurba_marseille","lat":43.261782,"lon":5.374515,"is_reserved":false,"is_disabled":false,"rental_uris":{"android":"levelo://app?vid=3e622fe7-da1c-4c19-a3f0-11c6578a7687","ios":"levelo://app?vid=3e622fe7-da1c-4c19-a3f0-11c6578a7687"},"vehicle_type_id":"4","last_reported":1706375158,"current_range_meters":3200,"station_id":"ce4bhgp2rcd13ifvqfc0","pricing_plan_id":"free"},{"bike_id":"9ce73815-f45a-4f46-a9d5-c043bff6cb6d","system_id":"levelo_inurba_marseille","lat":43.261782,"lon":5.374515,"is_reserved":false,"is_disabled":false,"rental_uris":{"android":"levelo://app?vid=9ce73815-f45a-4f46-a9d5-c043bff6cb6d","ios":"levelo://app?vid=9ce73815-f45a-4f46-a9d5-c043bff6cb6d"},"vehicle_type_id":"4","last_reported":1706375158,"current_range_meters":0,"station_id":"ce4bhgp2rcd13ifvqfc0","pricing_plan_id":"free"},{"bike_id":"04594eac-ef8c-4307-b418-16ceeb5e5d88","system_id":"levelo_inurba_marseille","lat":43.271388,"lon":5.409269,"is_reserved":false,"is_disabled":false,"rental_uris":{"android":"levelo://app?vid=04594eac-ef8c-4307-b418-16ceeb5e5d88","ios":"levelo://app?vid=04594eac-ef8c-4307-b418-16ceeb5e5d88"},"vehicle_type_id":"4","last_reported":1706375158,"current_range_meters":21200,"station_id":"ce4bhl12rcd13ifvqgf0","pricing_plan_id":"free"},{"bike_id":"f3e557fe-e522-4d4d-a549-1d766b70bafd","system_id":"levelo_inurba_marseille","lat":43.262038,"lon":5.379314,"is_reserved":false,"is_disabled":false,"rental_uris":{"android":"levelo://app?vid=f3e557fe-e522-4d4d-a549-1d766b70bafd","ios":"levelo://app?vid=f3e557fe-e522-4d4d-a549-1d766b70bafd"},"vehicle_type_id":"4","last_reported":1706375158,"current_range_meters":0,"station_id":"ce4bhjp2rcd13ifvqg90","pricing_plan_id":"free"},{"bike_id":"651726e2-360c-440f-9381-b6aa68e9411c","system_id":"levelo_inurba_marseille","lat":43.262012,"lon":5.379307,"is_reserved":false,"is_disabled":false,"rental_uris":{"android":"levelo://app?vid=651726e2-360c-440f-9381-b6aa68e9411c","ios":"levelo://app?vid=651726e2-360c-440f-9381-b6aa68e9411c"},"vehicle_type_id":"4","last_reported":1706375158,"current_range_meters":22400,"station_id":"ce4bhjp2rcd13ifvqg90","pricing_plan_id":"free"},{"bike_id":"5bb02e77-6816-4431-b443-3b2034827012","system_id":"levelo_inurba_marseille","lat":43.262012,"lon":5.379307,"is_reserved":false,"is_disabled":false,"rental_uris":{"android":"levelo://app?vid=5bb02e77-6816-4431-b443-3b2034827012","ios":"levelo://app?vid=5bb02e77-6816-4431-b443-3b2034827012"},"vehicle_type_id":"4","last_reported":1706375158,"current_range_meters":17200,"station_id":"ce4bhjp2rcd13ifvqg90","pricing_plan_id":"free"},{"bike_id":"2cb4451c-f965-4659-8290-75902667e443","system_id":"levelo_inurba_marseille","lat":43.271388,"lon":5.409269,"is_reserved":false,"is_disabled":false,"rental_uris":{"android":"levelo://app?vid=2cb4451c-f965-4659-8290-75902667e443","ios":"levelo://app?vid=2cb4451c-f965-4659-8290-75902667e443"},"vehicle_type_id":"4","last_reported":1706375158,"current_range_meters":31200,"station_id":"ce4bhl12rcd13ifvqgf0","pricing_plan_id":"free"},{"bike_id":"7a34f768-6563-46c7-8da2-37205733677a","system_id":"levelo_inurba_marseille","lat":43.262012,"lon":5.379307,"is_reserved":false,"is_disabled":false,"rental_uris":{"android":"levelo://app?vid=7a34f768-6563-46c7-8da2-37205733677a","ios":"levelo://app?vid=7a34f768-6563-46c7-8da2-37205733677a"},"vehicle_type_id":"4","last_reported":1706375158,"current_range_meters":24000,"station_id":"ce4bhjp2rcd13ifvqg90","pricing_plan_id":"free"},{"bike_id":"3e3b851a-0cc0-4930-b9ea-070af820724f","system_id":"levelo_inurba_marseille","lat":43.26202,"lon":5.379299,"is_reserved":false,"is_disabled":false,"rental_uris":{"android":"levelo://app?vid=3e3b851a-0cc0-4930-b9ea-070af820724f","ios":"levelo://app?vid=3e3b851a-0cc0-4930-b9ea-070af820724f"},"vehicle_type_id":"4","last_reported":1706375158,"current_range_meters":19200,"station_id":"ce4bhjp2rcd13ifvqg90","pricing_plan_id":"free"},