{"last_updated":1757776094,"ttl":60,"version":"2.2","data":{"bikes":[{"bike_id":"37f838a9-21b1-443a-897e-fb0d51235f3b","system_id":"levelo_inurba_marseille","lat":43.27069,"lon":5.42253,"is_reserved":false,"is_disabled":false,"rental_uris":{"android":"levelo://app?vid=37f838a9-21b1-443a-897e-fb0d51235f3b","ios":"levelo://app?vid=37f838a9-21b1-443a-897e-fb0d51235f3b"},"vehicle_type_id":"4","last_reported":1757776094,"current_range_meters":2800,"station_id":"ce4bhk92rcd13ifvqgb0","pricing_plan_id":"cebpf4jnsgd1na2vs0mg"},{"bike_id":"7f3601a6-efc2-47b5-aca2-0d16d916d67e","system_id":"levelo_inurba_marseille","lat":43.29567,"lon":5.39976,"is_reserved":false,"is_disabled":false,"rental_uris":{"android":"levelo://app?vid=7f3601a6-efc2-47b5-aca2-0d16d916d67e","ios":"levelo://app?vid=7f3601a6-efc2-47b5-aca2-0d16d916d67e"},"vehicle_type_id":"4","last_reported":1757776094,"current_range_meters":2800,"station_id":"ce4bh312rcd13ifvqdj0","pricing_plan_id":"cebpf4jnsgd1na2vs0mg"},{"bike_id":"db1f3ce0-34de-4af2-8ce7-dbb765e1220d","system_id":"levelo_inurba_marseille","lat":43.29199,"lon":5.35933,"is_reserved":false,"is_disabled":false,"rental_uris":{"android":"levelo://app?vid=db1f3ce0-34de-4af2-8ce7-dbb765e1220d","ios":"levelo://app?vid=db1f3ce0-34de-4af2-8ce7-dbb765e1220d"},"vehicle_type_id":"4","last_reported":1757776094,"current_range_meters":2800,"station_id":"","pricing_plan_id":"cebpf4jnsgd1na2vs0mg"},{"bike_id":"5a211279-3c76-4c19-95dc-5deecad85b0f","system_id":"levelo_inurba_marseille","lat":43.25117,"lon":5.40318,"is_reserved":false,"is_disabled":false,"rental_uris":{"android":"levelo://app?vid=5a211279-3c76-4c19-95dc-5deecad85b0f","ios":"levelo://app?vid=5a211279-3c76-4c19-95dc-5deecad85b0f"},"vehicle_type_id":"4","last_reported":1757776094,"current_range_meters":3200,"station_id":"ce4bhlh2rcd13ifvqgig","pricing_plan_id":"cebpf4jnsgd1na2vs0mg"},{"bike_id":"0d8d6206-c444-4102-b60a-7ade7c5969a4","system_id":"levelo_inurba_marseille","lat":43.27203,"lon":5.39189,"is_reserved":false,"is_disabled":false,"rental_uris":{"android":"levelo://app?vid=0d8d6206-c444-4102-b60a-7ade7c5969a4","ios":"levelo://app?vid=0d8d6206-c444-4102-b60a-7ade7c5969a4"},"vehicle_type_id":"4","last_reported":1757776094,"current_range_meters":3200,"station_id":"ce4bhhp2rcd13ifvqfm0","pricing_plan_id":"cebpf4jnsgd1na2vs0mg"},{"bike_id":"9ef26e0c-6f01-4b10-90fe-cec11146e852","system_id":"levelo_inurba_marseille","lat":43.310464,"lon":5.372831,"is_reserved":false,"is_disabled":false,"rental_uris":{"android":"levelo://app?vid=9ef26e0c-6f01-4b10-90fe-cec11146e852","ios":"levelo://app?vid=9ef26e0c-6f01-4b10-90fe-cec11146e852"},"vehicle_type_id":"4","last_reported":1757776094,"current_range_meters":3200,"station_id":"","pricing_plan_id":"cebpf4jnsgd1na2vs0mg"},{"bike_id":"c9224b75-4f7f-40b4-9859-6fae04047439","system_id":"levelo_inurba_marseille","lat":43.284357,"lon":5.374979,"is_reserved":false,"is_disabled":false,"rental_uris":{"android":"levelo://app?vid=c9224b75-4f7f-40b4-9859-6fae04047439","ios":"levelo://app?vid=c9224b75-4f7f-40b4-9859-6fae04047439"},"vehicle_type_id":"4","last_reported":1757776094,"current_range_meters":3200,"station_id":"ce4bh412rcd13ifvqds0","pricing_plan_id":"cebpf4jnsgd1na2vs0mg"},{"bike_id":"54868907-63ea-40a5-8f3a-4ac6edb4c05c","system_id":"levelo_inurba_marseille","lat":43.29178,"lon":5.37786,"is_reserved":false,"is_disabled":false,"rental_uris":{"android":"levelo://app?vid=54868907-63ea-40a5-8f3a-4ac6edb4c05c","ios":"levelo://app?vid=54868907-63ea-40a5-8f3a-4ac6edb4c05c"},"vehicle_type_id":"4","last_reported":1757776094,"current_range_meters":3200,"station_id":"","pricing_plan_id":"cebpf4jnsgd1na2vs0mg"},{"bike_id":"738a1141-4bff-4bed-ab58-9f74036b33ab","system_id":"levelo_inurba_marseille","lat":43.29279,"lon":5.38751,"is_reserved":false,"is_disabled":false,"rental_uris":{"android":"levelo://app?vid=738a1141-4bff-4bed-ab58-9f74036b33ab","ios":"levelo://app?vid=738a1141-4bff-4bed-ab58-9f74036b33ab"},"vehicle_type_id":"4","last_reported":1757776094,"current_range_meters":3600,"station_id":"","pricing_plan_id":"cebpf4jnsgd1na2vs0mg"},{"bike_id":"31896f81-3413-4a51-9f62-235b3f722e47","system_id":"levelo_inurba_marseille","lat":43.28411,"lon":5.37507,"is_reserved":false,"is_disabled":false,"rental_uris":{"android":"levelo://app?vid=31896f81-3413-4a51-9f62-235b3f722e47","ios":"levelo://app?vid=31896f81-3413-4a51-9f62-235b3f722e47"},"vehicle_type_id":"4","last_reported":1757776094,"current_range_meters":3600,"station_id":"ce4bh412rcd13ifvqds0","pricing_plan_id":"cebpf4jnsgd1na2vs0mg"},{"bike_id":"f54274c6-0ecd-4812-8a10-f08e5e6a9621","system_id":"levelo_inurba_marseille","lat":43.28882,"lon":5.42519,"is_reserved":false,"is_disabled":false,"rental_uris":{"android":"levelo://app?vid=f54274c6-0ecd-4812-8a10-f08e5e6a9621","ios":"levelo://app?vid=f54274c6-0ecd-4812-8a10-f08e5e6a9621"},"vehicle_type_id":"4","last_reported":1757776094,"current_range_meters":3600,"station_id":"","pricing_plan_id":"cebpf4jnsgd1na2vs0mg"},{"bike_id":"2434ee9a-d729-4660-9412-19a6aa472e0a","system_id":"levelo_inurba_marseille","lat":43.29618,"lon":5.37734,"is_reserved":false,"is_disabled":false,"rental_uris":{"android":"levelo://app?vid=2434ee9a-d729-4660-9412-19a6aa472e0a","ios":"levelo://app?vid=2434ee9a-d729-4660-9412-19a6aa472e0a"},"vehicle_type_id":"4","last_reported":1757776094,"current_range_meters":4000,"station_id":"ce4bgi92rcd13ifvqb90","pricing_plan_id":"cebpf4jnsgd1na2vs0mg"},{"bike_id":"8e823669-a05c-4f14-a05f-6373bb94f16b","system_id":"levelo_inurba_marseille","lat":43.307288,"lon":5.372792,"is_reserved":false,"is_disabled":false,"rental_uris":{"android":"levelo://app?vid=8e823669-a05c-4f14-a05f-6373bb94f16b","ios":"levelo://app?vid=8e823669-a05c-4f14-a05f-6373bb94f16b"},"vehicle_type_id":"4","last_reported":1757776094,"current_range_meters":4800,"station_id":"","pricing_plan_id":"cebpf4jnsgd1na2vs0mg"},{"bike_id":"b74625b7-f04a-4e76-a26f-aa238bcf5764","system_id":"levelo_inurba_marseille","lat":43.28266,"lon":5.35063,"is_reserved":false,"is_disabled":false,"rental_uris":{"android":"levelo://app?vid=b74625b7-f04a-4e76-a26f-aa238bcf5764","ios":"levelo://app?vid=b74625b7-f04a-4e76-a26f-aa238bcf5764"},"vehicle_type_id":"4","last_reported":1757776094,"current_range_meters":4400,"station_id":"ce4bhbp2rcd13ifvqerg","pricing_plan_id":"cebpf4jnsgd1na2vs0mg"},{"bike_id":"53554954-4092-48b0-bc91-1df4ef132f87","system_id":"levelo_inurba_marseille","lat":43.27612,"lon":5.36108,"is_reserved":false,"is_disabled":false,"rental_uris":{"android":"levelo://app?vid=53554954-4092-48b0-bc91-1df4ef132f87","ios":"levelo://app?vid=53554954-4092-48b0-bc91-1df4ef132f87"},"vehicle_type_id":"4","last_reported":1757776094,"current_range_meters":4800,"station_id":"ce4bgj92rcd13ifvqbe0","pricing_plan_id":"cebpf4jnsgd1na2vs0mg"},{"bike_id":"fe8d88d6-81c3-42a8-85bb-3d0aa4841db3","system_id":"levelo_inurba_marseille","lat":43.337444,"lon":5.374475,"is_reserved":false,"is_disabled":false,"rental_uris":{"android":"levelo://app?vid=fe8d88d6-81c3-42a8-85bb-3d0aa4841db3","ios":"levelo://app?vid=fe8d88d6-81c3-42a8-85bb-3d0aa4841db3"},"vehicle_type_id":"4","last_reported":1757776094,"current_range_meters":4800,"station_id":"","pricing_plan_id":"cebpf4jnsgd1na2vs0mg"},{"bike_id":"d1de2b7d-3583-4df3-8bfa-43eda5116068","system_id":"levelo_inurba_marseille","lat":43.3374,"lon":5.37468,"is_reserved":false,"is_disabled":false,"rental_uris":{"android":"levelo://app?vid=d1de2b7d-3583-4df3-8bfa-43eda5116068","ios":"levelo://app?vid=d1de2b7d-3583-4df3-8bfa-43eda5116068"},"vehicle_type_id":"4","last_reported":1757776094,"current_range_meters":4800,"station_id":"","pricing_plan_id":"cebpf4jnsgd1na2vs0mg"},{"bike_id":"d1208639-5703-4ac3-a303-6e72a5788218","system_id":"levelo_inurba_marseille","lat":43.33753,"lon":5.37475,"is_reserved":false,"is_disabled":false,"rental_uris":{"android":"levelo://app?vid=d1208639-5703-4ac3-a303-6e72a5788218","ios":"levelo://app?vid=d1208639-5703-4ac3-a303-6e72a5788218"},"vehicle_type_id":"4","last_reported":1757776094,"current_range_meters":4800,"station_id":"","pricing_plan_id":"cebpf4jnsgd1na2vs0mg"},{"bike_id":"999df056-799c-417e-807e-52608d0b797e","system_id":"levelo_inurba_marseille","lat":43.297101,"lon":5.377007,"is_reserved":false,"is_disabled":false,"rental_uris":{"android":"levelo://app?vid=999df056-799c-417e-807e-52608d0b797e","ios":"levelo://app?vid=999df056-799c-417e-807e-52608d0b797e"},"vehicle_type_id":"4","last_reported":1757776094,"current_range_meters":5600,"station_id":"","pricing_plan_id":"cebpf4jnsgd1na2vs0mg"},{"bike_id":"035b1130-e1e3-4fea-83ab-14e1945d4296","system_id":"levelo_inurba_marseille","lat":43.26583,"lon":5.39004,"is_reserved":false,"is_disabled":false,"rental_uris":{"android":"levelo://app?vid=035b1130-e1e3-4fea-83ab-14e1945d4296","ios":"levelo://app?vid=035b1130-e1e3-4fea-83ab-14e1945d4296"},"vehicle_type_id":"4","last_reported":1757776094,"current_range_meters":5600,"station_id":"ce4bhe12rcd13ifvqf30","pricing_plan_id":"cebpf4jnsgd1na2vs0mg"},{"bike_id":"61af51ee-97b3-494a-b2a1-f4aa2b140df7","system_id":"levelo_inurba_marseille","lat":43.25863,"lon":5.39895,"is_reserved":false,"is_disabled":false,"rental_uris":{"android":"levelo://app?vid=61af51ee-97b3-494a-b2a1-f4aa2b140df7","ios":"levelo://app?vid=61af51ee-97b3-494a-b2a1-f4aa2b140df7"},"vehicle_type_id":"4","last_reported":1757776094,"current_range_meters":6000,"station_id":"ce4bhl92rcd13ifvqghg","pricing_plan_id":"cebpf4jnsgd1na2vs0mg"},{"bike_id":"7911d5a3-8b5b-43cf-ad42-b7d0391f5f03","system_id":"levelo_inurba_marseille","lat":43.27947,"lon":5.41045,"is_reserved":false,"is_disabled":false,"rental_uris":{"android":"levelo://app?vid=7911d5a3-8b5b-43cf-ad42-b7d0391f5f03","ios":"levelo://app?vid=7911d5a3-8b5b-43cf-ad42-b7d0391f5f03"},"vehicle_type_id":"4","last_reported":1757776094,"current_range_meters":6400,"station_id":"ce4bhnp2rcd13ifvqh0g","pricing_plan_id":"cebpf4jnsgd1na2vs0mg"},{"bike_id":"9c35077f-8f11-4840-9338-4fc6f5ae9a27","system_id":"levelo_inurba_marseille","lat":43.26567,"lon":5.40323,"is_reserved":false,"is_disabled":false,"rental_uris":{"android":"levelo://app?vid=9c35077f-8f11-4840-9338-4fc6f5ae9a27","ios":"levelo://app?vid=9c35077f-8f11-4840-9338-4fc6f5ae9a27"},"vehicle_type_id":"4","last_reported":1757776094,"current_range_meters":6400,"station_id":"ce4bhmp2rcd13ifvqgng","pricing_plan_id":"cebpf4jnsgd1na2vs0mg"},{"bike_id":"76804725-d5fe-43f4-98b3-d808659e4857","system_id":"levelo_inurba_marseille","lat":43.29614,"lon":5.37745,"is_reserved":false,"is_disabled":false,"rental_uris":{"android":"levelo://app?vid=76804725-d5fe-43f4-98b3-d808659e4857","ios":"levelo://app?vid=76804725-d5fe-43f4-98b3-d808659e4857"},"vehicle_type_id":"4","last_reported":1757776094,"current_range_meters":6800,"station_id":"ce4bgi92rcd13ifvqb90","pricing_plan_id":"cebpf4jnsgd1na2vs0mg"},{"bike_id":"0b18d951-85fa-4337-9984-65aab9550ed4","system_id":"levelo_inurba_marseille","lat":43.29939,"lon":5.36521,"is_reserved":false,"is_disabled":false,"rental_uris":{"android":"levelo://app?vid=0b18d951-85fa-4337-9984-65aab9550ed4","ios":"levelo://app?vid=0b18d951-85fa-4337-9984-65aab9550ed4"},"vehicle_type_id":"4","last_reported":1757776094,"current_range_meters":6800,"station_id":"ce4bgm92rcd13ifvqbr0","pricing_plan_id":"cebpf4jnsgd1na2vs0mg"},{"bike_id":"ac568d9b-aa32-4551-90e7-9697d0dfd168","system_id":"levelo_inurba_marseille","lat":43.32373,"lon":5.36765,"is_reserved":false,"is_disabled":false,"rental_uris":{"android":"levelo://app?vid=ac568d9b-aa32-4551-90e7-9697d0dfd168","ios":"levelo://app?vid=ac568d9b-aa32-4551-90e7-9697d0dfd168"},"vehicle_type_id":"4","last_reported":1757776094,"current_range_meters":7200,"station_id":"ce4bhsh2rcd13ifvqi2g","pricing_plan_id":"cebpf4jnsgd1na2vs0mg"},{"bike_id":"06c6713f-714e-48a5-8489-515aabe63115","system_id":"levelo_inurba_marseille","lat":43.29021,"lon":5.38131,"is_reserved":false,"is_disabled":false,"rental_uris":{"android":"levelo://app?vid=06c6713f-714e-48a5-8489-515aabe63115","ios":"levelo://app?vid=06c6713f-714e-48a5-8489-515aabe63115"},"vehicle_type_id":"4","last_reported":1757776094,"current_range_meters":6800,"station_id":"ce4bh4p2rcd13ifvqe1g","pricing_plan_id":"cebpf4jnsgd1na2vs0mg"},{"bike_id":"f97b3bc6-023b-49be-a87e-a0ee893ae31d","system_id":"levelo_inurba_marseille","lat":43.296296,"lon":5.377149,"is_reserved":false,"is_disabled":false,"rental_uris":{"android":"levelo://app?vid=f97b3bc6-023b-49be-a87e-a0ee893ae31d","ios":"levelo://app?vid=f97b3bc6-023b-49be-a87e-a0ee893ae31d"},"vehicle_type_id":"4","last_reported":1757776094,"current_range_meters":7200,"station_id":"ce4bgi92rcd13ifvqb90","pricing_plan_id":"cebpf4jnsgd1na2vs0mg"},{"bike_id":"e313b345-ef08-4d16-85af-9ecb95c2b843","system_id":"levelo_inurba_marseille","lat":43.30511,"lon":5.36741,"is_reserved":false,"is_disabled":false,"rental_uris":{"android":"levelo://app?vid=e313b345-ef08-4d16-85af-9ecb95c2b843","ios":"levelo://app?vid=e313b345-ef08-4d16-85af-9ecb95c2b843"},"vehicle_type_id":"4","last_reported":1757776094,"current_range_meters":8000,"station_id":"ce4bgrp2rcd13ifvqc9g","pricing_plan_id":"cebpf4jnsgd1na2vs0mg"},{"bike_id":"feac4389-0369-4490-b333-e8de02c0ef54","system_id":"levelo_inurba_marseille","lat":43.26682,"lon":5.38267,"is_reserved":false,"is_disabled":true,"rental_uris":{"android":"levelo://app?vid=feac4389-0369-4490-b333-e8de02c0ef54","ios":"levelo://app?vid=feac4389-0369-4490-b333-e8de02c0ef54"},"vehicle_type_id":"4","last_reported":1757776094,"current_range_meters":8000,"station_id":"ce4bhg92rcd13ifvqf90","pricing_plan_id":"cebpf4jnsgd1na2vs0mg"},{"bike_id":"7721b7ec-25a1-4db4-99b8-60c6b540eea7","system_id":"levelo_inurba_marseille","lat":43.2953,"lon":5.38552,"is_reserved":false,"is_disabled":false,"rental_uris":{"android":"levelo://app?vid=7721b7ec-25a1-4db4-99b8-60c6b540eea7","ios":"levelo://app?vid=7721b7ec-25a1-4db4-99b8-60c6b540eea7"},"vehicle_type_id":"4","last_reported":1757776094,"current_range_meters":8000,"station_id":"ce4bgih2rcd13ifvqba0","pricing_plan_id":"cebpf4jnsgd1na2vs0mg"},{"bike_id":"68422fda-945c-402d-b886-a4fecef0c346","system_id":"levelo_inurba_marseille","lat":43.291714,"lon":5.371403,"is_reserved":false,"is_disabled":true,"rental_uris":{"android":"levelo://app?vid=68422fda-945c-402d-b886-a4fecef0c346","ios":"levelo://app?vid=68422fda-945c-402d-b886-a4fecef0c346"},"vehicle_type_id":"4","last_reported":1757776094,"current_range_meters":8000,"station_id":"ce4bha92rcd13ifvqeh0","pricing_plan_id":"cebpf4jnsgd1na2vs0mg"},{"bike_id":"7fa34ec0-a293-418f-bfd5-6e8a3d326e13","system_id":"levelo_inurba_marseille","lat":43.31015,"lon":5.37514,"is_reserved":false,"is_disabled":false,"rental_uris":{"android":"levelo://app?vid=7fa34ec0-a293-418f-bfd5-6e8a3d326e13","ios":"levelo://app?vid=7fa34ec0-a293-418f-bfd5-6e8a3d326e13"},"vehicle_type_id":"4","last_reported":1757776094,"current_range_meters":8000,"station_id":"","pricing_plan_id":"cebpf4jnsgd1na2vs0mg"},{"bike_id":"77981e3f-c968-4216-bbb6-a12e88167c75","system_id":"levelo_inurba_marseille","lat":43.30895,"lon":5.37195,"is_reserved":false,"is_disabled":false,"rental_uris":{"android":"levelo://app?vid=77981e3f-c968-4216-bbb6-a12e88167c75","ios":"levelo://app?vid=77981e3f-c968-4216-bbb6-a12e88167c75"},"vehicle_type_id":"4","last_reported":1757776094,"current_range_meters":8000,"station_id":"ce4bguh2rcd13ifvqckg","pricing_plan_id":"cebpf4jnsgd1na2vs0mg"},{"bike_id":"f3dfc448-d681-45c6-8c58-5929e409853e","system_id":"levelo_inurba_marseille","lat":43.30501,"lon":5.373464,"is_reserved":false,"is_disabled":false,"rental_uris":{"android":"levelo://app?vid=f3dfc448-d681-45c6-8c58-5929e409853e","ios":"levelo://app?vid=f3dfc448-d681-45c6-8c58-5929e409853e"},"vehicle_type_id":"4","last_reported":1757776094,"current_range_meters":8000,"station_id":"ce4bgjh2rcd13ifvqbf0","pricing_plan_id":"cebpf4jnsgd1na2vs0mg"},{"bike_id":"d379273a-42b4-4f7f-a004-32e8498b0074","system_id":"levelo_inurba_marseille","lat":43.29909,"lon":5.38159,"is_reserved":false,"is_disabled":false,"rental_uris":{"android":"levelo://app?vid=d379273a-42b4-4f7f-a004-32e8498b0074","ios":"levelo://app?vid=d379273a-42b4-4f7f-a004-32e8498b0074"},"vehicle_type_id":"4","last_reported":1757776094,"current_range_meters":8000,"station_id":"ce4bgj12rcd13ifvqbc0","pricing_plan_id":"cebpf4jnsgd1na2vs0mg"},{"bike_id":"ada2883d-c6c7-4214-9fa5-2c036b8715ab","system_id":"levelo_inurba_marseille","lat":43.28606,"lon":5.37061,"is_reserved":false,"is_disabled":false,"rental_uris":{"android":"levelo://app?vid=ada2883d-c6c7-4214-9fa5-2c036b8715ab","ios":"levelo://app?vid=ada2883d-c6c7-4214-9fa5-2c036b8715ab"},"vehicle_type_id":"4","last_reported":1757776094,"current_range_meters":8400,"station_id":"ce4bht12rcd13ifvqi60","pricing_plan_id":"cebpf4jnsgd1na2vs0mg"},{"bike_id":"b79b282d-a0f5-4262-8e42-02736eefef1a","system_id":"levelo_inurba_marseille","lat":43.28158,"lon":5.42626,"is_reserved":false,"is_disabled":false,"rental_uris":{"android":"levelo://app?vid=b79b282d-a0f5-4262-8e42-02736eefef1a","ios":"levelo://app?vid=b79b282d-a0f5-4262-8e42-02736eefef1a"},"vehicle_type_id":"4","last_reported":1757776094,"current_range_meters":8400,"station_id":"ce4bhnh2rcd13ifvqgug","pricing_plan_id":"cebpf4jnsgd1na2vs0mg"},{"bike_id":"0e0c8dec-1a42-46dd-bb35-7088192ded70","system_id":"levelo_inurba_marseille","lat":43.29718,"lon":5.37162,"is_reserved":false,"is_disabled":false,"rental_uris":{"android":"levelo://app?vid=0e0c8dec-1a42-46dd-bb35-7088192ded70","ios":"levelo://app?vid=0e0c8dec-1a42-46dd-bb35-7088192ded70"},"vehicle_type_id":"4","last_reported":1757776094,"current_range_meters":8800,"station_id":"","pricing_plan_id":"cebpf4jnsgd1na2vs0mg"},{"bike_id":"059b6b47-050d-433b-be33-398fe12effb9","system_id":"levelo_inurba_marseille","lat":43.23151,"lon":5.43722,"is_reserved":false,"is_disabled":false,"rental_uris":{"android":"levelo://app?vid=059b6b47-050d-433b-be33-398fe12effb9","ios":"levelo://app?vid=059b6b47-050d-433b-be33-398fe12effb9"},"vehicle_type_id":"4","last_reported":1757776094,"current_range_meters":8800,"station_id":"ce4bhmp2rcd13ifvqgog","pricing_plan_id":"cebpf4jnsgd1na2vs0mg"},{"bike_id":"eb6a0dcb-aa2e-493d-8f03-16c2304af2f6","system_id":"levelo_inurba_marseille","lat":43.32356,"lon":5.36753,"is_reserved":false,"is_disabled":false,"rental_uris":{"android":"levelo://app?vid=eb6a0dcb-aa2e-493d-8f03-16c2304af2f6","ios":"levelo://app?vid=eb6a0dcb-aa2e-493d-8f03-16c2304af2f6"},"vehicle_type_id":"4","last_reported":1757776094,"current_range_meters":8800,"station_id":"ce4bhsh2rcd13ifvqi2g","pricing_plan_id":"cebpf4jnsgd1na2vs0mg"},{"bike_id":"3bd595b7-af3b-43b1-8697-1bcb2a61af6f","system_id":"levelo_inurba_marseille","lat":43.27989,"lon":5.40005,"is_reserved":false,"is_disabled":true,"rental_uris":{"android":"levelo://app?vid=3bd595b7-af3b-43b1-8697-1bcb2a61af6f","ios":"levelo://app?vid=3bd595b7-af3b-43b1-8697-1bcb2a61af6f"},"vehicle_type_id":"4","last_reported":1757776094,"current_range_meters":8800,"station_id":"ce4bho92rcd13ifvqh4g","pricing_plan_id":"cebpf4jnsgd1na2vs0mg"},{"bike_id":"de2061c8-68a5-4b50-b6b5-2a03f1f34d29","system_id":"levelo_inurba_marseille","lat":43.25581,"lon":5.38227,"is_reserved":false,"is_disabled":false,"rental_uris":{"android":"levelo://app?vid=de2061c8-68a5-4b50-b6b5-2a03f1f34d29","ios":"levelo://app?vid=de2061c8-68a5-4b50-b6b5-2a03f1f34d29"},"vehicle_type_id":"4","last_reported":1757776094,"current_range_meters":8800,"station_id":"ce4bhih2rcd13ifvqfs0","pricing_plan_id":"cebpf4jnsgd1na2vs0mg"},{"bike_id":"4dbdc86d-63d2-4e90-a2dc-82558ed3dd1c","system_id":"levelo_inurba_marseille","lat":43.29579,"lon":5.37516,"is_reserved":false,"is_disabled":false,"rental_uris":{"android":"levelo://app?vid=4dbdc86d-63d2-4e90-a2dc-82558ed3dd1c","ios":"levelo://app?vid=4dbdc86d-63d2-4e90-a2dc-82558ed3dd1c"},"vehicle_type_id":"4","last_reported":1757776094,"current_range_meters":8800,"station_id":"ce4bgh92rcd13ifvqb50","pricing_plan_id":"cebpf4jnsgd1na2vs0mg"},{"bike_id":"972b4c5f-3a00-4bb2-9116-b81f2cecc9f2","system_id":"levelo_inurba_marseille","lat":43.33764,"lon":5.37483,"is_reserved":false,"is_disabled":false,"rental_uris":{"android":"levelo://app?vid=972b4c5f-3a00-4bb2-9116-b81f2cecc9f2","ios":"levelo://app?vid=972b4c5f-3a00-4bb2-9116-b81f2cecc9f2"},"vehicle_type_id":"4","last_reported":1757776094,"current_range_meters":8800,"station_id":"","pricing_plan_id":"cebpf4jnsgd1na2vs0mg"},{"bike_id":"b62a3a7f-1bf6-4ea2-ab9e-977586b47b39","system_id":"levelo_inurba_marseille","lat":43.27073,"lon":5.42277,"is_reserved":false,"is_disabled":false,"rental_uris":{"android":"levelo://app?vid=b62a3a7f-1bf6-4ea2-ab9e-977586b47b39","ios":"levelo://app?vid=b62a3a7f-1bf6-4ea2-ab9e-977586b47b39"},"vehicle_type_id":"4","last_reported":1757776094,"current_range_meters":9200,"station_id":"ce4bhk92rcd13ifvqgb0","pricing_plan_id":"cebpf4jnsgd1na2vs0mg"},{"bike_id":"50b01254-e33e-42dc-9853-d3ab7a1f8639","system_id":"levelo_inurba_marseille","lat":43.28721,"lon":5.37927,"is_reserved":false,"is_disabled":false,"rental_uris":{"android":"levelo://app?vid=50b01254-e33e-42dc-9853-d3ab7a1f8639","ios":"levelo://app?vid=50b01254-e33e-42dc-9853-d3ab7a1f8639"},"vehicle_type_id":"4","last_reported":1757776094,"current_range_meters":9200,"station_id":"ce4bh9p2rcd13ifvqec0","pricing_plan_id":"cebpf4jnsgd1na2vs0mg"},{"bike_id":"4c470ddd-b984-4608-8af4-12be71514e03","system_id":"levelo_inurba_marseille","lat":43.30252,"lon":5.40052,"is_reserved":false,"is_disabled":false,"rental_uris":{"android":"levelo://app?vid=4c470ddd-b984-4608-8af4-12be71514e03","ios":"levelo://app?vid=4c470ddd-b984-4608-8af4-12be71514e03"},"vehicle_type_id":"4","last_reported":1757776094,"current_range_meters":9200,"station_id":"ce4bgvh2rcd13ifvqcs0","pricing_plan_id":"cebpf4jnsgd1na2vs0mg"},{"bike_id":"8eec5b69-0737-4b5f-b331-57a39bb0bb98","system_id":"levelo_inurba_marseille","lat":43.2558,"lon":5.38226,"is_reserved":false,"is_disabled":false,"rental_uris":{"android":"levelo://app?vid=8eec5b69-0737-4b5f-b331-57a39bb0bb98","ios":"levelo://app?vid=8eec5b69-0737-4b5f-b331-57a39bb0bb98"},"vehicle_type_id":"4","last_reported":1757776094,"current_range_meters":9200,"station_id":"ce4bhih2rcd13ifvqfs0","pricing_plan_id":"cebpf4jnsgd1na2vs0mg"},{"bike_id":"a3977072-5f91-4a68-b0d6-dc3cb909a337","system_id":"levelo_inurba_marseille","lat":43.33768,"lon":5.37465,"is_reserved":false,"is_disabled":false,"rental_uris":{"android":"levelo://app?vid=a3977072-5f91-4a68-b0d6-dc3cb909a337","ios":"levelo://app?vid=a3977072-5f91-4a68-b0d6-dc3cb909a337"},"vehicle_type_id":"4","last_reported":1757776094,"current_range_meters":9600,"station_id":"","pricing_plan_id":"cebpf4jnsgd1na2vs0mg"},{"bike_id":"12fb07ff-419c-4c5b-aaae-ce287b75b5fd","system_id":"levelo_inurba_marseille","lat":43.28992,"lon":5.40027,"is_reserved":false,"is_disabled":false,"rental_uris":{"android":"levelo://app?vid=12fb07ff-419c-4c5b-aaae-ce287b75b5fd","ios":"levelo://app?vid=12fb07ff-419c-4c5b-aaae-ce287b75b5fd"},"vehicle_type_id":"4","last_reported":1757776094,"current_range_meters":9200,"station_id":"ce4bh392rcd13ifvqdm0","pricing_plan_id":"cebpf4jnsgd1na2vs0mg"},{"bike_id":"4c375d89-2563-4529-b762-c010c9ce99a8","system_id":"levelo_inurba_marseille","lat":43.24386,"lon":5.3706,"is_reserved":false,"is_disabled":false,"rental_uris":{"android":"levelo://app?vid=4c375d89-2563-4529-b762-c010c9ce99a8","ios":"levelo://app?vid=4c375d89-2563-4529-b762-c010c9ce99a8"},"vehicle_type_id":"4","last_reported":1757776094,"current_range_meters":9600,"station_id":"ce4bhhh2rcd13ifvqfk0","pricing_plan_id":"cebpf4jnsgd1na2vs0mg"},{"bike_id":"b7fe55b2-716d-4940-a822-162752aa3050","system_id":"levelo_inurba_marseille","lat":43.320018,"lon":5.381519,"is_reserved":false,"is_disabled":false,"rental_uris":{"android":"levelo://app?vid=b7fe55b2-716d-4940-a822-162752aa3050","ios":"levelo://app?vid=b7fe55b2-716d-4940-a822-162752aa3050"},"vehicle_type_id":"4","last_reported":1757776094,"current_range_meters":10000,"station_id":"ce4bhr12rcd13ifvqhpg","pricing_plan_id":"cebpf4jnsgd1na2vs0mg"},{"bike_id":"eaa220fb-5349-44c0-849a-e1e199bab0e0","system_id":"levelo_inurba_marseille","lat":43.312032,"lon":5.367326,"is_reserved":false,"is_disabled":false,"rental_uris":{"android":"levelo://app?vid=eaa220fb-5349-44c0-849a-e1e199bab0e0","ios":"levelo://app?vid=eaa220fb-5349-44c0-849a-e1e199bab0e0"},"vehicle_type_id":"4","last_reported":1757776094,"current_range_meters":10000,"station_id":"","pricing_plan_id":"cebpf4jnsgd1na2vs0mg"},{"bike_id":"18f3e4f7-3404-4ee3-96c8-cb4272ee843b","system_id":"levelo_inurba_marseille","lat":43.29306,"lon":5.37452,"is_reserved":false,"is_disabled":false,"rental_uris":{"android":"levelo://app?vid=18f3e4f7-3404-4ee3-96c8-cb4272ee843b","ios":"levelo://app?vid=18f3e4f7-3404-4ee3-96c8-cb4272ee843b"},"vehicle_type_id":"4","last_reported":1757776094,"current_range_meters":10000,"station_id":"ce4bgi12rcd13ifvqb70","pricing_plan_id":"cebpf4jnsgd1na2vs0mg"},{"bike_id":"6a0d6c93-e641-4f2e-badf-3cf3fdf9781a","system_id":"levelo_inurba_marseille","lat":43.28611,"lon":5.35099,"is_reserved":false,"is_disabled":false,"rental_uris":{"android":"levelo://app?vid=6a0d6c93-e641-4f2e-badf-3cf3fdf9781a","ios":"levelo://app?vid=6a0d6c93-e641-4f2e-badf-3cf3fdf9781a"},"vehicle_type_id":"4","last_reported":1757776094,"current_range_meters":10000,"station_id":"ce4bhch2rcd13ifvqeug","pricing_plan_id":"cebpf4jnsgd1na2vs0mg"},{"bike_id":"775af279-8ac9-4585-9121-809be9b13265","system_id":"levelo_inurba_marseille","lat":43.337775,"lon":5.374412,"is_reserved":false,"is_disabled":false,"rental_uris":{"android":"levelo://app?vid=775af279-8ac9-4585-9121-809be9b13265","ios":"levelo://app?vid=775af279-8ac9-4585-9121-809be9b13265"},"vehicle_type_id":"4","last_reported":1757776094,"current_range_meters":10000,"station_id":"","pricing_plan_id":"cebpf4jnsgd1na2vs0mg"},{"bike_id":"4266b374-d4bf-4fd2-bb94-51b2d7d40946","system_id":"levelo_inurba_marseille","lat":43.22568,"lon":5.41612,"is_reserved":false,"is_disabled":false,"rental_uris":{"android":"levelo://app?vid=4266b374-d4bf-4fd2-bb94-51b2d7d40946","ios":"levelo://app?vid=4266b374-d4bf-4fd2-bb94-51b2d7d40946"},"vehicle_type_id":"4","last_reported":1757776094,"current_range_meters":10000,"station_id":"st_d2o4gvlbi1j2169b742g","pricing_plan_id":"cebpf4jnsgd1na2vs0mg"},{"bike_id":"1f5337e1-0da6-4170-9317-908b45981a29","system_id":"levelo_inurba_marseille","lat":43.23113,"lon":5.40467,"is_reserved":false,"is_disabled":false,"rental_uris":{"android":"levelo://app?vid=1f5337e1-0da6-4170-9317-908b45981a29","ios":"levelo://app?vid=1f5337e1-0da6-4170-9317-908b45981a29"},"vehicle_type_id":"4","last_reported":1757776094,"current_range_meters":10000,"station_id":"","pricing_plan_id":"cebpf4jnsgd1na2vs0mg"},{"bike_id":"a24c4696-920b-4645-847f-87e0b46915a6","system_id":"levelo_inurba_marseille","lat":43.32431,"lon":5.42487,"is_reserved":false,"is_disabled":false,"rental_uris":{"android":"levelo://app?vid=a24c4696-920b-4645-847f-87e0b46915a6","ios":"levelo://app?vid=a24c4696-920b-4645-847f-87e0b46915a6"},"vehicle_type_id":"4","last_reported":1757776094,"current_range_meters":10800,"station_id":"","pricing_plan_id":"cebpf4jnsgd1na2vs0mg"},{"bike_id":"caf0c832-675d-447b-a726-f03822a494c8","system_id":"levelo_inurba_marseille","lat":43.29273,"lon":5.36845,"is_reserved":false,"is_disabled":false,"rental_uris":{"android":"levelo://app?vid=caf0c832-675d-447b-a726-f03822a494c8","ios":"levelo://app?vid=caf0c832-675d-447b-a726-f03822a494c8"},"vehicle_type_id":"4","last_reported":1757776094,"current_range_meters":10800,"station_id":"ce4bhbp2rcd13ifvqesg","pricing_plan_id":"cebpf4jnsgd1na2vs0mg"},{"bike_id":"7f696ba1-833f-412e-8b5d-d4d815a574fc","system_id":"levelo_inurba_marseille","lat":43.29842,"lon":5.37159,"is_reserved":false,"is_disabled":false,"rental_uris":{"android":"levelo://app?vid=7f696ba1-833f-412e-8b5d-d4d815a574fc","ios":"levelo://app?vid=7f696ba1-833f-412e-8b5d-d4d815a574fc"},"vehicle_type_id":"4","last_reported":1757776094,"current_range_meters":10800,"station_id":"","pricing_plan_id":"cebpf4jnsgd1na2vs0mg"},{"bike_id":"7e288a2e-a3a4-4349-a2ed-30c9d69bdb54","system_id":"levelo_inurba_marseille","lat":43.28939,"lon":5.39626,"is_reserved":false,"is_disabled":false,"rental_uris":{"android":"levelo://app?vid=7e288a2e-a3a4-4349-a2ed-30c9d69bdb54","ios":"levelo://app?vid=7e288a2e-a3a4-4349-a2ed-30c9d69bdb54"},"vehicle_type_id":"4","last_reported":1757776094,"current_range_meters":10000,"station_id":"ce4bh3h2rcd13ifvqdn0","pricing_plan_id":"cebpf4jnsgd1na2vs0mg"},{"bike_id":"89724e0f-d6a6-4e81-9dc8-40ed9db09b04","system_id":"levelo_inurba_marseille","lat":43.286,"lon":5.37078,"is_reserved":false,"is_disabled":false,"rental_uris":{"android":"levelo://app?vid=89724e0f-d6a6-4e81-9dc8-40ed9db09b04","ios":"levelo://app?vid=89724e0f-d6a6-4e81-9dc8-40ed9db09b04"},"vehicle_type_id":"4","last_reported":1757776094,"current_range_meters":10800,"station_id":"ce4bht12rcd13ifvqi60","pricing_plan_id":"cebpf4jnsgd1na2vs0mg"},{"bike_id":"6515536f-56de-4109-b7a1-24c742aed225","system_id":"levelo_inurba_marseille","lat":43.32014,"lon":5.37227,"is_reserved":false,"is_disabled":false,"rental_uris":{"android":"levelo://app?vid=6515536f-56de-4109-b7a1-24c742aed225","ios":"levelo://app?vid=6515536f-56de-4109-b7a1-24c742aed225"},"vehicle_type_id":"4","last_reported":1757776094,"current_range_meters":11200,"station_id":"","pricing_plan_id":"cebpf4jnsgd1na2vs0mg"},{"bike_id":"468b29b7-c0e4-4fb5-98d3-7139e8424f60","system_id":"levelo_inurba_marseille","lat":43.32128,"lon":5.36722,"is_reserved":false,"is_disabled":false,"rental_uris":{"android":"levelo://app?vid=468b29b7-c0e4-4fb5-98d3-7139e8424f60","ios":"levelo://app?vid=468b29b7-c0e4-4fb5-98d3-7139e8424f60"},"vehicle_type_id":"4","last_reported":1757776094,"current_range_meters":11200,"station_id":"","pricing_plan_id":"cebpf4jnsgd1na2vs0mg"},{"bike_id":"f6bb7a76-1d2f-4493-8f3f-a4eec7f4df47","system_id":"levelo_inurba_marseille","lat":43.30899,"lon":5.37192,"is_reserved":false,"is_disabled":false,"rental_uris":{"android":"levelo://app?vid=f6bb7a76-1d2f-4493-8f3f-a4eec7f4df47","ios":"levelo://app?vid=f6bb7a76-1d2f-4493-8f3f-a4eec7f4df47"},"vehicle_type_id":"4","last_reported":1757776094,"current_range_meters":11200,"station_id":"ce4bguh2rcd13ifvqckg","pricing_plan_id":"cebpf4jnsgd1na2vs0mg"},{"bike_id":"9fdce098-492a-40f9-ae29-95caf53fef79","system_id":"levelo_inurba_marseille","lat":43.32682,"lon":5.39106,"is_reserved":false,"is_disabled":false,"rental_uris":{"android":"levelo://app?vid=9fdce098-492a-40f9-ae29-95caf53fef79","ios":"levelo://app?vid=9fdce098-492a-40f9-ae29-95caf53fef79"},"vehicle_type_id":"4","last_reported":1757776094,"current_range_meters":11200,"station_id":"","pricing_plan_id":"cebpf4jnsgd1na2vs0mg"},{"bike_id":"afa5b270-1b82-4b90-8fe4-7ae439ce006b","system_id":"levelo_inurba_marseille","lat":43.27986,"lon":5.41664,"is_reserved":false,"is_disabled":false,"rental_uris":{"android":"levelo://app?vid=afa5b270-1b82-4b90-8fe4-7ae439ce006b","ios":"levelo://app?vid=afa5b270-1b82-4b90-8fe4-7ae439ce006b"},"vehicle_type_id":"4","last_reported":1757776094,"current_range_meters":11200,"station_id":"ce4bho12rcd13ifvqh1g","pricing_plan_id":"cebpf4jnsgd1na2vs0mg"},{"bike_id":"8a832b4e-06c1-4f5c-aa20-4a6760811487","system_id":"levelo_inurba_marseille","lat":43.30929,"lon":5.4014,"is_reserved":false,"is_disabled":false,"rental_uris":{"android":"levelo://app?vid=8a832b4e-06c1-4f5c-aa20-4a6760811487","ios":"levelo://app?vid=8a832b4e-06c1-4f5c-aa20-4a6760811487"},"vehicle_type_id":"4","last_reported":1757776094,"current_range_meters":11600,"station_id":"ce4bgvp2rcd13ifvqct0","pricing_plan_id":"cebpf4jnsgd1na2vs0mg"},{"bike_id":"d987f56d-76e3-4f7b-9b84-5022d38036d0","system_id":"levelo_inurba_marseille","lat":43.25343,"lon":5.42166,"is_reserved":false,"is_disabled":false,"rental_uris":{"android":"levelo://app?vid=d987f56d-76e3-4f7b-9b84-5022d38036d0","ios":"levelo://app?vid=d987f56d-76e3-4f7b-9b84-5022d38036d0"},"vehicle_type_id":"4","last_reported":1757776094,"current_range_meters":11600,"station_id":"st_d2m65c5bi1j21697t3ng","pricing_plan_id":"cebpf4jnsgd1na2vs0mg"},{"bike_id":"140f33b8-1102-4f7e-b0ef-d83c5cd8bb96","system_id":"levelo_inurba_marseille","lat":43.23194,"lon":5.35551,"is_reserved":false,"is_disabled":false,"rental_uris":{"android":"levelo://app?vid=140f33b8-1102-4f7e-b0ef-d83c5cd8bb96","ios":"levelo://app?vid=140f33b8-1102-4f7e-b0ef-d83c5cd8bb96"},"vehicle_type_id":"4","last_reported":1757776094,"current_range_meters":11600,"station_id":"ce4bhu92rcd13ifvqi70","pricing_plan_id":"cebpf4jnsgd1na2vs0mg"},{"bike_id":"8a4d2a94-6dcc-48a7-bce6-1f6f98746be6","system_id":"levelo_inurba_marseille","lat":43.27505,"lon":5.42449,"is_reserved":false,"is_disabled":false,"rental_uris":{"android":"levelo://app?vid=8a4d2a94-6dcc-48a7-bce6-1f6f98746be6","ios":"levelo://app?vid=8a4d2a94-6dcc-48a7-bce6-1f6f98746be6"},"vehicle_type_id":"4","last_reported":1757776094,"current_range_meters":11600,"station_id":"ce4bhn92rcd13ifvqgrg","pricing_plan_id":"cebpf4jnsgd1na2vs0mg"},{"bike_id":"c5d0a267-63b8-45b1-8db4-f64d80554eb4","system_id":"levelo_inurba_marseille","lat":43.286117,"lon":5.370659,"is_reserved":false,"is_disabled":true,"rental_uris":{"android":"levelo://app?vid=c5d0a267-63b8-45b1-8db4-f64d80554eb4","ios":"levelo://app?vid=c5d0a267-63b8-45b1-8db4-f64d80554eb4"},"vehicle_type_id":"4","last_reported":1757776094,"current_range_meters":11600,"station_id":"ce4bht12rcd13ifvqi60","pricing_plan_id":"cebpf4jnsgd1na2vs0mg"},{"bike_id":"c5c86047-a19f-464e-9c85-505111aab1f3","system_id":"levelo_inurba_marseille","lat":43.28483,"lon":5.38406,"is_reserved":false,"is_disabled":false,"rental_uris":{"android":"levelo://app?vid=c5c86047-a19f-464e-9c85-505111aab1f3","ios":"levelo://app?vid=c5c86047-a19f-464e-9c85-505111aab1f3"},"vehicle_type_id":"4","last_reported":1757776094,"current_range_meters":11600,"station_id":"ce4bh512rcd13ifvqe3g","pricing_plan_id":"cebpf4jnsgd1na2vs0mg"},{"bike_id":"7521d203-a334-42a8-829b-94fa7048c624","system_id":"levelo_inurba_marseille","lat":43.24544,"lon":5.39518,"is_reserved":false,"is_disabled":false,"rental_uris":{"android":"levelo://app?vid=7521d203-a334-42a8-829b-94fa7048c624","ios":"levelo://app?vid=7521d203-a334-42a8-829b-94fa7048c624"},"vehicle_type_id":"4","last_reported":1757776094,"current_range_meters":11600,"station_id":"ce4bhlp2rcd13ifvqgjg","pricing_plan_id":"cebpf4jnsgd1na2vs0mg"},{"bike_id":"7068895e-81c5-46c1-85a7-fdbb8280530f","system_id":"levelo_inurba_marseille","lat":43.23967,"lon":5.36638,"is_reserved":false,"is_disabled":false,"rental_uris":{"android":"levelo://app?vid=7068895e-81c5-46c1-85a7-fdbb8280530f","ios":"levelo://app?vid=7068895e-81c5-46c1-85a7-fdbb8280530f"},"vehicle_type_id":"4","last_reported":1757776094,"current_range_meters":11600,"station_id":"ce4bhi12rcd13ifvqfp0","pricing_plan_id":"cebpf4jnsgd1na2vs0mg"},{"bike_id":"a6b98a4b-5fda-4aa0-9c34-5d18d438c4d8","system_id":"levelo_inurba_marseille","lat":43.28613,"lon":5.35098,"is_reserved":false,"is_disabled":false,"rental_uris":{"android":"levelo://app?vid=a6b98a4b-5fda-4aa0-9c34-5d18d438c4d8","ios":"levelo://app?vid=a6b98a4b-5fda-4aa0-9c34-5d18d438c4d8"},"vehicle_type_id":"4","last_reported":1757776094,"current_range_meters":11600,"station_id":"ce4bhch2rcd13ifvqeug","pricing_plan_id":"cebpf4jnsgd1na2vs0mg"},{"bike_id":"0c78ed8a-2af8-4f2c-895d-0de884f1c9f2","system_id":"levelo_inurba_marseille","lat":43.299,"lon":5.43688,"is_reserved":false,"is_disabled":false,"rental_uris":{"android":"levelo://app?vid=0c78ed8a-2af8-4f2c-895d-0de884f1c9f2","ios":"levelo://app?vid=0c78ed8a-2af8-4f2c-895d-0de884f1c9f2"},"vehicle_type_id":"4","last_reported":1757776094,"current_range_meters":11600,"station_id":"ce4bhpp2rcd13ifvqhfg","pricing_plan_id":"cebpf4jnsgd1na2vs0mg"},{"bike_id":"5d2d49c3-df0a-4e43-a031-b4854d84eee8","system_id":"levelo_inurba_marseille","lat":43.23958,"lon":5.36626,"is_reserved":false,"is_disabled":false,"rental_uris":{"android":"levelo://app?vid=5d2d49c3-df0a-4e43-a031-b4854d84eee8","ios":"levelo://app?vid=5d2d49c3-df0a-4e43-a031-b4854d84eee8"},"vehicle_type_id":"4","last_reported":1757776094,"current_range_meters":12000,"station_id":"ce4bhi12rcd13ifvqfp0","pricing_plan_id":"cebpf4jnsgd1na2vs0mg"},{"bike_id":"b0a0a8cc-9c9b-43ac-b30a-5c59de15749c","system_id":"levelo_inurba_marseille","lat":43.23061,"lon":5.35485,"is_reserved":false,"is_disabled":false,"rental_uris":{"android":"levelo://app?vid=b0a0a8cc-9c9b-43ac-b30a-5c59de15749c","ios":"levelo://app?vid=b0a0a8cc-9c9b-43ac-b30a-5c59de15749c"},"vehicle_type_id":"4","last_reported":1757776094,"current_range_meters":12000,"station_id":"cpo3342slgdg3j2ifvpg","pricing_plan_id":"cebpf4jnsgd1na2vs0mg"},{"bike_id":"dcae514d-9200-43c1-9267-dee91427cf46","system_id":"levelo_inurba_marseille","lat":43.250943,"lon":5.395081,"is_reserved":false,"is_disabled":false,"rental_uris":{"android":"levelo://app?vid=dcae514d-9200-43c1-9267-dee91427cf46","ios":"levelo://app?vid=dcae514d-9200-43c1-9267-dee91427cf46"},"vehicle_type_id":"4","last_reported":1757776094,"current_range_meters":12000,"station_id":"ce4bhm12rcd13ifvqgkg","pricing_plan_id":"cebpf4jnsgd1na2vs0mg"},{"bike_id":"3bef69fe-5b53-4b5c-bb48-170285c21d79","system_id":"levelo_inurba_marseille","lat":43.25845,"lon":5.39411,"is_reserved":false,"is_disabled":false,"rental_uris":{"android":"levelo://app?vid=3bef69fe-5b53-4b5c-bb48-170285c21d79","ios":"levelo://app?vid=3bef69fe-5b53-4b5c-bb48-170285c21d79"},"vehicle_type_id":"4","last_reported":1757776094,"current_range_meters":12400,"station_id":"ce4bhip2rcd13ifvqft0","pricing_plan_id":"cebpf4jnsgd1na2vs0mg"},{"bike_id":"7143f9c1-c593-4b0d-8b29-e4c607d345d1","system_id":"levelo_inurba_marseille","lat":43.25001,"lon":5.38926,"is_reserved":false,"is_disabled":false,"rental_uris":{"android":"levelo://app?vid=7143f9c1-c593-4b0d-8b29-e4c607d345d1","ios":"levelo://app?vid=7143f9c1-c593-4b0d-8b29-e4c607d345d1"},"vehicle_type_id":"4","last_reported":1757776094,"current_range_meters":12400,"station_id":"ce4bhgp2rcd13ifvqfd0","pricing_plan_id":"cebpf4jnsgd1na2vs0mg"},{"bike_id":"7dc00165-e583-4bd0-bbf8-f77743c96ba8","system_id":"levelo_inurba_marseille","lat":43.323606,"lon":5.367537,"is_reserved":false,"is_disabled":false,"rental_uris":{"android":"levelo://app?vid=7dc00165-e583-4bd0-bbf8-f77743c96ba8","ios":"levelo://app?vid=7dc00165-e583-4bd0-bbf8-f77743c96ba8"},"vehicle_type_id":"4","last_reported":1757776094,"current_range_meters":12400,"station_id":"ce4bhsh2rcd13ifvqi2g","pricing_plan_id":"cebpf4jnsgd1na2vs0mg"},{"bike_id":"d5c98035-fc72-4062-a3ec-13203f68e8ed","system_id":"levelo_inurba_marseille","lat":43.28864,"lon":5.42514,"is_reserved":false,"is_disabled":false,"rental_uris":{"android":"levelo://app?vid=d5c98035-fc72-4062-a3ec-13203f68e8ed","ios":"levelo://app?vid=d5c98035-fc72-4062-a3ec-13203f68e8ed"},"vehicle_type_id":"4","last_reported":1757776094,"current_range_meters":12400,"station_id":"","pricing_plan_id":"cebpf4jnsgd1na2vs0mg"},{"bike_id":"fab1b87d-3115-4c68-a5e8-a477f7479c1c","system_id":"levelo_inurba_marseille","lat":43.30137,"lon":5.3809,"is_reserved":false,"is_disabled":false,"rental_uris":{"android":"levelo://app?vid=fab1b87d-3115-4c68-a5e8-a477f7479c1c","ios":"levelo://app?vid=fab1b87d-3115-4c68-a5e8-a477f7479c1c"},"vehicle_type_id":"4","last_reported":1757776094,"current_range_meters":12400,"station_id":"ce4bgjp2rcd13ifvqbh0","pricing_plan_id":"cebpf4jnsgd1na2vs0mg"},{"bike_id":"4512c2c7-f6ea-48a6-8a48-abb3bc17e447","system_id":"levelo_inurba_marseille","lat":43.255858,"lon":5.382272,"is_reserved":false,"is_disabled":false,"rental_uris":{"android":"levelo://app?vid=4512c2c7-f6ea-48a6-8a48-abb3bc17e447","ios":"levelo://app?vid=4512c2c7-f6ea-48a6-8a48-abb3bc17e447"},"vehicle_type_id":"4","last_reported":1757776094,"current_range_meters":12400,"station_id":"ce4bhih2rcd13ifvqfs0","pricing_plan_id":"cebpf4jnsgd1na2vs0mg"},{"bike_id":"84be000e-b186-4e60-8aaa-b7a0f42a7175","system_id":"levelo_inurba_marseille","lat":43.337616,"lon":5.374353,"is_reserved":false,"is_disabled":false,"rental_uris":{"android":"levelo://app?vid=84be000e-b186-4e60-8aaa-b7a0f42a7175","ios":"levelo://app?vid=84be000e-b186-4e60-8aaa-b7a0f42a7175"},"vehicle_type_id":"4","last_reported":1757776094,"current_range_meters":12800,"station_id":"","pricing_plan_id":"cebpf4jnsgd1na2vs0mg"},{"bike_id":"beb6189c-c21e-4836-b631-6b5c31a632d8","system_id":"levelo_inurba_marseille","lat":43.2256,"lon":5.41625,"is_reserved":false,"is_disabled":false,"rental_uris":{"android":"levelo://app?vid=beb6189c-c21e-4836-b631-6b5c31a632d8","ios":"levelo://app?vid=beb6189c-c21e-4836-b631-6b5c31a632d8"},"vehicle_type_id":"4","last_reported":1757776094,"current_range_meters":13600,"station_id":"st_d2o4gvlbi1j2169b742g","pricing_plan_id":"cebpf4jnsgd1na2vs0mg"},{"bike_id":"de602e63-8a12-48f9-bc4b-7944b37ff47e","system_id":"levelo_inurba_marseille","lat":43.31992,"lon":5.38152,"is_reserved":false,"is_disabled":false,"rental_uris":{"android":"levelo://app?vid=de602e63-8a12-48f9-bc4b-7944b37ff47e","ios":"levelo://app?vid=de602e63-8a12-48f9-bc4b-7944b37ff47e"},"vehicle_type_id":"4","last_reported":1757776094,"current_range_meters":13600,"station_id":"ce4bhr12rcd13ifvqhpg","pricing_plan_id":"cebpf4jnsgd1na2vs0mg"},{"bike_id":"d5fe8587-d577-4927-9f03-bf5f1fa338f3","system_id":"levelo_inurba_marseille","lat":43.32624,"lon":5.37513,"is_reserved":false,"is_disabled":false,"rental_uris":{"android":"levelo://app?vid=d5fe8587-d577-4927-9f03-bf5f1fa338f3","ios":"levelo://app?vid=d5fe8587-d577-4927-9f03-bf5f1fa338f3"},"vehicle_type_id":"4","last_reported":1757776094,"current_range_meters":13600,"station_id":"","pricing_plan_id":"cebpf4jnsgd1na2vs0mg"},{"bike_id":"02dbb44c-70e3-4a7a-b86e-6159cc35ba47","system_id":"levelo_inurba_marseille","lat":43.29587,"lon":5.38689,"is_reserved":false,"is_disabled":false,"rental_uris":{"android":"levelo://app?vid=02dbb44c-70e3-4a7a-b86e-6159cc35ba47","ios":"levelo://app?vid=02dbb44c-70e3-4a7a-b86e-6159cc35ba47"},"vehicle_type_id":"4","last_reported":1757776094,"current_range_meters":13600,"station_id":"ce4bgih2rcd13ifvqba0","pricing_plan_id":"cebpf4jnsgd1na2vs0mg"},{"bike_id":"fa5da6a4-460b-4e97-bd1c-4d96390c965f","system_id":"levelo_inurba_marseille","lat":43.29274,"lon":5.36838,"is_reserved":false,"is_disabled":false,"rental_uris":{"android":"levelo://app?vid=fa5da6a4-460b-4e97-bd1c-4d96390c965f","ios":"levelo://app?vid=fa5da6a4-460b-4e97-bd1c-4d96390c965f"},"vehicle_type_id":"4","last_reported":1757776094,"current_range_meters":14000,"station_id":"ce4bhbp2rcd13ifvqesg","pricing_plan_id":"cebpf4jnsgd1na2vs0mg"},{"bike_id":"d9c66413-fc0c-4d58-b9df-c55859e73212","system_id":"levelo_inurba_marseille","lat":43.28483,"lon":5.35871,"is_reserved":false,"is_disabled":true,"rental_uris":{"android":"levelo://app?vid=d9c66413-fc0c-4d58-b9df-c55859e73212","ios":"levelo://app?vid=d9c66413-fc0c-4d58-b9df-c55859e73212"},"vehicle_type_id":"4","last_reported":1757776094,"current_range_meters":14000,"station_id":"ce4bhah2rcd13ifvqei0","pricing_plan_id":"cebpf4jnsgd1na2vs0mg"},{"bike_id":"55d59e02-f5a5-4e1a-9360-556e842fa2a4","system_id":"levelo_inurba_marseille","lat":43.33764,"lon":5.37496,"is_reserved":false,"is_disabled":false,"rental_uris":{"android":"levelo://app?vid=55d59e02-f5a5-4e1a-9360-556e842fa2a4","ios":"levelo://app?vid=55d59e02-f5a5-4e1a-9360-556e842fa2a4"},"vehicle_type_id":"4","last_reported":1757776094,"current_range_meters":14000,"station_id":"","pricing_plan_id":"cebpf4jnsgd1na2vs0mg"},{"bike_id":"5fb6bbc0-2cd0-41a4-8a90-feb9a5d129dd","system_id":"levelo_inurba_marseille","lat":43.281591,"lon":5.426429,"is_reserved":false,"is_disabled":false,"rental_uris":{"android":"levelo://app?vid=5fb6bbc0-2cd0-41a4-8a90-feb9a5d129dd","ios":"levelo://app?vid=5fb6bbc0-2cd0-41a4-8a90-feb9a5d129dd"},"vehicle_type_id":"4","last_reported":1757776094,"current_range_meters":14000,"station_id":"ce4bhnh2rcd13ifvqgug","pricing_plan_id":"cebpf4jnsgd1na2vs0mg"},{"bike_id":"7c2f17a4-f002-4fec-aa5e-8812f5d2b5e5","system_id":"levelo_inurba_marseille","lat":43.26563,"lon":5.3901,"is_reserved":false,"is_disabled":false,"rental_uris":{"android":"levelo://app?vid=7c2f17a4-f002-4fec-aa5e-8812f5d2b5e5","ios":"levelo://app?vid=7c2f17a4-f002-4fec-aa5e-8812f5d2b5e5"},"vehicle_type_id":"4","last_reported":1757776094,"current_range_meters":14000,"station_id":"ce4bhe12rcd13ifvqf30","pricing_plan_id":"cebpf4jnsgd1na2vs0mg"},{"bike_id":"081eb476-ae75-4e11-af09-16d68b7dc762","system_id":"levelo_inurba_marseille","lat":43.27955,"lon":5.41011,"is_reserved":false,"is_disabled":false,"rental_uris":{"android":"levelo://app?vid=081eb476-ae75-4e11-af09-16d68b7dc762","ios":"levelo://app?vid=081eb476-ae75-4e11-af09-16d68b7dc762"},"vehicle_type_id":"4","last_reported":1757776094,"current_range_meters":14000,"station_id":"ce4bhnp2rcd13ifvqh0g","pricing_plan_id":"cebpf4jnsgd1na2vs0mg"},{"bike_id":"d9c11a94-d122-4240-b95b-24fdee8810ac","system_id":"levelo_inurba_marseille","lat":43.28273,"lon":5.39916,"is_reserved":false,"is_disabled":false,"rental_uris":{"android":"levelo://app?vid=d9c11a94-d122-4240-b95b-24fdee8810ac","ios":"levelo://app?vid=d9c11a94-d122-4240-b95b-24fdee8810ac"},"vehicle_type_id":"4","last_reported":1757776094,"current_range_meters":14000,"station_id":"","pricing_plan_id":"cebpf4jnsgd1na2vs0mg"},{"bike_id":"f8ffd399-b74b-428b-b8c5-652d37f4b22c","system_id":"levelo_inurba_marseille","lat":43.24952,"lon":5.40503,"is_reserved":false,"is_disabled":false,"rental_uris":{"android":"levelo://app?vid=f8ffd399-b74b-428b-b8c5-652d37f4b22c","ios":"levelo://app?vid=f8ffd399-b74b-428b-b8c5-652d37f4b22c"},"vehicle_type_id":"4","last_reported":1757776094,"current_range_meters":14400,"station_id":"st_d2ngiaodas8pm72gd1h0","pricing_plan_id":"cebpf4jnsgd1na2vs0mg"},{"bike_id":"ece8953e-9602-4cff-88e8-c287ca8720f9","system_id":"levelo_inurba_marseille","lat":43.29243,"lon":5.40033,"is_reserved":false,"is_disabled":false,"rental_uris":{"android":"levelo://app?vid=ece8953e-9602-4cff-88e8-c287ca8720f9","ios":"levelo://app?vid=ece8953e-9602-4cff-88e8-c287ca8720f9"},"vehicle_type_id":"4","last_reported":1757776094,"current_range_meters":14400,"station_id":"","pricing_plan_id":"cebpf4jnsgd1na2vs0mg"},{"bike_id":"bac53bcd-a38d-42a1-bae1-7adfdf001085","system_id":"levelo_inurba_marseille","lat":43.30536,"lon":5.36551,"is_reserved":false,"is_disabled":false,"rental_uris":{"android":"levelo://app?vid=bac53bcd-a38d-42a1-bae1-7adfdf001085","ios":"levelo://app?vid=bac53bcd-a38d-42a1-bae1-7adfdf001085"},"vehicle_type_id":"4","last_reported":1757776094,"current_range_meters":14400,"station_id":"ce4bgs12rcd13ifvqcag","pricing_plan_id":"cebpf4jnsgd1na2vs0mg"},{"bike_id":"dc8db232-f4ab-4bad-a67e-0a047f40eab3","system_id":"levelo_inurba_marseille","lat":43.25115,"lon":5.40342,"is_reserved":false,"is_disabled":false,"rental_uris":{"android":"levelo://app?vid=dc8db232-f4ab-4bad-a67e-0a047f40eab3","ios":"levelo://app?vid=dc8db232-f4ab-4bad-a67e-0a047f40eab3"},"vehicle_type_id":"4","last_reported":1757776094,"current_range_meters":14400,"station_id":"ce4bhlh2rcd13ifvqgig","pricing_plan_id":"cebpf4jnsgd1na2vs0mg"},{"bike_id":"c7381dc8-76a0-4634-9565-beda29ad0ff8","system_id":"levelo_inurba_marseille","lat":43.303511,"lon":5.41877,"is_reserved":false,"is_disabled":false,"rental_uris":{"android":"levelo://app?vid=c7381dc8-76a0-4634-9565-beda29ad0ff8","ios":"levelo://app?vid=c7381dc8-76a0-4634-9565-beda29ad0ff8"},"vehicle_type_id":"4","last_reported":1757776094,"current_range_meters":14000,"station_id":"ce4bhop2rcd13ifvqh7g","pricing_plan_id":"cebpf4jnsgd1na2vs0mg"},{"bike_id":"2d6aad19-6aca-4a34-bbb2-22f8c64b6a1e","system_id":"levelo_inurba_marseille","lat":43.31888,"lon":5.407377,"is_reserved":false,"is_disabled":false,"rental_uris":{"android":"levelo://app?vid=2d6aad19-6aca-4a34-bbb2-22f8c64b6a1e","ios":"levelo://app?vid=2d6aad19-6aca-4a34-bbb2-22f8c64b6a1e"},"vehicle_type_id":"4","last_reported":1757776094,"current_range_meters":14800,"station_id":"ce4bhq12rcd13ifvqhig","pricing_plan_id":"cebpf4jnsgd1na2vs0mg"},{"bike_id":"cd104b68-7370-4e88-ba9c-1edeee0f6c77","system_id":"levelo_inurba_marseille","lat":43.25234,"lon":5.42463,"is_reserved":false,"is_disabled":false,"rental_uris":{"android":"levelo://app?vid=cd104b68-7370-4e88-ba9c-1edeee0f6c77","ios":"levelo://app?vid=cd104b68-7370-4e88-ba9c-1edeee0f6c77"},"vehicle_type_id":"4","last_reported":1757776094,"current_range_meters":14800,"station_id":"","pricing_plan_id":"cebpf4jnsgd1na2vs0mg"},{"bike_id":"70984b0d-a746-42dc-9855-0e6e06b10cdb","system_id":"levelo_inurba_marseille","lat":43.30149,"lon":5.38083,"is_reserved":false,"is_disabled":false,"rental_uris":{"android":"levelo://app?vid=70984b0d-a746-42dc-9855-0e6e06b10cdb","ios":"levelo://app?vid=70984b0d-a746-42dc-9855-0e6e06b10cdb"},"vehicle_type_id":"4","last_reported":1757776094,"current_range_meters":14800,"station_id":"ce4bgjp2rcd13ifvqbh0","pricing_plan_id":"cebpf4jnsgd1na2vs0mg"},{"bike_id":"e7a329bd-ed66-4ac7-aaba-63f2810ddd86","system_id":"levelo_inurba_marseille","lat":43.31941,"lon":5.37242,"is_reserved":false,"is_disabled":false,"rental_uris":{"android":"levelo://app?vid=e7a329bd-ed66-4ac7-aaba-63f2810ddd86","ios":"levelo://app?vid=e7a329bd-ed66-4ac7-aaba-63f2810ddd86"},"vehicle_type_id":"4","last_reported":1757776094,"current_range_meters":14800,"station_id":"","pricing_plan_id":"cebpf4jnsgd1na2vs0mg"},{"bike_id":"b81ac566-30ab-45f4-a917-e0cb422aff7d","system_id":"levelo_inurba_marseille","lat":43.251275,"lon":5.403218,"is_reserved":false,"is_disabled":false,"rental_uris":{"android":"levelo://app?vid=b81ac566-30ab-45f4-a917-e0cb422aff7d","ios":"levelo://app?vid=b81ac566-30ab-45f4-a917-e0cb422aff7d"},"vehicle_type_id":"4","last_reported":1757776094,"current_range_meters":14800,"station_id":"ce4bhlh2rcd13ifvqgig","pricing_plan_id":"cebpf4jnsgd1na2vs0mg"},{"bike_id":"c5cba6d7-e282-4417-a818-5fc0802dcb08","system_id":"levelo_inurba_marseille","lat":43.33761,"lon":5.3745,"is_reserved":false,"is_disabled":false,"rental_uris":{"android":"levelo://app?vid=c5cba6d7-e282-4417-a818-5fc0802dcb08","ios":"levelo://app?vid=c5cba6d7-e282-4417-a818-5fc0802dcb08"},"vehicle_type_id":"4","last_reported":1757776094,"current_range_meters":14800,"station_id":"","pricing_plan_id":"cebpf4jnsgd1na2vs0mg"},{"bike_id":"f07d1a34-6972-4c1d-8ed8-100dd0fc1e78","system_id":"levelo_inurba_marseille","lat":43.32985,"lon":5.39052,"is_reserved":false,"is_disabled":false,"rental_uris":{"android":"levelo://app?vid=f07d1a34-6972-4c1d-8ed8-100dd0fc1e78","ios":"levelo://app?vid=f07d1a34-6972-4c1d-8ed8-100dd0fc1e78"},"vehicle_type_id":"4","last_reported":1757776094,"current_range_meters":14800,"station_id":"ce4bhr92rcd13ifvqhrg","pricing_plan_id":"cebpf4jnsgd1na2vs0mg"},{"bike_id":"8d98615c-7843-4f95-b3ac-9617d2317b66","system_id":"levelo_inurba_marseille","lat":43.29605,"lon":5.38117,"is_reserved":false,"is_disabled":false,"rental_uris":{"android":"levelo://app?vid=8d98615c-7843-4f95-b3ac-9617d2317b66","ios":"levelo://app?vid=8d98615c-7843-4f95-b3ac-9617d2317b66"},"vehicle_type_id":"4","last_reported":1757776094,"current_range_meters":14800,"station_id":"ce4bgl12rcd13ifvqbo0","pricing_plan_id":"cebpf4jnsgd1na2vs0mg"},{"bike_id":"f1b98bb3-9c9c-4877-84fc-feffc1d4258e","system_id":"levelo_inurba_marseille","lat":43.24645,"lon":5.3889,"is_reserved":false,"is_disabled":false,"rental_uris":{"android":"levelo://app?vid=f1b98bb3-9c9c-4877-84fc-feffc1d4258e","ios":"levelo://app?vid=f1b98bb3-9c9c-4877-84fc-feffc1d4258e"},"vehicle_type_id":"4","last_reported":1757776094,"current_range_meters":14800,"station_id":"ce4bhg12rcd13ifvqf60","pricing_plan_id":"cebpf4jnsgd1na2vs0mg"},{"bike_id":"31195751-bbc1-4ea5-8068-c21d8881b649","system_id":"levelo_inurba_marseille","lat":43.24082,"lon":5.37746,"is_reserved":false,"is_disabled":false,"rental_uris":{"android":"levelo://app?vid=31195751-bbc1-4ea5-8068-c21d8881b649","ios":"levelo://app?vid=31195751-bbc1-4ea5-8068-c21d8881b649"},"vehicle_type_id":"4","last_reported":1757776094,"current_range_meters":15200,"station_id":"ce4bhnp2rcd13ifvqgvg","pricing_plan_id":"cebpf4jnsgd1na2vs0mg"},{"bike_id":"de8e191c-2b64-48e9-9fbd-c91b068b6a74","system_id":"levelo_inurba_marseille","lat":43.24544,"lon":5.39508,"is_reserved":false,"is_disabled":false,"rental_uris":{"android":"levelo://app?vid=de8e191c-2b64-48e9-9fbd-c91b068b6a74","ios":"levelo://app?vid=de8e191c-2b64-48e9-9fbd-c91b068b6a74"},"vehicle_type_id":"4","last_reported":1757776094,"current_range_meters":15200,"station_id":"ce4bhlp2rcd13ifvqgjg","pricing_plan_id":"cebpf4jnsgd1na2vs0mg"},{"bike_id":"1eaf7d24-f23e-4e79-b6f5-17176bccc028","system_id":"levelo_inurba_marseille","lat":43.27969,"lon":5.38695,"is_reserved":false,"is_disabled":true,"rental_uris":{"android":"levelo://app?vid=1eaf7d24-f23e-4e79-b6f5-17176bccc028","ios":"levelo://app?vid=1eaf7d24-f23e-4e79-b6f5-17176bccc028"},"vehicle_type_id":"4","last_reported":1757776094,"current_range_meters":15200,"station_id":"ce4bhg12rcd13ifvqf80","pricing_plan_id":"cebpf4jnsgd1na2vs0mg"},{"bike_id":"ee42c31a-b74b-4b2d-917a-cd50dc10c6ce","system_id":"levelo_inurba_marseille","lat":43.33057,"lon":5.39012,"is_reserved":false,"is_disabled":false,"rental_uris":{"android":"levelo://app?vid=ee42c31a-b74b-4b2d-917a-cd50dc10c6ce","ios":"levelo://app?vid=ee42c31a-b74b-4b2d-917a-cd50dc10c6ce"},"vehicle_type_id":"4","last_reported":1757776094,"current_range_meters":15200,"station_id":"ce4bhr92rcd13ifvqhrg","pricing_plan_id":"cebpf4jnsgd1na2vs0mg"},{"bike_id":"40207740-3997-48f7-a3a9-b19ccf0a0c3b","system_id":"levelo_inurba_marseille","lat":43.3042,"lon":5.41279,"is_reserved":false,"is_disabled":false,"rental_uris":{"android":"levelo://app?vid=40207740-3997-48f7-a3a9-b19ccf0a0c3b","ios":"levelo://app?vid=40207740-3997-48f7-a3a9-b19ccf0a0c3b"},"vehicle_type_id":"4","last_reported":1757776094,"current_range_meters":15200,"station_id":"ce4bhop2rcd13ifvqh8g","pricing_plan_id":"cebpf4jnsgd1na2vs0mg"},{"bike_id":"c682ef70-00bc-4415-9b10-9a35bd5ddcc1","system_id":"levelo_inurba_marseille","lat":43.27499,"lon":5.4248,"is_reserved":false,"is_disabled":false,"rental_uris":{"android":"levelo://app?vid=c682ef70-00bc-4415-9b10-9a35bd5ddcc1","ios":"levelo://app?vid=c682ef70-00bc-4415-9b10-9a35bd5ddcc1"},"vehicle_type_id":"4","last_reported":1757776094,"current_range_meters":16000,"station_id":"ce4bhn92rcd13ifvqgrg","pricing_plan_id":"cebpf4jnsgd1na2vs0mg"},{"bike_id":"12b9c958-ee1d-4a7e-b063-6648532a7910","system_id":"levelo_inurba_marseille","lat":43.30419,"lon":5.41276,"is_reserved":false,"is_disabled":false,"rental_uris":{"android":"levelo://app?vid=12b9c958-ee1d-4a7e-b063-6648532a7910","ios":"levelo://app?vid=12b9c958-ee1d-4a7e-b063-6648532a7910"},"vehicle_type_id":"4","last_reported":1757776094,"current_range_meters":16000,"station_id":"ce4bhop2rcd13ifvqh8g","pricing_plan_id":"cebpf4jnsgd1na2vs0mg"},{"bike_id":"1256962c-6bb4-4918-a9e3-909c0a48e3cc","system_id":"levelo_inurba_marseille","lat":43.24792,"lon":5.37444,"is_reserved":false,"is_disabled":false,"rental_uris":{"android":"levelo://app?vid=1256962c-6bb4-4918-a9e3-909c0a48e3cc","ios":"levelo://app?vid=1256962c-6bb4-4918-a9e3-909c0a48e3cc"},"vehicle_type_id":"4","last_reported":1757776094,"current_range_meters":16000,"station_id":"ce4bhgh2rcd13ifvqfb0","pricing_plan_id":"cebpf4jnsgd1na2vs0mg"},{"bike_id":"0418ed23-d4c6-49db-b310-d4f985bd3bc3","system_id":"levelo_inurba_marseille","lat":43.32116,"lon":5.36776,"is_reserved":false,"is_disabled":false,"rental_uris":{"android":"levelo://app?vid=0418ed23-d4c6-49db-b310-d4f985bd3bc3","ios":"levelo://app?vid=0418ed23-d4c6-49db-b310-d4f985bd3bc3"},"vehicle_type_id":"4","last_reported":1757776094,"current_range_meters":16400,"station_id":"ce4bhrh2rcd13ifvqhug","pricing_plan_id":"cebpf4jnsgd1na2vs0mg"},{"bike_id":"1bb4ced1-f7dc-43e6-a9c7-43cffa22dd48","system_id":"levelo_inurba_marseille","lat":43.24651,"lon":5.3889,"is_reserved":false,"is_disabled":false,"rental_uris":{"android":"levelo://app?vid=1bb4ced1-f7dc-43e6-a9c7-43cffa22dd48","ios":"levelo://app?vid=1bb4ced1-f7dc-43e6-a9c7-43cffa22dd48"},"vehicle_type_id":"4","last_reported":1757776094,"current_range_meters":16400,"station_id":"ce4bhg12rcd13ifvqf60","pricing_plan_id":"cebpf4jnsgd1na2vs0mg"},{"bike_id":"3edab8b5-08ab-4bd7-a8e3-46e14fec2b69","system_id":"levelo_inurba_marseille","lat":43.22578,"lon":5.41651,"is_reserved":false,"is_disabled":false,"rental_uris":{"android":"levelo://app?vid=3edab8b5-08ab-4bd7-a8e3-46e14fec2b69","ios":"levelo://app?vid=3edab8b5-08ab-4bd7-a8e3-46e14fec2b69"},"vehicle_type_id":"4","last_reported":1757776094,"current_range_meters":16400,"station_id":"st_d2o4gvlbi1j2169b742g","pricing_plan_id":"cebpf4jnsgd1na2vs0mg"},{"bike_id":"9613ee4d-bd84-40ec-a183-9abb4af6a1b6","system_id":"levelo_inurba_marseille","lat":43.32363,"lon":5.36767,"is_reserved":false,"is_disabled":false,"rental_uris":{"android":"levelo://app?vid=9613ee4d-bd84-40ec-a183-9abb4af6a1b6","ios":"levelo://app?vid=9613ee4d-bd84-40ec-a183-9abb4af6a1b6"},"vehicle_type_id":"4","last_reported":1757776094,"current_range_meters":16400,"station_id":"ce4bhsh2rcd13ifvqi2g","pricing_plan_id":"cebpf4jnsgd1na2vs0mg"},{"bike_id":"641732f0-ed8e-45f7-953a-6e4bca49d728","system_id":"levelo_inurba_marseille","lat":43.31486,"lon":5.37304,"is_reserved":false,"is_disabled":false,"rental_uris":{"android":"levelo://app?vid=641732f0-ed8e-45f7-953a-6e4bca49d728","ios":"levelo://app?vid=641732f0-ed8e-45f7-953a-6e4bca49d728"},"vehicle_type_id":"4","last_reported":1757776094,"current_range_meters":16400,"station_id":"ce4bgt12rcd13ifvqcd0","pricing_plan_id":"cebpf4jnsgd1na2vs0mg"},{"bike_id":"0d695741-9e88-4a4a-bf93-4cb5c8bfbc2b","system_id":"levelo_inurba_marseille","lat":43.28152,"lon":5.42637,"is_reserved":false,"is_disabled":false,"rental_uris":{"android":"levelo://app?vid=0d695741-9e88-4a4a-bf93-4cb5c8bfbc2b","ios":"levelo://app?vid=0d695741-9e88-4a4a-bf93-4cb5c8bfbc2b"},"vehicle_type_id":"4","last_reported":1757776094,"current_range_meters":16400,"station_id":"ce4bhnh2rcd13ifvqgug","pricing_plan_id":"cebpf4jnsgd1na2vs0mg"},{"bike_id":"431c6cb6-668f-4a57-ad0c-d9770f1e96ab","system_id":"levelo_inurba_marseille","lat":43.29605,"lon":5.37718,"is_reserved":false,"is_disabled":false,"rental_uris":{"android":"levelo://app?vid=431c6cb6-668f-4a57-ad0c-d9770f1e96ab","ios":"levelo://app?vid=431c6cb6-668f-4a57-ad0c-d9770f1e96ab"},"vehicle_type_id":"4","last_reported":1757776094,"current_range_meters":16400,"station_id":"ce4bgi92rcd13ifvqb90","pricing_plan_id":"cebpf4jnsgd1na2vs0mg"},{"bike_id":"3bc338fd-b3c5-4caa-b6e6-3c70a52689ba","system_id":"levelo_inurba_marseille","lat":43.31606,"lon":5.38913,"is_reserved":false,"is_disabled":false,"rental_uris":{"android":"levelo://app?vid=3bc338fd-b3c5-4caa-b6e6-3c70a52689ba","ios":"levelo://app?vid=3bc338fd-b3c5-4caa-b6e6-3c70a52689ba"},"vehicle_type_id":"4","last_reported":1757776094,"current_range_meters":16400,"station_id":"","pricing_plan_id":"cebpf4jnsgd1na2vs0mg"},{"bike_id":"78d8646b-13df-4b6e-af58-e98aa9694030","system_id":"levelo_inurba_marseille","lat":43.30159,"lon":5.38085,"is_reserved":false,"is_disabled":false,"rental_uris":{"android":"levelo://app?vid=78d8646b-13df-4b6e-af58-e98aa9694030","ios":"levelo://app?vid=78d8646b-13df-4b6e-af58-e98aa9694030"},"vehicle_type_id":"4","last_reported":1757776094,"current_range_meters":16800,"station_id":"ce4bgjp2rcd13ifvqbh0","pricing_plan_id":"cebpf4jnsgd1na2vs0mg"},{"bike_id":"099dc754-cf09-4145-b6fa-59b333ab25e3","system_id":"levelo_inurba_marseille","lat":43.246288,"lon":5.431508,"is_reserved":false,"is_disabled":false,"rental_uris":{"android":"levelo://app?vid=099dc754-cf09-4145-b6fa-59b333ab25e3","ios":"levelo://app?vid=099dc754-cf09-4145-b6fa-59b333ab25e3"},"vehicle_type_id":"4","last_reported":1757776094,"current_range_meters":16800,"station_id":"st_d2m6c4gdas8pm72e190g","pricing_plan_id":"cebpf4jnsgd1na2vs0mg"},{"bike_id":"4d6e6605-7f16-44fa-a19a-c138ee7cb360","system_id":"levelo_inurba_marseille","lat":43.33751,"lon":5.37442,"is_reserved":false,"is_disabled":false,"rental_uris":{"android":"levelo://app?vid=4d6e6605-7f16-44fa-a19a-c138ee7cb360","ios":"levelo://app?vid=4d6e6605-7f16-44fa-a19a-c138ee7cb360"},"vehicle_type_id":"4","last_reported":1757776094,"current_range_meters":16800,"station_id":"","pricing_plan_id":"cebpf4jnsgd1na2vs0mg"},{"bike_id":"55414d4f-a967-4551-85fc-42e6a9362a7a","system_id":"levelo_inurba_marseille","lat":43.26057,"lon":5.39396,"is_reserved":false,"is_disabled":false,"rental_uris":{"android":"levelo://app?vid=55414d4f-a967-4551-85fc-42e6a9362a7a","ios":"levelo://app?vid=55414d4f-a967-4551-85fc-42e6a9362a7a"},"vehicle_type_id":"4","last_reported":1757776094,"current_range_meters":16800,"station_id":"ce4bhh92rcd13ifvqfj0","pricing_plan_id":"cebpf4jnsgd1na2vs0mg"},{"bike_id":"3d7e1db9-6425-4f9d-9f38-a7eebdb77d25","system_id":"levelo_inurba_marseille","lat":43.25498,"lon":5.37648,"is_reserved":false,"is_disabled":false,"rental_uris":{"android":"levelo://app?vid=3d7e1db9-6425-4f9d-9f38-a7eebdb77d25","ios":"levelo://app?vid=3d7e1db9-6425-4f9d-9f38-a7eebdb77d25"},"vehicle_type_id":"4","last_reported":1757776094,"current_range_meters":16800,"station_id":"ce4bhh12rcd13ifvqff0","pricing_plan_id":"cebpf4jnsgd1na2vs0mg"},{"bike_id":"08dd149f-234d-4257-9742-8ea8a2f2658d","system_id":"levelo_inurba_marseille","lat":43.28419,"lon":5.3751,"is_reserved":false,"is_disabled":true,"rental_uris":{"android":"levelo://app?vid=08dd149f-234d-4257-9742-8ea8a2f2658d","ios":"levelo://app?vid=08dd149f-234d-4257-9742-8ea8a2f2658d"},"vehicle_type_id":"4","last_reported":1757776094,"current_range_meters":16800,"station_id":"ce4bh412rcd13ifvqds0","pricing_plan_id":"cebpf4jnsgd1na2vs0mg"},{"bike_id":"dcdf14db-9581-4c65-a72b-13e56893b10a","system_id":"levelo_inurba_marseille","lat":43.29909,"lon":5.38151,"is_reserved":false,"is_disabled":false,"rental_uris":{"android":"levelo://app?vid=dcdf14db-9581-4c65-a72b-13e56893b10a","ios":"levelo://app?vid=dcdf14db-9581-4c65-a72b-13e56893b10a"},"vehicle_type_id":"4","last_reported":1757776094,"current_range_meters":16800,"station_id":"ce4bgj12rcd13ifvqbc0","pricing_plan_id":"cebpf4jnsgd1na2vs0mg"},{"bike_id":"821a0ffb-4fbe-43d4-86e2-27f1aa3dac94","system_id":"levelo_inurba_marseille","lat":43.29916,"lon":5.38144,"is_reserved":false,"is_disabled":false,"rental_uris":{"android":"levelo://app?vid=821a0ffb-4fbe-43d4-86e2-27f1aa3dac94","ios":"levelo://app?vid=821a0ffb-4fbe-43d4-86e2-27f1aa3dac94"},"vehicle_type_id":"4","last_reported":1757776094,"current_range_meters":16800,"station_id":"ce4bgj12rcd13ifvqbc0","pricing_plan_id":"cebpf4jnsgd1na2vs0mg"},{"bike_id":"1fa9cf8a-cbc2-4f66-a5af-49139eedcffa","system_id":"levelo_inurba_marseille","lat":43.316852,"lon":5.404854,"is_reserved":false,"is_disabled":false,"rental_uris":{"android":"levelo://app?vid=1fa9cf8a-cbc2-4f66-a5af-49139eedcffa","ios":"levelo://app?vid=1fa9cf8a-cbc2-4f66-a5af-49139eedcffa"},"vehicle_type_id":"4","last_reported":1757776094,"current_range_meters":17200,"station_id":"ce4bh012rcd13ifvqd00","pricing_plan_id":"cebpf4jnsgd1na2vs0mg"},{"bike_id":"fd023a40-d69c-4361-9109-4126162693f0","system_id":"levelo_inurba_marseille","lat":43.27707,"lon":5.37755,"is_reserved":false,"is_disabled":false,"rental_uris":{"android":"levelo://app?vid=fd023a40-d69c-4361-9109-4126162693f0","ios":"levelo://app?vid=fd023a40-d69c-4361-9109-4126162693f0"},"vehicle_type_id":"4","last_reported":1757776094,"current_range_meters":17200,"station_id":"","pricing_plan_id":"cebpf4jnsgd1na2vs0mg"},{"bike_id":"22e5aabf-66aa-49d6-8a2a-5c2828fc180f","system_id":"levelo_inurba_marseille","lat":43.30539,"lon":5.36559,"is_reserved":false,"is_disabled":false,"rental_uris":{"android":"levelo://app?vid=22e5aabf-66aa-49d6-8a2a-5c2828fc180f","ios":"levelo://app?vid=22e5aabf-66aa-49d6-8a2a-5c2828fc180f"},"vehicle_type_id":"4","last_reported":1757776094,"current_range_meters":17200,"station_id":"ce4bgs12rcd13ifvqcag","pricing_plan_id":"cebpf4jnsgd1na2vs0mg"},{"bike_id":"22c0f67f-f634-46f5-963d-39b391d0da9d","system_id":"levelo_inurba_marseille","lat":43.28166,"lon":5.42603,"is_reserved":false,"is_disabled":false,"rental_uris":{"android":"levelo://app?vid=22c0f67f-f634-46f5-963d-39b391d0da9d","ios":"levelo://app?vid=22c0f67f-f634-46f5-963d-39b391d0da9d"},"vehicle_type_id":"4","last_reported":1757776094,"current_range_meters":17200,"station_id":"ce4bhnh2rcd13ifvqgug","pricing_plan_id":"cebpf4jnsgd1na2vs0mg"},{"bike_id":"e42dd50f-0c59-477b-8aff-5ed00a5badf9","system_id":"levelo_inurba_marseille","lat":43.2606,"lon":5.39393,"is_reserved":false,"is_disabled":false,"rental_uris":{"android":"levelo://app?vid=e42dd50f-0c59-477b-8aff-5ed00a5badf9","ios":"levelo://app?vid=e42dd50f-0c59-477b-8aff-5ed00a5badf9"},"vehicle_type_id":"4","last_reported":1757776094,"current_range_meters":16800,"station_id":"ce4bhh92rcd13ifvqfj0","pricing_plan_id":"cebpf4jnsgd1na2vs0mg"},{"bike_id":"d4e1cec9-fd20-4da3-b45c-8b4338ec4ba1","system_id":"levelo_inurba_marseille","lat":43.27971,"lon":5.38743,"is_reserved":false,"is_disabled":false,"rental_uris":{"android":"levelo://app?vid=d4e1cec9-fd20-4da3-b45c-8b4338ec4ba1","ios":"levelo://app?vid=d4e1cec9-fd20-4da3-b45c-8b4338ec4ba1"},"vehicle_type_id":"4","last_reported":1757776094,"current_range_meters":17200,"station_id":"ce4bhg12rcd13ifvqf80","pricing_plan_id":"cebpf4jnsgd1na2vs0mg"},{"bike_id":"695bc73c-02f9-4c78-a8d4-70d9461761ac","system_id":"levelo_inurba_marseille","lat":43.28162,"lon":5.42636,"is_reserved":false,"is_disabled":false,"rental_uris":{"android":"levelo://app?vid=695bc73c-02f9-4c78-a8d4-70d9461761ac","ios":"levelo://app?vid=695bc73c-02f9-4c78-a8d4-70d9461761ac"},"vehicle_type_id":"4","last_reported":1757776094,"current_range_meters":17200,"station_id":"ce4bhnh2rcd13ifvqgug","pricing_plan_id":"cebpf4jnsgd1na2vs0mg"},{"bike_id":"08d84e7d-d5ac-404b-85ac-5f52d89b01ae","system_id":"levelo_inurba_marseille","lat":43.29276,"lon":5.40118,"is_reserved":false,"is_disabled":false,"rental_uris":{"android":"levelo://app?vid=08d84e7d-d5ac-404b-85ac-5f52d89b01ae","ios":"levelo://app?vid=08d84e7d-d5ac-404b-85ac-5f52d89b01ae"},"vehicle_type_id":"4","last_reported":1757776094,"current_range_meters":17200,"station_id":"ce4bh312rcd13ifvqdk0","pricing_plan_id":"cebpf4jnsgd1na2vs0mg"},{"bike_id":"467c9b0a-97c5-43ed-a85c-e10b8a69817f","system_id":"levelo_inurba_marseille","lat":43.29567,"lon":5.37514,"is_reserved":false,"is_disabled":false,"rental_uris":{"android":"levelo://app?vid=467c9b0a-97c5-43ed-a85c-e10b8a69817f","ios":"levelo://app?vid=467c9b0a-97c5-43ed-a85c-e10b8a69817f"},"vehicle_type_id":"4","last_reported":1757776094,"current_range_meters":17200,"station_id":"ce4bgh92rcd13ifvqb50","pricing_plan_id":"cebpf4jnsgd1na2vs0mg"},{"bike_id":"a6ce2e6b-5ca9-483b-9b84-41c9b83b41a6","system_id":"levelo_inurba_marseille","lat":43.28438,"lon":5.35008,"is_reserved":false,"is_disabled":false,"rental_uris":{"android":"levelo://app?vid=a6ce2e6b-5ca9-483b-9b84-41c9b83b41a6","ios":"levelo://app?vid=a6ce2e6b-5ca9-483b-9b84-41c9b83b41a6"},"vehicle_type_id":"4","last_reported":1757776094,"current_range_meters":17200,"station_id":"ce4bhbh2rcd13ifvqepg","pricing_plan_id":"cebpf4jnsgd1na2vs0mg"},{"bike_id":"c75bfa20-483b-42f7-8a25-5f10e08a57b0","system_id":"levelo_inurba_marseille","lat":43.32092,"lon":5.36781,"is_reserved":false,"is_disabled":false,"rental_uris":{"android":"levelo://app?vid=c75bfa20-483b-42f7-8a25-5f10e08a57b0","ios":"levelo://app?vid=c75bfa20-483b-42f7-8a25-5f10e08a57b0"},"vehicle_type_id":"4","last_reported":1757776094,"current_range_meters":17200,"station_id":"ce4bhrh2rcd13ifvqhug","pricing_plan_id":"cebpf4jnsgd1na2vs0mg"},{"bike_id":"202633c1-4070-4798-8b68-51f4eaee5281","system_id":"levelo_inurba_marseille","lat":43.29214,"lon":5.38382,"is_reserved":false,"is_disabled":false,"rental_uris":{"android":"levelo://app?vid=202633c1-4070-4798-8b68-51f4eaee5281","ios":"levelo://app?vid=202633c1-4070-4798-8b68-51f4eaee5281"},"vehicle_type_id":"4","last_reported":1757776094,"current_range_meters":18000,"station_id":"","pricing_plan_id":"cebpf4jnsgd1na2vs0mg"},{"bike_id":"ffab450d-4c81-4d44-8256-678a72cf8297","system_id":"levelo_inurba_marseille","lat":43.31734,"lon":5.40475,"is_reserved":false,"is_disabled":false,"rental_uris":{"android":"levelo://app?vid=ffab450d-4c81-4d44-8256-678a72cf8297","ios":"levelo://app?vid=ffab450d-4c81-4d44-8256-678a72cf8297"},"vehicle_type_id":"4","last_reported":1757776094,"current_range_meters":17600,"station_id":"ce4bh012rcd13ifvqd00","pricing_plan_id":"cebpf4jnsgd1na2vs0mg"},{"bike_id":"5476d906-b0c2-4d37-81e0-6fc56d7abe48","system_id":"levelo_inurba_marseille","lat":43.31712,"lon":5.37629,"is_reserved":false,"is_disabled":false,"rental_uris":{"android":"levelo://app?vid=5476d906-b0c2-4d37-81e0-6fc56d7abe48","ios":"levelo://app?vid=5476d906-b0c2-4d37-81e0-6fc56d7abe48"},"vehicle_type_id":"4","last_reported":1757776094,"current_range_meters":17600,"station_id":"","pricing_plan_id":"cebpf4jnsgd1na2vs0mg"},{"bike_id":"a214e50e-5287-4c9c-8ef0-07c2e66199d9","system_id":"levelo_inurba_marseille","lat":43.2927,"lon":5.37609,"is_reserved":false,"is_disabled":false,"rental_uris":{"android":"levelo://app?vid=a214e50e-5287-4c9c-8ef0-07c2e66199d9","ios":"levelo://app?vid=a214e50e-5287-4c9c-8ef0-07c2e66199d9"},"vehicle_type_id":"4","last_reported":1757776094,"current_range_meters":17600,"station_id":"ce4bgi12rcd13ifvqb80","pricing_plan_id":"cebpf4jnsgd1na2vs0mg"},{"bike_id":"323da3b6-fdcf-4573-b9f1-e27f586fd727","system_id":"levelo_inurba_marseille","lat":43.28382,"lon":5.38652,"is_reserved":false,"is_disabled":false,"rental_uris":{"android":"levelo://app?vid=323da3b6-fdcf-4573-b9f1-e27f586fd727","ios":"levelo://app?vid=323da3b6-fdcf-4573-b9f1-e27f586fd727"},"vehicle_type_id":"4","last_reported":1757776094,"current_range_meters":17200,"station_id":"ce4bh492rcd13ifvqdvg","pricing_plan_id":"cebpf4jnsgd1na2vs0mg"},{"bike_id":"a372c992-7981-4969-a66c-31a646d7274f","system_id":"levelo_inurba_marseille","lat":43.29033,"lon":5.39967,"is_reserved":false,"is_disabled":false,"rental_uris":{"android":"levelo://app?vid=a372c992-7981-4969-a66c-31a646d7274f","ios":"levelo://app?vid=a372c992-7981-4969-a66c-31a646d7274f"},"vehicle_type_id":"4","last_reported":1757776094,"current_range_meters":17600,"station_id":"ce4bh392rcd13ifvqdm0","pricing_plan_id":"cebpf4jnsgd1na2vs0mg"},{"bike_id":"e6635255-8208-4d36-94cb-c330d69856b4","system_id":"levelo_inurba_marseille","lat":43.291824,"lon":5.356444,"is_reserved":false,"is_disabled":false,"rental_uris":{"android":"levelo://app?vid=e6635255-8208-4d36-94cb-c330d69856b4","ios":"levelo://app?vid=e6635255-8208-4d36-94cb-c330d69856b4"},"vehicle_type_id":"4","last_reported":1757776094,"current_range_meters":18000,"station_id":"ce4bhch2rcd13ifvqeug","pricing_plan_id":"cebpf4jnsgd1na2vs0mg"},{"bike_id":"8531afdb-32d4-4c53-8b7d-1730982d0eec","system_id":"levelo_inurba_marseille","lat":43.21761,"lon":5.34588,"is_reserved":false,"is_disabled":false,"rental_uris":{"android":"levelo://app?vid=8531afdb-32d4-4c53-8b7d-1730982d0eec","ios":"levelo://app?vid=8531afdb-32d4-4c53-8b7d-1730982d0eec"},"vehicle_type_id":"4","last_reported":1757776094,"current_range_meters":18000,"station_id":"","pricing_plan_id":"cebpf4jnsgd1na2vs0mg"},{"bike_id":"085d1fc3-832e-4bb8-9dab-596c869e48fd","system_id":"levelo_inurba_marseille","lat":43.282152,"lon":5.390444,"is_reserved":false,"is_disabled":true,"rental_uris":{"android":"levelo://app?vid=085d1fc3-832e-4bb8-9dab-596c869e48fd","ios":"levelo://app?vid=085d1fc3-832e-4bb8-9dab-596c869e48fd"},"vehicle_type_id":"4","last_reported":1757776094,"current_range_meters":18000,"station_id":"ce4bhn92rcd13ifvqgsg","pricing_plan_id":"cebpf4jnsgd1na2vs0mg"},{"bike_id":"f2e7f7ee-6392-439a-b3b4-7d4d6b07b6ce","system_id":"levelo_inurba_marseille","lat":43.305539,"lon":5.365699,"is_reserved":false,"is_disabled":false,"rental_uris":{"android":"levelo://app?vid=f2e7f7ee-6392-439a-b3b4-7d4d6b07b6ce","ios":"levelo://app?vid=f2e7f7ee-6392-439a-b3b4-7d4d6b07b6ce"},"vehicle_type_id":"4","last_reported":1757776094,"current_range_meters":18000,"station_id":"ce4bgs12rcd13ifvqcag","pricing_plan_id":"cebpf4jnsgd1na2vs0mg"},{"bike_id":"2500752c-16d5-4447-b628-690ad7fdd253","system_id":"levelo_inurba_marseille","lat":43.21747,"lon":5.346,"is_reserved":false,"is_disabled":false,"rental_uris":{"android":"levelo://app?vid=2500752c-16d5-4447-b628-690ad7fdd253","ios":"levelo://app?vid=2500752c-16d5-4447-b628-690ad7fdd253"},"vehicle_type_id":"4","last_reported":1757776094,"current_range_meters":18000,"station_id":"","pricing_plan_id":"cebpf4jnsgd1na2vs0mg"},{"bike_id":"6229e59f-3923-408f-b723-0af59d5d9740","system_id":"levelo_inurba_marseille","lat":43.28156,"lon":5.42642,"is_reserved":false,"is_disabled":false,"rental_uris":{"android":"levelo://app?vid=6229e59f-3923-408f-b723-0af59d5d9740","ios":"levelo://app?vid=6229e59f-3923-408f-b723-0af59d5d9740"},"vehicle_type_id":"4","last_reported":1757776094,"current_range_meters":17600,"station_id":"ce4bhnh2rcd13ifvqgug","pricing_plan_id":"cebpf4jnsgd1na2vs0mg"},{"bike_id":"5547fec2-cef0-487a-96e1-15921dfcf7e6","system_id":"levelo_inurba_marseille","lat":43.29258,"lon":5.37612,"is_reserved":false,"is_disabled":false,"rental_uris":{"android":"levelo://app?vid=5547fec2-cef0-487a-96e1-15921dfcf7e6","ios":"levelo://app?vid=5547fec2-cef0-487a-96e1-15921dfcf7e6"},"vehicle_type_id":"4","last_reported":1757776094,"current_range_meters":18000,"station_id":"ce4bgi12rcd13ifvqb80","pricing_plan_id":"cebpf4jnsgd1na2vs0mg"},{"bike_id":"bf994f65-bdf8-41db-b1a5-f9ff73c89193","system_id":"levelo_inurba_marseille","lat":43.30135,"lon":5.37421,"is_reserved":false,"is_disabled":false,"rental_uris":{"android":"levelo://app?vid=bf994f65-bdf8-41db-b1a5-f9ff73c89193","ios":"levelo://app?vid=bf994f65-bdf8-41db-b1a5-f9ff73c89193"},"vehicle_type_id":"4","last_reported":1757776094,"current_range_meters":18000,"station_id":"ce4bgs92rcd13ifvqcc0","pricing_plan_id":"cebpf4jnsgd1na2vs0mg"},{"bike_id":"14e2496b-54f5-4a71-8a7b-f668d23f2674","system_id":"levelo_inurba_marseille","lat":43.25731,"lon":5.41106,"is_reserved":false,"is_disabled":false,"rental_uris":{"android":"levelo://app?vid=14e2496b-54f5-4a71-8a7b-f668d23f2674","ios":"levelo://app?vid=14e2496b-54f5-4a71-8a7b-f668d23f2674"},"vehicle_type_id":"4","last_reported":1757776094,"current_range_meters":18000,"station_id":"ce4bhkp2rcd13ifvqgd0","pricing_plan_id":"cebpf4jnsgd1na2vs0mg"},{"bike_id":"8ab60a89-bd14-40d7-b359-020ea126cfef","system_id":"levelo_inurba_marseille","lat":43.323665,"lon":5.367563,"is_reserved":false,"is_disabled":false,"rental_uris":{"android":"levelo://app?vid=8ab60a89-bd14-40d7-b359-020ea126cfef","ios":"levelo://app?vid=8ab60a89-bd14-40d7-b359-020ea126cfef"},"vehicle_type_id":"4","last_reported":1757776094,"current_range_meters":18000,"station_id":"ce4bhsh2rcd13ifvqi2g","pricing_plan_id":"cebpf4jnsgd1na2vs0mg"},{"bike_id":"344751dd-0a55-4d10-992b-5c8fe2ec449c","system_id":"levelo_inurba_marseille","lat":43.28873,"lon":5.42527,"is_reserved":false,"is_disabled":false,"rental_uris":{"android":"levelo://app?vid=344751dd-0a55-4d10-992b-5c8fe2ec449c","ios":"levelo://app?vid=344751dd-0a55-4d10-992b-5c8fe2ec449c"},"vehicle_type_id":"4","last_reported":1757776094,"current_range_meters":18000,"station_id":"","pricing_plan_id":"cebpf4jnsgd1na2vs0mg"},{"bike_id":"ff744283-21ef-4c65-9de5-27f50be3b9b0","system_id":"levelo_inurba_marseille","lat":43.29025,"lon":5.39959,"is_reserved":false,"is_disabled":false,"rental_uris":{"android":"levelo://app?vid=ff744283-21ef-4c65-9de5-27f50be3b9b0","ios":"levelo://app?vid=ff744283-21ef-4c65-9de5-27f50be3b9b0"},"vehicle_type_id":"4","last_reported":1757776094,"current_range_meters":18000,"station_id":"ce4bh392rcd13ifvqdm0","pricing_plan_id":"cebpf4jnsgd1na2vs0mg"},{"bike_id":"5c5320b4-41ee-4bdc-b4d4-228344d69242","system_id":"levelo_inurba_marseille","lat":43.30919,"lon":5.36847,"is_reserved":false,"is_disabled":false,"rental_uris":{"android":"levelo://app?vid=5c5320b4-41ee-4bdc-b4d4-228344d69242","ios":"levelo://app?vid=5c5320b4-41ee-4bdc-b4d4-228344d69242"},"vehicle_type_id":"4","last_reported":1757776094,"current_range_meters":18800,"station_id":"ce4bgn92rcd13ifvqbvg","pricing_plan_id":"cebpf4jnsgd1na2vs0mg"},{"bike_id":"1a4b03c8-c846-43eb-8943-ea26b2df1874","system_id":"levelo_inurba_marseille","lat":43.298544,"lon":5.362968,"is_reserved":false,"is_disabled":false,"rental_uris":{"android":"levelo://app?vid=1a4b03c8-c846-43eb-8943-ea26b2df1874","ios":"levelo://app?vid=1a4b03c8-c846-43eb-8943-ea26b2df1874"},"vehicle_type_id":"4","last_reported":1757776094,"current_range_meters":18800,"station_id":"ce4bgpp2rcd13ifvqc3g","pricing_plan_id":"cebpf4jnsgd1na2vs0mg"},{"bike_id":"d9c4202c-de13-4428-8c40-40d90faf1618","system_id":"levelo_inurba_marseille","lat":43.31356,"lon":5.3707,"is_reserved":false,"is_disabled":false,"rental_uris":{"android":"levelo://app?vid=d9c4202c-de13-4428-8c40-40d90faf1618","ios":"levelo://app?vid=d9c4202c-de13-4428-8c40-40d90faf1618"},"vehicle_type_id":"4","last_reported":1757776094,"current_range_meters":18800,"station_id":"","pricing_plan_id":"cebpf4jnsgd1na2vs0mg"},{"bike_id":"89d71b70-7047-4e90-aed9-bd137ba31640","system_id":"levelo_inurba_marseille","lat":43.29848,"lon":5.36281,"is_reserved":false,"is_disabled":false,"rental_uris":{"android":"levelo://app?vid=89d71b70-7047-4e90-aed9-bd137ba31640","ios":"levelo://app?vid=89d71b70-7047-4e90-aed9-bd137ba31640"},"vehicle_type_id":"4","last_reported":1757776094,"current_range_meters":18800,"station_id":"ce4bgpp2rcd13ifvqc3g","pricing_plan_id":"cebpf4jnsgd1na2vs0mg"},{"bike_id":"eea98565-7a78-4885-a280-b177ab9f9c0b","system_id":"levelo_inurba_marseille","lat":43.29841,"lon":5.36264,"is_reserved":false,"is_disabled":false,"rental_uris":{"android":"levelo://app?vid=eea98565-7a78-4885-a280-b177ab9f9c0b","ios":"levelo://app?vid=eea98565-7a78-4885-a280-b177ab9f9c0b"},"vehicle_type_id":"4","last_reported":1757776094,"current_range_meters":18800,"station_id":"ce4bgpp2rcd13ifvqc3g","pricing_plan_id":"cebpf4jnsgd1na2vs0mg"},{"bike_id":"20d08a36-fa04-454f-b381-5c66030c764a","system_id":"levelo_inurba_marseille","lat":43.31488,"lon":5.37293,"is_reserved":false,"is_disabled":false,"rental_uris":{"android":"levelo://app?vid=20d08a36-fa04-454f-b381-5c66030c764a","ios":"levelo://app?vid=20d08a36-fa04-454f-b381-5c66030c764a"},"vehicle_type_id":"4","last_reported":1757776094,"current_range_meters":18800,"station_id":"ce4bgt12rcd13ifvqcd0","pricing_plan_id":"cebpf4jnsgd1na2vs0mg"},{"bike_id":"ef94e107-b5fd-44f7-a023-fb0854a2be56","system_id":"levelo_inurba_marseille","lat":43.28654,"lon":5.35075,"is_reserved":false,"is_disabled":false,"rental_uris":{"android":"levelo://app?vid=ef94e107-b5fd-44f7-a023-fb0854a2be56","ios":"levelo://app?vid=ef94e107-b5fd-44f7-a023-fb0854a2be56"},"vehicle_type_id":"4","last_reported":1757776094,"current_range_meters":18800,"station_id":"ce4bhch2rcd13ifvqeug","pricing_plan_id":"cebpf4jnsgd1na2vs0mg"},{"bike_id":"38fb07ef-d51a-4a81-a159-85cbf3466ec5","system_id":"levelo_inurba_marseille","lat":43.29613,"lon":5.37719,"is_reserved":false,"is_disabled":false,"rental_uris":{"android":"levelo://app?vid=38fb07ef-d51a-4a81-a159-85cbf3466ec5","ios":"levelo://app?vid=38fb07ef-d51a-4a81-a159-85cbf3466ec5"},"vehicle_type_id":"4","last_reported":1757776094,"current_range_meters":18800,"station_id":"ce4bgi92rcd13ifvqb90","pricing_plan_id":"cebpf4jnsgd1na2vs0mg"},{"bike_id":"d9e0c818-cda2-40f3-9d69-4d79eefe1a97","system_id":"levelo_inurba_marseille","lat":43.2496,"lon":5.40474,"is_reserved":false,"is_disabled":false,"rental_uris":{"android":"levelo://app?vid=d9e0c818-cda2-40f3-9d69-4d79eefe1a97","ios":"levelo://app?vid=d9e0c818-cda2-40f3-9d69-4d79eefe1a97"},"vehicle_type_id":"4","last_reported":1757776094,"current_range_meters":18800,"station_id":"st_d2ngiaodas8pm72gd1h0","pricing_plan_id":"cebpf4jnsgd1na2vs0mg"},{"bike_id":"63926ba1-c2e9-4844-95ea-0236b423e0db","system_id":"levelo_inurba_marseille","lat":43.30132,"lon":5.39871,"is_reserved":false,"is_disabled":false,"rental_uris":{"android":"levelo://app?vid=63926ba1-c2e9-4844-95ea-0236b423e0db","ios":"levelo://app?vid=63926ba1-c2e9-4844-95ea-0236b423e0db"},"vehicle_type_id":"4","last_reported":1757776094,"current_range_meters":18800,"station_id":"ce4bh0h2rcd13ifvqd40","pricing_plan_id":"cebpf4jnsgd1na2vs0mg"},{"bike_id":"e06d2e94-3ae2-4b4b-9d7e-05d3f806365a","system_id":"levelo_inurba_marseille","lat":43.25825,"lon":5.39443,"is_reserved":false,"is_disabled":false,"rental_uris":{"android":"levelo://app?vid=e06d2e94-3ae2-4b4b-9d7e-05d3f806365a","ios":"levelo://app?vid=e06d2e94-3ae2-4b4b-9d7e-05d3f806365a"},"vehicle_type_id":"4","last_reported":1757776094,"current_range_meters":19200,"station_id":"ce4bhip2rcd13ifvqft0","pricing_plan_id":"cebpf4jnsgd1na2vs0mg"},{"bike_id":"f557a8ed-57b4-4f25-9255-f50a65a5063c","system_id":"levelo_inurba_marseille","lat":43.26567,"lon":5.39001,"is_reserved":false,"is_disabled":false,"rental_uris":{"android":"levelo://app?vid=f557a8ed-57b4-4f25-9255-f50a65a5063c","ios":"levelo://app?vid=f557a8ed-57b4-4f25-9255-f50a65a5063c"},"vehicle_type_id":"4","last_reported":1757776094,"current_range_meters":19200,"station_id":"ce4bhe12rcd13ifvqf30","pricing_plan_id":"cebpf4jnsgd1na2vs0mg"},{"bike_id":"aebca354-5973-4dc0-b649-a42d2d3449fa","system_id":"levelo_inurba_marseille","lat":43.25866,"lon":5.39887,"is_reserved":false,"is_disabled":false,"rental_uris":{"android":"levelo://app?vid=aebca354-5973-4dc0-b649-a42d2d3449fa","ios":"levelo://app?vid=aebca354-5973-4dc0-b649-a42d2d3449fa"},"vehicle_type_id":"4","last_reported":1757776094,"current_range_meters":18800,"station_id":"ce4bhl92rcd13ifvqghg","pricing_plan_id":"cebpf4jnsgd1na2vs0mg"},{"bike_id":"d0b51c92-8919-40a8-81c9-9ab53ac118e3","system_id":"levelo_inurba_marseille","lat":43.33033,"lon":5.39025,"is_reserved":false,"is_disabled":false,"rental_uris":{"android":"levelo://app?vid=d0b51c92-8919-40a8-81c9-9ab53ac118e3","ios":"levelo://app?vid=d0b51c92-8919-40a8-81c9-9ab53ac118e3"},"vehicle_type_id":"4","last_reported":1757776094,"current_range_meters":19200,"station_id":"ce4bhr92rcd13ifvqhrg","pricing_plan_id":"cebpf4jnsgd1na2vs0mg"},{"bike_id":"f2fee8b4-3ccd-4bda-accf-e092186b6fad","system_id":"levelo_inurba_marseille","lat":43.34143,"lon":5.40882,"is_reserved":false,"is_disabled":false,"rental_uris":{"android":"levelo://app?vid=f2fee8b4-3ccd-4bda-accf-e092186b6fad","ios":"levelo://app?vid=f2fee8b4-3ccd-4bda-accf-e092186b6fad"},"vehicle_type_id":"4","last_reported":1757776094,"current_range_meters":18800,"station_id":"ce4bhqh2rcd13ifvqhlg","pricing_plan_id":"cebpf4jnsgd1na2vs0mg"},{"bike_id":"efe6e365-45ab-4337-98eb-c17918126135","system_id":"levelo_inurba_marseille","lat":43.25578,"lon":5.38245,"is_reserved":false,"is_disabled":false,"rental_uris":{"android":"levelo://app?vid=efe6e365-45ab-4337-98eb-c17918126135","ios":"levelo://app?vid=efe6e365-45ab-4337-98eb-c17918126135"},"vehicle_type_id":"4","last_reported":1757776094,"current_range_meters":19600,"station_id":"ce4bhih2rcd13ifvqfs0","pricing_plan_id":"cebpf4jnsgd1na2vs0mg"},{"bike_id":"d1835cb7-e899-4398-9f30-62c2e5129cec","system_id":"levelo_inurba_marseille","lat":43.33758,"lon":5.37446,"is_reserved":false,"is_disabled":false,"rental_uris":{"android":"levelo://app?vid=d1835cb7-e899-4398-9f30-62c2e5129cec","ios":"levelo://app?vid=d1835cb7-e899-4398-9f30-62c2e5129cec"},"vehicle_type_id":"4","last_reported":1757776094,"current_range_meters":19600,"station_id":"","pricing_plan_id":"cebpf4jnsgd1na2vs0mg"},{"bike_id":"fc59cc99-c778-4d76-aabe-1a633232d6bf","system_id":"levelo_inurba_marseille","lat":43.24069,"lon":5.37751,"is_reserved":false,"is_disabled":false,"rental_uris":{"android":"levelo://app?vid=fc59cc99-c778-4d76-aabe-1a633232d6bf","ios":"levelo://app?vid=fc59cc99-c778-4d76-aabe-1a633232d6bf"},"vehicle_type_id":"4","last_reported":1757776094,"current_range_meters":19600,"station_id":"ce4bhnp2rcd13ifvqgvg","pricing_plan_id":"cebpf4jnsgd1na2vs0mg"},{"bike_id":"654df5a8-46fd-4bb1-a78c-219e858dd01e","system_id":"levelo_inurba_marseille","lat":43.288678,"lon":5.366535,"is_reserved":false,"is_disabled":false,"rental_uris":{"android":"levelo://app?vid=654df5a8-46fd-4bb1-a78c-219e858dd01e","ios":"levelo://app?vid=654df5a8-46fd-4bb1-a78c-219e858dd01e"},"vehicle_type_id":"4","last_reported":1757776094,"current_range_meters":19600,"station_id":"","pricing_plan_id":"cebpf4jnsgd1na2vs0mg"},{"bike_id":"39524f45-7e1f-43c9-9e59-044b84eee8dc","system_id":"levelo_inurba_marseille","lat":43.26572,"lon":5.39007,"is_reserved":false,"is_disabled":false,"rental_uris":{"android":"levelo://app?vid=39524f45-7e1f-43c9-9e59-044b84eee8dc","ios":"levelo://app?vid=39524f45-7e1f-43c9-9e59-044b84eee8dc"},"vehicle_type_id":"4","last_reported":1757776094,"current_range_meters":19600,"station_id":"ce4bhe12rcd13ifvqf30","pricing_plan_id":"cebpf4jnsgd1na2vs0mg"},{"bike_id":"cfc6049b-2d90-4796-a54a-c22d10da89d4","system_id":"levelo_inurba_marseille","lat":43.273216,"lon":5.390685,"is_reserved":false,"is_disabled":false,"rental_uris":{"android":"levelo://app?vid=cfc6049b-2d90-4796-a54a-c22d10da89d4","ios":"levelo://app?vid=cfc6049b-2d90-4796-a54a-c22d10da89d4"},"vehicle_type_id":"4","last_reported":1757776094,"current_range_meters":19600,"station_id":"ce4bhgp2rcd13ifvqfe0","pricing_plan_id":"cebpf4jnsgd1na2vs0mg"},{"bike_id":"a6c08253-e23d-4e0b-84d9-2b80bf7f867c","system_id":"levelo_inurba_marseille","lat":43.25104,"lon":5.40332,"is_reserved":false,"is_disabled":false,"rental_uris":{"android":"levelo://app?vid=a6c08253-e23d-4e0b-84d9-2b80bf7f867c","ios":"levelo://app?vid=a6c08253-e23d-4e0b-84d9-2b80bf7f867c"},"vehicle_type_id":"4","last_reported":1757776094,"current_range_meters":20000,"station_id":"ce4bhlh2rcd13ifvqgig","pricing_plan_id":"cebpf4jnsgd1na2vs0mg"},{"bike_id":"1b995fc6-bf97-4d16-8cde-3b961101ac68","system_id":"levelo_inurba_marseille","lat":43.23964,"lon":5.36628,"is_reserved":false,"is_disabled":false,"rental_uris":{"android":"levelo://app?vid=1b995fc6-bf97-4d16-8cde-3b961101ac68","ios":"levelo://app?vid=1b995fc6-bf97-4d16-8cde-3b961101ac68"},"vehicle_type_id":"4","last_reported":1757776094,"current_range_meters":20000,"station_id":"ce4bhi12rcd13ifvqfp0","pricing_plan_id":"cebpf4jnsgd1na2vs0mg"},{"bike_id":"304ab3f4-c599-4823-8bd7-ea0abcee2b10","system_id":"levelo_inurba_marseille","lat":43.26215,"lon":5.37439,"is_reserved":false,"is_disabled":false,"rental_uris":{"android":"levelo://app?vid=304ab3f4-c599-4823-8bd7-ea0abcee2b10","ios":"levelo://app?vid=304ab3f4-c599-4823-8bd7-ea0abcee2b10"},"vehicle_type_id":"4","last_reported":1757776094,"current_range_meters":20000,"station_id":"ce4bhgp2rcd13ifvqfc0","pricing_plan_id":"cebpf4jnsgd1na2vs0mg"},{"bike_id":"c79f98a5-b132-4d8b-b050-5e48074dc6fe","system_id":"levelo_inurba_marseille","lat":43.316802,"lon":5.404015,"is_reserved":false,"is_disabled":false,"rental_uris":{"android":"levelo://app?vid=c79f98a5-b132-4d8b-b050-5e48074dc6fe","ios":"levelo://app?vid=c79f98a5-b132-4d8b-b050-5e48074dc6fe"},"vehicle_type_id":"4","last_reported":1757776094,"current_range_meters":20000,"station_id":"ce4bh012rcd13ifvqd00","pricing_plan_id":"cebpf4jnsgd1na2vs0mg"},{"bike_id":"4abcfd1f-d5ba-40bf-8216-a47803a52e59","system_id":"levelo_inurba_marseille","lat":43.2464,"lon":5.43131,"is_reserved":false,"is_disabled":false,"rental_uris":{"android":"levelo://app?vid=4abcfd1f-d5ba-40bf-8216-a47803a52e59","ios":"levelo://app?vid=4abcfd1f-d5ba-40bf-8216-a47803a52e59"},"vehicle_type_id":"4","last_reported":1757776094,"current_range_meters":20000,"station_id":"st_d2m6c4gdas8pm72e190g","pricing_plan_id":"cebpf4jnsgd1na2vs0mg"},{"bike_id":"f738e6a2-b2c9-44d3-8be5-ddbde6e8bcf6","system_id":"levelo_inurba_marseille","lat":43.29234,"lon":5.3606,"is_reserved":false,"is_disabled":false,"rental_uris":{"android":"levelo://app?vid=f738e6a2-b2c9-44d3-8be5-ddbde6e8bcf6","ios":"levelo://app?vid=f738e6a2-b2c9-44d3-8be5-ddbde6e8bcf6"},"vehicle_type_id":"4","last_reported":1757776094,"current_range_meters":20400,"station_id":"ce4bhbh2rcd13ifvqeqg","pricing_plan_id":"cebpf4jnsgd1na2vs0mg"},{"bike_id":"4b892fc6-153b-438b-a07e-a34aaac8b5b6","system_id":"levelo_inurba_marseille","lat":43.255,"lon":5.37634,"is_reserved":false,"is_disabled":false,"rental_uris":{"android":"levelo://app?vid=4b892fc6-153b-438b-a07e-a34aaac8b5b6","ios":"levelo://app?vid=4b892fc6-153b-438b-a07e-a34aaac8b5b6"},"vehicle_type_id":"4","last_reported":1757776094,"current_range_meters":20400,"station_id":"ce4bhh12rcd13ifvqff0","pricing_plan_id":"cebpf4jnsgd1na2vs0mg"},{"bike_id":"9795ca5d-7fdf-4622-b4f3-edb65aa46a3a","system_id":"levelo_inurba_marseille","lat":43.27432,"lon":5.39411,"is_reserved":false,"is_disabled":false,"rental_uris":{"android":"levelo://app?vid=9795ca5d-7fdf-4622-b4f3-edb65aa46a3a","ios":"levelo://app?vid=9795ca5d-7fdf-4622-b4f3-edb65aa46a3a"},"vehicle_type_id":"4","last_reported":1757776094,"current_range_meters":20400,"station_id":"ce4bhdp2rcd13ifvqf20","pricing_plan_id":"cebpf4jnsgd1na2vs0mg"},{"bike_id":"e73470b2-f46f-4f87-989f-53f8372e4317","system_id":"levelo_inurba_marseille","lat":43.33016,"lon":5.39035,"is_reserved":false,"is_disabled":false,"rental_uris":{"android":"levelo://app?vid=e73470b2-f46f-4f87-989f-53f8372e4317","ios":"levelo://app?vid=e73470b2-f46f-4f87-989f-53f8372e4317"},"vehicle_type_id":"4","last_reported":1757776094,"current_range_meters":20400,"station_id":"ce4bhr92rcd13ifvqhrg","pricing_plan_id":"cebpf4jnsgd1na2vs0mg"},{"bike_id":"84a5505b-1c70-4fbd-8713-1aeafa411c7d","system_id":"levelo_inurba_marseille","lat":43.23208,"lon":5.3555,"is_reserved":false,"is_disabled":false,"rental_uris":{"android":"levelo://app?vid=84a5505b-1c70-4fbd-8713-1aeafa411c7d","ios":"levelo://app?vid=84a5505b-1c70-4fbd-8713-1aeafa411c7d"},"vehicle_type_id":"4","last_reported":1757776094,"current_range_meters":20400,"station_id":"ce4bhu92rcd13ifvqi70","pricing_plan_id":"cebpf4jnsgd1na2vs0mg"},{"bike_id":"a32765c3-4d58-44f8-913b-e8803ad07ff2","system_id":"levelo_inurba_marseille","lat":43.27913,"lon":5.3958,"is_reserved":false,"is_disabled":false,"rental_uris":{"android":"levelo://app?vid=a32765c3-4d58-44f8-913b-e8803ad07ff2","ios":"levelo://app?vid=a32765c3-4d58-44f8-913b-e8803ad07ff2"},"vehicle_type_id":"4","last_reported":1757776094,"current_range_meters":20400,"station_id":"ce4bhf92rcd13ifvqf40","pricing_plan_id":"cebpf4jnsgd1na2vs0mg"},{"bike_id":"e54a1e7f-72fe-4f72-999a-0b938621ab02","system_id":"levelo_inurba_marseille","lat":43.23134,"lon":5.43706,"is_reserved":false,"is_disabled":false,"rental_uris":{"android":"levelo://app?vid=e54a1e7f-72fe-4f72-999a-0b938621ab02","ios":"levelo://app?vid=e54a1e7f-72fe-4f72-999a-0b938621ab02"},"vehicle_type_id":"4","last_reported":1757776094,"current_range_meters":20400,"station_id":"ce4bhmp2rcd13ifvqgog","pricing_plan_id":"cebpf4jnsgd1na2vs0mg"},{"bike_id":"740d0c60-c55f-4e41-b815-1f4d8e4ac266","system_id":"levelo_inurba_marseille","lat":43.29527,"lon":5.39041,"is_reserved":false,"is_disabled":false,"rental_uris":{"android":"levelo://app?vid=740d0c60-c55f-4e41-b815-1f4d8e4ac266","ios":"levelo://app?vid=740d0c60-c55f-4e41-b815-1f4d8e4ac266"},"vehicle_type_id":"4","last_reported":1757776094,"current_range_meters":20400,"station_id":"ce4bh3p2rcd13ifvqdp0","pricing_plan_id":"cebpf4jnsgd1na2vs0mg"},{"bike_id":"166fbbfb-649b-4dd1-8c6f-764ecb2fb663","system_id":"levelo_inurba_marseille","lat":43.29881,"lon":5.38897,"is_reserved":false,"is_disabled":false,"rental_uris":{"android":"levelo://app?vid=166fbbfb-649b-4dd1-8c6f-764ecb2fb663","ios":"levelo://app?vid=166fbbfb-649b-4dd1-8c6f-764ecb2fb663"},"vehicle_type_id":"4","last_reported":1757776094,"current_range_meters":20400,"station_id":"ce4bh392rcd13ifvqdl0","pricing_plan_id":"cebpf4jnsgd1na2vs0mg"},{"bike_id":"730e08ba-8035-4750-a1e8-6e1ad0e7b15b","system_id":"levelo_inurba_marseille","lat":43.25014,"lon":5.38926,"is_reserved":false,"is_disabled":false,"rental_uris":{"android":"levelo://app?vid=730e08ba-8035-4750-a1e8-6e1ad0e7b15b","ios":"levelo://app?vid=730e08ba-8035-4750-a1e8-6e1ad0e7b15b"},"vehicle_type_id":"4","last_reported":1757776094,"current_range_meters":20800,"station_id":"ce4bhgp2rcd13ifvqfd0","pricing_plan_id":"cebpf4jnsgd1na2vs0mg"},{"bike_id":"ff781d72-0933-4e94-b6be-931983874e6c","system_id":"levelo_inurba_marseille","lat":43.33019,"lon":5.39043,"is_reserved":false,"is_disabled":false,"rental_uris":{"android":"levelo://app?vid=ff781d72-0933-4e94-b6be-931983874e6c","ios":"levelo://app?vid=ff781d72-0933-4e94-b6be-931983874e6c"},"vehicle_type_id":"4","last_reported":1757776094,"current_range_meters":20800,"station_id":"ce4bhr92rcd13ifvqhrg","pricing_plan_id":"cebpf4jnsgd1na2vs0mg"},{"bike_id":"b6e71227-cf24-477c-a6b4-dcaf891c7903","system_id":"levelo_inurba_marseille","lat":43.25573,"lon":5.38224,"is_reserved":false,"is_disabled":false,"rental_uris":{"android":"levelo://app?vid=b6e71227-cf24-477c-a6b4-dcaf891c7903","ios":"levelo://app?vid=b6e71227-cf24-477c-a6b4-dcaf891c7903"},"vehicle_type_id":"4","last_reported":1757776094,"current_range_meters":20800,"station_id":"ce4bhih2rcd13ifvqfs0","pricing_plan_id":"cebpf4jnsgd1na2vs0mg"},{"bike_id":"72bf4516-cba8-447e-9279-d4989a441e60","system_id":"levelo_inurba_marseille","lat":43.27497,"lon":5.42429,"is_reserved":false,"is_disabled":false,"rental_uris":{"android":"levelo://app?vid=72bf4516-cba8-447e-9279-d4989a441e60","ios":"levelo://app?vid=72bf4516-cba8-447e-9279-d4989a441e60"},"vehicle_type_id":"4","last_reported":1757776094,"current_range_meters":20800,"station_id":"ce4bhn92rcd13ifvqgrg","pricing_plan_id":"cebpf4jnsgd1na2vs0mg"},{"bike_id":"262d5f82-c30e-43ff-bb62-6c845f21f805","system_id":"levelo_inurba_marseille","lat":43.29872,"lon":5.39732,"is_reserved":false,"is_disabled":false,"rental_uris":{"android":"levelo://app?vid=262d5f82-c30e-43ff-bb62-6c845f21f805","ios":"levelo://app?vid=262d5f82-c30e-43ff-bb62-6c845f21f805"},"vehicle_type_id":"4","last_reported":1757776094,"current_range_meters":20400,"station_id":"ce4bh0h2rcd13ifvqd50","pricing_plan_id":"cebpf4jnsgd1na2vs0mg"},{"bike_id":"9904c001-78e8-4236-bd42-1976fab37afc","system_id":"levelo_inurba_marseille","lat":43.2985,"lon":5.36263,"is_reserved":false,"is_disabled":false,"rental_uris":{"android":"levelo://app?vid=9904c001-78e8-4236-bd42-1976fab37afc","ios":"levelo://app?vid=9904c001-78e8-4236-bd42-1976fab37afc"},"vehicle_type_id":"4","last_reported":1757776094,"current_range_meters":20800,"station_id":"ce4bgpp2rcd13ifvqc3g","pricing_plan_id":"cebpf4jnsgd1na2vs0mg"},{"bike_id":"b5d85824-b165-46f6-af2c-f71d001a9411","system_id":"levelo_inurba_marseille","lat":43.3054,"lon":5.36554,"is_reserved":false,"is_disabled":false,"rental_uris":{"android":"levelo://app?vid=b5d85824-b165-46f6-af2c-f71d001a9411","ios":"levelo://app?vid=b5d85824-b165-46f6-af2c-f71d001a9411"},"vehicle_type_id":"4","last_reported":1757776094,"current_range_meters":21600,"station_id":"ce4bgs12rcd13ifvqcag","pricing_plan_id":"cebpf4jnsgd1na2vs0mg"},{"bike_id":"fee7b1cd-3520-4cdd-8590-3bb4a8936678","system_id":"levelo_inurba_marseille","lat":43.30588,"lon":5.39351,"is_reserved":false,"is_disabled":false,"rental_uris":{"android":"levelo://app?vid=fee7b1cd-3520-4cdd-8590-3bb4a8936678","ios":"levelo://app?vid=fee7b1cd-3520-4cdd-8590-3bb4a8936678"},"vehicle_type_id":"4","last_reported":1757776094,"current_range_meters":20800,"station_id":"ce4bh0p2rcd13ifvqd80","pricing_plan_id":"cebpf4jnsgd1na2vs0mg"},{"bike_id":"c3eb1bfd-4bc1-4c9f-95a4-59d62abe1f6e","system_id":"levelo_inurba_marseille","lat":43.29846,"lon":5.36273,"is_reserved":false,"is_disabled":false,"rental_uris":{"android":"levelo://app?vid=c3eb1bfd-4bc1-4c9f-95a4-59d62abe1f6e","ios":"levelo://app?vid=c3eb1bfd-4bc1-4c9f-95a4-59d62abe1f6e"},"vehicle_type_id":"4","last_reported":1757776094,"current_range_meters":21600,"station_id":"ce4bgpp2rcd13ifvqc3g","pricing_plan_id":"cebpf4jnsgd1na2vs0mg"},{"bike_id":"d218c5c8-561a-4a42-b2aa-19b6c9da74fb","system_id":"levelo_inurba_marseille","lat":43.31692,"lon":5.40453,"is_reserved":false,"is_disabled":false,"rental_uris":{"android":"levelo://app?vid=d218c5c8-561a-4a42-b2aa-19b6c9da74fb","ios":"levelo://app?vid=d218c5c8-561a-4a42-b2aa-19b6c9da74fb"},"vehicle_type_id":"4","last_reported":1757776094,"current_range_meters":21600,"station_id":"ce4bh012rcd13ifvqd00","pricing_plan_id":"cebpf4jnsgd1na2vs0mg"},{"bike_id":"bd0dc0b3-ab3b-4eb1-8904-ded4c5b1d4d0","system_id":"levelo_inurba_marseille","lat":43.25117,"lon":5.40328,"is_reserved":false,"is_disabled":false,"rental_uris":{"android":"levelo://app?vid=bd0dc0b3-ab3b-4eb1-8904-ded4c5b1d4d0","ios":"levelo://app?vid=bd0dc0b3-ab3b-4eb1-8904-ded4c5b1d4d0"},"vehicle_type_id":"4","last_reported":1757776094,"current_range_meters":21600,"station_id":"ce4bhlh2rcd13ifvqgig","pricing_plan_id":"cebpf4jnsgd1na2vs0mg"},{"bike_id":"96b542b3-6e80-4e9a-8afe-966b85f175dd","system_id":"levelo_inurba_marseille","lat":43.27318,"lon":5.39082,"is_reserved":false,"is_disabled":false,"rental_uris":{"android":"levelo://app?vid=96b542b3-6e80-4e9a-8afe-966b85f175dd","ios":"levelo://app?vid=96b542b3-6e80-4e9a-8afe-966b85f175dd"},"vehicle_type_id":"4","last_reported":1757776094,"current_range_meters":20800,"station_id":"ce4bhgp2rcd13ifvqfe0","pricing_plan_id":"cebpf4jnsgd1na2vs0mg"},{"bike_id":"c74f175c-2c43-419c-b467-ee6f18f8ee3c","system_id":"levelo_inurba_marseille","lat":43.29576,"lon":5.37511,"is_reserved":false,"is_disabled":false,"rental_uris":{"android":"levelo://app?vid=c74f175c-2c43-419c-b467-ee6f18f8ee3c","ios":"levelo://app?vid=c74f175c-2c43-419c-b467-ee6f18f8ee3c"},"vehicle_type_id":"4","last_reported":1757776094,"current_range_meters":20400,"station_id":"ce4bgh92rcd13ifvqb50","pricing_plan_id":"cebpf4jnsgd1na2vs0mg"},{"bike_id":"a105295b-ff3b-4cad-8c23-e4f77eab1c15","system_id":"levelo_inurba_marseille","lat":43.250921,"lon":5.3951,"is_reserved":false,"is_disabled":false,"rental_uris":{"android":"levelo://app?vid=a105295b-ff3b-4cad-8c23-e4f77eab1c15","ios":"levelo://app?vid=a105295b-ff3b-4cad-8c23-e4f77eab1c15"},"vehicle_type_id":"4","last_reported":1757776094,"current_range_meters":21600,"station_id":"ce4bhm12rcd13ifvqgkg","pricing_plan_id":"cebpf4jnsgd1na2vs0mg"},{"bike_id":"2fe89b38-905d-47cb-9530-a27cec5dba19","system_id":"levelo_inurba_marseille","lat":43.30317,"lon":5.36867,"is_reserved":false,"is_disabled":false,"rental_uris":{"android":"levelo://app?vid=2fe89b38-905d-47cb-9530-a27cec5dba19","ios":"levelo://app?vid=2fe89b38-905d-47cb-9530-a27cec5dba19"},"vehicle_type_id":"4","last_reported":1757776094,"current_range_meters":21600,"station_id":"ce4bgqh2rcd13ifvqc5g","pricing_plan_id":"cebpf4jnsgd1na2vs0mg"},{"bike_id":"dc5d65f3-a4bd-4a83-9537-c791ba2cf962","system_id":"levelo_inurba_marseille","lat":43.309498,"lon":5.390128,"is_reserved":false,"is_disabled":false,"rental_uris":{"android":"levelo://app?vid=dc5d65f3-a4bd-4a83-9537-c791ba2cf962","ios":"levelo://app?vid=dc5d65f3-a4bd-4a83-9537-c791ba2cf962"},"vehicle_type_id":"4","last_reported":1757776094,"current_range_meters":22000,"station_id":"ce4bgup2rcd13ifvqco0","pricing_plan_id":"cebpf4jnsgd1na2vs0mg"},{"bike_id":"1434d059-4f54-4280-9866-f3108fd57db2","system_id":"levelo_inurba_marseille","lat":43.2894,"lon":5.3839,"is_reserved":false,"is_disabled":false,"rental_uris":{"android":"levelo://app?vid=1434d059-4f54-4280-9866-f3108fd57db2","ios":"levelo://app?vid=1434d059-4f54-4280-9866-f3108fd57db2"},"vehicle_type_id":"4","last_reported":1757776094,"current_range_meters":21600,"station_id":"ce4bh612rcd13ifvqe6g","pricing_plan_id":"cebpf4jnsgd1na2vs0mg"},{"bike_id":"5a292930-92a9-468b-a446-4f40dfd975cb","system_id":"levelo_inurba_marseille","lat":43.305263,"lon":5.365552,"is_reserved":false,"is_disabled":false,"rental_uris":{"android":"levelo://app?vid=5a292930-92a9-468b-a446-4f40dfd975cb","ios":"levelo://app?vid=5a292930-92a9-468b-a446-4f40dfd975cb"},"vehicle_type_id":"4","last_reported":1757776094,"current_range_meters":22000,"station_id":"ce4bgs12rcd13ifvqcag","pricing_plan_id":"cebpf4jnsgd1na2vs0mg"},