{"last_updated":1743099215,"ttl":60,"version":"2.2","data":{"bikes":[{"bike_id":"5085f1d5-c78f-489e-8b58-8fe028d623a0","system_id":"levelo_inurba_marseille","lat":43.28487,"lon":5.38429,"is_reserved":false,"is_disabled":false,"rental_uris":{"android":"levelo://app?vid=5085f1d5-c78f-489e-8b58-8fe028d623a0","ios":"levelo://app?vid=5085f1d5-c78f-489e-8b58-8fe028d623a0"},"vehicle_type_id":"4","last_reported":1743099215,"current_range_meters":2800,"station_id":"ce4bh512rcd13ifvqe3g","pricing_plan_id":"cebpf4jnsgd1na2vs0mg"},{"bike_id":"8d8f63b9-80e9-4429-8401-e3342f341131","system_id":"levelo_inurba_marseille","lat":43.28627,"lon":5.35102,"is_reserved":false,"is_disabled":false,"rental_uris":{"android":"levelo://app?vid=8d8f63b9-80e9-4429-8401-e3342f341131","ios":"levelo://app?vid=8d8f63b9-80e9-4429-8401-e3342f341131"},"vehicle_type_id":"4","last_reported":1743099215,"current_range_meters":2800,"station_id":"ce4bhch2rcd13ifvqeug","pricing_plan_id":"cebpf4jnsgd1na2vs0mg"},{"bike_id":"44156654-a4cf-4f20-b992-8a27bbcc69ed","system_id":"levelo_inurba_marseille","lat":43.23194,"lon":5.40001,"is_reserved":false,"is_disabled":true,"rental_uris":{"android":"levelo://app?vid=44156654-a4cf-4f20-b992-8a27bbcc69ed","ios":"levelo://app?vid=44156654-a4cf-4f20-b992-8a27bbcc69ed"},"vehicle_type_id":"4","last_reported":1743099215,"current_range_meters":2800,"station_id":"ce4bhn12rcd13ifvqgqg","pricing_plan_id":"cebpf4jnsgd1na2vs0mg"},{"bike_id":"39132323-c731-49ab-98e3-c68cfd77b0de","system_id":"levelo_inurba_marseille","lat":43.26411,"lon":5.40418,"is_reserved":false,"is_disabled":false,"rental_uris":{"android":"levelo://app?vid=39132323-c731-49ab-98e3-c68cfd77b0de","ios":"levelo://app?vid=39132323-c731-49ab-98e3-c68cfd77b0de"},"vehicle_type_id":"4","last_reported":1743099215,"current_range_meters":2800,"station_id":"","pricing_plan_id":"cebpf4jnsgd1na2vs0mg"},{"bike_id":"5d0ea8b9-0294-4754-8f8e-fbd4b3407e5e","system_id":"levelo_inurba_marseille","lat":43.28713,"lon":5.39988,"is_reserved":false,"is_disabled":false,"rental_uris":{"android":"levelo://app?vid=5d0ea8b9-0294-4754-8f8e-fbd4b3407e5e","ios":"levelo://app?vid=5d0ea8b9-0294-4754-8f8e-fbd4b3407e5e"},"vehicle_type_id":"4","last_reported":1743099215,"current_range_meters":2800,"station_id":"ce4bho92rcd13ifvqh3g","pricing_plan_id":"cebpf4jnsgd1na2vs0mg"},{"bike_id":"36267461-fa12-48b3-a68d-4f90cc6200bb","system_id":"levelo_inurba_marseille","lat":43.279098,"lon":5.395734,"is_reserved":false,"is_disabled":false,"rental_uris":{"android":"levelo://app?vid=36267461-fa12-48b3-a68d-4f90cc6200bb","ios":"levelo://app?vid=36267461-fa12-48b3-a68d-4f90cc6200bb"},"vehicle_type_id":"4","last_reported":1743099215,"current_range_meters":2800,"station_id":"ce4bhf92rcd13ifvqf40","pricing_plan_id":"cebpf4jnsgd1na2vs0mg"},{"bike_id":"c22375b9-fedd-4523-94cd-ba94308b59b6","system_id":"levelo_inurba_marseille","lat":43.28464,"lon":5.35884,"is_reserved":false,"is_disabled":false,"rental_uris":{"android":"levelo://app?vid=c22375b9-fedd-4523-94cd-ba94308b59b6","ios":"levelo://app?vid=c22375b9-fedd-4523-94cd-ba94308b59b6"},"vehicle_type_id":"4","last_reported":1743099215,"current_range_meters":3200,"station_id":"ce4bhah2rcd13ifvqei0","pricing_plan_id":"cebpf4jnsgd1na2vs0mg"},{"bike_id":"01b7a3e9-0dab-4c73-a7c5-7e899101b89b","system_id":"levelo_inurba_marseille","lat":43.29245,"lon":5.38439,"is_reserved":false,"is_disabled":false,"rental_uris":{"android":"levelo://app?vid=01b7a3e9-0dab-4c73-a7c5-7e899101b89b","ios":"levelo://app?vid=01b7a3e9-0dab-4c73-a7c5-7e899101b89b"},"vehicle_type_id":"4","last_reported":1743099215,"current_range_meters":3200,"station_id":"ce4bh692rcd13ifvqea0","pricing_plan_id":"cebpf4jnsgd1na2vs0mg"},{"bike_id":"95c96f78-7a13-4877-b261-67fd6918fad7","system_id":"levelo_inurba_marseille","lat":43.31542,"lon":5.38831,"is_reserved":false,"is_disabled":true,"rental_uris":{"android":"levelo://app?vid=95c96f78-7a13-4877-b261-67fd6918fad7","ios":"levelo://app?vid=95c96f78-7a13-4877-b261-67fd6918fad7"},"vehicle_type_id":"4","last_reported":1743099215,"current_range_meters":3200,"station_id":"","pricing_plan_id":"cebpf4jnsgd1na2vs0mg"},{"bike_id":"0586a29a-e70c-4fce-9479-b2eea1df506b","system_id":"levelo_inurba_marseille","lat":43.29543,"lon":5.38553,"is_reserved":false,"is_disabled":false,"rental_uris":{"android":"levelo://app?vid=0586a29a-e70c-4fce-9479-b2eea1df506b","ios":"levelo://app?vid=0586a29a-e70c-4fce-9479-b2eea1df506b"},"vehicle_type_id":"4","last_reported":1743099215,"current_range_meters":3200,"station_id":"ce4bgih2rcd13ifvqba0","pricing_plan_id":"cebpf4jnsgd1na2vs0mg"},{"bike_id":"30d92230-3383-405e-a23a-ed4bb6afd091","system_id":"levelo_inurba_marseille","lat":43.2953,"lon":5.39395,"is_reserved":false,"is_disabled":false,"rental_uris":{"android":"levelo://app?vid=30d92230-3383-405e-a23a-ed4bb6afd091","ios":"levelo://app?vid=30d92230-3383-405e-a23a-ed4bb6afd091"},"vehicle_type_id":"4","last_reported":1743099215,"current_range_meters":2800,"station_id":"ce4bh292rcd13ifvqdf0","pricing_plan_id":"cebpf4jnsgd1na2vs0mg"},{"bike_id":"22a12f8b-366b-4cd9-8feb-39e98298dfdb","system_id":"levelo_inurba_marseille","lat":43.28084,"lon":5.39662,"is_reserved":false,"is_disabled":false,"rental_uris":{"android":"levelo://app?vid=22a12f8b-366b-4cd9-8feb-39e98298dfdb","ios":"levelo://app?vid=22a12f8b-366b-4cd9-8feb-39e98298dfdb"},"vehicle_type_id":"4","last_reported":1743099215,"current_range_meters":3200,"station_id":"ce4bho12rcd13ifvqh2g","pricing_plan_id":"cebpf4jnsgd1na2vs0mg"},{"bike_id":"5bf51267-584e-41b8-a922-c700dc80dcf6","system_id":"levelo_inurba_marseille","lat":43.32339,"lon":5.40624,"is_reserved":false,"is_disabled":false,"rental_uris":{"android":"levelo://app?vid=5bf51267-584e-41b8-a922-c700dc80dcf6","ios":"levelo://app?vid=5bf51267-584e-41b8-a922-c700dc80dcf6"},"vehicle_type_id":"4","last_reported":1743099215,"current_range_meters":3200,"station_id":"ce4bhq92rcd13ifvqhjg","pricing_plan_id":"cebpf4jnsgd1na2vs0mg"},{"bike_id":"1e0b2636-48a1-4292-92c0-73b807651a12","system_id":"levelo_inurba_marseille","lat":43.289703,"lon":5.37838,"is_reserved":false,"is_disabled":false,"rental_uris":{"android":"levelo://app?vid=1e0b2636-48a1-4292-92c0-73b807651a12","ios":"levelo://app?vid=1e0b2636-48a1-4292-92c0-73b807651a12"},"vehicle_type_id":"4","last_reported":1743099215,"current_range_meters":3600,"station_id":"ce4bgip2rcd13ifvqbb0","pricing_plan_id":"cebpf4jnsgd1na2vs0mg"},{"bike_id":"37380694-dff0-4826-9195-3424b1654af8","system_id":"levelo_inurba_marseille","lat":43.29294,"lon":5.374663,"is_reserved":false,"is_disabled":false,"rental_uris":{"android":"levelo://app?vid=37380694-dff0-4826-9195-3424b1654af8","ios":"levelo://app?vid=37380694-dff0-4826-9195-3424b1654af8"},"vehicle_type_id":"4","last_reported":1743099215,"current_range_meters":3600,"station_id":"ce4bgi12rcd13ifvqb70","pricing_plan_id":"cebpf4jnsgd1na2vs0mg"},{"bike_id":"3aa2d9f5-f038-410c-868f-e3bbc22500b8","system_id":"levelo_inurba_marseille","lat":43.28857,"lon":5.35859,"is_reserved":false,"is_disabled":false,"rental_uris":{"android":"levelo://app?vid=3aa2d9f5-f038-410c-868f-e3bbc22500b8","ios":"levelo://app?vid=3aa2d9f5-f038-410c-868f-e3bbc22500b8"},"vehicle_type_id":"4","last_reported":1743099215,"current_range_meters":3600,"station_id":"ce4bhb12rcd13ifvqem0","pricing_plan_id":"cebpf4jnsgd1na2vs0mg"},{"bike_id":"364292e4-1d31-4f90-bbd4-0d3b85ff314e","system_id":"levelo_inurba_marseille","lat":43.26796,"lon":5.39414,"is_reserved":false,"is_disabled":false,"rental_uris":{"android":"levelo://app?vid=364292e4-1d31-4f90-bbd4-0d3b85ff314e","ios":"levelo://app?vid=364292e4-1d31-4f90-bbd4-0d3b85ff314e"},"vehicle_type_id":"4","last_reported":1743099215,"current_range_meters":3200,"station_id":"ce4bhh12rcd13ifvqfg0","pricing_plan_id":"cebpf4jnsgd1na2vs0mg"},{"bike_id":"77b0036b-3263-402a-a64b-fedd432655b0","system_id":"levelo_inurba_marseille","lat":43.28788,"lon":5.40148,"is_reserved":false,"is_disabled":false,"rental_uris":{"android":"levelo://app?vid=77b0036b-3263-402a-a64b-fedd432655b0","ios":"levelo://app?vid=77b0036b-3263-402a-a64b-fedd432655b0"},"vehicle_type_id":"4","last_reported":1743099215,"current_range_meters":3600,"station_id":"","pricing_plan_id":"cebpf4jnsgd1na2vs0mg"},{"bike_id":"b90ea539-cd4c-4e2f-8708-ffa01e215a77","system_id":"levelo_inurba_marseille","lat":43.27922,"lon":5.39575,"is_reserved":false,"is_disabled":false,"rental_uris":{"android":"levelo://app?vid=b90ea539-cd4c-4e2f-8708-ffa01e215a77","ios":"levelo://app?vid=b90ea539-cd4c-4e2f-8708-ffa01e215a77"},"vehicle_type_id":"4","last_reported":1743099215,"current_range_meters":3600,"station_id":"ce4bhf92rcd13ifvqf40","pricing_plan_id":"cebpf4jnsgd1na2vs0mg"},{"bike_id":"5673521f-b96a-45a4-ac05-9c91852fbf85","system_id":"levelo_inurba_marseille","lat":43.29424,"lon":5.38643,"is_reserved":false,"is_disabled":false,"rental_uris":{"android":"levelo://app?vid=5673521f-b96a-45a4-ac05-9c91852fbf85","ios":"levelo://app?vid=5673521f-b96a-45a4-ac05-9c91852fbf85"},"vehicle_type_id":"4","last_reported":1743099215,"current_range_meters":3600,"station_id":"ce4bh2h2rcd13ifvqdh0","pricing_plan_id":"cebpf4jnsgd1na2vs0mg"},{"bike_id":"0589dea5-9f46-4d3c-acbb-e8d1028f891a","system_id":"levelo_inurba_marseille","lat":43.2927,"lon":5.36851,"is_reserved":false,"is_disabled":false,"rental_uris":{"android":"levelo://app?vid=0589dea5-9f46-4d3c-acbb-e8d1028f891a","ios":"levelo://app?vid=0589dea5-9f46-4d3c-acbb-e8d1028f891a"},"vehicle_type_id":"4","last_reported":1743099215,"current_range_meters":3600,"station_id":"ce4bhbp2rcd13ifvqesg","pricing_plan_id":"cebpf4jnsgd1na2vs0mg"},{"bike_id":"8214dc61-4784-4263-b26e-59cdfa48e95e","system_id":"levelo_inurba_marseille","lat":43.28611,"lon":5.37064,"is_reserved":false,"is_disabled":false,"rental_uris":{"android":"levelo://app?vid=8214dc61-4784-4263-b26e-59cdfa48e95e","ios":"levelo://app?vid=8214dc61-4784-4263-b26e-59cdfa48e95e"},"vehicle_type_id":"4","last_reported":1743099215,"current_range_meters":3600,"station_id":"ce4bht12rcd13ifvqi60","pricing_plan_id":"cebpf4jnsgd1na2vs0mg"},{"bike_id":"7d2b5a8b-2abb-4163-aa8a-19975efc7a46","system_id":"levelo_inurba_marseille","lat":43.2942,"lon":5.38624,"is_reserved":false,"is_disabled":false,"rental_uris":{"android":"levelo://app?vid=7d2b5a8b-2abb-4163-aa8a-19975efc7a46","ios":"levelo://app?vid=7d2b5a8b-2abb-4163-aa8a-19975efc7a46"},"vehicle_type_id":"4","last_reported":1743099215,"current_range_meters":4000,"station_id":"ce4bh2h2rcd13ifvqdh0","pricing_plan_id":"cebpf4jnsgd1na2vs0mg"},{"bike_id":"b43941ad-db3a-4985-abba-b133b6738032","system_id":"levelo_inurba_marseille","lat":43.29224,"lon":5.36066,"is_reserved":false,"is_disabled":false,"rental_uris":{"android":"levelo://app?vid=b43941ad-db3a-4985-abba-b133b6738032","ios":"levelo://app?vid=b43941ad-db3a-4985-abba-b133b6738032"},"vehicle_type_id":"4","last_reported":1743099215,"current_range_meters":4000,"station_id":"ce4bhbh2rcd13ifvqeqg","pricing_plan_id":"cebpf4jnsgd1na2vs0mg"},{"bike_id":"3d81f6da-fe9d-4934-ad4c-1141e1eecd92","system_id":"levelo_inurba_marseille","lat":43.24164,"lon":5.364087,"is_reserved":false,"is_disabled":true,"rental_uris":{"android":"levelo://app?vid=3d81f6da-fe9d-4934-ad4c-1141e1eecd92","ios":"levelo://app?vid=3d81f6da-fe9d-4934-ad4c-1141e1eecd92"},"vehicle_type_id":"4","last_reported":1743099215,"current_range_meters":4000,"station_id":"cpo36qri1sfpv3e86is0","pricing_plan_id":"cebpf4jnsgd1na2vs0mg"},{"bike_id":"08005dc8-fa8e-4f7f-8ce5-7b7e146dc54b","system_id":"levelo_inurba_marseille","lat":43.29888,"lon":5.36461,"is_reserved":false,"is_disabled":false,"rental_uris":{"android":"levelo://app?vid=08005dc8-fa8e-4f7f-8ce5-7b7e146dc54b","ios":"levelo://app?vid=08005dc8-fa8e-4f7f-8ce5-7b7e146dc54b"},"vehicle_type_id":"4","last_reported":1743099215,"current_range_meters":4000,"station_id":"","pricing_plan_id":"cebpf4jnsgd1na2vs0mg"},{"bike_id":"b501e66c-90dc-42b8-920a-de3982ca9ad9","system_id":"levelo_inurba_marseille","lat":43.254961,"lon":5.376488,"is_reserved":false,"is_disabled":false,"rental_uris":{"android":"levelo://app?vid=b501e66c-90dc-42b8-920a-de3982ca9ad9","ios":"levelo://app?vid=b501e66c-90dc-42b8-920a-de3982ca9ad9"},"vehicle_type_id":"4","last_reported":1743099215,"current_range_meters":4000,"station_id":"ce4bhh12rcd13ifvqff0","pricing_plan_id":"cebpf4jnsgd1na2vs0mg"},{"bike_id":"9f686b7f-1026-48b4-87f5-6432105e8660","system_id":"levelo_inurba_marseille","lat":43.32359,"lon":5.38892,"is_reserved":false,"is_disabled":false,"rental_uris":{"android":"levelo://app?vid=9f686b7f-1026-48b4-87f5-6432105e8660","ios":"levelo://app?vid=9f686b7f-1026-48b4-87f5-6432105e8660"},"vehicle_type_id":"4","last_reported":1743099215,"current_range_meters":4000,"station_id":"ce4bhqp2rcd13ifvqhog","pricing_plan_id":"cebpf4jnsgd1na2vs0mg"},{"bike_id":"ebf7cbe0-96e5-4a9d-8ee9-e8732dfbf243","system_id":"levelo_inurba_marseille","lat":43.29851,"lon":5.36286,"is_reserved":false,"is_disabled":false,"rental_uris":{"android":"levelo://app?vid=ebf7cbe0-96e5-4a9d-8ee9-e8732dfbf243","ios":"levelo://app?vid=ebf7cbe0-96e5-4a9d-8ee9-e8732dfbf243"},"vehicle_type_id":"4","last_reported":1743099215,"current_range_meters":4000,"station_id":"ce4bgpp2rcd13ifvqc3g","pricing_plan_id":"cebpf4jnsgd1na2vs0mg"},{"bike_id":"c30893f6-f803-4d16-9558-5474edf22689","system_id":"levelo_inurba_marseille","lat":43.28153,"lon":5.42617,"is_reserved":false,"is_disabled":false,"rental_uris":{"android":"levelo://app?vid=c30893f6-f803-4d16-9558-5474edf22689","ios":"levelo://app?vid=c30893f6-f803-4d16-9558-5474edf22689"},"vehicle_type_id":"4","last_reported":1743099215,"current_range_meters":4000,"station_id":"ce4bhnh2rcd13ifvqgug","pricing_plan_id":"cebpf4jnsgd1na2vs0mg"},{"bike_id":"24587414-cbde-4e98-b525-208cb249b06c","system_id":"levelo_inurba_marseille","lat":43.28079,"lon":5.39657,"is_reserved":false,"is_disabled":false,"rental_uris":{"android":"levelo://app?vid=24587414-cbde-4e98-b525-208cb249b06c","ios":"levelo://app?vid=24587414-cbde-4e98-b525-208cb249b06c"},"vehicle_type_id":"4","last_reported":1743099215,"current_range_meters":4000,"station_id":"ce4bho12rcd13ifvqh2g","pricing_plan_id":"cebpf4jnsgd1na2vs0mg"},{"bike_id":"5ab2cefc-01cd-4e8a-a56b-91c71a521b8c","system_id":"levelo_inurba_marseille","lat":43.28569,"lon":5.39509,"is_reserved":false,"is_disabled":false,"rental_uris":{"android":"levelo://app?vid=5ab2cefc-01cd-4e8a-a56b-91c71a521b8c","ios":"levelo://app?vid=5ab2cefc-01cd-4e8a-a56b-91c71a521b8c"},"vehicle_type_id":"4","last_reported":1743099215,"current_range_meters":4000,"station_id":"ce4bh292rcd13ifvqdg0","pricing_plan_id":"cebpf4jnsgd1na2vs0mg"},{"bike_id":"8db44b9e-9226-45cc-b70c-1ddd878f1aa3","system_id":"levelo_inurba_marseille","lat":43.29266,"lon":5.3764,"is_reserved":false,"is_disabled":false,"rental_uris":{"android":"levelo://app?vid=8db44b9e-9226-45cc-b70c-1ddd878f1aa3","ios":"levelo://app?vid=8db44b9e-9226-45cc-b70c-1ddd878f1aa3"},"vehicle_type_id":"4","last_reported":1743099215,"current_range_meters":4400,"station_id":"ce4bgi12rcd13ifvqb80","pricing_plan_id":"cebpf4jnsgd1na2vs0mg"},{"bike_id":"0c8ec858-0e5d-4b65-9bd8-7a78ab47fb57","system_id":"levelo_inurba_marseille","lat":43.23964,"lon":5.36636,"is_reserved":false,"is_disabled":false,"rental_uris":{"android":"levelo://app?vid=0c8ec858-0e5d-4b65-9bd8-7a78ab47fb57","ios":"levelo://app?vid=0c8ec858-0e5d-4b65-9bd8-7a78ab47fb57"},"vehicle_type_id":"4","last_reported":1743099215,"current_range_meters":4400,"station_id":"ce4bhi12rcd13ifvqfp0","pricing_plan_id":"cebpf4jnsgd1na2vs0mg"},{"bike_id":"adfdc4e8-23d5-4a8e-903a-2e278ad3a90c","system_id":"levelo_inurba_marseille","lat":43.30784,"lon":5.37645,"is_reserved":false,"is_disabled":false,"rental_uris":{"android":"levelo://app?vid=adfdc4e8-23d5-4a8e-903a-2e278ad3a90c","ios":"levelo://app?vid=adfdc4e8-23d5-4a8e-903a-2e278ad3a90c"},"vehicle_type_id":"4","last_reported":1743099215,"current_range_meters":4400,"station_id":"ce4bgv92rcd13ifvqcq0","pricing_plan_id":"cebpf4jnsgd1na2vs0mg"},{"bike_id":"a3e6f248-b75b-40dc-9ce0-a569e7377691","system_id":"levelo_inurba_marseille","lat":43.259313,"lon":5.409093,"is_reserved":false,"is_disabled":true,"rental_uris":{"android":"levelo://app?vid=a3e6f248-b75b-40dc-9ce0-a569e7377691","ios":"levelo://app?vid=a3e6f248-b75b-40dc-9ce0-a569e7377691"},"vehicle_type_id":"4","last_reported":1743099215,"current_range_meters":4400,"station_id":"ce4bhm92rcd13ifvqglg","pricing_plan_id":"cebpf4jnsgd1na2vs0mg"},{"bike_id":"a0a2cce5-1f14-454b-9644-692260e57521","system_id":"levelo_inurba_marseille","lat":43.29068,"lon":5.37146,"is_reserved":false,"is_disabled":false,"rental_uris":{"android":"levelo://app?vid=a0a2cce5-1f14-454b-9644-692260e57521","ios":"levelo://app?vid=a0a2cce5-1f14-454b-9644-692260e57521"},"vehicle_type_id":"4","last_reported":1743099215,"current_range_meters":4400,"station_id":"ce4bh5p2rcd13ifvqe4g","pricing_plan_id":"cebpf4jnsgd1na2vs0mg"},{"bike_id":"e3a29d38-a611-4b12-87ef-2fb8a21c41d5","system_id":"levelo_inurba_marseille","lat":43.22924,"lon":5.35374,"is_reserved":false,"is_disabled":false,"rental_uris":{"android":"levelo://app?vid=e3a29d38-a611-4b12-87ef-2fb8a21c41d5","ios":"levelo://app?vid=e3a29d38-a611-4b12-87ef-2fb8a21c41d5"},"vehicle_type_id":"4","last_reported":1743099215,"current_range_meters":4400,"station_id":"cpo3532slgdg3j2ikp40","pricing_plan_id":"cebpf4jnsgd1na2vs0mg"},{"bike_id":"52951885-9398-47d5-874e-79aa111c0a53","system_id":"levelo_inurba_marseille","lat":43.26571,"lon":5.3902,"is_reserved":false,"is_disabled":false,"rental_uris":{"android":"levelo://app?vid=52951885-9398-47d5-874e-79aa111c0a53","ios":"levelo://app?vid=52951885-9398-47d5-874e-79aa111c0a53"},"vehicle_type_id":"4","last_reported":1743099215,"current_range_meters":4400,"station_id":"ce4bhe12rcd13ifvqf30","pricing_plan_id":"cebpf4jnsgd1na2vs0mg"},{"bike_id":"8f761ec1-c395-4f90-9298-c611c5012c24","system_id":"levelo_inurba_marseille","lat":43.30881,"lon":5.39661,"is_reserved":false,"is_disabled":false,"rental_uris":{"android":"levelo://app?vid=8f761ec1-c395-4f90-9298-c611c5012c24","ios":"levelo://app?vid=8f761ec1-c395-4f90-9298-c611c5012c24"},"vehicle_type_id":"4","last_reported":1743099215,"current_range_meters":4400,"station_id":"ce4bh012rcd13ifvqcv0","pricing_plan_id":"cebpf4jnsgd1na2vs0mg"},{"bike_id":"be8a41db-eea2-47cf-bebb-e73e183aeba7","system_id":"levelo_inurba_marseille","lat":43.28451,"lon":5.39197,"is_reserved":false,"is_disabled":false,"rental_uris":{"android":"levelo://app?vid=be8a41db-eea2-47cf-bebb-e73e183aeba7","ios":"levelo://app?vid=be8a41db-eea2-47cf-bebb-e73e183aeba7"},"vehicle_type_id":"4","last_reported":1743099215,"current_range_meters":4400,"station_id":"ce4bhoh2rcd13ifvqh5g","pricing_plan_id":"cebpf4jnsgd1na2vs0mg"},{"bike_id":"c1daa32e-a819-40a5-8fe8-43db865a7f78","system_id":"levelo_inurba_marseille","lat":43.28106,"lon":5.3784,"is_reserved":false,"is_disabled":false,"rental_uris":{"android":"levelo://app?vid=c1daa32e-a819-40a5-8fe8-43db865a7f78","ios":"levelo://app?vid=c1daa32e-a819-40a5-8fe8-43db865a7f78"},"vehicle_type_id":"4","last_reported":1743099215,"current_range_meters":4000,"station_id":"ce4bha12rcd13ifvqee0","pricing_plan_id":"cebpf4jnsgd1na2vs0mg"},{"bike_id":"c2af4863-6bc9-407e-94b5-7ef40e8a2fed","system_id":"levelo_inurba_marseille","lat":43.31714,"lon":5.43707,"is_reserved":false,"is_disabled":false,"rental_uris":{"android":"levelo://app?vid=c2af4863-6bc9-407e-94b5-7ef40e8a2fed","ios":"levelo://app?vid=c2af4863-6bc9-407e-94b5-7ef40e8a2fed"},"vehicle_type_id":"4","last_reported":1743099215,"current_range_meters":4800,"station_id":"ce4bhp92rcd13ifvqhcg","pricing_plan_id":"cebpf4jnsgd1na2vs0mg"},{"bike_id":"f51f801c-e46f-4465-9179-e07d6a1eea17","system_id":"levelo_inurba_marseille","lat":43.28865,"lon":5.35852,"is_reserved":false,"is_disabled":false,"rental_uris":{"android":"levelo://app?vid=f51f801c-e46f-4465-9179-e07d6a1eea17","ios":"levelo://app?vid=f51f801c-e46f-4465-9179-e07d6a1eea17"},"vehicle_type_id":"4","last_reported":1743099215,"current_range_meters":4800,"station_id":"ce4bhb12rcd13ifvqem0","pricing_plan_id":"cebpf4jnsgd1na2vs0mg"},{"bike_id":"c1b8a5da-cf21-4eb3-9a48-3a4692338c61","system_id":"levelo_inurba_marseille","lat":43.28735,"lon":5.40013,"is_reserved":false,"is_disabled":true,"rental_uris":{"android":"levelo://app?vid=c1b8a5da-cf21-4eb3-9a48-3a4692338c61","ios":"levelo://app?vid=c1b8a5da-cf21-4eb3-9a48-3a4692338c61"},"vehicle_type_id":"4","last_reported":1743099215,"current_range_meters":4800,"station_id":"ce4bho92rcd13ifvqh3g","pricing_plan_id":"cebpf4jnsgd1na2vs0mg"},{"bike_id":"5b63811e-7388-4232-9de3-97be58a96e86","system_id":"levelo_inurba_marseille","lat":43.29701,"lon":5.36581,"is_reserved":false,"is_disabled":false,"rental_uris":{"android":"levelo://app?vid=5b63811e-7388-4232-9de3-97be58a96e86","ios":"levelo://app?vid=5b63811e-7388-4232-9de3-97be58a96e86"},"vehicle_type_id":"4","last_reported":1743099215,"current_range_meters":4800,"station_id":"ce4bgn12rcd13ifvqbt0","pricing_plan_id":"cebpf4jnsgd1na2vs0mg"},{"bike_id":"f639ec0b-ed1e-41fb-8420-26b500df4945","system_id":"levelo_inurba_marseille","lat":43.2979,"lon":5.39353,"is_reserved":false,"is_disabled":false,"rental_uris":{"android":"levelo://app?vid=f639ec0b-ed1e-41fb-8420-26b500df4945","ios":"levelo://app?vid=f639ec0b-ed1e-41fb-8420-26b500df4945"},"vehicle_type_id":"4","last_reported":1743099215,"current_range_meters":4800,"station_id":"chh1huq6cuj3fo74tm60","pricing_plan_id":"cebpf4jnsgd1na2vs0mg"},{"bike_id":"ce08bd2b-684c-4a3f-96e2-0c7e2d19b2f5","system_id":"levelo_inurba_marseille","lat":43.30208,"lon":5.39472,"is_reserved":false,"is_disabled":false,"rental_uris":{"android":"levelo://app?vid=ce08bd2b-684c-4a3f-96e2-0c7e2d19b2f5","ios":"levelo://app?vid=ce08bd2b-684c-4a3f-96e2-0c7e2d19b2f5"},"vehicle_type_id":"4","last_reported":1743099215,"current_range_meters":4800,"station_id":"ce4bh0p2rcd13ifvqd70","pricing_plan_id":"cebpf4jnsgd1na2vs0mg"},{"bike_id":"3fc6babf-22fc-4e55-b615-adb5d2237bb5","system_id":"levelo_inurba_marseille","lat":43.272064,"lon":5.391859,"is_reserved":false,"is_disabled":false,"rental_uris":{"android":"levelo://app?vid=3fc6babf-22fc-4e55-b615-adb5d2237bb5","ios":"levelo://app?vid=3fc6babf-22fc-4e55-b615-adb5d2237bb5"},"vehicle_type_id":"4","last_reported":1743099215,"current_range_meters":5600,"station_id":"ce4bhhp2rcd13ifvqfm0","pricing_plan_id":"cebpf4jnsgd1na2vs0mg"},{"bike_id":"4d29673d-54e7-48d2-9c9f-1d02cf66fc24","system_id":"levelo_inurba_marseille","lat":43.286,"lon":5.38415,"is_reserved":false,"is_disabled":false,"rental_uris":{"android":"levelo://app?vid=4d29673d-54e7-48d2-9c9f-1d02cf66fc24","ios":"levelo://app?vid=4d29673d-54e7-48d2-9c9f-1d02cf66fc24"},"vehicle_type_id":"4","last_reported":1743099215,"current_range_meters":5600,"station_id":"","pricing_plan_id":"cebpf4jnsgd1na2vs0mg"},{"bike_id":"1dd765a9-64b4-439c-a196-df55419cc971","system_id":"levelo_inurba_marseille","lat":43.241682,"lon":5.36393,"is_reserved":false,"is_disabled":false,"rental_uris":{"android":"levelo://app?vid=1dd765a9-64b4-439c-a196-df55419cc971","ios":"levelo://app?vid=1dd765a9-64b4-439c-a196-df55419cc971"},"vehicle_type_id":"4","last_reported":1743099215,"current_range_meters":5600,"station_id":"cpo36qri1sfpv3e86is0","pricing_plan_id":"cebpf4jnsgd1na2vs0mg"},{"bike_id":"801896e7-755d-43a7-83a6-45b2fcb1c518","system_id":"levelo_inurba_marseille","lat":43.30356,"lon":5.41878,"is_reserved":false,"is_disabled":false,"rental_uris":{"android":"levelo://app?vid=801896e7-755d-43a7-83a6-45b2fcb1c518","ios":"levelo://app?vid=801896e7-755d-43a7-83a6-45b2fcb1c518"},"vehicle_type_id":"4","last_reported":1743099215,"current_range_meters":5600,"station_id":"ce4bhop2rcd13ifvqh7g","pricing_plan_id":"cebpf4jnsgd1na2vs0mg"},{"bike_id":"1aeb8658-bc9e-4103-9bef-7f7d91e79095","system_id":"levelo_inurba_marseille","lat":43.29425,"lon":5.38622,"is_reserved":false,"is_disabled":false,"rental_uris":{"android":"levelo://app?vid=1aeb8658-bc9e-4103-9bef-7f7d91e79095","ios":"levelo://app?vid=1aeb8658-bc9e-4103-9bef-7f7d91e79095"},"vehicle_type_id":"4","last_reported":1743099215,"current_range_meters":5600,"station_id":"ce4bh2h2rcd13ifvqdh0","pricing_plan_id":"cebpf4jnsgd1na2vs0mg"},{"bike_id":"f2704b9c-c316-4f5f-9155-65f7581186ce","system_id":"levelo_inurba_marseille","lat":43.28051,"lon":5.36942,"is_reserved":false,"is_disabled":false,"rental_uris":{"android":"levelo://app?vid=f2704b9c-c316-4f5f-9155-65f7581186ce","ios":"levelo://app?vid=f2704b9c-c316-4f5f-9155-65f7581186ce"},"vehicle_type_id":"4","last_reported":1743099215,"current_range_meters":5600,"station_id":"ce4bha12rcd13ifvqef0","pricing_plan_id":"cebpf4jnsgd1na2vs0mg"},{"bike_id":"c4ca721d-539d-4713-b85e-917b26db8c0b","system_id":"levelo_inurba_marseille","lat":43.28275,"lon":5.35069,"is_reserved":false,"is_disabled":false,"rental_uris":{"android":"levelo://app?vid=c4ca721d-539d-4713-b85e-917b26db8c0b","ios":"levelo://app?vid=c4ca721d-539d-4713-b85e-917b26db8c0b"},"vehicle_type_id":"4","last_reported":1743099215,"current_range_meters":5600,"station_id":"ce4bhbp2rcd13ifvqerg","pricing_plan_id":"cebpf4jnsgd1na2vs0mg"},{"bike_id":"1bb99c08-e914-4daf-9e19-ae5a0ac8a260","system_id":"levelo_inurba_marseille","lat":43.25005,"lon":5.38923,"is_reserved":false,"is_disabled":false,"rental_uris":{"android":"levelo://app?vid=1bb99c08-e914-4daf-9e19-ae5a0ac8a260","ios":"levelo://app?vid=1bb99c08-e914-4daf-9e19-ae5a0ac8a260"},"vehicle_type_id":"4","last_reported":1743099215,"current_range_meters":6000,"station_id":"ce4bhgp2rcd13ifvqfd0","pricing_plan_id":"cebpf4jnsgd1na2vs0mg"},{"bike_id":"74780e9e-e9d4-4713-9612-faac58402c70","system_id":"levelo_inurba_marseille","lat":43.28413,"lon":5.34996,"is_reserved":false,"is_disabled":false,"rental_uris":{"android":"levelo://app?vid=74780e9e-e9d4-4713-9612-faac58402c70","ios":"levelo://app?vid=74780e9e-e9d4-4713-9612-faac58402c70"},"vehicle_type_id":"4","last_reported":1743099215,"current_range_meters":6000,"station_id":"ce4bhbh2rcd13ifvqepg","pricing_plan_id":"cebpf4jnsgd1na2vs0mg"},{"bike_id":"a2cca4d0-900f-4d24-81a4-a34f6c38f996","system_id":"levelo_inurba_marseille","lat":43.26947,"lon":5.40256,"is_reserved":false,"is_disabled":false,"rental_uris":{"android":"levelo://app?vid=a2cca4d0-900f-4d24-81a4-a34f6c38f996","ios":"levelo://app?vid=a2cca4d0-900f-4d24-81a4-a34f6c38f996"},"vehicle_type_id":"4","last_reported":1743099215,"current_range_meters":6000,"station_id":"cjm6bp8fraef2m0cb0m0","pricing_plan_id":"cebpf4jnsgd1na2vs0mg"},{"bike_id":"25319f31-6ef5-46a0-9322-f807f9031800","system_id":"levelo_inurba_marseille","lat":43.24167,"lon":5.36393,"is_reserved":false,"is_disabled":false,"rental_uris":{"android":"levelo://app?vid=25319f31-6ef5-46a0-9322-f807f9031800","ios":"levelo://app?vid=25319f31-6ef5-46a0-9322-f807f9031800"},"vehicle_type_id":"4","last_reported":1743099215,"current_range_meters":6000,"station_id":"cpo36qri1sfpv3e86is0","pricing_plan_id":"cebpf4jnsgd1na2vs0mg"},{"bike_id":"86ae9d9b-bbed-4cd1-b3f2-09a08b9425c1","system_id":"levelo_inurba_marseille","lat":43.29256,"lon":5.37631,"is_reserved":false,"is_disabled":false,"rental_uris":{"android":"levelo://app?vid=86ae9d9b-bbed-4cd1-b3f2-09a08b9425c1","ios":"levelo://app?vid=86ae9d9b-bbed-4cd1-b3f2-09a08b9425c1"},"vehicle_type_id":"4","last_reported":1743099215,"current_range_meters":6000,"station_id":"ce4bgi12rcd13ifvqb80","pricing_plan_id":"cebpf4jnsgd1na2vs0mg"},{"bike_id":"ff23c742-830f-48a1-b7fc-a870dbc130e6","system_id":"levelo_inurba_marseille","lat":43.312428,"lon":5.401481,"is_reserved":false,"is_disabled":false,"rental_uris":{"android":"levelo://app?vid=ff23c742-830f-48a1-b7fc-a870dbc130e6","ios":"levelo://app?vid=ff23c742-830f-48a1-b7fc-a870dbc130e6"},"vehicle_type_id":"4","last_reported":1743099215,"current_range_meters":6000,"station_id":"ce4bh092rcd13ifvqd30","pricing_plan_id":"cebpf4jnsgd1na2vs0mg"},{"bike_id":"1d82dbff-960b-48e5-a75f-2e69faba6d3e","system_id":"levelo_inurba_marseille","lat":43.23195,"lon":5.35558,"is_reserved":false,"is_disabled":false,"rental_uris":{"android":"levelo://app?vid=1d82dbff-960b-48e5-a75f-2e69faba6d3e","ios":"levelo://app?vid=1d82dbff-960b-48e5-a75f-2e69faba6d3e"},"vehicle_type_id":"4","last_reported":1743099215,"current_range_meters":6000,"station_id":"ce4bhu92rcd13ifvqi70","pricing_plan_id":"cebpf4jnsgd1na2vs0mg"},{"bike_id":"25422c2f-62e8-468a-82ce-6042cfba5bcc","system_id":"levelo_inurba_marseille","lat":43.30305,"lon":5.39229,"is_reserved":false,"is_disabled":false,"rental_uris":{"android":"levelo://app?vid=25422c2f-62e8-468a-82ce-6042cfba5bcc","ios":"levelo://app?vid=25422c2f-62e8-468a-82ce-6042cfba5bcc"},"vehicle_type_id":"4","last_reported":1743099215,"current_range_meters":6400,"station_id":"ce4bgkh2rcd13ifvqbk0","pricing_plan_id":"cebpf4jnsgd1na2vs0mg"},{"bike_id":"be4f4aa9-5e9f-40a8-9083-327bbc9faa51","system_id":"levelo_inurba_marseille","lat":43.31289,"lon":5.38291,"is_reserved":false,"is_disabled":false,"rental_uris":{"android":"levelo://app?vid=be4f4aa9-5e9f-40a8-9083-327bbc9faa51","ios":"levelo://app?vid=be4f4aa9-5e9f-40a8-9083-327bbc9faa51"},"vehicle_type_id":"4","last_reported":1743099215,"current_range_meters":6400,"station_id":"","pricing_plan_id":"cebpf4jnsgd1na2vs0mg"},{"bike_id":"d46b4ab0-1fca-45c9-b143-6a3bd7bf1a28","system_id":"levelo_inurba_marseille","lat":43.30109,"lon":5.39074,"is_reserved":false,"is_disabled":false,"rental_uris":{"android":"levelo://app?vid=d46b4ab0-1fca-45c9-b143-6a3bd7bf1a28","ios":"levelo://app?vid=d46b4ab0-1fca-45c9-b143-6a3bd7bf1a28"},"vehicle_type_id":"4","last_reported":1743099215,"current_range_meters":6400,"station_id":"ce4bh192rcd13ifvqdb0","pricing_plan_id":"cebpf4jnsgd1na2vs0mg"},{"bike_id":"e018dbe5-12b2-4b3a-acd5-20080c889db5","system_id":"levelo_inurba_marseille","lat":43.30882,"lon":5.3965,"is_reserved":false,"is_disabled":false,"rental_uris":{"android":"levelo://app?vid=e018dbe5-12b2-4b3a-acd5-20080c889db5","ios":"levelo://app?vid=e018dbe5-12b2-4b3a-acd5-20080c889db5"},"vehicle_type_id":"4","last_reported":1743099215,"current_range_meters":6400,"station_id":"ce4bh012rcd13ifvqcv0","pricing_plan_id":"cebpf4jnsgd1na2vs0mg"},{"bike_id":"745db27b-7d09-42e9-857e-1a3c13cd5302","system_id":"levelo_inurba_marseille","lat":43.23182,"lon":5.35531,"is_reserved":false,"is_disabled":false,"rental_uris":{"android":"levelo://app?vid=745db27b-7d09-42e9-857e-1a3c13cd5302","ios":"levelo://app?vid=745db27b-7d09-42e9-857e-1a3c13cd5302"},"vehicle_type_id":"4","last_reported":1743099215,"current_range_meters":6800,"station_id":"ce4bhu92rcd13ifvqi70","pricing_plan_id":"cebpf4jnsgd1na2vs0mg"},{"bike_id":"84a7a785-5392-42bc-8088-fb903bcc7f5c","system_id":"levelo_inurba_marseille","lat":43.23077,"lon":5.35477,"is_reserved":false,"is_disabled":false,"rental_uris":{"android":"levelo://app?vid=84a7a785-5392-42bc-8088-fb903bcc7f5c","ios":"levelo://app?vid=84a7a785-5392-42bc-8088-fb903bcc7f5c"},"vehicle_type_id":"4","last_reported":1743099215,"current_range_meters":6800,"station_id":"cpo3342slgdg3j2ifvpg","pricing_plan_id":"cebpf4jnsgd1na2vs0mg"},{"bike_id":"87d90627-be88-4511-98c8-a013934dae08","system_id":"levelo_inurba_marseille","lat":43.288417,"lon":5.357743,"is_reserved":false,"is_disabled":false,"rental_uris":{"android":"levelo://app?vid=87d90627-be88-4511-98c8-a013934dae08","ios":"levelo://app?vid=87d90627-be88-4511-98c8-a013934dae08"},"vehicle_type_id":"4","last_reported":1743099215,"current_range_meters":6800,"station_id":"","pricing_plan_id":"cebpf4jnsgd1na2vs0mg"},{"bike_id":"795063b1-bbcb-4106-a9e7-6aa8fb383fb3","system_id":"levelo_inurba_marseille","lat":43.28154,"lon":5.42625,"is_reserved":false,"is_disabled":false,"rental_uris":{"android":"levelo://app?vid=795063b1-bbcb-4106-a9e7-6aa8fb383fb3","ios":"levelo://app?vid=795063b1-bbcb-4106-a9e7-6aa8fb383fb3"},"vehicle_type_id":"4","last_reported":1743099215,"current_range_meters":6800,"station_id":"ce4bhnh2rcd13ifvqgug","pricing_plan_id":"cebpf4jnsgd1na2vs0mg"},{"bike_id":"be09ad3d-53dc-4572-a01c-d7b4169c3a72","system_id":"levelo_inurba_marseille","lat":43.28945,"lon":5.3663,"is_reserved":false,"is_disabled":false,"rental_uris":{"android":"levelo://app?vid=be09ad3d-53dc-4572-a01c-d7b4169c3a72","ios":"levelo://app?vid=be09ad3d-53dc-4572-a01c-d7b4169c3a72"},"vehicle_type_id":"4","last_reported":1743099215,"current_range_meters":6800,"station_id":"ce4bhap2rcd13ifvqek0","pricing_plan_id":"cebpf4jnsgd1na2vs0mg"},{"bike_id":"3f9d0016-6db6-4f28-8306-8b62412b401a","system_id":"levelo_inurba_marseille","lat":43.26495,"lon":5.39549,"is_reserved":false,"is_disabled":false,"rental_uris":{"android":"levelo://app?vid=3f9d0016-6db6-4f28-8306-8b62412b401a","ios":"levelo://app?vid=3f9d0016-6db6-4f28-8306-8b62412b401a"},"vehicle_type_id":"4","last_reported":1743099215,"current_range_meters":6800,"station_id":"ce4bhi12rcd13ifvqfq0","pricing_plan_id":"cebpf4jnsgd1na2vs0mg"},{"bike_id":"9909698b-2726-42ef-a75a-24e460d5e183","system_id":"levelo_inurba_marseille","lat":43.24552,"lon":5.39541,"is_reserved":false,"is_disabled":false,"rental_uris":{"android":"levelo://app?vid=9909698b-2726-42ef-a75a-24e460d5e183","ios":"levelo://app?vid=9909698b-2726-42ef-a75a-24e460d5e183"},"vehicle_type_id":"4","last_reported":1743099215,"current_range_meters":6800,"station_id":"ce4bhlp2rcd13ifvqgjg","pricing_plan_id":"cebpf4jnsgd1na2vs0mg"},{"bike_id":"85d0fa0c-b5b9-41cd-ba43-951901672dab","system_id":"levelo_inurba_marseille","lat":43.25591,"lon":5.38981,"is_reserved":false,"is_disabled":false,"rental_uris":{"android":"levelo://app?vid=85d0fa0c-b5b9-41cd-ba43-951901672dab","ios":"levelo://app?vid=85d0fa0c-b5b9-41cd-ba43-951901672dab"},"vehicle_type_id":"4","last_reported":1743099215,"current_range_meters":6800,"station_id":"","pricing_plan_id":"cebpf4jnsgd1na2vs0mg"},{"bike_id":"425db880-df71-400f-a56b-78196db3e2b0","system_id":"levelo_inurba_marseille","lat":43.28723,"lon":5.36096,"is_reserved":false,"is_disabled":false,"rental_uris":{"android":"levelo://app?vid=425db880-df71-400f-a56b-78196db3e2b0","ios":"levelo://app?vid=425db880-df71-400f-a56b-78196db3e2b0"},"vehicle_type_id":"4","last_reported":1743099215,"current_range_meters":6800,"station_id":"cki0cbj6b192h4jlfktg","pricing_plan_id":"cebpf4jnsgd1na2vs0mg"},{"bike_id":"9b0db4f1-c6a1-4ca7-86c5-ec1daffe0ea2","system_id":"levelo_inurba_marseille","lat":43.25092,"lon":5.39533,"is_reserved":false,"is_disabled":false,"rental_uris":{"android":"levelo://app?vid=9b0db4f1-c6a1-4ca7-86c5-ec1daffe0ea2","ios":"levelo://app?vid=9b0db4f1-c6a1-4ca7-86c5-ec1daffe0ea2"},"vehicle_type_id":"4","last_reported":1743099215,"current_range_meters":6800,"station_id":"ce4bhm12rcd13ifvqgkg","pricing_plan_id":"cebpf4jnsgd1na2vs0mg"},{"bike_id":"d81bce03-68fb-4a13-8c16-77ca672c24c3","system_id":"levelo_inurba_marseille","lat":43.274282,"lon":5.390407,"is_reserved":false,"is_disabled":false,"rental_uris":{"android":"levelo://app?vid=d81bce03-68fb-4a13-8c16-77ca672c24c3","ios":"levelo://app?vid=d81bce03-68fb-4a13-8c16-77ca672c24c3"},"vehicle_type_id":"4","last_reported":1743099215,"current_range_meters":7200,"station_id":"ce4bhi12rcd13ifvqfq0","pricing_plan_id":"cebpf4jnsgd1na2vs0mg"},{"bike_id":"f66807f4-ba07-4868-91f8-8064bdd17e20","system_id":"levelo_inurba_marseille","lat":43.277985,"lon":5.390685,"is_reserved":false,"is_disabled":false,"rental_uris":{"android":"levelo://app?vid=f66807f4-ba07-4868-91f8-8064bdd17e20","ios":"levelo://app?vid=f66807f4-ba07-4868-91f8-8064bdd17e20"},"vehicle_type_id":"4","last_reported":1743099215,"current_range_meters":6800,"station_id":"ce4bhg12rcd13ifvqf80","pricing_plan_id":"cebpf4jnsgd1na2vs0mg"},{"bike_id":"14a39aa8-5384-4979-b3d0-6356904ea214","system_id":"levelo_inurba_marseille","lat":43.28563,"lon":5.39499,"is_reserved":false,"is_disabled":false,"rental_uris":{"android":"levelo://app?vid=14a39aa8-5384-4979-b3d0-6356904ea214","ios":"levelo://app?vid=14a39aa8-5384-4979-b3d0-6356904ea214"},"vehicle_type_id":"4","last_reported":1743099215,"current_range_meters":7200,"station_id":"ce4bh292rcd13ifvqdg0","pricing_plan_id":"cebpf4jnsgd1na2vs0mg"},{"bike_id":"b3f87e70-4006-4aeb-9afb-a3572eb4634f","system_id":"levelo_inurba_marseille","lat":43.26952,"lon":5.38636,"is_reserved":false,"is_disabled":false,"rental_uris":{"android":"levelo://app?vid=b3f87e70-4006-4aeb-9afb-a3572eb4634f","ios":"levelo://app?vid=b3f87e70-4006-4aeb-9afb-a3572eb4634f"},"vehicle_type_id":"4","last_reported":1743099215,"current_range_meters":7200,"station_id":"ce4bhh92rcd13ifvqfh0","pricing_plan_id":"cebpf4jnsgd1na2vs0mg"},{"bike_id":"0cf911c4-d55b-4c29-9710-1cc80836d8ad","system_id":"levelo_inurba_marseille","lat":43.29039,"lon":5.38651,"is_reserved":false,"is_disabled":false,"rental_uris":{"android":"levelo://app?vid=0cf911c4-d55b-4c29-9710-1cc80836d8ad","ios":"levelo://app?vid=0cf911c4-d55b-4c29-9710-1cc80836d8ad"},"vehicle_type_id":"4","last_reported":1743099215,"current_range_meters":7200,"station_id":"ce4bh4p2rcd13ifvqe0g","pricing_plan_id":"cebpf4jnsgd1na2vs0mg"},{"bike_id":"3d954b51-869c-40d8-a384-e8741fd300a0","system_id":"levelo_inurba_marseille","lat":43.28413,"lon":5.37505,"is_reserved":false,"is_disabled":false,"rental_uris":{"android":"levelo://app?vid=3d954b51-869c-40d8-a384-e8741fd300a0","ios":"levelo://app?vid=3d954b51-869c-40d8-a384-e8741fd300a0"},"vehicle_type_id":"4","last_reported":1743099215,"current_range_meters":7200,"station_id":"ce4bh412rcd13ifvqds0","pricing_plan_id":"cebpf4jnsgd1na2vs0mg"},{"bike_id":"cd6683f8-bc17-4817-8da3-5a099b5c207d","system_id":"levelo_inurba_marseille","lat":43.29533,"lon":5.38551,"is_reserved":false,"is_disabled":false,"rental_uris":{"android":"levelo://app?vid=cd6683f8-bc17-4817-8da3-5a099b5c207d","ios":"levelo://app?vid=cd6683f8-bc17-4817-8da3-5a099b5c207d"},"vehicle_type_id":"4","last_reported":1743099215,"current_range_meters":7200,"station_id":"ce4bgih2rcd13ifvqba0","pricing_plan_id":"cebpf4jnsgd1na2vs0mg"},{"bike_id":"0fe5ebcd-c6a7-4b61-8f93-7fe3b67f9222","system_id":"levelo_inurba_marseille","lat":43.29227,"lon":5.36083,"is_reserved":false,"is_disabled":false,"rental_uris":{"android":"levelo://app?vid=0fe5ebcd-c6a7-4b61-8f93-7fe3b67f9222","ios":"levelo://app?vid=0fe5ebcd-c6a7-4b61-8f93-7fe3b67f9222"},"vehicle_type_id":"4","last_reported":1743099215,"current_range_meters":7200,"station_id":"ce4bhbh2rcd13ifvqeqg","pricing_plan_id":"cebpf4jnsgd1na2vs0mg"},{"bike_id":"6623bcce-557f-4122-835c-6ecbd0c74040","system_id":"levelo_inurba_marseille","lat":43.28466,"lon":5.35879,"is_reserved":false,"is_disabled":false,"rental_uris":{"android":"levelo://app?vid=6623bcce-557f-4122-835c-6ecbd0c74040","ios":"levelo://app?vid=6623bcce-557f-4122-835c-6ecbd0c74040"},"vehicle_type_id":"4","last_reported":1743099215,"current_range_meters":7200,"station_id":"ce4bhah2rcd13ifvqei0","pricing_plan_id":"cebpf4jnsgd1na2vs0mg"},{"bike_id":"dc8ccdc9-a018-4504-b0a9-676297905591","system_id":"levelo_inurba_marseille","lat":43.2929,"lon":5.36975,"is_reserved":false,"is_disabled":false,"rental_uris":{"android":"levelo://app?vid=dc8ccdc9-a018-4504-b0a9-676297905591","ios":"levelo://app?vid=dc8ccdc9-a018-4504-b0a9-676297905591"},"vehicle_type_id":"4","last_reported":1743099215,"current_range_meters":7200,"station_id":"","pricing_plan_id":"cebpf4jnsgd1na2vs0mg"},{"bike_id":"877287c8-4444-429b-b230-b181fe1706ab","system_id":"levelo_inurba_marseille","lat":43.25584,"lon":5.38246,"is_reserved":false,"is_disabled":false,"rental_uris":{"android":"levelo://app?vid=877287c8-4444-429b-b230-b181fe1706ab","ios":"levelo://app?vid=877287c8-4444-429b-b230-b181fe1706ab"},"vehicle_type_id":"4","last_reported":1743099215,"current_range_meters":7200,"station_id":"ce4bhih2rcd13ifvqfs0","pricing_plan_id":"cebpf4jnsgd1na2vs0mg"},{"bike_id":"d7fb939b-7c60-4a67-956c-044c3cbabbab","system_id":"levelo_inurba_marseille","lat":43.30938,"lon":5.40138,"is_reserved":false,"is_disabled":false,"rental_uris":{"android":"levelo://app?vid=d7fb939b-7c60-4a67-956c-044c3cbabbab","ios":"levelo://app?vid=d7fb939b-7c60-4a67-956c-044c3cbabbab"},"vehicle_type_id":"4","last_reported":1743099215,"current_range_meters":7200,"station_id":"ce4bgvp2rcd13ifvqct0","pricing_plan_id":"cebpf4jnsgd1na2vs0mg"},{"bike_id":"e53a1eb8-e926-4f74-b3ac-c2f1945803ef","system_id":"levelo_inurba_marseille","lat":43.28079,"lon":5.39667,"is_reserved":false,"is_disabled":true,"rental_uris":{"android":"levelo://app?vid=e53a1eb8-e926-4f74-b3ac-c2f1945803ef","ios":"levelo://app?vid=e53a1eb8-e926-4f74-b3ac-c2f1945803ef"},"vehicle_type_id":"4","last_reported":1743099215,"current_range_meters":8000,"station_id":"ce4bho12rcd13ifvqh2g","pricing_plan_id":"cebpf4jnsgd1na2vs0mg"},{"bike_id":"72407b9c-71b7-4feb-83e9-97e5f2a36163","system_id":"levelo_inurba_marseille","lat":43.24163,"lon":5.36398,"is_reserved":false,"is_disabled":false,"rental_uris":{"android":"levelo://app?vid=72407b9c-71b7-4feb-83e9-97e5f2a36163","ios":"levelo://app?vid=72407b9c-71b7-4feb-83e9-97e5f2a36163"},"vehicle_type_id":"4","last_reported":1743099215,"current_range_meters":8000,"station_id":"cpo36qri1sfpv3e86is0","pricing_plan_id":"cebpf4jnsgd1na2vs0mg"},{"bike_id":"3a5e18ad-6a23-4442-9c34-19c7bd17a17e","system_id":"levelo_inurba_marseille","lat":43.22928,"lon":5.3538,"is_reserved":false,"is_disabled":false,"rental_uris":{"android":"levelo://app?vid=3a5e18ad-6a23-4442-9c34-19c7bd17a17e","ios":"levelo://app?vid=3a5e18ad-6a23-4442-9c34-19c7bd17a17e"},"vehicle_type_id":"4","last_reported":1743099215,"current_range_meters":8000,"station_id":"cpo3532slgdg3j2ikp40","pricing_plan_id":"cebpf4jnsgd1na2vs0mg"},{"bike_id":"22f106dc-ea9d-40d1-99f0-8912a11fadcb","system_id":"levelo_inurba_marseille","lat":43.28084,"lon":5.37849,"is_reserved":false,"is_disabled":false,"rental_uris":{"android":"levelo://app?vid=22f106dc-ea9d-40d1-99f0-8912a11fadcb","ios":"levelo://app?vid=22f106dc-ea9d-40d1-99f0-8912a11fadcb"},"vehicle_type_id":"4","last_reported":1743099215,"current_range_meters":8000,"station_id":"ce4bha12rcd13ifvqee0","pricing_plan_id":"cebpf4jnsgd1na2vs0mg"},{"bike_id":"b2a4eb50-7a9c-4bc4-b519-26b9f7b8157f","system_id":"levelo_inurba_marseille","lat":43.32494,"lon":5.3657,"is_reserved":false,"is_disabled":false,"rental_uris":{"android":"levelo://app?vid=b2a4eb50-7a9c-4bc4-b519-26b9f7b8157f","ios":"levelo://app?vid=b2a4eb50-7a9c-4bc4-b519-26b9f7b8157f"},"vehicle_type_id":"4","last_reported":1743099215,"current_range_meters":8000,"station_id":"ce4bhs12rcd13ifvqhvg","pricing_plan_id":"cebpf4jnsgd1na2vs0mg"},{"bike_id":"aaffc2a5-ebc0-4875-a6c4-900154c889d2","system_id":"levelo_inurba_marseille","lat":43.30097,"lon":5.39092,"is_reserved":false,"is_disabled":false,"rental_uris":{"android":"levelo://app?vid=aaffc2a5-ebc0-4875-a6c4-900154c889d2","ios":"levelo://app?vid=aaffc2a5-ebc0-4875-a6c4-900154c889d2"},"vehicle_type_id":"4","last_reported":1743099215,"current_range_meters":8000,"station_id":"ce4bh192rcd13ifvqdb0","pricing_plan_id":"cebpf4jnsgd1na2vs0mg"},{"bike_id":"e742816d-f62f-4b92-9529-612278e6e6c5","system_id":"levelo_inurba_marseille","lat":43.30648,"lon":5.40079,"is_reserved":false,"is_disabled":false,"rental_uris":{"android":"levelo://app?vid=e742816d-f62f-4b92-9529-612278e6e6c5","ios":"levelo://app?vid=e742816d-f62f-4b92-9529-612278e6e6c5"},"vehicle_type_id":"4","last_reported":1743099215,"current_range_meters":8000,"station_id":"ce4bh112rcd13ifvqda0","pricing_plan_id":"cebpf4jnsgd1na2vs0mg"},{"bike_id":"b0e9dde7-050e-4572-b68b-e383a67ead47","system_id":"levelo_inurba_marseille","lat":43.29005,"lon":5.35624,"is_reserved":false,"is_disabled":false,"rental_uris":{"android":"levelo://app?vid=b0e9dde7-050e-4572-b68b-e383a67ead47","ios":"levelo://app?vid=b0e9dde7-050e-4572-b68b-e383a67ead47"},"vehicle_type_id":"4","last_reported":1743099215,"current_range_meters":8000,"station_id":"ce4bhb92rcd13ifvqen0","pricing_plan_id":"cebpf4jnsgd1na2vs0mg"},{"bike_id":"d794ccdb-3904-4808-aec1-4f70fd633ffa","system_id":"levelo_inurba_marseille","lat":43.29011,"lon":5.35607,"is_reserved":false,"is_disabled":false,"rental_uris":{"android":"levelo://app?vid=d794ccdb-3904-4808-aec1-4f70fd633ffa","ios":"levelo://app?vid=d794ccdb-3904-4808-aec1-4f70fd633ffa"},"vehicle_type_id":"4","last_reported":1743099215,"current_range_meters":8000,"station_id":"ce4bhb92rcd13ifvqen0","pricing_plan_id":"cebpf4jnsgd1na2vs0mg"},{"bike_id":"a6cf83d7-849f-4255-b6d0-fc3085c62955","system_id":"levelo_inurba_marseille","lat":43.29501,"lon":5.39053,"is_reserved":false,"is_disabled":false,"rental_uris":{"android":"levelo://app?vid=a6cf83d7-849f-4255-b6d0-fc3085c62955","ios":"levelo://app?vid=a6cf83d7-849f-4255-b6d0-fc3085c62955"},"vehicle_type_id":"4","last_reported":1743099215,"current_range_meters":6800,"station_id":"ce4bh3p2rcd13ifvqdp0","pricing_plan_id":"cebpf4jnsgd1na2vs0mg"},{"bike_id":"bf2ce828-a3e1-4589-96bd-ea52661b0ce8","system_id":"levelo_inurba_marseille","lat":43.2968,"lon":5.372832,"is_reserved":false,"is_disabled":false,"rental_uris":{"android":"levelo://app?vid=bf2ce828-a3e1-4589-96bd-ea52661b0ce8","ios":"levelo://app?vid=bf2ce828-a3e1-4589-96bd-ea52661b0ce8"},"vehicle_type_id":"4","last_reported":1743099215,"current_range_meters":8000,"station_id":"ce4bhu92rcd13ifvqi70","pricing_plan_id":"cebpf4jnsgd1na2vs0mg"},{"bike_id":"53104d84-f272-4d64-b5a3-da94aa38f8f7","system_id":"levelo_inurba_marseille","lat":43.30206,"lon":5.39492,"is_reserved":false,"is_disabled":false,"rental_uris":{"android":"levelo://app?vid=53104d84-f272-4d64-b5a3-da94aa38f8f7","ios":"levelo://app?vid=53104d84-f272-4d64-b5a3-da94aa38f8f7"},"vehicle_type_id":"4","last_reported":1743099215,"current_range_meters":8000,"station_id":"ce4bh0p2rcd13ifvqd70","pricing_plan_id":"cebpf4jnsgd1na2vs0mg"},{"bike_id":"1e0b2439-e59d-4a14-9c59-b4ac969b501f","system_id":"levelo_inurba_marseille","lat":43.30248,"lon":5.40064,"is_reserved":false,"is_disabled":false,"rental_uris":{"android":"levelo://app?vid=1e0b2439-e59d-4a14-9c59-b4ac969b501f","ios":"levelo://app?vid=1e0b2439-e59d-4a14-9c59-b4ac969b501f"},"vehicle_type_id":"4","last_reported":1743099215,"current_range_meters":8000,"station_id":"ce4bgvh2rcd13ifvqcs0","pricing_plan_id":"cebpf4jnsgd1na2vs0mg"},{"bike_id":"2e5dcf11-a123-4186-9d96-ae1a2019fd5e","system_id":"levelo_inurba_marseille","lat":43.2927,"lon":5.38439,"is_reserved":false,"is_disabled":false,"rental_uris":{"android":"levelo://app?vid=2e5dcf11-a123-4186-9d96-ae1a2019fd5e","ios":"levelo://app?vid=2e5dcf11-a123-4186-9d96-ae1a2019fd5e"},"vehicle_type_id":"4","last_reported":1743099215,"current_range_meters":8400,"station_id":"ce4bh692rcd13ifvqea0","pricing_plan_id":"cebpf4jnsgd1na2vs0mg"},{"bike_id":"40046afd-c6aa-43ea-88bd-183a4d2ec61c","system_id":"levelo_inurba_marseille","lat":43.31615,"lon":5.41689,"is_reserved":false,"is_disabled":false,"rental_uris":{"android":"levelo://app?vid=40046afd-c6aa-43ea-88bd-183a4d2ec61c","ios":"levelo://app?vid=40046afd-c6aa-43ea-88bd-183a4d2ec61c"},"vehicle_type_id":"4","last_reported":1743099215,"current_range_meters":8400,"station_id":"","pricing_plan_id":"cebpf4jnsgd1na2vs0mg"},{"bike_id":"4ea2dc4a-53b8-4d21-b056-faf850ab7b24","system_id":"levelo_inurba_marseille","lat":43.29558,"lon":5.42278,"is_reserved":false,"is_disabled":false,"rental_uris":{"android":"levelo://app?vid=4ea2dc4a-53b8-4d21-b056-faf850ab7b24","ios":"levelo://app?vid=4ea2dc4a-53b8-4d21-b056-faf850ab7b24"},"vehicle_type_id":"4","last_reported":1743099215,"current_range_meters":8400,"station_id":"ce4bhph2rcd13ifvqhdg","pricing_plan_id":"cebpf4jnsgd1na2vs0mg"},{"bike_id":"6f834b23-04f3-46e7-95fa-84b5432c6f0a","system_id":"levelo_inurba_marseille","lat":43.29281,"lon":5.40158,"is_reserved":false,"is_disabled":false,"rental_uris":{"android":"levelo://app?vid=6f834b23-04f3-46e7-95fa-84b5432c6f0a","ios":"levelo://app?vid=6f834b23-04f3-46e7-95fa-84b5432c6f0a"},"vehicle_type_id":"4","last_reported":1743099215,"current_range_meters":8400,"station_id":"ce4bh312rcd13ifvqdk0","pricing_plan_id":"cebpf4jnsgd1na2vs0mg"},{"bike_id":"db7517ea-6bf9-4543-8348-e6fd273ae6ae","system_id":"levelo_inurba_marseille","lat":43.29419,"lon":5.38625,"is_reserved":false,"is_disabled":false,"rental_uris":{"android":"levelo://app?vid=db7517ea-6bf9-4543-8348-e6fd273ae6ae","ios":"levelo://app?vid=db7517ea-6bf9-4543-8348-e6fd273ae6ae"},"vehicle_type_id":"4","last_reported":1743099215,"current_range_meters":8400,"station_id":"ce4bh2h2rcd13ifvqdh0","pricing_plan_id":"cebpf4jnsgd1na2vs0mg"},{"bike_id":"d3b4ee70-7971-4aa9-9684-5c42bd40c57d","system_id":"levelo_inurba_marseille","lat":43.28416,"lon":5.3752,"is_reserved":false,"is_disabled":false,"rental_uris":{"android":"levelo://app?vid=d3b4ee70-7971-4aa9-9684-5c42bd40c57d","ios":"levelo://app?vid=d3b4ee70-7971-4aa9-9684-5c42bd40c57d"},"vehicle_type_id":"4","last_reported":1743099215,"current_range_meters":8400,"station_id":"ce4bh412rcd13ifvqds0","pricing_plan_id":"cebpf4jnsgd1na2vs0mg"},{"bike_id":"f9fdb47f-9192-4b46-8970-e8b979b0a256","system_id":"levelo_inurba_marseille","lat":43.28437,"lon":5.35897,"is_reserved":false,"is_disabled":false,"rental_uris":{"android":"levelo://app?vid=f9fdb47f-9192-4b46-8970-e8b979b0a256","ios":"levelo://app?vid=f9fdb47f-9192-4b46-8970-e8b979b0a256"},"vehicle_type_id":"4","last_reported":1743099215,"current_range_meters":8400,"station_id":"ce4bhah2rcd13ifvqei0","pricing_plan_id":"cebpf4jnsgd1na2vs0mg"},{"bike_id":"12b4f6d0-8eaf-4dbe-ad37-3af71b1a3b95","system_id":"levelo_inurba_marseille","lat":43.29429,"lon":5.39744,"is_reserved":false,"is_disabled":false,"rental_uris":{"android":"levelo://app?vid=12b4f6d0-8eaf-4dbe-ad37-3af71b1a3b95","ios":"levelo://app?vid=12b4f6d0-8eaf-4dbe-ad37-3af71b1a3b95"},"vehicle_type_id":"4","last_reported":1743099215,"current_range_meters":8400,"station_id":"ce4bh3h2rcd13ifvqdo0","pricing_plan_id":"cebpf4jnsgd1na2vs0mg"},{"bike_id":"9da85a45-6f59-47d7-918b-28d09676c5f9","system_id":"levelo_inurba_marseille","lat":43.29186,"lon":5.37143,"is_reserved":false,"is_disabled":false,"rental_uris":{"android":"levelo://app?vid=9da85a45-6f59-47d7-918b-28d09676c5f9","ios":"levelo://app?vid=9da85a45-6f59-47d7-918b-28d09676c5f9"},"vehicle_type_id":"4","last_reported":1743099215,"current_range_meters":8000,"station_id":"ce4bha92rcd13ifvqeh0","pricing_plan_id":"cebpf4jnsgd1na2vs0mg"},{"bike_id":"383b0871-57b2-433b-b677-6f88b6b3f3a4","system_id":"levelo_inurba_marseille","lat":43.2804,"lon":5.36939,"is_reserved":false,"is_disabled":false,"rental_uris":{"android":"levelo://app?vid=383b0871-57b2-433b-b677-6f88b6b3f3a4","ios":"levelo://app?vid=383b0871-57b2-433b-b677-6f88b6b3f3a4"},"vehicle_type_id":"4","last_reported":1743099215,"current_range_meters":8400,"station_id":"ce4bha12rcd13ifvqef0","pricing_plan_id":"cebpf4jnsgd1na2vs0mg"},{"bike_id":"1097bc65-0480-403d-a3e3-b7e25b3301e4","system_id":"levelo_inurba_marseille","lat":43.2861,"lon":5.37066,"is_reserved":false,"is_disabled":false,"rental_uris":{"android":"levelo://app?vid=1097bc65-0480-403d-a3e3-b7e25b3301e4","ios":"levelo://app?vid=1097bc65-0480-403d-a3e3-b7e25b3301e4"},"vehicle_type_id":"4","last_reported":1743099215,"current_range_meters":8400,"station_id":"ce4bht12rcd13ifvqi60","pricing_plan_id":"cebpf4jnsgd1na2vs0mg"},{"bike_id":"169d7fcf-280d-4645-acdf-db059c46d533","system_id":"levelo_inurba_marseille","lat":43.23963,"lon":5.36642,"is_reserved":false,"is_disabled":false,"rental_uris":{"android":"levelo://app?vid=169d7fcf-280d-4645-acdf-db059c46d533","ios":"levelo://app?vid=169d7fcf-280d-4645-acdf-db059c46d533"},"vehicle_type_id":"4","last_reported":1743099215,"current_range_meters":8400,"station_id":"ce4bhi12rcd13ifvqfp0","pricing_plan_id":"cebpf4jnsgd1na2vs0mg"},{"bike_id":"45879098-d424-4647-a566-2961ec90009a","system_id":"levelo_inurba_marseille","lat":43.31485,"lon":5.37308,"is_reserved":false,"is_disabled":false,"rental_uris":{"android":"levelo://app?vid=45879098-d424-4647-a566-2961ec90009a","ios":"levelo://app?vid=45879098-d424-4647-a566-2961ec90009a"},"vehicle_type_id":"4","last_reported":1743099215,"current_range_meters":8400,"station_id":"ce4bgt12rcd13ifvqcd0","pricing_plan_id":"cebpf4jnsgd1na2vs0mg"},{"bike_id":"4bca1ad7-08fc-4950-98c7-27f2983f242d","system_id":"levelo_inurba_marseille","lat":43.2694,"lon":5.40264,"is_reserved":false,"is_disabled":false,"rental_uris":{"android":"levelo://app?vid=4bca1ad7-08fc-4950-98c7-27f2983f242d","ios":"levelo://app?vid=4bca1ad7-08fc-4950-98c7-27f2983f242d"},"vehicle_type_id":"4","last_reported":1743099215,"current_range_meters":8800,"station_id":"cjm6bp8fraef2m0cb0m0","pricing_plan_id":"cebpf4jnsgd1na2vs0mg"},{"bike_id":"7a93e231-d582-46a7-881a-89844d792cd2","system_id":"levelo_inurba_marseille","lat":43.23182,"lon":5.39987,"is_reserved":false,"is_disabled":false,"rental_uris":{"android":"levelo://app?vid=7a93e231-d582-46a7-881a-89844d792cd2","ios":"levelo://app?vid=7a93e231-d582-46a7-881a-89844d792cd2"},"vehicle_type_id":"4","last_reported":1743099215,"current_range_meters":8800,"station_id":"ce4bhn12rcd13ifvqgqg","pricing_plan_id":"cebpf4jnsgd1na2vs0mg"},{"bike_id":"2b90b991-3f6d-4537-aebd-e5c6835f8064","system_id":"levelo_inurba_marseille","lat":43.26491,"lon":5.39579,"is_reserved":false,"is_disabled":false,"rental_uris":{"android":"levelo://app?vid=2b90b991-3f6d-4537-aebd-e5c6835f8064","ios":"levelo://app?vid=2b90b991-3f6d-4537-aebd-e5c6835f8064"},"vehicle_type_id":"4","last_reported":1743099215,"current_range_meters":8800,"station_id":"ce4bhi12rcd13ifvqfq0","pricing_plan_id":"cebpf4jnsgd1na2vs0mg"},{"bike_id":"866b1839-05b1-45e6-ab4e-ec8616e728d1","system_id":"levelo_inurba_marseille","lat":43.28619,"lon":5.35106,"is_reserved":false,"is_disabled":false,"rental_uris":{"android":"levelo://app?vid=866b1839-05b1-45e6-ab4e-ec8616e728d1","ios":"levelo://app?vid=866b1839-05b1-45e6-ab4e-ec8616e728d1"},"vehicle_type_id":"4","last_reported":1743099215,"current_range_meters":8800,"station_id":"ce4bhch2rcd13ifvqeug","pricing_plan_id":"cebpf4jnsgd1na2vs0mg"},{"bike_id":"bef659f0-f558-46db-a233-a2930a1f16c2","system_id":"levelo_inurba_marseille","lat":43.29255,"lon":5.36859,"is_reserved":false,"is_disabled":false,"rental_uris":{"android":"levelo://app?vid=bef659f0-f558-46db-a233-a2930a1f16c2","ios":"levelo://app?vid=bef659f0-f558-46db-a233-a2930a1f16c2"},"vehicle_type_id":"4","last_reported":1743099215,"current_range_meters":8800,"station_id":"ce4bhbp2rcd13ifvqesg","pricing_plan_id":"cebpf4jnsgd1na2vs0mg"},{"bike_id":"34d07891-8c02-4c2b-a31e-e054161d5fa3","system_id":"levelo_inurba_marseille","lat":43.28416,"lon":5.3751,"is_reserved":false,"is_disabled":false,"rental_uris":{"android":"levelo://app?vid=34d07891-8c02-4c2b-a31e-e054161d5fa3","ios":"levelo://app?vid=34d07891-8c02-4c2b-a31e-e054161d5fa3"},"vehicle_type_id":"4","last_reported":1743099215,"current_range_meters":8800,"station_id":"ce4bh412rcd13ifvqds0","pricing_plan_id":"cebpf4jnsgd1na2vs0mg"},{"bike_id":"a0aa2b66-8d81-4f41-ae27-5d11fde4f918","system_id":"levelo_inurba_marseille","lat":43.28412,"lon":5.34953,"is_reserved":false,"is_disabled":false,"rental_uris":{"android":"levelo://app?vid=a0aa2b66-8d81-4f41-ae27-5d11fde4f918","ios":"levelo://app?vid=a0aa2b66-8d81-4f41-ae27-5d11fde4f918"},"vehicle_type_id":"4","last_reported":1743099215,"current_range_meters":8800,"station_id":"ce4bhbh2rcd13ifvqepg","pricing_plan_id":"cebpf4jnsgd1na2vs0mg"},{"bike_id":"96504045-100a-468c-8897-360fb4c19832","system_id":"levelo_inurba_marseille","lat":43.27834,"lon":5.40712,"is_reserved":false,"is_disabled":false,"rental_uris":{"android":"levelo://app?vid=96504045-100a-468c-8897-360fb4c19832","ios":"levelo://app?vid=96504045-100a-468c-8897-360fb4c19832"},"vehicle_type_id":"4","last_reported":1743099215,"current_range_meters":9200,"station_id":"ce4bhnh2rcd13ifvqgtg","pricing_plan_id":"cebpf4jnsgd1na2vs0mg"},{"bike_id":"12abd53b-99f4-4edb-865b-970d3adbd0f9","system_id":"levelo_inurba_marseille","lat":43.2954,"lon":5.38539,"is_reserved":false,"is_disabled":false,"rental_uris":{"android":"levelo://app?vid=12abd53b-99f4-4edb-865b-970d3adbd0f9","ios":"levelo://app?vid=12abd53b-99f4-4edb-865b-970d3adbd0f9"},"vehicle_type_id":"4","last_reported":1743099215,"current_range_meters":9200,"station_id":"ce4bgih2rcd13ifvqba0","pricing_plan_id":"cebpf4jnsgd1na2vs0mg"},{"bike_id":"2d7b5bad-8649-4a8f-b296-763837417b6c","system_id":"levelo_inurba_marseille","lat":43.3042,"lon":5.4128,"is_reserved":false,"is_disabled":false,"rental_uris":{"android":"levelo://app?vid=2d7b5bad-8649-4a8f-b296-763837417b6c","ios":"levelo://app?vid=2d7b5bad-8649-4a8f-b296-763837417b6c"},"vehicle_type_id":"4","last_reported":1743099215,"current_range_meters":9200,"station_id":"ce4bhop2rcd13ifvqh8g","pricing_plan_id":"cebpf4jnsgd1na2vs0mg"},{"bike_id":"7ff6aef6-267d-497e-ba81-5ede72a39690","system_id":"levelo_inurba_marseille","lat":43.23155,"lon":5.43719,"is_reserved":false,"is_disabled":false,"rental_uris":{"android":"levelo://app?vid=7ff6aef6-267d-497e-ba81-5ede72a39690","ios":"levelo://app?vid=7ff6aef6-267d-497e-ba81-5ede72a39690"},"vehicle_type_id":"4","last_reported":1743099215,"current_range_meters":8800,"station_id":"ce4bhmp2rcd13ifvqgog","pricing_plan_id":"cebpf4jnsgd1na2vs0mg"},{"bike_id":"370669e1-a28f-4d18-9e7c-43dfbbad498e","system_id":"levelo_inurba_marseille","lat":43.24184,"lon":5.39723,"is_reserved":false,"is_disabled":false,"rental_uris":{"android":"levelo://app?vid=370669e1-a28f-4d18-9e7c-43dfbbad498e","ios":"levelo://app?vid=370669e1-a28f-4d18-9e7c-43dfbbad498e"},"vehicle_type_id":"4","last_reported":1743099215,"current_range_meters":9200,"station_id":"ce4bhn12rcd13ifvqgpg","pricing_plan_id":"cebpf4jnsgd1na2vs0mg"},{"bike_id":"ea3b38c4-aa8a-4aae-a670-f70999488487","system_id":"levelo_inurba_marseille","lat":43.28706,"lon":5.3999,"is_reserved":false,"is_disabled":false,"rental_uris":{"android":"levelo://app?vid=ea3b38c4-aa8a-4aae-a670-f70999488487","ios":"levelo://app?vid=ea3b38c4-aa8a-4aae-a670-f70999488487"},"vehicle_type_id":"4","last_reported":1743099215,"current_range_meters":9200,"station_id":"ce4bho92rcd13ifvqh3g","pricing_plan_id":"cebpf4jnsgd1na2vs0mg"},{"bike_id":"d75f9f5e-4772-4de2-8f78-058b650907ab","system_id":"levelo_inurba_marseille","lat":43.24169,"lon":5.36396,"is_reserved":false,"is_disabled":false,"rental_uris":{"android":"levelo://app?vid=d75f9f5e-4772-4de2-8f78-058b650907ab","ios":"levelo://app?vid=d75f9f5e-4772-4de2-8f78-058b650907ab"},"vehicle_type_id":"4","last_reported":1743099215,"current_range_meters":9200,"station_id":"cpo36qri1sfpv3e86is0","pricing_plan_id":"cebpf4jnsgd1na2vs0mg"},{"bike_id":"e6efa16f-e167-4246-a97b-3fc7047dab25","system_id":"levelo_inurba_marseille","lat":43.28041,"lon":5.36947,"is_reserved":false,"is_disabled":false,"rental_uris":{"android":"levelo://app?vid=e6efa16f-e167-4246-a97b-3fc7047dab25","ios":"levelo://app?vid=e6efa16f-e167-4246-a97b-3fc7047dab25"},"vehicle_type_id":"4","last_reported":1743099215,"current_range_meters":9200,"station_id":"ce4bha12rcd13ifvqef0","pricing_plan_id":"cebpf4jnsgd1na2vs0mg"},{"bike_id":"841f89f1-44c9-4c69-b354-2e3325e9e1ac","system_id":"levelo_inurba_marseille","lat":43.29795,"lon":5.39344,"is_reserved":false,"is_disabled":false,"rental_uris":{"android":"levelo://app?vid=841f89f1-44c9-4c69-b354-2e3325e9e1ac","ios":"levelo://app?vid=841f89f1-44c9-4c69-b354-2e3325e9e1ac"},"vehicle_type_id":"4","last_reported":1743099215,"current_range_meters":9200,"station_id":"chh1huq6cuj3fo74tm60","pricing_plan_id":"cebpf4jnsgd1na2vs0mg"},{"bike_id":"c18155db-65c7-4d5a-8c5b-923eb75c675d","system_id":"levelo_inurba_marseille","lat":43.32108,"lon":5.36764,"is_reserved":false,"is_disabled":false,"rental_uris":{"android":"levelo://app?vid=c18155db-65c7-4d5a-8c5b-923eb75c675d","ios":"levelo://app?vid=c18155db-65c7-4d5a-8c5b-923eb75c675d"},"vehicle_type_id":"4","last_reported":1743099215,"current_range_meters":9200,"station_id":"ce4bhrh2rcd13ifvqhug","pricing_plan_id":"cebpf4jnsgd1na2vs0mg"},{"bike_id":"4a248aa2-2d28-4cdd-8231-bd63a1fa990e","system_id":"levelo_inurba_marseille","lat":43.2918,"lon":5.35839,"is_reserved":false,"is_disabled":false,"rental_uris":{"android":"levelo://app?vid=4a248aa2-2d28-4cdd-8231-bd63a1fa990e","ios":"levelo://app?vid=4a248aa2-2d28-4cdd-8231-bd63a1fa990e"},"vehicle_type_id":"4","last_reported":1743099215,"current_range_meters":9600,"station_id":"ce4bhb12rcd13ifvqel0","pricing_plan_id":"cebpf4jnsgd1na2vs0mg"},{"bike_id":"1dea6116-f693-4036-a08b-0b6ae7cdd8ea","system_id":"levelo_inurba_marseille","lat":43.24807,"lon":5.37454,"is_reserved":false,"is_disabled":false,"rental_uris":{"android":"levelo://app?vid=1dea6116-f693-4036-a08b-0b6ae7cdd8ea","ios":"levelo://app?vid=1dea6116-f693-4036-a08b-0b6ae7cdd8ea"},"vehicle_type_id":"4","last_reported":1743099215,"current_range_meters":9200,"station_id":"ce4bhgh2rcd13ifvqfb0","pricing_plan_id":"cebpf4jnsgd1na2vs0mg"},{"bike_id":"09a227f9-e81f-4ae4-8d74-65daf422601e","system_id":"levelo_inurba_marseille","lat":43.24814,"lon":5.37458,"is_reserved":false,"is_disabled":false,"rental_uris":{"android":"levelo://app?vid=09a227f9-e81f-4ae4-8d74-65daf422601e","ios":"levelo://app?vid=09a227f9-e81f-4ae4-8d74-65daf422601e"},"vehicle_type_id":"4","last_reported":1743099215,"current_range_meters":9600,"station_id":"ce4bhgh2rcd13ifvqfb0","pricing_plan_id":"cebpf4jnsgd1na2vs0mg"},{"bike_id":"b1136019-eed5-4b7d-bcb6-3ae6f2fb69cd","system_id":"levelo_inurba_marseille","lat":43.29224,"lon":5.36073,"is_reserved":false,"is_disabled":false,"rental_uris":{"android":"levelo://app?vid=b1136019-eed5-4b7d-bcb6-3ae6f2fb69cd","ios":"levelo://app?vid=b1136019-eed5-4b7d-bcb6-3ae6f2fb69cd"},"vehicle_type_id":"4","last_reported":1743099215,"current_range_meters":9600,"station_id":"ce4bhbh2rcd13ifvqeqg","pricing_plan_id":"cebpf4jnsgd1na2vs0mg"},{"bike_id":"dd592713-6431-4020-9f9d-7058d629d09f","system_id":"levelo_inurba_marseille","lat":43.32114,"lon":5.3677,"is_reserved":false,"is_disabled":false,"rental_uris":{"android":"levelo://app?vid=dd592713-6431-4020-9f9d-7058d629d09f","ios":"levelo://app?vid=dd592713-6431-4020-9f9d-7058d629d09f"},"vehicle_type_id":"4","last_reported":1743099215,"current_range_meters":9600,"station_id":"ce4bhrh2rcd13ifvqhug","pricing_plan_id":"cebpf4jnsgd1na2vs0mg"},{"bike_id":"62a31e18-1693-40a5-b5bc-67cb9f170087","system_id":"levelo_inurba_marseille","lat":43.3171,"lon":5.37743,"is_reserved":false,"is_disabled":false,"rental_uris":{"android":"levelo://app?vid=62a31e18-1693-40a5-b5bc-67cb9f170087","ios":"levelo://app?vid=62a31e18-1693-40a5-b5bc-67cb9f170087"},"vehicle_type_id":"4","last_reported":1743099215,"current_range_meters":9600,"station_id":"ce4bgth2rcd13ifvqch0","pricing_plan_id":"cebpf4jnsgd1na2vs0mg"},{"bike_id":"30cd612a-8cb0-4fab-9e3a-cd08e9fc22b5","system_id":"levelo_inurba_marseille","lat":43.29508,"lon":5.39405,"is_reserved":false,"is_disabled":true,"rental_uris":{"android":"levelo://app?vid=30cd612a-8cb0-4fab-9e3a-cd08e9fc22b5","ios":"levelo://app?vid=30cd612a-8cb0-4fab-9e3a-cd08e9fc22b5"},"vehicle_type_id":"4","last_reported":1743099215,"current_range_meters":9600,"station_id":"ce4bh292rcd13ifvqdf0","pricing_plan_id":"cebpf4jnsgd1na2vs0mg"},{"bike_id":"0ac88cdf-dd3a-494f-aaa5-2b24d1ce393f","system_id":"levelo_inurba_marseille","lat":43.231924,"lon":5.355561,"is_reserved":false,"is_disabled":false,"rental_uris":{"android":"levelo://app?vid=0ac88cdf-dd3a-494f-aaa5-2b24d1ce393f","ios":"levelo://app?vid=0ac88cdf-dd3a-494f-aaa5-2b24d1ce393f"},"vehicle_type_id":"4","last_reported":1743099215,"current_range_meters":9600,"station_id":"ce4bhu92rcd13ifvqi70","pricing_plan_id":"cebpf4jnsgd1na2vs0mg"},{"bike_id":"e110c135-ffaa-4ee4-bb95-b2c04dc26dca","system_id":"levelo_inurba_marseille","lat":43.3081,"lon":5.43518,"is_reserved":false,"is_disabled":false,"rental_uris":{"android":"levelo://app?vid=e110c135-ffaa-4ee4-bb95-b2c04dc26dca","ios":"levelo://app?vid=e110c135-ffaa-4ee4-bb95-b2c04dc26dca"},"vehicle_type_id":"4","last_reported":1743099215,"current_range_meters":9600,"station_id":"ce4bhph2rcd13ifvqheg","pricing_plan_id":"cebpf4jnsgd1na2vs0mg"},{"bike_id":"29df67f5-d204-4d83-9b55-30baf4950456","system_id":"levelo_inurba_marseille","lat":43.28152,"lon":5.42643,"is_reserved":false,"is_disabled":false,"rental_uris":{"android":"levelo://app?vid=29df67f5-d204-4d83-9b55-30baf4950456","ios":"levelo://app?vid=29df67f5-d204-4d83-9b55-30baf4950456"},"vehicle_type_id":"4","last_reported":1743099215,"current_range_meters":9600,"station_id":"ce4bhnh2rcd13ifvqgug","pricing_plan_id":"cebpf4jnsgd1na2vs0mg"},{"bike_id":"30a9d7e3-d776-4c47-bd7f-037da8fb3d14","system_id":"levelo_inurba_marseille","lat":43.286133,"lon":5.351031,"is_reserved":false,"is_disabled":false,"rental_uris":{"android":"levelo://app?vid=30a9d7e3-d776-4c47-bd7f-037da8fb3d14","ios":"levelo://app?vid=30a9d7e3-d776-4c47-bd7f-037da8fb3d14"},"vehicle_type_id":"4","last_reported":1743099215,"current_range_meters":9600,"station_id":"ce4bhch2rcd13ifvqeug","pricing_plan_id":"cebpf4jnsgd1na2vs0mg"},{"bike_id":"2d16c206-8354-4599-ab38-4b4531fac138","system_id":"levelo_inurba_marseille","lat":43.2979,"lon":5.39349,"is_reserved":false,"is_disabled":false,"rental_uris":{"android":"levelo://app?vid=2d16c206-8354-4599-ab38-4b4531fac138","ios":"levelo://app?vid=2d16c206-8354-4599-ab38-4b4531fac138"},"vehicle_type_id":"4","last_reported":1743099215,"current_range_meters":9200,"station_id":"chh1huq6cuj3fo74tm60","pricing_plan_id":"cebpf4jnsgd1na2vs0mg"},{"bike_id":"acae1f8c-e7df-4e6a-95ef-e270eb48d583","system_id":"levelo_inurba_marseille","lat":43.294187,"lon":5.386257,"is_reserved":false,"is_disabled":false,"rental_uris":{"android":"levelo://app?vid=acae1f8c-e7df-4e6a-95ef-e270eb48d583","ios":"levelo://app?vid=acae1f8c-e7df-4e6a-95ef-e270eb48d583"},"vehicle_type_id":"4","last_reported":1743099215,"current_range_meters":9600,"station_id":"ce4bh2h2rcd13ifvqdh0","pricing_plan_id":"cebpf4jnsgd1na2vs0mg"},{"bike_id":"efccb7ee-57f9-48e7-98a8-b578ed40ea79","system_id":"levelo_inurba_marseille","lat":43.29267,"lon":5.38433,"is_reserved":false,"is_disabled":false,"rental_uris":{"android":"levelo://app?vid=efccb7ee-57f9-48e7-98a8-b578ed40ea79","ios":"levelo://app?vid=efccb7ee-57f9-48e7-98a8-b578ed40ea79"},"vehicle_type_id":"4","last_reported":1743099215,"current_range_meters":10000,"station_id":"ce4bh692rcd13ifvqea0","pricing_plan_id":"cebpf4jnsgd1na2vs0mg"},{"bike_id":"3a9bdcca-abab-46db-a40a-336182c98f57","system_id":"levelo_inurba_marseille","lat":43.27821,"lon":5.4074,"is_reserved":false,"is_disabled":false,"rental_uris":{"android":"levelo://app?vid=3a9bdcca-abab-46db-a40a-336182c98f57","ios":"levelo://app?vid=3a9bdcca-abab-46db-a40a-336182c98f57"},"vehicle_type_id":"4","last_reported":1743099215,"current_range_meters":10000,"station_id":"ce4bhnh2rcd13ifvqgtg","pricing_plan_id":"cebpf4jnsgd1na2vs0mg"},{"bike_id":"e5047771-2082-4dba-9477-d8725027152d","system_id":"levelo_inurba_marseille","lat":43.25445,"lon":5.41895,"is_reserved":false,"is_disabled":false,"rental_uris":{"android":"levelo://app?vid=e5047771-2082-4dba-9477-d8725027152d","ios":"levelo://app?vid=e5047771-2082-4dba-9477-d8725027152d"},"vehicle_type_id":"4","last_reported":1743099215,"current_range_meters":10000,"station_id":"","pricing_plan_id":"cebpf4jnsgd1na2vs0mg"},{"bike_id":"78b68daf-b5ee-4095-84e5-f5dac848d0f2","system_id":"levelo_inurba_marseille","lat":43.29261,"lon":5.38432,"is_reserved":false,"is_disabled":false,"rental_uris":{"android":"levelo://app?vid=78b68daf-b5ee-4095-84e5-f5dac848d0f2","ios":"levelo://app?vid=78b68daf-b5ee-4095-84e5-f5dac848d0f2"},"vehicle_type_id":"4","last_reported":1743099215,"current_range_meters":10000,"station_id":"ce4bh692rcd13ifvqea0","pricing_plan_id":"cebpf4jnsgd1na2vs0mg"},{"bike_id":"3bec379c-9ee5-4c03-bd15-82e95f5a8fb6","system_id":"levelo_inurba_marseille","lat":43.313578,"lon":5.384882,"is_reserved":false,"is_disabled":false,"rental_uris":{"android":"levelo://app?vid=3bec379c-9ee5-4c03-bd15-82e95f5a8fb6","ios":"levelo://app?vid=3bec379c-9ee5-4c03-bd15-82e95f5a8fb6"},"vehicle_type_id":"4","last_reported":1743099215,"current_range_meters":10000,"station_id":"ce4bgt92rcd13ifvqcf0","pricing_plan_id":"cebpf4jnsgd1na2vs0mg"},{"bike_id":"29346ce5-e3f8-414f-ac70-a849b98ac7bb","system_id":"levelo_inurba_marseille","lat":43.27395,"lon":5.36281,"is_reserved":false,"is_disabled":false,"rental_uris":{"android":"levelo://app?vid=29346ce5-e3f8-414f-ac70-a849b98ac7bb","ios":"levelo://app?vid=29346ce5-e3f8-414f-ac70-a849b98ac7bb"},"vehicle_type_id":"4","last_reported":1743099215,"current_range_meters":10000,"station_id":"ce4bhbh2rcd13ifvqeo0","pricing_plan_id":"cebpf4jnsgd1na2vs0mg"},{"bike_id":"2079e143-15fb-4fca-b428-1dcdbd2da2aa","system_id":"levelo_inurba_marseille","lat":43.27827,"lon":5.4072,"is_reserved":false,"is_disabled":false,"rental_uris":{"android":"levelo://app?vid=2079e143-15fb-4fca-b428-1dcdbd2da2aa","ios":"levelo://app?vid=2079e143-15fb-4fca-b428-1dcdbd2da2aa"},"vehicle_type_id":"4","last_reported":1743099215,"current_range_meters":10000,"station_id":"ce4bhnh2rcd13ifvqgtg","pricing_plan_id":"cebpf4jnsgd1na2vs0mg"},{"bike_id":"c8f392e3-331b-46d3-bec1-ff5ea26174bc","system_id":"levelo_inurba_marseille","lat":43.26503,"lon":5.39549,"is_reserved":false,"is_disabled":false,"rental_uris":{"android":"levelo://app?vid=c8f392e3-331b-46d3-bec1-ff5ea26174bc","ios":"levelo://app?vid=c8f392e3-331b-46d3-bec1-ff5ea26174bc"},"vehicle_type_id":"4","last_reported":1743099215,"current_range_meters":10000,"station_id":"ce4bhi12rcd13ifvqfq0","pricing_plan_id":"cebpf4jnsgd1na2vs0mg"},{"bike_id":"2ac0ac09-74b6-4440-9483-27fa0eb262e7","system_id":"levelo_inurba_marseille","lat":43.29881,"lon":5.39748,"is_reserved":false,"is_disabled":false,"rental_uris":{"android":"levelo://app?vid=2ac0ac09-74b6-4440-9483-27fa0eb262e7","ios":"levelo://app?vid=2ac0ac09-74b6-4440-9483-27fa0eb262e7"},"vehicle_type_id":"4","last_reported":1743099215,"current_range_meters":10000,"station_id":"ce4bh0h2rcd13ifvqd50","pricing_plan_id":"cebpf4jnsgd1na2vs0mg"},{"bike_id":"77bc11b8-e20c-4c10-84a5-450671079b48","system_id":"levelo_inurba_marseille","lat":43.28705,"lon":5.37386,"is_reserved":false,"is_disabled":false,"rental_uris":{"android":"levelo://app?vid=77bc11b8-e20c-4c10-84a5-450671079b48","ios":"levelo://app?vid=77bc11b8-e20c-4c10-84a5-450671079b48"},"vehicle_type_id":"4","last_reported":1743099215,"current_range_meters":10000,"station_id":"ce4bh3p2rcd13ifvqdq0","pricing_plan_id":"cebpf4jnsgd1na2vs0mg"},{"bike_id":"b128b845-cdf8-4e84-bb32-fb93f1c27697","system_id":"levelo_inurba_marseille","lat":43.28145,"lon":5.42635,"is_reserved":false,"is_disabled":false,"rental_uris":{"android":"levelo://app?vid=b128b845-cdf8-4e84-bb32-fb93f1c27697","ios":"levelo://app?vid=b128b845-cdf8-4e84-bb32-fb93f1c27697"},"vehicle_type_id":"4","last_reported":1743099215,"current_range_meters":10000,"station_id":"ce4bhnh2rcd13ifvqgug","pricing_plan_id":"cebpf4jnsgd1na2vs0mg"},{"bike_id":"b7df044c-a420-415e-b7b7-345aa8eb07fc","system_id":"levelo_inurba_marseille","lat":43.31836,"lon":5.38869,"is_reserved":false,"is_disabled":false,"rental_uris":{"android":"levelo://app?vid=b7df044c-a420-415e-b7b7-345aa8eb07fc","ios":"levelo://app?vid=b7df044c-a420-415e-b7b7-345aa8eb07fc"},"vehicle_type_id":"4","last_reported":1743099215,"current_range_meters":10000,"station_id":"","pricing_plan_id":"cebpf4jnsgd1na2vs0mg"},{"bike_id":"64f0ea86-1180-4755-95e1-3cbc9c8d4cf5","system_id":"levelo_inurba_marseille","lat":43.33011,"lon":5.4388,"is_reserved":false,"is_disabled":true,"rental_uris":{"android":"levelo://app?vid=64f0ea86-1180-4755-95e1-3cbc9c8d4cf5","ios":"levelo://app?vid=64f0ea86-1180-4755-95e1-3cbc9c8d4cf5"},"vehicle_type_id":"4","last_reported":1743099215,"current_range_meters":10000,"station_id":"","pricing_plan_id":"cebpf4jnsgd1na2vs0mg"},{"bike_id":"c2fbe9c8-90b0-4e05-92d7-3507d48d097a","system_id":"levelo_inurba_marseille","lat":43.2717,"lon":5.40998,"is_reserved":false,"is_disabled":false,"rental_uris":{"android":"levelo://app?vid=c2fbe9c8-90b0-4e05-92d7-3507d48d097a","ios":"levelo://app?vid=c2fbe9c8-90b0-4e05-92d7-3507d48d097a"},"vehicle_type_id":"4","last_reported":1743099215,"current_range_meters":10000,"station_id":"ce4bhl12rcd13ifvqgf0","pricing_plan_id":"cebpf4jnsgd1na2vs0mg"},{"bike_id":"4148286b-bba9-4adb-8839-83b192769343","system_id":"levelo_inurba_marseille","lat":43.28396,"lon":5.34953,"is_reserved":false,"is_disabled":false,"rental_uris":{"android":"levelo://app?vid=4148286b-bba9-4adb-8839-83b192769343","ios":"levelo://app?vid=4148286b-bba9-4adb-8839-83b192769343"},"vehicle_type_id":"4","last_reported":1743099215,"current_range_meters":10000,"station_id":"ce4bhbh2rcd13ifvqepg","pricing_plan_id":"cebpf4jnsgd1na2vs0mg"},{"bike_id":"f9a0f659-e575-4cc8-a4c8-4208dc897c91","system_id":"levelo_inurba_marseille","lat":43.31698,"lon":5.37768,"is_reserved":false,"is_disabled":false,"rental_uris":{"android":"levelo://app?vid=f9a0f659-e575-4cc8-a4c8-4208dc897c91","ios":"levelo://app?vid=f9a0f659-e575-4cc8-a4c8-4208dc897c91"},"vehicle_type_id":"4","last_reported":1743099215,"current_range_meters":10000,"station_id":"ce4bgth2rcd13ifvqch0","pricing_plan_id":"cebpf4jnsgd1na2vs0mg"},{"bike_id":"54883484-8b00-4f4d-a75d-19cf0f927334","system_id":"levelo_inurba_marseille","lat":43.23964,"lon":5.36633,"is_reserved":false,"is_disabled":false,"rental_uris":{"android":"levelo://app?vid=54883484-8b00-4f4d-a75d-19cf0f927334","ios":"levelo://app?vid=54883484-8b00-4f4d-a75d-19cf0f927334"},"vehicle_type_id":"4","last_reported":1743099215,"current_range_meters":10000,"station_id":"ce4bhi12rcd13ifvqfp0","pricing_plan_id":"cebpf4jnsgd1na2vs0mg"},{"bike_id":"fc8e8371-f4e9-4721-bc19-563801e389dc","system_id":"levelo_inurba_marseille","lat":43.337444,"lon":5.374475,"is_reserved":false,"is_disabled":false,"rental_uris":{"android":"levelo://app?vid=fc8e8371-f4e9-4721-bc19-563801e389dc","ios":"levelo://app?vid=fc8e8371-f4e9-4721-bc19-563801e389dc"},"vehicle_type_id":"4","last_reported":1743099215,"current_range_meters":10000,"station_id":"","pricing_plan_id":"cebpf4jnsgd1na2vs0mg"},{"bike_id":"00f8a823-b5b1-4799-904b-6136ec63ab41","system_id":"levelo_inurba_marseille","lat":43.28628,"lon":5.35103,"is_reserved":false,"is_disabled":false,"rental_uris":{"android":"levelo://app?vid=00f8a823-b5b1-4799-904b-6136ec63ab41","ios":"levelo://app?vid=00f8a823-b5b1-4799-904b-6136ec63ab41"},"vehicle_type_id":"4","last_reported":1743099215,"current_range_meters":10800,"station_id":"ce4bhch2rcd13ifvqeug","pricing_plan_id":"cebpf4jnsgd1na2vs0mg"},{"bike_id":"25c93242-72e6-4525-aea7-7d96e2cd1825","system_id":"levelo_inurba_marseille","lat":43.33101,"lon":5.40838,"is_reserved":false,"is_disabled":false,"rental_uris":{"android":"levelo://app?vid=25c93242-72e6-4525-aea7-7d96e2cd1825","ios":"levelo://app?vid=25c93242-72e6-4525-aea7-7d96e2cd1825"},"vehicle_type_id":"4","last_reported":1743099215,"current_range_meters":10800,"station_id":"","pricing_plan_id":"cebpf4jnsgd1na2vs0mg"},{"bike_id":"499de0bf-853d-49cd-a2d8-82baefff14a4","system_id":"levelo_inurba_marseille","lat":43.29788,"lon":5.371,"is_reserved":false,"is_disabled":false,"rental_uris":{"android":"levelo://app?vid=499de0bf-853d-49cd-a2d8-82baefff14a4","ios":"levelo://app?vid=499de0bf-853d-49cd-a2d8-82baefff14a4"},"vehicle_type_id":"4","last_reported":1743099215,"current_range_meters":10800,"station_id":"ce4bgop2rcd13ifvqc1g","pricing_plan_id":"cebpf4jnsgd1na2vs0mg"},{"bike_id":"19221227-42ec-4f4b-8f04-42a0818e22f5","system_id":"levelo_inurba_marseille","lat":43.32101,"lon":5.36791,"is_reserved":false,"is_disabled":false,"rental_uris":{"android":"levelo://app?vid=19221227-42ec-4f4b-8f04-42a0818e22f5","ios":"levelo://app?vid=19221227-42ec-4f4b-8f04-42a0818e22f5"},"vehicle_type_id":"4","last_reported":1743099215,"current_range_meters":10800,"station_id":"ce4bhrh2rcd13ifvqhug","pricing_plan_id":"cebpf4jnsgd1na2vs0mg"},{"bike_id":"0783eca1-0764-47b0-b135-cf78e535741e","system_id":"levelo_inurba_marseille","lat":43.23186,"lon":5.39993,"is_reserved":false,"is_disabled":false,"rental_uris":{"android":"levelo://app?vid=0783eca1-0764-47b0-b135-cf78e535741e","ios":"levelo://app?vid=0783eca1-0764-47b0-b135-cf78e535741e"},"vehicle_type_id":"4","last_reported":1743099215,"current_range_meters":10800,"station_id":"ce4bhn12rcd13ifvqgqg","pricing_plan_id":"cebpf4jnsgd1na2vs0mg"},{"bike_id":"bfa018d7-4766-430e-8a9d-9b17e9a65a71","system_id":"levelo_inurba_marseille","lat":43.25094,"lon":5.39554,"is_reserved":false,"is_disabled":false,"rental_uris":{"android":"levelo://app?vid=bfa018d7-4766-430e-8a9d-9b17e9a65a71","ios":"levelo://app?vid=bfa018d7-4766-430e-8a9d-9b17e9a65a71"},"vehicle_type_id":"4","last_reported":1743099215,"current_range_meters":10800,"station_id":"ce4bhm12rcd13ifvqgkg","pricing_plan_id":"cebpf4jnsgd1na2vs0mg"},{"bike_id":"4a42ca1e-41e4-4233-a4bb-a180f04564d6","system_id":"levelo_inurba_marseille","lat":43.29169,"lon":5.37145,"is_reserved":false,"is_disabled":true,"rental_uris":{"android":"levelo://app?vid=4a42ca1e-41e4-4233-a4bb-a180f04564d6","ios":"levelo://app?vid=4a42ca1e-41e4-4233-a4bb-a180f04564d6"},"vehicle_type_id":"4","last_reported":1743099215,"current_range_meters":11200,"station_id":"ce4bha92rcd13ifvqeh0","pricing_plan_id":"cebpf4jnsgd1na2vs0mg"},{"bike_id":"30672948-4108-467c-bd3c-20fbab765f75","system_id":"levelo_inurba_marseille","lat":43.28463,"lon":5.35898,"is_reserved":false,"is_disabled":false,"rental_uris":{"android":"levelo://app?vid=30672948-4108-467c-bd3c-20fbab765f75","ios":"levelo://app?vid=30672948-4108-467c-bd3c-20fbab765f75"},"vehicle_type_id":"4","last_reported":1743099215,"current_range_meters":11200,"station_id":"ce4bhah2rcd13ifvqei0","pricing_plan_id":"cebpf4jnsgd1na2vs0mg"},{"bike_id":"9df3b004-1beb-49fc-b04d-7c675c4a4ea7","system_id":"levelo_inurba_marseille","lat":43.29432,"lon":5.39749,"is_reserved":false,"is_disabled":false,"rental_uris":{"android":"levelo://app?vid=9df3b004-1beb-49fc-b04d-7c675c4a4ea7","ios":"levelo://app?vid=9df3b004-1beb-49fc-b04d-7c675c4a4ea7"},"vehicle_type_id":"4","last_reported":1743099215,"current_range_meters":11200,"station_id":"ce4bh192rcd13ifvqdc0","pricing_plan_id":"cebpf4jnsgd1na2vs0mg"},{"bike_id":"d000773a-9af5-4ca3-91bf-10f49c0605ab","system_id":"levelo_inurba_marseille","lat":43.33721,"lon":5.39187,"is_reserved":false,"is_disabled":false,"rental_uris":{"android":"levelo://app?vid=d000773a-9af5-4ca3-91bf-10f49c0605ab","ios":"levelo://app?vid=d000773a-9af5-4ca3-91bf-10f49c0605ab"},"vehicle_type_id":"4","last_reported":1743099215,"current_range_meters":11200,"station_id":"ce4bhr92rcd13ifvqhsg","pricing_plan_id":"cebpf4jnsgd1na2vs0mg"},{"bike_id":"3e5b767e-381f-4022-9e9e-c4d58e1e79ca","system_id":"levelo_inurba_marseille","lat":43.29963,"lon":5.38501,"is_reserved":false,"is_disabled":false,"rental_uris":{"android":"levelo://app?vid=3e5b767e-381f-4022-9e9e-c4d58e1e79ca","ios":"levelo://app?vid=3e5b767e-381f-4022-9e9e-c4d58e1e79ca"},"vehicle_type_id":"4","last_reported":1743099215,"current_range_meters":12000,"station_id":"ce4bgj92rcd13ifvqbd0","pricing_plan_id":"cebpf4jnsgd1na2vs0mg"},{"bike_id":"f00e0bf1-e77c-4752-8f1b-63a2e565cf51","system_id":"levelo_inurba_marseille","lat":43.27948,"lon":5.38726,"is_reserved":false,"is_disabled":true,"rental_uris":{"android":"levelo://app?vid=f00e0bf1-e77c-4752-8f1b-63a2e565cf51","ios":"levelo://app?vid=f00e0bf1-e77c-4752-8f1b-63a2e565cf51"},"vehicle_type_id":"4","last_reported":1743099215,"current_range_meters":11600,"station_id":"ce4bhg12rcd13ifvqf80","pricing_plan_id":"cebpf4jnsgd1na2vs0mg"},{"bike_id":"b6277294-9c97-4bd2-bb72-519bd900d431","system_id":"levelo_inurba_marseille","lat":43.293023,"lon":5.37455,"is_reserved":false,"is_disabled":true,"rental_uris":{"android":"levelo://app?vid=b6277294-9c97-4bd2-bb72-519bd900d431","ios":"levelo://app?vid=b6277294-9c97-4bd2-bb72-519bd900d431"},"vehicle_type_id":"4","last_reported":1743099215,"current_range_meters":11600,"station_id":"ce4bgi12rcd13ifvqb70","pricing_plan_id":"cebpf4jnsgd1na2vs0mg"},{"bike_id":"ec9f3f3c-1715-4f7f-94cf-b91bb5036f2a","system_id":"levelo_inurba_marseille","lat":43.28568,"lon":5.39505,"is_reserved":false,"is_disabled":false,"rental_uris":{"android":"levelo://app?vid=ec9f3f3c-1715-4f7f-94cf-b91bb5036f2a","ios":"levelo://app?vid=ec9f3f3c-1715-4f7f-94cf-b91bb5036f2a"},"vehicle_type_id":"4","last_reported":1743099215,"current_range_meters":11600,"station_id":"ce4bh292rcd13ifvqdg0","pricing_plan_id":"cebpf4jnsgd1na2vs0mg"},{"bike_id":"5d601291-20bf-4f2d-b9a8-f968bc04b9fb","system_id":"levelo_inurba_marseille","lat":43.29259,"lon":5.384517,"is_reserved":false,"is_disabled":false,"rental_uris":{"android":"levelo://app?vid=5d601291-20bf-4f2d-b9a8-f968bc04b9fb","ios":"levelo://app?vid=5d601291-20bf-4f2d-b9a8-f968bc04b9fb"},"vehicle_type_id":"4","last_reported":1743099215,"current_range_meters":11600,"station_id":"ce4bh692rcd13ifvqea0","pricing_plan_id":"cebpf4jnsgd1na2vs0mg"},{"bike_id":"113b794a-bcb8-4030-af9e-5b042360cb6f","system_id":"levelo_inurba_marseille","lat":43.24808,"lon":5.37454,"is_reserved":false,"is_disabled":false,"rental_uris":{"android":"levelo://app?vid=113b794a-bcb8-4030-af9e-5b042360cb6f","ios":"levelo://app?vid=113b794a-bcb8-4030-af9e-5b042360cb6f"},"vehicle_type_id":"4","last_reported":1743099215,"current_range_meters":11600,"station_id":"ce4bhgh2rcd13ifvqfb0","pricing_plan_id":"cebpf4jnsgd1na2vs0mg"},{"bike_id":"a5fe01a1-6b15-4df7-ab2e-c9ba8a779b66","system_id":"levelo_inurba_marseille","lat":43.25729,"lon":5.41105,"is_reserved":false,"is_disabled":false,"rental_uris":{"android":"levelo://app?vid=a5fe01a1-6b15-4df7-ab2e-c9ba8a779b66","ios":"levelo://app?vid=a5fe01a1-6b15-4df7-ab2e-c9ba8a779b66"},"vehicle_type_id":"4","last_reported":1743099215,"current_range_meters":11600,"station_id":"ce4bhkp2rcd13ifvqgd0","pricing_plan_id":"cebpf4jnsgd1na2vs0mg"},{"bike_id":"8bd09c01-b502-40f2-b040-4542472dec65","system_id":"levelo_inurba_marseille","lat":43.33031,"lon":5.39032,"is_reserved":false,"is_disabled":false,"rental_uris":{"android":"levelo://app?vid=8bd09c01-b502-40f2-b040-4542472dec65","ios":"levelo://app?vid=8bd09c01-b502-40f2-b040-4542472dec65"},"vehicle_type_id":"4","last_reported":1743099215,"current_range_meters":11600,"station_id":"ce4bhr92rcd13ifvqhrg","pricing_plan_id":"cebpf4jnsgd1na2vs0mg"},{"bike_id":"5795013b-1873-4138-934c-4f7bc8bec104","system_id":"levelo_inurba_marseille","lat":43.28709,"lon":5.3739,"is_reserved":false,"is_disabled":false,"rental_uris":{"android":"levelo://app?vid=5795013b-1873-4138-934c-4f7bc8bec104","ios":"levelo://app?vid=5795013b-1873-4138-934c-4f7bc8bec104"},"vehicle_type_id":"4","last_reported":1743099215,"current_range_meters":12000,"station_id":"ce4bh3p2rcd13ifvqdq0","pricing_plan_id":"cebpf4jnsgd1na2vs0mg"},{"bike_id":"8b79708b-1f3f-4502-80bb-ad0514a8f370","system_id":"levelo_inurba_marseille","lat":43.29278,"lon":5.36841,"is_reserved":false,"is_disabled":false,"rental_uris":{"android":"levelo://app?vid=8b79708b-1f3f-4502-80bb-ad0514a8f370","ios":"levelo://app?vid=8b79708b-1f3f-4502-80bb-ad0514a8f370"},"vehicle_type_id":"4","last_reported":1743099215,"current_range_meters":12000,"station_id":"ce4bhbp2rcd13ifvqesg","pricing_plan_id":"cebpf4jnsgd1na2vs0mg"},{"bike_id":"37db586c-01d4-4849-9e84-abaeb9535612","system_id":"levelo_inurba_marseille","lat":43.26556,"lon":5.38996,"is_reserved":false,"is_disabled":false,"rental_uris":{"android":"levelo://app?vid=37db586c-01d4-4849-9e84-abaeb9535612","ios":"levelo://app?vid=37db586c-01d4-4849-9e84-abaeb9535612"},"vehicle_type_id":"4","last_reported":1743099215,"current_range_meters":12000,"station_id":"ce4bhe12rcd13ifvqf30","pricing_plan_id":"cebpf4jnsgd1na2vs0mg"},{"bike_id":"f05ff819-6ace-4df6-bb5b-3a5dfcb22394","system_id":"levelo_inurba_marseille","lat":43.28285,"lon":5.35056,"is_reserved":false,"is_disabled":false,"rental_uris":{"android":"levelo://app?vid=f05ff819-6ace-4df6-bb5b-3a5dfcb22394","ios":"levelo://app?vid=f05ff819-6ace-4df6-bb5b-3a5dfcb22394"},"vehicle_type_id":"4","last_reported":1743099215,"current_range_meters":12000,"station_id":"ce4bhbp2rcd13ifvqerg","pricing_plan_id":"cebpf4jnsgd1na2vs0mg"},{"bike_id":"e39f0277-8842-447f-8838-fb2880aa78ea","system_id":"levelo_inurba_marseille","lat":43.28927,"lon":5.36649,"is_reserved":false,"is_disabled":false,"rental_uris":{"android":"levelo://app?vid=e39f0277-8842-447f-8838-fb2880aa78ea","ios":"levelo://app?vid=e39f0277-8842-447f-8838-fb2880aa78ea"},"vehicle_type_id":"4","last_reported":1743099215,"current_range_meters":12000,"station_id":"ce4bhap2rcd13ifvqek0","pricing_plan_id":"cebpf4jnsgd1na2vs0mg"},{"bike_id":"9642d248-9b76-4270-b3f0-305f53b52914","system_id":"levelo_inurba_marseille","lat":43.30183,"lon":5.36608,"is_reserved":false,"is_disabled":false,"rental_uris":{"android":"levelo://app?vid=9642d248-9b76-4270-b3f0-305f53b52914","ios":"levelo://app?vid=9642d248-9b76-4270-b3f0-305f53b52914"},"vehicle_type_id":"4","last_reported":1743099215,"current_range_meters":12000,"station_id":"ce4bgrh2rcd13ifvqc8g","pricing_plan_id":"cebpf4jnsgd1na2vs0mg"},{"bike_id":"c1b2b2de-f6b5-4bdb-9794-2089e9ae31db","system_id":"levelo_inurba_marseille","lat":43.30936,"lon":5.40148,"is_reserved":false,"is_disabled":false,"rental_uris":{"android":"levelo://app?vid=c1b2b2de-f6b5-4bdb-9794-2089e9ae31db","ios":"levelo://app?vid=c1b2b2de-f6b5-4bdb-9794-2089e9ae31db"},"vehicle_type_id":"4","last_reported":1743099215,"current_range_meters":12000,"station_id":"ce4bgvp2rcd13ifvqct0","pricing_plan_id":"cebpf4jnsgd1na2vs0mg"},{"bike_id":"4605e24d-65b2-4424-9d4d-b88f889f4b8e","system_id":"levelo_inurba_marseille","lat":43.28104,"lon":5.39834,"is_reserved":false,"is_disabled":false,"rental_uris":{"android":"levelo://app?vid=4605e24d-65b2-4424-9d4d-b88f889f4b8e","ios":"levelo://app?vid=4605e24d-65b2-4424-9d4d-b88f889f4b8e"},"vehicle_type_id":"4","last_reported":1743099215,"current_range_meters":12000,"station_id":"","pricing_plan_id":"cebpf4jnsgd1na2vs0mg"},{"bike_id":"c5e9ef1f-0107-4e7c-b287-853a0f01db25","system_id":"levelo_inurba_marseille","lat":43.31757,"lon":5.39016,"is_reserved":false,"is_disabled":false,"rental_uris":{"android":"levelo://app?vid=c5e9ef1f-0107-4e7c-b287-853a0f01db25","ios":"levelo://app?vid=c5e9ef1f-0107-4e7c-b287-853a0f01db25"},"vehicle_type_id":"4","last_reported":1743099215,"current_range_meters":12400,"station_id":"ce4bhqp2rcd13ifvqhng","pricing_plan_id":"cebpf4jnsgd1na2vs0mg"},{"bike_id":"cfed900d-e17f-46a7-9847-c8d921508ac3","system_id":"levelo_inurba_marseille","lat":43.23961,"lon":5.36654,"is_reserved":false,"is_disabled":false,"rental_uris":{"android":"levelo://app?vid=cfed900d-e17f-46a7-9847-c8d921508ac3","ios":"levelo://app?vid=cfed900d-e17f-46a7-9847-c8d921508ac3"},"vehicle_type_id":"4","last_reported":1743099215,"current_range_meters":12400,"station_id":"ce4bhi12rcd13ifvqfp0","pricing_plan_id":"cebpf4jnsgd1na2vs0mg"},{"bike_id":"6ad6709e-62e4-4c38-9a15-b02c28a6662c","system_id":"levelo_inurba_marseille","lat":43.31371,"lon":5.38514,"is_reserved":false,"is_disabled":false,"rental_uris":{"android":"levelo://app?vid=6ad6709e-62e4-4c38-9a15-b02c28a6662c","ios":"levelo://app?vid=6ad6709e-62e4-4c38-9a15-b02c28a6662c"},"vehicle_type_id":"4","last_reported":1743099215,"current_range_meters":12000,"station_id":"ce4bgt92rcd13ifvqcf0","pricing_plan_id":"cebpf4jnsgd1na2vs0mg"},{"bike_id":"f19a1679-b869-4fc5-9740-085bdf1b80f5","system_id":"levelo_inurba_marseille","lat":43.30181,"lon":5.36605,"is_reserved":false,"is_disabled":false,"rental_uris":{"android":"levelo://app?vid=f19a1679-b869-4fc5-9740-085bdf1b80f5","ios":"levelo://app?vid=f19a1679-b869-4fc5-9740-085bdf1b80f5"},"vehicle_type_id":"4","last_reported":1743099215,"current_range_meters":12400,"station_id":"ce4bgrh2rcd13ifvqc8g","pricing_plan_id":"cebpf4jnsgd1na2vs0mg"},{"bike_id":"dccee659-6f8b-4c7d-add7-97666e13dea8","system_id":"levelo_inurba_marseille","lat":43.250875,"lon":5.395311,"is_reserved":false,"is_disabled":false,"rental_uris":{"android":"levelo://app?vid=dccee659-6f8b-4c7d-add7-97666e13dea8","ios":"levelo://app?vid=dccee659-6f8b-4c7d-add7-97666e13dea8"},"vehicle_type_id":"4","last_reported":1743099215,"current_range_meters":12400,"station_id":"ce4bhm12rcd13ifvqgkg","pricing_plan_id":"cebpf4jnsgd1na2vs0mg"},{"bike_id":"3b3277ef-42f3-4fff-acbd-89c8bba537ac","system_id":"levelo_inurba_marseille","lat":43.27998,"lon":5.40023,"is_reserved":false,"is_disabled":false,"rental_uris":{"android":"levelo://app?vid=3b3277ef-42f3-4fff-acbd-89c8bba537ac","ios":"levelo://app?vid=3b3277ef-42f3-4fff-acbd-89c8bba537ac"},"vehicle_type_id":"4","last_reported":1743099215,"current_range_meters":12000,"station_id":"ce4bho92rcd13ifvqh4g","pricing_plan_id":"cebpf4jnsgd1na2vs0mg"},{"bike_id":"9a5a54a6-3bf7-4dc1-b008-3b41f0ec6921","system_id":"levelo_inurba_marseille","lat":43.284491,"lon":5.391993,"is_reserved":false,"is_disabled":false,"rental_uris":{"android":"levelo://app?vid=9a5a54a6-3bf7-4dc1-b008-3b41f0ec6921","ios":"levelo://app?vid=9a5a54a6-3bf7-4dc1-b008-3b41f0ec6921"},"vehicle_type_id":"4","last_reported":1743099215,"current_range_meters":12000,"station_id":"ce4bhoh2rcd13ifvqh5g","pricing_plan_id":"cebpf4jnsgd1na2vs0mg"},{"bike_id":"d2fc0997-6c76-4e8a-98d6-d3a3a07f4f7c","system_id":"levelo_inurba_marseille","lat":43.28353,"lon":5.38096,"is_reserved":false,"is_disabled":false,"rental_uris":{"android":"levelo://app?vid=d2fc0997-6c76-4e8a-98d6-d3a3a07f4f7c","ios":"levelo://app?vid=d2fc0997-6c76-4e8a-98d6-d3a3a07f4f7c"},"vehicle_type_id":"4","last_reported":1743099215,"current_range_meters":12400,"station_id":"ce4bh412rcd13ifvqdr0","pricing_plan_id":"cebpf4jnsgd1na2vs0mg"},{"bike_id":"6a445437-040d-40e9-8502-6b7f2071b06a","system_id":"levelo_inurba_marseille","lat":43.3169,"lon":5.38944,"is_reserved":false,"is_disabled":false,"rental_uris":{"android":"levelo://app?vid=6a445437-040d-40e9-8502-6b7f2071b06a","ios":"levelo://app?vid=6a445437-040d-40e9-8502-6b7f2071b06a"},"vehicle_type_id":"4","last_reported":1743099215,"current_range_meters":12800,"station_id":"","pricing_plan_id":"cebpf4jnsgd1na2vs0mg"},{"bike_id":"45e185b5-af11-4505-874c-dcbbba564136","system_id":"levelo_inurba_marseille","lat":43.29277,"lon":5.36852,"is_reserved":false,"is_disabled":false,"rental_uris":{"android":"levelo://app?vid=45e185b5-af11-4505-874c-dcbbba564136","ios":"levelo://app?vid=45e185b5-af11-4505-874c-dcbbba564136"},"vehicle_type_id":"4","last_reported":1743099215,"current_range_meters":12800,"station_id":"ce4bhbp2rcd13ifvqesg","pricing_plan_id":"cebpf4jnsgd1na2vs0mg"},{"bike_id":"c11a4eb9-648f-4fa7-aefc-e342d02ebe0d","system_id":"levelo_inurba_marseille","lat":43.28735,"lon":5.36075,"is_reserved":false,"is_disabled":false,"rental_uris":{"android":"levelo://app?vid=c11a4eb9-648f-4fa7-aefc-e342d02ebe0d","ios":"levelo://app?vid=c11a4eb9-648f-4fa7-aefc-e342d02ebe0d"},"vehicle_type_id":"4","last_reported":1743099215,"current_range_meters":12800,"station_id":"cki0cbj6b192h4jlfktg","pricing_plan_id":"cebpf4jnsgd1na2vs0mg"},{"bike_id":"5f61d36b-819a-41c5-a8a1-ce3bbe1fd336","system_id":"levelo_inurba_marseille","lat":43.25584,"lon":5.38224,"is_reserved":false,"is_disabled":false,"rental_uris":{"android":"levelo://app?vid=5f61d36b-819a-41c5-a8a1-ce3bbe1fd336","ios":"levelo://app?vid=5f61d36b-819a-41c5-a8a1-ce3bbe1fd336"},"vehicle_type_id":"4","last_reported":1743099215,"current_range_meters":12800,"station_id":"ce4bhih2rcd13ifvqfs0","pricing_plan_id":"cebpf4jnsgd1na2vs0mg"},{"bike_id":"9f315d73-ec20-4c4b-86c6-602daba06c1b","system_id":"levelo_inurba_marseille","lat":43.29423,"lon":5.38636,"is_reserved":false,"is_disabled":false,"rental_uris":{"android":"levelo://app?vid=9f315d73-ec20-4c4b-86c6-602daba06c1b","ios":"levelo://app?vid=9f315d73-ec20-4c4b-86c6-602daba06c1b"},"vehicle_type_id":"4","last_reported":1743099215,"current_range_meters":12800,"station_id":"ce4bh2h2rcd13ifvqdh0","pricing_plan_id":"cebpf4jnsgd1na2vs0mg"},{"bike_id":"2e919ca5-ce98-4c47-a9d7-66e6ab7584e4","system_id":"levelo_inurba_marseille","lat":43.32103,"lon":5.36805,"is_reserved":false,"is_disabled":false,"rental_uris":{"android":"levelo://app?vid=2e919ca5-ce98-4c47-a9d7-66e6ab7584e4","ios":"levelo://app?vid=2e919ca5-ce98-4c47-a9d7-66e6ab7584e4"},"vehicle_type_id":"4","last_reported":1743099215,"current_range_meters":12800,"station_id":"ce4bhrh2rcd13ifvqhug","pricing_plan_id":"cebpf4jnsgd1na2vs0mg"},{"bike_id":"38d67c46-bf2e-4a99-9c98-ca4c85107e16","system_id":"levelo_inurba_marseille","lat":43.297827,"lon":5.381564,"is_reserved":false,"is_disabled":false,"rental_uris":{"android":"levelo://app?vid=38d67c46-bf2e-4a99-9c98-ca4c85107e16","ios":"levelo://app?vid=38d67c46-bf2e-4a99-9c98-ca4c85107e16"},"vehicle_type_id":"4","last_reported":1743099215,"current_range_meters":12400,"station_id":"ce4bhph2rcd13ifvqhdg","pricing_plan_id":"cebpf4jnsgd1na2vs0mg"},{"bike_id":"40a01e84-ca3c-4fe0-8042-9fbd669c1a71","system_id":"levelo_inurba_marseille","lat":43.29257,"lon":5.38449,"is_reserved":false,"is_disabled":false,"rental_uris":{"android":"levelo://app?vid=40a01e84-ca3c-4fe0-8042-9fbd669c1a71","ios":"levelo://app?vid=40a01e84-ca3c-4fe0-8042-9fbd669c1a71"},"vehicle_type_id":"4","last_reported":1743099215,"current_range_meters":12800,"station_id":"ce4bh692rcd13ifvqea0","pricing_plan_id":"cebpf4jnsgd1na2vs0mg"},{"bike_id":"1c14bf9c-ada4-4a36-8853-740a1a2c000a","system_id":"levelo_inurba_marseille","lat":43.23193,"lon":5.35568,"is_reserved":false,"is_disabled":false,"rental_uris":{"android":"levelo://app?vid=1c14bf9c-ada4-4a36-8853-740a1a2c000a","ios":"levelo://app?vid=1c14bf9c-ada4-4a36-8853-740a1a2c000a"},"vehicle_type_id":"4","last_reported":1743099215,"current_range_meters":12800,"station_id":"ce4bhu92rcd13ifvqi70","pricing_plan_id":"cebpf4jnsgd1na2vs0mg"},{"bike_id":"24d03490-7f45-4e42-8195-e502fd9ef912","system_id":"levelo_inurba_marseille","lat":43.28714,"lon":5.37934,"is_reserved":false,"is_disabled":false,"rental_uris":{"android":"levelo://app?vid=24d03490-7f45-4e42-8195-e502fd9ef912","ios":"levelo://app?vid=24d03490-7f45-4e42-8195-e502fd9ef912"},"vehicle_type_id":"4","last_reported":1743099215,"current_range_meters":12800,"station_id":"ce4bh9p2rcd13ifvqec0","pricing_plan_id":"cebpf4jnsgd1na2vs0mg"},{"bike_id":"6394004e-172e-4aeb-92a1-b9f1bbe1a4e3","system_id":"levelo_inurba_marseille","lat":43.24811,"lon":5.37457,"is_reserved":false,"is_disabled":false,"rental_uris":{"android":"levelo://app?vid=6394004e-172e-4aeb-92a1-b9f1bbe1a4e3","ios":"levelo://app?vid=6394004e-172e-4aeb-92a1-b9f1bbe1a4e3"},"vehicle_type_id":"4","last_reported":1743099215,"current_range_meters":13600,"station_id":"ce4bhgh2rcd13ifvqfb0","pricing_plan_id":"cebpf4jnsgd1na2vs0mg"},{"bike_id":"3d017456-a856-4e6d-9dd0-7514cd4c0b7f","system_id":"levelo_inurba_marseille","lat":43.28938,"lon":5.36638,"is_reserved":false,"is_disabled":false,"rental_uris":{"android":"levelo://app?vid=3d017456-a856-4e6d-9dd0-7514cd4c0b7f","ios":"levelo://app?vid=3d017456-a856-4e6d-9dd0-7514cd4c0b7f"},"vehicle_type_id":"4","last_reported":1743099215,"current_range_meters":13600,"station_id":"ce4bhap2rcd13ifvqek0","pricing_plan_id":"cebpf4jnsgd1na2vs0mg"},{"bike_id":"8b3d1d70-0d25-4719-9b48-f9b4a4e515ca","system_id":"levelo_inurba_marseille","lat":43.27946,"lon":5.41048,"is_reserved":false,"is_disabled":false,"rental_uris":{"android":"levelo://app?vid=8b3d1d70-0d25-4719-9b48-f9b4a4e515ca","ios":"levelo://app?vid=8b3d1d70-0d25-4719-9b48-f9b4a4e515ca"},"vehicle_type_id":"4","last_reported":1743099215,"current_range_meters":13600,"station_id":"ce4bhnp2rcd13ifvqh0g","pricing_plan_id":"cebpf4jnsgd1na2vs0mg"},{"bike_id":"a01706a8-35a2-465f-8bde-5fb0fcc97e37","system_id":"levelo_inurba_marseille","lat":43.29007,"lon":5.35609,"is_reserved":false,"is_disabled":false,"rental_uris":{"android":"levelo://app?vid=a01706a8-35a2-465f-8bde-5fb0fcc97e37","ios":"levelo://app?vid=a01706a8-35a2-465f-8bde-5fb0fcc97e37"},"vehicle_type_id":"4","last_reported":1743099215,"current_range_meters":13600,"station_id":"ce4bhb92rcd13ifvqen0","pricing_plan_id":"cebpf4jnsgd1na2vs0mg"},{"bike_id":"3482cc2c-db30-4814-95a2-af997e543e18","system_id":"levelo_inurba_marseille","lat":43.30894,"lon":5.39647,"is_reserved":false,"is_disabled":false,"rental_uris":{"android":"levelo://app?vid=3482cc2c-db30-4814-95a2-af997e543e18","ios":"levelo://app?vid=3482cc2c-db30-4814-95a2-af997e543e18"},"vehicle_type_id":"4","last_reported":1743099215,"current_range_meters":13600,"station_id":"ce4bh012rcd13ifvqcv0","pricing_plan_id":"cebpf4jnsgd1na2vs0mg"},{"bike_id":"e249d185-fa57-46ca-b85c-e4dbc124c3fe","system_id":"levelo_inurba_marseille","lat":43.31329,"lon":5.39695,"is_reserved":false,"is_disabled":false,"rental_uris":{"android":"levelo://app?vid=e249d185-fa57-46ca-b85c-e4dbc124c3fe","ios":"levelo://app?vid=e249d185-fa57-46ca-b85c-e4dbc124c3fe"},"vehicle_type_id":"4","last_reported":1743099215,"current_range_meters":13600,"station_id":"ce4bgvp2rcd13ifvqcu0","pricing_plan_id":"cebpf4jnsgd1na2vs0mg"},{"bike_id":"ed3f340d-7b56-49a7-952a-c79c8daa5f0f","system_id":"levelo_inurba_marseille","lat":43.30131,"lon":5.38792,"is_reserved":false,"is_disabled":true,"rental_uris":{"android":"levelo://app?vid=ed3f340d-7b56-49a7-952a-c79c8daa5f0f","ios":"levelo://app?vid=ed3f340d-7b56-49a7-952a-c79c8daa5f0f"},"vehicle_type_id":"4","last_reported":1743099215,"current_range_meters":13600,"station_id":"ce4bghh2rcd13ifvqb60","pricing_plan_id":"cebpf4jnsgd1na2vs0mg"},{"bike_id":"b5558eec-1cb4-4fec-87b1-7a6423201837","system_id":"levelo_inurba_marseille","lat":43.282617,"lon":5.350827,"is_reserved":false,"is_disabled":false,"rental_uris":{"android":"levelo://app?vid=b5558eec-1cb4-4fec-87b1-7a6423201837","ios":"levelo://app?vid=b5558eec-1cb4-4fec-87b1-7a6423201837"},"vehicle_type_id":"4","last_reported":1743099215,"current_range_meters":13600,"station_id":"ce4bh192rcd13ifvqdd0","pricing_plan_id":"cebpf4jnsgd1na2vs0mg"},{"bike_id":"8ceeebe0-0d0e-4abf-ae5c-034af4f462ab","system_id":"levelo_inurba_marseille","lat":43.286607,"lon":5.386741,"is_reserved":false,"is_disabled":false,"rental_uris":{"android":"levelo://app?vid=8ceeebe0-0d0e-4abf-ae5c-034af4f462ab","ios":"levelo://app?vid=8ceeebe0-0d0e-4abf-ae5c-034af4f462ab"},"vehicle_type_id":"4","last_reported":1743099215,"current_range_meters":12800,"station_id":"ce4bh3h2rcd13ifvqdo0","pricing_plan_id":"cebpf4jnsgd1na2vs0mg"},{"bike_id":"1cefd43e-f289-433e-80c7-35602e04435a","system_id":"levelo_inurba_marseille","lat":43.2719,"lon":5.40975,"is_reserved":false,"is_disabled":false,"rental_uris":{"android":"levelo://app?vid=1cefd43e-f289-433e-80c7-35602e04435a","ios":"levelo://app?vid=1cefd43e-f289-433e-80c7-35602e04435a"},"vehicle_type_id":"4","last_reported":1743099215,"current_range_meters":13600,"station_id":"ce4bhl12rcd13ifvqgf0","pricing_plan_id":"cebpf4jnsgd1na2vs0mg"},{"bike_id":"bb6d3e35-eb6d-49e4-9094-4a82b36c2c46","system_id":"levelo_inurba_marseille","lat":43.32376,"lon":5.36782,"is_reserved":false,"is_disabled":false,"rental_uris":{"android":"levelo://app?vid=bb6d3e35-eb6d-49e4-9094-4a82b36c2c46","ios":"levelo://app?vid=bb6d3e35-eb6d-49e4-9094-4a82b36c2c46"},"vehicle_type_id":"4","last_reported":1743099215,"current_range_meters":14000,"station_id":"ce4bhsh2rcd13ifvqi2g","pricing_plan_id":"cebpf4jnsgd1na2vs0mg"},{"bike_id":"22969e80-a0c8-4adc-afa1-88c5691d0ba1","system_id":"levelo_inurba_marseille","lat":43.29272,"lon":5.36846,"is_reserved":false,"is_disabled":false,"rental_uris":{"android":"levelo://app?vid=22969e80-a0c8-4adc-afa1-88c5691d0ba1","ios":"levelo://app?vid=22969e80-a0c8-4adc-afa1-88c5691d0ba1"},"vehicle_type_id":"4","last_reported":1743099215,"current_range_meters":14000,"station_id":"ce4bhbp2rcd13ifvqesg","pricing_plan_id":"cebpf4jnsgd1na2vs0mg"},{"bike_id":"5dd4e3a5-11a2-402f-bf49-471ea2a81500","system_id":"levelo_inurba_marseille","lat":43.29869,"lon":5.39736,"is_reserved":false,"is_disabled":false,"rental_uris":{"android":"levelo://app?vid=5dd4e3a5-11a2-402f-bf49-471ea2a81500","ios":"levelo://app?vid=5dd4e3a5-11a2-402f-bf49-471ea2a81500"},"vehicle_type_id":"4","last_reported":1743099215,"current_range_meters":14000,"station_id":"ce4bh0h2rcd13ifvqd50","pricing_plan_id":"cebpf4jnsgd1na2vs0mg"},{"bike_id":"2aaf5d8a-a2db-47f1-a641-ee450067d761","system_id":"levelo_inurba_marseille","lat":43.29423,"lon":5.3862,"is_reserved":false,"is_disabled":false,"rental_uris":{"android":"levelo://app?vid=2aaf5d8a-a2db-47f1-a641-ee450067d761","ios":"levelo://app?vid=2aaf5d8a-a2db-47f1-a641-ee450067d761"},