{"last_updated":1733429493,"ttl":60,"version":"2.2","data":{"bikes":[{"bike_id":"c70633fa-87dc-4ab7-ac61-d92c5cffa047","system_id":"levelo_inurba_marseille","lat":43.303275,"lon":5.404321,"is_reserved":false,"is_disabled":false,"rental_uris":{"android":"levelo://app?vid=c70633fa-87dc-4ab7-ac61-d92c5cffa047","ios":"levelo://app?vid=c70633fa-87dc-4ab7-ac61-d92c5cffa047"},"vehicle_type_id":"4","last_reported":1733429493,"current_range_meters":38800,"station_id":"ce4bh012rcd13ifvqd10","pricing_plan_id":"cebpf4jnsgd1na2vs0mg"},{"bike_id":"0b41a6d6-c494-4679-bc43-0d3b21a53f75","system_id":"levelo_inurba_marseille","lat":43.27174,"lon":5.40983,"is_reserved":false,"is_disabled":false,"rental_uris":{"android":"levelo://app?vid=0b41a6d6-c494-4679-bc43-0d3b21a53f75","ios":"levelo://app?vid=0b41a6d6-c494-4679-bc43-0d3b21a53f75"},"vehicle_type_id":"4","last_reported":1733429493,"current_range_meters":38800,"station_id":"ce4bhl12rcd13ifvqgf0","pricing_plan_id":"cebpf4jnsgd1na2vs0mg"},{"bike_id":"056ec1aa-99e6-484a-b06a-615f236b43aa","system_id":"levelo_inurba_marseille","lat":43.31368,"lon":5.38501,"is_reserved":false,"is_disabled":false,"rental_uris":{"android":"levelo://app?vid=056ec1aa-99e6-484a-b06a-615f236b43aa","ios":"levelo://app?vid=056ec1aa-99e6-484a-b06a-615f236b43aa"},"vehicle_type_id":"4","last_reported":1733429493,"current_range_meters":18800,"station_id":"ce4bgt92rcd13ifvqcf0","pricing_plan_id":"cebpf4jnsgd1na2vs0mg"},{"bike_id":"df479c2c-35ac-44ad-b9d6-81c89ed769ce","system_id":"levelo_inurba_marseille","lat":43.29699,"lon":5.37054,"is_reserved":false,"is_disabled":true,"rental_uris":{"android":"levelo://app?vid=df479c2c-35ac-44ad-b9d6-81c89ed769ce","ios":"levelo://app?vid=df479c2c-35ac-44ad-b9d6-81c89ed769ce"},"vehicle_type_id":"4","last_reported":1733429493,"current_range_meters":0,"station_id":"","pricing_plan_id":"cebpf4jnsgd1na2vs0mg"},{"bike_id":"8e029eaf-e104-4c5d-858d-6cd39de73d09","system_id":"levelo_inurba_marseille","lat":43.24168,"lon":5.36378,"is_reserved":false,"is_disabled":false,"rental_uris":{"android":"levelo://app?vid=8e029eaf-e104-4c5d-858d-6cd39de73d09","ios":"levelo://app?vid=8e029eaf-e104-4c5d-858d-6cd39de73d09"},"vehicle_type_id":"4","last_reported":1733429493,"current_range_meters":5600,"station_id":"cpo36qri1sfpv3e86is0","pricing_plan_id":"cebpf4jnsgd1na2vs0mg"},{"bike_id":"bc6d1df1-c307-4d6f-9ccf-49fb0c32794a","system_id":"levelo_inurba_marseille","lat":43.25858,"lon":5.39904,"is_reserved":false,"is_disabled":false,"rental_uris":{"android":"levelo://app?vid=bc6d1df1-c307-4d6f-9ccf-49fb0c32794a","ios":"levelo://app?vid=bc6d1df1-c307-4d6f-9ccf-49fb0c32794a"},"vehicle_type_id":"4","last_reported":1733429493,"current_range_meters":38800,"station_id":"ce4bhl92rcd13ifvqghg","pricing_plan_id":"cebpf4jnsgd1na2vs0mg"},{"bike_id":"9eaf0b45-aadf-46f2-a199-cf4fed58f833","system_id":"levelo_inurba_marseille","lat":43.30885,"lon":5.39636,"is_reserved":false,"is_disabled":false,"rental_uris":{"android":"levelo://app?vid=9eaf0b45-aadf-46f2-a199-cf4fed58f833","ios":"levelo://app?vid=9eaf0b45-aadf-46f2-a199-cf4fed58f833"},"vehicle_type_id":"4","last_reported":1733429493,"current_range_meters":28400,"station_id":"ce4bh012rcd13ifvqcv0","pricing_plan_id":"cebpf4jnsgd1na2vs0mg"},{"bike_id":"9e08f281-c0e3-4a9d-ba4a-3c95e0797110","system_id":"levelo_inurba_marseille","lat":43.28082,"lon":5.3965,"is_reserved":false,"is_disabled":false,"rental_uris":{"android":"levelo://app?vid=9e08f281-c0e3-4a9d-ba4a-3c95e0797110","ios":"levelo://app?vid=9e08f281-c0e3-4a9d-ba4a-3c95e0797110"},"vehicle_type_id":"4","last_reported":1733429493,"current_range_meters":38800,"station_id":"ce4bho12rcd13ifvqh2g","pricing_plan_id":"cebpf4jnsgd1na2vs0mg"},{"bike_id":"385713fa-f8fc-48ae-847d-7a572bf9e411","system_id":"levelo_inurba_marseille","lat":43.28152,"lon":5.4264,"is_reserved":false,"is_disabled":false,"rental_uris":{"android":"levelo://app?vid=385713fa-f8fc-48ae-847d-7a572bf9e411","ios":"levelo://app?vid=385713fa-f8fc-48ae-847d-7a572bf9e411"},"vehicle_type_id":"4","last_reported":1733429493,"current_range_meters":38800,"station_id":"ce4bhnh2rcd13ifvqgug","pricing_plan_id":"cebpf4jnsgd1na2vs0mg"},{"bike_id":"be407bbe-d1ce-48de-8db2-09114af9efd7","system_id":"levelo_inurba_marseille","lat":43.3236,"lon":5.36754,"is_reserved":false,"is_disabled":false,"rental_uris":{"android":"levelo://app?vid=be407bbe-d1ce-48de-8db2-09114af9efd7","ios":"levelo://app?vid=be407bbe-d1ce-48de-8db2-09114af9efd7"},"vehicle_type_id":"4","last_reported":1733429493,"current_range_meters":27600,"station_id":"ce4bhsh2rcd13ifvqi2g","pricing_plan_id":"cebpf4jnsgd1na2vs0mg"},{"bike_id":"f837767d-1d97-449b-9b90-acb8a8f2d40c","system_id":"levelo_inurba_marseille","lat":43.27995,"lon":5.40002,"is_reserved":false,"is_disabled":false,"rental_uris":{"android":"levelo://app?vid=f837767d-1d97-449b-9b90-acb8a8f2d40c","ios":"levelo://app?vid=f837767d-1d97-449b-9b90-acb8a8f2d40c"},"vehicle_type_id":"4","last_reported":1733429493,"current_range_meters":16000,"station_id":"ce4bho92rcd13ifvqh4g","pricing_plan_id":"cebpf4jnsgd1na2vs0mg"},{"bike_id":"8c0b0fc8-734e-4ca6-b676-eb93f9346fac","system_id":"levelo_inurba_marseille","lat":43.27812,"lon":5.4071,"is_reserved":false,"is_disabled":false,"rental_uris":{"android":"levelo://app?vid=8c0b0fc8-734e-4ca6-b676-eb93f9346fac","ios":"levelo://app?vid=8c0b0fc8-734e-4ca6-b676-eb93f9346fac"},"vehicle_type_id":"4","last_reported":1733429493,"current_range_meters":10000,"station_id":"ce4bhnh2rcd13ifvqgtg","pricing_plan_id":"cebpf4jnsgd1na2vs0mg"},{"bike_id":"c0869f77-f41f-49a0-b689-2ea4c84570f8","system_id":"levelo_inurba_marseille","lat":43.2925,"lon":5.40907,"is_reserved":false,"is_disabled":false,"rental_uris":{"android":"levelo://app?vid=c0869f77-f41f-49a0-b689-2ea4c84570f8","ios":"levelo://app?vid=c0869f77-f41f-49a0-b689-2ea4c84570f8"},"vehicle_type_id":"4","last_reported":1733429493,"current_range_meters":27600,"station_id":"ce4bh192rcd13ifvqdc0","pricing_plan_id":"cebpf4jnsgd1na2vs0mg"},{"bike_id":"ca2a556f-9af6-4af4-8014-51a47bb9c9b7","system_id":"levelo_inurba_marseille","lat":43.33021,"lon":5.39039,"is_reserved":false,"is_disabled":true,"rental_uris":{"android":"levelo://app?vid=ca2a556f-9af6-4af4-8014-51a47bb9c9b7","ios":"levelo://app?vid=ca2a556f-9af6-4af4-8014-51a47bb9c9b7"},"vehicle_type_id":"4","last_reported":1733429493,"current_range_meters":0,"station_id":"ce4bhr92rcd13ifvqhrg","pricing_plan_id":"cebpf4jnsgd1na2vs0mg"},{"bike_id":"8bd642b2-0279-44c7-9ee2-fc3b57332c83","system_id":"levelo_inurba_marseille","lat":43.27455,"lon":5.40073,"is_reserved":false,"is_disabled":true,"rental_uris":{"android":"levelo://app?vid=8bd642b2-0279-44c7-9ee2-fc3b57332c83","ios":"levelo://app?vid=8bd642b2-0279-44c7-9ee2-fc3b57332c83"},"vehicle_type_id":"4","last_reported":1733429493,"current_range_meters":0,"station_id":"","pricing_plan_id":"cebpf4jnsgd1na2vs0mg"},{"bike_id":"4cc95def-6e1e-4f3a-86c5-5fa2206cccc9","system_id":"levelo_inurba_marseille","lat":43.2677,"lon":5.3942,"is_reserved":false,"is_disabled":false,"rental_uris":{"android":"levelo://app?vid=4cc95def-6e1e-4f3a-86c5-5fa2206cccc9","ios":"levelo://app?vid=4cc95def-6e1e-4f3a-86c5-5fa2206cccc9"},"vehicle_type_id":"4","last_reported":1733429493,"current_range_meters":5600,"station_id":"ce4bhh12rcd13ifvqfg0","pricing_plan_id":"cebpf4jnsgd1na2vs0mg"},{"bike_id":"5b667cd8-1ed1-4b03-8bee-ef4c0498560e","system_id":"levelo_inurba_marseille","lat":43.25002,"lon":5.38917,"is_reserved":false,"is_disabled":false,"rental_uris":{"android":"levelo://app?vid=5b667cd8-1ed1-4b03-8bee-ef4c0498560e","ios":"levelo://app?vid=5b667cd8-1ed1-4b03-8bee-ef4c0498560e"},"vehicle_type_id":"4","last_reported":1733429493,"current_range_meters":22000,"station_id":"ce4bhgp2rcd13ifvqfd0","pricing_plan_id":"cebpf4jnsgd1na2vs0mg"},{"bike_id":"b795dee5-c06c-4130-a681-111c2f6d1ab8","system_id":"levelo_inurba_marseille","lat":43.27945,"lon":5.41035,"is_reserved":false,"is_disabled":false,"rental_uris":{"android":"levelo://app?vid=b795dee5-c06c-4130-a681-111c2f6d1ab8","ios":"levelo://app?vid=b795dee5-c06c-4130-a681-111c2f6d1ab8"},"vehicle_type_id":"4","last_reported":1733429493,"current_range_meters":8800,"station_id":"ce4bhnp2rcd13ifvqh0g","pricing_plan_id":"cebpf4jnsgd1na2vs0mg"},{"bike_id":"aceaf3fe-0b8f-40c4-a5b9-14561cd89242","system_id":"levelo_inurba_marseille","lat":43.2762,"lon":5.36106,"is_reserved":false,"is_disabled":false,"rental_uris":{"android":"levelo://app?vid=aceaf3fe-0b8f-40c4-a5b9-14561cd89242","ios":"levelo://app?vid=aceaf3fe-0b8f-40c4-a5b9-14561cd89242"},"vehicle_type_id":"4","last_reported":1733429493,"current_range_meters":26800,"station_id":"ce4bgj92rcd13ifvqbe0","pricing_plan_id":"cebpf4jnsgd1na2vs0mg"},{"bike_id":"f08ed983-2fb9-4097-bca6-eb6cce0aac5d","system_id":"levelo_inurba_marseille","lat":43.24806,"lon":5.37454,"is_reserved":false,"is_disabled":false,"rental_uris":{"android":"levelo://app?vid=f08ed983-2fb9-4097-bca6-eb6cce0aac5d","ios":"levelo://app?vid=f08ed983-2fb9-4097-bca6-eb6cce0aac5d"},"vehicle_type_id":"4","last_reported":1733429493,"current_range_meters":38400,"station_id":"ce4bhgh2rcd13ifvqfb0","pricing_plan_id":"cebpf4jnsgd1na2vs0mg"},{"bike_id":"0de10c80-f40f-4efc-b915-f06b5d9f017c","system_id":"levelo_inurba_marseille","lat":43.29248,"lon":5.40903,"is_reserved":false,"is_disabled":false,"rental_uris":{"android":"levelo://app?vid=0de10c80-f40f-4efc-b915-f06b5d9f017c","ios":"levelo://app?vid=0de10c80-f40f-4efc-b915-f06b5d9f017c"},"vehicle_type_id":"4","last_reported":1733429493,"current_range_meters":10000,"station_id":"ce4bh192rcd13ifvqdc0","pricing_plan_id":"cebpf4jnsgd1na2vs0mg"},{"bike_id":"946e45e3-84f9-43f2-a073-ff7796e0545d","system_id":"levelo_inurba_marseille","lat":43.27954,"lon":5.41035,"is_reserved":false,"is_disabled":false,"rental_uris":{"android":"levelo://app?vid=946e45e3-84f9-43f2-a073-ff7796e0545d","ios":"levelo://app?vid=946e45e3-84f9-43f2-a073-ff7796e0545d"},"vehicle_type_id":"4","last_reported":1733429493,"current_range_meters":30800,"station_id":"ce4bhnp2rcd13ifvqh0g","pricing_plan_id":"cebpf4jnsgd1na2vs0mg"},{"bike_id":"f67dfab3-abcc-4688-bfd7-4284bf8c7187","system_id":"levelo_inurba_marseille","lat":43.33021,"lon":5.39044,"is_reserved":false,"is_disabled":false,"rental_uris":{"android":"levelo://app?vid=f67dfab3-abcc-4688-bfd7-4284bf8c7187","ios":"levelo://app?vid=f67dfab3-abcc-4688-bfd7-4284bf8c7187"},"vehicle_type_id":"4","last_reported":1733429493,"current_range_meters":9200,"station_id":"ce4bhr92rcd13ifvqhrg","pricing_plan_id":"cebpf4jnsgd1na2vs0mg"},{"bike_id":"2d108636-ee51-419b-a587-b024937fb90d","system_id":"levelo_inurba_marseille","lat":43.27827,"lon":5.39205,"is_reserved":false,"is_disabled":true,"rental_uris":{"android":"levelo://app?vid=2d108636-ee51-419b-a587-b024937fb90d","ios":"levelo://app?vid=2d108636-ee51-419b-a587-b024937fb90d"},"vehicle_type_id":"4","last_reported":1733429493,"current_range_meters":0,"station_id":"ce4bhjp2rcd13ifvqga0","pricing_plan_id":"cebpf4jnsgd1na2vs0mg"},{"bike_id":"1235e9a6-d25e-4868-9ff4-6f488485e252","system_id":"levelo_inurba_marseille","lat":43.27936,"lon":5.38702,"is_reserved":false,"is_disabled":false,"rental_uris":{"android":"levelo://app?vid=1235e9a6-d25e-4868-9ff4-6f488485e252","ios":"levelo://app?vid=1235e9a6-d25e-4868-9ff4-6f488485e252"},"vehicle_type_id":"4","last_reported":1733429493,"current_range_meters":38800,"station_id":"ce4bhg12rcd13ifvqf80","pricing_plan_id":"cebpf4jnsgd1na2vs0mg"},{"bike_id":"28b52837-d828-49e4-b4be-cfbac010c328","system_id":"levelo_inurba_marseille","lat":43.33725,"lon":5.39184,"is_reserved":false,"is_disabled":false,"rental_uris":{"android":"levelo://app?vid=28b52837-d828-49e4-b4be-cfbac010c328","ios":"levelo://app?vid=28b52837-d828-49e4-b4be-cfbac010c328"},"vehicle_type_id":"4","last_reported":1733429493,"current_range_meters":28400,"station_id":"ce4bhr92rcd13ifvqhsg","pricing_plan_id":"cebpf4jnsgd1na2vs0mg"},{"bike_id":"b3f478ac-3b05-4edf-bdbf-76399090f8e9","system_id":"levelo_inurba_marseille","lat":43.29994,"lon":5.37639,"is_reserved":false,"is_disabled":true,"rental_uris":{"android":"levelo://app?vid=b3f478ac-3b05-4edf-bdbf-76399090f8e9","ios":"levelo://app?vid=b3f478ac-3b05-4edf-bdbf-76399090f8e9"},"vehicle_type_id":"4","last_reported":1733429493,"current_range_meters":0,"station_id":"","pricing_plan_id":"cebpf4jnsgd1na2vs0mg"},{"bike_id":"c5407afd-657a-440f-bb47-b130ed2eb03e","system_id":"levelo_inurba_marseille","lat":43.28663,"lon":5.36338,"is_reserved":false,"is_disabled":false,"rental_uris":{"android":"levelo://app?vid=c5407afd-657a-440f-bb47-b130ed2eb03e","ios":"levelo://app?vid=c5407afd-657a-440f-bb47-b130ed2eb03e"},"vehicle_type_id":"4","last_reported":1733429493,"current_range_meters":30400,"station_id":"ce4bhah2rcd13ifvqej0","pricing_plan_id":"cebpf4jnsgd1na2vs0mg"},{"bike_id":"6a41e9d8-035a-4bf8-8d68-41af3a48766c","system_id":"levelo_inurba_marseille","lat":43.28418,"lon":5.34987,"is_reserved":false,"is_disabled":false,"rental_uris":{"android":"levelo://app?vid=6a41e9d8-035a-4bf8-8d68-41af3a48766c","ios":"levelo://app?vid=6a41e9d8-035a-4bf8-8d68-41af3a48766c"},"vehicle_type_id":"4","last_reported":1733429493,"current_range_meters":32800,"station_id":"ce4bhbh2rcd13ifvqepg","pricing_plan_id":"cebpf4jnsgd1na2vs0mg"},{"bike_id":"5390a7cd-d778-4522-82bd-4adcecc9ff6e","system_id":"levelo_inurba_marseille","lat":43.29519,"lon":5.39417,"is_reserved":false,"is_disabled":false,"rental_uris":{"android":"levelo://app?vid=5390a7cd-d778-4522-82bd-4adcecc9ff6e","ios":"levelo://app?vid=5390a7cd-d778-4522-82bd-4adcecc9ff6e"},"vehicle_type_id":"4","last_reported":1733429493,"current_range_meters":38800,"station_id":"ce4bh292rcd13ifvqdf0","pricing_plan_id":"cebpf4jnsgd1na2vs0mg"},{"bike_id":"2109f1a8-c8ca-46a6-8215-f34a4061b76a","system_id":"levelo_inurba_marseille","lat":43.3229,"lon":5.38272,"is_reserved":false,"is_disabled":false,"rental_uris":{"android":"levelo://app?vid=2109f1a8-c8ca-46a6-8215-f34a4061b76a","ios":"levelo://app?vid=2109f1a8-c8ca-46a6-8215-f34a4061b76a"},"vehicle_type_id":"4","last_reported":1733429493,"current_range_meters":30800,"station_id":"ce4bhr12rcd13ifvqhqg","pricing_plan_id":"cebpf4jnsgd1na2vs0mg"},{"bike_id":"ff9d08e1-bbdf-4baa-aa3c-c70b04d4d6ac","system_id":"levelo_inurba_marseille","lat":43.29265,"lon":5.38444,"is_reserved":false,"is_disabled":false,"rental_uris":{"android":"levelo://app?vid=ff9d08e1-bbdf-4baa-aa3c-c70b04d4d6ac","ios":"levelo://app?vid=ff9d08e1-bbdf-4baa-aa3c-c70b04d4d6ac"},"vehicle_type_id":"4","last_reported":1733429493,"current_range_meters":30400,"station_id":"ce4bh692rcd13ifvqea0","pricing_plan_id":"cebpf4jnsgd1na2vs0mg"},{"bike_id":"1931079a-b91f-4b14-88d3-3cb6d99895b6","system_id":"levelo_inurba_marseille","lat":43.24388,"lon":5.37065,"is_reserved":false,"is_disabled":false,"rental_uris":{"android":"levelo://app?vid=1931079a-b91f-4b14-88d3-3cb6d99895b6","ios":"levelo://app?vid=1931079a-b91f-4b14-88d3-3cb6d99895b6"},"vehicle_type_id":"4","last_reported":1733429493,"current_range_meters":26000,"station_id":"ce4bhhh2rcd13ifvqfk0","pricing_plan_id":"cebpf4jnsgd1na2vs0mg"},{"bike_id":"53d48623-0381-4d45-9157-1034a3a076a3","system_id":"levelo_inurba_marseille","lat":43.29416,"lon":5.38625,"is_reserved":false,"is_disabled":false,"rental_uris":{"android":"levelo://app?vid=53d48623-0381-4d45-9157-1034a3a076a3","ios":"levelo://app?vid=53d48623-0381-4d45-9157-1034a3a076a3"},"vehicle_type_id":"4","last_reported":1733429493,"current_range_meters":38800,"station_id":"ce4bh2h2rcd13ifvqdh0","pricing_plan_id":"cebpf4jnsgd1na2vs0mg"},{"bike_id":"042a13ad-150b-48e9-9dd9-ba7a39880c39","system_id":"levelo_inurba_marseille","lat":43.27831,"lon":5.39211,"is_reserved":false,"is_disabled":false,"rental_uris":{"android":"levelo://app?vid=042a13ad-150b-48e9-9dd9-ba7a39880c39","ios":"levelo://app?vid=042a13ad-150b-48e9-9dd9-ba7a39880c39"},"vehicle_type_id":"4","last_reported":1733429493,"current_range_meters":32800,"station_id":"ce4bhjp2rcd13ifvqga0","pricing_plan_id":"cebpf4jnsgd1na2vs0mg"},{"bike_id":"c7937e55-70ee-4a20-b169-edc60cf12155","system_id":"levelo_inurba_marseille","lat":43.30796,"lon":5.43521,"is_reserved":false,"is_disabled":true,"rental_uris":{"android":"levelo://app?vid=c7937e55-70ee-4a20-b169-edc60cf12155","ios":"levelo://app?vid=c7937e55-70ee-4a20-b169-edc60cf12155"},"vehicle_type_id":"4","last_reported":1733429493,"current_range_meters":0,"station_id":"ce4bhph2rcd13ifvqheg","pricing_plan_id":"cebpf4jnsgd1na2vs0mg"},{"bike_id":"0d76dbf6-5e40-455b-a0e6-70fb0b70c5f9","system_id":"levelo_inurba_marseille","lat":43.3237,"lon":5.38873,"is_reserved":false,"is_disabled":true,"rental_uris":{"android":"levelo://app?vid=0d76dbf6-5e40-455b-a0e6-70fb0b70c5f9","ios":"levelo://app?vid=0d76dbf6-5e40-455b-a0e6-70fb0b70c5f9"},"vehicle_type_id":"4","last_reported":1733429493,"current_range_meters":0,"station_id":"ce4bhqp2rcd13ifvqhog","pricing_plan_id":"cebpf4jnsgd1na2vs0mg"},{"bike_id":"bb33fa0c-b703-4470-8119-8d67c160e4d2","system_id":"levelo_inurba_marseille","lat":43.2509,"lon":5.39518,"is_reserved":false,"is_disabled":false,"rental_uris":{"android":"levelo://app?vid=bb33fa0c-b703-4470-8119-8d67c160e4d2","ios":"levelo://app?vid=bb33fa0c-b703-4470-8119-8d67c160e4d2"},"vehicle_type_id":"4","last_reported":1733429493,"current_range_meters":6400,"station_id":"ce4bhm12rcd13ifvqgkg","pricing_plan_id":"cebpf4jnsgd1na2vs0mg"},{"bike_id":"2f3968e7-9336-4ee4-ba78-8e92c0a818cc","system_id":"levelo_inurba_marseille","lat":43.31322,"lon":5.36647,"is_reserved":false,"is_disabled":true,"rental_uris":{"android":"levelo://app?vid=2f3968e7-9336-4ee4-ba78-8e92c0a818cc","ios":"levelo://app?vid=2f3968e7-9336-4ee4-ba78-8e92c0a818cc"},"vehicle_type_id":"4","last_reported":1733429493,"current_range_meters":0,"station_id":"","pricing_plan_id":"cebpf4jnsgd1na2vs0mg"},{"bike_id":"47241d2d-0042-414f-aa94-6649cc70c148","system_id":"levelo_inurba_marseille","lat":43.29884,"lon":5.364033,"is_reserved":false,"is_disabled":false,"rental_uris":{"android":"levelo://app?vid=47241d2d-0042-414f-aa94-6649cc70c148","ios":"levelo://app?vid=47241d2d-0042-414f-aa94-6649cc70c148"},"vehicle_type_id":"4","last_reported":1733429493,"current_range_meters":24000,"station_id":"","pricing_plan_id":"cebpf4jnsgd1na2vs0mg"},{"bike_id":"9aded1fd-28b2-485b-aa1d-02cd137f431b","system_id":"levelo_inurba_marseille","lat":43.26503,"lon":5.39552,"is_reserved":false,"is_disabled":false,"rental_uris":{"android":"levelo://app?vid=9aded1fd-28b2-485b-aa1d-02cd137f431b","ios":"levelo://app?vid=9aded1fd-28b2-485b-aa1d-02cd137f431b"},"vehicle_type_id":"4","last_reported":1733429493,"current_range_meters":38800,"station_id":"ce4bhi12rcd13ifvqfq0","pricing_plan_id":"cebpf4jnsgd1na2vs0mg"},{"bike_id":"86c47149-ed1d-4ab2-8964-74fc59cf1c0e","system_id":"levelo_inurba_marseille","lat":43.23965,"lon":5.36631,"is_reserved":false,"is_disabled":false,"rental_uris":{"android":"levelo://app?vid=86c47149-ed1d-4ab2-8964-74fc59cf1c0e","ios":"levelo://app?vid=86c47149-ed1d-4ab2-8964-74fc59cf1c0e"},"vehicle_type_id":"4","last_reported":1733429493,"current_range_meters":26000,"station_id":"ce4bhi12rcd13ifvqfp0","pricing_plan_id":"cebpf4jnsgd1na2vs0mg"},{"bike_id":"22f7fa31-fe76-457b-bf3e-cb5b4739126c","system_id":"levelo_inurba_marseille","lat":43.28551,"lon":5.39488,"is_reserved":false,"is_disabled":false,"rental_uris":{"android":"levelo://app?vid=22f7fa31-fe76-457b-bf3e-cb5b4739126c","ios":"levelo://app?vid=22f7fa31-fe76-457b-bf3e-cb5b4739126c"},"vehicle_type_id":"4","last_reported":1733429493,"current_range_meters":6800,"station_id":"ce4bh292rcd13ifvqdg0","pricing_plan_id":"cebpf4jnsgd1na2vs0mg"},{"bike_id":"0a922ab3-bcdd-47fa-959f-d1d2b8cb4a55","system_id":"levelo_inurba_marseille","lat":43.24173,"lon":5.39721,"is_reserved":false,"is_disabled":false,"rental_uris":{"android":"levelo://app?vid=0a922ab3-bcdd-47fa-959f-d1d2b8cb4a55","ios":"levelo://app?vid=0a922ab3-bcdd-47fa-959f-d1d2b8cb4a55"},"vehicle_type_id":"4","last_reported":1733429493,"current_range_meters":13600,"station_id":"ce4bhn12rcd13ifvqgpg","pricing_plan_id":"cebpf4jnsgd1na2vs0mg"},{"bike_id":"18c465ad-16a0-4d72-a337-11a15929aab8","system_id":"levelo_inurba_marseille","lat":43.23958,"lon":5.36614,"is_reserved":false,"is_disabled":false,"rental_uris":{"android":"levelo://app?vid=18c465ad-16a0-4d72-a337-11a15929aab8","ios":"levelo://app?vid=18c465ad-16a0-4d72-a337-11a15929aab8"},"vehicle_type_id":"4","last_reported":1733429493,"current_range_meters":11200,"station_id":"ce4bhi12rcd13ifvqfp0","pricing_plan_id":"cebpf4jnsgd1na2vs0mg"},{"bike_id":"2f7b887c-1623-4de2-8868-e6f453f327e4","system_id":"levelo_inurba_marseille","lat":43.3035,"lon":5.41871,"is_reserved":false,"is_disabled":true,"rental_uris":{"android":"levelo://app?vid=2f7b887c-1623-4de2-8868-e6f453f327e4","ios":"levelo://app?vid=2f7b887c-1623-4de2-8868-e6f453f327e4"},"vehicle_type_id":"4","last_reported":1733429493,"current_range_meters":1200,"station_id":"ce4bhop2rcd13ifvqh7g","pricing_plan_id":"cebpf4jnsgd1na2vs0mg"},{"bike_id":"65710493-44ff-4beb-9f06-846fab6f733e","system_id":"levelo_inurba_marseille","lat":43.29518,"lon":5.39038,"is_reserved":false,"is_disabled":false,"rental_uris":{"android":"levelo://app?vid=65710493-44ff-4beb-9f06-846fab6f733e","ios":"levelo://app?vid=65710493-44ff-4beb-9f06-846fab6f733e"},"vehicle_type_id":"4","last_reported":1733429493,"current_range_meters":36000,"station_id":"ce4bh3p2rcd13ifvqdp0","pricing_plan_id":"cebpf4jnsgd1na2vs0mg"},{"bike_id":"4aaca529-bc54-4418-8d67-32a3ee9249ee","system_id":"levelo_inurba_marseille","lat":43.27814,"lon":5.40719,"is_reserved":false,"is_disabled":false,"rental_uris":{"android":"levelo://app?vid=4aaca529-bc54-4418-8d67-32a3ee9249ee","ios":"levelo://app?vid=4aaca529-bc54-4418-8d67-32a3ee9249ee"},"vehicle_type_id":"4","last_reported":1733429493,"current_range_meters":37600,"station_id":"ce4bhnh2rcd13ifvqgtg","pricing_plan_id":"cebpf4jnsgd1na2vs0mg"},{"bike_id":"b0025f03-f4b7-4e1f-b2ae-d738bfb01f75","system_id":"levelo_inurba_marseille","lat":43.31386,"lon":5.37692,"is_reserved":false,"is_disabled":true,"rental_uris":{"android":"levelo://app?vid=b0025f03-f4b7-4e1f-b2ae-d738bfb01f75","ios":"levelo://app?vid=b0025f03-f4b7-4e1f-b2ae-d738bfb01f75"},"vehicle_type_id":"4","last_reported":1733429493,"current_range_meters":36400,"station_id":"","pricing_plan_id":"cebpf4jnsgd1na2vs0mg"},{"bike_id":"9971e89c-a86d-48a4-96a6-3177d4eb273e","system_id":"levelo_inurba_marseille","lat":43.24066,"lon":5.37756,"is_reserved":false,"is_disabled":false,"rental_uris":{"android":"levelo://app?vid=9971e89c-a86d-48a4-96a6-3177d4eb273e","ios":"levelo://app?vid=9971e89c-a86d-48a4-96a6-3177d4eb273e"},"vehicle_type_id":"4","last_reported":1733429493,"current_range_meters":30800,"station_id":"ce4bhnp2rcd13ifvqgvg","pricing_plan_id":"cebpf4jnsgd1na2vs0mg"},{"bike_id":"b85bb37f-2197-498e-b358-747241fe43e5","system_id":"levelo_inurba_marseille","lat":43.28436,"lon":5.39186,"is_reserved":false,"is_disabled":false,"rental_uris":{"android":"levelo://app?vid=b85bb37f-2197-498e-b358-747241fe43e5","ios":"levelo://app?vid=b85bb37f-2197-498e-b358-747241fe43e5"},"vehicle_type_id":"4","last_reported":1733429493,"current_range_meters":38800,"station_id":"ce4bhoh2rcd13ifvqh5g","pricing_plan_id":"cebpf4jnsgd1na2vs0mg"},{"bike_id":"a80a808b-d83a-48b0-a87c-889d0a59a5e3","system_id":"levelo_inurba_marseille","lat":43.24393,"lon":5.37054,"is_reserved":false,"is_disabled":false,"rental_uris":{"android":"levelo://app?vid=a80a808b-d83a-48b0-a87c-889d0a59a5e3","ios":"levelo://app?vid=a80a808b-d83a-48b0-a87c-889d0a59a5e3"},"vehicle_type_id":"4","last_reported":1733429493,"current_range_meters":38400,"station_id":"ce4bhhh2rcd13ifvqfk0","pricing_plan_id":"cebpf4jnsgd1na2vs0mg"},{"bike_id":"dc36f605-0451-477c-a651-d3be2c7b8ad3","system_id":"levelo_inurba_marseille","lat":43.31117,"lon":5.37766,"is_reserved":false,"is_disabled":false,"rental_uris":{"android":"levelo://app?vid=dc36f605-0451-477c-a651-d3be2c7b8ad3","ios":"levelo://app?vid=dc36f605-0451-477c-a651-d3be2c7b8ad3"},"vehicle_type_id":"4","last_reported":1733429493,"current_range_meters":35600,"station_id":"ce4bgt92rcd13ifvqcg0","pricing_plan_id":"cebpf4jnsgd1na2vs0mg"},{"bike_id":"fae6f9c7-5722-4159-86ac-ba066001570a","system_id":"levelo_inurba_marseille","lat":43.29862,"lon":5.39733,"is_reserved":false,"is_disabled":false,"rental_uris":{"android":"levelo://app?vid=fae6f9c7-5722-4159-86ac-ba066001570a","ios":"levelo://app?vid=fae6f9c7-5722-4159-86ac-ba066001570a"},"vehicle_type_id":"4","last_reported":1733429493,"current_range_meters":3200,"station_id":"ce4bh0h2rcd13ifvqd50","pricing_plan_id":"cebpf4jnsgd1na2vs0mg"},{"bike_id":"f10c5e90-601b-4bd4-87e7-4cbb6a13a4fb","system_id":"levelo_inurba_marseille","lat":43.26125,"lon":5.39271,"is_reserved":false,"is_disabled":false,"rental_uris":{"android":"levelo://app?vid=f10c5e90-601b-4bd4-87e7-4cbb6a13a4fb","ios":"levelo://app?vid=f10c5e90-601b-4bd4-87e7-4cbb6a13a4fb"},"vehicle_type_id":"4","last_reported":1733429493,"current_range_meters":4400,"station_id":"","pricing_plan_id":"cebpf4jnsgd1na2vs0mg"},{"bike_id":"a3de5cf7-74f5-47e6-a00d-af0e63e27d62","system_id":"levelo_inurba_marseille","lat":43.28938,"lon":5.36622,"is_reserved":false,"is_disabled":false,"rental_uris":{"android":"levelo://app?vid=a3de5cf7-74f5-47e6-a00d-af0e63e27d62","ios":"levelo://app?vid=a3de5cf7-74f5-47e6-a00d-af0e63e27d62"},"vehicle_type_id":"4","last_reported":1733429493,"current_range_meters":36400,"station_id":"ce4bhap2rcd13ifvqek0","pricing_plan_id":"cebpf4jnsgd1na2vs0mg"},{"bike_id":"216642dc-5e19-4552-8c52-74eda9279fe7","system_id":"levelo_inurba_marseille","lat":43.31682,"lon":5.40474,"is_reserved":false,"is_disabled":true,"rental_uris":{"android":"levelo://app?vid=216642dc-5e19-4552-8c52-74eda9279fe7","ios":"levelo://app?vid=216642dc-5e19-4552-8c52-74eda9279fe7"},"vehicle_type_id":"4","last_reported":1733429493,"current_range_meters":800,"station_id":"ce4bh012rcd13ifvqd00","pricing_plan_id":"cebpf4jnsgd1na2vs0mg"},{"bike_id":"afd1bf14-3ba1-4dce-845e-7ca743e06c7c","system_id":"levelo_inurba_marseille","lat":43.2816,"lon":5.42639,"is_reserved":false,"is_disabled":false,"rental_uris":{"android":"levelo://app?vid=afd1bf14-3ba1-4dce-845e-7ca743e06c7c","ios":"levelo://app?vid=afd1bf14-3ba1-4dce-845e-7ca743e06c7c"},"vehicle_type_id":"4","last_reported":1733429493,"current_range_meters":38800,"station_id":"ce4bhnh2rcd13ifvqgug","pricing_plan_id":"cebpf4jnsgd1na2vs0mg"},{"bike_id":"c471e38a-28cc-4a96-8473-b6afe628ff50","system_id":"levelo_inurba_marseille","lat":43.28719,"lon":5.36088,"is_reserved":false,"is_disabled":false,"rental_uris":{"android":"levelo://app?vid=c471e38a-28cc-4a96-8473-b6afe628ff50","ios":"levelo://app?vid=c471e38a-28cc-4a96-8473-b6afe628ff50"},"vehicle_type_id":"4","last_reported":1733429493,"current_range_meters":6800,"station_id":"cki0cbj6b192h4jlfktg","pricing_plan_id":"cebpf4jnsgd1na2vs0mg"},{"bike_id":"e9f33ec6-71dd-4c01-81d1-548f83eda297","system_id":"levelo_inurba_marseille","lat":43.24668,"lon":5.38153,"is_reserved":false,"is_disabled":false,"rental_uris":{"android":"levelo://app?vid=e9f33ec6-71dd-4c01-81d1-548f83eda297","ios":"levelo://app?vid=e9f33ec6-71dd-4c01-81d1-548f83eda297"},"vehicle_type_id":"4","last_reported":1733429493,"current_range_meters":39200,"station_id":"ce4bhih2rcd13ifvqfr0","pricing_plan_id":"cebpf4jnsgd1na2vs0mg"},{"bike_id":"fd9c745f-687d-44c6-944f-0c87b1a944ec","system_id":"levelo_inurba_marseille","lat":43.29928,"lon":5.37476,"is_reserved":false,"is_disabled":false,"rental_uris":{"android":"levelo://app?vid=fd9c745f-687d-44c6-944f-0c87b1a944ec","ios":"levelo://app?vid=fd9c745f-687d-44c6-944f-0c87b1a944ec"},"vehicle_type_id":"4","last_reported":1733429493,"current_range_meters":24800,"station_id":"ce4bgjh2rcd13ifvqbg0","pricing_plan_id":"cebpf4jnsgd1na2vs0mg"},{"bike_id":"25df6fa5-0e99-4ca3-b962-45e4d327f4cd","system_id":"levelo_inurba_marseille","lat":43.28616,"lon":5.35106,"is_reserved":false,"is_disabled":false,"rental_uris":{"android":"levelo://app?vid=25df6fa5-0e99-4ca3-b962-45e4d327f4cd","ios":"levelo://app?vid=25df6fa5-0e99-4ca3-b962-45e4d327f4cd"},"vehicle_type_id":"4","last_reported":1733429493,"current_range_meters":24000,"station_id":"ce4bhch2rcd13ifvqeug","pricing_plan_id":"cebpf4jnsgd1na2vs0mg"},{"bike_id":"b20500c6-e012-4a8a-8472-7ba6c1ee1d9b","system_id":"levelo_inurba_marseille","lat":43.31112,"lon":5.38869,"is_reserved":false,"is_disabled":false,"rental_uris":{"android":"levelo://app?vid=b20500c6-e012-4a8a-8472-7ba6c1ee1d9b","ios":"levelo://app?vid=b20500c6-e012-4a8a-8472-7ba6c1ee1d9b"},"vehicle_type_id":"4","last_reported":1733429493,"current_range_meters":8800,"station_id":"ce4bgv12rcd13ifvqcp0","pricing_plan_id":"cebpf4jnsgd1na2vs0mg"},{"bike_id":"c0ecc308-ccc4-492f-bcda-d659d2cd5777","system_id":"levelo_inurba_marseille","lat":43.25106,"lon":5.40325,"is_reserved":false,"is_disabled":false,"rental_uris":{"android":"levelo://app?vid=c0ecc308-ccc4-492f-bcda-d659d2cd5777","ios":"levelo://app?vid=c0ecc308-ccc4-492f-bcda-d659d2cd5777"},"vehicle_type_id":"4","last_reported":1733429493,"current_range_meters":38800,"station_id":"ce4bhlh2rcd13ifvqgig","pricing_plan_id":"cebpf4jnsgd1na2vs0mg"},{"bike_id":"f5bd5773-3df4-400a-9c89-e449e0b42a96","system_id":"levelo_inurba_marseille","lat":43.2481,"lon":5.3746,"is_reserved":false,"is_disabled":true,"rental_uris":{"android":"levelo://app?vid=f5bd5773-3df4-400a-9c89-e449e0b42a96","ios":"levelo://app?vid=f5bd5773-3df4-400a-9c89-e449e0b42a96"},"vehicle_type_id":"4","last_reported":1733429493,"current_range_meters":38800,"station_id":"ce4bhgh2rcd13ifvqfb0","pricing_plan_id":"cebpf4jnsgd1na2vs0mg"},{"bike_id":"4e8acc77-9bdd-49aa-aaca-7dc0dbc5cfdd","system_id":"levelo_inurba_marseille","lat":43.29524,"lon":5.39033,"is_reserved":false,"is_disabled":false,"rental_uris":{"android":"levelo://app?vid=4e8acc77-9bdd-49aa-aaca-7dc0dbc5cfdd","ios":"levelo://app?vid=4e8acc77-9bdd-49aa-aaca-7dc0dbc5cfdd"},"vehicle_type_id":"4","last_reported":1733429493,"current_range_meters":24000,"station_id":"ce4bh3p2rcd13ifvqdp0","pricing_plan_id":"cebpf4jnsgd1na2vs0mg"},{"bike_id":"cee1a977-f386-4ca7-b7f4-ecb23b8538de","system_id":"levelo_inurba_marseille","lat":43.28488,"lon":5.38424,"is_reserved":false,"is_disabled":true,"rental_uris":{"android":"levelo://app?vid=cee1a977-f386-4ca7-b7f4-ecb23b8538de","ios":"levelo://app?vid=cee1a977-f386-4ca7-b7f4-ecb23b8538de"},"vehicle_type_id":"4","last_reported":1733429493,"current_range_meters":36800,"station_id":"ce4bh512rcd13ifvqe3g","pricing_plan_id":"cebpf4jnsgd1na2vs0mg"},{"bike_id":"a4d3b324-e08a-49a2-ae58-8854d2d2da3b","system_id":"levelo_inurba_marseille","lat":43.31791,"lon":5.3727,"is_reserved":false,"is_disabled":false,"rental_uris":{"android":"levelo://app?vid=a4d3b324-e08a-49a2-ae58-8854d2d2da3b","ios":"levelo://app?vid=a4d3b324-e08a-49a2-ae58-8854d2d2da3b"},"vehicle_type_id":"4","last_reported":1733429493,"current_range_meters":36400,"station_id":"","pricing_plan_id":"cebpf4jnsgd1na2vs0mg"},{"bike_id":"cdfe6590-4984-4014-86c8-6dd70747c27a","system_id":"levelo_inurba_marseille","lat":43.29737,"lon":5.37434,"is_reserved":false,"is_disabled":true,"rental_uris":{"android":"levelo://app?vid=cdfe6590-4984-4014-86c8-6dd70747c27a","ios":"levelo://app?vid=cdfe6590-4984-4014-86c8-6dd70747c27a"},"vehicle_type_id":"4","last_reported":1733429493,"current_range_meters":0,"station_id":"","pricing_plan_id":"cebpf4jnsgd1na2vs0mg"},{"bike_id":"12b9e90f-ef64-450d-b3a9-b0fbf2b502a4","system_id":"levelo_inurba_marseille","lat":43.258461,"lon":5.398845,"is_reserved":false,"is_disabled":false,"rental_uris":{"android":"levelo://app?vid=12b9e90f-ef64-450d-b3a9-b0fbf2b502a4","ios":"levelo://app?vid=12b9e90f-ef64-450d-b3a9-b0fbf2b502a4"},"vehicle_type_id":"4","last_reported":1733429493,"current_range_meters":22400,"station_id":"ce4bhl92rcd13ifvqghg","pricing_plan_id":"cebpf4jnsgd1na2vs0mg"},{"bike_id":"4d0dadab-e6e1-4e5a-9b42-cd848beb1025","system_id":"levelo_inurba_marseille","lat":43.25576,"lon":5.38224,"is_reserved":false,"is_disabled":false,"rental_uris":{"android":"levelo://app?vid=4d0dadab-e6e1-4e5a-9b42-cd848beb1025","ios":"levelo://app?vid=4d0dadab-e6e1-4e5a-9b42-cd848beb1025"},"vehicle_type_id":"4","last_reported":1733429493,"current_range_meters":22400,"station_id":"ce4bhih2rcd13ifvqfs0","pricing_plan_id":"cebpf4jnsgd1na2vs0mg"},{"bike_id":"a0181206-4402-4eee-b282-307bc5035baf","system_id":"levelo_inurba_marseille","lat":43.28004,"lon":5.40012,"is_reserved":false,"is_disabled":false,"rental_uris":{"android":"levelo://app?vid=a0181206-4402-4eee-b282-307bc5035baf","ios":"levelo://app?vid=a0181206-4402-4eee-b282-307bc5035baf"},"vehicle_type_id":"4","last_reported":1733429493,"current_range_meters":38800,"station_id":"ce4bho92rcd13ifvqh4g","pricing_plan_id":"cebpf4jnsgd1na2vs0mg"},{"bike_id":"23e79cd9-2557-4ec0-b1c7-ccb3c131243a","system_id":"levelo_inurba_marseille","lat":43.28036,"lon":5.36934,"is_reserved":false,"is_disabled":false,"rental_uris":{"android":"levelo://app?vid=23e79cd9-2557-4ec0-b1c7-ccb3c131243a","ios":"levelo://app?vid=23e79cd9-2557-4ec0-b1c7-ccb3c131243a"},"vehicle_type_id":"4","last_reported":1733429493,"current_range_meters":38400,"station_id":"ce4bha12rcd13ifvqef0","pricing_plan_id":"cebpf4jnsgd1na2vs0mg"},{"bike_id":"6fb00969-21f8-4503-a74e-e887bd6407a1","system_id":"levelo_inurba_marseille","lat":43.27481,"lon":5.42455,"is_reserved":false,"is_disabled":false,"rental_uris":{"android":"levelo://app?vid=6fb00969-21f8-4503-a74e-e887bd6407a1","ios":"levelo://app?vid=6fb00969-21f8-4503-a74e-e887bd6407a1"},"vehicle_type_id":"4","last_reported":1733429493,"current_range_meters":38800,"station_id":"ce4bhn92rcd13ifvqgrg","pricing_plan_id":"cebpf4jnsgd1na2vs0mg"},{"bike_id":"987a5ab4-d60c-480c-94b6-7cab38975402","system_id":"levelo_inurba_marseille","lat":43.29748,"lon":5.37971,"is_reserved":false,"is_disabled":true,"rental_uris":{"android":"levelo://app?vid=987a5ab4-d60c-480c-94b6-7cab38975402","ios":"levelo://app?vid=987a5ab4-d60c-480c-94b6-7cab38975402"},"vehicle_type_id":"4","last_reported":1733429493,"current_range_meters":0,"station_id":"","pricing_plan_id":"cebpf4jnsgd1na2vs0mg"},{"bike_id":"2c4596ad-0ad9-4016-b92b-0093349de2b4","system_id":"levelo_inurba_marseille","lat":43.30755,"lon":5.38187,"is_reserved":false,"is_disabled":true,"rental_uris":{"android":"levelo://app?vid=2c4596ad-0ad9-4016-b92b-0093349de2b4","ios":"levelo://app?vid=2c4596ad-0ad9-4016-b92b-0093349de2b4"},"vehicle_type_id":"4","last_reported":1733429493,"current_range_meters":0,"station_id":"","pricing_plan_id":"cebpf4jnsgd1na2vs0mg"},{"bike_id":"a7bb67de-1f69-4c60-8636-2afa978b6670","system_id":"levelo_inurba_marseille","lat":43.27563,"lon":5.3842,"is_reserved":false,"is_disabled":false,"rental_uris":{"android":"levelo://app?vid=a7bb67de-1f69-4c60-8636-2afa978b6670","ios":"levelo://app?vid=a7bb67de-1f69-4c60-8636-2afa978b6670"},"vehicle_type_id":"4","last_reported":1733429493,"current_range_meters":35600,"station_id":"ce4bhh92rcd13ifvqfi0","pricing_plan_id":"cebpf4jnsgd1na2vs0mg"},{"bike_id":"ce39bde7-97f9-4b04-9dce-d3f0aeb380df","system_id":"levelo_inurba_marseille","lat":43.29897,"lon":5.3815,"is_reserved":false,"is_disabled":false,"rental_uris":{"android":"levelo://app?vid=ce39bde7-97f9-4b04-9dce-d3f0aeb380df","ios":"levelo://app?vid=ce39bde7-97f9-4b04-9dce-d3f0aeb380df"},"vehicle_type_id":"4","last_reported":1733429493,"current_range_meters":38400,"station_id":"ce4bgj12rcd13ifvqbc0","pricing_plan_id":"cebpf4jnsgd1na2vs0mg"},{"bike_id":"b7ab8c01-033f-4395-8276-23c850ad3d02","system_id":"levelo_inurba_marseille","lat":43.30348,"lon":5.36626,"is_reserved":false,"is_disabled":true,"rental_uris":{"android":"levelo://app?vid=b7ab8c01-033f-4395-8276-23c850ad3d02","ios":"levelo://app?vid=b7ab8c01-033f-4395-8276-23c850ad3d02"},"vehicle_type_id":"4","last_reported":1733429493,"current_range_meters":0,"station_id":"","pricing_plan_id":"cebpf4jnsgd1na2vs0mg"},{"bike_id":"0279b2c0-513c-422a-b9fb-9fc99372925b","system_id":"levelo_inurba_marseille","lat":43.31326,"lon":5.39686,"is_reserved":false,"is_disabled":false,"rental_uris":{"android":"levelo://app?vid=0279b2c0-513c-422a-b9fb-9fc99372925b","ios":"levelo://app?vid=0279b2c0-513c-422a-b9fb-9fc99372925b"},"vehicle_type_id":"4","last_reported":1733429493,"current_range_meters":22400,"station_id":"ce4bgvp2rcd13ifvqcu0","pricing_plan_id":"cebpf4jnsgd1na2vs0mg"},{"bike_id":"f4676a9b-685c-4e8f-a479-8e34f48f1df5","system_id":"levelo_inurba_marseille","lat":43.33715,"lon":5.39176,"is_reserved":false,"is_disabled":true,"rental_uris":{"android":"levelo://app?vid=f4676a9b-685c-4e8f-a479-8e34f48f1df5","ios":"levelo://app?vid=f4676a9b-685c-4e8f-a479-8e34f48f1df5"},"vehicle_type_id":"4","last_reported":1733429493,"current_range_meters":1200,"station_id":"ce4bhr92rcd13ifvqhsg","pricing_plan_id":"cebpf4jnsgd1na2vs0mg"},{"bike_id":"5068770d-709f-4fe9-a25e-3bdaaf3e71cc","system_id":"levelo_inurba_marseille","lat":43.25079,"lon":5.39513,"is_reserved":false,"is_disabled":false,"rental_uris":{"android":"levelo://app?vid=5068770d-709f-4fe9-a25e-3bdaaf3e71cc","ios":"levelo://app?vid=5068770d-709f-4fe9-a25e-3bdaaf3e71cc"},"vehicle_type_id":"4","last_reported":1733429493,"current_range_meters":8800,"station_id":"ce4bhm12rcd13ifvqgkg","pricing_plan_id":"cebpf4jnsgd1na2vs0mg"},{"bike_id":"d528f0c5-29bc-4ffd-bbe2-efc5b6440af3","system_id":"levelo_inurba_marseille","lat":43.29248,"lon":5.3845,"is_reserved":false,"is_disabled":false,"rental_uris":{"android":"levelo://app?vid=d528f0c5-29bc-4ffd-bbe2-efc5b6440af3","ios":"levelo://app?vid=d528f0c5-29bc-4ffd-bbe2-efc5b6440af3"},"vehicle_type_id":"4","last_reported":1733429493,"current_range_meters":28000,"station_id":"ce4bh692rcd13ifvqea0","pricing_plan_id":"cebpf4jnsgd1na2vs0mg"},{"bike_id":"01fc086f-11d0-4126-a5a7-f83f36005f81","system_id":"levelo_inurba_marseille","lat":43.31868,"lon":5.37271,"is_reserved":false,"is_disabled":false,"rental_uris":{"android":"levelo://app?vid=01fc086f-11d0-4126-a5a7-f83f36005f81","ios":"levelo://app?vid=01fc086f-11d0-4126-a5a7-f83f36005f81"},"vehicle_type_id":"4","last_reported":1733429493,"current_range_meters":37600,"station_id":"","pricing_plan_id":"cebpf4jnsgd1na2vs0mg"},{"bike_id":"b8ccc40e-192a-40ee-a578-d5f2a731168e","system_id":"levelo_inurba_marseille","lat":43.28614,"lon":5.35103,"is_reserved":false,"is_disabled":false,"rental_uris":{"android":"levelo://app?vid=b8ccc40e-192a-40ee-a578-d5f2a731168e","ios":"levelo://app?vid=b8ccc40e-192a-40ee-a578-d5f2a731168e"},"vehicle_type_id":"4","last_reported":1733429493,"current_range_meters":6800,"station_id":"ce4bhch2rcd13ifvqeug","pricing_plan_id":"cebpf4jnsgd1na2vs0mg"},{"bike_id":"d0fd18c1-3898-46e2-812b-d16b1dad312a","system_id":"levelo_inurba_marseille","lat":43.27881,"lon":5.38828,"is_reserved":false,"is_disabled":false,"rental_uris":{"android":"levelo://app?vid=d0fd18c1-3898-46e2-812b-d16b1dad312a","ios":"levelo://app?vid=d0fd18c1-3898-46e2-812b-d16b1dad312a"},"vehicle_type_id":"4","last_reported":1733429493,"current_range_meters":8800,"station_id":"","pricing_plan_id":"cebpf4jnsgd1na2vs0mg"},{"bike_id":"6cc6805f-c0ca-4585-bdf1-b5a0339762b0","system_id":"levelo_inurba_marseille","lat":43.29013,"lon":5.42792,"is_reserved":false,"is_disabled":true,"rental_uris":{"android":"levelo://app?vid=6cc6805f-c0ca-4585-bdf1-b5a0339762b0","ios":"levelo://app?vid=6cc6805f-c0ca-4585-bdf1-b5a0339762b0"},"vehicle_type_id":"4","last_reported":1733429493,"current_range_meters":0,"station_id":"","pricing_plan_id":"cebpf4jnsgd1na2vs0mg"},{"bike_id":"70ad6bd3-29b1-4088-9b05-ff9c5c83c8ff","system_id":"levelo_inurba_marseille","lat":43.28834,"lon":5.35844,"is_reserved":false,"is_disabled":false,"rental_uris":{"android":"levelo://app?vid=70ad6bd3-29b1-4088-9b05-ff9c5c83c8ff","ios":"levelo://app?vid=70ad6bd3-29b1-4088-9b05-ff9c5c83c8ff"},"vehicle_type_id":"4","last_reported":1733429493,"current_range_meters":38800,"station_id":"ce4bhb12rcd13ifvqem0","pricing_plan_id":"cebpf4jnsgd1na2vs0mg"},{"bike_id":"4e6fc26f-c1d5-4d84-ac5b-7d384b8c30d5","system_id":"levelo_inurba_marseille","lat":43.32295,"lon":5.36706,"is_reserved":false,"is_disabled":false,"rental_uris":{"android":"levelo://app?vid=4e6fc26f-c1d5-4d84-ac5b-7d384b8c30d5","ios":"levelo://app?vid=4e6fc26f-c1d5-4d84-ac5b-7d384b8c30d5"},"vehicle_type_id":"4","last_reported":1733429493,"current_range_meters":9200,"station_id":"ce4bhsh2rcd13ifvqi2g","pricing_plan_id":"cebpf4jnsgd1na2vs0mg"},{"bike_id":"8d1c8b92-79bb-4181-b0d2-5e94db1a14d0","system_id":"levelo_inurba_marseille","lat":43.29972,"lon":5.3826,"is_reserved":false,"is_disabled":true,"rental_uris":{"android":"levelo://app?vid=8d1c8b92-79bb-4181-b0d2-5e94db1a14d0","ios":"levelo://app?vid=8d1c8b92-79bb-4181-b0d2-5e94db1a14d0"},"vehicle_type_id":"4","last_reported":1733429493,"current_range_meters":0,"station_id":"","pricing_plan_id":"cebpf4jnsgd1na2vs0mg"},{"bike_id":"66988d75-a9f0-423c-89be-11e06668ead3","system_id":"levelo_inurba_marseille","lat":43.26557,"lon":5.37287,"is_reserved":false,"is_disabled":true,"rental_uris":{"android":"levelo://app?vid=66988d75-a9f0-423c-89be-11e06668ead3","ios":"levelo://app?vid=66988d75-a9f0-423c-89be-11e06668ead3"},"vehicle_type_id":"4","last_reported":1733429493,"current_range_meters":0,"station_id":"ce4bhg12rcd13ifvqf70","pricing_plan_id":"cebpf4jnsgd1na2vs0mg"},{"bike_id":"bd97762a-c11b-4874-b403-203a52c032ea","system_id":"levelo_inurba_marseille","lat":43.25121,"lon":5.40316,"is_reserved":false,"is_disabled":false,"rental_uris":{"android":"levelo://app?vid=bd97762a-c11b-4874-b403-203a52c032ea","ios":"levelo://app?vid=bd97762a-c11b-4874-b403-203a52c032ea"},"vehicle_type_id":"4","last_reported":1733429493,"current_range_meters":12000,"station_id":"ce4bhlh2rcd13ifvqgig","pricing_plan_id":"cebpf4jnsgd1na2vs0mg"},{"bike_id":"7401184e-dcdc-4f69-89e9-1615045c1f8c","system_id":"levelo_inurba_marseille","lat":43.300296,"lon":5.389155,"is_reserved":false,"is_disabled":true,"rental_uris":{"android":"levelo://app?vid=7401184e-dcdc-4f69-89e9-1615045c1f8c","ios":"levelo://app?vid=7401184e-dcdc-4f69-89e9-1615045c1f8c"},"vehicle_type_id":"4","last_reported":1733429493,"current_range_meters":0,"station_id":"","pricing_plan_id":"cebpf4jnsgd1na2vs0mg"},{"bike_id":"0ee89e63-cde2-4125-940c-6f40cb79b818","system_id":"levelo_inurba_marseille","lat":43.29421,"lon":5.38624,"is_reserved":false,"is_disabled":false,"rental_uris":{"android":"levelo://app?vid=0ee89e63-cde2-4125-940c-6f40cb79b818","ios":"levelo://app?vid=0ee89e63-cde2-4125-940c-6f40cb79b818"},"vehicle_type_id":"4","last_reported":1733429493,"current_range_meters":36000,"station_id":"ce4bh2h2rcd13ifvqdh0","pricing_plan_id":"cebpf4jnsgd1na2vs0mg"},{"bike_id":"6ec0ac1d-1b13-4a34-b988-feb1deebc8da","system_id":"levelo_inurba_marseille","lat":43.30539,"lon":5.38421,"is_reserved":false,"is_disabled":true,"rental_uris":{"android":"levelo://app?vid=6ec0ac1d-1b13-4a34-b988-feb1deebc8da","ios":"levelo://app?vid=6ec0ac1d-1b13-4a34-b988-feb1deebc8da"},"vehicle_type_id":"4","last_reported":1733429493,"current_range_meters":0,"station_id":"ce4bgg92rcd13ifvqb30","pricing_plan_id":"cebpf4jnsgd1na2vs0mg"},{"bike_id":"327b5030-84ea-4932-8f2e-7091f15b4001","system_id":"levelo_inurba_marseille","lat":43.29161,"lon":5.37158,"is_reserved":false,"is_disabled":false,"rental_uris":{"android":"levelo://app?vid=327b5030-84ea-4932-8f2e-7091f15b4001","ios":"levelo://app?vid=327b5030-84ea-4932-8f2e-7091f15b4001"},"vehicle_type_id":"4","last_reported":1733429493,"current_range_meters":28000,"station_id":"ce4bha92rcd13ifvqeh0","pricing_plan_id":"cebpf4jnsgd1na2vs0mg"},{"bike_id":"5e0f238b-ae64-4126-8ec3-f35e96dcf93f","system_id":"levelo_inurba_marseille","lat":43.24999,"lon":5.38925,"is_reserved":false,"is_disabled":false,"rental_uris":{"android":"levelo://app?vid=5e0f238b-ae64-4126-8ec3-f35e96dcf93f","ios":"levelo://app?vid=5e0f238b-ae64-4126-8ec3-f35e96dcf93f"},"vehicle_type_id":"4","last_reported":1733429493,"current_range_meters":25200,"station_id":"ce4bhgp2rcd13ifvqfd0","pricing_plan_id":"cebpf4jnsgd1na2vs0mg"},{"bike_id":"dc08eabf-1b59-4004-8055-34faeb95ec28","system_id":"levelo_inurba_marseille","lat":43.2582,"lon":5.39427,"is_reserved":false,"is_disabled":false,"rental_uris":{"android":"levelo://app?vid=dc08eabf-1b59-4004-8055-34faeb95ec28","ios":"levelo://app?vid=dc08eabf-1b59-4004-8055-34faeb95ec28"},"vehicle_type_id":"4","last_reported":1733429493,"current_range_meters":38800,"station_id":"ce4bhip2rcd13ifvqft0","pricing_plan_id":"cebpf4jnsgd1na2vs0mg"},{"bike_id":"e971bf9a-b1da-454f-8e40-b352d3e9a972","system_id":"levelo_inurba_marseille","lat":43.28924,"lon":5.36398,"is_reserved":false,"is_disabled":false,"rental_uris":{"android":"levelo://app?vid=e971bf9a-b1da-454f-8e40-b352d3e9a972","ios":"levelo://app?vid=e971bf9a-b1da-454f-8e40-b352d3e9a972"},"vehicle_type_id":"4","last_reported":1733429493,"current_range_meters":38400,"station_id":"ce4bhc92rcd13ifvqetg","pricing_plan_id":"cebpf4jnsgd1na2vs0mg"},{"bike_id":"77708913-1a38-474c-9bb8-200631c8e393","system_id":"levelo_inurba_marseille","lat":43.29776,"lon":5.37097,"is_reserved":false,"is_disabled":false,"rental_uris":{"android":"levelo://app?vid=77708913-1a38-474c-9bb8-200631c8e393","ios":"levelo://app?vid=77708913-1a38-474c-9bb8-200631c8e393"},"vehicle_type_id":"4","last_reported":1733429493,"current_range_meters":30000,"station_id":"ce4bgop2rcd13ifvqc1g","pricing_plan_id":"cebpf4jnsgd1na2vs0mg"},{"bike_id":"2aab817b-3036-4778-b252-20a2852e9c7c","system_id":"levelo_inurba_marseille","lat":43.28079,"lon":5.39651,"is_reserved":false,"is_disabled":false,"rental_uris":{"android":"levelo://app?vid=2aab817b-3036-4778-b252-20a2852e9c7c","ios":"levelo://app?vid=2aab817b-3036-4778-b252-20a2852e9c7c"},"vehicle_type_id":"4","last_reported":1733429493,"current_range_meters":30800,"station_id":"ce4bho12rcd13ifvqh2g","pricing_plan_id":"cebpf4jnsgd1na2vs0mg"},{"bike_id":"7e138b6d-da12-4dd1-aa5c-731ba9e5976b","system_id":"levelo_inurba_marseille","lat":43.31654,"lon":5.37339,"is_reserved":false,"is_disabled":true,"rental_uris":{"android":"levelo://app?vid=7e138b6d-da12-4dd1-aa5c-731ba9e5976b","ios":"levelo://app?vid=7e138b6d-da12-4dd1-aa5c-731ba9e5976b"},"vehicle_type_id":"4","last_reported":1733429493,"current_range_meters":0,"station_id":"","pricing_plan_id":"cebpf4jnsgd1na2vs0mg"},{"bike_id":"2906e651-5ef0-4f5e-9a30-0077fd2370aa","system_id":"levelo_inurba_marseille","lat":43.30133,"lon":5.39882,"is_reserved":false,"is_disabled":true,"rental_uris":{"android":"levelo://app?vid=2906e651-5ef0-4f5e-9a30-0077fd2370aa","ios":"levelo://app?vid=2906e651-5ef0-4f5e-9a30-0077fd2370aa"},"vehicle_type_id":"4","last_reported":1733429493,"current_range_meters":0,"station_id":"ce4bh0h2rcd13ifvqd40","pricing_plan_id":"cebpf4jnsgd1na2vs0mg"},{"bike_id":"97caf237-85e4-434f-9ad0-53e6794457f3","system_id":"levelo_inurba_marseille","lat":43.23194,"lon":5.4,"is_reserved":false,"is_disabled":false,"rental_uris":{"android":"levelo://app?vid=97caf237-85e4-434f-9ad0-53e6794457f3","ios":"levelo://app?vid=97caf237-85e4-434f-9ad0-53e6794457f3"},"vehicle_type_id":"4","last_reported":1733429493,"current_range_meters":38800,"station_id":"ce4bhn12rcd13ifvqgqg","pricing_plan_id":"cebpf4jnsgd1na2vs0mg"},{"bike_id":"d59a407a-9ea4-4470-aab2-8435eec23b51","system_id":"levelo_inurba_marseille","lat":43.25814,"lon":5.39425,"is_reserved":false,"is_disabled":false,"rental_uris":{"android":"levelo://app?vid=d59a407a-9ea4-4470-aab2-8435eec23b51","ios":"levelo://app?vid=d59a407a-9ea4-4470-aab2-8435eec23b51"},"vehicle_type_id":"4","last_reported":1733429493,"current_range_meters":38800,"station_id":"ce4bhip2rcd13ifvqft0","pricing_plan_id":"cebpf4jnsgd1na2vs0mg"},{"bike_id":"90429cbc-d060-40de-b8f1-fb76045b8adc","system_id":"levelo_inurba_marseille","lat":43.28852,"lon":5.39313,"is_reserved":false,"is_disabled":false,"rental_uris":{"android":"levelo://app?vid=90429cbc-d060-40de-b8f1-fb76045b8adc","ios":"levelo://app?vid=90429cbc-d060-40de-b8f1-fb76045b8adc"},"vehicle_type_id":"4","last_reported":1733429493,"current_range_meters":38800,"station_id":"ce4bh2p2rcd13ifvqdi0","pricing_plan_id":"cebpf4jnsgd1na2vs0mg"},{"bike_id":"9c77a68d-2e99-44e9-b903-950fb6644d35","system_id":"levelo_inurba_marseille","lat":43.25265,"lon":5.39465,"is_reserved":false,"is_disabled":true,"rental_uris":{"android":"levelo://app?vid=9c77a68d-2e99-44e9-b903-950fb6644d35","ios":"levelo://app?vid=9c77a68d-2e99-44e9-b903-950fb6644d35"},"vehicle_type_id":"4","last_reported":1733429493,"current_range_meters":0,"station_id":"","pricing_plan_id":"cebpf4jnsgd1na2vs0mg"},{"bike_id":"315c7bc2-5174-410a-9110-4933c4ae6ab7","system_id":"levelo_inurba_marseille","lat":43.2511,"lon":5.40322,"is_reserved":false,"is_disabled":false,"rental_uris":{"android":"levelo://app?vid=315c7bc2-5174-410a-9110-4933c4ae6ab7","ios":"levelo://app?vid=315c7bc2-5174-410a-9110-4933c4ae6ab7"},"vehicle_type_id":"4","last_reported":1733429493,"current_range_meters":16400,"station_id":"ce4bhlh2rcd13ifvqgig","pricing_plan_id":"cebpf4jnsgd1na2vs0mg"},{"bike_id":"b809c467-2546-4610-8fe0-f0cf20691eb0","system_id":"levelo_inurba_marseille","lat":43.31082,"lon":5.42431,"is_reserved":false,"is_disabled":false,"rental_uris":{"android":"levelo://app?vid=b809c467-2546-4610-8fe0-f0cf20691eb0","ios":"levelo://app?vid=b809c467-2546-4610-8fe0-f0cf20691eb0"},"vehicle_type_id":"4","last_reported":1733429493,"current_range_meters":8400,"station_id":"ce4bhp92rcd13ifvqhag","pricing_plan_id":"cebpf4jnsgd1na2vs0mg"},{"bike_id":"c36253a1-57ec-4c1b-9775-99a3e2f8b01d","system_id":"levelo_inurba_marseille","lat":43.24999,"lon":5.38928,"is_reserved":false,"is_disabled":false,"rental_uris":{"android":"levelo://app?vid=c36253a1-57ec-4c1b-9775-99a3e2f8b01d","ios":"levelo://app?vid=c36253a1-57ec-4c1b-9775-99a3e2f8b01d"},"vehicle_type_id":"4","last_reported":1733429493,"current_range_meters":8000,"station_id":"ce4bhgp2rcd13ifvqfd0","pricing_plan_id":"cebpf4jnsgd1na2vs0mg"},{"bike_id":"bc3d5e10-8b3a-44c5-931e-a78f6c147614","system_id":"levelo_inurba_marseille","lat":43.27565,"lon":5.38422,"is_reserved":false,"is_disabled":false,"rental_uris":{"android":"levelo://app?vid=bc3d5e10-8b3a-44c5-931e-a78f6c147614","ios":"levelo://app?vid=bc3d5e10-8b3a-44c5-931e-a78f6c147614"},"vehicle_type_id":"4","last_reported":1733429493,"current_range_meters":20400,"station_id":"ce4bhh92rcd13ifvqfi0","pricing_plan_id":"cebpf4jnsgd1na2vs0mg"},{"bike_id":"d0c1876a-a4f3-4d77-a856-9a68b657c668","system_id":"levelo_inurba_marseille","lat":43.24065,"lon":5.37759,"is_reserved":false,"is_disabled":false,"rental_uris":{"android":"levelo://app?vid=d0c1876a-a4f3-4d77-a856-9a68b657c668","ios":"levelo://app?vid=d0c1876a-a4f3-4d77-a856-9a68b657c668"},"vehicle_type_id":"4","last_reported":1733429493,"current_range_meters":38800,"station_id":"ce4bhnp2rcd13ifvqgvg","pricing_plan_id":"cebpf4jnsgd1na2vs0mg"},{"bike_id":"83985555-c848-4b28-808f-8a7e7cf8519e","system_id":"levelo_inurba_marseille","lat":43.28115,"lon":5.43955,"is_reserved":false,"is_disabled":true,"rental_uris":{"android":"levelo://app?vid=83985555-c848-4b28-808f-8a7e7cf8519e","ios":"levelo://app?vid=83985555-c848-4b28-808f-8a7e7cf8519e"},"vehicle_type_id":"4","last_reported":1733429493,"current_range_meters":0,"station_id":"","pricing_plan_id":"cebpf4jnsgd1na2vs0mg"},{"bike_id":"76f22b2b-4267-4978-afb4-a70105660a0f","system_id":"levelo_inurba_marseille","lat":43.31216,"lon":5.36848,"is_reserved":false,"is_disabled":true,"rental_uris":{"android":"levelo://app?vid=76f22b2b-4267-4978-afb4-a70105660a0f","ios":"levelo://app?vid=76f22b2b-4267-4978-afb4-a70105660a0f"},"vehicle_type_id":"4","last_reported":1733429493,"current_range_meters":0,"station_id":"ce4bgl92rcd13ifvqbq0","pricing_plan_id":"cebpf4jnsgd1na2vs0mg"},{"bike_id":"01afb4bc-870a-4bb9-b0a6-be7ee7b649f2","system_id":"levelo_inurba_marseille","lat":43.27173,"lon":5.40987,"is_reserved":false,"is_disabled":false,"rental_uris":{"android":"levelo://app?vid=01afb4bc-870a-4bb9-b0a6-be7ee7b649f2","ios":"levelo://app?vid=01afb4bc-870a-4bb9-b0a6-be7ee7b649f2"},"vehicle_type_id":"4","last_reported":1733429493,"current_range_meters":38800,"station_id":"ce4bhl12rcd13ifvqgf0","pricing_plan_id":"cebpf4jnsgd1na2vs0mg"},{"bike_id":"903ec8f1-f4c3-441f-a117-ff7454fcb959","system_id":"levelo_inurba_marseille","lat":43.29478,"lon":5.39404,"is_reserved":false,"is_disabled":true,"rental_uris":{"android":"levelo://app?vid=903ec8f1-f4c3-441f-a117-ff7454fcb959","ios":"levelo://app?vid=903ec8f1-f4c3-441f-a117-ff7454fcb959"},"vehicle_type_id":"4","last_reported":1733429493,"current_range_meters":0,"station_id":"ce4bh292rcd13ifvqdf0","pricing_plan_id":"cebpf4jnsgd1na2vs0mg"},{"bike_id":"4a8e21e6-ec65-4655-92a4-dfff45da23c1","system_id":"levelo_inurba_marseille","lat":43.255,"lon":5.37644,"is_reserved":false,"is_disabled":false,"rental_uris":{"android":"levelo://app?vid=4a8e21e6-ec65-4655-92a4-dfff45da23c1","ios":"levelo://app?vid=4a8e21e6-ec65-4655-92a4-dfff45da23c1"},"vehicle_type_id":"4","last_reported":1733429493,"current_range_meters":38800,"station_id":"ce4bhh12rcd13ifvqff0","pricing_plan_id":"cebpf4jnsgd1na2vs0mg"},{"bike_id":"b8827b29-c8a6-4832-869c-59829aec2335","system_id":"levelo_inurba_marseille","lat":43.29688,"lon":5.37695,"is_reserved":false,"is_disabled":false,"rental_uris":{"android":"levelo://app?vid=b8827b29-c8a6-4832-869c-59829aec2335","ios":"levelo://app?vid=b8827b29-c8a6-4832-869c-59829aec2335"},"vehicle_type_id":"4","last_reported":1733429493,"current_range_meters":36400,"station_id":"ce4bgkh2rcd13ifvqbl0","pricing_plan_id":"cebpf4jnsgd1na2vs0mg"},{"bike_id":"6ab515cf-0c36-470a-9dcf-74ce73ab72f2","system_id":"levelo_inurba_marseille","lat":43.28438,"lon":5.39182,"is_reserved":false,"is_disabled":false,"rental_uris":{"android":"levelo://app?vid=6ab515cf-0c36-470a-9dcf-74ce73ab72f2","ios":"levelo://app?vid=6ab515cf-0c36-470a-9dcf-74ce73ab72f2"},"vehicle_type_id":"4","last_reported":1733429493,"current_range_meters":38800,"station_id":"ce4bhoh2rcd13ifvqh5g","pricing_plan_id":"cebpf4jnsgd1na2vs0mg"},{"bike_id":"87ead322-bb7e-432a-9462-9b15819dbfb3","system_id":"levelo_inurba_marseille","lat":43.29847,"lon":5.36285,"is_reserved":false,"is_disabled":false,"rental_uris":{"android":"levelo://app?vid=87ead322-bb7e-432a-9462-9b15819dbfb3","ios":"levelo://app?vid=87ead322-bb7e-432a-9462-9b15819dbfb3"},"vehicle_type_id":"4","last_reported":1733429493,"current_range_meters":36800,"station_id":"ce4bgpp2rcd13ifvqc3g","pricing_plan_id":"cebpf4jnsgd1na2vs0mg"},{"bike_id":"020719d4-c29b-4e35-be4b-81ca932ddaa9","system_id":"levelo_inurba_marseille","lat":43.30241,"lon":5.4005,"is_reserved":false,"is_disabled":true,"rental_uris":{"android":"levelo://app?vid=020719d4-c29b-4e35-be4b-81ca932ddaa9","ios":"levelo://app?vid=020719d4-c29b-4e35-be4b-81ca932ddaa9"},"vehicle_type_id":"4","last_reported":1733429493,"current_range_meters":29600,"station_id":"ce4bgvh2rcd13ifvqcs0","pricing_plan_id":"cebpf4jnsgd1na2vs0mg"},{"bike_id":"1663decc-784b-463c-a43f-548235ad78c8","system_id":"levelo_inurba_marseille","lat":43.26687,"lon":5.38271,"is_reserved":false,"is_disabled":false,"rental_uris":{"android":"levelo://app?vid=1663decc-784b-463c-a43f-548235ad78c8","ios":"levelo://app?vid=1663decc-784b-463c-a43f-548235ad78c8"},"vehicle_type_id":"4","last_reported":1733429493,"current_range_meters":38800,"station_id":"ce4bhg92rcd13ifvqf90","pricing_plan_id":"cebpf4jnsgd1na2vs0mg"},{"bike_id":"a8264fb2-dad4-4c52-9230-cf80b47302d6","system_id":"levelo_inurba_marseille","lat":43.3199,"lon":5.38148,"is_reserved":false,"is_disabled":true,"rental_uris":{"android":"levelo://app?vid=a8264fb2-dad4-4c52-9230-cf80b47302d6","ios":"levelo://app?vid=a8264fb2-dad4-4c52-9230-cf80b47302d6"},"vehicle_type_id":"4","last_reported":1733429493,"current_range_meters":16400,"station_id":"ce4bhr12rcd13ifvqhpg","pricing_plan_id":"cebpf4jnsgd1na2vs0mg"},{"bike_id":"5edf82fa-e9d0-4d1f-98f1-37c98092771a","system_id":"levelo_inurba_marseille","lat":43.23195,"lon":5.35542,"is_reserved":false,"is_disabled":false,"rental_uris":{"android":"levelo://app?vid=5edf82fa-e9d0-4d1f-98f1-37c98092771a","ios":"levelo://app?vid=5edf82fa-e9d0-4d1f-98f1-37c98092771a"},"vehicle_type_id":"4","last_reported":1733429493,"current_range_meters":39200,"station_id":"ce4bhu92rcd13ifvqi70","pricing_plan_id":"cebpf4jnsgd1na2vs0mg"},{"bike_id":"5c8c1563-790f-413c-92a4-e9bf05f3db3f","system_id":"levelo_inurba_marseille","lat":43.24069,"lon":5.37759,"is_reserved":false,"is_disabled":false,"rental_uris":{"android":"levelo://app?vid=5c8c1563-790f-413c-92a4-e9bf05f3db3f","ios":"levelo://app?vid=5c8c1563-790f-413c-92a4-e9bf05f3db3f"},"vehicle_type_id":"4","last_reported":1733429493,"current_range_meters":13600,"station_id":"ce4bhnp2rcd13ifvqgvg","pricing_plan_id":"cebpf4jnsgd1na2vs0mg"},{"bike_id":"48f0f46a-d93c-4d8d-9d4e-bacc7cb94894","system_id":"levelo_inurba_marseille","lat":43.33017,"lon":5.3904,"is_reserved":false,"is_disabled":false,"rental_uris":{"android":"levelo://app?vid=48f0f46a-d93c-4d8d-9d4e-bacc7cb94894","ios":"levelo://app?vid=48f0f46a-d93c-4d8d-9d4e-bacc7cb94894"},"vehicle_type_id":"4","last_reported":1733429493,"current_range_meters":38800,"station_id":"ce4bhr92rcd13ifvqhrg","pricing_plan_id":"cebpf4jnsgd1na2vs0mg"},{"bike_id":"35252b72-9f07-448b-ad77-61b6f4fe6ff6","system_id":"levelo_inurba_marseille","lat":43.24176,"lon":5.39724,"is_reserved":false,"is_disabled":false,"rental_uris":{"android":"levelo://app?vid=35252b72-9f07-448b-ad77-61b6f4fe6ff6","ios":"levelo://app?vid=35252b72-9f07-448b-ad77-61b6f4fe6ff6"},"vehicle_type_id":"4","last_reported":1733429493,"current_range_meters":24400,"station_id":"ce4bhn12rcd13ifvqgpg","pricing_plan_id":"cebpf4jnsgd1na2vs0mg"},{"bike_id":"41346609-e441-453a-b44b-4e7dd7d81ac6","system_id":"levelo_inurba_marseille","lat":43.26552,"lon":5.3728,"is_reserved":false,"is_disabled":false,"rental_uris":{"android":"levelo://app?vid=41346609-e441-453a-b44b-4e7dd7d81ac6","ios":"levelo://app?vid=41346609-e441-453a-b44b-4e7dd7d81ac6"},"vehicle_type_id":"4","last_reported":1733429493,"current_range_meters":21600,"station_id":"ce4bhg12rcd13ifvqf70","pricing_plan_id":"cebpf4jnsgd1na2vs0mg"},{"bike_id":"1fdd6986-fd3d-46ec-bb8e-b98d6a137718","system_id":"levelo_inurba_marseille","lat":43.31366,"lon":5.38495,"is_reserved":false,"is_disabled":false,"rental_uris":{"android":"levelo://app?vid=1fdd6986-fd3d-46ec-bb8e-b98d6a137718","ios":"levelo://app?vid=1fdd6986-fd3d-46ec-bb8e-b98d6a137718"},"vehicle_type_id":"4","last_reported":1733429493,"current_range_meters":31200,"station_id":"ce4bgt92rcd13ifvqcf0","pricing_plan_id":"cebpf4jnsgd1na2vs0mg"},{"bike_id":"506c09f4-6c9b-4fb3-996c-4c7f86dd75a8","system_id":"levelo_inurba_marseille","lat":43.25495,"lon":5.37646,"is_reserved":false,"is_disabled":true,"rental_uris":{"android":"levelo://app?vid=506c09f4-6c9b-4fb3-996c-4c7f86dd75a8","ios":"levelo://app?vid=506c09f4-6c9b-4fb3-996c-4c7f86dd75a8"},"vehicle_type_id":"4","last_reported":1733429493,"current_range_meters":0,"station_id":"ce4bhh12rcd13ifvqff0","pricing_plan_id":"cebpf4jnsgd1na2vs0mg"},{"bike_id":"30447de0-3055-47c6-abb6-5a70699a0c75","system_id":"levelo_inurba_marseille","lat":43.29573,"lon":5.3997,"is_reserved":false,"is_disabled":false,"rental_uris":{"android":"levelo://app?vid=30447de0-3055-47c6-abb6-5a70699a0c75","ios":"levelo://app?vid=30447de0-3055-47c6-abb6-5a70699a0c75"},"vehicle_type_id":"4","last_reported":1733429493,"current_range_meters":36400,"station_id":"ce4bh312rcd13ifvqdj0","pricing_plan_id":"cebpf4jnsgd1na2vs0mg"},{"bike_id":"f6710090-c0ab-46ae-af55-684904d7653b","system_id":"levelo_inurba_marseille","lat":43.29254,"lon":5.38445,"is_reserved":false,"is_disabled":false,"rental_uris":{"android":"levelo://app?vid=f6710090-c0ab-46ae-af55-684904d7653b","ios":"levelo://app?vid=f6710090-c0ab-46ae-af55-684904d7653b"},"vehicle_type_id":"4","last_reported":1733429493,"current_range_meters":26000,"station_id":"ce4bh692rcd13ifvqea0","pricing_plan_id":"cebpf4jnsgd1na2vs0mg"},{"bike_id":"9202c63e-372c-4469-a5c1-8e35757d1940","system_id":"levelo_inurba_marseille","lat":43.30053,"lon":5.38832,"is_reserved":false,"is_disabled":true,"rental_uris":{"android":"levelo://app?vid=9202c63e-372c-4469-a5c1-8e35757d1940","ios":"levelo://app?vid=9202c63e-372c-4469-a5c1-8e35757d1940"},"vehicle_type_id":"4","last_reported":1733429493,"current_range_meters":0,"station_id":"","pricing_plan_id":"cebpf4jnsgd1na2vs0mg"},{"bike_id":"4d75ea9c-71c5-44e7-a3ed-dd13a7651159","system_id":"levelo_inurba_marseille","lat":43.30796,"lon":5.43527,"is_reserved":false,"is_disabled":false,"rental_uris":{"android":"levelo://app?vid=4d75ea9c-71c5-44e7-a3ed-dd13a7651159","ios":"levelo://app?vid=4d75ea9c-71c5-44e7-a3ed-dd13a7651159"},"vehicle_type_id":"4","last_reported":1733429493,"current_range_meters":26000,"station_id":"ce4bhph2rcd13ifvqheg","pricing_plan_id":"cebpf4jnsgd1na2vs0mg"},{"bike_id":"d8070ade-92a7-4c1b-b844-8b27d003c2ce","system_id":"levelo_inurba_marseille","lat":43.30207,"lon":5.39461,"is_reserved":false,"is_disabled":true,"rental_uris":{"android":"levelo://app?vid=d8070ade-92a7-4c1b-b844-8b27d003c2ce","ios":"levelo://app?vid=d8070ade-92a7-4c1b-b844-8b27d003c2ce"},"vehicle_type_id":"4","last_reported":1733429493,"current_range_meters":2000,"station_id":"ce4bh0p2rcd13ifvqd70","pricing_plan_id":"cebpf4jnsgd1na2vs0mg"},{"bike_id":"5ecc5b41-0852-407d-a6ab-9fbe559e4644","system_id":"levelo_inurba_marseille","lat":43.32069,"lon":5.41535,"is_reserved":false,"is_disabled":true,"rental_uris":{"android":"levelo://app?vid=5ecc5b41-0852-407d-a6ab-9fbe559e4644","ios":"levelo://app?vid=5ecc5b41-0852-407d-a6ab-9fbe559e4644"},"vehicle_type_id":"4","last_reported":1733429493,"current_range_meters":38800,"station_id":"ce4bhq92rcd13ifvqhkg","pricing_plan_id":"cebpf4jnsgd1na2vs0mg"},{"bike_id":"75dd1c5f-483e-40ce-97e9-185e25d80986","system_id":"levelo_inurba_marseille","lat":43.29511,"lon":5.39083,"is_reserved":false,"is_disabled":false,"rental_uris":{"android":"levelo://app?vid=75dd1c5f-483e-40ce-97e9-185e25d80986","ios":"levelo://app?vid=75dd1c5f-483e-40ce-97e9-185e25d80986"},"vehicle_type_id":"4","last_reported":1733429493,"current_range_meters":22400,"station_id":"ce4bh3p2rcd13ifvqdp0","pricing_plan_id":"cebpf4jnsgd1na2vs0mg"},{"bike_id":"0deb7b46-3bee-4382-87b1-3984fb62457f","system_id":"levelo_inurba_marseille","lat":43.28741,"lon":5.38918,"is_reserved":false,"is_disabled":true,"rental_uris":{"android":"levelo://app?vid=0deb7b46-3bee-4382-87b1-3984fb62457f","ios":"levelo://app?vid=0deb7b46-3bee-4382-87b1-3984fb62457f"},"vehicle_type_id":"4","last_reported":1733429493,"current_range_meters":35600,"station_id":"","pricing_plan_id":"cebpf4jnsgd1na2vs0mg"},{"bike_id":"cf3e6ea0-09ff-406c-b357-28a6a6117f94","system_id":"levelo_inurba_marseille","lat":43.22935,"lon":5.35381,"is_reserved":false,"is_disabled":false,"rental_uris":{"android":"levelo://app?vid=cf3e6ea0-09ff-406c-b357-28a6a6117f94","ios":"levelo://app?vid=cf3e6ea0-09ff-406c-b357-28a6a6117f94"},"vehicle_type_id":"4","last_reported":1733429493,"current_range_meters":38800,"station_id":"cpo3532slgdg3j2ikp40","pricing_plan_id":"cebpf4jnsgd1na2vs0mg"},{"bike_id":"dc3d8e4f-4fe9-46f7-b6c9-6c71d022e43d","system_id":"levelo_inurba_marseille","lat":43.30137,"lon":5.39878,"is_reserved":false,"is_disabled":true,"rental_uris":{"android":"levelo://app?vid=dc3d8e4f-4fe9-46f7-b6c9-6c71d022e43d","ios":"levelo://app?vid=dc3d8e4f-4fe9-46f7-b6c9-6c71d022e43d"},"vehicle_type_id":"4","last_reported":1733429493,"current_range_meters":0,"station_id":"ce4bh0h2rcd13ifvqd40","pricing_plan_id":"cebpf4jnsgd1na2vs0mg"},{"bike_id":"285f2b15-1ff4-4bf4-9ef2-1c7b546f7bb5","system_id":"levelo_inurba_marseille","lat":43.248,"lon":5.37452,"is_reserved":false,"is_disabled":false,"rental_uris":{"android":"levelo://app?vid=285f2b15-1ff4-4bf4-9ef2-1c7b546f7bb5","ios":"levelo://app?vid=285f2b15-1ff4-4bf4-9ef2-1c7b546f7bb5"},"vehicle_type_id":"4","last_reported":1733429493,"current_range_meters":33200,"station_id":"ce4bhgh2rcd13ifvqfb0","pricing_plan_id":"cebpf4jnsgd1na2vs0mg"},{"bike_id":"23cb901a-643e-4349-8339-2e0c6f3bbc7d","system_id":"levelo_inurba_marseille","lat":43.28433,"lon":5.39196,"is_reserved":false,"is_disabled":false,"rental_uris":{"android":"levelo://app?vid=23cb901a-643e-4349-8339-2e0c6f3bbc7d","ios":"levelo://app?vid=23cb901a-643e-4349-8339-2e0c6f3bbc7d"},"vehicle_type_id":"4","last_reported":1733429493,"current_range_meters":38800,"station_id":"ce4bhoh2rcd13ifvqh5g","pricing_plan_id":"cebpf4jnsgd1na2vs0mg"},{"bike_id":"719e509a-25e4-4b1b-9830-f708d85d7593","system_id":"levelo_inurba_marseille","lat":43.29404,"lon":5.37451,"is_reserved":false,"is_disabled":true,"rental_uris":{"android":"levelo://app?vid=719e509a-25e4-4b1b-9830-f708d85d7593","ios":"levelo://app?vid=719e509a-25e4-4b1b-9830-f708d85d7593"},"vehicle_type_id":"4","last_reported":1733429493,"current_range_meters":0,"station_id":"","pricing_plan_id":"cebpf4jnsgd1na2vs0mg"},{"bike_id":"ad104f85-8dde-4a89-a631-5d2f6d1842ec","system_id":"levelo_inurba_marseille","lat":43.25118,"lon":5.40313,"is_reserved":false,"is_disabled":false,"rental_uris":{"android":"levelo://app?vid=ad104f85-8dde-4a89-a631-5d2f6d1842ec","ios":"levelo://app?vid=ad104f85-8dde-4a89-a631-5d2f6d1842ec"},"vehicle_type_id":"4","last_reported":1733429493,"current_range_meters":10000,"station_id":"ce4bhlh2rcd13ifvqgig","pricing_plan_id":"cebpf4jnsgd1na2vs0mg"},{"bike_id":"162aa6ef-3fd9-4c6d-b68d-25afcd8b5816","system_id":"levelo_inurba_marseille","lat":43.2945,"lon":5.39755,"is_reserved":false,"is_disabled":false,"rental_uris":{"android":"levelo://app?vid=162aa6ef-3fd9-4c6d-b68d-25afcd8b5816","ios":"levelo://app?vid=162aa6ef-3fd9-4c6d-b68d-25afcd8b5816"},"vehicle_type_id":"4","last_reported":1733429493,"current_range_meters":30800,"station_id":"ce4bh3h2rcd13ifvqdo0","pricing_plan_id":"cebpf4jnsgd1na2vs0mg"},{"bike_id":"521911b2-97e2-42a6-b05e-4d1bf8f2ca2e","system_id":"levelo_inurba_marseille","lat":43.30221,"lon":5.39473,"is_reserved":false,"is_disabled":false,"rental_uris":{"android":"levelo://app?vid=521911b2-97e2-42a6-b05e-4d1bf8f2ca2e","ios":"levelo://app?vid=521911b2-97e2-42a6-b05e-4d1bf8f2ca2e"},"vehicle_type_id":"4","last_reported":1733429493,"current_range_meters":9200,"station_id":"ce4bh0p2rcd13ifvqd70","pricing_plan_id":"cebpf4jnsgd1na2vs0mg"},{"bike_id":"04de0acf-2347-4b27-b5f4-4f63ae6f064a","system_id":"levelo_inurba_marseille","lat":43.29163,"lon":5.37149,"is_reserved":false,"is_disabled":false,"rental_uris":{"android":"levelo://app?vid=04de0acf-2347-4b27-b5f4-4f63ae6f064a","ios":"levelo://app?vid=04de0acf-2347-4b27-b5f4-4f63ae6f064a"},"vehicle_type_id":"4","last_reported":1733429493,"current_range_meters":39200,"station_id":"ce4bha92rcd13ifvqeh0","pricing_plan_id":"cebpf4jnsgd1na2vs0mg"},{"bike_id":"5dcf808c-6709-434c-991e-442ddb976190","system_id":"levelo_inurba_marseille","lat":43.2621,"lon":5.37441,"is_reserved":false,"is_disabled":false,"rental_uris":{"android":"levelo://app?vid=5dcf808c-6709-434c-991e-442ddb976190","ios":"levelo://app?vid=5dcf808c-6709-434c-991e-442ddb976190"},"vehicle_type_id":"4","last_reported":1733429493,"current_range_meters":25200,"station_id":"ce4bhgp2rcd13ifvqfc0","pricing_plan_id":"cebpf4jnsgd1na2vs0mg"},{"bike_id":"dd2ee4b5-69be-4d6e-946f-9b99b94cef90","system_id":"levelo_inurba_marseille","lat":43.30099,"lon":5.4008,"is_reserved":false,"is_disabled":false,"rental_uris":{"android":"levelo://app?vid=dd2ee4b5-69be-4d6e-946f-9b99b94cef90","ios":"levelo://app?vid=dd2ee4b5-69be-4d6e-946f-9b99b94cef90"},"vehicle_type_id":"4","last_reported":1733429493,"current_range_meters":30000,"station_id":"ce4bho92rcd13ifvqh3g","pricing_plan_id":"cebpf4jnsgd1na2vs0mg"},{"bike_id":"3eac95d3-b5a4-4bbd-8508-0debbfb4ff6c","system_id":"levelo_inurba_marseille","lat":43.28616,"lon":5.35102,"is_reserved":false,"is_disabled":false,"rental_uris":{"android":"levelo://app?vid=3eac95d3-b5a4-4bbd-8508-0debbfb4ff6c","ios":"levelo://app?vid=3eac95d3-b5a4-4bbd-8508-0debbfb4ff6c"},"vehicle_type_id":"4","last_reported":1733429493,"current_range_meters":38000,"station_id":"ce4bhch2rcd13ifvqeug","pricing_plan_id":"cebpf4jnsgd1na2vs0mg"},{"bike_id":"6a7ba481-a30d-474a-8bb7-4161477695ef","system_id":"levelo_inurba_marseille","lat":43.31362,"lon":5.38501,"is_reserved":false,"is_disabled":false,"rental_uris":{"android":"levelo://app?vid=6a7ba481-a30d-474a-8bb7-4161477695ef","ios":"levelo://app?vid=6a7ba481-a30d-474a-8bb7-4161477695ef"},"vehicle_type_id":"4","last_reported":1733429493,"current_range_meters":37600,"station_id":"ce4bgt92rcd13ifvqcf0","pricing_plan_id":"cebpf4jnsgd1na2vs0mg"},{"bike_id":"c94d37c8-4de1-47b5-9000-3fa68adb2b7e","system_id":"levelo_inurba_marseille","lat":43.29551,"lon":5.42274,"is_reserved":false,"is_disabled":false,"rental_uris":{"android":"levelo://app?vid=c94d37c8-4de1-47b5-9000-3fa68adb2b7e","ios":"levelo://app?vid=c94d37c8-4de1-47b5-9000-3fa68adb2b7e"},"vehicle_type_id":"4","last_reported":1733429493,"current_range_meters":28000,"station_id":"ce4bhph2rcd13ifvqhdg","pricing_plan_id":"cebpf4jnsgd1na2vs0mg"},{"bike_id":"b27994f0-39f1-4888-861a-0dd6775a480c","system_id":"levelo_inurba_marseille","lat":43.27911,"lon":5.39578,"is_reserved":false,"is_disabled":false,"rental_uris":{"android":"levelo://app?vid=b27994f0-39f1-4888-861a-0dd6775a480c","ios":"levelo://app?vid=b27994f0-39f1-4888-861a-0dd6775a480c"},"vehicle_type_id":"4","last_reported":1733429493,"current_range_meters":34000,"station_id":"ce4bhf92rcd13ifvqf40","pricing_plan_id":"cebpf4jnsgd1na2vs0mg"},{"bike_id":"b01ba929-1580-401b-973d-e4a15d746d4a","system_id":"levelo_inurba_marseille","lat":43.22929,"lon":5.35379,"is_reserved":false,"is_disabled":false,"rental_uris":{"android":"levelo://app?vid=b01ba929-1580-401b-973d-e4a15d746d4a","ios":"levelo://app?vid=b01ba929-1580-401b-973d-e4a15d746d4a"},"vehicle_type_id":"4","last_reported":1733429493,"current_range_meters":12800,"station_id":"cpo3532slgdg3j2ikp40","pricing_plan_id":"cebpf4jnsgd1na2vs0mg"},{"bike_id":"7519ef7a-d08a-49a3-a099-389c2c29dff3","system_id":"levelo_inurba_marseille","lat":43.31327,"lon":5.37038,"is_reserved":false,"is_disabled":true,"rental_uris":{"android":"levelo://app?vid=7519ef7a-d08a-49a3-a099-389c2c29dff3","ios":"levelo://app?vid=7519ef7a-d08a-49a3-a099-389c2c29dff3"},"vehicle_type_id":"4","last_reported":1733429493,"current_range_meters":400,"station_id":"","pricing_plan_id":"cebpf4jnsgd1na2vs0mg"},{"bike_id":"8c1e28b4-904f-48d7-ba6d-d3b5b5d05922","system_id":"levelo_inurba_marseille","lat":43.29267,"lon":5.4011,"is_reserved":false,"is_disabled":true,"rental_uris":{"android":"levelo://app?vid=8c1e28b4-904f-48d7-ba6d-d3b5b5d05922","ios":"levelo://app?vid=8c1e28b4-904f-48d7-ba6d-d3b5b5d05922"},"vehicle_type_id":"4","last_reported":1733429493,"current_range_meters":33600,"station_id":"ce4bh312rcd13ifvqdk0","pricing_plan_id":"cebpf4jnsgd1na2vs0mg"},{"bike_id":"98bd27a7-f68e-47ad-abce-bda474169d6a","system_id":"levelo_inurba_marseille","lat":43.29961,"lon":5.37187,"is_reserved":false,"is_disabled":false,"rental_uris":{"android":"levelo://app?vid=98bd27a7-f68e-47ad-abce-bda474169d6a","ios":"levelo://app?vid=98bd27a7-f68e-47ad-abce-bda474169d6a"},"vehicle_type_id":"4","last_reported":1733429493,"current_range_meters":32000,"station_id":"ce4bgr92rcd13ifvqc7g","pricing_plan_id":"cebpf4jnsgd1na2vs0mg"},{"bike_id":"92d40345-6dd7-4f66-b6c0-4b80bb88f713","system_id":"levelo_inurba_marseille","lat":43.30608,"lon":5.37219,"is_reserved":false,"is_disabled":false,"rental_uris":{"android":"levelo://app?vid=92d40345-6dd7-4f66-b6c0-4b80bb88f713","ios":"levelo://app?vid=92d40345-6dd7-4f66-b6c0-4b80bb88f713"},"vehicle_type_id":"4","last_reported":1733429493,"current_range_meters":36800,"station_id":"ce4bgqh2rcd13ifvqc4g","pricing_plan_id":"cebpf4jnsgd1na2vs0mg"},{"bike_id":"6eedd6c4-486c-4c0f-a28c-6b55e18af369","system_id":"levelo_inurba_marseille","lat":43.28446,"lon":5.39204,"is_reserved":false,"is_disabled":false,"rental_uris":{"android":"levelo://app?vid=6eedd6c4-486c-4c0f-a28c-6b55e18af369","ios":"levelo://app?vid=6eedd6c4-486c-4c0f-a28c-6b55e18af369"},"vehicle_type_id":"4","last_reported":1733429493,"current_range_meters":36000,"station_id":"ce4bhoh2rcd13ifvqh5g","pricing_plan_id":"cebpf4jnsgd1na2vs0mg"},{"bike_id":"010f1ddc-a5dd-4595-9905-ebf82317a65f","system_id":"levelo_inurba_marseille","lat":43.33025,"lon":5.39037,"is_reserved":false,"is_disabled":false,"rental_uris":{"android":"levelo://app?vid=010f1ddc-a5dd-4595-9905-ebf82317a65f","ios":"levelo://app?vid=010f1ddc-a5dd-4595-9905-ebf82317a65f"},"vehicle_type_id":"4","last_reported":1733429493,"current_range_meters":38800,"station_id":"ce4bhr92rcd13ifvqhrg","pricing_plan_id":"cebpf4jnsgd1na2vs0mg"},{"bike_id":"71991769-7b79-468e-aa16-533cfe544033","system_id":"levelo_inurba_marseille","lat":43.2926,"lon":5.38439,"is_reserved":false,"is_disabled":false,"rental_uris":{"android":"levelo://app?vid=71991769-7b79-468e-aa16-533cfe544033","ios":"levelo://app?vid=71991769-7b79-468e-aa16-533cfe544033"},"vehicle_type_id":"4","last_reported":1733429493,"current_range_meters":38800,"station_id":"ce4bh692rcd13ifvqea0","pricing_plan_id":"cebpf4jnsgd1na2vs0mg"},{"bike_id":"3d87200a-f2ab-4921-a90b-fee15eb03c56","system_id":"levelo_inurba_marseille","lat":43.29003,"lon":5.35614,"is_reserved":false,"is_disabled":false,"rental_uris":{"android":"levelo://app?vid=3d87200a-f2ab-4921-a90b-fee15eb03c56","ios":"levelo://app?vid=3d87200a-f2ab-4921-a90b-fee15eb03c56"},"vehicle_type_id":"4","last_reported":1733429493,"current_range_meters":36800,"station_id":"ce4bhb92rcd13ifvqen0","pricing_plan_id":"cebpf4jnsgd1na2vs0mg"},{"bike_id":"5f253d43-1e12-4edb-bb18-634ba51d83db","system_id":"levelo_inurba_marseille","lat":43.28666,"lon":5.38653,"is_reserved":false,"is_disabled":false,"rental_uris":{"android":"levelo://app?vid=5f253d43-1e12-4edb-bb18-634ba51d83db","ios":"levelo://app?vid=5f253d43-1e12-4edb-bb18-634ba51d83db"},"vehicle_type_id":"4","last_reported":1733429493,"current_range_meters":38800,"station_id":"ce4bh492rcd13ifvqdug","pricing_plan_id":"cebpf4jnsgd1na2vs0mg"},{"bike_id":"1ee74f47-c25e-4fca-8cea-1505429867e2","system_id":"levelo_inurba_marseille","lat":43.30315,"lon":5.39343,"is_reserved":false,"is_disabled":true,"rental_uris":{"android":"levelo://app?vid=1ee74f47-c25e-4fca-8cea-1505429867e2","ios":"levelo://app?vid=1ee74f47-c25e-4fca-8cea-1505429867e2"},"vehicle_type_id":"4","last_reported":1733429493,"current_range_meters":28000,"station_id":"","pricing_plan_id":"cebpf4jnsgd1na2vs0mg"},{"bike_id":"d68ce2c1-f9cc-46cc-8d04-2eb7462a4434","system_id":"levelo_inurba_marseille","lat":43.28567,"lon":5.39493,"is_reserved":false,"is_disabled":false,"rental_uris":{"android":"levelo://app?vid=d68ce2c1-f9cc-46cc-8d04-2eb7462a4434","ios":"levelo://app?vid=d68ce2c1-f9cc-46cc-8d04-2eb7462a4434"},"vehicle_type_id":"4","last_reported":1733429493,"current_range_meters":19200,"station_id":"ce4bh292rcd13ifvqdg0","pricing_plan_id":"cebpf4jnsgd1na2vs0mg"},{"bike_id":"1f41adbd-b25d-46c6-8a53-e4ecdbbf967f","system_id":"levelo_inurba_marseille","lat":43.24071,"lon":5.3776,"is_reserved":false,"is_disabled":false,"rental_uris":{"android":"levelo://app?vid=1f41adbd-b25d-46c6-8a53-e4ecdbbf967f","ios":"levelo://app?vid=1f41adbd-b25d-46c6-8a53-e4ecdbbf967f"},"vehicle_type_id":"4","last_reported":1733429493,"current_range_meters":19600,"station_id":"ce4bhnp2rcd13ifvqgvg","pricing_plan_id":"cebpf4jnsgd1na2vs0mg"},{"bike_id":"3e592e74-64b6-427b-a9f3-9c85b0d07de7","system_id":"levelo_inurba_marseille","lat":43.23181,"lon":5.39991,"is_reserved":false,"is_disabled":false,"rental_uris":{"android":"levelo://app?vid=3e592e74-64b6-427b-a9f3-9c85b0d07de7","ios":"levelo://app?vid=3e592e74-64b6-427b-a9f3-9c85b0d07de7"},"vehicle_type_id":"4","last_reported":1733429493,"current_range_meters":28000,"station_id":"ce4bhn12rcd13ifvqgqg","pricing_plan_id":"cebpf4jnsgd1na2vs0mg"},{"bike_id":"f45a0404-15ba-4c6b-b725-42587a894667","system_id":"levelo_inurba_marseille","lat":43.27827,"lon":5.39199,"is_reserved":false,"is_disabled":false,"rental_uris":{"android":"levelo://app?vid=f45a0404-15ba-4c6b-b725-42587a894667","ios":"levelo://app?vid=f45a0404-15ba-4c6b-b725-42587a894667"},"vehicle_type_id":"4","last_reported":1733429493,"current_range_meters":28400,"station_id":"ce4bhjp2rcd13ifvqga0","pricing_plan_id":"cebpf4jnsgd1na2vs0mg"},{"bike_id":"0aafc038-63a7-465c-97be-6a28dd91a638","system_id":"levelo_inurba_marseille","lat":43.24179,"lon":5.3973,"is_reserved":false,"is_disabled":false,"rental_uris":{"android":"levelo://app?vid=0aafc038-63a7-465c-97be-6a28dd91a638","ios":"levelo://app?vid=0aafc038-63a7-465c-97be-6a28dd91a638"},"vehicle_type_id":"4","last_reported":1733429493,"current_range_meters":6800,"station_id":"ce4bhn12rcd13ifvqgpg","pricing_plan_id":"cebpf4jnsgd1na2vs0mg"},{"bike_id":"2987e9f9-7152-4911-afb4-949b3c82adb2","system_id":"levelo_inurba_marseille","lat":43.28433,"lon":5.39195,"is_reserved":false,"is_disabled":false,"rental_uris":{"android":"levelo://app?vid=2987e9f9-7152-4911-afb4-949b3c82adb2","ios":"levelo://app?vid=2987e9f9-7152-4911-afb4-949b3c82adb2"},"vehicle_type_id":"4","last_reported":1733429493,"current_range_meters":14000,"station_id":"ce4bhoh2rcd13ifvqh5g","pricing_plan_id":"cebpf4jnsgd1na2vs0mg"},{"bike_id":"710c9d13-8a64-4ca7-ba64-fd3194714b19","system_id":"levelo_inurba_marseille","lat":43.30793,"lon":5.37329,"is_reserved":false,"is_disabled":false,"rental_uris":{"android":"levelo://app?vid=710c9d13-8a64-4ca7-ba64-fd3194714b19","ios":"levelo://app?vid=710c9d13-8a64-4ca7-ba64-fd3194714b19"},"vehicle_type_id":"4","last_reported":1733429493,"current_range_meters":20400,"station_id":"","pricing_plan_id":"cebpf4jnsgd1na2vs0mg"},{"bike_id":"a4b9e425-64b8-4ce2-a5ab-5fcc5d1230a4","system_id":"levelo_inurba_marseille","lat":43.32104,"lon":5.3678,"is_reserved":false,"is_disabled":false,"rental_uris":{"android":"levelo://app?vid=a4b9e425-64b8-4ce2-a5ab-5fcc5d1230a4","ios":"levelo://app?vid=a4b9e425-64b8-4ce2-a5ab-5fcc5d1230a4"},"vehicle_type_id":"4","last_reported":1733429493,"current_range_meters":34800,"station_id":"ce4bhrh2rcd13ifvqhug","pricing_plan_id":"cebpf4jnsgd1na2vs0mg"},{"bike_id":"bba4f0e4-5e5e-4777-a4c7-035ae88ccb69","system_id":"levelo_inurba_marseille","lat":43.2958,"lon":5.36693,"is_reserved":false,"is_disabled":false,"rental_uris":{"android":"levelo://app?vid=bba4f0e4-5e5e-4777-a4c7-035ae88ccb69","ios":"levelo://app?vid=bba4f0e4-5e5e-4777-a4c7-035ae88ccb69"},"vehicle_type_id":"4","last_reported":1733429493,"current_range_meters":34000,"station_id":"ce4bgrh2rcd13ifvqc8g","pricing_plan_id":"cebpf4jnsgd1na2vs0mg"},{"bike_id":"fd98eaa9-4d55-4e7b-aa90-0d14707466d9","system_id":"levelo_inurba_marseille","lat":43.337444,"lon":5.374475,"is_reserved":false,"is_disabled":true,"rental_uris":{"android":"levelo://app?vid=fd98eaa9-4d55-4e7b-aa90-0d14707466d9","ios":"levelo://app?vid=fd98eaa9-4d55-4e7b-aa90-0d14707466d9"},"vehicle_type_id":"4","last_reported":1733429493,"current_range_meters":0,"station_id":"","pricing_plan_id":"cebpf4jnsgd1na2vs0mg"},{"bike_id":"05ddaf11-6033-4b92-95e2-7f091c8db8d3","system_id":"levelo_inurba_marseille","lat":43.29539,"lon":5.38543,"is_reserved":false,"is_disabled":false,"rental_uris":{"android":"levelo://app?vid=05ddaf11-6033-4b92-95e2-7f091c8db8d3","ios":"levelo://app?vid=05ddaf11-6033-4b92-95e2-7f091c8db8d3"},"vehicle_type_id":"4","last_reported":1733429493,"current_range_meters":38800,"station_id":"ce4bgih2rcd13ifvqba0","pricing_plan_id":"cebpf4jnsgd1na2vs0mg"},{"bike_id":"7739e7e5-bcce-43a6-9d41-f90a9ba836ed","system_id":"levelo_inurba_marseille","lat":43.295909,"lon":5.380989,"is_reserved":false,"is_disabled":true,"rental_uris":{"android":"levelo://app?vid=7739e7e5-bcce-43a6-9d41-f90a9ba836ed","ios":"levelo://app?vid=7739e7e5-bcce-43a6-9d41-f90a9ba836ed"},"vehicle_type_id":"4","last_reported":1733429493,"current_range_meters":0,"station_id":"ce4bgl12rcd13ifvqbo0","pricing_plan_id":"cebpf4jnsgd1na2vs0mg"},{"bike_id":"e25dc6e3-1f83-4e32-ad60-7f8ea4cb5b47","system_id":"levelo_inurba_marseille","lat":43.29794,"lon":5.39351,"is_reserved":false,"is_disabled":true,"rental_uris":{"android":"levelo://app?vid=e25dc6e3-1f83-4e32-ad60-7f8ea4cb5b47","ios":"levelo://app?vid=e25dc6e3-1f83-4e32-ad60-7f8ea4cb5b47"},"vehicle_type_id":"4","last_reported":1733429493,"current_range_meters":0,"station_id":"chh1huq6cuj3fo74tm60","pricing_plan_id":"cebpf4jnsgd1na2vs0mg"},{"bike_id":"9f166179-3cc0-42ca-860b-06242525cca2","system_id":"levelo_inurba_marseille","lat":43.32005,"lon":5.41566,"is_reserved":false,"is_disabled":false,"rental_uris":{"android":"levelo://app?vid=9f166179-3cc0-42ca-860b-06242525cca2","ios":"levelo://app?vid=9f166179-3cc0-42ca-860b-06242525cca2"},"vehicle_type_id":"4","last_reported":1733429493,"current_range_meters":32800,"station_id":"ce4bhq92rcd13ifvqhkg","pricing_plan_id":"cebpf4jnsgd1na2vs0mg"},{"bike_id":"cbf578cc-cc2f-4189-9de2-b212a0c21f11","system_id":"levelo_inurba_marseille","lat":43.29531,"lon":5.39034,"is_reserved":false,"is_disabled":false,"rental_uris":{"android":"levelo://app?vid=cbf578cc-cc2f-4189-9de2-b212a0c21f11","ios":"levelo://app?vid=cbf578cc-cc2f-4189-9de2-b212a0c21f11"},"vehicle_type_id":"4","last_reported":1733429493,"current_range_meters":23200,"station_id":"ce4bh3p2rcd13ifvqdp0","pricing_plan_id":"cebpf4jnsgd1na2vs0mg"},{"bike_id":"c2d8a1c2-d166-4a36-b32f-beec95c93bd5","system_id":"levelo_inurba_marseille","lat":43.33756,"lon":5.37459,"is_reserved":false,"is_disabled":false,"rental_uris":{"android":"levelo://app?vid=c2d8a1c2-d166-4a36-b32f-beec95c93bd5","ios":"levelo://app?vid=c2d8a1c2-d166-4a36-b32f-beec95c93bd5"},"vehicle_type_id":"4","last_reported":1733429493,"current_range_meters":8000,"station_id":"","pricing_plan_id":"cebpf4jnsgd1na2vs0mg"},{"bike_id":"9bd88c76-7746-46e9-9940-80c3a6698370","system_id":"levelo_inurba_marseille","lat":43.292,"lon":5.39323,"is_reserved":false,"is_disabled":false,"rental_uris":{"android":"levelo://app?vid=9bd88c76-7746-46e9-9940-80c3a6698370","ios":"levelo://app?vid=9bd88c76-7746-46e9-9940-80c3a6698370"},"vehicle_type_id":"4","last_reported":1733429493,"current_range_meters":32400,"station_id":"ce4bh192rcd13ifvqdd0","pricing_plan_id":"cebpf4jnsgd1na2vs0mg"},{"bike_id":"971475e8-01cc-4086-a5a6-d0c8e33b0127","system_id":"levelo_inurba_marseille","lat":43.29594,"lon":5.38097,"is_reserved":false,"is_disabled":false,"rental_uris":{"android":"levelo://app?vid=971475e8-01cc-4086-a5a6-d0c8e33b0127","ios":"levelo://app?vid=971475e8-01cc-4086-a5a6-d0c8e33b0127"},"vehicle_type_id":"4","last_reported":1733429493,"current_range_meters":28800,"station_id":"ce4bgl12rcd13ifvqbo0","pricing_plan_id":"cebpf4jnsgd1na2vs0mg"},{"bike_id":"c452b77b-6320-4d7e-bff7-1aa7805d0b04","system_id":"levelo_inurba_marseille","lat":43.28077,"lon":5.39649,"is_reserved":false,"is_disabled":false,"rental_uris":{"android":"levelo://app?vid=c452b77b-6320-4d7e-bff7-1aa7805d0b04","ios":"levelo://app?vid=c452b77b-6320-4d7e-bff7-1aa7805d0b04"},"vehicle_type_id":"4","last_reported":1733429493,"current_range_meters":6400,"station_id":"ce4bho12rcd13ifvqh2g","pricing_plan_id":"cebpf4jnsgd1na2vs0mg"},{"bike_id":"22fe990f-6bb2-464e-959d-3d4e2b4de9f4","system_id":"levelo_inurba_marseille","lat":43.29087,"lon":5.37171,"is_reserved":false,"is_disabled":false,"rental_uris":{"android":"levelo://app?vid=22fe990f-6bb2-464e-959d-3d4e2b4de9f4","ios":"levelo://app?vid=22fe990f-6bb2-464e-959d-3d4e2b4de9f4"},"vehicle_type_id":"4","last_reported":1733429493,"current_range_meters":19200,"station_id":"ce4bh5p2rcd13ifvqe4g","pricing_plan_id":"cebpf4jnsgd1na2vs0mg"},{"bike_id":"260ca9c6-2da4-4db4-91e3-5df4d5d65a4c","system_id":"levelo_inurba_marseille","lat":43.29073,"lon":5.37166,"is_reserved":false,"is_disabled":false,"rental_uris":{"android":"levelo://app?vid=260ca9c6-2da4-4db4-91e3-5df4d5d65a4c","ios":"levelo://app?vid=260ca9c6-2da4-4db4-91e3-5df4d5d65a4c"},"vehicle_type_id":"4","last_reported":1733429493,"current_range_meters":38800,"station_id":"ce4bh5p2rcd13ifvqe4g","pricing_plan_id":"cebpf4jnsgd1na2vs0mg"},{"bike_id":"50bbf5c9-3093-4b41-8888-a7aa7d5d6517","system_id":"levelo_inurba_marseille","lat":43.297831,"lon":5.371064,"is_reserved":false,"is_disabled":false,"rental_uris":{"android":"levelo://app?vid=50bbf5c9-3093-4b41-8888-a7aa7d5d6517","ios":"levelo://app?vid=50bbf5c9-3093-4b41-8888-a7aa7d5d6517"},"vehicle_type_id":"4","last_reported":1733429493,"current_range_meters":37600,"station_id":"ce4bgop2rcd13ifvqc1g","pricing_plan_id":"cebpf4jnsgd1na2vs0mg"},{"bike_id":"e8d25b9b-2f6f-4f7f-8bc4-2102c4e24b79","system_id":"levelo_inurba_marseille","lat":43.28423,"lon":5.39187,"is_reserved":false,"is_disabled":false,"rental_uris":{"android":"levelo://app?vid=e8d25b9b-2f6f-4f7f-8bc4-2102c4e24b79","ios":"levelo://app?vid=e8d25b9b-2f6f-4f7f-8bc4-2102c4e24b79"},"vehicle_type_id":"4","last_reported":1733429493,"current_range_meters":38800,"station_id":"ce4bhoh2rcd13ifvqh5g","pricing_plan_id":"cebpf4jnsgd1na2vs0mg"},{"bike_id":"dce35d6a-08b0-4b4c-b89b-7b5e69e85874","system_id":"levelo_inurba_marseille","lat":43.32435,"lon":5.36371,"is_reserved":false,"is_disabled":false,"rental_uris":{"android":"levelo://app?vid=dce35d6a-08b0-4b4c-b89b-7b5e69e85874","ios":"levelo://app?vid=dce35d6a-08b0-4b4c-b89b-7b5e69e85874"},"vehicle_type_id":"4","last_reported":1733429493,"current_range_meters":8400,"station_id":"","pricing_plan_id":"cebpf4jnsgd1na2vs0mg"},{"bike_id":"37727576-2d28-4525-b065-40affdaee0f8","system_id":"levelo_inurba_marseille","lat":43.32363,"lon":5.38878,"is_reserved":false,"is_disabled":false,"rental_uris":{"android":"levelo://app?vid=37727576-2d28-4525-b065-40affdaee0f8","ios":"levelo://app?vid=37727576-2d28-4525-b065-40affdaee0f8"},"vehicle_type_id":"4","last_reported":1733429493,"current_range_meters":38400,"station_id":"ce4bhqp2rcd13ifvqhog","pricing_plan_id":"cebpf4jnsgd1na2vs0mg"},{"bike_id":"e0b7fb5e-6666-4977-b3eb-c2ea8e20dfb0","system_id":"levelo_inurba_marseille","lat":43.29255,"lon":5.38438,"is_reserved":false,"is_disabled":false,"rental_uris":{"android":"levelo://app?vid=e0b7fb5e-6666-4977-b3eb-c2ea8e20dfb0","ios":"levelo://app?vid=e0b7fb5e-6666-4977-b3eb-c2ea8e20dfb0"},"vehicle_type_id":"4","last_reported":1733429493,"current_range_meters":34000,"station_id":"ce4bh692rcd13ifvqea0","pricing_plan_id":"cebpf4jnsgd1na2vs0mg"},{"bike_id":"737bdef3-e4f9-4d42-9b3b-45164c8dc58f","system_id":"levelo_inurba_marseille","lat":43.24079,"lon":5.3773,"is_reserved":false,"is_disabled":true,"rental_uris":{"android":"levelo://app?vid=737bdef3-e4f9-4d42-9b3b-45164c8dc58f","ios":"levelo://app?vid=737bdef3-e4f9-4d42-9b3b-45164c8dc58f"},"vehicle_type_id":"4","last_reported":1733429493,"current_range_meters":11200,"station_id":"ce4bhnp2rcd13ifvqgvg","pricing_plan_id":"cebpf4jnsgd1na2vs0mg"},{"bike_id":"4a53085c-edee-457d-baad-2a365f253951","system_id":"levelo_inurba_marseille","lat":43.31116,"lon":5.37756,"is_reserved":false,"is_disabled":true,"rental_uris":{"android":"levelo://app?vid=4a53085c-edee-457d-baad-2a365f253951","ios":"levelo://app?vid=4a53085c-edee-457d-baad-2a365f253951"},"vehicle_type_id":"4","last_reported":1733429493,"current_range_meters":0,"station_id":"ce4bgt92rcd13ifvqcg0","pricing_plan_id":"cebpf4jnsgd1na2vs0mg"},{"bike_id":"203d28ed-22de-4adb-9900-273d55c8f337","system_id":"levelo_inurba_marseille","lat":43.30454,"lon":5.37904,"is_reserved":false,"is_disabled":false,"rental_uris":{"android":"levelo://app?vid=203d28ed-22de-4adb-9900-273d55c8f337","ios":"levelo://app?vid=203d28ed-22de-4adb-9900-273d55c8f337"},"vehicle_type_id":"4","last_reported":1733429493,"current_range_meters":6800,"station_id":"ce4bgup2rcd13ifvqcn0","pricing_plan_id":"cebpf4jnsgd1na2vs0mg"},{"bike_id":"bd019733-b285-43d6-9d13-b5c534a12ecb","system_id":"levelo_inurba_marseille","lat":43.31061,"lon":5.38768,"is_reserved":false,"is_disabled":false,"rental_uris":{"android":"levelo://app?vid=bd019733-b285-43d6-9d13-b5c534a12ecb","ios":"levelo://app?vid=bd019733-b285-43d6-9d13-b5c534a12ecb"},"vehicle_type_id":"4","last_reported":1733429493,"current_range_meters":38800,"station_id":"","pricing_plan_id":"cebpf4jnsgd1na2vs0mg"},{"bike_id":"caef05e5-3985-4194-8ee8-a708119875f7","system_id":"levelo_inurba_marseille","lat":43.24385,"lon":5.37062,"is_reserved":false,"is_disabled":false,"rental_uris":{"android":"levelo://app?vid=caef05e5-3985-4194-8ee8-a708119875f7","ios":"levelo://app?vid=caef05e5-3985-4194-8ee8-a708119875f7"},"vehicle_type_id":"4","last_reported":1733429493,"current_range_meters":22800,"station_id":"ce4bhhh2rcd13ifvqfk0","pricing_plan_id":"cebpf4jnsgd1na2vs0mg"},{"bike_id":"56857096-9e33-440c-a561-11d72612acad","system_id":"levelo_inurba_marseille","lat":43.29415,"lon":5.38621,"is_reserved":false,"is_disabled":false,"rental_uris":{"android":"levelo://app?vid=56857096-9e33-440c-a561-11d72612acad","ios":"levelo://app?vid=56857096-9e33-440c-a561-11d72612acad"},"vehicle_type_id":"4","last_reported":1733429493,"current_range_meters":5600,"station_id":"ce4bh2h2rcd13ifvqdh0","pricing_plan_id":"cebpf4jnsgd1na2vs0mg"},{"bike_id":"a6e158cf-77f1-4390-aad2-53120c9f5184","system_id":"levelo_inurba_marseille","lat":43.32657,"lon":5.40992,"is_reserved":false,"is_disabled":false,"rental_uris":{"android":"levelo://app?vid=a6e158cf-77f1-4390-aad2-53120c9f5184","ios":"levelo://app?vid=a6e158cf-77f1-4390-aad2-53120c9f5184"},"vehicle_type_id":"4","last_reported":1733429493,"current_range_meters":20800,"station_id":"ce4bhpp2rcd13ifvqhgg","pricing_plan_id":"cebpf4jnsgd1na2vs0mg"},{"bike_id":"48f32988-4ce8-40b8-8fd8-7a984be245cd","system_id":"levelo_inurba_marseille","lat":43.30092,"lon":5.39071,"is_reserved":false,"is_disabled":false,"rental_uris":{"android":"levelo://app?vid=48f32988-4ce8-40b8-8fd8-7a984be245cd","ios":"levelo://app?vid=48f32988-4ce8-40b8-8fd8-7a984be245cd"},"vehicle_type_id":"4","last_reported":1733429493,"current_range_meters":8800,"station_id":"ce4bh192rcd13ifvqdb0","pricing_plan_id":"cebpf4jnsgd1na2vs0mg"},{"bike_id":"0e567a82-9833-495c-9958-141088030285","system_id":"levelo_inurba_marseille","lat":43.2991,"lon":5.3814,"is_reserved":false,"is_disabled":false,"rental_uris":{"android":"levelo://app?vid=0e567a82-9833-495c-9958-141088030285","ios":"levelo://app?vid=0e567a82-9833-495c-9958-141088030285"},"vehicle_type_id":"4","last_reported":1733429493,"current_range_meters":4000,"station_id":"ce4bgj12rcd13ifvqbc0","pricing_plan_id":"cebpf4jnsgd1na2vs0mg"},{"bike_id":"e53f851f-4fe2-4f42-8246-21beb518723a","system_id":"levelo_inurba_marseille","lat":43.27056,"lon":5.40263,"is_reserved":false,"is_disabled":false,"rental_uris":{"android":"levelo://app?vid=e53f851f-4fe2-4f42-8246-21beb518723a","ios":"levelo://app?vid=e53f851f-4fe2-4f42-8246-21beb518723a"},"vehicle_type_id":"4","last_reported":1733429493,"current_range_meters":7200,"station_id":"ce4bhk92rcd13ifvqgc0","pricing_plan_id":"cebpf4jnsgd1na2vs0mg"},{"bike_id":"3330d9e0-99fe-43de-8adf-53cbbdf1aaa5","system_id":"levelo_inurba_marseille","lat":43.31274,"lon":5.40168,"is_reserved":false,"is_disabled":false,"rental_uris":{"android":"levelo://app?vid=3330d9e0-99fe-43de-8adf-53cbbdf1aaa5","ios":"levelo://app?vid=3330d9e0-99fe-43de-8adf-53cbbdf1aaa5"},"vehicle_type_id":"4","last_reported":1733429493,"current_range_meters":30800,"station_id":"ce4bh092rcd13ifvqd30","pricing_plan_id":"cebpf4jnsgd1na2vs0mg"},{"bike_id":"a14a87d7-4090-47b3-8c65-a440faa8996d","system_id":"levelo_inurba_marseille","lat":43.29201,"lon":5.39314,"is_reserved":false,"is_disabled":false,"rental_uris":{"android":"levelo://app?vid=a14a87d7-4090-47b3-8c65-a440faa8996d","ios":"levelo://app?vid=a14a87d7-4090-47b3-8c65-a440faa8996d"},"vehicle_type_id":"4","last_reported":1733429493,"current_range_meters":28000,"station_id":"ce4bh192rcd13ifvqdd0","pricing_plan_id":"cebpf4jnsgd1na2vs0mg"},{"bike_id":"21c61b3f-2ae1-41ed-96e8-21fc1b01a387","system_id":"levelo_inurba_marseille","lat":43.30082,"lon":5.37245,"is_reserved":false,"is_disabled":false,"rental_uris":{"android":"levelo://app?vid=21c61b3f-2ae1-41ed-96e8-21fc1b01a387","ios":"levelo://app?vid=21c61b3f-2ae1-41ed-96e8-21fc1b01a387"},"vehicle_type_id":"4","last_reported":1733429493,"current_range_meters":14400,"station_id":"","pricing_plan_id":"cebpf4jnsgd1na2vs0mg"},{"bike_id":"f51684b7-fd29-4622-9efb-7a87c0a48d7b","system_id":"levelo_inurba_marseille","lat":43.24391,"lon":5.37059,"is_reserved":false,"is_disabled":true,"rental_uris":{"android":"levelo://app?vid=f51684b7-fd29-4622-9efb-7a87c0a48d7b","ios":"levelo://app?vid=f51684b7-fd29-4622-9efb-7a87c0a48d7b"},"vehicle_type_id":"4","last_reported":1733429493,"current_range_meters":27600,"station_id":"ce4bhhh2rcd13ifvqfk0","pricing_plan_id":"cebpf4jnsgd1na2vs0mg"},{"bike_id":"17448b15-c1cc-473c-8745-53a0233fdeae","system_id":"levelo_inurba_marseille","lat":43.29264,"lon":5.38432,"is_reserved":false,"is_disabled":false,"rental_uris":{"android":"levelo://app?vid=17448b15-c1cc-473c-8745-53a0233fdeae","ios":"levelo://app?vid=17448b15-c1cc-473c-8745-53a0233fdeae"},"vehicle_type_id":"4","last_reported":1733429493,"current_range_meters":22400,"station_id":"ce4bh692rcd13ifvqea0","pricing_plan_id":"cebpf4jnsgd1na2vs0mg"},{"bike_id":"3a9149f3-357c-4d0a-859b-18382ef024a5","system_id":"levelo_inurba_marseille","lat":43.32109,"lon":5.36768,"is_reserved":false,"is_disabled":false,"rental_uris":{"android":"levelo://app?vid=3a9149f3-357c-4d0a-859b-18382ef024a5","ios":"levelo://app?vid=3a9149f3-357c-4d0a-859b-18382ef024a5"},"vehicle_type_id":"4","last_reported":1733429493,"current_range_meters":22800,"station_id":"ce4bhrh2rcd13ifvqhug","pricing_plan_id":"cebpf4jnsgd1na2vs0mg"},{"bike_id":"bbcbfa71-d8f5-4b8e-9040-d67356b9ece4","system_id":"levelo_inurba_marseille","lat":43.31362,"lon":5.38498,"is_reserved":false,"is_disabled":true,"rental_uris":{"android":"levelo://app?vid=bbcbfa71-d8f5-4b8e-9040-d67356b9ece4","ios":"levelo://app?vid=bbcbfa71-d8f5-4b8e-9040-d67356b9ece4"},"vehicle_type_id":"4","last_reported":1733429493,"current_range_meters":9200,"station_id":"ce4bgt92rcd13ifvqcf0","pricing_plan_id":"cebpf4jnsgd1na2vs0mg"},{"bike_id":"868a434e-7c11-4b20-84c6-7ecdbf24c83b","system_id":"levelo_inurba_marseille","lat":43.33018,"lon":5.39031,"is_reserved":false,"is_disabled":false,"rental_uris":{"android":"levelo://app?vid=868a434e-7c11-4b20-84c6-7ecdbf24c83b","ios":"levelo://app?vid=868a434e-7c11-4b20-84c6-7ecdbf24c83b"},"vehicle_type_id":"4","last_reported":1733429493,"current_range_meters":30400,"station_id":"ce4bhr92rcd13ifvqhrg","pricing_plan_id":"cebpf4jnsgd1na2vs0mg"},{"bike_id":"22e63b32-e3f1-46e0-9426-cffc06ee9a15","system_id":"levelo_inurba_marseille","lat":43.27834,"lon":5.39203,"is_reserved":false,"is_disabled":false,"rental_uris":{"android":"levelo://app?vid=22e63b32-e3f1-46e0-9426-cffc06ee9a15","ios":"levelo://app?vid=22e63b32-e3f1-46e0-9426-cffc06ee9a15"},"vehicle_type_id":"4","last_reported":1733429493,"current_range_meters":20000,"station_id":"ce4bhjp2rcd13ifvqga0","pricing_plan_id":"cebpf4jnsgd1na2vs0mg"},{"bike_id":"fe5982a2-508b-4e69-8273-2b7654f9979f","system_id":"levelo_inurba_marseille","lat":43.27911,"lon":5.39585,"is_reserved":false,"is_disabled":false,"rental_uris":{"android":"levelo://app?vid=fe5982a2-508b-4e69-8273-2b7654f9979f","ios":"levelo://app?vid=fe5982a2-508b-4e69-8273-2b7654f9979f"},"vehicle_type_id":"4","last_reported":1733429493,"current_range_meters":24800,"station_id":"ce4bhf92rcd13ifvqf40","pricing_plan_id":"cebpf4jnsgd1na2vs0mg"},{"bike_id":"bd4f54bf-90a9-4a8d-a42c-a2332d607c36","system_id":"levelo_inurba_marseille","lat":43.29019,"lon":5.38643,"is_reserved":false,"is_disabled":false,"rental_uris":{"android":"levelo://app?vid=bd4f54bf-90a9-4a8d-a42c-a2332d607c36","ios":"levelo://app?vid=bd4f54bf-90a9-4a8d-a42c-a2332d607c36"},"vehicle_type_id":"4","last_reported":1733429493,"current_range_meters":8800,"station_id":"ce4bh4p2rcd13ifvqe0g","pricing_plan_id":"cebpf4jnsgd1na2vs0mg"},{"bike_id":"721f5feb-b378-4dac-af39-7801c98d73b6","system_id":"levelo_inurba_marseille","lat":43.30143,"lon":5.38108,"is_reserved":false,"is_disabled":true,"rental_uris":{"android":"levelo://app?vid=721f5feb-b378-4dac-af39-7801c98d73b6","ios":"levelo://app?vid=721f5feb-b378-4dac-af39-7801c98d73b6"},"vehicle_type_id":"4","last_reported":1733429493,"current_range_meters":0,"station_id":"ce4bgjp2rcd13ifvqbh0","pricing_plan_id":"cebpf4jnsgd1na2vs0mg"},{"bike_id":"da6a7a1d-e653-4950-af8c-8137b06f7d40","system_id":"levelo_inurba_marseille","lat":43.3004,"lon":5.37551,"is_reserved":false,"is_disabled":true,"rental_uris":{"android":"levelo://app?vid=da6a7a1d-e653-4950-af8c-8137b06f7d40","ios":"levelo://app?vid=da6a7a1d-e653-4950-af8c-8137b06f7d40"},"vehicle_type_id":"4","last_reported":1733429493,"current_range_meters":0,"station_id":"","pricing_plan_id":"cebpf4jnsgd1na2vs0mg"},{"bike_id":"b1ce4e53-59d1-4dc6-bd81-38e823b0b8a9","system_id":"levelo_inurba_marseille","lat":43.29412,"lon":5.38603,"is_reserved":false,"is_disabled":true,"rental_uris":{"android":"levelo://app?vid=b1ce4e53-59d1-4dc6-bd81-38e823b0b8a9","ios":"levelo://app?vid=b1ce4e53-59d1-4dc6-bd81-38e823b0b8a9"},"vehicle_type_id":"4","last_reported":1733429493,"current_range_meters":0,"station_id":"ce4bh2h2rcd13ifvqdh0","pricing_plan_id":"cebpf4jnsgd1na2vs0mg"},{"bike_id":"b318b6bd-bf9f-46e2-be2d-894e7ab6b3e8","system_id":"levelo_inurba_marseille","lat":43.3266,"lon":5.40985,"is_reserved":false,"is_disabled":true,"rental_uris":{"android":"levelo://app?vid=b318b6bd-bf9f-46e2-be2d-894e7ab6b3e8","ios":"levelo://app?vid=b318b6bd-bf9f-46e2-be2d-894e7ab6b3e8"},"vehicle_type_id":"4","last_reported":1733429493,"current_range_meters":0,"station_id":"ce4bhpp2rcd13ifvqhgg","pricing_plan_id":"cebpf4jnsgd1na2vs0mg"},{"bike_id":"7e62df7b-8c2c-4e8c-aa17-17d5144812be","system_id":"levelo_inurba_marseille","lat":43.29596,"lon":5.38106,"is_reserved":false,"is_disabled":false,"rental_uris":{"android":"levelo://app?vid=7e62df7b-8c2c-4e8c-aa17-17d5144812be","ios":"levelo://app?vid=7e62df7b-8c2c-4e8c-aa17-17d5144812be"},"vehicle_type_id":"4","last_reported":1733429493,"current_range_meters":14400,"station_id":"ce4bgl12rcd13ifvqbo0","pricing_plan_id":"cebpf4jnsgd1na2vs0mg"},{"bike_id":"0224f1d3-a86a-41cc-95e3-1e33af87b767","system_id":"levelo_inurba_marseille","lat":43.29626,"lon":5.40591,"is_reserved":false,"is_disabled":false,"rental_uris":{"android":"levelo://app?vid=0224f1d3-a86a-41cc-95e3-1e33af87b767","ios":"levelo://app?vid=0224f1d3-a86a-41cc-95e3-1e33af87b767"},"vehicle_type_id":"4","last_reported":1733429493,"current_range_meters":30000,"station_id":"ce4bh0h2rcd13ifvqd60","pricing_plan_id":"cebpf4jnsgd1na2vs0mg"},{"bike_id":"b15b6b5e-bf26-4345-8946-14181dc7ac5b","system_id":"levelo_inurba_marseille","lat":43.25108,"lon":5.40321,"is_reserved":false,"is_disabled":false,"rental_uris":{"android":"levelo://app?vid=b15b6b5e-bf26-4345-8946-14181dc7ac5b","ios":"levelo://app?vid=b15b6b5e-bf26-4345-8946-14181dc7ac5b"},"vehicle_type_id":"4","last_reported":1733429493,"current_range_meters":38800,"station_id":"ce4bhlh2rcd13ifvqgig","pricing_plan_id":"cebpf4jnsgd1na2vs0mg"},{"bike_id":"18a6eb43-06e4-4663-864e-b1e1075156da","system_id":"levelo_inurba_marseille","lat":43.28924,"lon":5.36629,"is_reserved":false,"is_disabled":false,"rental_uris":{"android":"levelo://app?vid=18a6eb43-06e4-4663-864e-b1e1075156da","ios":"levelo://app?vid=18a6eb43-06e4-4663-864e-b1e1075156da"},"vehicle_type_id":"4","last_reported":1733429493,"current_range_meters":22000,"station_id":"ce4bhap2rcd13ifvqek0","pricing_plan_id":"cebpf4jnsgd1na2vs0mg"},{"bike_id":"30bf4b75-1fd8-41c2-bd19-80d7ecf62a12","system_id":"levelo_inurba_marseille","lat":43.29033,"lon":5.35916,"is_reserved":false,"is_disabled":false,"rental_uris":{"android":"levelo://app?vid=30bf4b75-1fd8-41c2-bd19-80d7ecf62a12","ios":"levelo://app?vid=30bf4b75-1fd8-41c2-bd19-80d7ecf62a12"},"vehicle_type_id":"4","last_reported":1733429493,"current_range_meters":9600,"station_id":"ce4bha92rcd13ifvqeg0","pricing_plan_id":"cebpf4jnsgd1na2vs0mg"},