{"last_updated":1745010506,"ttl":60,"version":"2.2","data":{"bikes":[{"bike_id":"faaece45-65cd-4495-8c6e-881c362a64fa","system_id":"levelo_inurba_marseille","lat":43.29138,"lon":5.38295,"is_reserved":false,"is_disabled":false,"rental_uris":{"android":"levelo://app?vid=faaece45-65cd-4495-8c6e-881c362a64fa","ios":"levelo://app?vid=faaece45-65cd-4495-8c6e-881c362a64fa"},"vehicle_type_id":"4","last_reported":1745010506,"current_range_meters":3200,"station_id":"","pricing_plan_id":"cebpf4jnsgd1na2vs0mg"},{"bike_id":"208a8069-b7ea-42ee-8dec-ad30f2e44046","system_id":"levelo_inurba_marseille","lat":43.29762,"lon":5.40959,"is_reserved":false,"is_disabled":false,"rental_uris":{"android":"levelo://app?vid=208a8069-b7ea-42ee-8dec-ad30f2e44046","ios":"levelo://app?vid=208a8069-b7ea-42ee-8dec-ad30f2e44046"},"vehicle_type_id":"4","last_reported":1745010506,"current_range_meters":3200,"station_id":"","pricing_plan_id":"cebpf4jnsgd1na2vs0mg"},{"bike_id":"5a332681-e479-4aef-8c79-e5ffefc9a099","system_id":"levelo_inurba_marseille","lat":43.30376,"lon":5.42489,"is_reserved":false,"is_disabled":true,"rental_uris":{"android":"levelo://app?vid=5a332681-e479-4aef-8c79-e5ffefc9a099","ios":"levelo://app?vid=5a332681-e479-4aef-8c79-e5ffefc9a099"},"vehicle_type_id":"4","last_reported":1745010506,"current_range_meters":3200,"station_id":"ce4bhoh2rcd13ifvqh6g","pricing_plan_id":"cebpf4jnsgd1na2vs0mg"},{"bike_id":"8b503c01-1884-42b4-947d-03226b9fdfb3","system_id":"levelo_inurba_marseille","lat":43.306389,"lon":5.400992,"is_reserved":false,"is_disabled":false,"rental_uris":{"android":"levelo://app?vid=8b503c01-1884-42b4-947d-03226b9fdfb3","ios":"levelo://app?vid=8b503c01-1884-42b4-947d-03226b9fdfb3"},"vehicle_type_id":"4","last_reported":1745010506,"current_range_meters":3200,"station_id":"ce4bh112rcd13ifvqda0","pricing_plan_id":"cebpf4jnsgd1na2vs0mg"},{"bike_id":"59874383-ce38-46b5-9425-2cb48ee505fe","system_id":"levelo_inurba_marseille","lat":43.25093,"lon":5.39517,"is_reserved":false,"is_disabled":false,"rental_uris":{"android":"levelo://app?vid=59874383-ce38-46b5-9425-2cb48ee505fe","ios":"levelo://app?vid=59874383-ce38-46b5-9425-2cb48ee505fe"},"vehicle_type_id":"4","last_reported":1745010506,"current_range_meters":3200,"station_id":"ce4bhm12rcd13ifvqgkg","pricing_plan_id":"cebpf4jnsgd1na2vs0mg"},{"bike_id":"bb6bde57-4132-4218-89dc-f3a4137f40ec","system_id":"levelo_inurba_marseille","lat":43.28112,"lon":5.37844,"is_reserved":false,"is_disabled":false,"rental_uris":{"android":"levelo://app?vid=bb6bde57-4132-4218-89dc-f3a4137f40ec","ios":"levelo://app?vid=bb6bde57-4132-4218-89dc-f3a4137f40ec"},"vehicle_type_id":"4","last_reported":1745010506,"current_range_meters":3200,"station_id":"ce4bha12rcd13ifvqee0","pricing_plan_id":"cebpf4jnsgd1na2vs0mg"},{"bike_id":"0cd7448c-170a-48be-bc79-f10bcaf69806","system_id":"levelo_inurba_marseille","lat":43.23023,"lon":5.35515,"is_reserved":false,"is_disabled":true,"rental_uris":{"android":"levelo://app?vid=0cd7448c-170a-48be-bc79-f10bcaf69806","ios":"levelo://app?vid=0cd7448c-170a-48be-bc79-f10bcaf69806"},"vehicle_type_id":"4","last_reported":1745010506,"current_range_meters":3600,"station_id":"cpo3342slgdg3j2ifvpg","pricing_plan_id":"cebpf4jnsgd1na2vs0mg"},{"bike_id":"b2f01db5-95b3-4217-8fad-ff2c7e376cf7","system_id":"levelo_inurba_marseille","lat":43.29603,"lon":5.38107,"is_reserved":false,"is_disabled":false,"rental_uris":{"android":"levelo://app?vid=b2f01db5-95b3-4217-8fad-ff2c7e376cf7","ios":"levelo://app?vid=b2f01db5-95b3-4217-8fad-ff2c7e376cf7"},"vehicle_type_id":"4","last_reported":1745010506,"current_range_meters":3600,"station_id":"ce4bgl12rcd13ifvqbo0","pricing_plan_id":"cebpf4jnsgd1na2vs0mg"},{"bike_id":"eabf696b-f9f3-4720-8a30-d72f02495516","system_id":"levelo_inurba_marseille","lat":43.27384,"lon":5.36266,"is_reserved":false,"is_disabled":false,"rental_uris":{"android":"levelo://app?vid=eabf696b-f9f3-4720-8a30-d72f02495516","ios":"levelo://app?vid=eabf696b-f9f3-4720-8a30-d72f02495516"},"vehicle_type_id":"4","last_reported":1745010506,"current_range_meters":4000,"station_id":"ce4bhbh2rcd13ifvqeo0","pricing_plan_id":"cebpf4jnsgd1na2vs0mg"},{"bike_id":"255300ca-fdce-41fa-9733-a28df44933a7","system_id":"levelo_inurba_marseille","lat":43.29596,"lon":5.38105,"is_reserved":false,"is_disabled":false,"rental_uris":{"android":"levelo://app?vid=255300ca-fdce-41fa-9733-a28df44933a7","ios":"levelo://app?vid=255300ca-fdce-41fa-9733-a28df44933a7"},"vehicle_type_id":"4","last_reported":1745010506,"current_range_meters":4400,"station_id":"ce4bgl12rcd13ifvqbo0","pricing_plan_id":"cebpf4jnsgd1na2vs0mg"},{"bike_id":"2a297b53-e6c9-4a44-8832-a1535085da75","system_id":"levelo_inurba_marseille","lat":43.31997,"lon":5.38145,"is_reserved":false,"is_disabled":true,"rental_uris":{"android":"levelo://app?vid=2a297b53-e6c9-4a44-8832-a1535085da75","ios":"levelo://app?vid=2a297b53-e6c9-4a44-8832-a1535085da75"},"vehicle_type_id":"4","last_reported":1745010506,"current_range_meters":4400,"station_id":"ce4bhr12rcd13ifvqhpg","pricing_plan_id":"cebpf4jnsgd1na2vs0mg"},{"bike_id":"2df22311-bac1-4b8f-abff-11893969de63","system_id":"levelo_inurba_marseille","lat":43.3106,"lon":5.37829,"is_reserved":false,"is_disabled":true,"rental_uris":{"android":"levelo://app?vid=2df22311-bac1-4b8f-abff-11893969de63","ios":"levelo://app?vid=2df22311-bac1-4b8f-abff-11893969de63"},"vehicle_type_id":"4","last_reported":1745010506,"current_range_meters":4400,"station_id":"","pricing_plan_id":"cebpf4jnsgd1na2vs0mg"},{"bike_id":"683727aa-af5c-4a30-b620-923da0da034b","system_id":"levelo_inurba_marseille","lat":43.26873,"lon":5.40456,"is_reserved":false,"is_disabled":false,"rental_uris":{"android":"levelo://app?vid=683727aa-af5c-4a30-b620-923da0da034b","ios":"levelo://app?vid=683727aa-af5c-4a30-b620-923da0da034b"},"vehicle_type_id":"4","last_reported":1745010506,"current_range_meters":4400,"station_id":"cjm6bp8fraef2m0cb0m0","pricing_plan_id":"cebpf4jnsgd1na2vs0mg"},{"bike_id":"782da538-2223-4ccd-8232-244cda12462d","system_id":"levelo_inurba_marseille","lat":43.23188,"lon":5.39987,"is_reserved":false,"is_disabled":false,"rental_uris":{"android":"levelo://app?vid=782da538-2223-4ccd-8232-244cda12462d","ios":"levelo://app?vid=782da538-2223-4ccd-8232-244cda12462d"},"vehicle_type_id":"4","last_reported":1745010506,"current_range_meters":4400,"station_id":"ce4bhn12rcd13ifvqgqg","pricing_plan_id":"cebpf4jnsgd1na2vs0mg"},{"bike_id":"a9f5f0bc-8026-49a5-a645-ac7b387ec5d4","system_id":"levelo_inurba_marseille","lat":43.24664,"lon":5.38168,"is_reserved":false,"is_disabled":false,"rental_uris":{"android":"levelo://app?vid=a9f5f0bc-8026-49a5-a645-ac7b387ec5d4","ios":"levelo://app?vid=a9f5f0bc-8026-49a5-a645-ac7b387ec5d4"},"vehicle_type_id":"4","last_reported":1745010506,"current_range_meters":4400,"station_id":"ce4bhih2rcd13ifvqfr0","pricing_plan_id":"cebpf4jnsgd1na2vs0mg"},{"bike_id":"5ceb224c-a37e-44f5-a514-43a4dfb606f7","system_id":"levelo_inurba_marseille","lat":43.30303,"lon":5.392143,"is_reserved":false,"is_disabled":false,"rental_uris":{"android":"levelo://app?vid=5ceb224c-a37e-44f5-a514-43a4dfb606f7","ios":"levelo://app?vid=5ceb224c-a37e-44f5-a514-43a4dfb606f7"},"vehicle_type_id":"4","last_reported":1745010506,"current_range_meters":4400,"station_id":"ce4bgkh2rcd13ifvqbk0","pricing_plan_id":"cebpf4jnsgd1na2vs0mg"},{"bike_id":"ece33f2b-5b41-4d38-8592-ba911cd08d3d","system_id":"levelo_inurba_marseille","lat":43.27933,"lon":5.41049,"is_reserved":false,"is_disabled":false,"rental_uris":{"android":"levelo://app?vid=ece33f2b-5b41-4d38-8592-ba911cd08d3d","ios":"levelo://app?vid=ece33f2b-5b41-4d38-8592-ba911cd08d3d"},"vehicle_type_id":"4","last_reported":1745010506,"current_range_meters":4800,"station_id":"ce4bhnp2rcd13ifvqh0g","pricing_plan_id":"cebpf4jnsgd1na2vs0mg"},{"bike_id":"4293c7e6-cabd-4cb9-bc92-224063d62d37","system_id":"levelo_inurba_marseille","lat":43.31103,"lon":5.37784,"is_reserved":false,"is_disabled":false,"rental_uris":{"android":"levelo://app?vid=4293c7e6-cabd-4cb9-bc92-224063d62d37","ios":"levelo://app?vid=4293c7e6-cabd-4cb9-bc92-224063d62d37"},"vehicle_type_id":"4","last_reported":1745010506,"current_range_meters":4800,"station_id":"ce4bgt92rcd13ifvqcg0","pricing_plan_id":"cebpf4jnsgd1na2vs0mg"},{"bike_id":"b710fbb1-b765-492e-8cff-58a86822a607","system_id":"levelo_inurba_marseille","lat":43.23238,"lon":5.35603,"is_reserved":false,"is_disabled":true,"rental_uris":{"android":"levelo://app?vid=b710fbb1-b765-492e-8cff-58a86822a607","ios":"levelo://app?vid=b710fbb1-b765-492e-8cff-58a86822a607"},"vehicle_type_id":"4","last_reported":1745010506,"current_range_meters":4800,"station_id":"","pricing_plan_id":"cebpf4jnsgd1na2vs0mg"},{"bike_id":"012430a1-a3ac-4cee-a144-14d5b022e3ae","system_id":"levelo_inurba_marseille","lat":43.272821,"lon":5.391062,"is_reserved":false,"is_disabled":false,"rental_uris":{"android":"levelo://app?vid=012430a1-a3ac-4cee-a144-14d5b022e3ae","ios":"levelo://app?vid=012430a1-a3ac-4cee-a144-14d5b022e3ae"},"vehicle_type_id":"4","last_reported":1745010506,"current_range_meters":4800,"station_id":"ce4bhdp2rcd13ifvqf20","pricing_plan_id":"cebpf4jnsgd1na2vs0mg"},{"bike_id":"c9fe4661-5fca-4415-9c93-e0d3563841bc","system_id":"levelo_inurba_marseille","lat":43.30416,"lon":5.41288,"is_reserved":false,"is_disabled":false,"rental_uris":{"android":"levelo://app?vid=c9fe4661-5fca-4415-9c93-e0d3563841bc","ios":"levelo://app?vid=c9fe4661-5fca-4415-9c93-e0d3563841bc"},"vehicle_type_id":"4","last_reported":1745010506,"current_range_meters":5600,"station_id":"ce4bhop2rcd13ifvqh8g","pricing_plan_id":"cebpf4jnsgd1na2vs0mg"},{"bike_id":"83c03145-72a8-411a-8d95-e95f770fe07c","system_id":"levelo_inurba_marseille","lat":43.33035,"lon":5.39062,"is_reserved":false,"is_disabled":true,"rental_uris":{"android":"levelo://app?vid=83c03145-72a8-411a-8d95-e95f770fe07c","ios":"levelo://app?vid=83c03145-72a8-411a-8d95-e95f770fe07c"},"vehicle_type_id":"4","last_reported":1745010506,"current_range_meters":6000,"station_id":"ce4bhr92rcd13ifvqhrg","pricing_plan_id":"cebpf4jnsgd1na2vs0mg"},{"bike_id":"f5c9cf56-c70f-4c39-8071-63d5208837b6","system_id":"levelo_inurba_marseille","lat":43.30603,"lon":5.372331,"is_reserved":false,"is_disabled":false,"rental_uris":{"android":"levelo://app?vid=f5c9cf56-c70f-4c39-8071-63d5208837b6","ios":"levelo://app?vid=f5c9cf56-c70f-4c39-8071-63d5208837b6"},"vehicle_type_id":"4","last_reported":1745010506,"current_range_meters":6000,"station_id":"ce4bgqh2rcd13ifvqc4g","pricing_plan_id":"cebpf4jnsgd1na2vs0mg"},{"bike_id":"c2999c0c-727d-4452-b103-2abdbf08e90f","system_id":"levelo_inurba_marseille","lat":43.25118,"lon":5.40319,"is_reserved":false,"is_disabled":false,"rental_uris":{"android":"levelo://app?vid=c2999c0c-727d-4452-b103-2abdbf08e90f","ios":"levelo://app?vid=c2999c0c-727d-4452-b103-2abdbf08e90f"},"vehicle_type_id":"4","last_reported":1745010506,"current_range_meters":6000,"station_id":"ce4bhlh2rcd13ifvqgig","pricing_plan_id":"cebpf4jnsgd1na2vs0mg"},{"bike_id":"7b2b2cef-c022-4d24-b49c-8c1952b4364c","system_id":"levelo_inurba_marseille","lat":43.23187,"lon":5.35563,"is_reserved":false,"is_disabled":false,"rental_uris":{"android":"levelo://app?vid=7b2b2cef-c022-4d24-b49c-8c1952b4364c","ios":"levelo://app?vid=7b2b2cef-c022-4d24-b49c-8c1952b4364c"},"vehicle_type_id":"4","last_reported":1745010506,"current_range_meters":6000,"station_id":"ce4bhu92rcd13ifvqi70","pricing_plan_id":"cebpf4jnsgd1na2vs0mg"},{"bike_id":"0cb4602e-5cc9-45d6-a985-dfc3d4b67af8","system_id":"levelo_inurba_marseille","lat":43.29404,"lon":5.38632,"is_reserved":false,"is_disabled":false,"rental_uris":{"android":"levelo://app?vid=0cb4602e-5cc9-45d6-a985-dfc3d4b67af8","ios":"levelo://app?vid=0cb4602e-5cc9-45d6-a985-dfc3d4b67af8"},"vehicle_type_id":"4","last_reported":1745010506,"current_range_meters":11600,"station_id":"ce4bgv12rcd13ifvqcp0","pricing_plan_id":"cebpf4jnsgd1na2vs0mg"},{"bike_id":"0a7e67ab-dba8-4d0e-96b5-be2b71371003","system_id":"levelo_inurba_marseille","lat":43.29028,"lon":5.3864,"is_reserved":false,"is_disabled":true,"rental_uris":{"android":"levelo://app?vid=0a7e67ab-dba8-4d0e-96b5-be2b71371003","ios":"levelo://app?vid=0a7e67ab-dba8-4d0e-96b5-be2b71371003"},"vehicle_type_id":"4","last_reported":1745010506,"current_range_meters":6000,"station_id":"ce4bh4p2rcd13ifvqe0g","pricing_plan_id":"cebpf4jnsgd1na2vs0mg"},{"bike_id":"6563c5c2-3d06-4701-b393-63bb69f5fe55","system_id":"levelo_inurba_marseille","lat":43.28682,"lon":5.3867,"is_reserved":false,"is_disabled":false,"rental_uris":{"android":"levelo://app?vid=6563c5c2-3d06-4701-b393-63bb69f5fe55","ios":"levelo://app?vid=6563c5c2-3d06-4701-b393-63bb69f5fe55"},"vehicle_type_id":"4","last_reported":1745010506,"current_range_meters":6400,"station_id":"ce4bh492rcd13ifvqdug","pricing_plan_id":"cebpf4jnsgd1na2vs0mg"},{"bike_id":"b684946f-3b75-4bd3-8195-7380a0fa9ce0","system_id":"levelo_inurba_marseille","lat":43.31691,"lon":5.37786,"is_reserved":false,"is_disabled":false,"rental_uris":{"android":"levelo://app?vid=b684946f-3b75-4bd3-8195-7380a0fa9ce0","ios":"levelo://app?vid=b684946f-3b75-4bd3-8195-7380a0fa9ce0"},"vehicle_type_id":"4","last_reported":1745010506,"current_range_meters":6400,"station_id":"ce4bgth2rcd13ifvqch0","pricing_plan_id":"cebpf4jnsgd1na2vs0mg"},{"bike_id":"84e49312-ac99-4ef9-99d2-031114a019a8","system_id":"levelo_inurba_marseille","lat":43.32116,"lon":5.36765,"is_reserved":false,"is_disabled":false,"rental_uris":{"android":"levelo://app?vid=84e49312-ac99-4ef9-99d2-031114a019a8","ios":"levelo://app?vid=84e49312-ac99-4ef9-99d2-031114a019a8"},"vehicle_type_id":"4","last_reported":1745010506,"current_range_meters":6800,"station_id":"ce4bhrh2rcd13ifvqhug","pricing_plan_id":"cebpf4jnsgd1na2vs0mg"},{"bike_id":"9261d6d0-f018-4de8-abfe-64c6727086ce","system_id":"levelo_inurba_marseille","lat":43.25105,"lon":5.40333,"is_reserved":false,"is_disabled":false,"rental_uris":{"android":"levelo://app?vid=9261d6d0-f018-4de8-abfe-64c6727086ce","ios":"levelo://app?vid=9261d6d0-f018-4de8-abfe-64c6727086ce"},"vehicle_type_id":"4","last_reported":1745010506,"current_range_meters":6800,"station_id":"ce4bhlh2rcd13ifvqgig","pricing_plan_id":"cebpf4jnsgd1na2vs0mg"},{"bike_id":"fdd74033-c2ba-4a3a-934f-0e19dff7aa49","system_id":"levelo_inurba_marseille","lat":43.3052,"lon":5.36519,"is_reserved":false,"is_disabled":false,"rental_uris":{"android":"levelo://app?vid=fdd74033-c2ba-4a3a-934f-0e19dff7aa49","ios":"levelo://app?vid=fdd74033-c2ba-4a3a-934f-0e19dff7aa49"},"vehicle_type_id":"4","last_reported":1745010506,"current_range_meters":6800,"station_id":"","pricing_plan_id":"cebpf4jnsgd1na2vs0mg"},{"bike_id":"a9eb962f-7d8b-4c1e-8c65-8047073e3592","system_id":"levelo_inurba_marseille","lat":43.24145,"lon":5.36421,"is_reserved":false,"is_disabled":false,"rental_uris":{"android":"levelo://app?vid=a9eb962f-7d8b-4c1e-8c65-8047073e3592","ios":"levelo://app?vid=a9eb962f-7d8b-4c1e-8c65-8047073e3592"},"vehicle_type_id":"4","last_reported":1745010506,"current_range_meters":6800,"station_id":"cpo36qri1sfpv3e86is0","pricing_plan_id":"cebpf4jnsgd1na2vs0mg"},{"bike_id":"e6ea84d7-5e68-449b-8fd6-8b176a306c75","system_id":"levelo_inurba_marseille","lat":43.29554,"lon":5.42294,"is_reserved":false,"is_disabled":false,"rental_uris":{"android":"levelo://app?vid=e6ea84d7-5e68-449b-8fd6-8b176a306c75","ios":"levelo://app?vid=e6ea84d7-5e68-449b-8fd6-8b176a306c75"},"vehicle_type_id":"4","last_reported":1745010506,"current_range_meters":6800,"station_id":"ce4bhph2rcd13ifvqhdg","pricing_plan_id":"cebpf4jnsgd1na2vs0mg"},{"bike_id":"5b6a0707-a025-47a9-922a-884a55623500","system_id":"levelo_inurba_marseille","lat":43.255,"lon":5.37651,"is_reserved":false,"is_disabled":false,"rental_uris":{"android":"levelo://app?vid=5b6a0707-a025-47a9-922a-884a55623500","ios":"levelo://app?vid=5b6a0707-a025-47a9-922a-884a55623500"},"vehicle_type_id":"4","last_reported":1745010506,"current_range_meters":6800,"station_id":"ce4bhh12rcd13ifvqff0","pricing_plan_id":"cebpf4jnsgd1na2vs0mg"},{"bike_id":"12e61b61-a165-4320-af5e-d9d6c29090fc","system_id":"levelo_inurba_marseille","lat":43.22927,"lon":5.35395,"is_reserved":false,"is_disabled":false,"rental_uris":{"android":"levelo://app?vid=12e61b61-a165-4320-af5e-d9d6c29090fc","ios":"levelo://app?vid=12e61b61-a165-4320-af5e-d9d6c29090fc"},"vehicle_type_id":"4","last_reported":1745010506,"current_range_meters":6800,"station_id":"cpo3532slgdg3j2ikp40","pricing_plan_id":"cebpf4jnsgd1na2vs0mg"},{"bike_id":"a19fd53b-0d65-4f11-8b54-176c02abcf77","system_id":"levelo_inurba_marseille","lat":43.29531,"lon":5.38541,"is_reserved":false,"is_disabled":false,"rental_uris":{"android":"levelo://app?vid=a19fd53b-0d65-4f11-8b54-176c02abcf77","ios":"levelo://app?vid=a19fd53b-0d65-4f11-8b54-176c02abcf77"},"vehicle_type_id":"4","last_reported":1745010506,"current_range_meters":7200,"station_id":"ce4bgih2rcd13ifvqba0","pricing_plan_id":"cebpf4jnsgd1na2vs0mg"},{"bike_id":"42f41982-3faf-441a-8494-c7e022e6f803","system_id":"levelo_inurba_marseille","lat":43.243884,"lon":5.370534,"is_reserved":false,"is_disabled":false,"rental_uris":{"android":"levelo://app?vid=42f41982-3faf-441a-8494-c7e022e6f803","ios":"levelo://app?vid=42f41982-3faf-441a-8494-c7e022e6f803"},"vehicle_type_id":"4","last_reported":1745010506,"current_range_meters":7200,"station_id":"ce4bhhh2rcd13ifvqfk0","pricing_plan_id":"cebpf4jnsgd1na2vs0mg"},{"bike_id":"7488c7bb-6329-421c-9c66-efe6e92f1cd8","system_id":"levelo_inurba_marseille","lat":43.28681,"lon":5.38646,"is_reserved":false,"is_disabled":false,"rental_uris":{"android":"levelo://app?vid=7488c7bb-6329-421c-9c66-efe6e92f1cd8","ios":"levelo://app?vid=7488c7bb-6329-421c-9c66-efe6e92f1cd8"},"vehicle_type_id":"4","last_reported":1745010506,"current_range_meters":7200,"station_id":"ce4bh492rcd13ifvqdug","pricing_plan_id":"cebpf4jnsgd1na2vs0mg"},{"bike_id":"e9712edf-34f3-4cd1-86d1-089fa5f1ab05","system_id":"levelo_inurba_marseille","lat":43.31354,"lon":5.38498,"is_reserved":false,"is_disabled":false,"rental_uris":{"android":"levelo://app?vid=e9712edf-34f3-4cd1-86d1-089fa5f1ab05","ios":"levelo://app?vid=e9712edf-34f3-4cd1-86d1-089fa5f1ab05"},"vehicle_type_id":"4","last_reported":1745010506,"current_range_meters":7200,"station_id":"ce4bgt92rcd13ifvqcf0","pricing_plan_id":"cebpf4jnsgd1na2vs0mg"},{"bike_id":"5583a1cb-ef8e-4930-b38d-8d47fac1b289","system_id":"levelo_inurba_marseille","lat":43.27825,"lon":5.40727,"is_reserved":false,"is_disabled":true,"rental_uris":{"android":"levelo://app?vid=5583a1cb-ef8e-4930-b38d-8d47fac1b289","ios":"levelo://app?vid=5583a1cb-ef8e-4930-b38d-8d47fac1b289"},"vehicle_type_id":"4","last_reported":1745010506,"current_range_meters":7200,"station_id":"ce4bhnh2rcd13ifvqgtg","pricing_plan_id":"cebpf4jnsgd1na2vs0mg"},{"bike_id":"c415b972-8ead-4e78-8d80-7a091746c0aa","system_id":"levelo_inurba_marseille","lat":43.24409,"lon":5.3706,"is_reserved":false,"is_disabled":false,"rental_uris":{"android":"levelo://app?vid=c415b972-8ead-4e78-8d80-7a091746c0aa","ios":"levelo://app?vid=c415b972-8ead-4e78-8d80-7a091746c0aa"},"vehicle_type_id":"4","last_reported":1745010506,"current_range_meters":8000,"station_id":"ce4bhhh2rcd13ifvqfk0","pricing_plan_id":"cebpf4jnsgd1na2vs0mg"},{"bike_id":"5fbf6376-e2e2-4283-b0c1-858d9b2b1f85","system_id":"levelo_inurba_marseille","lat":43.29589,"lon":5.38104,"is_reserved":false,"is_disabled":false,"rental_uris":{"android":"levelo://app?vid=5fbf6376-e2e2-4283-b0c1-858d9b2b1f85","ios":"levelo://app?vid=5fbf6376-e2e2-4283-b0c1-858d9b2b1f85"},"vehicle_type_id":"4","last_reported":1745010506,"current_range_meters":8000,"station_id":"ce4bgl12rcd13ifvqbo0","pricing_plan_id":"cebpf4jnsgd1na2vs0mg"},{"bike_id":"61cae8bc-19bf-4855-a2cd-e8c27ed277ba","system_id":"levelo_inurba_marseille","lat":43.29409,"lon":5.38663,"is_reserved":false,"is_disabled":false,"rental_uris":{"android":"levelo://app?vid=61cae8bc-19bf-4855-a2cd-e8c27ed277ba","ios":"levelo://app?vid=61cae8bc-19bf-4855-a2cd-e8c27ed277ba"},"vehicle_type_id":"4","last_reported":1745010506,"current_range_meters":8000,"station_id":"ce4bh2h2rcd13ifvqdh0","pricing_plan_id":"cebpf4jnsgd1na2vs0mg"},{"bike_id":"3287305e-dc20-444a-9949-00d7352f401a","system_id":"levelo_inurba_marseille","lat":43.24144,"lon":5.36432,"is_reserved":false,"is_disabled":false,"rental_uris":{"android":"levelo://app?vid=3287305e-dc20-444a-9949-00d7352f401a","ios":"levelo://app?vid=3287305e-dc20-444a-9949-00d7352f401a"},"vehicle_type_id":"4","last_reported":1745010506,"current_range_meters":8000,"station_id":"cpo36qri1sfpv3e86is0","pricing_plan_id":"cebpf4jnsgd1na2vs0mg"},{"bike_id":"1b842487-0bb1-4758-8a8e-3c0b73c39488","system_id":"levelo_inurba_marseille","lat":43.29422,"lon":5.38647,"is_reserved":false,"is_disabled":false,"rental_uris":{"android":"levelo://app?vid=1b842487-0bb1-4758-8a8e-3c0b73c39488","ios":"levelo://app?vid=1b842487-0bb1-4758-8a8e-3c0b73c39488"},"vehicle_type_id":"4","last_reported":1745010506,"current_range_meters":8000,"station_id":"ce4bh2h2rcd13ifvqdh0","pricing_plan_id":"cebpf4jnsgd1na2vs0mg"},{"bike_id":"a65bff60-15d9-45ea-adbf-6c4c44601a01","system_id":"levelo_inurba_marseille","lat":43.2941,"lon":5.38626,"is_reserved":false,"is_disabled":false,"rental_uris":{"android":"levelo://app?vid=a65bff60-15d9-45ea-adbf-6c4c44601a01","ios":"levelo://app?vid=a65bff60-15d9-45ea-adbf-6c4c44601a01"},"vehicle_type_id":"4","last_reported":1745010506,"current_range_meters":8000,"station_id":"ce4bh2h2rcd13ifvqdh0","pricing_plan_id":"cebpf4jnsgd1na2vs0mg"},{"bike_id":"06a3d917-bf24-4f80-8e41-5e4f9d74f51b","system_id":"levelo_inurba_marseille","lat":43.29531,"lon":5.38541,"is_reserved":false,"is_disabled":false,"rental_uris":{"android":"levelo://app?vid=06a3d917-bf24-4f80-8e41-5e4f9d74f51b","ios":"levelo://app?vid=06a3d917-bf24-4f80-8e41-5e4f9d74f51b"},"vehicle_type_id":"4","last_reported":1745010506,"current_range_meters":8400,"station_id":"ce4bgih2rcd13ifvqba0","pricing_plan_id":"cebpf4jnsgd1na2vs0mg"},{"bike_id":"36028acb-1986-4460-84fe-b2aca491647c","system_id":"levelo_inurba_marseille","lat":43.267844,"lon":5.394208,"is_reserved":false,"is_disabled":true,"rental_uris":{"android":"levelo://app?vid=36028acb-1986-4460-84fe-b2aca491647c","ios":"levelo://app?vid=36028acb-1986-4460-84fe-b2aca491647c"},"vehicle_type_id":"4","last_reported":1745010506,"current_range_meters":8400,"station_id":"ce4bhh12rcd13ifvqfg0","pricing_plan_id":"cebpf4jnsgd1na2vs0mg"},{"bike_id":"9b29d7c1-fe06-4fe4-910e-79bca8b0b91f","system_id":"levelo_inurba_marseille","lat":43.29034,"lon":5.38656,"is_reserved":false,"is_disabled":false,"rental_uris":{"android":"levelo://app?vid=9b29d7c1-fe06-4fe4-910e-79bca8b0b91f","ios":"levelo://app?vid=9b29d7c1-fe06-4fe4-910e-79bca8b0b91f"},"vehicle_type_id":"4","last_reported":1745010506,"current_range_meters":8400,"station_id":"ce4bh4p2rcd13ifvqe0g","pricing_plan_id":"cebpf4jnsgd1na2vs0mg"},{"bike_id":"cf4db056-d3f7-4001-aa54-c43d57090a49","system_id":"levelo_inurba_marseille","lat":43.23195,"lon":5.3561,"is_reserved":false,"is_disabled":false,"rental_uris":{"android":"levelo://app?vid=cf4db056-d3f7-4001-aa54-c43d57090a49","ios":"levelo://app?vid=cf4db056-d3f7-4001-aa54-c43d57090a49"},"vehicle_type_id":"4","last_reported":1745010506,"current_range_meters":8400,"station_id":"ce4bhu92rcd13ifvqi70","pricing_plan_id":"cebpf4jnsgd1na2vs0mg"},{"bike_id":"22209dda-afa5-4a31-9c25-a5d94a331926","system_id":"levelo_inurba_marseille","lat":43.24068,"lon":5.37721,"is_reserved":false,"is_disabled":true,"rental_uris":{"android":"levelo://app?vid=22209dda-afa5-4a31-9c25-a5d94a331926","ios":"levelo://app?vid=22209dda-afa5-4a31-9c25-a5d94a331926"},"vehicle_type_id":"4","last_reported":1745010506,"current_range_meters":8400,"station_id":"ce4bhnp2rcd13ifvqgvg","pricing_plan_id":"cebpf4jnsgd1na2vs0mg"},{"bike_id":"70b6b133-6705-4dfd-b4a7-6e88067904e8","system_id":"levelo_inurba_marseille","lat":43.242,"lon":5.36382,"is_reserved":false,"is_disabled":false,"rental_uris":{"android":"levelo://app?vid=70b6b133-6705-4dfd-b4a7-6e88067904e8","ios":"levelo://app?vid=70b6b133-6705-4dfd-b4a7-6e88067904e8"},"vehicle_type_id":"4","last_reported":1745010506,"current_range_meters":8400,"station_id":"cpo36qri1sfpv3e86is0","pricing_plan_id":"cebpf4jnsgd1na2vs0mg"},{"bike_id":"506dec7b-eb9c-453c-9aee-cd3a51e99e34","system_id":"levelo_inurba_marseille","lat":43.29448,"lon":5.38655,"is_reserved":false,"is_disabled":true,"rental_uris":{"android":"levelo://app?vid=506dec7b-eb9c-453c-9aee-cd3a51e99e34","ios":"levelo://app?vid=506dec7b-eb9c-453c-9aee-cd3a51e99e34"},"vehicle_type_id":"4","last_reported":1745010506,"current_range_meters":8400,"station_id":"ce4bh2h2rcd13ifvqdh0","pricing_plan_id":"cebpf4jnsgd1na2vs0mg"},{"bike_id":"655ccf22-736f-4a20-9f45-bc2a79550c36","system_id":"levelo_inurba_marseille","lat":43.29302,"lon":5.37459,"is_reserved":false,"is_disabled":false,"rental_uris":{"android":"levelo://app?vid=655ccf22-736f-4a20-9f45-bc2a79550c36","ios":"levelo://app?vid=655ccf22-736f-4a20-9f45-bc2a79550c36"},"vehicle_type_id":"4","last_reported":1745010506,"current_range_meters":8400,"station_id":"ce4bgi12rcd13ifvqb70","pricing_plan_id":"cebpf4jnsgd1na2vs0mg"},{"bike_id":"ee90bd99-2db1-4fbe-8047-929ea0d00f63","system_id":"levelo_inurba_marseille","lat":43.28124,"lon":5.37829,"is_reserved":false,"is_disabled":false,"rental_uris":{"android":"levelo://app?vid=ee90bd99-2db1-4fbe-8047-929ea0d00f63","ios":"levelo://app?vid=ee90bd99-2db1-4fbe-8047-929ea0d00f63"},"vehicle_type_id":"4","last_reported":1745010506,"current_range_meters":10800,"station_id":"ce4bha12rcd13ifvqee0","pricing_plan_id":"cebpf4jnsgd1na2vs0mg"},{"bike_id":"271c8c79-7ca6-4367-80fb-8a0efc84181c","system_id":"levelo_inurba_marseille","lat":43.23184,"lon":5.35557,"is_reserved":false,"is_disabled":false,"rental_uris":{"android":"levelo://app?vid=271c8c79-7ca6-4367-80fb-8a0efc84181c","ios":"levelo://app?vid=271c8c79-7ca6-4367-80fb-8a0efc84181c"},"vehicle_type_id":"4","last_reported":1745010506,"current_range_meters":8400,"station_id":"ce4bhu92rcd13ifvqi70","pricing_plan_id":"cebpf4jnsgd1na2vs0mg"},{"bike_id":"d0693017-3219-4f2c-9252-be27486404d3","system_id":"levelo_inurba_marseille","lat":43.24673,"lon":5.38147,"is_reserved":false,"is_disabled":false,"rental_uris":{"android":"levelo://app?vid=d0693017-3219-4f2c-9252-be27486404d3","ios":"levelo://app?vid=d0693017-3219-4f2c-9252-be27486404d3"},"vehicle_type_id":"4","last_reported":1745010506,"current_range_meters":8800,"station_id":"ce4bhih2rcd13ifvqfr0","pricing_plan_id":"cebpf4jnsgd1na2vs0mg"},{"bike_id":"f9ca6a4d-bd46-472b-9e76-cb0f86073571","system_id":"levelo_inurba_marseille","lat":43.25393,"lon":5.41927,"is_reserved":false,"is_disabled":false,"rental_uris":{"android":"levelo://app?vid=f9ca6a4d-bd46-472b-9e76-cb0f86073571","ios":"levelo://app?vid=f9ca6a4d-bd46-472b-9e76-cb0f86073571"},"vehicle_type_id":"4","last_reported":1745010506,"current_range_meters":8800,"station_id":"","pricing_plan_id":"cebpf4jnsgd1na2vs0mg"},{"bike_id":"5548ffe0-cb1a-45d9-bdce-46f85b3c1ba3","system_id":"levelo_inurba_marseille","lat":43.2816,"lon":5.42636,"is_reserved":false,"is_disabled":false,"rental_uris":{"android":"levelo://app?vid=5548ffe0-cb1a-45d9-bdce-46f85b3c1ba3","ios":"levelo://app?vid=5548ffe0-cb1a-45d9-bdce-46f85b3c1ba3"},"vehicle_type_id":"4","last_reported":1745010506,"current_range_meters":8800,"station_id":"ce4bhnh2rcd13ifvqgug","pricing_plan_id":"cebpf4jnsgd1na2vs0mg"},{"bike_id":"37763819-05be-4163-b641-9ac652e1f86d","system_id":"levelo_inurba_marseille","lat":43.30299,"lon":5.39208,"is_reserved":false,"is_disabled":false,"rental_uris":{"android":"levelo://app?vid=37763819-05be-4163-b641-9ac652e1f86d","ios":"levelo://app?vid=37763819-05be-4163-b641-9ac652e1f86d"},"vehicle_type_id":"4","last_reported":1745010506,"current_range_meters":8800,"station_id":"ce4bgkh2rcd13ifvqbk0","pricing_plan_id":"cebpf4jnsgd1na2vs0mg"},{"bike_id":"abc780b5-67a9-43ab-8ddf-8dce752b0df8","system_id":"levelo_inurba_marseille","lat":43.296,"lon":5.38092,"is_reserved":false,"is_disabled":false,"rental_uris":{"android":"levelo://app?vid=abc780b5-67a9-43ab-8ddf-8dce752b0df8","ios":"levelo://app?vid=abc780b5-67a9-43ab-8ddf-8dce752b0df8"},"vehicle_type_id":"4","last_reported":1745010506,"current_range_meters":8800,"station_id":"ce4bgl12rcd13ifvqbo0","pricing_plan_id":"cebpf4jnsgd1na2vs0mg"},{"bike_id":"38d71541-39fa-44bc-b9fa-dad7cbdc7434","system_id":"levelo_inurba_marseille","lat":43.28745,"lon":5.38646,"is_reserved":false,"is_disabled":false,"rental_uris":{"android":"levelo://app?vid=38d71541-39fa-44bc-b9fa-dad7cbdc7434","ios":"levelo://app?vid=38d71541-39fa-44bc-b9fa-dad7cbdc7434"},"vehicle_type_id":"4","last_reported":1745010506,"current_range_meters":8800,"station_id":"","pricing_plan_id":"cebpf4jnsgd1na2vs0mg"},{"bike_id":"efec348d-ccb4-4377-b11b-631d451988a2","system_id":"levelo_inurba_marseille","lat":43.30322,"lon":5.40434,"is_reserved":false,"is_disabled":false,"rental_uris":{"android":"levelo://app?vid=efec348d-ccb4-4377-b11b-631d451988a2","ios":"levelo://app?vid=efec348d-ccb4-4377-b11b-631d451988a2"},"vehicle_type_id":"4","last_reported":1745010506,"current_range_meters":8800,"station_id":"ce4bh012rcd13ifvqd10","pricing_plan_id":"cebpf4jnsgd1na2vs0mg"},{"bike_id":"f2d09a49-02ca-41b9-870e-fdff640473d6","system_id":"levelo_inurba_marseille","lat":43.24166,"lon":5.36402,"is_reserved":false,"is_disabled":false,"rental_uris":{"android":"levelo://app?vid=f2d09a49-02ca-41b9-870e-fdff640473d6","ios":"levelo://app?vid=f2d09a49-02ca-41b9-870e-fdff640473d6"},"vehicle_type_id":"4","last_reported":1745010506,"current_range_meters":9200,"station_id":"cpo36qri1sfpv3e86is0","pricing_plan_id":"cebpf4jnsgd1na2vs0mg"},{"bike_id":"030dcda5-cf7c-4af6-8629-03b9cd69979e","system_id":"levelo_inurba_marseille","lat":43.2957,"lon":5.39978,"is_reserved":false,"is_disabled":false,"rental_uris":{"android":"levelo://app?vid=030dcda5-cf7c-4af6-8629-03b9cd69979e","ios":"levelo://app?vid=030dcda5-cf7c-4af6-8629-03b9cd69979e"},"vehicle_type_id":"4","last_reported":1745010506,"current_range_meters":9200,"station_id":"ce4bh312rcd13ifvqdj0","pricing_plan_id":"cebpf4jnsgd1na2vs0mg"},{"bike_id":"9988dcfd-9842-423b-82ea-4e787002a30a","system_id":"levelo_inurba_marseille","lat":43.29593,"lon":5.38095,"is_reserved":false,"is_disabled":false,"rental_uris":{"android":"levelo://app?vid=9988dcfd-9842-423b-82ea-4e787002a30a","ios":"levelo://app?vid=9988dcfd-9842-423b-82ea-4e787002a30a"},"vehicle_type_id":"4","last_reported":1745010506,"current_range_meters":9200,"station_id":"ce4bgl12rcd13ifvqbo0","pricing_plan_id":"cebpf4jnsgd1na2vs0mg"},{"bike_id":"1210dc72-37b8-49f7-b249-6faa54daba28","system_id":"levelo_inurba_marseille","lat":43.32371,"lon":5.36721,"is_reserved":false,"is_disabled":false,"rental_uris":{"android":"levelo://app?vid=1210dc72-37b8-49f7-b249-6faa54daba28","ios":"levelo://app?vid=1210dc72-37b8-49f7-b249-6faa54daba28"},"vehicle_type_id":"4","last_reported":1745010506,"current_range_meters":9200,"station_id":"ce4bhsh2rcd13ifvqi2g","pricing_plan_id":"cebpf4jnsgd1na2vs0mg"},{"bike_id":"92ef9b57-ef0f-4670-96c3-49db45d89c4e","system_id":"levelo_inurba_marseille","lat":43.29419,"lon":5.38624,"is_reserved":false,"is_disabled":false,"rental_uris":{"android":"levelo://app?vid=92ef9b57-ef0f-4670-96c3-49db45d89c4e","ios":"levelo://app?vid=92ef9b57-ef0f-4670-96c3-49db45d89c4e"},"vehicle_type_id":"4","last_reported":1745010506,"current_range_meters":9200,"station_id":"ce4bh2h2rcd13ifvqdh0","pricing_plan_id":"cebpf4jnsgd1na2vs0mg"},{"bike_id":"0f0c2c9d-c11a-480f-8137-c5315e4ded3a","system_id":"levelo_inurba_marseille","lat":43.23188,"lon":5.35571,"is_reserved":false,"is_disabled":false,"rental_uris":{"android":"levelo://app?vid=0f0c2c9d-c11a-480f-8137-c5315e4ded3a","ios":"levelo://app?vid=0f0c2c9d-c11a-480f-8137-c5315e4ded3a"},"vehicle_type_id":"4","last_reported":1745010506,"current_range_meters":9200,"station_id":"ce4bhu92rcd13ifvqi70","pricing_plan_id":"cebpf4jnsgd1na2vs0mg"},{"bike_id":"7f174117-e5d9-4e09-9d71-4a11ef6882f7","system_id":"levelo_inurba_marseille","lat":43.24666,"lon":5.38155,"is_reserved":false,"is_disabled":false,"rental_uris":{"android":"levelo://app?vid=7f174117-e5d9-4e09-9d71-4a11ef6882f7","ios":"levelo://app?vid=7f174117-e5d9-4e09-9d71-4a11ef6882f7"},"vehicle_type_id":"4","last_reported":1745010506,"current_range_meters":9200,"station_id":"ce4bhih2rcd13ifvqfr0","pricing_plan_id":"cebpf4jnsgd1na2vs0mg"},{"bike_id":"50dc23ed-5e19-46ee-92cf-f2ca4c445852","system_id":"levelo_inurba_marseille","lat":43.337288,"lon":5.391839,"is_reserved":false,"is_disabled":false,"rental_uris":{"android":"levelo://app?vid=50dc23ed-5e19-46ee-92cf-f2ca4c445852","ios":"levelo://app?vid=50dc23ed-5e19-46ee-92cf-f2ca4c445852"},"vehicle_type_id":"4","last_reported":1745010506,"current_range_meters":9200,"station_id":"ce4bhr92rcd13ifvqhsg","pricing_plan_id":"cebpf4jnsgd1na2vs0mg"},{"bike_id":"28654726-25ec-4f0a-9a9c-d2417671d9dc","system_id":"levelo_inurba_marseille","lat":43.29413,"lon":5.38632,"is_reserved":false,"is_disabled":false,"rental_uris":{"android":"levelo://app?vid=28654726-25ec-4f0a-9a9c-d2417671d9dc","ios":"levelo://app?vid=28654726-25ec-4f0a-9a9c-d2417671d9dc"},"vehicle_type_id":"4","last_reported":1745010506,"current_range_meters":9600,"station_id":"ce4bh2h2rcd13ifvqdh0","pricing_plan_id":"cebpf4jnsgd1na2vs0mg"},{"bike_id":"589725a1-88fa-41fe-a352-1cc4cf136c9d","system_id":"levelo_inurba_marseille","lat":43.27553,"lon":5.38428,"is_reserved":false,"is_disabled":false,"rental_uris":{"android":"levelo://app?vid=589725a1-88fa-41fe-a352-1cc4cf136c9d","ios":"levelo://app?vid=589725a1-88fa-41fe-a352-1cc4cf136c9d"},"vehicle_type_id":"4","last_reported":1745010506,"current_range_meters":9600,"station_id":"ce4bhh92rcd13ifvqfi0","pricing_plan_id":"cebpf4jnsgd1na2vs0mg"},{"bike_id":"91b0f96d-1a6e-4e28-98b9-2c86f2485aee","system_id":"levelo_inurba_marseille","lat":43.32416,"lon":5.39048,"is_reserved":false,"is_disabled":true,"rental_uris":{"android":"levelo://app?vid=91b0f96d-1a6e-4e28-98b9-2c86f2485aee","ios":"levelo://app?vid=91b0f96d-1a6e-4e28-98b9-2c86f2485aee"},"vehicle_type_id":"4","last_reported":1745010506,"current_range_meters":9600,"station_id":"","pricing_plan_id":"cebpf4jnsgd1na2vs0mg"},{"bike_id":"5942e936-0638-49c0-b5b4-ad5358ca064f","system_id":"levelo_inurba_marseille","lat":43.29256,"lon":5.38447,"is_reserved":false,"is_disabled":false,"rental_uris":{"android":"levelo://app?vid=5942e936-0638-49c0-b5b4-ad5358ca064f","ios":"levelo://app?vid=5942e936-0638-49c0-b5b4-ad5358ca064f"},"vehicle_type_id":"4","last_reported":1745010506,"current_range_meters":9600,"station_id":"ce4bh692rcd13ifvqea0","pricing_plan_id":"cebpf4jnsgd1na2vs0mg"},{"bike_id":"36031b86-0506-468f-a4f0-9d81fbd41437","system_id":"levelo_inurba_marseille","lat":43.29867,"lon":5.38905,"is_reserved":false,"is_disabled":false,"rental_uris":{"android":"levelo://app?vid=36031b86-0506-468f-a4f0-9d81fbd41437","ios":"levelo://app?vid=36031b86-0506-468f-a4f0-9d81fbd41437"},"vehicle_type_id":"4","last_reported":1745010506,"current_range_meters":9600,"station_id":"ce4bh392rcd13ifvqdl0","pricing_plan_id":"cebpf4jnsgd1na2vs0mg"},{"bike_id":"b84c17ee-9585-4db5-a4b0-c4e55529f57c","system_id":"levelo_inurba_marseille","lat":43.2954,"lon":5.38546,"is_reserved":false,"is_disabled":false,"rental_uris":{"android":"levelo://app?vid=b84c17ee-9585-4db5-a4b0-c4e55529f57c","ios":"levelo://app?vid=b84c17ee-9585-4db5-a4b0-c4e55529f57c"},"vehicle_type_id":"4","last_reported":1745010506,"current_range_meters":9600,"station_id":"ce4bgih2rcd13ifvqba0","pricing_plan_id":"cebpf4jnsgd1na2vs0mg"},{"bike_id":"2f0b555a-8b00-4b9a-bde9-3456a41b38a3","system_id":"levelo_inurba_marseille","lat":43.286789,"lon":5.386671,"is_reserved":false,"is_disabled":false,"rental_uris":{"android":"levelo://app?vid=2f0b555a-8b00-4b9a-bde9-3456a41b38a3","ios":"levelo://app?vid=2f0b555a-8b00-4b9a-bde9-3456a41b38a3"},"vehicle_type_id":"4","last_reported":1745010506,"current_range_meters":9600,"station_id":"ce4bh492rcd13ifvqdug","pricing_plan_id":"cebpf4jnsgd1na2vs0mg"},{"bike_id":"17642069-7989-4aab-a602-6ec6914a863c","system_id":"levelo_inurba_marseille","lat":43.29422,"lon":5.38598,"is_reserved":false,"is_disabled":false,"rental_uris":{"android":"levelo://app?vid=17642069-7989-4aab-a602-6ec6914a863c","ios":"levelo://app?vid=17642069-7989-4aab-a602-6ec6914a863c"},"vehicle_type_id":"4","last_reported":1745010506,"current_range_meters":9600,"station_id":"ce4bh2h2rcd13ifvqdh0","pricing_plan_id":"cebpf4jnsgd1na2vs0mg"},{"bike_id":"ab163f34-6764-41fc-8975-cdee198ebff3","system_id":"levelo_inurba_marseille","lat":43.27377,"lon":5.36253,"is_reserved":false,"is_disabled":false,"rental_uris":{"android":"levelo://app?vid=ab163f34-6764-41fc-8975-cdee198ebff3","ios":"levelo://app?vid=ab163f34-6764-41fc-8975-cdee198ebff3"},"vehicle_type_id":"4","last_reported":1745010506,"current_range_meters":10000,"station_id":"ce4bhbh2rcd13ifvqeo0","pricing_plan_id":"cebpf4jnsgd1na2vs0mg"},{"bike_id":"33df228e-50c2-470b-8562-6229dfa5f64a","system_id":"levelo_inurba_marseille","lat":43.27995,"lon":5.41664,"is_reserved":false,"is_disabled":false,"rental_uris":{"android":"levelo://app?vid=33df228e-50c2-470b-8562-6229dfa5f64a","ios":"levelo://app?vid=33df228e-50c2-470b-8562-6229dfa5f64a"},"vehicle_type_id":"4","last_reported":1745010506,"current_range_meters":10000,"station_id":"ce4bho12rcd13ifvqh1g","pricing_plan_id":"cebpf4jnsgd1na2vs0mg"},{"bike_id":"4cd53476-67ac-4128-b155-1bdcceee2e72","system_id":"levelo_inurba_marseille","lat":43.28966,"lon":5.3861,"is_reserved":false,"is_disabled":false,"rental_uris":{"android":"levelo://app?vid=4cd53476-67ac-4128-b155-1bdcceee2e72","ios":"levelo://app?vid=4cd53476-67ac-4128-b155-1bdcceee2e72"},"vehicle_type_id":"4","last_reported":1745010506,"current_range_meters":10000,"station_id":"","pricing_plan_id":"cebpf4jnsgd1na2vs0mg"},{"bike_id":"db683e79-1939-434e-b081-b9990fd856fe","system_id":"levelo_inurba_marseille","lat":43.22866,"lon":5.35335,"is_reserved":false,"is_disabled":false,"rental_uris":{"android":"levelo://app?vid=db683e79-1939-434e-b081-b9990fd856fe","ios":"levelo://app?vid=db683e79-1939-434e-b081-b9990fd856fe"},"vehicle_type_id":"4","last_reported":1745010506,"current_range_meters":10000,"station_id":"cpo3532slgdg3j2ikp40","pricing_plan_id":"cebpf4jnsgd1na2vs0mg"},{"bike_id":"65a8c467-2326-4d6c-a345-fed0be6feffe","system_id":"levelo_inurba_marseille","lat":43.249945,"lon":5.389363,"is_reserved":false,"is_disabled":false,"rental_uris":{"android":"levelo://app?vid=65a8c467-2326-4d6c-a345-fed0be6feffe","ios":"levelo://app?vid=65a8c467-2326-4d6c-a345-fed0be6feffe"},"vehicle_type_id":"4","last_reported":1745010506,"current_range_meters":10000,"station_id":"ce4bhgp2rcd13ifvqfd0","pricing_plan_id":"cebpf4jnsgd1na2vs0mg"},{"bike_id":"cff69856-04ff-4a2b-8ae9-354d32591735","system_id":"levelo_inurba_marseille","lat":43.29413,"lon":5.38627,"is_reserved":false,"is_disabled":false,"rental_uris":{"android":"levelo://app?vid=cff69856-04ff-4a2b-8ae9-354d32591735","ios":"levelo://app?vid=cff69856-04ff-4a2b-8ae9-354d32591735"},"vehicle_type_id":"4","last_reported":1745010506,"current_range_meters":10000,"station_id":"ce4bh2h2rcd13ifvqdh0","pricing_plan_id":"cebpf4jnsgd1na2vs0mg"},{"bike_id":"9b4d5e07-bf1a-4418-b544-e78b0d83a1c0","system_id":"levelo_inurba_marseille","lat":43.26236,"lon":5.40465,"is_reserved":false,"is_disabled":false,"rental_uris":{"android":"levelo://app?vid=9b4d5e07-bf1a-4418-b544-e78b0d83a1c0","ios":"levelo://app?vid=9b4d5e07-bf1a-4418-b544-e78b0d83a1c0"},"vehicle_type_id":"4","last_reported":1745010506,"current_range_meters":10000,"station_id":"ce4bhmh2rcd13ifvqgmg","pricing_plan_id":"cebpf4jnsgd1na2vs0mg"},{"bike_id":"4affa1cf-896e-4b35-92a9-9624470d1083","system_id":"levelo_inurba_marseille","lat":43.29284,"lon":5.40125,"is_reserved":false,"is_disabled":false,"rental_uris":{"android":"levelo://app?vid=4affa1cf-896e-4b35-92a9-9624470d1083","ios":"levelo://app?vid=4affa1cf-896e-4b35-92a9-9624470d1083"},"vehicle_type_id":"4","last_reported":1745010506,"current_range_meters":10000,"station_id":"ce4bh312rcd13ifvqdk0","pricing_plan_id":"cebpf4jnsgd1na2vs0mg"},{"bike_id":"5ab4a80e-364b-48b0-a070-906bb9e16755","system_id":"levelo_inurba_marseille","lat":43.32005,"lon":5.38144,"is_reserved":false,"is_disabled":false,"rental_uris":{"android":"levelo://app?vid=5ab4a80e-364b-48b0-a070-906bb9e16755","ios":"levelo://app?vid=5ab4a80e-364b-48b0-a070-906bb9e16755"},"vehicle_type_id":"4","last_reported":1745010506,"current_range_meters":10800,"station_id":"ce4bhr12rcd13ifvqhpg","pricing_plan_id":"cebpf4jnsgd1na2vs0mg"},{"bike_id":"4bcaca61-be58-49cf-89c9-274b98e3c699","system_id":"levelo_inurba_marseille","lat":43.31991,"lon":5.38161,"is_reserved":false,"is_disabled":true,"rental_uris":{"android":"levelo://app?vid=4bcaca61-be58-49cf-89c9-274b98e3c699","ios":"levelo://app?vid=4bcaca61-be58-49cf-89c9-274b98e3c699"},"vehicle_type_id":"4","last_reported":1745010506,"current_range_meters":10800,"station_id":"ce4bhr12rcd13ifvqhpg","pricing_plan_id":"cebpf4jnsgd1na2vs0mg"},{"bike_id":"36ed5a67-0f48-4180-8190-b0eca2975deb","system_id":"levelo_inurba_marseille","lat":43.29262,"lon":5.38443,"is_reserved":false,"is_disabled":false,"rental_uris":{"android":"levelo://app?vid=36ed5a67-0f48-4180-8190-b0eca2975deb","ios":"levelo://app?vid=36ed5a67-0f48-4180-8190-b0eca2975deb"},"vehicle_type_id":"4","last_reported":1745010506,"current_range_meters":10800,"station_id":"ce4bh692rcd13ifvqea0","pricing_plan_id":"cebpf4jnsgd1na2vs0mg"},{"bike_id":"3fb00f12-f422-4c57-93cf-c85631c66627","system_id":"levelo_inurba_marseille","lat":43.2893,"lon":5.39561,"is_reserved":false,"is_disabled":false,"rental_uris":{"android":"levelo://app?vid=3fb00f12-f422-4c57-93cf-c85631c66627","ios":"levelo://app?vid=3fb00f12-f422-4c57-93cf-c85631c66627"},"vehicle_type_id":"4","last_reported":1745010506,"current_range_meters":10800,"station_id":"","pricing_plan_id":"cebpf4jnsgd1na2vs0mg"},{"bike_id":"b15e27ad-de07-4803-9d00-be655444ee0a","system_id":"levelo_inurba_marseille","lat":43.2952,"lon":5.38541,"is_reserved":false,"is_disabled":false,"rental_uris":{"android":"levelo://app?vid=b15e27ad-de07-4803-9d00-be655444ee0a","ios":"levelo://app?vid=b15e27ad-de07-4803-9d00-be655444ee0a"},"vehicle_type_id":"4","last_reported":1745010506,"current_range_meters":10800,"station_id":"ce4bgih2rcd13ifvqba0","pricing_plan_id":"cebpf4jnsgd1na2vs0mg"},{"bike_id":"d6f7fb32-f248-47b9-8b03-7ce977c39244","system_id":"levelo_inurba_marseille","lat":43.29411,"lon":5.38629,"is_reserved":false,"is_disabled":false,"rental_uris":{"android":"levelo://app?vid=d6f7fb32-f248-47b9-8b03-7ce977c39244","ios":"levelo://app?vid=d6f7fb32-f248-47b9-8b03-7ce977c39244"},"vehicle_type_id":"4","last_reported":1745010506,"current_range_meters":10800,"station_id":"ce4bh2h2rcd13ifvqdh0","pricing_plan_id":"cebpf4jnsgd1na2vs0mg"},{"bike_id":"78dbb0cc-89ef-4cb4-b87f-7f0ff966f3fa","system_id":"levelo_inurba_marseille","lat":43.29555,"lon":5.42293,"is_reserved":false,"is_disabled":false,"rental_uris":{"android":"levelo://app?vid=78dbb0cc-89ef-4cb4-b87f-7f0ff966f3fa","ios":"levelo://app?vid=78dbb0cc-89ef-4cb4-b87f-7f0ff966f3fa"},"vehicle_type_id":"4","last_reported":1745010506,"current_range_meters":10800,"station_id":"ce4bhph2rcd13ifvqhdg","pricing_plan_id":"cebpf4jnsgd1na2vs0mg"},{"bike_id":"934a8fc0-98f8-4aaf-a145-d485dee937c7","system_id":"levelo_inurba_marseille","lat":43.32356,"lon":5.36734,"is_reserved":false,"is_disabled":false,"rental_uris":{"android":"levelo://app?vid=934a8fc0-98f8-4aaf-a145-d485dee937c7","ios":"levelo://app?vid=934a8fc0-98f8-4aaf-a145-d485dee937c7"},"vehicle_type_id":"4","last_reported":1745010506,"current_range_meters":10800,"station_id":"ce4bhsh2rcd13ifvqi2g","pricing_plan_id":"cebpf4jnsgd1na2vs0mg"},{"bike_id":"99d17a75-602f-455b-a41c-560e0f41ce39","system_id":"levelo_inurba_marseille","lat":43.29537,"lon":5.3854,"is_reserved":false,"is_disabled":false,"rental_uris":{"android":"levelo://app?vid=99d17a75-602f-455b-a41c-560e0f41ce39","ios":"levelo://app?vid=99d17a75-602f-455b-a41c-560e0f41ce39"},"vehicle_type_id":"4","last_reported":1745010506,"current_range_meters":11200,"station_id":"ce4bgih2rcd13ifvqba0","pricing_plan_id":"cebpf4jnsgd1na2vs0mg"},{"bike_id":"b548ebe5-1c23-4158-a043-5345beee3847","system_id":"levelo_inurba_marseille","lat":43.29403,"lon":5.3861,"is_reserved":false,"is_disabled":false,"rental_uris":{"android":"levelo://app?vid=b548ebe5-1c23-4158-a043-5345beee3847","ios":"levelo://app?vid=b548ebe5-1c23-4158-a043-5345beee3847"},"vehicle_type_id":"4","last_reported":1745010506,"current_range_meters":11200,"station_id":"ce4bh2h2rcd13ifvqdh0","pricing_plan_id":"cebpf4jnsgd1na2vs0mg"},{"bike_id":"7c9d0069-215b-40b5-8aaf-d3d3120b20d7","system_id":"levelo_inurba_marseille","lat":43.25116,"lon":5.40311,"is_reserved":false,"is_disabled":false,"rental_uris":{"android":"levelo://app?vid=7c9d0069-215b-40b5-8aaf-d3d3120b20d7","ios":"levelo://app?vid=7c9d0069-215b-40b5-8aaf-d3d3120b20d7"},"vehicle_type_id":"4","last_reported":1745010506,"current_range_meters":11200,"station_id":"ce4bhlh2rcd13ifvqgig","pricing_plan_id":"cebpf4jnsgd1na2vs0mg"},{"bike_id":"3c6f63d8-cfa5-4801-90d9-9cf468848682","system_id":"levelo_inurba_marseille","lat":43.26227,"lon":5.40446,"is_reserved":false,"is_disabled":false,"rental_uris":{"android":"levelo://app?vid=3c6f63d8-cfa5-4801-90d9-9cf468848682","ios":"levelo://app?vid=3c6f63d8-cfa5-4801-90d9-9cf468848682"},"vehicle_type_id":"4","last_reported":1745010506,"current_range_meters":11200,"station_id":"ce4bhmh2rcd13ifvqgmg","pricing_plan_id":"cebpf4jnsgd1na2vs0mg"},{"bike_id":"d7488ed2-0dca-4a18-bf83-c830acee64ca","system_id":"levelo_inurba_marseille","lat":43.29248,"lon":5.38432,"is_reserved":false,"is_disabled":false,"rental_uris":{"android":"levelo://app?vid=d7488ed2-0dca-4a18-bf83-c830acee64ca","ios":"levelo://app?vid=d7488ed2-0dca-4a18-bf83-c830acee64ca"},"vehicle_type_id":"4","last_reported":1745010506,"current_range_meters":11200,"station_id":"ce4bh692rcd13ifvqea0","pricing_plan_id":"cebpf4jnsgd1na2vs0mg"},{"bike_id":"6d58b9e4-a324-4bbe-beb5-fe3365b109ee","system_id":"levelo_inurba_marseille","lat":43.29034,"lon":5.38654,"is_reserved":false,"is_disabled":false,"rental_uris":{"android":"levelo://app?vid=6d58b9e4-a324-4bbe-beb5-fe3365b109ee","ios":"levelo://app?vid=6d58b9e4-a324-4bbe-beb5-fe3365b109ee"},"vehicle_type_id":"4","last_reported":1745010506,"current_range_meters":11200,"station_id":"ce4bh4p2rcd13ifvqe0g","pricing_plan_id":"cebpf4jnsgd1na2vs0mg"},{"bike_id":"0acf4711-efd3-4391-8a62-92f2543632de","system_id":"levelo_inurba_marseille","lat":43.24807,"lon":5.37458,"is_reserved":false,"is_disabled":false,"rental_uris":{"android":"levelo://app?vid=0acf4711-efd3-4391-8a62-92f2543632de","ios":"levelo://app?vid=0acf4711-efd3-4391-8a62-92f2543632de"},"vehicle_type_id":"4","last_reported":1745010506,"current_range_meters":10800,"station_id":"ce4bhgh2rcd13ifvqfb0","pricing_plan_id":"cebpf4jnsgd1na2vs0mg"},{"bike_id":"cb45350e-0e1f-42b0-85cb-ffd652a74a75","system_id":"levelo_inurba_marseille","lat":43.23196,"lon":5.35554,"is_reserved":false,"is_disabled":false,"rental_uris":{"android":"levelo://app?vid=cb45350e-0e1f-42b0-85cb-ffd652a74a75","ios":"levelo://app?vid=cb45350e-0e1f-42b0-85cb-ffd652a74a75"},"vehicle_type_id":"4","last_reported":1745010506,"current_range_meters":11600,"station_id":"ce4bhu92rcd13ifvqi70","pricing_plan_id":"cebpf4jnsgd1na2vs0mg"},{"bike_id":"3f7b1657-b820-404f-ba81-10934e18f955","system_id":"levelo_inurba_marseille","lat":43.27373,"lon":5.36259,"is_reserved":false,"is_disabled":false,"rental_uris":{"android":"levelo://app?vid=3f7b1657-b820-404f-ba81-10934e18f955","ios":"levelo://app?vid=3f7b1657-b820-404f-ba81-10934e18f955"},"vehicle_type_id":"4","last_reported":1745010506,"current_range_meters":11600,"station_id":"ce4bhbh2rcd13ifvqeo0","pricing_plan_id":"cebpf4jnsgd1na2vs0mg"},{"bike_id":"c09b1ff6-1e1f-4cd6-9ee9-4e1b23955bbc","system_id":"levelo_inurba_marseille","lat":43.231965,"lon":5.355517,"is_reserved":false,"is_disabled":true,"rental_uris":{"android":"levelo://app?vid=c09b1ff6-1e1f-4cd6-9ee9-4e1b23955bbc","ios":"levelo://app?vid=c09b1ff6-1e1f-4cd6-9ee9-4e1b23955bbc"},"vehicle_type_id":"4","last_reported":1745010506,"current_range_meters":11600,"station_id":"ce4bhu92rcd13ifvqi70","pricing_plan_id":"cebpf4jnsgd1na2vs0mg"},{"bike_id":"1b64792f-21f4-460e-a9cd-429e0da41292","system_id":"levelo_inurba_marseille","lat":43.29414,"lon":5.38628,"is_reserved":false,"is_disabled":false,"rental_uris":{"android":"levelo://app?vid=1b64792f-21f4-460e-a9cd-429e0da41292","ios":"levelo://app?vid=1b64792f-21f4-460e-a9cd-429e0da41292"},"vehicle_type_id":"4","last_reported":1745010506,"current_range_meters":11600,"station_id":"ce4bh2h2rcd13ifvqdh0","pricing_plan_id":"cebpf4jnsgd1na2vs0mg"},{"bike_id":"ae9e2363-f8d9-454b-9775-d8931f5e5150","system_id":"levelo_inurba_marseille","lat":43.29041,"lon":5.38675,"is_reserved":false,"is_disabled":false,"rental_uris":{"android":"levelo://app?vid=ae9e2363-f8d9-454b-9775-d8931f5e5150","ios":"levelo://app?vid=ae9e2363-f8d9-454b-9775-d8931f5e5150"},"vehicle_type_id":"4","last_reported":1745010506,"current_range_meters":11600,"station_id":"ce4bh4p2rcd13ifvqe0g","pricing_plan_id":"cebpf4jnsgd1na2vs0mg"},{"bike_id":"69085267-76d4-493a-a756-a7cd25a24e74","system_id":"levelo_inurba_marseille","lat":43.295253,"lon":5.385382,"is_reserved":false,"is_disabled":false,"rental_uris":{"android":"levelo://app?vid=69085267-76d4-493a-a756-a7cd25a24e74","ios":"levelo://app?vid=69085267-76d4-493a-a756-a7cd25a24e74"},"vehicle_type_id":"4","last_reported":1745010506,"current_range_meters":11600,"station_id":"ce4bgih2rcd13ifvqba0","pricing_plan_id":"cebpf4jnsgd1na2vs0mg"},{"bike_id":"272a699a-1338-4817-b43f-f3a545f75518","system_id":"levelo_inurba_marseille","lat":43.24055,"lon":5.37738,"is_reserved":false,"is_disabled":false,"rental_uris":{"android":"levelo://app?vid=272a699a-1338-4817-b43f-f3a545f75518","ios":"levelo://app?vid=272a699a-1338-4817-b43f-f3a545f75518"},"vehicle_type_id":"4","last_reported":1745010506,"current_range_meters":11600,"station_id":"ce4bhnp2rcd13ifvqgvg","pricing_plan_id":"cebpf4jnsgd1na2vs0mg"},{"bike_id":"a0ddb0a5-f7f0-4281-aa27-9e82747cc573","system_id":"levelo_inurba_marseille","lat":43.33754,"lon":5.37491,"is_reserved":false,"is_disabled":false,"rental_uris":{"android":"levelo://app?vid=a0ddb0a5-f7f0-4281-aa27-9e82747cc573","ios":"levelo://app?vid=a0ddb0a5-f7f0-4281-aa27-9e82747cc573"},"vehicle_type_id":"4","last_reported":1745010506,"current_range_meters":11600,"station_id":"","pricing_plan_id":"cebpf4jnsgd1na2vs0mg"},{"bike_id":"137ef542-d251-4923-9d18-fef8933ed118","system_id":"levelo_inurba_marseille","lat":43.31693,"lon":5.40451,"is_reserved":false,"is_disabled":false,"rental_uris":{"android":"levelo://app?vid=137ef542-d251-4923-9d18-fef8933ed118","ios":"levelo://app?vid=137ef542-d251-4923-9d18-fef8933ed118"},"vehicle_type_id":"4","last_reported":1745010506,"current_range_meters":12000,"station_id":"ce4bh012rcd13ifvqd00","pricing_plan_id":"cebpf4jnsgd1na2vs0mg"},{"bike_id":"288438fe-3128-4034-b199-30eb4aa6b471","system_id":"levelo_inurba_marseille","lat":43.29263,"lon":5.3844,"is_reserved":false,"is_disabled":false,"rental_uris":{"android":"levelo://app?vid=288438fe-3128-4034-b199-30eb4aa6b471","ios":"levelo://app?vid=288438fe-3128-4034-b199-30eb4aa6b471"},"vehicle_type_id":"4","last_reported":1745010506,"current_range_meters":12000,"station_id":"ce4bh692rcd13ifvqea0","pricing_plan_id":"cebpf4jnsgd1na2vs0mg"},{"bike_id":"a236d9e1-69e0-484a-87f9-f9e25e00406a","system_id":"levelo_inurba_marseille","lat":43.30889,"lon":5.37185,"is_reserved":false,"is_disabled":false,"rental_uris":{"android":"levelo://app?vid=a236d9e1-69e0-484a-87f9-f9e25e00406a","ios":"levelo://app?vid=a236d9e1-69e0-484a-87f9-f9e25e00406a"},"vehicle_type_id":"4","last_reported":1745010506,"current_range_meters":12000,"station_id":"ce4bguh2rcd13ifvqckg","pricing_plan_id":"cebpf4jnsgd1na2vs0mg"},{"bike_id":"773e4f31-1b77-4aad-b330-03d6c76954fb","system_id":"levelo_inurba_marseille","lat":43.2942,"lon":5.38624,"is_reserved":false,"is_disabled":false,"rental_uris":{"android":"levelo://app?vid=773e4f31-1b77-4aad-b330-03d6c76954fb","ios":"levelo://app?vid=773e4f31-1b77-4aad-b330-03d6c76954fb"},"vehicle_type_id":"4","last_reported":1745010506,"current_range_meters":12000,"station_id":"ce4bh2h2rcd13ifvqdh0","pricing_plan_id":"cebpf4jnsgd1na2vs0mg"},{"bike_id":"01fdb7f5-7892-44f3-acbb-b06dbe8fcf4b","system_id":"levelo_inurba_marseille","lat":43.30323,"lon":5.40424,"is_reserved":false,"is_disabled":false,"rental_uris":{"android":"levelo://app?vid=01fdb7f5-7892-44f3-acbb-b06dbe8fcf4b","ios":"levelo://app?vid=01fdb7f5-7892-44f3-acbb-b06dbe8fcf4b"},"vehicle_type_id":"4","last_reported":1745010506,"current_range_meters":12000,"station_id":"ce4bh012rcd13ifvqd10","pricing_plan_id":"cebpf4jnsgd1na2vs0mg"},{"bike_id":"14bfc94c-bac0-4c65-8a8f-04cdd164cd0e","system_id":"levelo_inurba_marseille","lat":43.29411,"lon":5.38638,"is_reserved":false,"is_disabled":false,"rental_uris":{"android":"levelo://app?vid=14bfc94c-bac0-4c65-8a8f-04cdd164cd0e","ios":"levelo://app?vid=14bfc94c-bac0-4c65-8a8f-04cdd164cd0e"},"vehicle_type_id":"4","last_reported":1745010506,"current_range_meters":12000,"station_id":"ce4bh2h2rcd13ifvqdh0","pricing_plan_id":"cebpf4jnsgd1na2vs0mg"},{"bike_id":"ab079c4b-5811-43df-8338-85dffefc67d0","system_id":"levelo_inurba_marseille","lat":43.30098,"lon":5.39084,"is_reserved":false,"is_disabled":false,"rental_uris":{"android":"levelo://app?vid=ab079c4b-5811-43df-8338-85dffefc67d0","ios":"levelo://app?vid=ab079c4b-5811-43df-8338-85dffefc67d0"},"vehicle_type_id":"4","last_reported":1745010506,"current_range_meters":12000,"station_id":"ce4bh192rcd13ifvqdb0","pricing_plan_id":"cebpf4jnsgd1na2vs0mg"},{"bike_id":"33efbe4e-e642-4271-be29-4926b421ca5b","system_id":"levelo_inurba_marseille","lat":43.241605,"lon":5.364051,"is_reserved":false,"is_disabled":false,"rental_uris":{"android":"levelo://app?vid=33efbe4e-e642-4271-be29-4926b421ca5b","ios":"levelo://app?vid=33efbe4e-e642-4271-be29-4926b421ca5b"},"vehicle_type_id":"4","last_reported":1745010506,"current_range_meters":12000,"station_id":"cpo36qri1sfpv3e86is0","pricing_plan_id":"cebpf4jnsgd1na2vs0mg"},{"bike_id":"9c0631c2-4574-43df-b567-0ffa3065fb85","system_id":"levelo_inurba_marseille","lat":43.30328,"lon":5.40417,"is_reserved":false,"is_disabled":false,"rental_uris":{"android":"levelo://app?vid=9c0631c2-4574-43df-b567-0ffa3065fb85","ios":"levelo://app?vid=9c0631c2-4574-43df-b567-0ffa3065fb85"},"vehicle_type_id":"4","last_reported":1745010506,"current_range_meters":12000,"station_id":"ce4bh012rcd13ifvqd10","pricing_plan_id":"cebpf4jnsgd1na2vs0mg"},{"bike_id":"7570abc4-9228-4c2b-be1a-7732e05b3b56","system_id":"levelo_inurba_marseille","lat":43.2837,"lon":5.3862,"is_reserved":false,"is_disabled":false,"rental_uris":{"android":"levelo://app?vid=7570abc4-9228-4c2b-be1a-7732e05b3b56","ios":"levelo://app?vid=7570abc4-9228-4c2b-be1a-7732e05b3b56"},"vehicle_type_id":"4","last_reported":1745010506,"current_range_meters":12000,"station_id":"ce4bh492rcd13ifvqdvg","pricing_plan_id":"cebpf4jnsgd1na2vs0mg"},{"bike_id":"e60b8b06-f4fb-4308-9a64-8e0dd4f09968","system_id":"levelo_inurba_marseille","lat":43.29426,"lon":5.38638,"is_reserved":false,"is_disabled":false,"rental_uris":{"android":"levelo://app?vid=e60b8b06-f4fb-4308-9a64-8e0dd4f09968","ios":"levelo://app?vid=e60b8b06-f4fb-4308-9a64-8e0dd4f09968"},"vehicle_type_id":"4","last_reported":1745010506,"current_range_meters":12400,"station_id":"ce4bh2h2rcd13ifvqdh0","pricing_plan_id":"cebpf4jnsgd1na2vs0mg"},{"bike_id":"b6807616-0f85-4734-bc9f-4a9e16bf84c8","system_id":"levelo_inurba_marseille","lat":43.29414,"lon":5.38635,"is_reserved":false,"is_disabled":false,"rental_uris":{"android":"levelo://app?vid=b6807616-0f85-4734-bc9f-4a9e16bf84c8","ios":"levelo://app?vid=b6807616-0f85-4734-bc9f-4a9e16bf84c8"},"vehicle_type_id":"4","last_reported":1745010506,"current_range_meters":12400,"station_id":"ce4bh2h2rcd13ifvqdh0","pricing_plan_id":"cebpf4jnsgd1na2vs0mg"},{"bike_id":"61d4393e-086b-45cb-be98-39b8875b6527","system_id":"levelo_inurba_marseille","lat":43.25122,"lon":5.40318,"is_reserved":false,"is_disabled":false,"rental_uris":{"android":"levelo://app?vid=61d4393e-086b-45cb-be98-39b8875b6527","ios":"levelo://app?vid=61d4393e-086b-45cb-be98-39b8875b6527"},"vehicle_type_id":"4","last_reported":1745010506,"current_range_meters":12400,"station_id":"ce4bhlh2rcd13ifvqgig","pricing_plan_id":"cebpf4jnsgd1na2vs0mg"},{"bike_id":"58f89b5f-cb3b-4178-8a7b-ec0c09f29e7d","system_id":"levelo_inurba_marseille","lat":43.28691,"lon":5.374,"is_reserved":false,"is_disabled":false,"rental_uris":{"android":"levelo://app?vid=58f89b5f-cb3b-4178-8a7b-ec0c09f29e7d","ios":"levelo://app?vid=58f89b5f-cb3b-4178-8a7b-ec0c09f29e7d"},"vehicle_type_id":"4","last_reported":1745010506,"current_range_meters":12400,"station_id":"ce4bh3p2rcd13ifvqdq0","pricing_plan_id":"cebpf4jnsgd1na2vs0mg"},{"bike_id":"6f523da1-5f60-475c-93df-7a5b709bcac9","system_id":"levelo_inurba_marseille","lat":43.23184,"lon":5.35553,"is_reserved":false,"is_disabled":false,"rental_uris":{"android":"levelo://app?vid=6f523da1-5f60-475c-93df-7a5b709bcac9","ios":"levelo://app?vid=6f523da1-5f60-475c-93df-7a5b709bcac9"},"vehicle_type_id":"4","last_reported":1745010506,"current_range_meters":12400,"station_id":"ce4bhu92rcd13ifvqi70","pricing_plan_id":"cebpf4jnsgd1na2vs0mg"},{"bike_id":"ef6e9c6f-8f69-4fcf-9727-b556a001e5bc","system_id":"levelo_inurba_marseille","lat":43.29555,"lon":5.42293,"is_reserved":false,"is_disabled":false,"rental_uris":{"android":"levelo://app?vid=ef6e9c6f-8f69-4fcf-9727-b556a001e5bc","ios":"levelo://app?vid=ef6e9c6f-8f69-4fcf-9727-b556a001e5bc"},"vehicle_type_id":"4","last_reported":1745010506,"current_range_meters":12400,"station_id":"ce4bhph2rcd13ifvqhdg","pricing_plan_id":"cebpf4jnsgd1na2vs0mg"},{"bike_id":"f618927d-ce9c-46c0-903d-66203089bbee","system_id":"levelo_inurba_marseille","lat":43.27914,"lon":5.395803,"is_reserved":false,"is_disabled":false,"rental_uris":{"android":"levelo://app?vid=f618927d-ce9c-46c0-903d-66203089bbee","ios":"levelo://app?vid=f618927d-ce9c-46c0-903d-66203089bbee"},"vehicle_type_id":"4","last_reported":1745010506,"current_range_meters":12400,"station_id":"ce4bhf92rcd13ifvqf40","pricing_plan_id":"cebpf4jnsgd1na2vs0mg"},{"bike_id":"2a261f88-3764-4cba-8208-7dface0e9631","system_id":"levelo_inurba_marseille","lat":43.28928,"lon":5.36628,"is_reserved":false,"is_disabled":false,"rental_uris":{"android":"levelo://app?vid=2a261f88-3764-4cba-8208-7dface0e9631","ios":"levelo://app?vid=2a261f88-3764-4cba-8208-7dface0e9631"},"vehicle_type_id":"4","last_reported":1745010506,"current_range_meters":12400,"station_id":"ce4bhap2rcd13ifvqek0","pricing_plan_id":"cebpf4jnsgd1na2vs0mg"},{"bike_id":"18f35c7e-e2f0-4fb5-af01-54d1c0b2323b","system_id":"levelo_inurba_marseille","lat":43.29528,"lon":5.38544,"is_reserved":false,"is_disabled":false,"rental_uris":{"android":"levelo://app?vid=18f35c7e-e2f0-4fb5-af01-54d1c0b2323b","ios":"levelo://app?vid=18f35c7e-e2f0-4fb5-af01-54d1c0b2323b"},"vehicle_type_id":"4","last_reported":1745010506,"current_range_meters":12400,"station_id":"ce4bgih2rcd13ifvqba0","pricing_plan_id":"cebpf4jnsgd1na2vs0mg"},{"bike_id":"a28a3f8c-38fc-4308-b382-75c9a725c27e","system_id":"levelo_inurba_marseille","lat":43.294156,"lon":5.385846,"is_reserved":false,"is_disabled":false,"rental_uris":{"android":"levelo://app?vid=a28a3f8c-38fc-4308-b382-75c9a725c27e","ios":"levelo://app?vid=a28a3f8c-38fc-4308-b382-75c9a725c27e"},"vehicle_type_id":"4","last_reported":1745010506,"current_range_meters":12400,"station_id":"ce4bh2h2rcd13ifvqdh0","pricing_plan_id":"cebpf4jnsgd1na2vs0mg"},{"bike_id":"da54d534-cdfc-4dbf-9f0d-6cfc2a37323d","system_id":"levelo_inurba_marseille","lat":43.23324,"lon":5.36151,"is_reserved":false,"is_disabled":false,"rental_uris":{"android":"levelo://app?vid=da54d534-cdfc-4dbf-9f0d-6cfc2a37323d","ios":"levelo://app?vid=da54d534-cdfc-4dbf-9f0d-6cfc2a37323d"},"vehicle_type_id":"4","last_reported":1745010506,"current_range_meters":12400,"station_id":"","pricing_plan_id":"cebpf4jnsgd1na2vs0mg"},{"bike_id":"6cd98a68-dfc0-4aef-a25d-03e1f7826476","system_id":"levelo_inurba_marseille","lat":43.23687,"lon":5.37763,"is_reserved":false,"is_disabled":false,"rental_uris":{"android":"levelo://app?vid=6cd98a68-dfc0-4aef-a25d-03e1f7826476","ios":"levelo://app?vid=6cd98a68-dfc0-4aef-a25d-03e1f7826476"},"vehicle_type_id":"4","last_reported":1745010506,"current_range_meters":12800,"station_id":"","pricing_plan_id":"cebpf4jnsgd1na2vs0mg"},{"bike_id":"68342d9f-f0b6-47e7-b690-b27078e67a77","system_id":"levelo_inurba_marseille","lat":43.2415,"lon":5.36414,"is_reserved":false,"is_disabled":false,"rental_uris":{"android":"levelo://app?vid=68342d9f-f0b6-47e7-b690-b27078e67a77","ios":"levelo://app?vid=68342d9f-f0b6-47e7-b690-b27078e67a77"},"vehicle_type_id":"4","last_reported":1745010506,"current_range_meters":12800,"station_id":"cpo36qri1sfpv3e86is0","pricing_plan_id":"cebpf4jnsgd1na2vs0mg"},{"bike_id":"c27907fa-ce59-490f-b173-9a23082d604e","system_id":"levelo_inurba_marseille","lat":43.27912,"lon":5.39589,"is_reserved":false,"is_disabled":false,"rental_uris":{"android":"levelo://app?vid=c27907fa-ce59-490f-b173-9a23082d604e","ios":"levelo://app?vid=c27907fa-ce59-490f-b173-9a23082d604e"},"vehicle_type_id":"4","last_reported":1745010506,"current_range_meters":12800,"station_id":"ce4bhf92rcd13ifvqf40","pricing_plan_id":"cebpf4jnsgd1na2vs0mg"},{"bike_id":"7eb8853e-3665-40f5-8308-1299f0674652","system_id":"levelo_inurba_marseille","lat":43.30368,"lon":5.42492,"is_reserved":false,"is_disabled":false,"rental_uris":{"android":"levelo://app?vid=7eb8853e-3665-40f5-8308-1299f0674652","ios":"levelo://app?vid=7eb8853e-3665-40f5-8308-1299f0674652"},"vehicle_type_id":"4","last_reported":1745010506,"current_range_meters":12800,"station_id":"ce4bhoh2rcd13ifvqh6g","pricing_plan_id":"cebpf4jnsgd1na2vs0mg"},{"bike_id":"84479aba-7dcf-4ed5-859b-fd33aa9ad312","system_id":"levelo_inurba_marseille","lat":43.29264,"lon":5.38442,"is_reserved":false,"is_disabled":false,"rental_uris":{"android":"levelo://app?vid=84479aba-7dcf-4ed5-859b-fd33aa9ad312","ios":"levelo://app?vid=84479aba-7dcf-4ed5-859b-fd33aa9ad312"},"vehicle_type_id":"4","last_reported":1745010506,"current_range_meters":12800,"station_id":"ce4bh692rcd13ifvqea0","pricing_plan_id":"cebpf4jnsgd1na2vs0mg"},{"bike_id":"e6dd6ae1-3bcb-4010-8c4f-946f95c5cd66","system_id":"levelo_inurba_marseille","lat":43.28835,"lon":5.35871,"is_reserved":false,"is_disabled":true,"rental_uris":{"android":"levelo://app?vid=e6dd6ae1-3bcb-4010-8c4f-946f95c5cd66","ios":"levelo://app?vid=e6dd6ae1-3bcb-4010-8c4f-946f95c5cd66"},"vehicle_type_id":"4","last_reported":1745010506,"current_range_meters":13600,"station_id":"ce4bhb12rcd13ifvqem0","pricing_plan_id":"cebpf4jnsgd1na2vs0mg"},{"bike_id":"1eaca8f5-0017-418a-9bfc-52185bf67513","system_id":"levelo_inurba_marseille","lat":43.33741,"lon":5.39184,"is_reserved":false,"is_disabled":false,"rental_uris":{"android":"levelo://app?vid=1eaca8f5-0017-418a-9bfc-52185bf67513","ios":"levelo://app?vid=1eaca8f5-0017-418a-9bfc-52185bf67513"},"vehicle_type_id":"4","last_reported":1745010506,"current_range_meters":13600,"station_id":"ce4bhr92rcd13ifvqhsg","pricing_plan_id":"cebpf4jnsgd1na2vs0mg"},{"bike_id":"709594ef-4d5a-43e4-8bb0-c482c9fa12f8","system_id":"levelo_inurba_marseille","lat":43.30896,"lon":5.39628,"is_reserved":false,"is_disabled":true,"rental_uris":{"android":"levelo://app?vid=709594ef-4d5a-43e4-8bb0-c482c9fa12f8","ios":"levelo://app?vid=709594ef-4d5a-43e4-8bb0-c482c9fa12f8"},"vehicle_type_id":"4","last_reported":1745010506,"current_range_meters":13600,"station_id":"ce4bh012rcd13ifvqcv0","pricing_plan_id":"cebpf4jnsgd1na2vs0mg"},{"bike_id":"ef871c8e-2013-4622-a683-0ab17a74d870","system_id":"levelo_inurba_marseille","lat":43.23182,"lon":5.35569,"is_reserved":false,"is_disabled":true,"rental_uris":{"android":"levelo://app?vid=ef871c8e-2013-4622-a683-0ab17a74d870","ios":"levelo://app?vid=ef871c8e-2013-4622-a683-0ab17a74d870"},"vehicle_type_id":"4","last_reported":1745010506,"current_range_meters":13600,"station_id":"ce4bhu92rcd13ifvqi70","pricing_plan_id":"cebpf4jnsgd1na2vs0mg"},{"bike_id":"670bb321-d383-4f1c-a418-c5e636b50610","system_id":"levelo_inurba_marseille","lat":43.29188,"lon":5.39322,"is_reserved":false,"is_disabled":false,"rental_uris":{"android":"levelo://app?vid=670bb321-d383-4f1c-a418-c5e636b50610","ios":"levelo://app?vid=670bb321-d383-4f1c-a418-c5e636b50610"},"vehicle_type_id":"4","last_reported":1745010506,"current_range_meters":13600,"station_id":"ce4bh192rcd13ifvqdd0","pricing_plan_id":"cebpf4jnsgd1na2vs0mg"},{"bike_id":"110c4abb-ffb8-4fd0-ba35-0e68e73379e5","system_id":"levelo_inurba_marseille","lat":43.22935,"lon":5.353903,"is_reserved":false,"is_disabled":false,"rental_uris":{"android":"levelo://app?vid=110c4abb-ffb8-4fd0-ba35-0e68e73379e5","ios":"levelo://app?vid=110c4abb-ffb8-4fd0-ba35-0e68e73379e5"},"vehicle_type_id":"4","last_reported":1745010506,"current_range_meters":13600,"station_id":"cpo3532slgdg3j2ikp40","pricing_plan_id":"cebpf4jnsgd1na2vs0mg"},{"bike_id":"1bb7039b-1ff3-40d5-9434-19afb5933c6f","system_id":"levelo_inurba_marseille","lat":43.2953,"lon":5.38535,"is_reserved":false,"is_disabled":false,"rental_uris":{"android":"levelo://app?vid=1bb7039b-1ff3-40d5-9434-19afb5933c6f","ios":"levelo://app?vid=1bb7039b-1ff3-40d5-9434-19afb5933c6f"},"vehicle_type_id":"4","last_reported":1745010506,"current_range_meters":14000,"station_id":"ce4bgih2rcd13ifvqba0","pricing_plan_id":"cebpf4jnsgd1na2vs0mg"},{"bike_id":"31dd33da-c4fa-43a8-8993-4fac7f3ffa6a","system_id":"levelo_inurba_marseille","lat":43.28939,"lon":5.39627,"is_reserved":false,"is_disabled":false,"rental_uris":{"android":"levelo://app?vid=31dd33da-c4fa-43a8-8993-4fac7f3ffa6a","ios":"levelo://app?vid=31dd33da-c4fa-43a8-8993-4fac7f3ffa6a"},"vehicle_type_id":"4","last_reported":1745010506,"current_range_meters":13600,"station_id":"ce4bh3h2rcd13ifvqdn0","pricing_plan_id":"cebpf4jnsgd1na2vs0mg"},{"bike_id":"2521a350-ef67-406e-97dd-8e229ac28a69","system_id":"levelo_inurba_marseille","lat":43.28954,"lon":5.36605,"is_reserved":false,"is_disabled":false,"rental_uris":{"android":"levelo://app?vid=2521a350-ef67-406e-97dd-8e229ac28a69","ios":"levelo://app?vid=2521a350-ef67-406e-97dd-8e229ac28a69"},"vehicle_type_id":"4","last_reported":1745010506,"current_range_meters":14000,"station_id":"ce4bhap2rcd13ifvqek0","pricing_plan_id":"cebpf4jnsgd1na2vs0mg"},{"bike_id":"778a7cf0-1f8b-45e8-8c8a-bd61441d0fdd","system_id":"levelo_inurba_marseille","lat":43.30528,"lon":5.36721,"is_reserved":false,"is_disabled":false,"rental_uris":{"android":"levelo://app?vid=778a7cf0-1f8b-45e8-8c8a-bd61441d0fdd","ios":"levelo://app?vid=778a7cf0-1f8b-45e8-8c8a-bd61441d0fdd"},"vehicle_type_id":"4","last_reported":1745010506,"current_range_meters":14800,"station_id":"ce4bgrp2rcd13ifvqc9g","pricing_plan_id":"cebpf4jnsgd1na2vs0mg"},{"bike_id":"5c4ead29-1e5e-49af-829a-7868c3cf014f","system_id":"levelo_inurba_marseille","lat":43.25089,"lon":5.40353,"is_reserved":false,"is_disabled":false,"rental_uris":{"android":"levelo://app?vid=5c4ead29-1e5e-49af-829a-7868c3cf014f","ios":"levelo://app?vid=5c4ead29-1e5e-49af-829a-7868c3cf014f"},"vehicle_type_id":"4","last_reported":1745010506,"current_range_meters":14000,"station_id":"ce4bhlh2rcd13ifvqgig","pricing_plan_id":"cebpf4jnsgd1na2vs0mg"},{"bike_id":"5d4c9cc0-56a3-468c-9bfd-437b9498da8b","system_id":"levelo_inurba_marseille","lat":43.28345,"lon":5.38123,"is_reserved":false,"is_disabled":false,"rental_uris":{"android":"levelo://app?vid=5d4c9cc0-56a3-468c-9bfd-437b9498da8b","ios":"levelo://app?vid=5d4c9cc0-56a3-468c-9bfd-437b9498da8b"},"vehicle_type_id":"4","last_reported":1745010506,"current_range_meters":14000,"station_id":"ce4bh412rcd13ifvqdr0","pricing_plan_id":"cebpf4jnsgd1na2vs0mg"},{"bike_id":"186380b9-3dab-457b-b648-71d123fa0368","system_id":"levelo_inurba_marseille","lat":43.25118,"lon":5.40302,"is_reserved":false,"is_disabled":true,"rental_uris":{"android":"levelo://app?vid=186380b9-3dab-457b-b648-71d123fa0368","ios":"levelo://app?vid=186380b9-3dab-457b-b648-71d123fa0368"},"vehicle_type_id":"4","last_reported":1745010506,"current_range_meters":14000,"station_id":"ce4bhlh2rcd13ifvqgig","pricing_plan_id":"cebpf4jnsgd1na2vs0mg"},{"bike_id":"4fe31a1a-47e1-4300-81c1-36feeb12404e","system_id":"levelo_inurba_marseille","lat":43.29249,"lon":5.3844,"is_reserved":false,"is_disabled":false,"rental_uris":{"android":"levelo://app?vid=4fe31a1a-47e1-4300-81c1-36feeb12404e","ios":"levelo://app?vid=4fe31a1a-47e1-4300-81c1-36feeb12404e"},"vehicle_type_id":"4","last_reported":1745010506,"current_range_meters":14000,"station_id":"ce4bh692rcd13ifvqea0","pricing_plan_id":"cebpf4jnsgd1na2vs0mg"},{"bike_id":"63ea7073-28fc-44a7-bbc2-5ff0877db960","system_id":"levelo_inurba_marseille","lat":43.29063,"lon":5.37156,"is_reserved":false,"is_disabled":false,"rental_uris":{"android":"levelo://app?vid=63ea7073-28fc-44a7-bbc2-5ff0877db960","ios":"levelo://app?vid=63ea7073-28fc-44a7-bbc2-5ff0877db960"},"vehicle_type_id":"4","last_reported":1745010506,"current_range_meters":14400,"station_id":"ce4bh5p2rcd13ifvqe4g","pricing_plan_id":"cebpf4jnsgd1na2vs0mg"},{"bike_id":"81d07084-66a1-44dc-ae08-3b708e7b5eb3","system_id":"levelo_inurba_marseille","lat":43.250095,"lon":5.389255,"is_reserved":false,"is_disabled":false,"rental_uris":{"android":"levelo://app?vid=81d07084-66a1-44dc-ae08-3b708e7b5eb3","ios":"levelo://app?vid=81d07084-66a1-44dc-ae08-3b708e7b5eb3"},"vehicle_type_id":"4","last_reported":1745010506,"current_range_meters":14400,"station_id":"ce4bhgp2rcd13ifvqfd0","pricing_plan_id":"cebpf4jnsgd1na2vs0mg"},{"bike_id":"49f5d333-54bf-475d-8c25-f538119ecd21","system_id":"levelo_inurba_marseille","lat":43.29419,"lon":5.38623,"is_reserved":false,"is_disabled":false,"rental_uris":{"android":"levelo://app?vid=49f5d333-54bf-475d-8c25-f538119ecd21","ios":"levelo://app?vid=49f5d333-54bf-475d-8c25-f538119ecd21"},"vehicle_type_id":"4","last_reported":1745010506,"current_range_meters":14400,"station_id":"ce4bh2h2rcd13ifvqdh0","pricing_plan_id":"cebpf4jnsgd1na2vs0mg"},{"bike_id":"70ef2441-0522-4870-acda-eed060a08718","system_id":"levelo_inurba_marseille","lat":43.29865,"lon":5.38912,"is_reserved":false,"is_disabled":false,"rental_uris":{"android":"levelo://app?vid=70ef2441-0522-4870-acda-eed060a08718","ios":"levelo://app?vid=70ef2441-0522-4870-acda-eed060a08718"},"vehicle_type_id":"4","last_reported":1745010506,"current_range_meters":16400,"station_id":"ce4bh392rcd13ifvqdl0","pricing_plan_id":"cebpf4jnsgd1na2vs0mg"},{"bike_id":"657f0301-49ca-40e5-b5d1-08a1faca3fc1","system_id":"levelo_inurba_marseille","lat":43.29577,"lon":5.42239,"is_reserved":false,"is_disabled":false,"rental_uris":{"android":"levelo://app?vid=657f0301-49ca-40e5-b5d1-08a1faca3fc1","ios":"levelo://app?vid=657f0301-49ca-40e5-b5d1-08a1faca3fc1"},"vehicle_type_id":"4","last_reported":1745010506,"current_range_meters":14400,"station_id":"","pricing_plan_id":"cebpf4jnsgd1na2vs0mg"},{"bike_id":"331be414-ada1-42d4-a7d8-c8c412d62ca8","system_id":"levelo_inurba_marseille","lat":43.2902,"lon":5.38642,"is_reserved":false,"is_disabled":false,"rental_uris":{"android":"levelo://app?vid=331be414-ada1-42d4-a7d8-c8c412d62ca8","ios":"levelo://app?vid=331be414-ada1-42d4-a7d8-c8c412d62ca8"},"vehicle_type_id":"4","last_reported":1745010506,"current_range_meters":14400,"station_id":"ce4bh4p2rcd13ifvqe0g","pricing_plan_id":"cebpf4jnsgd1na2vs0mg"},{"bike_id":"7bab8fa8-e629-4323-8823-6813db040f9b","system_id":"levelo_inurba_marseille","lat":43.2951,"lon":5.3941,"is_reserved":false,"is_disabled":false,"rental_uris":{"android":"levelo://app?vid=7bab8fa8-e629-4323-8823-6813db040f9b","ios":"levelo://app?vid=7bab8fa8-e629-4323-8823-6813db040f9b"},"vehicle_type_id":"4","last_reported":1745010506,"current_range_meters":14400,"station_id":"ce4bh292rcd13ifvqdf0","pricing_plan_id":"cebpf4jnsgd1na2vs0mg"},{"bike_id":"97e50bb0-9a70-481b-b370-e509345e710a","system_id":"levelo_inurba_marseille","lat":43.28032,"lon":5.36942,"is_reserved":false,"is_disabled":true,"rental_uris":{"android":"levelo://app?vid=97e50bb0-9a70-481b-b370-e509345e710a","ios":"levelo://app?vid=97e50bb0-9a70-481b-b370-e509345e710a"},"vehicle_type_id":"4","last_reported":1745010506,"current_range_meters":14800,"station_id":"ce4bha12rcd13ifvqef0","pricing_plan_id":"cebpf4jnsgd1na2vs0mg"},{"bike_id":"3e089d80-138c-4772-b338-332841136b45","system_id":"levelo_inurba_marseille","lat":43.301392,"lon":5.387834,"is_reserved":false,"is_disabled":false,"rental_uris":{"android":"levelo://app?vid=3e089d80-138c-4772-b338-332841136b45","ios":"levelo://app?vid=3e089d80-138c-4772-b338-332841136b45"},"vehicle_type_id":"4","last_reported":1745010506,"current_range_meters":14800,"station_id":"ce4bghh2rcd13ifvqb60","pricing_plan_id":"cebpf4jnsgd1na2vs0mg"},{"bike_id":"789c3822-56ca-4769-bcd4-8845bdea2fda","system_id":"levelo_inurba_marseille","lat":43.24151,"lon":5.36424,"is_reserved":false,"is_disabled":false,"rental_uris":{"android":"levelo://app?vid=789c3822-56ca-4769-bcd4-8845bdea2fda","ios":"levelo://app?vid=789c3822-56ca-4769-bcd4-8845bdea2fda"},"vehicle_type_id":"4","last_reported":1745010506,"current_range_meters":14800,"station_id":"cpo36qri1sfpv3e86is0","pricing_plan_id":"cebpf4jnsgd1na2vs0mg"},{"bike_id":"b6821e5f-2b42-4cde-8784-0fb0fe3fb2be","system_id":"levelo_inurba_marseille","lat":43.24669,"lon":5.38168,"is_reserved":false,"is_disabled":false,"rental_uris":{"android":"levelo://app?vid=b6821e5f-2b42-4cde-8784-0fb0fe3fb2be","ios":"levelo://app?vid=b6821e5f-2b42-4cde-8784-0fb0fe3fb2be"},"vehicle_type_id":"4","last_reported":1745010506,"current_range_meters":14800,"station_id":"ce4bhih2rcd13ifvqfr0","pricing_plan_id":"cebpf4jnsgd1na2vs0mg"},{"bike_id":"26277edd-362a-40e2-be81-122d264bb4c5","system_id":"levelo_inurba_marseille","lat":43.29415,"lon":5.38633,"is_reserved":false,"is_disabled":false,"rental_uris":{"android":"levelo://app?vid=26277edd-362a-40e2-be81-122d264bb4c5","ios":"levelo://app?vid=26277edd-362a-40e2-be81-122d264bb4c5"},"vehicle_type_id":"4","last_reported":1745010506,"current_range_meters":14800,"station_id":"ce4bh2h2rcd13ifvqdh0","pricing_plan_id":"cebpf4jnsgd1na2vs0mg"},{"bike_id":"42380231-def3-476d-af50-7af7ee866142","system_id":"levelo_inurba_marseille","lat":43.2943,"lon":5.3863,"is_reserved":false,"is_disabled":false,"rental_uris":{"android":"levelo://app?vid=42380231-def3-476d-af50-7af7ee866142","ios":"levelo://app?vid=42380231-def3-476d-af50-7af7ee866142"},"vehicle_type_id":"4","last_reported":1745010506,"current_range_meters":14800,"station_id":"ce4bh2h2rcd13ifvqdh0","pricing_plan_id":"cebpf4jnsgd1na2vs0mg"},{"bike_id":"3ea4edad-eec4-4472-983a-58bb71d05745","system_id":"levelo_inurba_marseille","lat":43.306519,"lon":5.370926,"is_reserved":false,"is_disabled":false,"rental_uris":{"android":"levelo://app?vid=3ea4edad-eec4-4472-983a-58bb71d05745","ios":"levelo://app?vid=3ea4edad-eec4-4472-983a-58bb71d05745"},"vehicle_type_id":"4","last_reported":1745010506,"current_range_meters":14800,"station_id":"ce4bgnh2rcd13ifvqc0g","pricing_plan_id":"cebpf4jnsgd1na2vs0mg"},{"bike_id":"e3676529-fdba-41a5-ba7c-0800270c13e0","system_id":"levelo_inurba_marseille","lat":43.25082,"lon":5.39527,"is_reserved":false,"is_disabled":false,"rental_uris":{"android":"levelo://app?vid=e3676529-fdba-41a5-ba7c-0800270c13e0","ios":"levelo://app?vid=e3676529-fdba-41a5-ba7c-0800270c13e0"},"vehicle_type_id":"4","last_reported":1745010506,"current_range_meters":15200,"station_id":"ce4bhm12rcd13ifvqgkg","pricing_plan_id":"cebpf4jnsgd1na2vs0mg"},{"bike_id":"372c5d58-0de3-4fac-bc02-7152f85cfe93","system_id":"levelo_inurba_marseille","lat":43.24661,"lon":5.38165,"is_reserved":false,"is_disabled":false,"rental_uris":{"android":"levelo://app?vid=372c5d58-0de3-4fac-bc02-7152f85cfe93","ios":"levelo://app?vid=372c5d58-0de3-4fac-bc02-7152f85cfe93"},"vehicle_type_id":"4","last_reported":1745010506,"current_range_meters":15200,"station_id":"ce4bhih2rcd13ifvqfr0","pricing_plan_id":"cebpf4jnsgd1na2vs0mg"},{"bike_id":"7ecb74f0-1b60-499f-a9b5-a9a623c1b5d2","system_id":"levelo_inurba_marseille","lat":43.29254,"lon":5.3844,"is_reserved":false,"is_disabled":false,"rental_uris":{"android":"levelo://app?vid=7ecb74f0-1b60-499f-a9b5-a9a623c1b5d2","ios":"levelo://app?vid=7ecb74f0-1b60-499f-a9b5-a9a623c1b5d2"},"vehicle_type_id":"4","last_reported":1745010506,"current_range_meters":15200,"station_id":"ce4bh692rcd13ifvqea0","pricing_plan_id":"cebpf4jnsgd1na2vs0mg"},{"bike_id":"b1064e95-18da-493f-9fba-9d0838fdaab3","system_id":"levelo_inurba_marseille","lat":43.297992,"lon":5.404057,"is_reserved":false,"is_disabled":false,"rental_uris":{"android":"levelo://app?vid=b1064e95-18da-493f-9fba-9d0838fdaab3","ios":"levelo://app?vid=b1064e95-18da-493f-9fba-9d0838fdaab3"},"vehicle_type_id":"4","last_reported":1745010506,"current_range_meters":15200,"station_id":"ce4bh112rcd13ifvqd90","pricing_plan_id":"cebpf4jnsgd1na2vs0mg"},{"bike_id":"438d4632-bb7e-4ed0-b793-6528f537d0cf","system_id":"levelo_inurba_marseille","lat":43.307974,"lon":5.381435,"is_reserved":false,"is_disabled":false,"rental_uris":{"android":"levelo://app?vid=438d4632-bb7e-4ed0-b793-6528f537d0cf","ios":"levelo://app?vid=438d4632-bb7e-4ed0-b793-6528f537d0cf"},"vehicle_type_id":"4","last_reported":1745010506,"current_range_meters":15200,"station_id":"ce4bh0h2rcd13ifvqd60","pricing_plan_id":"cebpf4jnsgd1na2vs0mg"},{"bike_id":"b4c0198e-1f84-48fb-bd22-f2009e056046","system_id":"levelo_inurba_marseille","lat":43.28715,"lon":5.37941,"is_reserved":false,"is_disabled":false,"rental_uris":{"android":"levelo://app?vid=b4c0198e-1f84-48fb-bd22-f2009e056046","ios":"levelo://app?vid=b4c0198e-1f84-48fb-bd22-f2009e056046"},"vehicle_type_id":"4","last_reported":1745010506,"current_range_meters":15200,"station_id":"ce4bh9p2rcd13ifvqec0","pricing_plan_id":"cebpf4jnsgd1na2vs0mg"},{"bike_id":"6b334eca-bc32-4f3d-98fe-089faabffd7b","system_id":"levelo_inurba_marseille","lat":43.24663,"lon":5.38164,"is_reserved":false,"is_disabled":false,"rental_uris":{"android":"levelo://app?vid=6b334eca-bc32-4f3d-98fe-089faabffd7b","ios":"levelo://app?vid=6b334eca-bc32-4f3d-98fe-089faabffd7b"},"vehicle_type_id":"4","last_reported":1745010506,"current_range_meters":15200,"station_id":"ce4bhih2rcd13ifvqfr0","pricing_plan_id":"cebpf4jnsgd1na2vs0mg"},{"bike_id":"f7712f1b-5021-4835-a1d3-2c2279365bb2","system_id":"levelo_inurba_marseille","lat":43.31928,"lon":5.37109,"is_reserved":false,"is_disabled":false,"rental_uris":{"android":"levelo://app?vid=f7712f1b-5021-4835-a1d3-2c2279365bb2","ios":"levelo://app?vid=f7712f1b-5021-4835-a1d3-2c2279365bb2"},"vehicle_type_id":"4","last_reported":1745010506,"current_range_meters":15200,"station_id":"","pricing_plan_id":"cebpf4jnsgd1na2vs0mg"},{"bike_id":"657042ad-ed32-4518-aaf9-93c39f8afd69","system_id":"levelo_inurba_marseille","lat":43.29417,"lon":5.38611,"is_reserved":false,"is_disabled":false,"rental_uris":{"android":"levelo://app?vid=657042ad-ed32-4518-aaf9-93c39f8afd69","ios":"levelo://app?vid=657042ad-ed32-4518-aaf9-93c39f8afd69"},"vehicle_type_id":"4","last_reported":1745010506,"current_range_meters":15200,"station_id":"ce4bh2h2rcd13ifvqdh0","pricing_plan_id":"cebpf4jnsgd1na2vs0mg"},{"bike_id":"15041d59-eae0-4cb4-b75b-3f6e9765e574","system_id":"levelo_inurba_marseille","lat":43.30315,"lon":5.36861,"is_reserved":false,"is_disabled":false,"rental_uris":{"android":"levelo://app?vid=15041d59-eae0-4cb4-b75b-3f6e9765e574","ios":"levelo://app?vid=15041d59-eae0-4cb4-b75b-3f6e9765e574"},"vehicle_type_id":"4","last_reported":1745010506,"current_range_meters":16000,"station_id":"ce4bgqh2rcd13ifvqc5g","pricing_plan_id":"cebpf4jnsgd1na2vs0mg"},{"bike_id":"10750f8d-2c15-4e4e-bad5-e3acf86b7303","system_id":"levelo_inurba_marseille","lat":43.29416,"lon":5.38634,"is_reserved":false,"is_disabled":false,"rental_uris":{"android":"levelo://app?vid=10750f8d-2c15-4e4e-bad5-e3acf86b7303","ios":"levelo://app?vid=10750f8d-2c15-4e4e-bad5-e3acf86b7303"},"vehicle_type_id":"4","last_reported":1745010506,"current_range_meters":16000,"station_id":"ce4bh2h2rcd13ifvqdh0","pricing_plan_id":"cebpf4jnsgd1na2vs0mg"},{"bike_id":"e668da33-ca25-450c-839f-7f6e9e1e945d","system_id":"levelo_inurba_marseille","lat":43.28721,"lon":5.37921,"is_reserved":false,"is_disabled":false,"rental_uris":{"android":"levelo://app?vid=e668da33-ca25-450c-839f-7f6e9e1e945d","ios":"levelo://app?vid=e668da33-ca25-450c-839f-7f6e9e1e945d"},"vehicle_type_id":"4","last_reported":1745010506,"current_range_meters":16000,"station_id":"ce4bh9p2rcd13ifvqec0","pricing_plan_id":"cebpf4jnsgd1na2vs0mg"},{"bike_id":"b6c3499a-415c-4534-9db3-37550ecba7e2","system_id":"levelo_inurba_marseille","lat":43.24145,"lon":5.36427,"is_reserved":false,"is_disabled":false,"rental_uris":{"android":"levelo://app?vid=b6c3499a-415c-4534-9db3-37550ecba7e2","ios":"levelo://app?vid=b6c3499a-415c-4534-9db3-37550ecba7e2"},"vehicle_type_id":"4","last_reported":1745010506,"current_range_meters":16000,"station_id":"cpo36qri1sfpv3e86is0","pricing_plan_id":"cebpf4jnsgd1na2vs0mg"},{"bike_id":"fdcf8461-9126-45cd-96d4-f0f9a7c23549","system_id":"levelo_inurba_marseille","lat":43.29423,"lon":5.38639,"is_reserved":false,"is_disabled":false,"rental_uris":{"android":"levelo://app?vid=fdcf8461-9126-45cd-96d4-f0f9a7c23549","ios":"levelo://app?vid=fdcf8461-9126-45cd-96d4-f0f9a7c23549"},"vehicle_type_id":"4","last_reported":1745010506,"current_range_meters":16000,"station_id":"ce4bh2h2rcd13ifvqdh0","pricing_plan_id":"cebpf4jnsgd1na2vs0mg"},{"bike_id":"bf71340b-9e94-492b-85ca-b4453004b630","system_id":"levelo_inurba_marseille","lat":43.29257,"lon":5.384389,"is_reserved":false,"is_disabled":false,"rental_uris":{"android":"levelo://app?vid=bf71340b-9e94-492b-85ca-b4453004b630","ios":"levelo://app?vid=bf71340b-9e94-492b-85ca-b4453004b630"},"vehicle_type_id":"4","last_reported":1745010506,"current_range_meters":16000,"station_id":"ce4bh692rcd13ifvqea0","pricing_plan_id":"cebpf4jnsgd1na2vs0mg"},{"bike_id":"ffc4bad2-d179-44f7-9487-49b26f41f620","system_id":"levelo_inurba_marseille","lat":43.28666,"lon":5.38661,"is_reserved":false,"is_disabled":false,"rental_uris":{"android":"levelo://app?vid=ffc4bad2-d179-44f7-9487-49b26f41f620","ios":"levelo://app?vid=ffc4bad2-d179-44f7-9487-49b26f41f620"},"vehicle_type_id":"4","last_reported":1745010506,"current_range_meters":16000,"station_id":"ce4bh492rcd13ifvqdug","pricing_plan_id":"cebpf4jnsgd1na2vs0mg"},{"bike_id":"9f0c4047-3c9c-4aae-a878-fd6243e07f6e","system_id":"levelo_inurba_marseille","lat":43.34342,"lon":5.40682,"is_reserved":false,"is_disabled":false,"rental_uris":{"android":"levelo://app?vid=9f0c4047-3c9c-4aae-a878-fd6243e07f6e","ios":"levelo://app?vid=9f0c4047-3c9c-4aae-a878-fd6243e07f6e"},"vehicle_type_id":"4","last_reported":1745010506,"current_range_meters":16000,"station_id":"","pricing_plan_id":"cebpf4jnsgd1na2vs0mg"},{"bike_id":"745eb328-cde3-4e08-9f6c-067dede7c586","system_id":"levelo_inurba_marseille","lat":43.29127,"lon":5.37949,"is_reserved":false,"is_disabled":false,"rental_uris":{"android":"levelo://app?vid=745eb328-cde3-4e08-9f6c-067dede7c586","ios":"levelo://app?vid=745eb328-cde3-4e08-9f6c-067dede7c586"},"vehicle_type_id":"4","last_reported":1745010506,"current_range_meters":16000,"station_id":"","pricing_plan_id":"cebpf4jnsgd1na2vs0mg"},{"bike_id":"22d34b94-2150-43c9-b590-d4badf3e1451","system_id":"levelo_inurba_marseille","lat":43.28344,"lon":5.38111,"is_reserved":false,"is_disabled":false,"rental_uris":{"android":"levelo://app?vid=22d34b94-2150-43c9-b590-d4badf3e1451","ios":"levelo://app?vid=22d34b94-2150-43c9-b590-d4badf3e1451"},"vehicle_type_id":"4","last_reported":1745010506,"current_range_meters":16000,"station_id":"ce4bh412rcd13ifvqdr0","pricing_plan_id":"cebpf4jnsgd1na2vs0mg"},{"bike_id":"2ca1a0d2-de2f-4ac9-80f2-106cbc875413","system_id":"levelo_inurba_marseille","lat":43.323803,"lon":5.388777,"is_reserved":false,"is_disabled":false,"rental_uris":{"android":"levelo://app?vid=2ca1a0d2-de2f-4ac9-80f2-106cbc875413","ios":"levelo://app?vid=2ca1a0d2-de2f-4ac9-80f2-106cbc875413"},"vehicle_type_id":"4","last_reported":1745010506,"current_range_meters":16000,"station_id":"ce4bhqp2rcd13ifvqhog","pricing_plan_id":"cebpf4jnsgd1na2vs0mg"},{"bike_id":"627baf82-a262-4ad1-94a8-8dda0bc3a8e8","system_id":"levelo_inurba_marseille","lat":43.29074,"lon":5.37179,"is_reserved":false,"is_disabled":false,"rental_uris":{"android":"levelo://app?vid=627baf82-a262-4ad1-94a8-8dda0bc3a8e8","ios":"levelo://app?vid=627baf82-a262-4ad1-94a8-8dda0bc3a8e8"},"vehicle_type_id":"4","last_reported":1745010506,"current_range_meters":16000,"station_id":"ce4bh5p2rcd13ifvqe4g","pricing_plan_id":"cebpf4jnsgd1na2vs0mg"},{"bike_id":"c8db4898-7a08-4cf5-9f2a-5e806af18e24","system_id":"levelo_inurba_marseille","lat":43.29412,"lon":5.38631,"is_reserved":false,"is_disabled":false,"rental_uris":{"android":"levelo://app?vid=c8db4898-7a08-4cf5-9f2a-5e806af18e24","ios":"levelo://app?vid=c8db4898-7a08-4cf5-9f2a-5e806af18e24"},"vehicle_type_id":"4","last_reported":1745010506,"current_range_meters":16000,"station_id":"ce4bh2h2rcd13ifvqdh0","pricing_plan_id":"cebpf4jnsgd1na2vs0mg"},{"bike_id":"e9f79b93-45d9-4ee0-8194-36d0bad6b318","system_id":"levelo_inurba_marseille","lat":43.28674,"lon":5.36356,"is_reserved":false,"is_disabled":false,"rental_uris":{"android":"levelo://app?vid=e9f79b93-45d9-4ee0-8194-36d0bad6b318","ios":"levelo://app?vid=e9f79b93-45d9-4ee0-8194-36d0bad6b318"},"vehicle_type_id":"4","last_reported":1745010506,"current_range_meters":16000,"station_id":"ce4bhah2rcd13ifvqej0","pricing_plan_id":"cebpf4jnsgd1na2vs0mg"},{"bike_id":"b630ea12-d5c7-4df1-8af7-206004c04e7a","system_id":"levelo_inurba_marseille","lat":43.246635,"lon":5.381693,"is_reserved":false,"is_disabled":false,"rental_uris":{"android":"levelo://app?vid=b630ea12-d5c7-4df1-8af7-206004c04e7a","ios":"levelo://app?vid=b630ea12-d5c7-4df1-8af7-206004c04e7a"},"vehicle_type_id":"4","last_reported":1745010506,"current_range_meters":16400,"station_id":"ce4bhih2rcd13ifvqfr0","pricing_plan_id":"cebpf4jnsgd1na2vs0mg"},{"bike_id":"aef6e5b4-d780-47da-94ca-2c98d3cd03d1","system_id":"levelo_inurba_marseille","lat":43.294169,"lon":5.386214,"is_reserved":false,"is_disabled":false,"rental_uris":{"android":"levelo://app?vid=aef6e5b4-d780-47da-94ca-2c98d3cd03d1","ios":"levelo://app?vid=aef6e5b4-d780-47da-94ca-2c98d3cd03d1"},"vehicle_type_id":"4","last_reported":1745010506,"current_range_meters":16000,"station_id":"ce4bh012rcd13ifvqcv0","pricing_plan_id":"cebpf4jnsgd1na2vs0mg"},{"bike_id":"ce3fee90-b321-4105-971f-27349ec005fb","system_id":"levelo_inurba_marseille","lat":43.22884,"lon":5.35253,"is_reserved":false,"is_disabled":false,"rental_uris":{"android":"levelo://app?vid=ce3fee90-b321-4105-971f-27349ec005fb","ios":"levelo://app?vid=ce3fee90-b321-4105-971f-27349ec005fb"},"vehicle_type_id":"4","last_reported":1745010506,"current_range_meters":16400,"station_id":"cpo3532slgdg3j2ikp40","pricing_plan_id":"cebpf4jnsgd1na2vs0mg"},{"bike_id":"a5247bbb-c264-4162-84a6-aefb68749355","system_id":"levelo_inurba_marseille","lat":43.24808,"lon":5.37463,"is_reserved":false,"is_disabled":false,"rental_uris":{"android":"levelo://app?vid=a5247bbb-c264-4162-84a6-aefb68749355","ios":"levelo://app?vid=a5247bbb-c264-4162-84a6-aefb68749355"},"vehicle_type_id":"4","last_reported":1745010506,"current_range_meters":16400,"station_id":"ce4bhgh2rcd13ifvqfb0","pricing_plan_id":"cebpf4jnsgd1na2vs0mg"},{"bike_id":"8a4ae6ba-be6f-474f-885c-41034735d41e","system_id":"levelo_inurba_marseille","lat":43.32109,"lon":5.36767,"is_reserved":false,"is_disabled":false,"rental_uris":{"android":"levelo://app?vid=8a4ae6ba-be6f-474f-885c-41034735d41e","ios":"levelo://app?vid=8a4ae6ba-be6f-474f-885c-41034735d41e"},"vehicle_type_id":"4","last_reported":1745010506,"current_range_meters":16400,"station_id":"ce4bhrh2rcd13ifvqhug","pricing_plan_id":"cebpf4jnsgd1na2vs0mg"},{"bike_id":"343406d9-08d9-46fe-b35a-6f875b542c07","system_id":"levelo_inurba_marseille","lat":43.23059,"lon":5.35501,"is_reserved":false,"is_disabled":true,"rental_uris":{"android":"levelo://app?vid=343406d9-08d9-46fe-b35a-6f875b542c07","ios":"levelo://app?vid=343406d9-08d9-46fe-b35a-6f875b542c07"},"vehicle_type_id":"4","last_reported":1745010506,"current_range_meters":16400,"station_id":"cpo3342slgdg3j2ifvpg","pricing_plan_id":"cebpf4jnsgd1na2vs0mg"},{"bike_id":"38c99a1f-9330-48c7-bd2a-233cc46a174d","system_id":"levelo_inurba_marseille","lat":43.3122,"lon":5.36864,"is_reserved":false,"is_disabled":false,"rental_uris":{"android":"levelo://app?vid=38c99a1f-9330-48c7-bd2a-233cc46a174d","ios":"levelo://app?vid=38c99a1f-9330-48c7-bd2a-233cc46a174d"},"vehicle_type_id":"4","last_reported":1745010506,"current_range_meters":16400,"station_id":"ce4bgl92rcd13ifvqbq0","pricing_plan_id":"cebpf4jnsgd1na2vs0mg"},{"bike_id":"edf3f44b-5904-48ae-a2d3-1024d8d33ca0","system_id":"levelo_inurba_marseille","lat":43.279957,"lon":5.416652,"is_reserved":false,"is_disabled":false,"rental_uris":{"android":"levelo://app?vid=edf3f44b-5904-48ae-a2d3-1024d8d33ca0","ios":"levelo://app?vid=edf3f44b-5904-48ae-a2d3-1024d8d33ca0"},"vehicle_type_id":"4","last_reported":1745010506,"current_range_meters":16400,"station_id":"ce4bho12rcd13ifvqh1g","pricing_plan_id":"cebpf4jnsgd1na2vs0mg"},{"bike_id":"084dd57b-f009-46c7-bbc6-9dfc3a81f85b","system_id":"levelo_inurba_marseille","lat":43.29266,"lon":5.38431,"is_reserved":false,"is_disabled":false,"rental_uris":{"android":"levelo://app?vid=084dd57b-f009-46c7-bbc6-9dfc3a81f85b","ios":"levelo://app?vid=084dd57b-f009-46c7-bbc6-9dfc3a81f85b"},"vehicle_type_id":"4","last_reported":1745010506,"current_range_meters":16400,"station_id":"ce4bh692rcd13ifvqea0","pricing_plan_id":"cebpf4jnsgd1na2vs0mg"},{"bike_id":"7a794c2b-98cd-4228-bc0a-542fb12b1915","system_id":"levelo_inurba_marseille","lat":43.29529,"lon":5.3855,"is_reserved":false,"is_disabled":false,"rental_uris":{"android":"levelo://app?vid=7a794c2b-98cd-4228-bc0a-542fb12b1915","ios":"levelo://app?vid=7a794c2b-98cd-4228-bc0a-542fb12b1915"},"vehicle_type_id":"4","last_reported":1745010506,"current_range_meters":16400,"station_id":"ce4bgih2rcd13ifvqba0","pricing_plan_id":"cebpf4jnsgd1na2vs0mg"},{"bike_id":"5e4e34d9-4af5-4ac4-b244-b1164744d564","system_id":"levelo_inurba_marseille","lat":43.29399,"lon":5.38638,"is_reserved":false,"is_disabled":false,"rental_uris":{"android":"levelo://app?vid=5e4e34d9-4af5-4ac4-b244-b1164744d564","ios":"levelo://app?vid=5e4e34d9-4af5-4ac4-b244-b1164744d564"},"vehicle_type_id":"4","last_reported":1745010506,"current_range_meters":16400,"station_id":"ce4bh2h2rcd13ifvqdh0","pricing_plan_id":"cebpf4jnsgd1na2vs0mg"},{"bike_id":"b91b1fba-b95d-48a3-8bdd-ad86ec5c7b06","system_id":"levelo_inurba_marseille","lat":43.29417,"lon":5.38639,"is_reserved":false,"is_disabled":false,"rental_uris":{"android":"levelo://app?vid=b91b1fba-b95d-48a3-8bdd-ad86ec5c7b06","ios":"levelo://app?vid=b91b1fba-b95d-48a3-8bdd-ad86ec5c7b06"},"vehicle_type_id":"4","last_reported":1745010506,"current_range_meters":16400,"station_id":"ce4bh2h2rcd13ifvqdh0","pricing_plan_id":"cebpf4jnsgd1na2vs0mg"},{"bike_id":"d3598396-678d-4eb4-abf8-c225a1460334","system_id":"levelo_inurba_marseille","lat":43.30378,"lon":5.42486,"is_reserved":false,"is_disabled":false,"rental_uris":{"android":"levelo://app?vid=d3598396-678d-4eb4-abf8-c225a1460334","ios":"levelo://app?vid=d3598396-678d-4eb4-abf8-c225a1460334"},"vehicle_type_id":"4","last_reported":1745010506,"current_range_meters":16800,"station_id":"ce4bhoh2rcd13ifvqh6g","pricing_plan_id":"cebpf4jnsgd1na2vs0mg"},{"bike_id":"11f9e3a0-841a-4ea0-a238-a1ae4c2bb14c","system_id":"levelo_inurba_marseille","lat":43.28839,"lon":5.35861,"is_reserved":false,"is_disabled":false,"rental_uris":{"android":"levelo://app?vid=11f9e3a0-841a-4ea0-a238-a1ae4c2bb14c","ios":"levelo://app?vid=11f9e3a0-841a-4ea0-a238-a1ae4c2bb14c"},"vehicle_type_id":"4","last_reported":1745010506,"current_range_meters":16800,"station_id":"ce4bhb12rcd13ifvqem0","pricing_plan_id":"cebpf4jnsgd1na2vs0mg"},{"bike_id":"24213b37-b766-4d9c-a174-f6bf34920497","system_id":"levelo_inurba_marseille","lat":43.28469,"lon":5.384178,"is_reserved":false,"is_disabled":false,"rental_uris":{"android":"levelo://app?vid=24213b37-b766-4d9c-a174-f6bf34920497","ios":"levelo://app?vid=24213b37-b766-4d9c-a174-f6bf34920497"},"vehicle_type_id":"4","last_reported":1745010506,"current_range_meters":16800,"station_id":"ce4bh512rcd13ifvqe3g","pricing_plan_id":"cebpf4jnsgd1na2vs0mg"},{"bike_id":"f4b13962-bd66-4a89-a871-47998935350f","system_id":"levelo_inurba_marseille","lat":43.29423,"lon":5.38611,"is_reserved":false,"is_disabled":false,"rental_uris":{"android":"levelo://app?vid=f4b13962-bd66-4a89-a871-47998935350f","ios":"levelo://app?vid=f4b13962-bd66-4a89-a871-47998935350f"},"vehicle_type_id":"4","last_reported":1745010506,"current_range_meters":16800,"station_id":"ce4bh2h2rcd13ifvqdh0","pricing_plan_id":"cebpf4jnsgd1na2vs0mg"},{"bike_id":"c20245a4-3ab1-4f84-a208-4fc907e282c2","system_id":"levelo_inurba_marseille","lat":43.29413,"lon":5.38642,"is_reserved":false,"is_disabled":false,"rental_uris":{"android":"levelo://app?vid=c20245a4-3ab1-4f84-a208-4fc907e282c2","ios":"levelo://app?vid=c20245a4-3ab1-4f84-a208-4fc907e282c2"},"vehicle_type_id":"4","last_reported":1745010506,"current_range_meters":16800,"station_id":"ce4bh2h2rcd13ifvqdh0","pricing_plan_id":"cebpf4jnsgd1na2vs0mg"},{"bike_id":"296350a4-7455-4598-aa77-077e58fc0eab","system_id":"levelo_inurba_marseille","lat":43.31327,"lon":5.3969,"is_reserved":false,"is_disabled":true,"rental_uris":{"android":"levelo://app?vid=296350a4-7455-4598-aa77-077e58fc0eab","ios":"levelo://app?vid=296350a4-7455-4598-aa77-077e58fc0eab"},"vehicle_type_id":"4","last_reported":1745010506,"current_range_meters":16800,"station_id":"ce4bgvp2rcd13ifvqcu0","pricing_plan_id":"cebpf4jnsgd1na2vs0mg"},{"bike_id":"5c87a66e-a468-4c06-bf6a-016059f2b476","system_id":"levelo_inurba_marseille","lat":43.229263,"lon":5.353897,"is_reserved":false,"is_disabled":false,"rental_uris":{"android":"levelo://app?vid=5c87a66e-a468-4c06-bf6a-016059f2b476","ios":"levelo://app?vid=5c87a66e-a468-4c06-bf6a-016059f2b476"},"vehicle_type_id":"4","last_reported":1745010506,"current_range_meters":16800,"station_id":"cpo3532slgdg3j2ikp40","pricing_plan_id":"cebpf4jnsgd1na2vs0mg"},{"bike_id":"066ae9f5-4939-4fe5-b4a8-c85c525f95a7","system_id":"levelo_inurba_marseille","lat":43.29938,"lon":5.38529,"is_reserved":false,"is_disabled":true,"rental_uris":{"android":"levelo://app?vid=066ae9f5-4939-4fe5-b4a8-c85c525f95a7","ios":"levelo://app?vid=066ae9f5-4939-4fe5-b4a8-c85c525f95a7"},"vehicle_type_id":"4","last_reported":1745010506,"current_range_meters":17200,"station_id":"","pricing_plan_id":"cebpf4jnsgd1na2vs0mg"},{"bike_id":"4e6892ef-dbe3-43e4-bc69-b2da5d802c90","system_id":"levelo_inurba_marseille","lat":43.27372,"lon":5.3626,"is_reserved":false,"is_disabled":true,"rental_uris":{"android":"levelo://app?vid=4e6892ef-dbe3-43e4-bc69-b2da5d802c90","ios":"levelo://app?vid=4e6892ef-dbe3-43e4-bc69-b2da5d802c90"},"vehicle_type_id":"4","last_reported":1745010506,"current_range_meters":17200,"station_id":"ce4bhbh2rcd13ifvqeo0","pricing_plan_id":"cebpf4jnsgd1na2vs0mg"},{"bike_id":"9f45b2bf-53d1-4e39-9a64-fb391bdbd395","system_id":"levelo_inurba_marseille","lat":43.33746,"lon":5.39181,"is_reserved":false,"is_disabled":false,"rental_uris":{"android":"levelo://app?vid=9f45b2bf-53d1-4e39-9a64-fb391bdbd395","ios":"levelo://app?vid=9f45b2bf-53d1-4e39-9a64-fb391bdbd395"},"vehicle_type_id":"4","last_reported":1745010506,"current_range_meters":17200,"station_id":"ce4bhr92rcd13ifvqhsg","pricing_plan_id":"cebpf4jnsgd1na2vs0mg"},{"bike_id":"5f3d3faa-92c1-414e-a4d3-e1ee3d7a70eb","system_id":"levelo_inurba_marseille","lat":43.29548,"lon":5.42285,"is_reserved":false,"is_disabled":false,"rental_uris":{"android":"levelo://app?vid=5f3d3faa-92c1-414e-a4d3-e1ee3d7a70eb","ios":"levelo://app?vid=5f3d3faa-92c1-414e-a4d3-e1ee3d7a70eb"},"vehicle_type_id":"4","last_reported":1745010506,"current_range_meters":17200,"station_id":"ce4bhph2rcd13ifvqhdg","pricing_plan_id":"cebpf4jnsgd1na2vs0mg"},{"bike_id":"a2e9115c-32d7-46ff-b281-864ecf24b1c0","system_id":"levelo_inurba_marseille","lat":43.29534,"lon":5.38547,"is_reserved":false,"is_disabled":false,"rental_uris":{"android":"levelo://app?vid=a2e9115c-32d7-46ff-b281-864ecf24b1c0","ios":"levelo://app?vid=a2e9115c-32d7-46ff-b281-864ecf24b1c0"},"vehicle_type_id":"4","last_reported":1745010506,"current_range_meters":17200,"station_id":"ce4bgih2rcd13ifvqba0","pricing_plan_id":"cebpf4jnsgd1na2vs0mg"},{"bike_id":"e9d2245c-ff5f-4485-98cc-077689d90927","system_id":"levelo_inurba_marseille","lat":43.290317,"lon":5.38631,"is_reserved":false,"is_disabled":false,"rental_uris":{"android":"levelo://app?vid=e9d2245c-ff5f-4485-98cc-077689d90927","ios":"levelo://app?vid=e9d2245c-ff5f-4485-98cc-077689d90927"},"vehicle_type_id":"4","last_reported":1745010506,"current_range_meters":17200,"station_id":"ce4bh4p2rcd13ifvqe0g","pricing_plan_id":"cebpf4jnsgd1na2vs0mg"},{"bike_id":"7b05c5f0-bbf1-49d5-a5f1-96f76430bf4e","system_id":"levelo_inurba_marseille","lat":43.28697,"lon":5.39995,"is_reserved":false,"is_disabled":false,"rental_uris":{"android":"levelo://app?vid=7b05c5f0-bbf1-49d5-a5f1-96f76430bf4e","ios":"levelo://app?vid=7b05c5f0-bbf1-49d5-a5f1-96f76430bf4e"},"vehicle_type_id":"4","last_reported":1745010506,"current_range_meters":17200,"station_id":"ce4bho92rcd13ifvqh3g","pricing_plan_id":"cebpf4jnsgd1na2vs0mg"},{"bike_id":"33302dfc-2d96-4dc3-97f3-23a6e00fbb6b","system_id":"levelo_inurba_marseille","lat":43.29419,"lon":5.38638,"is_reserved":false,"is_disabled":false,"rental_uris":{"android":"levelo://app?vid=33302dfc-2d96-4dc3-97f3-23a6e00fbb6b","ios":"levelo://app?vid=33302dfc-2d96-4dc3-97f3-23a6e00fbb6b"},"vehicle_type_id":"4","last_reported":1745010506,"current_range_meters":17600,"station_id":"ce4bh2h2rcd13ifvqdh0","pricing_plan_id":"cebpf4jnsgd1na2vs0mg"},{"bike_id":"d05b7cc4-f88b-4d02-ae6c-c344f22c0e5c","system_id":"levelo_inurba_marseille","lat":43.2977,"lon":5.36556,"is_reserved":false,"is_disabled":false,"rental_uris":{"android":"levelo://app?vid=d05b7cc4-f88b-4d02-ae6c-c344f22c0e5c","ios":"levelo://app?vid=d05b7cc4-f88b-4d02-ae6c-c344f22c0e5c"},"vehicle_type_id":"4","last_reported":1745010506,"current_range_meters":17600,"station_id":"","pricing_plan_id":"cebpf4jnsgd1na2vs0mg"},{"bike_id":"8b386a13-d7ce-4797-850b-d66b405de4c3","system_id":"levelo_inurba_marseille","lat":43.29505,"lon":5.37457,"is_reserved":false,"is_disabled":false,"rental_uris":{"android":"levelo://app?vid=8b386a13-d7ce-4797-850b-d66b405de4c3","ios":"levelo://app?vid=8b386a13-d7ce-4797-850b-d66b405de4c3"},"vehicle_type_id":"4","last_reported":1745010506,"current_range_meters":17600,"station_id":"ce4bgkp2rcd13ifvqbmg","pricing_plan_id":"cebpf4jnsgd1na2vs0mg"},{"bike_id":"d627bbb4-12cb-4b4a-8862-160252772b11","system_id":"levelo_inurba_marseille","lat":43.27365,"lon":5.36256,"is_reserved":false,"is_disabled":false,"rental_uris":{"android":"levelo://app?vid=d627bbb4-12cb-4b4a-8862-160252772b11","ios":"levelo://app?vid=d627bbb4-12cb-4b4a-8862-160252772b11"},"vehicle_type_id":"4","last_reported":1745010506,"current_range_meters":17600,"station_id":"ce4bhbh2rcd13ifvqeo0","pricing_plan_id":"cebpf4jnsgd1na2vs0mg"},{"bike_id":"17265275-436b-400a-b926-22444d0de0b5","system_id":"levelo_inurba_marseille","lat":43.30546,"lon":5.3654,"is_reserved":false,"is_disabled":false,"rental_uris":{"android":"levelo://app?vid=17265275-436b-400a-b926-22444d0de0b5","ios":"levelo://app?vid=17265275-436b-400a-b926-22444d0de0b5"},"vehicle_type_id":"4","last_reported":1745010506,"current_range_meters":17600,"station_id":"ce4bgs12rcd13ifvqcag","pricing_plan_id":"cebpf4jnsgd1na2vs0mg"},{"bike_id":"b7b9a4a4-d866-4f54-a7f8-2aac403bb471","system_id":"levelo_inurba_marseille","lat":43.29422,"lon":5.38637,"is_reserved":false,"is_disabled":false,"rental_uris":{"android":"levelo://app?vid=b7b9a4a4-d866-4f54-a7f8-2aac403bb471","ios":"levelo://app?vid=b7b9a4a4-d866-4f54-a7f8-2aac403bb471"},