{"last_updated":1748369631,"ttl":60,"version":"2.2","data":{"bikes":[{"bike_id":"da8a833e-42cd-46f1-bffb-3aabe9215d83","system_id":"levelo_inurba_marseille","lat":43.29195,"lon":5.39316,"is_reserved":false,"is_disabled":false,"rental_uris":{"android":"levelo://app?vid=da8a833e-42cd-46f1-bffb-3aabe9215d83","ios":"levelo://app?vid=da8a833e-42cd-46f1-bffb-3aabe9215d83"},"vehicle_type_id":"4","last_reported":1748369631,"current_range_meters":2800,"station_id":"ce4bh192rcd13ifvqdd0","pricing_plan_id":"cebpf4jnsgd1na2vs0mg"},{"bike_id":"32aa8303-5a91-4064-b042-6b75f5d07663","system_id":"levelo_inurba_marseille","lat":43.27814,"lon":5.40711,"is_reserved":false,"is_disabled":false,"rental_uris":{"android":"levelo://app?vid=32aa8303-5a91-4064-b042-6b75f5d07663","ios":"levelo://app?vid=32aa8303-5a91-4064-b042-6b75f5d07663"},"vehicle_type_id":"4","last_reported":1748369631,"current_range_meters":2800,"station_id":"ce4bhnh2rcd13ifvqgtg","pricing_plan_id":"cebpf4jnsgd1na2vs0mg"},{"bike_id":"055753b0-202d-497e-8f0c-ba428274d4d8","system_id":"levelo_inurba_marseille","lat":43.31112,"lon":5.3778,"is_reserved":false,"is_disabled":false,"rental_uris":{"android":"levelo://app?vid=055753b0-202d-497e-8f0c-ba428274d4d8","ios":"levelo://app?vid=055753b0-202d-497e-8f0c-ba428274d4d8"},"vehicle_type_id":"4","last_reported":1748369631,"current_range_meters":2800,"station_id":"ce4bgt92rcd13ifvqcg0","pricing_plan_id":"cebpf4jnsgd1na2vs0mg"},{"bike_id":"82cddb6f-94cd-4d95-a464-9ba57ed0659b","system_id":"levelo_inurba_marseille","lat":43.30741,"lon":5.42436,"is_reserved":false,"is_disabled":false,"rental_uris":{"android":"levelo://app?vid=82cddb6f-94cd-4d95-a464-9ba57ed0659b","ios":"levelo://app?vid=82cddb6f-94cd-4d95-a464-9ba57ed0659b"},"vehicle_type_id":"4","last_reported":1748369631,"current_range_meters":2800,"station_id":"st_cvj6ca6bvosntc0bfgr0","pricing_plan_id":"cebpf4jnsgd1na2vs0mg"},{"bike_id":"ee954ce9-446c-4860-8430-943dd9c67af4","system_id":"levelo_inurba_marseille","lat":43.25111,"lon":5.40324,"is_reserved":false,"is_disabled":false,"rental_uris":{"android":"levelo://app?vid=ee954ce9-446c-4860-8430-943dd9c67af4","ios":"levelo://app?vid=ee954ce9-446c-4860-8430-943dd9c67af4"},"vehicle_type_id":"4","last_reported":1748369631,"current_range_meters":2800,"station_id":"ce4bhlh2rcd13ifvqgig","pricing_plan_id":"cebpf4jnsgd1na2vs0mg"},{"bike_id":"dde1a4eb-8179-470e-98cc-3f0f6c7bfccc","system_id":"levelo_inurba_marseille","lat":43.29414,"lon":5.38633,"is_reserved":false,"is_disabled":false,"rental_uris":{"android":"levelo://app?vid=dde1a4eb-8179-470e-98cc-3f0f6c7bfccc","ios":"levelo://app?vid=dde1a4eb-8179-470e-98cc-3f0f6c7bfccc"},"vehicle_type_id":"4","last_reported":1748369631,"current_range_meters":2800,"station_id":"ce4bh2h2rcd13ifvqdh0","pricing_plan_id":"cebpf4jnsgd1na2vs0mg"},{"bike_id":"9a4e8d06-b339-497a-82eb-e2f084c3c269","system_id":"levelo_inurba_marseille","lat":43.24072,"lon":5.37767,"is_reserved":false,"is_disabled":false,"rental_uris":{"android":"levelo://app?vid=9a4e8d06-b339-497a-82eb-e2f084c3c269","ios":"levelo://app?vid=9a4e8d06-b339-497a-82eb-e2f084c3c269"},"vehicle_type_id":"4","last_reported":1748369631,"current_range_meters":2800,"station_id":"ce4bhnp2rcd13ifvqgvg","pricing_plan_id":"cebpf4jnsgd1na2vs0mg"},{"bike_id":"ae5ea4b0-3d9c-46ea-81bd-63c777ea6f83","system_id":"levelo_inurba_marseille","lat":43.26221,"lon":5.40454,"is_reserved":false,"is_disabled":false,"rental_uris":{"android":"levelo://app?vid=ae5ea4b0-3d9c-46ea-81bd-63c777ea6f83","ios":"levelo://app?vid=ae5ea4b0-3d9c-46ea-81bd-63c777ea6f83"},"vehicle_type_id":"4","last_reported":1748369631,"current_range_meters":3200,"station_id":"ce4bhmh2rcd13ifvqgmg","pricing_plan_id":"cebpf4jnsgd1na2vs0mg"},{"bike_id":"fc400eb8-69ff-40a6-a44e-c1689214a22b","system_id":"levelo_inurba_marseille","lat":43.29445,"lon":5.3976,"is_reserved":false,"is_disabled":false,"rental_uris":{"android":"levelo://app?vid=fc400eb8-69ff-40a6-a44e-c1689214a22b","ios":"levelo://app?vid=fc400eb8-69ff-40a6-a44e-c1689214a22b"},"vehicle_type_id":"4","last_reported":1748369631,"current_range_meters":2800,"station_id":"ce4bh3h2rcd13ifvqdo0","pricing_plan_id":"cebpf4jnsgd1na2vs0mg"},{"bike_id":"e0042bdd-442c-442c-aea0-992de8b19906","system_id":"levelo_inurba_marseille","lat":43.30805,"lon":5.38143,"is_reserved":false,"is_disabled":false,"rental_uris":{"android":"levelo://app?vid=e0042bdd-442c-442c-aea0-992de8b19906","ios":"levelo://app?vid=e0042bdd-442c-442c-aea0-992de8b19906"},"vehicle_type_id":"4","last_reported":1748369631,"current_range_meters":3200,"station_id":"ce4bgt12rcd13ifvqce0","pricing_plan_id":"cebpf4jnsgd1na2vs0mg"},{"bike_id":"19fe7b07-8b30-44fd-88aa-f576f850e48a","system_id":"levelo_inurba_marseille","lat":43.28105,"lon":5.3784,"is_reserved":false,"is_disabled":false,"rental_uris":{"android":"levelo://app?vid=19fe7b07-8b30-44fd-88aa-f576f850e48a","ios":"levelo://app?vid=19fe7b07-8b30-44fd-88aa-f576f850e48a"},"vehicle_type_id":"4","last_reported":1748369631,"current_range_meters":3200,"station_id":"ce4bha12rcd13ifvqee0","pricing_plan_id":"cebpf4jnsgd1na2vs0mg"},{"bike_id":"d0f4d136-d412-4cd4-afdb-4dd7acb4ac4d","system_id":"levelo_inurba_marseille","lat":43.28857,"lon":5.39316,"is_reserved":false,"is_disabled":false,"rental_uris":{"android":"levelo://app?vid=d0f4d136-d412-4cd4-afdb-4dd7acb4ac4d","ios":"levelo://app?vid=d0f4d136-d412-4cd4-afdb-4dd7acb4ac4d"},"vehicle_type_id":"4","last_reported":1748369631,"current_range_meters":3200,"station_id":"ce4bh2p2rcd13ifvqdi0","pricing_plan_id":"cebpf4jnsgd1na2vs0mg"},{"bike_id":"d7c51700-3565-42a2-9d0e-558c957361a3","system_id":"levelo_inurba_marseille","lat":43.3073,"lon":5.4245,"is_reserved":false,"is_disabled":false,"rental_uris":{"android":"levelo://app?vid=d7c51700-3565-42a2-9d0e-558c957361a3","ios":"levelo://app?vid=d7c51700-3565-42a2-9d0e-558c957361a3"},"vehicle_type_id":"4","last_reported":1748369631,"current_range_meters":3600,"station_id":"st_cvj6ca6bvosntc0bfgr0","pricing_plan_id":"cebpf4jnsgd1na2vs0mg"},{"bike_id":"9a2dae1d-bc9b-4f37-9d99-766cfa2155fa","system_id":"levelo_inurba_marseille","lat":43.303058,"lon":5.392146,"is_reserved":false,"is_disabled":false,"rental_uris":{"android":"levelo://app?vid=9a2dae1d-bc9b-4f37-9d99-766cfa2155fa","ios":"levelo://app?vid=9a2dae1d-bc9b-4f37-9d99-766cfa2155fa"},"vehicle_type_id":"4","last_reported":1748369631,"current_range_meters":3600,"station_id":"ce4bgkh2rcd13ifvqbk0","pricing_plan_id":"cebpf4jnsgd1na2vs0mg"},{"bike_id":"80ac6b6c-2922-4a4f-b8d1-944f0ed8f841","system_id":"levelo_inurba_marseille","lat":43.26561,"lon":5.40328,"is_reserved":false,"is_disabled":false,"rental_uris":{"android":"levelo://app?vid=80ac6b6c-2922-4a4f-b8d1-944f0ed8f841","ios":"levelo://app?vid=80ac6b6c-2922-4a4f-b8d1-944f0ed8f841"},"vehicle_type_id":"4","last_reported":1748369631,"current_range_meters":3600,"station_id":"","pricing_plan_id":"cebpf4jnsgd1na2vs0mg"},{"bike_id":"151ccb6a-084e-444f-b36e-57c808c754f5","system_id":"levelo_inurba_marseille","lat":43.28157,"lon":5.42643,"is_reserved":false,"is_disabled":false,"rental_uris":{"android":"levelo://app?vid=151ccb6a-084e-444f-b36e-57c808c754f5","ios":"levelo://app?vid=151ccb6a-084e-444f-b36e-57c808c754f5"},"vehicle_type_id":"4","last_reported":1748369631,"current_range_meters":3600,"station_id":"ce4bhnh2rcd13ifvqgug","pricing_plan_id":"cebpf4jnsgd1na2vs0mg"},{"bike_id":"68d70f13-fc49-4672-a830-ee7878902172","system_id":"levelo_inurba_marseille","lat":43.23971,"lon":5.36631,"is_reserved":false,"is_disabled":false,"rental_uris":{"android":"levelo://app?vid=68d70f13-fc49-4672-a830-ee7878902172","ios":"levelo://app?vid=68d70f13-fc49-4672-a830-ee7878902172"},"vehicle_type_id":"4","last_reported":1748369631,"current_range_meters":3200,"station_id":"ce4bhi12rcd13ifvqfp0","pricing_plan_id":"cebpf4jnsgd1na2vs0mg"},{"bike_id":"898b9e02-699b-401b-ab12-875ad1622803","system_id":"levelo_inurba_marseille","lat":43.30317,"lon":5.40437,"is_reserved":false,"is_disabled":false,"rental_uris":{"android":"levelo://app?vid=898b9e02-699b-401b-ab12-875ad1622803","ios":"levelo://app?vid=898b9e02-699b-401b-ab12-875ad1622803"},"vehicle_type_id":"4","last_reported":1748369631,"current_range_meters":4000,"station_id":"ce4bh012rcd13ifvqd10","pricing_plan_id":"cebpf4jnsgd1na2vs0mg"},{"bike_id":"381c722d-981a-47b0-a235-6541efb62d7e","system_id":"levelo_inurba_marseille","lat":43.27566,"lon":5.38455,"is_reserved":false,"is_disabled":false,"rental_uris":{"android":"levelo://app?vid=381c722d-981a-47b0-a235-6541efb62d7e","ios":"levelo://app?vid=381c722d-981a-47b0-a235-6541efb62d7e"},"vehicle_type_id":"4","last_reported":1748369631,"current_range_meters":4000,"station_id":"ce4bhh92rcd13ifvqfi0","pricing_plan_id":"cebpf4jnsgd1na2vs0mg"},{"bike_id":"fc56555b-396d-4667-b896-0ad86036e39e","system_id":"levelo_inurba_marseille","lat":43.2592,"lon":5.38026,"is_reserved":false,"is_disabled":false,"rental_uris":{"android":"levelo://app?vid=fc56555b-396d-4667-b896-0ad86036e39e","ios":"levelo://app?vid=fc56555b-396d-4667-b896-0ad86036e39e"},"vehicle_type_id":"4","last_reported":1748369631,"current_range_meters":4400,"station_id":"","pricing_plan_id":"cebpf4jnsgd1na2vs0mg"},{"bike_id":"96ebb28d-271d-425b-8056-fe684b43a797","system_id":"levelo_inurba_marseille","lat":43.27914,"lon":5.39642,"is_reserved":false,"is_disabled":false,"rental_uris":{"android":"levelo://app?vid=96ebb28d-271d-425b-8056-fe684b43a797","ios":"levelo://app?vid=96ebb28d-271d-425b-8056-fe684b43a797"},"vehicle_type_id":"4","last_reported":1748369631,"current_range_meters":4400,"station_id":"ce4bhf92rcd13ifvqf40","pricing_plan_id":"cebpf4jnsgd1na2vs0mg"},{"bike_id":"0f2b40f4-993d-4909-8298-1aff436c97d0","system_id":"levelo_inurba_marseille","lat":43.29433,"lon":5.39766,"is_reserved":false,"is_disabled":false,"rental_uris":{"android":"levelo://app?vid=0f2b40f4-993d-4909-8298-1aff436c97d0","ios":"levelo://app?vid=0f2b40f4-993d-4909-8298-1aff436c97d0"},"vehicle_type_id":"4","last_reported":1748369631,"current_range_meters":4400,"station_id":"ce4bh3h2rcd13ifvqdo0","pricing_plan_id":"cebpf4jnsgd1na2vs0mg"},{"bike_id":"e16251c9-99dc-4798-a584-dd7206f1835c","system_id":"levelo_inurba_marseille","lat":43.28268,"lon":5.35062,"is_reserved":false,"is_disabled":false,"rental_uris":{"android":"levelo://app?vid=e16251c9-99dc-4798-a584-dd7206f1835c","ios":"levelo://app?vid=e16251c9-99dc-4798-a584-dd7206f1835c"},"vehicle_type_id":"4","last_reported":1748369631,"current_range_meters":4400,"station_id":"ce4bhbp2rcd13ifvqerg","pricing_plan_id":"cebpf4jnsgd1na2vs0mg"},{"bike_id":"a4aef2b9-b7e8-4e2d-8340-592d28bc6c85","system_id":"levelo_inurba_marseille","lat":43.337654,"lon":5.37434,"is_reserved":false,"is_disabled":false,"rental_uris":{"android":"levelo://app?vid=a4aef2b9-b7e8-4e2d-8340-592d28bc6c85","ios":"levelo://app?vid=a4aef2b9-b7e8-4e2d-8340-592d28bc6c85"},"vehicle_type_id":"4","last_reported":1748369631,"current_range_meters":4400,"station_id":"","pricing_plan_id":"cebpf4jnsgd1na2vs0mg"},{"bike_id":"b744080c-dd77-486d-9609-00c9cf60c1ad","system_id":"levelo_inurba_marseille","lat":43.23633,"lon":5.39196,"is_reserved":false,"is_disabled":false,"rental_uris":{"android":"levelo://app?vid=b744080c-dd77-486d-9609-00c9cf60c1ad","ios":"levelo://app?vid=b744080c-dd77-486d-9609-00c9cf60c1ad"},"vehicle_type_id":"4","last_reported":1748369631,"current_range_meters":4400,"station_id":"","pricing_plan_id":"cebpf4jnsgd1na2vs0mg"},{"bike_id":"6cdb5c34-a995-4fff-877d-feb618c198ce","system_id":"levelo_inurba_marseille","lat":43.31171,"lon":5.38729,"is_reserved":false,"is_disabled":false,"rental_uris":{"android":"levelo://app?vid=6cdb5c34-a995-4fff-877d-feb618c198ce","ios":"levelo://app?vid=6cdb5c34-a995-4fff-877d-feb618c198ce"},"vehicle_type_id":"4","last_reported":1748369631,"current_range_meters":4000,"station_id":"ce4bgv12rcd13ifvqcp0","pricing_plan_id":"cebpf4jnsgd1na2vs0mg"},{"bike_id":"15a8229b-48eb-4165-894f-bf02395413b9","system_id":"levelo_inurba_marseille","lat":43.3132,"lon":5.39698,"is_reserved":false,"is_disabled":false,"rental_uris":{"android":"levelo://app?vid=15a8229b-48eb-4165-894f-bf02395413b9","ios":"levelo://app?vid=15a8229b-48eb-4165-894f-bf02395413b9"},"vehicle_type_id":"4","last_reported":1748369631,"current_range_meters":4000,"station_id":"ce4bgvp2rcd13ifvqcu0","pricing_plan_id":"cebpf4jnsgd1na2vs0mg"},{"bike_id":"70fb0e8b-898b-4c36-a32c-b0d83efa2a7c","system_id":"levelo_inurba_marseille","lat":43.3061,"lon":5.39332,"is_reserved":false,"is_disabled":false,"rental_uris":{"android":"levelo://app?vid=70fb0e8b-898b-4c36-a32c-b0d83efa2a7c","ios":"levelo://app?vid=70fb0e8b-898b-4c36-a32c-b0d83efa2a7c"},"vehicle_type_id":"4","last_reported":1748369631,"current_range_meters":4800,"station_id":"ce4bh0p2rcd13ifvqd80","pricing_plan_id":"cebpf4jnsgd1na2vs0mg"},{"bike_id":"a3fdfab4-cb8b-4639-a8f9-ac99f398c758","system_id":"levelo_inurba_marseille","lat":43.24172,"lon":5.36396,"is_reserved":false,"is_disabled":false,"rental_uris":{"android":"levelo://app?vid=a3fdfab4-cb8b-4639-a8f9-ac99f398c758","ios":"levelo://app?vid=a3fdfab4-cb8b-4639-a8f9-ac99f398c758"},"vehicle_type_id":"4","last_reported":1748369631,"current_range_meters":4800,"station_id":"cpo36qri1sfpv3e86is0","pricing_plan_id":"cebpf4jnsgd1na2vs0mg"},{"bike_id":"df394d4e-4548-4285-8fb9-6d61a283a365","system_id":"levelo_inurba_marseille","lat":43.3031,"lon":5.36889,"is_reserved":false,"is_disabled":false,"rental_uris":{"android":"levelo://app?vid=df394d4e-4548-4285-8fb9-6d61a283a365","ios":"levelo://app?vid=df394d4e-4548-4285-8fb9-6d61a283a365"},"vehicle_type_id":"4","last_reported":1748369631,"current_range_meters":4800,"station_id":"ce4bgqh2rcd13ifvqc5g","pricing_plan_id":"cebpf4jnsgd1na2vs0mg"},{"bike_id":"d9e3e538-753e-4af0-a36b-355714d3149d","system_id":"levelo_inurba_marseille","lat":43.29868,"lon":5.39728,"is_reserved":false,"is_disabled":false,"rental_uris":{"android":"levelo://app?vid=d9e3e538-753e-4af0-a36b-355714d3149d","ios":"levelo://app?vid=d9e3e538-753e-4af0-a36b-355714d3149d"},"vehicle_type_id":"4","last_reported":1748369631,"current_range_meters":4800,"station_id":"ce4bh0h2rcd13ifvqd50","pricing_plan_id":"cebpf4jnsgd1na2vs0mg"},{"bike_id":"3f1ccbd2-5335-4a66-a0a0-1612c19092cb","system_id":"levelo_inurba_marseille","lat":43.25755,"lon":5.37637,"is_reserved":false,"is_disabled":false,"rental_uris":{"android":"levelo://app?vid=3f1ccbd2-5335-4a66-a0a0-1612c19092cb","ios":"levelo://app?vid=3f1ccbd2-5335-4a66-a0a0-1612c19092cb"},"vehicle_type_id":"4","last_reported":1748369631,"current_range_meters":13600,"station_id":"","pricing_plan_id":"cebpf4jnsgd1na2vs0mg"},{"bike_id":"37dd00e0-2fa7-45b9-8bf8-8376a14af209","system_id":"levelo_inurba_marseille","lat":43.29267,"lon":5.36853,"is_reserved":false,"is_disabled":false,"rental_uris":{"android":"levelo://app?vid=37dd00e0-2fa7-45b9-8bf8-8376a14af209","ios":"levelo://app?vid=37dd00e0-2fa7-45b9-8bf8-8376a14af209"},"vehicle_type_id":"4","last_reported":1748369631,"current_range_meters":5600,"station_id":"ce4bhbp2rcd13ifvqesg","pricing_plan_id":"cebpf4jnsgd1na2vs0mg"},{"bike_id":"2acf717d-23db-4d4c-b4a4-d147f4be54c5","system_id":"levelo_inurba_marseille","lat":43.28697,"lon":5.3739,"is_reserved":false,"is_disabled":false,"rental_uris":{"android":"levelo://app?vid=2acf717d-23db-4d4c-b4a4-d147f4be54c5","ios":"levelo://app?vid=2acf717d-23db-4d4c-b4a4-d147f4be54c5"},"vehicle_type_id":"4","last_reported":1748369631,"current_range_meters":4800,"station_id":"ce4bh3p2rcd13ifvqdq0","pricing_plan_id":"cebpf4jnsgd1na2vs0mg"},{"bike_id":"b90a1741-ff58-4f93-af8a-6ed3ec765f04","system_id":"levelo_inurba_marseille","lat":43.27559,"lon":5.38433,"is_reserved":false,"is_disabled":false,"rental_uris":{"android":"levelo://app?vid=b90a1741-ff58-4f93-af8a-6ed3ec765f04","ios":"levelo://app?vid=b90a1741-ff58-4f93-af8a-6ed3ec765f04"},"vehicle_type_id":"4","last_reported":1748369631,"current_range_meters":5600,"station_id":"ce4bhh92rcd13ifvqfi0","pricing_plan_id":"cebpf4jnsgd1na2vs0mg"},{"bike_id":"f1733994-596a-42d8-ba1f-289ddc36b89b","system_id":"levelo_inurba_marseille","lat":43.22505,"lon":5.34786,"is_reserved":false,"is_disabled":false,"rental_uris":{"android":"levelo://app?vid=f1733994-596a-42d8-ba1f-289ddc36b89b","ios":"levelo://app?vid=f1733994-596a-42d8-ba1f-289ddc36b89b"},"vehicle_type_id":"4","last_reported":1748369631,"current_range_meters":5600,"station_id":"","pricing_plan_id":"cebpf4jnsgd1na2vs0mg"},{"bike_id":"a6f12a64-24e7-433c-aca1-33a30091bc49","system_id":"levelo_inurba_marseille","lat":43.29297,"lon":5.3715,"is_reserved":false,"is_disabled":false,"rental_uris":{"android":"levelo://app?vid=a6f12a64-24e7-433c-aca1-33a30091bc49","ios":"levelo://app?vid=a6f12a64-24e7-433c-aca1-33a30091bc49"},"vehicle_type_id":"4","last_reported":1748369631,"current_range_meters":5600,"station_id":"ce4bgh92rcd13ifvqb40","pricing_plan_id":"cebpf4jnsgd1na2vs0mg"},{"bike_id":"61a39f6d-047c-4227-9787-3eecf0fe652e","system_id":"levelo_inurba_marseille","lat":43.27823,"lon":5.39216,"is_reserved":false,"is_disabled":false,"rental_uris":{"android":"levelo://app?vid=61a39f6d-047c-4227-9787-3eecf0fe652e","ios":"levelo://app?vid=61a39f6d-047c-4227-9787-3eecf0fe652e"},"vehicle_type_id":"4","last_reported":1748369631,"current_range_meters":5600,"station_id":"ce4bhjp2rcd13ifvqga0","pricing_plan_id":"cebpf4jnsgd1na2vs0mg"},{"bike_id":"2606339f-dbcd-4567-a70b-50940304a506","system_id":"levelo_inurba_marseille","lat":43.292694,"lon":5.384344,"is_reserved":false,"is_disabled":false,"rental_uris":{"android":"levelo://app?vid=2606339f-dbcd-4567-a70b-50940304a506","ios":"levelo://app?vid=2606339f-dbcd-4567-a70b-50940304a506"},"vehicle_type_id":"4","last_reported":1748369631,"current_range_meters":5600,"station_id":"ce4bh692rcd13ifvqea0","pricing_plan_id":"cebpf4jnsgd1na2vs0mg"},{"bike_id":"53d46a7e-d6f6-4dbe-bfe1-ca4909fd9932","system_id":"levelo_inurba_marseille","lat":43.292121,"lon":5.392773,"is_reserved":false,"is_disabled":false,"rental_uris":{"android":"levelo://app?vid=53d46a7e-d6f6-4dbe-bfe1-ca4909fd9932","ios":"levelo://app?vid=53d46a7e-d6f6-4dbe-bfe1-ca4909fd9932"},"vehicle_type_id":"4","last_reported":1748369631,"current_range_meters":5600,"station_id":"ce4bh192rcd13ifvqdd0","pricing_plan_id":"cebpf4jnsgd1na2vs0mg"},{"bike_id":"9bd42da9-6b96-473c-b7f4-75e3c6848c01","system_id":"levelo_inurba_marseille","lat":43.29899,"lon":5.43668,"is_reserved":false,"is_disabled":false,"rental_uris":{"android":"levelo://app?vid=9bd42da9-6b96-473c-b7f4-75e3c6848c01","ios":"levelo://app?vid=9bd42da9-6b96-473c-b7f4-75e3c6848c01"},"vehicle_type_id":"4","last_reported":1748369631,"current_range_meters":6000,"station_id":"ce4bhpp2rcd13ifvqhfg","pricing_plan_id":"cebpf4jnsgd1na2vs0mg"},{"bike_id":"9b33e131-456f-4624-8691-a7cd4e3c6065","system_id":"levelo_inurba_marseille","lat":43.27395,"lon":5.36272,"is_reserved":false,"is_disabled":false,"rental_uris":{"android":"levelo://app?vid=9b33e131-456f-4624-8691-a7cd4e3c6065","ios":"levelo://app?vid=9b33e131-456f-4624-8691-a7cd4e3c6065"},"vehicle_type_id":"4","last_reported":1748369631,"current_range_meters":6000,"station_id":"ce4bhbh2rcd13ifvqeo0","pricing_plan_id":"cebpf4jnsgd1na2vs0mg"},{"bike_id":"83ef8db8-c361-471c-ba05-8395245fa552","system_id":"levelo_inurba_marseille","lat":43.28407,"lon":5.3751,"is_reserved":false,"is_disabled":true,"rental_uris":{"android":"levelo://app?vid=83ef8db8-c361-471c-ba05-8395245fa552","ios":"levelo://app?vid=83ef8db8-c361-471c-ba05-8395245fa552"},"vehicle_type_id":"4","last_reported":1748369631,"current_range_meters":6000,"station_id":"ce4bh412rcd13ifvqds0","pricing_plan_id":"cebpf4jnsgd1na2vs0mg"},{"bike_id":"62e177ad-b742-4df0-bd38-e4e635ef48a6","system_id":"levelo_inurba_marseille","lat":43.28228,"lon":5.39079,"is_reserved":false,"is_disabled":false,"rental_uris":{"android":"levelo://app?vid=62e177ad-b742-4df0-bd38-e4e635ef48a6","ios":"levelo://app?vid=62e177ad-b742-4df0-bd38-e4e635ef48a6"},"vehicle_type_id":"4","last_reported":1748369631,"current_range_meters":6000,"station_id":"","pricing_plan_id":"cebpf4jnsgd1na2vs0mg"},{"bike_id":"484254e9-1600-4240-b1dd-e05f28769181","system_id":"levelo_inurba_marseille","lat":43.28621,"lon":5.35111,"is_reserved":false,"is_disabled":false,"rental_uris":{"android":"levelo://app?vid=484254e9-1600-4240-b1dd-e05f28769181","ios":"levelo://app?vid=484254e9-1600-4240-b1dd-e05f28769181"},"vehicle_type_id":"4","last_reported":1748369631,"current_range_meters":6000,"station_id":"ce4bhch2rcd13ifvqeug","pricing_plan_id":"cebpf4jnsgd1na2vs0mg"},{"bike_id":"747bb1a9-7697-489f-94b0-203d6313bffd","system_id":"levelo_inurba_marseille","lat":43.27388,"lon":5.36258,"is_reserved":false,"is_disabled":false,"rental_uris":{"android":"levelo://app?vid=747bb1a9-7697-489f-94b0-203d6313bffd","ios":"levelo://app?vid=747bb1a9-7697-489f-94b0-203d6313bffd"},"vehicle_type_id":"4","last_reported":1748369631,"current_range_meters":6400,"station_id":"ce4bhbh2rcd13ifvqeo0","pricing_plan_id":"cebpf4jnsgd1na2vs0mg"},{"bike_id":"fd908bdf-5d81-4122-b313-442572d15912","system_id":"levelo_inurba_marseille","lat":43.29515,"lon":5.39386,"is_reserved":false,"is_disabled":true,"rental_uris":{"android":"levelo://app?vid=fd908bdf-5d81-4122-b313-442572d15912","ios":"levelo://app?vid=fd908bdf-5d81-4122-b313-442572d15912"},"vehicle_type_id":"4","last_reported":1748369631,"current_range_meters":6400,"station_id":"ce4bh292rcd13ifvqdf0","pricing_plan_id":"cebpf4jnsgd1na2vs0mg"},{"bike_id":"4fc7e9e7-d405-4b7d-bee6-511492573a57","system_id":"levelo_inurba_marseille","lat":43.24667,"lon":5.38882,"is_reserved":false,"is_disabled":false,"rental_uris":{"android":"levelo://app?vid=4fc7e9e7-d405-4b7d-bee6-511492573a57","ios":"levelo://app?vid=4fc7e9e7-d405-4b7d-bee6-511492573a57"},"vehicle_type_id":"4","last_reported":1748369631,"current_range_meters":6400,"station_id":"ce4bhg12rcd13ifvqf60","pricing_plan_id":"cebpf4jnsgd1na2vs0mg"},{"bike_id":"fff6a872-04df-45be-9338-38c91d9c28f5","system_id":"levelo_inurba_marseille","lat":43.27369,"lon":5.36255,"is_reserved":false,"is_disabled":false,"rental_uris":{"android":"levelo://app?vid=fff6a872-04df-45be-9338-38c91d9c28f5","ios":"levelo://app?vid=fff6a872-04df-45be-9338-38c91d9c28f5"},"vehicle_type_id":"4","last_reported":1748369631,"current_range_meters":6400,"station_id":"ce4bhbh2rcd13ifvqeo0","pricing_plan_id":"cebpf4jnsgd1na2vs0mg"},{"bike_id":"fbf5c48a-f0e3-4aa3-9fb6-5a14c1ed4468","system_id":"levelo_inurba_marseille","lat":43.26553,"lon":5.37288,"is_reserved":false,"is_disabled":false,"rental_uris":{"android":"levelo://app?vid=fbf5c48a-f0e3-4aa3-9fb6-5a14c1ed4468","ios":"levelo://app?vid=fbf5c48a-f0e3-4aa3-9fb6-5a14c1ed4468"},"vehicle_type_id":"4","last_reported":1748369631,"current_range_meters":6400,"station_id":"ce4bhg12rcd13ifvqf70","pricing_plan_id":"cebpf4jnsgd1na2vs0mg"},{"bike_id":"383b1de5-a374-4529-a07a-558843d60bd2","system_id":"levelo_inurba_marseille","lat":43.2992,"lon":5.39756,"is_reserved":false,"is_disabled":false,"rental_uris":{"android":"levelo://app?vid=383b1de5-a374-4529-a07a-558843d60bd2","ios":"levelo://app?vid=383b1de5-a374-4529-a07a-558843d60bd2"},"vehicle_type_id":"4","last_reported":1748369631,"current_range_meters":6400,"station_id":"ce4bh0h2rcd13ifvqd50","pricing_plan_id":"cebpf4jnsgd1na2vs0mg"},{"bike_id":"eed926d4-eb6b-4414-ac6d-1d278c35a33d","system_id":"levelo_inurba_marseille","lat":43.27839,"lon":5.39214,"is_reserved":false,"is_disabled":false,"rental_uris":{"android":"levelo://app?vid=eed926d4-eb6b-4414-ac6d-1d278c35a33d","ios":"levelo://app?vid=eed926d4-eb6b-4414-ac6d-1d278c35a33d"},"vehicle_type_id":"4","last_reported":1748369631,"current_range_meters":6400,"station_id":"ce4bhjp2rcd13ifvqga0","pricing_plan_id":"cebpf4jnsgd1na2vs0mg"},{"bike_id":"8e1e3d14-39e1-40c6-a572-79984978bd7d","system_id":"levelo_inurba_marseille","lat":43.22503,"lon":5.34788,"is_reserved":false,"is_disabled":false,"rental_uris":{"android":"levelo://app?vid=8e1e3d14-39e1-40c6-a572-79984978bd7d","ios":"levelo://app?vid=8e1e3d14-39e1-40c6-a572-79984978bd7d"},"vehicle_type_id":"4","last_reported":1748369631,"current_range_meters":6800,"station_id":"","pricing_plan_id":"cebpf4jnsgd1na2vs0mg"},{"bike_id":"c2b0a191-bf31-4e89-8dc5-11d646e535b1","system_id":"levelo_inurba_marseille","lat":43.254969,"lon":5.37649,"is_reserved":false,"is_disabled":false,"rental_uris":{"android":"levelo://app?vid=c2b0a191-bf31-4e89-8dc5-11d646e535b1","ios":"levelo://app?vid=c2b0a191-bf31-4e89-8dc5-11d646e535b1"},"vehicle_type_id":"4","last_reported":1748369631,"current_range_meters":6800,"station_id":"","pricing_plan_id":"cebpf4jnsgd1na2vs0mg"},{"bike_id":"4de9b7e5-eeb0-4157-a33c-ea0bec568ecd","system_id":"levelo_inurba_marseille","lat":43.26217,"lon":5.37932,"is_reserved":false,"is_disabled":false,"rental_uris":{"android":"levelo://app?vid=4de9b7e5-eeb0-4157-a33c-ea0bec568ecd","ios":"levelo://app?vid=4de9b7e5-eeb0-4157-a33c-ea0bec568ecd"},"vehicle_type_id":"4","last_reported":1748369631,"current_range_meters":6800,"station_id":"ce4bhjp2rcd13ifvqg90","pricing_plan_id":"cebpf4jnsgd1na2vs0mg"},{"bike_id":"b0c0f763-8c33-46aa-95b2-3e1be9873fe2","system_id":"levelo_inurba_marseille","lat":43.273763,"lon":5.362583,"is_reserved":false,"is_disabled":false,"rental_uris":{"android":"levelo://app?vid=b0c0f763-8c33-46aa-95b2-3e1be9873fe2","ios":"levelo://app?vid=b0c0f763-8c33-46aa-95b2-3e1be9873fe2"},"vehicle_type_id":"4","last_reported":1748369631,"current_range_meters":6800,"station_id":"ce4bhbh2rcd13ifvqeo0","pricing_plan_id":"cebpf4jnsgd1na2vs0mg"},{"bike_id":"3440ebd7-c088-46fa-92e9-9db1a7b64308","system_id":"levelo_inurba_marseille","lat":43.24811,"lon":5.37454,"is_reserved":false,"is_disabled":false,"rental_uris":{"android":"levelo://app?vid=3440ebd7-c088-46fa-92e9-9db1a7b64308","ios":"levelo://app?vid=3440ebd7-c088-46fa-92e9-9db1a7b64308"},"vehicle_type_id":"4","last_reported":1748369631,"current_range_meters":6800,"station_id":"ce4bhgh2rcd13ifvqfb0","pricing_plan_id":"cebpf4jnsgd1na2vs0mg"},{"bike_id":"c3a144ab-85ec-4786-a321-7c5bb1205492","system_id":"levelo_inurba_marseille","lat":43.25116,"lon":5.40327,"is_reserved":false,"is_disabled":false,"rental_uris":{"android":"levelo://app?vid=c3a144ab-85ec-4786-a321-7c5bb1205492","ios":"levelo://app?vid=c3a144ab-85ec-4786-a321-7c5bb1205492"},"vehicle_type_id":"4","last_reported":1748369631,"current_range_meters":6800,"station_id":"ce4bhlh2rcd13ifvqgig","pricing_plan_id":"cebpf4jnsgd1na2vs0mg"},{"bike_id":"4618e7c7-7f75-4826-8056-5e72832bd36e","system_id":"levelo_inurba_marseille","lat":43.27839,"lon":5.39209,"is_reserved":false,"is_disabled":false,"rental_uris":{"android":"levelo://app?vid=4618e7c7-7f75-4826-8056-5e72832bd36e","ios":"levelo://app?vid=4618e7c7-7f75-4826-8056-5e72832bd36e"},"vehicle_type_id":"4","last_reported":1748369631,"current_range_meters":6800,"station_id":"ce4bhjp2rcd13ifvqga0","pricing_plan_id":"cebpf4jnsgd1na2vs0mg"},{"bike_id":"ef476385-6719-4649-b89c-b69d51955299","system_id":"levelo_inurba_marseille","lat":43.29969,"lon":5.38509,"is_reserved":false,"is_disabled":false,"rental_uris":{"android":"levelo://app?vid=ef476385-6719-4649-b89c-b69d51955299","ios":"levelo://app?vid=ef476385-6719-4649-b89c-b69d51955299"},"vehicle_type_id":"4","last_reported":1748369631,"current_range_meters":6800,"station_id":"ce4bgj92rcd13ifvqbd0","pricing_plan_id":"cebpf4jnsgd1na2vs0mg"},{"bike_id":"c3fcfbaf-831d-420c-bd55-778008a3d200","system_id":"levelo_inurba_marseille","lat":43.31229,"lon":5.36852,"is_reserved":false,"is_disabled":false,"rental_uris":{"android":"levelo://app?vid=c3fcfbaf-831d-420c-bd55-778008a3d200","ios":"levelo://app?vid=c3fcfbaf-831d-420c-bd55-778008a3d200"},"vehicle_type_id":"4","last_reported":1748369631,"current_range_meters":7200,"station_id":"ce4bgl92rcd13ifvqbq0","pricing_plan_id":"cebpf4jnsgd1na2vs0mg"},{"bike_id":"0df69043-c542-462e-a7f8-86d8f5031e3e","system_id":"levelo_inurba_marseille","lat":43.27919,"lon":5.3958,"is_reserved":false,"is_disabled":false,"rental_uris":{"android":"levelo://app?vid=0df69043-c542-462e-a7f8-86d8f5031e3e","ios":"levelo://app?vid=0df69043-c542-462e-a7f8-86d8f5031e3e"},"vehicle_type_id":"4","last_reported":1748369631,"current_range_meters":7200,"station_id":"ce4bhf92rcd13ifvqf40","pricing_plan_id":"cebpf4jnsgd1na2vs0mg"},{"bike_id":"5c983c56-c5d8-4ef2-aaff-5eaa5481ac34","system_id":"levelo_inurba_marseille","lat":43.30336,"lon":5.40427,"is_reserved":false,"is_disabled":false,"rental_uris":{"android":"levelo://app?vid=5c983c56-c5d8-4ef2-aaff-5eaa5481ac34","ios":"levelo://app?vid=5c983c56-c5d8-4ef2-aaff-5eaa5481ac34"},"vehicle_type_id":"4","last_reported":1748369631,"current_range_meters":6800,"station_id":"ce4bh012rcd13ifvqd10","pricing_plan_id":"cebpf4jnsgd1na2vs0mg"},{"bike_id":"7352a742-2a67-4303-85e1-9095cad2ae21","system_id":"levelo_inurba_marseille","lat":43.305415,"lon":5.384163,"is_reserved":false,"is_disabled":false,"rental_uris":{"android":"levelo://app?vid=7352a742-2a67-4303-85e1-9095cad2ae21","ios":"levelo://app?vid=7352a742-2a67-4303-85e1-9095cad2ae21"},"vehicle_type_id":"4","last_reported":1748369631,"current_range_meters":7200,"station_id":"ce4bgg92rcd13ifvqb30","pricing_plan_id":"cebpf4jnsgd1na2vs0mg"},{"bike_id":"45beb64d-f789-48fb-900b-29ee41cd8645","system_id":"levelo_inurba_marseille","lat":43.27837,"lon":5.39201,"is_reserved":false,"is_disabled":false,"rental_uris":{"android":"levelo://app?vid=45beb64d-f789-48fb-900b-29ee41cd8645","ios":"levelo://app?vid=45beb64d-f789-48fb-900b-29ee41cd8645"},"vehicle_type_id":"4","last_reported":1748369631,"current_range_meters":7200,"station_id":"ce4bhjp2rcd13ifvqga0","pricing_plan_id":"cebpf4jnsgd1na2vs0mg"},{"bike_id":"76daf5d3-34e6-4a9f-84a9-7298e5574dbd","system_id":"levelo_inurba_marseille","lat":43.26573,"lon":5.39016,"is_reserved":false,"is_disabled":false,"rental_uris":{"android":"levelo://app?vid=76daf5d3-34e6-4a9f-84a9-7298e5574dbd","ios":"levelo://app?vid=76daf5d3-34e6-4a9f-84a9-7298e5574dbd"},"vehicle_type_id":"4","last_reported":1748369631,"current_range_meters":7200,"station_id":"ce4bhe12rcd13ifvqf30","pricing_plan_id":"cebpf4jnsgd1na2vs0mg"},{"bike_id":"bd418cba-1797-4144-a756-701708377915","system_id":"levelo_inurba_marseille","lat":43.29253,"lon":5.38456,"is_reserved":false,"is_disabled":false,"rental_uris":{"android":"levelo://app?vid=bd418cba-1797-4144-a756-701708377915","ios":"levelo://app?vid=bd418cba-1797-4144-a756-701708377915"},"vehicle_type_id":"4","last_reported":1748369631,"current_range_meters":7200,"station_id":"ce4bh692rcd13ifvqea0","pricing_plan_id":"cebpf4jnsgd1na2vs0mg"},{"bike_id":"45d5e68e-6e9c-4971-96e5-ce7af3e77cdb","system_id":"levelo_inurba_marseille","lat":43.28674,"lon":5.38661,"is_reserved":false,"is_disabled":false,"rental_uris":{"android":"levelo://app?vid=45d5e68e-6e9c-4971-96e5-ce7af3e77cdb","ios":"levelo://app?vid=45d5e68e-6e9c-4971-96e5-ce7af3e77cdb"},"vehicle_type_id":"4","last_reported":1748369631,"current_range_meters":7200,"station_id":"ce4bh492rcd13ifvqdug","pricing_plan_id":"cebpf4jnsgd1na2vs0mg"},{"bike_id":"69cca5bd-43f1-494b-b2df-8541a2533abc","system_id":"levelo_inurba_marseille","lat":43.29305,"lon":5.37457,"is_reserved":false,"is_disabled":false,"rental_uris":{"android":"levelo://app?vid=69cca5bd-43f1-494b-b2df-8541a2533abc","ios":"levelo://app?vid=69cca5bd-43f1-494b-b2df-8541a2533abc"},"vehicle_type_id":"4","last_reported":1748369631,"current_range_meters":7200,"station_id":"ce4bgi12rcd13ifvqb70","pricing_plan_id":"cebpf4jnsgd1na2vs0mg"},{"bike_id":"75ab26af-0119-4470-9daf-6c351e986b17","system_id":"levelo_inurba_marseille","lat":43.25119,"lon":5.40323,"is_reserved":false,"is_disabled":false,"rental_uris":{"android":"levelo://app?vid=75ab26af-0119-4470-9daf-6c351e986b17","ios":"levelo://app?vid=75ab26af-0119-4470-9daf-6c351e986b17"},"vehicle_type_id":"4","last_reported":1748369631,"current_range_meters":7200,"station_id":"ce4bhlh2rcd13ifvqgig","pricing_plan_id":"cebpf4jnsgd1na2vs0mg"},{"bike_id":"c2ca08a1-59bc-4bb7-9759-d63170bd667b","system_id":"levelo_inurba_marseille","lat":43.29904,"lon":5.43677,"is_reserved":false,"is_disabled":false,"rental_uris":{"android":"levelo://app?vid=c2ca08a1-59bc-4bb7-9759-d63170bd667b","ios":"levelo://app?vid=c2ca08a1-59bc-4bb7-9759-d63170bd667b"},"vehicle_type_id":"4","last_reported":1748369631,"current_range_meters":7200,"station_id":"ce4bhpp2rcd13ifvqhfg","pricing_plan_id":"cebpf4jnsgd1na2vs0mg"},{"bike_id":"84d577c9-0030-4753-88b4-b1b78a95dd89","system_id":"levelo_inurba_marseille","lat":43.24815,"lon":5.37463,"is_reserved":false,"is_disabled":false,"rental_uris":{"android":"levelo://app?vid=84d577c9-0030-4753-88b4-b1b78a95dd89","ios":"levelo://app?vid=84d577c9-0030-4753-88b4-b1b78a95dd89"},"vehicle_type_id":"4","last_reported":1748369631,"current_range_meters":7200,"station_id":"ce4bhgh2rcd13ifvqfb0","pricing_plan_id":"cebpf4jnsgd1na2vs0mg"},{"bike_id":"ac4edf0a-935b-46c4-8102-1ee174537b84","system_id":"levelo_inurba_marseille","lat":43.24172,"lon":5.36397,"is_reserved":false,"is_disabled":false,"rental_uris":{"android":"levelo://app?vid=ac4edf0a-935b-46c4-8102-1ee174537b84","ios":"levelo://app?vid=ac4edf0a-935b-46c4-8102-1ee174537b84"},"vehicle_type_id":"4","last_reported":1748369631,"current_range_meters":7200,"station_id":"cpo36qri1sfpv3e86is0","pricing_plan_id":"cebpf4jnsgd1na2vs0mg"},{"bike_id":"1e573ce5-2b65-413f-9f0b-ca84587c5595","system_id":"levelo_inurba_marseille","lat":43.29007,"lon":5.35609,"is_reserved":false,"is_disabled":false,"rental_uris":{"android":"levelo://app?vid=1e573ce5-2b65-413f-9f0b-ca84587c5595","ios":"levelo://app?vid=1e573ce5-2b65-413f-9f0b-ca84587c5595"},"vehicle_type_id":"4","last_reported":1748369631,"current_range_meters":8000,"station_id":"ce4bhb92rcd13ifvqen0","pricing_plan_id":"cebpf4jnsgd1na2vs0mg"},{"bike_id":"ae6e6868-2635-4f49-b7c1-b03759c58ec7","system_id":"levelo_inurba_marseille","lat":43.27302,"lon":5.41619,"is_reserved":false,"is_disabled":false,"rental_uris":{"android":"levelo://app?vid=ae6e6868-2635-4f49-b7c1-b03759c58ec7","ios":"levelo://app?vid=ae6e6868-2635-4f49-b7c1-b03759c58ec7"},"vehicle_type_id":"4","last_reported":1748369631,"current_range_meters":8000,"station_id":"","pricing_plan_id":"cebpf4jnsgd1na2vs0mg"},{"bike_id":"800c3dea-d041-424f-ac49-027da832df67","system_id":"levelo_inurba_marseille","lat":43.3168,"lon":5.40491,"is_reserved":false,"is_disabled":false,"rental_uris":{"android":"levelo://app?vid=800c3dea-d041-424f-ac49-027da832df67","ios":"levelo://app?vid=800c3dea-d041-424f-ac49-027da832df67"},"vehicle_type_id":"4","last_reported":1748369631,"current_range_meters":8000,"station_id":"ce4bh012rcd13ifvqd00","pricing_plan_id":"cebpf4jnsgd1na2vs0mg"},{"bike_id":"cb76b089-6d68-49c3-bd75-45a892995e24","system_id":"levelo_inurba_marseille","lat":43.529015,"lon":5.438816,"is_reserved":false,"is_disabled":false,"rental_uris":{"android":"levelo://app?vid=cb76b089-6d68-49c3-bd75-45a892995e24","ios":"levelo://app?vid=cb76b089-6d68-49c3-bd75-45a892995e24"},"vehicle_type_id":"4","last_reported":1748369631,"current_range_meters":8000,"station_id":"ce4bhjp2rcd13ifvqga0","pricing_plan_id":"cebpf4jnsgd1na2vs0mg"},{"bike_id":"36d93945-6e1c-4dd7-b644-f5281c8d8dc1","system_id":"levelo_inurba_marseille","lat":43.30427,"lon":5.3889,"is_reserved":false,"is_disabled":false,"rental_uris":{"android":"levelo://app?vid=36d93945-6e1c-4dd7-b644-f5281c8d8dc1","ios":"levelo://app?vid=36d93945-6e1c-4dd7-b644-f5281c8d8dc1"},"vehicle_type_id":"4","last_reported":1748369631,"current_range_meters":8400,"station_id":"ce4bgk12rcd13ifvqbi0","pricing_plan_id":"cebpf4jnsgd1na2vs0mg"},{"bike_id":"21279827-a0af-4388-a946-77308369b317","system_id":"levelo_inurba_marseille","lat":43.28157,"lon":5.42649,"is_reserved":false,"is_disabled":false,"rental_uris":{"android":"levelo://app?vid=21279827-a0af-4388-a946-77308369b317","ios":"levelo://app?vid=21279827-a0af-4388-a946-77308369b317"},"vehicle_type_id":"4","last_reported":1748369631,"current_range_meters":8400,"station_id":"ce4bhnh2rcd13ifvqgug","pricing_plan_id":"cebpf4jnsgd1na2vs0mg"},{"bike_id":"94956489-ba0d-4a58-9e9a-efd2f2f983a6","system_id":"levelo_inurba_marseille","lat":43.28721,"lon":5.36088,"is_reserved":false,"is_disabled":false,"rental_uris":{"android":"levelo://app?vid=94956489-ba0d-4a58-9e9a-efd2f2f983a6","ios":"levelo://app?vid=94956489-ba0d-4a58-9e9a-efd2f2f983a6"},"vehicle_type_id":"4","last_reported":1748369631,"current_range_meters":8400,"station_id":"cki0cbj6b192h4jlfktg","pricing_plan_id":"cebpf4jnsgd1na2vs0mg"},{"bike_id":"bea50e11-19ef-4475-9a9d-97f13f94c64e","system_id":"levelo_inurba_marseille","lat":43.29313,"lon":5.37427,"is_reserved":false,"is_disabled":false,"rental_uris":{"android":"levelo://app?vid=bea50e11-19ef-4475-9a9d-97f13f94c64e","ios":"levelo://app?vid=bea50e11-19ef-4475-9a9d-97f13f94c64e"},"vehicle_type_id":"4","last_reported":1748369631,"current_range_meters":8400,"station_id":"ce4bgi12rcd13ifvqb70","pricing_plan_id":"cebpf4jnsgd1na2vs0mg"},{"bike_id":"ee617531-7300-4958-baa3-db4f90ad5721","system_id":"levelo_inurba_marseille","lat":43.25818,"lon":5.39427,"is_reserved":false,"is_disabled":false,"rental_uris":{"android":"levelo://app?vid=ee617531-7300-4958-baa3-db4f90ad5721","ios":"levelo://app?vid=ee617531-7300-4958-baa3-db4f90ad5721"},"vehicle_type_id":"4","last_reported":1748369631,"current_range_meters":8400,"station_id":"ce4bhip2rcd13ifvqft0","pricing_plan_id":"cebpf4jnsgd1na2vs0mg"},{"bike_id":"f5b17414-0d8b-4580-ad9f-2b88edb5921f","system_id":"levelo_inurba_marseille","lat":43.27563,"lon":5.3844,"is_reserved":false,"is_disabled":false,"rental_uris":{"android":"levelo://app?vid=f5b17414-0d8b-4580-ad9f-2b88edb5921f","ios":"levelo://app?vid=f5b17414-0d8b-4580-ad9f-2b88edb5921f"},"vehicle_type_id":"4","last_reported":1748369631,"current_range_meters":8400,"station_id":"ce4bhh92rcd13ifvqfi0","pricing_plan_id":"cebpf4jnsgd1na2vs0mg"},{"bike_id":"b228fc89-9cfa-4c79-aefe-881ba6b9687b","system_id":"levelo_inurba_marseille","lat":43.3012,"lon":5.39851,"is_reserved":false,"is_disabled":false,"rental_uris":{"android":"levelo://app?vid=b228fc89-9cfa-4c79-aefe-881ba6b9687b","ios":"levelo://app?vid=b228fc89-9cfa-4c79-aefe-881ba6b9687b"},"vehicle_type_id":"4","last_reported":1748369631,"current_range_meters":8400,"station_id":"ce4bh0h2rcd13ifvqd40","pricing_plan_id":"cebpf4jnsgd1na2vs0mg"},{"bike_id":"7565b1d2-936d-47bb-bb34-4134828b2e33","system_id":"levelo_inurba_marseille","lat":43.28669,"lon":5.36355,"is_reserved":false,"is_disabled":false,"rental_uris":{"android":"levelo://app?vid=7565b1d2-936d-47bb-bb34-4134828b2e33","ios":"levelo://app?vid=7565b1d2-936d-47bb-bb34-4134828b2e33"},"vehicle_type_id":"4","last_reported":1748369631,"current_range_meters":8000,"station_id":"ce4bhah2rcd13ifvqej0","pricing_plan_id":"cebpf4jnsgd1na2vs0mg"},{"bike_id":"d1c76843-d456-42b7-8a6c-3d3c7acf6e97","system_id":"levelo_inurba_marseille","lat":43.31755,"lon":5.3902,"is_reserved":false,"is_disabled":false,"rental_uris":{"android":"levelo://app?vid=d1c76843-d456-42b7-8a6c-3d3c7acf6e97","ios":"levelo://app?vid=d1c76843-d456-42b7-8a6c-3d3c7acf6e97"},"vehicle_type_id":"4","last_reported":1748369631,"current_range_meters":8400,"station_id":"ce4bhqp2rcd13ifvqhng","pricing_plan_id":"cebpf4jnsgd1na2vs0mg"},{"bike_id":"8e3da8b4-ff92-4036-9630-65e26e0ed20a","system_id":"levelo_inurba_marseille","lat":43.29964,"lon":5.38507,"is_reserved":false,"is_disabled":false,"rental_uris":{"android":"levelo://app?vid=8e3da8b4-ff92-4036-9630-65e26e0ed20a","ios":"levelo://app?vid=8e3da8b4-ff92-4036-9630-65e26e0ed20a"},"vehicle_type_id":"4","last_reported":1748369631,"current_range_meters":8400,"station_id":"ce4bgj92rcd13ifvqbd0","pricing_plan_id":"cebpf4jnsgd1na2vs0mg"},{"bike_id":"a29a2708-797f-4e9a-9f1a-17352bf6f3db","system_id":"levelo_inurba_marseille","lat":43.273076,"lon":5.391482,"is_reserved":false,"is_disabled":true,"rental_uris":{"android":"levelo://app?vid=a29a2708-797f-4e9a-9f1a-17352bf6f3db","ios":"levelo://app?vid=a29a2708-797f-4e9a-9f1a-17352bf6f3db"},"vehicle_type_id":"4","last_reported":1748369631,"current_range_meters":8400,"station_id":"ce4bhgp2rcd13ifvqfe0","pricing_plan_id":"cebpf4jnsgd1na2vs0mg"},{"bike_id":"7f663cdc-f3f3-4d08-a38d-940b6fb0edb1","system_id":"levelo_inurba_marseille","lat":43.231873,"lon":5.399845,"is_reserved":false,"is_disabled":false,"rental_uris":{"android":"levelo://app?vid=7f663cdc-f3f3-4d08-a38d-940b6fb0edb1","ios":"levelo://app?vid=7f663cdc-f3f3-4d08-a38d-940b6fb0edb1"},"vehicle_type_id":"4","last_reported":1748369631,"current_range_meters":8000,"station_id":"ce4bhn12rcd13ifvqgqg","pricing_plan_id":"cebpf4jnsgd1na2vs0mg"},{"bike_id":"dae3fc33-4b95-47d2-a716-b028de3acbc1","system_id":"levelo_inurba_marseille","lat":43.2862,"lon":5.35114,"is_reserved":false,"is_disabled":false,"rental_uris":{"android":"levelo://app?vid=dae3fc33-4b95-47d2-a716-b028de3acbc1","ios":"levelo://app?vid=dae3fc33-4b95-47d2-a716-b028de3acbc1"},"vehicle_type_id":"4","last_reported":1748369631,"current_range_meters":8800,"station_id":"ce4bhch2rcd13ifvqeug","pricing_plan_id":"cebpf4jnsgd1na2vs0mg"},{"bike_id":"cfba176a-9b89-4f00-b3e9-9c366531f78c","system_id":"levelo_inurba_marseille","lat":43.2893,"lon":5.36637,"is_reserved":false,"is_disabled":false,"rental_uris":{"android":"levelo://app?vid=cfba176a-9b89-4f00-b3e9-9c366531f78c","ios":"levelo://app?vid=cfba176a-9b89-4f00-b3e9-9c366531f78c"},"vehicle_type_id":"4","last_reported":1748369631,"current_range_meters":8800,"station_id":"ce4bhap2rcd13ifvqek0","pricing_plan_id":"cebpf4jnsgd1na2vs0mg"},{"bike_id":"760bcd8b-a4e0-4b4e-bedb-6462d7843576","system_id":"levelo_inurba_marseille","lat":43.29281,"lon":5.3686,"is_reserved":false,"is_disabled":true,"rental_uris":{"android":"levelo://app?vid=760bcd8b-a4e0-4b4e-bedb-6462d7843576","ios":"levelo://app?vid=760bcd8b-a4e0-4b4e-bedb-6462d7843576"},"vehicle_type_id":"4","last_reported":1748369631,"current_range_meters":8800,"station_id":"ce4bhbp2rcd13ifvqesg","pricing_plan_id":"cebpf4jnsgd1na2vs0mg"},{"bike_id":"a0cb7726-9f80-4cbf-b54e-77c628de16cd","system_id":"levelo_inurba_marseille","lat":43.30541,"lon":5.36539,"is_reserved":false,"is_disabled":false,"rental_uris":{"android":"levelo://app?vid=a0cb7726-9f80-4cbf-b54e-77c628de16cd","ios":"levelo://app?vid=a0cb7726-9f80-4cbf-b54e-77c628de16cd"},"vehicle_type_id":"4","last_reported":1748369631,"current_range_meters":8800,"station_id":"ce4bgs12rcd13ifvqcag","pricing_plan_id":"cebpf4jnsgd1na2vs0mg"},{"bike_id":"0ef2c249-b7a0-4794-acf6-30afd37c49e1","system_id":"levelo_inurba_marseille","lat":43.28619,"lon":5.37065,"is_reserved":false,"is_disabled":false,"rental_uris":{"android":"levelo://app?vid=0ef2c249-b7a0-4794-acf6-30afd37c49e1","ios":"levelo://app?vid=0ef2c249-b7a0-4794-acf6-30afd37c49e1"},"vehicle_type_id":"4","last_reported":1748369631,"current_range_meters":8800,"station_id":"ce4bht12rcd13ifvqi60","pricing_plan_id":"cebpf4jnsgd1na2vs0mg"},{"bike_id":"0dfa7cb3-d536-4d77-b83e-7d452e76f7df","system_id":"levelo_inurba_marseille","lat":43.2903,"lon":5.38648,"is_reserved":false,"is_disabled":false,"rental_uris":{"android":"levelo://app?vid=0dfa7cb3-d536-4d77-b83e-7d452e76f7df","ios":"levelo://app?vid=0dfa7cb3-d536-4d77-b83e-7d452e76f7df"},"vehicle_type_id":"4","last_reported":1748369631,"current_range_meters":8800,"station_id":"ce4bh4p2rcd13ifvqe0g","pricing_plan_id":"cebpf4jnsgd1na2vs0mg"},{"bike_id":"ecec0dbe-0ccb-470d-bc6b-7e71f374730a","system_id":"levelo_inurba_marseille","lat":43.23963,"lon":5.3662,"is_reserved":false,"is_disabled":false,"rental_uris":{"android":"levelo://app?vid=ecec0dbe-0ccb-470d-bc6b-7e71f374730a","ios":"levelo://app?vid=ecec0dbe-0ccb-470d-bc6b-7e71f374730a"},"vehicle_type_id":"4","last_reported":1748369631,"current_range_meters":8800,"station_id":"ce4bhi12rcd13ifvqfp0","pricing_plan_id":"cebpf4jnsgd1na2vs0mg"},{"bike_id":"7e823e3b-1b92-4735-8533-dc1341b80eaf","system_id":"levelo_inurba_marseille","lat":43.23055,"lon":5.35489,"is_reserved":false,"is_disabled":true,"rental_uris":{"android":"levelo://app?vid=7e823e3b-1b92-4735-8533-dc1341b80eaf","ios":"levelo://app?vid=7e823e3b-1b92-4735-8533-dc1341b80eaf"},"vehicle_type_id":"4","last_reported":1748369631,"current_range_meters":8800,"station_id":"cpo3342slgdg3j2ifvpg","pricing_plan_id":"cebpf4jnsgd1na2vs0mg"},{"bike_id":"1ea258a1-0ee3-4131-b145-1260c8a40f28","system_id":"levelo_inurba_marseille","lat":43.28617,"lon":5.35109,"is_reserved":false,"is_disabled":false,"rental_uris":{"android":"levelo://app?vid=1ea258a1-0ee3-4131-b145-1260c8a40f28","ios":"levelo://app?vid=1ea258a1-0ee3-4131-b145-1260c8a40f28"},"vehicle_type_id":"4","last_reported":1748369631,"current_range_meters":8800,"station_id":"ce4bhch2rcd13ifvqeug","pricing_plan_id":"cebpf4jnsgd1na2vs0mg"},{"bike_id":"03d9168f-4766-4712-8c33-4826039afe84","system_id":"levelo_inurba_marseille","lat":43.21756,"lon":5.34601,"is_reserved":false,"is_disabled":false,"rental_uris":{"android":"levelo://app?vid=03d9168f-4766-4712-8c33-4826039afe84","ios":"levelo://app?vid=03d9168f-4766-4712-8c33-4826039afe84"},"vehicle_type_id":"4","last_reported":1748369631,"current_range_meters":8800,"station_id":"st_cvj6r9ubvosntc0bgbag","pricing_plan_id":"cebpf4jnsgd1na2vs0mg"},{"bike_id":"8853a994-cfcf-421c-9a66-612b8cb1caea","system_id":"levelo_inurba_marseille","lat":43.29304,"lon":5.37439,"is_reserved":false,"is_disabled":false,"rental_uris":{"android":"levelo://app?vid=8853a994-cfcf-421c-9a66-612b8cb1caea","ios":"levelo://app?vid=8853a994-cfcf-421c-9a66-612b8cb1caea"},"vehicle_type_id":"4","last_reported":1748369631,"current_range_meters":8800,"station_id":"ce4bgi12rcd13ifvqb70","pricing_plan_id":"cebpf4jnsgd1na2vs0mg"},{"bike_id":"1a0998e5-8bb9-474f-a827-53cad24c9e8f","system_id":"levelo_inurba_marseille","lat":43.32033,"lon":5.44953,"is_reserved":false,"is_disabled":false,"rental_uris":{"android":"levelo://app?vid=1a0998e5-8bb9-474f-a827-53cad24c9e8f","ios":"levelo://app?vid=1a0998e5-8bb9-474f-a827-53cad24c9e8f"},"vehicle_type_id":"4","last_reported":1748369631,"current_range_meters":9200,"station_id":"","pricing_plan_id":"cebpf4jnsgd1na2vs0mg"},{"bike_id":"be98b828-7cd7-426e-a38f-97d807755dd8","system_id":"levelo_inurba_marseille","lat":43.251035,"lon":5.403452,"is_reserved":false,"is_disabled":false,"rental_uris":{"android":"levelo://app?vid=be98b828-7cd7-426e-a38f-97d807755dd8","ios":"levelo://app?vid=be98b828-7cd7-426e-a38f-97d807755dd8"},"vehicle_type_id":"4","last_reported":1748369631,"current_range_meters":9200,"station_id":"ce4bhlh2rcd13ifvqgig","pricing_plan_id":"cebpf4jnsgd1na2vs0mg"},{"bike_id":"f4dd589b-5b58-470a-a2c9-9de3a4398e71","system_id":"levelo_inurba_marseille","lat":43.22933,"lon":5.35375,"is_reserved":false,"is_disabled":false,"rental_uris":{"android":"levelo://app?vid=f4dd589b-5b58-470a-a2c9-9de3a4398e71","ios":"levelo://app?vid=f4dd589b-5b58-470a-a2c9-9de3a4398e71"},"vehicle_type_id":"4","last_reported":1748369631,"current_range_meters":9200,"station_id":"cpo3532slgdg3j2ikp40","pricing_plan_id":"cebpf4jnsgd1na2vs0mg"},{"bike_id":"67466348-6ac3-4a3f-9966-34eb91b42b01","system_id":"levelo_inurba_marseille","lat":43.298523,"lon":5.362835,"is_reserved":false,"is_disabled":false,"rental_uris":{"android":"levelo://app?vid=67466348-6ac3-4a3f-9966-34eb91b42b01","ios":"levelo://app?vid=67466348-6ac3-4a3f-9966-34eb91b42b01"},"vehicle_type_id":"4","last_reported":1748369631,"current_range_meters":9200,"station_id":"ce4bgpp2rcd13ifvqc3g","pricing_plan_id":"cebpf4jnsgd1na2vs0mg"},{"bike_id":"65e4297e-e63d-44fd-9c0e-140fddd40954","system_id":"levelo_inurba_marseille","lat":43.31317,"lon":5.39696,"is_reserved":false,"is_disabled":false,"rental_uris":{"android":"levelo://app?vid=65e4297e-e63d-44fd-9c0e-140fddd40954","ios":"levelo://app?vid=65e4297e-e63d-44fd-9c0e-140fddd40954"},"vehicle_type_id":"4","last_reported":1748369631,"current_range_meters":8800,"station_id":"ce4bgvp2rcd13ifvqcu0","pricing_plan_id":"cebpf4jnsgd1na2vs0mg"},{"bike_id":"fe594539-b8a8-480e-a500-dd146b897567","system_id":"levelo_inurba_marseille","lat":43.31721,"lon":5.42394,"is_reserved":false,"is_disabled":false,"rental_uris":{"android":"levelo://app?vid=fe594539-b8a8-480e-a500-dd146b897567","ios":"levelo://app?vid=fe594539-b8a8-480e-a500-dd146b897567"},"vehicle_type_id":"4","last_reported":1748369631,"current_range_meters":9200,"station_id":"ce4bhp92rcd13ifvqhbg","pricing_plan_id":"cebpf4jnsgd1na2vs0mg"},{"bike_id":"559d005f-068c-403c-9873-e9f0a517c37f","system_id":"levelo_inurba_marseille","lat":43.313293,"lon":5.396884,"is_reserved":false,"is_disabled":false,"rental_uris":{"android":"levelo://app?vid=559d005f-068c-403c-9873-e9f0a517c37f","ios":"levelo://app?vid=559d005f-068c-403c-9873-e9f0a517c37f"},"vehicle_type_id":"4","last_reported":1748369631,"current_range_meters":9200,"station_id":"ce4bgvp2rcd13ifvqcu0","pricing_plan_id":"cebpf4jnsgd1na2vs0mg"},{"bike_id":"c2ecd3b7-5524-418f-bd0f-ed516f3961f1","system_id":"levelo_inurba_marseille","lat":43.28415,"lon":5.3498,"is_reserved":false,"is_disabled":false,"rental_uris":{"android":"levelo://app?vid=c2ecd3b7-5524-418f-bd0f-ed516f3961f1","ios":"levelo://app?vid=c2ecd3b7-5524-418f-bd0f-ed516f3961f1"},"vehicle_type_id":"4","last_reported":1748369631,"current_range_meters":9200,"station_id":"ce4bhbh2rcd13ifvqepg","pricing_plan_id":"cebpf4jnsgd1na2vs0mg"},{"bike_id":"c31f627f-698a-4d42-912e-4ab3f94c1a26","system_id":"levelo_inurba_marseille","lat":43.28484,"lon":5.38422,"is_reserved":false,"is_disabled":false,"rental_uris":{"android":"levelo://app?vid=c31f627f-698a-4d42-912e-4ab3f94c1a26","ios":"levelo://app?vid=c31f627f-698a-4d42-912e-4ab3f94c1a26"},"vehicle_type_id":"4","last_reported":1748369631,"current_range_meters":9200,"station_id":"ce4bh512rcd13ifvqe3g","pricing_plan_id":"cebpf4jnsgd1na2vs0mg"},{"bike_id":"77dbee3f-c7a2-4331-b917-03ab734ccc1b","system_id":"levelo_inurba_marseille","lat":43.28882,"lon":5.35842,"is_reserved":false,"is_disabled":false,"rental_uris":{"android":"levelo://app?vid=77dbee3f-c7a2-4331-b917-03ab734ccc1b","ios":"levelo://app?vid=77dbee3f-c7a2-4331-b917-03ab734ccc1b"},"vehicle_type_id":"4","last_reported":1748369631,"current_range_meters":9200,"station_id":"ce4bhb12rcd13ifvqem0","pricing_plan_id":"cebpf4jnsgd1na2vs0mg"},{"bike_id":"a7f52aa7-1f3f-41a2-80b5-3eb6f9b0d97f","system_id":"levelo_inurba_marseille","lat":43.27064,"lon":5.402523,"is_reserved":false,"is_disabled":false,"rental_uris":{"android":"levelo://app?vid=a7f52aa7-1f3f-41a2-80b5-3eb6f9b0d97f","ios":"levelo://app?vid=a7f52aa7-1f3f-41a2-80b5-3eb6f9b0d97f"},"vehicle_type_id":"4","last_reported":1748369631,"current_range_meters":9200,"station_id":"ce4bhk92rcd13ifvqgc0","pricing_plan_id":"cebpf4jnsgd1na2vs0mg"},{"bike_id":"1ba3c726-2241-45f2-9397-0519c9f9ddc7","system_id":"levelo_inurba_marseille","lat":43.27379,"lon":5.362603,"is_reserved":false,"is_disabled":false,"rental_uris":{"android":"levelo://app?vid=1ba3c726-2241-45f2-9397-0519c9f9ddc7","ios":"levelo://app?vid=1ba3c726-2241-45f2-9397-0519c9f9ddc7"},"vehicle_type_id":"4","last_reported":1748369631,"current_range_meters":9200,"station_id":"ce4bhbh2rcd13ifvqeo0","pricing_plan_id":"cebpf4jnsgd1na2vs0mg"},{"bike_id":"f728c101-0417-4fb3-b9f8-75b27b638841","system_id":"levelo_inurba_marseille","lat":43.30808,"lon":5.43531,"is_reserved":false,"is_disabled":false,"rental_uris":{"android":"levelo://app?vid=f728c101-0417-4fb3-b9f8-75b27b638841","ios":"levelo://app?vid=f728c101-0417-4fb3-b9f8-75b27b638841"},"vehicle_type_id":"4","last_reported":1748369631,"current_range_meters":9200,"station_id":"ce4bhph2rcd13ifvqheg","pricing_plan_id":"cebpf4jnsgd1na2vs0mg"},{"bike_id":"01338aef-48a0-4102-8ab2-6f6a0242e398","system_id":"levelo_inurba_marseille","lat":43.29001,"lon":5.35608,"is_reserved":false,"is_disabled":false,"rental_uris":{"android":"levelo://app?vid=01338aef-48a0-4102-8ab2-6f6a0242e398","ios":"levelo://app?vid=01338aef-48a0-4102-8ab2-6f6a0242e398"},"vehicle_type_id":"4","last_reported":1748369631,"current_range_meters":9600,"station_id":"ce4bhb92rcd13ifvqen0","pricing_plan_id":"cebpf4jnsgd1na2vs0mg"},{"bike_id":"b71140d3-630f-4015-bd6f-c7f87f9f7365","system_id":"levelo_inurba_marseille","lat":43.29303,"lon":5.37467,"is_reserved":false,"is_disabled":false,"rental_uris":{"android":"levelo://app?vid=b71140d3-630f-4015-bd6f-c7f87f9f7365","ios":"levelo://app?vid=b71140d3-630f-4015-bd6f-c7f87f9f7365"},"vehicle_type_id":"4","last_reported":1748369631,"current_range_meters":9600,"station_id":"ce4bgi12rcd13ifvqb70","pricing_plan_id":"cebpf4jnsgd1na2vs0mg"},{"bike_id":"6ef27e84-462a-46f9-afe5-e09b209cc7f0","system_id":"levelo_inurba_marseille","lat":43.331109,"lon":5.362079,"is_reserved":false,"is_disabled":false,"rental_uris":{"android":"levelo://app?vid=6ef27e84-462a-46f9-afe5-e09b209cc7f0","ios":"levelo://app?vid=6ef27e84-462a-46f9-afe5-e09b209cc7f0"},"vehicle_type_id":"4","last_reported":1748369631,"current_range_meters":9600,"station_id":"","pricing_plan_id":"cebpf4jnsgd1na2vs0mg"},{"bike_id":"7e2d13cd-01ed-48be-a1b4-1756640f6409","system_id":"levelo_inurba_marseille","lat":43.30959,"lon":5.39015,"is_reserved":false,"is_disabled":true,"rental_uris":{"android":"levelo://app?vid=7e2d13cd-01ed-48be-a1b4-1756640f6409","ios":"levelo://app?vid=7e2d13cd-01ed-48be-a1b4-1756640f6409"},"vehicle_type_id":"4","last_reported":1748369631,"current_range_meters":9600,"station_id":"ce4bgup2rcd13ifvqco0","pricing_plan_id":"cebpf4jnsgd1na2vs0mg"},{"bike_id":"d715db51-1d8a-4750-826d-8a8be8d46300","system_id":"levelo_inurba_marseille","lat":43.26029,"lon":5.37553,"is_reserved":false,"is_disabled":false,"rental_uris":{"android":"levelo://app?vid=d715db51-1d8a-4750-826d-8a8be8d46300","ios":"levelo://app?vid=d715db51-1d8a-4750-826d-8a8be8d46300"},"vehicle_type_id":"4","last_reported":1748369631,"current_range_meters":9600,"station_id":"ce4bhgh2rcd13ifvqfa0","pricing_plan_id":"cebpf4jnsgd1na2vs0mg"},{"bike_id":"a705c57d-b2e0-4a4e-8a70-cb45411d63e3","system_id":"levelo_inurba_marseille","lat":43.28386,"lon":5.34987,"is_reserved":false,"is_disabled":false,"rental_uris":{"android":"levelo://app?vid=a705c57d-b2e0-4a4e-8a70-cb45411d63e3","ios":"levelo://app?vid=a705c57d-b2e0-4a4e-8a70-cb45411d63e3"},"vehicle_type_id":"4","last_reported":1748369631,"current_range_meters":9600,"station_id":"ce4bhbh2rcd13ifvqepg","pricing_plan_id":"cebpf4jnsgd1na2vs0mg"},{"bike_id":"92c20333-f1be-4048-8f1a-30fdeff2a990","system_id":"levelo_inurba_marseille","lat":43.330274,"lon":5.390372,"is_reserved":false,"is_disabled":false,"rental_uris":{"android":"levelo://app?vid=92c20333-f1be-4048-8f1a-30fdeff2a990","ios":"levelo://app?vid=92c20333-f1be-4048-8f1a-30fdeff2a990"},"vehicle_type_id":"4","last_reported":1748369631,"current_range_meters":9600,"station_id":"ce4bhr92rcd13ifvqhrg","pricing_plan_id":"cebpf4jnsgd1na2vs0mg"},{"bike_id":"8ee6a5a3-c733-4058-a13a-c9c32ced8cc5","system_id":"levelo_inurba_marseille","lat":43.26507,"lon":5.39537,"is_reserved":false,"is_disabled":false,"rental_uris":{"android":"levelo://app?vid=8ee6a5a3-c733-4058-a13a-c9c32ced8cc5","ios":"levelo://app?vid=8ee6a5a3-c733-4058-a13a-c9c32ced8cc5"},"vehicle_type_id":"4","last_reported":1748369631,"current_range_meters":9600,"station_id":"ce4bhi12rcd13ifvqfq0","pricing_plan_id":"cebpf4jnsgd1na2vs0mg"},{"bike_id":"e6c65de3-7d92-4979-809c-6677188473c0","system_id":"levelo_inurba_marseille","lat":43.337598,"lon":5.374632,"is_reserved":false,"is_disabled":false,"rental_uris":{"android":"levelo://app?vid=e6c65de3-7d92-4979-809c-6677188473c0","ios":"levelo://app?vid=e6c65de3-7d92-4979-809c-6677188473c0"},"vehicle_type_id":"4","last_reported":1748369631,"current_range_meters":10000,"station_id":"","pricing_plan_id":"cebpf4jnsgd1na2vs0mg"},{"bike_id":"31eb1c1c-c5a5-4f60-aaa0-7dd8c371696a","system_id":"levelo_inurba_marseille","lat":43.279675,"lon":5.41041,"is_reserved":false,"is_disabled":true,"rental_uris":{"android":"levelo://app?vid=31eb1c1c-c5a5-4f60-aaa0-7dd8c371696a","ios":"levelo://app?vid=31eb1c1c-c5a5-4f60-aaa0-7dd8c371696a"},"vehicle_type_id":"4","last_reported":1748369631,"current_range_meters":10000,"station_id":"ce4bhnp2rcd13ifvqh0g","pricing_plan_id":"cebpf4jnsgd1na2vs0mg"},{"bike_id":"6fbbd879-609b-4138-9e4f-c53aaa2ce038","system_id":"levelo_inurba_marseille","lat":43.24806,"lon":5.37455,"is_reserved":false,"is_disabled":false,"rental_uris":{"android":"levelo://app?vid=6fbbd879-609b-4138-9e4f-c53aaa2ce038","ios":"levelo://app?vid=6fbbd879-609b-4138-9e4f-c53aaa2ce038"},"vehicle_type_id":"4","last_reported":1748369631,"current_range_meters":10000,"station_id":"ce4bhgh2rcd13ifvqfb0","pricing_plan_id":"cebpf4jnsgd1na2vs0mg"},{"bike_id":"f0d83b53-4594-4033-afb0-0d9b1a402851","system_id":"levelo_inurba_marseille","lat":43.31125,"lon":5.37762,"is_reserved":false,"is_disabled":false,"rental_uris":{"android":"levelo://app?vid=f0d83b53-4594-4033-afb0-0d9b1a402851","ios":"levelo://app?vid=f0d83b53-4594-4033-afb0-0d9b1a402851"},"vehicle_type_id":"4","last_reported":1748369631,"current_range_meters":10000,"station_id":"ce4bgt92rcd13ifvqcg0","pricing_plan_id":"cebpf4jnsgd1na2vs0mg"},{"bike_id":"f689d449-d0ec-464c-9319-de295e0a037a","system_id":"levelo_inurba_marseille","lat":43.23967,"lon":5.3661,"is_reserved":false,"is_disabled":true,"rental_uris":{"android":"levelo://app?vid=f689d449-d0ec-464c-9319-de295e0a037a","ios":"levelo://app?vid=f689d449-d0ec-464c-9319-de295e0a037a"},"vehicle_type_id":"4","last_reported":1748369631,"current_range_meters":10000,"station_id":"ce4bhi12rcd13ifvqfp0","pricing_plan_id":"cebpf4jnsgd1na2vs0mg"},{"bike_id":"3e2dc4c8-f9cf-4ea8-a48f-0737038249ae","system_id":"levelo_inurba_marseille","lat":43.27369,"lon":5.36243,"is_reserved":false,"is_disabled":false,"rental_uris":{"android":"levelo://app?vid=3e2dc4c8-f9cf-4ea8-a48f-0737038249ae","ios":"levelo://app?vid=3e2dc4c8-f9cf-4ea8-a48f-0737038249ae"},"vehicle_type_id":"4","last_reported":1748369631,"current_range_meters":10000,"station_id":"ce4bhbh2rcd13ifvqeo0","pricing_plan_id":"cebpf4jnsgd1na2vs0mg"},{"bike_id":"3a96f475-ceec-4d32-9036-7fc6500a8b6e","system_id":"levelo_inurba_marseille","lat":43.28615,"lon":5.37069,"is_reserved":false,"is_disabled":false,"rental_uris":{"android":"levelo://app?vid=3a96f475-ceec-4d32-9036-7fc6500a8b6e","ios":"levelo://app?vid=3a96f475-ceec-4d32-9036-7fc6500a8b6e"},"vehicle_type_id":"4","last_reported":1748369631,"current_range_meters":10000,"station_id":"ce4bht12rcd13ifvqi60","pricing_plan_id":"cebpf4jnsgd1na2vs0mg"},{"bike_id":"b11c62d7-3c84-4407-b897-fc138f717460","system_id":"levelo_inurba_marseille","lat":43.22928,"lon":5.35377,"is_reserved":false,"is_disabled":false,"rental_uris":{"android":"levelo://app?vid=b11c62d7-3c84-4407-b897-fc138f717460","ios":"levelo://app?vid=b11c62d7-3c84-4407-b897-fc138f717460"},"vehicle_type_id":"4","last_reported":1748369631,"current_range_meters":10000,"station_id":"cpo3532slgdg3j2ikp40","pricing_plan_id":"cebpf4jnsgd1na2vs0mg"},{"bike_id":"5d7ac06e-6be7-4189-adb7-406efe45f2d9","system_id":"levelo_inurba_marseille","lat":43.26034,"lon":5.37547,"is_reserved":false,"is_disabled":false,"rental_uris":{"android":"levelo://app?vid=5d7ac06e-6be7-4189-adb7-406efe45f2d9","ios":"levelo://app?vid=5d7ac06e-6be7-4189-adb7-406efe45f2d9"},"vehicle_type_id":"4","last_reported":1748369631,"current_range_meters":10000,"station_id":"ce4bhgh2rcd13ifvqfa0","pricing_plan_id":"cebpf4jnsgd1na2vs0mg"},{"bike_id":"54f75969-a8ff-44af-b779-60f93a86484b","system_id":"levelo_inurba_marseille","lat":43.24073,"lon":5.37756,"is_reserved":false,"is_disabled":false,"rental_uris":{"android":"levelo://app?vid=54f75969-a8ff-44af-b779-60f93a86484b","ios":"levelo://app?vid=54f75969-a8ff-44af-b779-60f93a86484b"},"vehicle_type_id":"4","last_reported":1748369631,"current_range_meters":10800,"station_id":"ce4bhnp2rcd13ifvqgvg","pricing_plan_id":"cebpf4jnsgd1na2vs0mg"},{"bike_id":"141adab5-d8a7-49d4-9782-e521a2cd9fda","system_id":"levelo_inurba_marseille","lat":43.30954,"lon":5.39028,"is_reserved":false,"is_disabled":false,"rental_uris":{"android":"levelo://app?vid=141adab5-d8a7-49d4-9782-e521a2cd9fda","ios":"levelo://app?vid=141adab5-d8a7-49d4-9782-e521a2cd9fda"},"vehicle_type_id":"4","last_reported":1748369631,"current_range_meters":10800,"station_id":"ce4bgup2rcd13ifvqco0","pricing_plan_id":"cebpf4jnsgd1na2vs0mg"},{"bike_id":"0532ae53-04e4-477f-bbff-e4c1bc56207b","system_id":"levelo_inurba_marseille","lat":43.291771,"lon":5.357999,"is_reserved":false,"is_disabled":false,"rental_uris":{"android":"levelo://app?vid=0532ae53-04e4-477f-bbff-e4c1bc56207b","ios":"levelo://app?vid=0532ae53-04e4-477f-bbff-e4c1bc56207b"},"vehicle_type_id":"4","last_reported":1748369631,"current_range_meters":10800,"station_id":"ce4bhb12rcd13ifvqel0","pricing_plan_id":"cebpf4jnsgd1na2vs0mg"},{"bike_id":"1098cdee-3aca-453d-8e2b-d853154e5bc9","system_id":"levelo_inurba_marseille","lat":43.31074,"lon":5.42422,"is_reserved":false,"is_disabled":false,"rental_uris":{"android":"levelo://app?vid=1098cdee-3aca-453d-8e2b-d853154e5bc9","ios":"levelo://app?vid=1098cdee-3aca-453d-8e2b-d853154e5bc9"},"vehicle_type_id":"4","last_reported":1748369631,"current_range_meters":10800,"station_id":"ce4bhp92rcd13ifvqhag","pricing_plan_id":"cebpf4jnsgd1na2vs0mg"},{"bike_id":"4a2dbe82-d714-4998-850d-b5bae31c19ec","system_id":"levelo_inurba_marseille","lat":43.273763,"lon":5.36248,"is_reserved":false,"is_disabled":false,"rental_uris":{"android":"levelo://app?vid=4a2dbe82-d714-4998-850d-b5bae31c19ec","ios":"levelo://app?vid=4a2dbe82-d714-4998-850d-b5bae31c19ec"},"vehicle_type_id":"4","last_reported":1748369631,"current_range_meters":10800,"station_id":"ce4bhbh2rcd13ifvqeo0","pricing_plan_id":"cebpf4jnsgd1na2vs0mg"},{"bike_id":"26d35ca8-1d9f-4f02-a293-2bf4c114f1ea","system_id":"levelo_inurba_marseille","lat":43.28935,"lon":5.36636,"is_reserved":false,"is_disabled":false,"rental_uris":{"android":"levelo://app?vid=26d35ca8-1d9f-4f02-a293-2bf4c114f1ea","ios":"levelo://app?vid=26d35ca8-1d9f-4f02-a293-2bf4c114f1ea"},"vehicle_type_id":"4","last_reported":1748369631,"current_range_meters":10800,"station_id":"ce4bhap2rcd13ifvqek0","pricing_plan_id":"cebpf4jnsgd1na2vs0mg"},{"bike_id":"2a046dee-b3af-48c9-9659-b7d30ba20af5","system_id":"levelo_inurba_marseille","lat":43.24329,"lon":5.37984,"is_reserved":false,"is_disabled":false,"rental_uris":{"android":"levelo://app?vid=2a046dee-b3af-48c9-9659-b7d30ba20af5","ios":"levelo://app?vid=2a046dee-b3af-48c9-9659-b7d30ba20af5"},"vehicle_type_id":"4","last_reported":1748369631,"current_range_meters":10800,"station_id":"","pricing_plan_id":"cebpf4jnsgd1na2vs0mg"},{"bike_id":"17b0d8ff-aa28-408b-9628-4a545be2c769","system_id":"levelo_inurba_marseille","lat":43.31911,"lon":5.38013,"is_reserved":false,"is_disabled":false,"rental_uris":{"android":"levelo://app?vid=17b0d8ff-aa28-408b-9628-4a545be2c769","ios":"levelo://app?vid=17b0d8ff-aa28-408b-9628-4a545be2c769"},"vehicle_type_id":"4","last_reported":1748369631,"current_range_meters":10800,"station_id":"","pricing_plan_id":"cebpf4jnsgd1na2vs0mg"},{"bike_id":"4350e113-d288-44ab-8327-6c38803c5588","system_id":"levelo_inurba_marseille","lat":43.28845,"lon":5.39311,"is_reserved":false,"is_disabled":false,"rental_uris":{"android":"levelo://app?vid=4350e113-d288-44ab-8327-6c38803c5588","ios":"levelo://app?vid=4350e113-d288-44ab-8327-6c38803c5588"},"vehicle_type_id":"4","last_reported":1748369631,"current_range_meters":10800,"station_id":"ce4bh2p2rcd13ifvqdi0","pricing_plan_id":"cebpf4jnsgd1na2vs0mg"},{"bike_id":"cb99a941-f47c-4d49-b3d2-6fe7970dee4a","system_id":"levelo_inurba_marseille","lat":43.255398,"lon":5.400924,"is_reserved":false,"is_disabled":false,"rental_uris":{"android":"levelo://app?vid=cb99a941-f47c-4d49-b3d2-6fe7970dee4a","ios":"levelo://app?vid=cb99a941-f47c-4d49-b3d2-6fe7970dee4a"},"vehicle_type_id":"4","last_reported":1748369631,"current_range_meters":10000,"station_id":"ce4bhlh2rcd13ifvqgig","pricing_plan_id":"cebpf4jnsgd1na2vs0mg"},{"bike_id":"31c27a05-c47c-4f13-9daf-a6c010027957","system_id":"levelo_inurba_marseille","lat":43.27373,"lon":5.362267,"is_reserved":false,"is_disabled":false,"rental_uris":{"android":"levelo://app?vid=31c27a05-c47c-4f13-9daf-a6c010027957","ios":"levelo://app?vid=31c27a05-c47c-4f13-9daf-a6c010027957"},"vehicle_type_id":"4","last_reported":1748369631,"current_range_meters":10800,"station_id":"ce4bhbh2rcd13ifvqeo0","pricing_plan_id":"cebpf4jnsgd1na2vs0mg"},{"bike_id":"e45357ce-599a-418b-98fa-474acbb41b35","system_id":"levelo_inurba_marseille","lat":43.27362,"lon":5.36259,"is_reserved":false,"is_disabled":false,"rental_uris":{"android":"levelo://app?vid=e45357ce-599a-418b-98fa-474acbb41b35","ios":"levelo://app?vid=e45357ce-599a-418b-98fa-474acbb41b35"},"vehicle_type_id":"4","last_reported":1748369631,"current_range_meters":11200,"station_id":"ce4bhbh2rcd13ifvqeo0","pricing_plan_id":"cebpf4jnsgd1na2vs0mg"},{"bike_id":"f11bc507-3a25-4869-bad2-624bc62971f0","system_id":"levelo_inurba_marseille","lat":43.29851,"lon":5.36283,"is_reserved":false,"is_disabled":false,"rental_uris":{"android":"levelo://app?vid=f11bc507-3a25-4869-bad2-624bc62971f0","ios":"levelo://app?vid=f11bc507-3a25-4869-bad2-624bc62971f0"},"vehicle_type_id":"4","last_reported":1748369631,"current_range_meters":11200,"station_id":"ce4bgpp2rcd13ifvqc3g","pricing_plan_id":"cebpf4jnsgd1na2vs0mg"},{"bike_id":"5ad0faef-897d-4c19-b2e4-979327720bd4","system_id":"levelo_inurba_marseille","lat":43.25086,"lon":5.39526,"is_reserved":false,"is_disabled":false,"rental_uris":{"android":"levelo://app?vid=5ad0faef-897d-4c19-b2e4-979327720bd4","ios":"levelo://app?vid=5ad0faef-897d-4c19-b2e4-979327720bd4"},"vehicle_type_id":"4","last_reported":1748369631,"current_range_meters":11200,"station_id":"ce4bhm12rcd13ifvqgkg","pricing_plan_id":"cebpf4jnsgd1na2vs0mg"},{"bike_id":"2a4da643-1e2d-473f-8089-8f81d27eee91","system_id":"levelo_inurba_marseille","lat":43.26682,"lon":5.38264,"is_reserved":false,"is_disabled":false,"rental_uris":{"android":"levelo://app?vid=2a4da643-1e2d-473f-8089-8f81d27eee91","ios":"levelo://app?vid=2a4da643-1e2d-473f-8089-8f81d27eee91"},"vehicle_type_id":"4","last_reported":1748369631,"current_range_meters":10800,"station_id":"ce4bhg92rcd13ifvqf90","pricing_plan_id":"cebpf4jnsgd1na2vs0mg"},{"bike_id":"a16982e2-d246-4477-8d00-46dc290c9a2d","system_id":"levelo_inurba_marseille","lat":43.27371,"lon":5.36246,"is_reserved":false,"is_disabled":false,"rental_uris":{"android":"levelo://app?vid=a16982e2-d246-4477-8d00-46dc290c9a2d","ios":"levelo://app?vid=a16982e2-d246-4477-8d00-46dc290c9a2d"},"vehicle_type_id":"4","last_reported":1748369631,"current_range_meters":11200,"station_id":"ce4bhbh2rcd13ifvqeo0","pricing_plan_id":"cebpf4jnsgd1na2vs0mg"},{"bike_id":"a3a1e2f8-c082-4657-9cf8-ceb282e14a71","system_id":"levelo_inurba_marseille","lat":43.2319,"lon":5.39992,"is_reserved":false,"is_disabled":false,"rental_uris":{"android":"levelo://app?vid=a3a1e2f8-c082-4657-9cf8-ceb282e14a71","ios":"levelo://app?vid=a3a1e2f8-c082-4657-9cf8-ceb282e14a71"},"vehicle_type_id":"4","last_reported":1748369631,"current_range_meters":11200,"station_id":"ce4bhn12rcd13ifvqgqg","pricing_plan_id":"cebpf4jnsgd1na2vs0mg"},{"bike_id":"37d1376c-dfa1-4e03-8541-7bea54bb6ea8","system_id":"levelo_inurba_marseille","lat":43.31167,"lon":5.38729,"is_reserved":false,"is_disabled":false,"rental_uris":{"android":"levelo://app?vid=37d1376c-dfa1-4e03-8541-7bea54bb6ea8","ios":"levelo://app?vid=37d1376c-dfa1-4e03-8541-7bea54bb6ea8"},"vehicle_type_id":"4","last_reported":1748369631,"current_range_meters":11200,"station_id":"ce4bgv12rcd13ifvqcp0","pricing_plan_id":"cebpf4jnsgd1na2vs0mg"},{"bike_id":"ceb81090-b40e-47dd-bc35-8598d269ef58","system_id":"levelo_inurba_marseille","lat":43.26663,"lon":5.38431,"is_reserved":false,"is_disabled":false,"rental_uris":{"android":"levelo://app?vid=ceb81090-b40e-47dd-bc35-8598d269ef58","ios":"levelo://app?vid=ceb81090-b40e-47dd-bc35-8598d269ef58"},"vehicle_type_id":"4","last_reported":1748369631,"current_range_meters":11600,"station_id":"","pricing_plan_id":"cebpf4jnsgd1na2vs0mg"},{"bike_id":"9b9d8135-82f8-4f79-bdd1-2ae839c47acd","system_id":"levelo_inurba_marseille","lat":43.27379,"lon":5.3626,"is_reserved":false,"is_disabled":false,"rental_uris":{"android":"levelo://app?vid=9b9d8135-82f8-4f79-bdd1-2ae839c47acd","ios":"levelo://app?vid=9b9d8135-82f8-4f79-bdd1-2ae839c47acd"},"vehicle_type_id":"4","last_reported":1748369631,"current_range_meters":11600,"station_id":"ce4bhbh2rcd13ifvqeo0","pricing_plan_id":"cebpf4jnsgd1na2vs0mg"},{"bike_id":"3aa26842-d4b0-4f93-8cb2-3f56b933c125","system_id":"levelo_inurba_marseille","lat":43.2481,"lon":5.37457,"is_reserved":false,"is_disabled":false,"rental_uris":{"android":"levelo://app?vid=3aa26842-d4b0-4f93-8cb2-3f56b933c125","ios":"levelo://app?vid=3aa26842-d4b0-4f93-8cb2-3f56b933c125"},"vehicle_type_id":"4","last_reported":1748369631,"current_range_meters":11600,"station_id":"ce4bhgh2rcd13ifvqfb0","pricing_plan_id":"cebpf4jnsgd1na2vs0mg"},{"bike_id":"6d2977b8-b405-496c-bf31-3eacba5c9601","system_id":"levelo_inurba_marseille","lat":43.284324,"lon":5.350104,"is_reserved":false,"is_disabled":false,"rental_uris":{"android":"levelo://app?vid=6d2977b8-b405-496c-bf31-3eacba5c9601","ios":"levelo://app?vid=6d2977b8-b405-496c-bf31-3eacba5c9601"},"vehicle_type_id":"4","last_reported":1748369631,"current_range_meters":12000,"station_id":"ce4bhbh2rcd13ifvqepg","pricing_plan_id":"cebpf4jnsgd1na2vs0mg"},{"bike_id":"1fbd130b-cb94-49d6-9bd3-bb418fe725b4","system_id":"levelo_inurba_marseille","lat":43.28435,"lon":5.35021,"is_reserved":false,"is_disabled":false,"rental_uris":{"android":"levelo://app?vid=1fbd130b-cb94-49d6-9bd3-bb418fe725b4","ios":"levelo://app?vid=1fbd130b-cb94-49d6-9bd3-bb418fe725b4"},"vehicle_type_id":"4","last_reported":1748369631,"current_range_meters":12000,"station_id":"ce4bhbh2rcd13ifvqepg","pricing_plan_id":"cebpf4jnsgd1na2vs0mg"},{"bike_id":"d210ed15-0cab-4985-be76-61173c3a81e4","system_id":"levelo_inurba_marseille","lat":43.28726,"lon":5.36126,"is_reserved":false,"is_disabled":true,"rental_uris":{"android":"levelo://app?vid=d210ed15-0cab-4985-be76-61173c3a81e4","ios":"levelo://app?vid=d210ed15-0cab-4985-be76-61173c3a81e4"},"vehicle_type_id":"4","last_reported":1748369631,"current_range_meters":12000,"station_id":"cki0cbj6b192h4jlfktg","pricing_plan_id":"cebpf4jnsgd1na2vs0mg"},{"bike_id":"a40588ee-00f9-4620-a7e7-03b577ebbb6e","system_id":"levelo_inurba_marseille","lat":43.23169,"lon":5.39969,"is_reserved":false,"is_disabled":false,"rental_uris":{"android":"levelo://app?vid=a40588ee-00f9-4620-a7e7-03b577ebbb6e","ios":"levelo://app?vid=a40588ee-00f9-4620-a7e7-03b577ebbb6e"},"vehicle_type_id":"4","last_reported":1748369631,"current_range_meters":12000,"station_id":"ce4bhn12rcd13ifvqgqg","pricing_plan_id":"cebpf4jnsgd1na2vs0mg"},{"bike_id":"064e6fa0-0d7c-4ec8-b1ad-7f69178c75b7","system_id":"levelo_inurba_marseille","lat":43.299,"lon":5.43665,"is_reserved":false,"is_disabled":false,"rental_uris":{"android":"levelo://app?vid=064e6fa0-0d7c-4ec8-b1ad-7f69178c75b7","ios":"levelo://app?vid=064e6fa0-0d7c-4ec8-b1ad-7f69178c75b7"},"vehicle_type_id":"4","last_reported":1748369631,"current_range_meters":12000,"station_id":"ce4bhpp2rcd13ifvqhfg","pricing_plan_id":"cebpf4jnsgd1na2vs0mg"},{"bike_id":"b763b140-40ce-4d5c-93ef-7bf3198ffc16","system_id":"levelo_inurba_marseille","lat":43.284515,"lon":5.358925,"is_reserved":false,"is_disabled":false,"rental_uris":{"android":"levelo://app?vid=b763b140-40ce-4d5c-93ef-7bf3198ffc16","ios":"levelo://app?vid=b763b140-40ce-4d5c-93ef-7bf3198ffc16"},"vehicle_type_id":"4","last_reported":1748369631,"current_range_meters":12000,"station_id":"ce4bhah2rcd13ifvqei0","pricing_plan_id":"cebpf4jnsgd1na2vs0mg"},{"bike_id":"8a5d617a-a0a9-42df-994e-6831d8fb2817","system_id":"levelo_inurba_marseille","lat":43.28409,"lon":5.35,"is_reserved":false,"is_disabled":false,"rental_uris":{"android":"levelo://app?vid=8a5d617a-a0a9-42df-994e-6831d8fb2817","ios":"levelo://app?vid=8a5d617a-a0a9-42df-994e-6831d8fb2817"},"vehicle_type_id":"4","last_reported":1748369631,"current_range_meters":12400,"station_id":"ce4bhbh2rcd13ifvqepg","pricing_plan_id":"cebpf4jnsgd1na2vs0mg"},{"bike_id":"42346980-f537-4d88-8812-f1c3c65c8396","system_id":"levelo_inurba_marseille","lat":43.24816,"lon":5.37451,"is_reserved":false,"is_disabled":false,"rental_uris":{"android":"levelo://app?vid=42346980-f537-4d88-8812-f1c3c65c8396","ios":"levelo://app?vid=42346980-f537-4d88-8812-f1c3c65c8396"},"vehicle_type_id":"4","last_reported":1748369631,"current_range_meters":12400,"station_id":"ce4bhgh2rcd13ifvqfb0","pricing_plan_id":"cebpf4jnsgd1na2vs0mg"},{"bike_id":"b1de6594-afeb-44f0-a7f9-d29efab468fd","system_id":"levelo_inurba_marseille","lat":43.28619,"lon":5.3511,"is_reserved":false,"is_disabled":false,"rental_uris":{"android":"levelo://app?vid=b1de6594-afeb-44f0-a7f9-d29efab468fd","ios":"levelo://app?vid=b1de6594-afeb-44f0-a7f9-d29efab468fd"},"vehicle_type_id":"4","last_reported":1748369631,"current_range_meters":12400,"station_id":"ce4bhch2rcd13ifvqeug","pricing_plan_id":"cebpf4jnsgd1na2vs0mg"},{"bike_id":"3bb69b95-acc1-4494-9449-5a747ed5114d","system_id":"levelo_inurba_marseille","lat":43.2738,"lon":5.36243,"is_reserved":false,"is_disabled":false,"rental_uris":{"android":"levelo://app?vid=3bb69b95-acc1-4494-9449-5a747ed5114d","ios":"levelo://app?vid=3bb69b95-acc1-4494-9449-5a747ed5114d"},"vehicle_type_id":"4","last_reported":1748369631,"current_range_meters":12400,"station_id":"ce4bhbh2rcd13ifvqeo0","pricing_plan_id":"cebpf4jnsgd1na2vs0mg"},{"bike_id":"574480ce-2095-452c-a4c0-0cfe9d5e011b","system_id":"levelo_inurba_marseille","lat":43.25108,"lon":5.40325,"is_reserved":false,"is_disabled":false,"rental_uris":{"android":"levelo://app?vid=574480ce-2095-452c-a4c0-0cfe9d5e011b","ios":"levelo://app?vid=574480ce-2095-452c-a4c0-0cfe9d5e011b"},"vehicle_type_id":"4","last_reported":1748369631,"current_range_meters":12400,"station_id":"ce4bhlh2rcd13ifvqgig","pricing_plan_id":"cebpf4jnsgd1na2vs0mg"},{"bike_id":"117bf755-2682-426d-9a0b-5e0bd1723a20","system_id":"levelo_inurba_marseille","lat":43.27376,"lon":5.36262,"is_reserved":false,"is_disabled":false,"rental_uris":{"android":"levelo://app?vid=117bf755-2682-426d-9a0b-5e0bd1723a20","ios":"levelo://app?vid=117bf755-2682-426d-9a0b-5e0bd1723a20"},"vehicle_type_id":"4","last_reported":1748369631,"current_range_meters":12400,"station_id":"ce4bhbh2rcd13ifvqeo0","pricing_plan_id":"cebpf4jnsgd1na2vs0mg"},{"bike_id":"4f572cde-1e88-481e-a81d-ee0972e84409","system_id":"levelo_inurba_marseille","lat":43.28933,"lon":5.36637,"is_reserved":false,"is_disabled":false,"rental_uris":{"android":"levelo://app?vid=4f572cde-1e88-481e-a81d-ee0972e84409","ios":"levelo://app?vid=4f572cde-1e88-481e-a81d-ee0972e84409"},"vehicle_type_id":"4","last_reported":1748369631,"current_range_meters":12800,"station_id":"ce4bhap2rcd13ifvqek0","pricing_plan_id":"cebpf4jnsgd1na2vs0mg"},{"bike_id":"f9259fcb-39cf-49a7-b019-4de1bd4b093a","system_id":"levelo_inurba_marseille","lat":43.29005,"lon":5.35611,"is_reserved":false,"is_disabled":false,"rental_uris":{"android":"levelo://app?vid=f9259fcb-39cf-49a7-b019-4de1bd4b093a","ios":"levelo://app?vid=f9259fcb-39cf-49a7-b019-4de1bd4b093a"},"vehicle_type_id":"4","last_reported":1748369631,"current_range_meters":12800,"station_id":"ce4bhb92rcd13ifvqen0","pricing_plan_id":"cebpf4jnsgd1na2vs0mg"},{"bike_id":"56303e41-2b27-4d35-8ea7-4c7f6f219c1a","system_id":"levelo_inurba_marseille","lat":43.21763,"lon":5.346,"is_reserved":false,"is_disabled":false,"rental_uris":{"android":"levelo://app?vid=56303e41-2b27-4d35-8ea7-4c7f6f219c1a","ios":"levelo://app?vid=56303e41-2b27-4d35-8ea7-4c7f6f219c1a"},"vehicle_type_id":"4","last_reported":1748369631,"current_range_meters":12800,"station_id":"","pricing_plan_id":"cebpf4jnsgd1na2vs0mg"},{"bike_id":"84f20522-6fe9-4131-aa99-7e652947bcde","system_id":"levelo_inurba_marseille","lat":43.284254,"lon":5.349954,"is_reserved":false,"is_disabled":false,"rental_uris":{"android":"levelo://app?vid=84f20522-6fe9-4131-aa99-7e652947bcde","ios":"levelo://app?vid=84f20522-6fe9-4131-aa99-7e652947bcde"},"vehicle_type_id":"4","last_reported":1748369631,"current_range_meters":12800,"station_id":"ce4bhbh2rcd13ifvqepg","pricing_plan_id":"cebpf4jnsgd1na2vs0mg"},{"bike_id":"7a82969b-d5a5-4eed-a105-dfab32507282","system_id":"levelo_inurba_marseille","lat":43.25827,"lon":5.3944,"is_reserved":false,"is_disabled":false,"rental_uris":{"android":"levelo://app?vid=7a82969b-d5a5-4eed-a105-dfab32507282","ios":"levelo://app?vid=7a82969b-d5a5-4eed-a105-dfab32507282"},"vehicle_type_id":"4","last_reported":1748369631,"current_range_meters":12800,"station_id":"ce4bhip2rcd13ifvqft0","pricing_plan_id":"cebpf4jnsgd1na2vs0mg"},{"bike_id":"83a95ad9-81bd-41a0-8e83-83654aadf00b","system_id":"levelo_inurba_marseille","lat":43.28158,"lon":5.42645,"is_reserved":false,"is_disabled":false,"rental_uris":{"android":"levelo://app?vid=83a95ad9-81bd-41a0-8e83-83654aadf00b","ios":"levelo://app?vid=83a95ad9-81bd-41a0-8e83-83654aadf00b"},"vehicle_type_id":"4","last_reported":1748369631,"current_range_meters":13600,"station_id":"ce4bhnh2rcd13ifvqgug","pricing_plan_id":"cebpf4jnsgd1na2vs0mg"},{"bike_id":"18f379c0-cd6a-4d28-94be-da5478774af1","system_id":"levelo_inurba_marseille","lat":43.29034,"lon":5.35917,"is_reserved":false,"is_disabled":true,"rental_uris":{"android":"levelo://app?vid=18f379c0-cd6a-4d28-94be-da5478774af1","ios":"levelo://app?vid=18f379c0-cd6a-4d28-94be-da5478774af1"},"vehicle_type_id":"4","last_reported":1748369631,"current_range_meters":13600,"station_id":"ce4bha92rcd13ifvqeg0","pricing_plan_id":"cebpf4jnsgd1na2vs0mg"},{"bike_id":"ed8561ee-297c-4b31-902c-fa49a6f55e56","system_id":"levelo_inurba_marseille","lat":43.27073,"lon":5.42284,"is_reserved":false,"is_disabled":false,"rental_uris":{"android":"levelo://app?vid=ed8561ee-297c-4b31-902c-fa49a6f55e56","ios":"levelo://app?vid=ed8561ee-297c-4b31-902c-fa49a6f55e56"},"vehicle_type_id":"4","last_reported":1748369631,"current_range_meters":12800,"station_id":"ce4bhk92rcd13ifvqgb0","pricing_plan_id":"cebpf4jnsgd1na2vs0mg"},{"bike_id":"54d619eb-d5de-4b2b-9336-6f3587fb20da","system_id":"levelo_inurba_marseille","lat":43.29428,"lon":5.38629,"is_reserved":false,"is_disabled":false,"rental_uris":{"android":"levelo://app?vid=54d619eb-d5de-4b2b-9336-6f3587fb20da","ios":"levelo://app?vid=54d619eb-d5de-4b2b-9336-6f3587fb20da"},"vehicle_type_id":"4","last_reported":1748369631,"current_range_meters":13600,"station_id":"ce4bh2h2rcd13ifvqdh0","pricing_plan_id":"cebpf4jnsgd1na2vs0mg"},{"bike_id":"6e373a21-bf96-465b-a4c9-296d448197e4","system_id":"levelo_inurba_marseille","lat":43.2808,"lon":5.39668,"is_reserved":false,"is_disabled":false,"rental_uris":{"android":"levelo://app?vid=6e373a21-bf96-465b-a4c9-296d448197e4","ios":"levelo://app?vid=6e373a21-bf96-465b-a4c9-296d448197e4"},"vehicle_type_id":"4","last_reported":1748369631,"current_range_meters":13600,"station_id":"ce4bho12rcd13ifvqh2g","pricing_plan_id":"cebpf4jnsgd1na2vs0mg"},{"bike_id":"cc391400-7d4c-4261-8004-e9968eddac7e","system_id":"levelo_inurba_marseille","lat":43.29061,"lon":5.37559,"is_reserved":false,"is_disabled":true,"rental_uris":{"android":"levelo://app?vid=cc391400-7d4c-4261-8004-e9968eddac7e","ios":"levelo://app?vid=cc391400-7d4c-4261-8004-e9968eddac7e"},"vehicle_type_id":"4","last_reported":1748369631,"current_range_meters":13600,"station_id":"ce4bh692rcd13ifvqe90","pricing_plan_id":"cebpf4jnsgd1na2vs0mg"},{"bike_id":"17921bb6-a072-4f71-b183-06f47ede7acf","system_id":"levelo_inurba_marseille","lat":43.29961,"lon":5.38502,"is_reserved":false,"is_disabled":false,"rental_uris":{"android":"levelo://app?vid=17921bb6-a072-4f71-b183-06f47ede7acf","ios":"levelo://app?vid=17921bb6-a072-4f71-b183-06f47ede7acf"},"vehicle_type_id":"4","last_reported":1748369631,"current_range_meters":13600,"station_id":"ce4bgj92rcd13ifvqbd0","pricing_plan_id":"cebpf4jnsgd1na2vs0mg"},{"bike_id":"8b8f4ddc-5f2d-41ad-9613-91a528fd4361","system_id":"levelo_inurba_marseille","lat":43.22929,"lon":5.35406,"is_reserved":false,"is_disabled":false,"rental_uris":{"android":"levelo://app?vid=8b8f4ddc-5f2d-41ad-9613-91a528fd4361","ios":"levelo://app?vid=8b8f4ddc-5f2d-41ad-9613-91a528fd4361"},"vehicle_type_id":"4","last_reported":1748369631,"current_range_meters":13600,"station_id":"cpo3532slgdg3j2ikp40","pricing_plan_id":"cebpf4jnsgd1na2vs0mg"},{"bike_id":"daa8a49f-122c-4d26-bdef-9f4f3e827bca","system_id":"levelo_inurba_marseille","lat":43.2842,"lon":5.35002,"is_reserved":false,"is_disabled":false,"rental_uris":{"android":"levelo://app?vid=daa8a49f-122c-4d26-bdef-9f4f3e827bca","ios":"levelo://app?vid=daa8a49f-122c-4d26-bdef-9f4f3e827bca"},"vehicle_type_id":"4","last_reported":1748369631,"current_range_meters":13600,"station_id":"ce4bhbh2rcd13ifvqepg","pricing_plan_id":"cebpf4jnsgd1na2vs0mg"},{"bike_id":"94f81dc8-c1e2-4372-947f-5020cb9bb12f","system_id":"levelo_inurba_marseille","lat":43.27835,"lon":5.39208,"is_reserved":false,"is_disabled":false,"rental_uris":{"android":"levelo://app?vid=94f81dc8-c1e2-4372-947f-5020cb9bb12f","ios":"levelo://app?vid=94f81dc8-c1e2-4372-947f-5020cb9bb12f"},"vehicle_type_id":"4","last_reported":1748369631,"current_range_meters":13600,"station_id":"ce4bhjp2rcd13ifvqga0","pricing_plan_id":"cebpf4jnsgd1na2vs0mg"},{"bike_id":"0dcd364c-fb8a-49ce-831f-7e333e80737f","system_id":"levelo_inurba_marseille","lat":43.25821,"lon":5.39432,"is_reserved":false,"is_disabled":false,"rental_uris":{"android":"levelo://app?vid=0dcd364c-fb8a-49ce-831f-7e333e80737f","ios":"levelo://app?vid=0dcd364c-fb8a-49ce-831f-7e333e80737f"},"vehicle_type_id":"4","last_reported":1748369631,"current_range_meters":14000,"station_id":"ce4bhip2rcd13ifvqft0","pricing_plan_id":"cebpf4jnsgd1na2vs0mg"},{"bike_id":"367af676-199b-49eb-9010-0eb299fe51eb","system_id":"levelo_inurba_marseille","lat":43.25872,"lon":5.39895,"is_reserved":false,"is_disabled":false,"rental_uris":{"android":"levelo://app?vid=367af676-199b-49eb-9010-0eb299fe51eb","ios":"levelo://app?vid=367af676-199b-49eb-9010-0eb299fe51eb"},"vehicle_type_id":"4","last_reported":1748369631,"current_range_meters":14000,"station_id":"ce4bhl92rcd13ifvqghg","pricing_plan_id":"cebpf4jnsgd1na2vs0mg"},{"bike_id":"5212186a-8b0e-48ca-918c-41f0045308c1","system_id":"levelo_inurba_marseille","lat":43.31074,"lon":5.38352,"is_reserved":false,"is_disabled":false,"rental_uris":{"android":"levelo://app?vid=5212186a-8b0e-48ca-918c-41f0045308c1","ios":"levelo://app?vid=5212186a-8b0e-48ca-918c-41f0045308c1"},"vehicle_type_id":"4","last_reported":1748369631,"current_range_meters":14000,"station_id":"ce4bgv92rcd13ifvqcr0","pricing_plan_id":"cebpf4jnsgd1na2vs0mg"},{"bike_id":"d403d33f-5630-40c5-aed0-d83497c5337b","system_id":"levelo_inurba_marseille","lat":43.292273,"lon":5.360669,"is_reserved":false,"is_disabled":false,"rental_uris":{"android":"levelo://app?vid=d403d33f-5630-40c5-aed0-d83497c5337b","ios":"levelo://app?vid=d403d33f-5630-40c5-aed0-d83497c5337b"},"vehicle_type_id":"4","last_reported":1748369631,"current_range_meters":14000,"station_id":"ce4bhbh2rcd13ifvqeqg","pricing_plan_id":"cebpf4jnsgd1na2vs0mg"},{"bike_id":"6a2eb3d1-8421-4db2-9c25-13e15f56bb41","system_id":"levelo_inurba_marseille","lat":43.30936,"lon":5.40148,"is_reserved":false,"is_disabled":false,"rental_uris":{"android":"levelo://app?vid=6a2eb3d1-8421-4db2-9c25-13e15f56bb41","ios":"levelo://app?vid=6a2eb3d1-8421-4db2-9c25-13e15f56bb41"},"vehicle_type_id":"4","last_reported":1748369631,"current_range_meters":14000,"station_id":"ce4bgvp2rcd13ifvqct0","pricing_plan_id":"cebpf4jnsgd1na2vs0mg"},{"bike_id":"246c55bc-39f9-4954-b708-f9302b3ebdcf","system_id":"levelo_inurba_marseille","lat":43.26939,"lon":5.40257,"is_reserved":false,"is_disabled":false,"rental_uris":{"android":"levelo://app?vid=246c55bc-39f9-4954-b708-f9302b3ebdcf","ios":"levelo://app?vid=246c55bc-39f9-4954-b708-f9302b3ebdcf"},"vehicle_type_id":"4","last_reported":1748369631,"current_range_meters":14000,"station_id":"cjm6bp8fraef2m0cb0m0","pricing_plan_id":"cebpf4jnsgd1na2vs0mg"},{"bike_id":"16325869-b0b1-4ea6-b5e0-4206964d490a","system_id":"levelo_inurba_marseille","lat":43.26034,"lon":5.41741,"is_reserved":false,"is_disabled":false,"rental_uris":{"android":"levelo://app?vid=16325869-b0b1-4ea6-b5e0-4206964d490a","ios":"levelo://app?vid=16325869-b0b1-4ea6-b5e0-4206964d490a"},"vehicle_type_id":"4","last_reported":1748369631,"current_range_meters":14000,"station_id":"","pricing_plan_id":"cebpf4jnsgd1na2vs0mg"},{"bike_id":"9457a377-3567-464b-b191-f8d2ccbd3d31","system_id":"levelo_inurba_marseille","lat":43.31697,"lon":5.40465,"is_reserved":false,"is_disabled":false,"rental_uris":{"android":"levelo://app?vid=9457a377-3567-464b-b191-f8d2ccbd3d31","ios":"levelo://app?vid=9457a377-3567-464b-b191-f8d2ccbd3d31"},"vehicle_type_id":"4","last_reported":1748369631,"current_range_meters":14000,"station_id":"ce4bh012rcd13ifvqd00","pricing_plan_id":"cebpf4jnsgd1na2vs0mg"},{"bike_id":"027996d9-c458-4fe9-9def-7a537508c67a","system_id":"levelo_inurba_marseille","lat":43.265507,"lon":5.372944,"is_reserved":false,"is_disabled":false,"rental_uris":{"android":"levelo://app?vid=027996d9-c458-4fe9-9def-7a537508c67a","ios":"levelo://app?vid=027996d9-c458-4fe9-9def-7a537508c67a"},"vehicle_type_id":"4","last_reported":1748369631,"current_range_meters":14400,"station_id":"ce4bhg12rcd13ifvqf70","pricing_plan_id":"cebpf4jnsgd1na2vs0mg"},{"bike_id":"c3805d3a-851b-4ec6-9487-975a303f4ebd","system_id":"levelo_inurba_marseille","lat":43.27386,"lon":5.3624,"is_reserved":false,"is_disabled":false,"rental_uris":{"android":"levelo://app?vid=c3805d3a-851b-4ec6-9487-975a303f4ebd","ios":"levelo://app?vid=c3805d3a-851b-4ec6-9487-975a303f4ebd"},"vehicle_type_id":"4","last_reported":1748369631,"current_range_meters":14400,"station_id":"ce4bhbh2rcd13ifvqeo0","pricing_plan_id":"cebpf4jnsgd1na2vs0mg"},{"bike_id":"73a58cca-81d1-4657-9ac0-535389d16cdd","system_id":"levelo_inurba_marseille","lat":43.32013,"lon":5.38151,"is_reserved":false,"is_disabled":false,"rental_uris":{"android":"levelo://app?vid=73a58cca-81d1-4657-9ac0-535389d16cdd","ios":"levelo://app?vid=73a58cca-81d1-4657-9ac0-535389d16cdd"},"vehicle_type_id":"4","last_reported":1748369631,"current_range_meters":14400,"station_id":"ce4bhr12rcd13ifvqhpg","pricing_plan_id":"cebpf4jnsgd1na2vs0mg"},{"bike_id":"45c941a7-9562-4778-ae0c-86ddbaf5a628","system_id":"levelo_inurba_marseille","lat":43.24546,"lon":5.39529,"is_reserved":false,"is_disabled":false,"rental_uris":{"android":"levelo://app?vid=45c941a7-9562-4778-ae0c-86ddbaf5a628","ios":"levelo://app?vid=45c941a7-9562-4778-ae0c-86ddbaf5a628"},"vehicle_type_id":"4","last_reported":1748369631,"current_range_meters":14400,"station_id":"ce4bhlp2rcd13ifvqgjg","pricing_plan_id":"cebpf4jnsgd1na2vs0mg"},{"bike_id":"75edbc9d-3a38-4b9f-b391-157580ca1f34","system_id":"levelo_inurba_marseille","lat":43.26564,"lon":5.40329,"is_reserved":false,"is_disabled":false,"rental_uris":{"android":"levelo://app?vid=75edbc9d-3a38-4b9f-b391-157580ca1f34","ios":"levelo://app?vid=75edbc9d-3a38-4b9f-b391-157580ca1f34"},"vehicle_type_id":"4","last_reported":1748369631,"current_range_meters":14400,"station_id":"","pricing_plan_id":"cebpf4jnsgd1na2vs0mg"},{"bike_id":"757be4cf-acd1-4a26-9a0b-9f46de00a430","system_id":"levelo_inurba_marseille","lat":43.29102,"lon":5.3815,"is_reserved":false,"is_disabled":false,"rental_uris":{"android":"levelo://app?vid=757be4cf-acd1-4a26-9a0b-9f46de00a430","ios":"levelo://app?vid=757be4cf-acd1-4a26-9a0b-9f46de00a430"},"vehicle_type_id":"4","last_reported":1748369631,"current_range_meters":14400,"station_id":"ce4bh512rcd13ifvqe2g","pricing_plan_id":"cebpf4jnsgd1na2vs0mg"},{"bike_id":"eba114c9-8c04-4b9a-aa60-dd315a5bbc77","system_id":"levelo_inurba_marseille","lat":43.303,"lon":5.39201,"is_reserved":false,"is_disabled":false,"rental_uris":{"android":"levelo://app?vid=eba114c9-8c04-4b9a-aa60-dd315a5bbc77","ios":"levelo://app?vid=eba114c9-8c04-4b9a-aa60-dd315a5bbc77"},"vehicle_type_id":"4","last_reported":1748369631,"current_range_meters":14400,"station_id":"ce4bgkh2rcd13ifvqbk0","pricing_plan_id":"cebpf4jnsgd1na2vs0mg"},{"bike_id":"2447e726-02f2-4707-a232-a209224dd9ad","system_id":"levelo_inurba_marseille","lat":43.33026,"lon":5.39047,"is_reserved":false,"is_disabled":false,"rental_uris":{"android":"levelo://app?vid=2447e726-02f2-4707-a232-a209224dd9ad","ios":"levelo://app?vid=2447e726-02f2-4707-a232-a209224dd9ad"},"vehicle_type_id":"4","last_reported":1748369631,"current_range_meters":14400,"station_id":"ce4bhr92rcd13ifvqhrg","pricing_plan_id":"cebpf4jnsgd1na2vs0mg"},{"bike_id":"b9feece3-8db7-4d9c-b5c4-3d592ac61b90","system_id":"levelo_inurba_marseille","lat":43.291848,"lon":5.358085,"is_reserved":false,"is_disabled":false,"rental_uris":{"android":"levelo://app?vid=b9feece3-8db7-4d9c-b5c4-3d592ac61b90","ios":"levelo://app?vid=b9feece3-8db7-4d9c-b5c4-3d592ac61b90"},"vehicle_type_id":"4","last_reported":1748369631,"current_range_meters":14400,"station_id":"","pricing_plan_id":"cebpf4jnsgd1na2vs0mg"},{"bike_id":"69c0fd55-cd72-4f90-a33e-0ecbe62d3f06","system_id":"levelo_inurba_marseille","lat":43.28409,"lon":5.34987,"is_reserved":false,"is_disabled":false,"rental_uris":{"android":"levelo://app?vid=69c0fd55-cd72-4f90-a33e-0ecbe62d3f06","ios":"levelo://app?vid=69c0fd55-cd72-4f90-a33e-0ecbe62d3f06"},"vehicle_type_id":"4","last_reported":1748369631,"current_range_meters":14800,"station_id":"ce4bhbh2rcd13ifvqepg","pricing_plan_id":"cebpf4jnsgd1na2vs0mg"},{"bike_id":"5a621852-4b0d-47fa-9514-efb82e08741c","system_id":"levelo_inurba_marseille","lat":43.33783,"lon":5.37462,"is_reserved":false,"is_disabled":true,"rental_uris":{"android":"levelo://app?vid=5a621852-4b0d-47fa-9514-efb82e08741c","ios":"levelo://app?vid=5a621852-4b0d-47fa-9514-efb82e08741c"},"vehicle_type_id":"4","last_reported":1748369631,"current_range_meters":14800,"station_id":"","pricing_plan_id":"cebpf4jnsgd1na2vs0mg"},{"bike_id":"e3e5de13-ccd2-41df-9cbd-60e33cf5d625","system_id":"levelo_inurba_marseille","lat":43.27379,"lon":5.36259,"is_reserved":false,"is_disabled":false,"rental_uris":{"android":"levelo://app?vid=e3e5de13-ccd2-41df-9cbd-60e33cf5d625","ios":"levelo://app?vid=e3e5de13-ccd2-41df-9cbd-60e33cf5d625"},"vehicle_type_id":"4","last_reported":1748369631,"current_range_meters":14800,"station_id":"ce4bhbh2rcd13ifvqeo0","pricing_plan_id":"cebpf4jnsgd1na2vs0mg"},{"bike_id":"46f1e1a2-421d-4288-9b19-22918bc7cc7f","system_id":"levelo_inurba_marseille","lat":43.231945,"lon":5.355533,"is_reserved":false,"is_disabled":false,"rental_uris":{"android":"levelo://app?vid=46f1e1a2-421d-4288-9b19-22918bc7cc7f","ios":"levelo://app?vid=46f1e1a2-421d-4288-9b19-22918bc7cc7f"},"vehicle_type_id":"4","last_reported":1748369631,"current_range_meters":14800,"station_id":"ce4bhu92rcd13ifvqi70","pricing_plan_id":"cebpf4jnsgd1na2vs0mg"},{"bike_id":"2d043fa7-fa7e-46e2-a26f-fe0b5bb56082","system_id":"levelo_inurba_marseille","lat":43.3059,"lon":5.39358,"is_reserved":false,"is_disabled":false,"rental_uris":{"android":"levelo://app?vid=2d043fa7-fa7e-46e2-a26f-fe0b5bb56082","ios":"levelo://app?vid=2d043fa7-fa7e-46e2-a26f-fe0b5bb56082"},"vehicle_type_id":"4","last_reported":1748369631,"current_range_meters":14800,"station_id":"ce4bh0p2rcd13ifvqd80","pricing_plan_id":"cebpf4jnsgd1na2vs0mg"},{"bike_id":"2001f999-4bbe-4c89-bb59-87576997edd5","system_id":"levelo_inurba_marseille","lat":43.291992,"lon":5.358009,"is_reserved":false,"is_disabled":false,"rental_uris":{"android":"levelo://app?vid=2001f999-4bbe-4c89-bb59-87576997edd5","ios":"levelo://app?vid=2001f999-4bbe-4c89-bb59-87576997edd5"},"vehicle_type_id":"4","last_reported":1748369631,"current_range_meters":14800,"station_id":"ce4bhb12rcd13ifvqel0","pricing_plan_id":"cebpf4jnsgd1na2vs0mg"},{"bike_id":"7d644362-2701-4137-aac7-822704820d27","system_id":"levelo_inurba_marseille","lat":43.3176,"lon":5.39025,"is_reserved":false,"is_disabled":true,"rental_uris":{"android":"levelo://app?vid=7d644362-2701-4137-aac7-822704820d27","ios":"levelo://app?vid=7d644362-2701-4137-aac7-822704820d27"},"vehicle_type_id":"4","last_reported":1748369631,"current_range_meters":14800,"station_id":"ce4bhqp2rcd13ifvqhng","pricing_plan_id":"cebpf4jnsgd1na2vs0mg"},{"bike_id":"c2b0a68a-e7eb-499b-907f-cb66b77e823d","system_id":"levelo_inurba_marseille","lat":43.295738,"lon":5.375231,"is_reserved":false,"is_disabled":false,"rental_uris":{"android":"levelo://app?vid=c2b0a68a-e7eb-499b-907f-cb66b77e823d","ios":"levelo://app?vid=c2b0a68a-e7eb-499b-907f-cb66b77e823d"},"vehicle_type_id":"4","last_reported":1748369631,"current_range_meters":15200,"station_id":"ce4bgh92rcd13ifvqb50","pricing_plan_id":"cebpf4jnsgd1na2vs0mg"},{"bike_id":"95b379f6-58b3-4dbc-a1d9-d24207500dcc","system_id":"levelo_inurba_marseille","lat":43.28634,"lon":5.3705,"is_reserved":false,"is_disabled":false,"rental_uris":{"android":"levelo://app?vid=95b379f6-58b3-4dbc-a1d9-d24207500dcc","ios":"levelo://app?vid=95b379f6-58b3-4dbc-a1d9-d24207500dcc"},"vehicle_type_id":"4","last_reported":1748369631,"current_range_meters":15200,"station_id":"ce4bht12rcd13ifvqi60","pricing_plan_id":"cebpf4jnsgd1na2vs0mg"},{"bike_id":"b87aac56-5d07-4480-a589-3b33f7758cbc","system_id":"levelo_inurba_marseille","lat":43.28629,"lon":5.35105,"is_reserved":false,"is_disabled":false,"rental_uris":{"android":"levelo://app?vid=b87aac56-5d07-4480-a589-3b33f7758cbc","ios":"levelo://app?vid=b87aac56-5d07-4480-a589-3b33f7758cbc"},"vehicle_type_id":"4","last_reported":1748369631,"current_range_meters":15200,"station_id":"ce4bhch2rcd13ifvqeug","pricing_plan_id":"cebpf4jnsgd1na2vs0mg"},{"bike_id":"5ba11581-1170-42f5-a885-bf79fd0bd7bf","system_id":"levelo_inurba_marseille","lat":43.29991,"lon":5.3849,"is_reserved":false,"is_disabled":false,"rental_uris":{"android":"levelo://app?vid=5ba11581-1170-42f5-a885-bf79fd0bd7bf","ios":"levelo://app?vid=5ba11581-1170-42f5-a885-bf79fd0bd7bf"},"vehicle_type_id":"4","last_reported":1748369631,"current_range_meters":15200,"station_id":"ce4bgj92rcd13ifvqbd0","pricing_plan_id":"cebpf4jnsgd1na2vs0mg"},{"bike_id":"eb5d0b01-37f4-45bc-90b9-22af52fa3927","system_id":"levelo_inurba_marseille","lat":43.284532,"lon":5.35896,"is_reserved":false,"is_disabled":false,"rental_uris":{"android":"levelo://app?vid=eb5d0b01-37f4-45bc-90b9-22af52fa3927","ios":"levelo://app?vid=eb5d0b01-37f4-45bc-90b9-22af52fa3927"},"vehicle_type_id":"4","last_reported":1748369631,"current_range_meters":15200,"station_id":"ce4bhjp2rcd13ifvqga0","pricing_plan_id":"cebpf4jnsgd1na2vs0mg"},{"bike_id":"607db8a8-f09f-42ca-99c3-b1350770fac9","system_id":"levelo_inurba_marseille","lat":43.30835,"lon":5.38151,"is_reserved":false,"is_disabled":false,"rental_uris":{"android":"levelo://app?vid=607db8a8-f09f-42ca-99c3-b1350770fac9","ios":"levelo://app?vid=607db8a8-f09f-42ca-99c3-b1350770fac9"},"vehicle_type_id":"4","last_reported":1748369631,"current_range_meters":16000,"station_id":"ce4bgt12rcd13ifvqce0","pricing_plan_id":"cebpf4jnsgd1na2vs0mg"},{"bike_id":"6ebb6dd7-e028-471a-a254-2363923c0cd9","system_id":"levelo_inurba_marseille","lat":43.32095,"lon":5.36744,"is_reserved":false,"is_disabled":false,"rental_uris":{"android":"levelo://app?vid=6ebb6dd7-e028-471a-a254-2363923c0cd9","ios":"levelo://app?vid=6ebb6dd7-e028-471a-a254-2363923c0cd9"},"vehicle_type_id":"4","last_reported":1748369631,"current_range_meters":16000,"station_id":"ce4bhrh2rcd13ifvqhug","pricing_plan_id":"cebpf4jnsgd1na2vs0mg"},{"bike_id":"47583335-9e10-4931-b076-003bea66dc0e","system_id":"levelo_inurba_marseille","lat":43.28218,"lon":5.39074,"is_reserved":false,"is_disabled":false,"rental_uris":{"android":"levelo://app?vid=47583335-9e10-4931-b076-003bea66dc0e","ios":"levelo://app?vid=47583335-9e10-4931-b076-003bea66dc0e"},"vehicle_type_id":"4","last_reported":1748369631,"current_range_meters":16000,"station_id":"","pricing_plan_id":"cebpf4jnsgd1na2vs0mg"},{"bike_id":"e8264270-6e82-48a0-9de5-a3f73f59db95","system_id":"levelo_inurba_marseille","lat":43.23177,"lon":5.39987,"is_reserved":false,"is_disabled":false,"rental_uris":{"android":"levelo://app?vid=e8264270-6e82-48a0-9de5-a3f73f59db95","ios":"levelo://app?vid=e8264270-6e82-48a0-9de5-a3f73f59db95"},"vehicle_type_id":"4","last_reported":1748369631,"current_range_meters":16000,"station_id":"ce4bhn12rcd13ifvqgqg","pricing_plan_id":"cebpf4jnsgd1na2vs0mg"},{"bike_id":"3189a836-3bc1-4d00-96e7-6180f7019e10","system_id":"levelo_inurba_marseille","lat":43.32334,"lon":5.40631,"is_reserved":false,"is_disabled":false,"rental_uris":{"android":"levelo://app?vid=3189a836-3bc1-4d00-96e7-6180f7019e10","ios":"levelo://app?vid=3189a836-3bc1-4d00-96e7-6180f7019e10"},"vehicle_type_id":"4","last_reported":1748369631,"current_range_meters":16000,"station_id":"ce4bhq92rcd13ifvqhjg","pricing_plan_id":"cebpf4jnsgd1na2vs0mg"},{"bike_id":"134c70cc-46f1-414c-ba60-b99ba2b4a992","system_id":"levelo_inurba_marseille","lat":43.34844,"lon":5.3513,"is_reserved":false,"is_disabled":false,"rental_uris":{"android":"levelo://app?vid=134c70cc-46f1-414c-ba60-b99ba2b4a992","ios":"levelo://app?vid=134c70cc-46f1-414c-ba60-b99ba2b4a992"},"vehicle_type_id":"4","last_reported":1748369631,"current_range_meters":16000,"station_id":"","pricing_plan_id":"cebpf4jnsgd1na2vs0mg"},{"bike_id":"eeed1941-7e04-4cba-b3e6-1db9c6d88a91","system_id":"levelo_inurba_marseille","lat":43.28446,"lon":5.39198,"is_reserved":false,"is_disabled":false,"rental_uris":{"android":"levelo://app?vid=eeed1941-7e04-4cba-b3e6-1db9c6d88a91","ios":"levelo://app?vid=eeed1941-7e04-4cba-b3e6-1db9c6d88a91"},"vehicle_type_id":"4","last_reported":1748369631,"current_range_meters":16000,"station_id":"ce4bhoh2rcd13ifvqh5g","pricing_plan_id":"cebpf4jnsgd1na2vs0mg"},{"bike_id":"e6476a17-d86c-47a1-84f9-8f5f36e3fdf5","system_id":"levelo_inurba_marseille","lat":43.29934,"lon":5.36555,"is_reserved":false,"is_disabled":false,"rental_uris":{"android":"levelo://app?vid=e6476a17-d86c-47a1-84f9-8f5f36e3fdf5","ios":"levelo://app?vid=e6476a17-d86c-47a1-84f9-8f5f36e3fdf5"},"vehicle_type_id":"4","last_reported":1748369631,"current_range_meters":16400,"station_id":"ce4bgm92rcd13ifvqbr0","pricing_plan_id":"cebpf4jnsgd1na2vs0mg"},{"bike_id":"7931f791-7f35-41ae-87ef-5aae375e788b","system_id":"levelo_inurba_marseille","lat":43.29199,"lon":5.39329,"is_reserved":false,"is_disabled":false,"rental_uris":{"android":"levelo://app?vid=7931f791-7f35-41ae-87ef-5aae375e788b","ios":"levelo://app?vid=7931f791-7f35-41ae-87ef-5aae375e788b"},"vehicle_type_id":"4","last_reported":1748369631,"current_range_meters":16400,"station_id":"ce4bh192rcd13ifvqdd0","pricing_plan_id":"cebpf4jnsgd1na2vs0mg"},{"bike_id":"42045770-10fa-4030-be24-ba249c1f8258","system_id":"levelo_inurba_marseille","lat":43.31118,"lon":5.37771,"is_reserved":false,"is_disabled":false,"rental_uris":{"android":"levelo://app?vid=42045770-10fa-4030-be24-ba249c1f8258","ios":"levelo://app?vid=42045770-10fa-4030-be24-ba249c1f8258"},"vehicle_type_id":"4","last_reported":1748369631,"current_range_meters":16400,"station_id":"ce4bgt92rcd13ifvqcg0","pricing_plan_id":"cebpf4jnsgd1na2vs0mg"},{"bike_id":"a6e6b3b6-8c4d-41be-8e64-28c8df7f161c","system_id":"levelo_inurba_marseille","lat":43.30641,"lon":5.40092,"is_reserved":false,"is_disabled":false,"rental_uris":{"android":"levelo://app?vid=a6e6b3b6-8c4d-41be-8e64-28c8df7f161c","ios":"levelo://app?vid=a6e6b3b6-8c4d-41be-8e64-28c8df7f161c"},"vehicle_type_id":"4","last_reported":1748369631,"current_range_meters":16000,"station_id":"ce4bh112rcd13ifvqda0","pricing_plan_id":"cebpf4jnsgd1na2vs0mg"},{"bike_id":"28fda18c-1b02-4bad-9780-2705cd353914","system_id":"levelo_inurba_marseille","lat":43.25115,"lon":5.40322,"is_reserved":false,"is_disabled":false,"rental_uris":{"android":"levelo://app?vid=28fda18c-1b02-4bad-9780-2705cd353914","ios":"levelo://app?vid=28fda18c-1b02-4bad-9780-2705cd353914"},"vehicle_type_id":"4","last_reported":1748369631,"current_range_meters":16400,"station_id":"ce4bhlh2rcd13ifvqgig","pricing_plan_id":"cebpf4jnsgd1na2vs0mg"},{"bike_id":"a2c36814-c045-4370-89e6-75ff4bae4abf","system_id":"levelo_inurba_marseille","lat":43.27374,"lon":5.36258,"is_reserved":false,"is_disabled":false,"rental_uris":{"android":"levelo://app?vid=a2c36814-c045-4370-89e6-75ff4bae4abf","ios":"levelo://app?vid=a2c36814-c045-4370-89e6-75ff4bae4abf"},