{"last_updated":1745233677,"ttl":60,"version":"2.2","data":{"bikes":[{"bike_id":"775f1624-8e11-4d84-905e-e8227017f80a","system_id":"levelo_inurba_marseille","lat":43.2928,"lon":5.36833,"is_reserved":false,"is_disabled":true,"rental_uris":{"android":"levelo://app?vid=775f1624-8e11-4d84-905e-e8227017f80a","ios":"levelo://app?vid=775f1624-8e11-4d84-905e-e8227017f80a"},"vehicle_type_id":"4","last_reported":1745233677,"current_range_meters":2800,"station_id":"ce4bhbp2rcd13ifvqesg","pricing_plan_id":"cebpf4jnsgd1na2vs0mg"},{"bike_id":"9505d467-61db-458e-b551-fa48f4e457da","system_id":"levelo_inurba_marseille","lat":43.23961,"lon":5.36627,"is_reserved":false,"is_disabled":false,"rental_uris":{"android":"levelo://app?vid=9505d467-61db-458e-b551-fa48f4e457da","ios":"levelo://app?vid=9505d467-61db-458e-b551-fa48f4e457da"},"vehicle_type_id":"4","last_reported":1745233677,"current_range_meters":3200,"station_id":"ce4bhi12rcd13ifvqfp0","pricing_plan_id":"cebpf4jnsgd1na2vs0mg"},{"bike_id":"eaef83c9-13f5-440c-8bbc-1a50bd761e79","system_id":"levelo_inurba_marseille","lat":43.273683,"lon":5.362524,"is_reserved":false,"is_disabled":false,"rental_uris":{"android":"levelo://app?vid=eaef83c9-13f5-440c-8bbc-1a50bd761e79","ios":"levelo://app?vid=eaef83c9-13f5-440c-8bbc-1a50bd761e79"},"vehicle_type_id":"4","last_reported":1745233677,"current_range_meters":3200,"station_id":"ce4bhbh2rcd13ifvqeo0","pricing_plan_id":"cebpf4jnsgd1na2vs0mg"},{"bike_id":"8e875b3c-2f80-4233-acaa-1c2744fc5658","system_id":"levelo_inurba_marseille","lat":43.27379,"lon":5.36251,"is_reserved":false,"is_disabled":true,"rental_uris":{"android":"levelo://app?vid=8e875b3c-2f80-4233-acaa-1c2744fc5658","ios":"levelo://app?vid=8e875b3c-2f80-4233-acaa-1c2744fc5658"},"vehicle_type_id":"4","last_reported":1745233677,"current_range_meters":3200,"station_id":"ce4bhbh2rcd13ifvqeo0","pricing_plan_id":"cebpf4jnsgd1na2vs0mg"},{"bike_id":"1b4a8f9d-2faa-464e-b7a7-813f9c13d848","system_id":"levelo_inurba_marseille","lat":43.2416,"lon":5.364,"is_reserved":false,"is_disabled":true,"rental_uris":{"android":"levelo://app?vid=1b4a8f9d-2faa-464e-b7a7-813f9c13d848","ios":"levelo://app?vid=1b4a8f9d-2faa-464e-b7a7-813f9c13d848"},"vehicle_type_id":"4","last_reported":1745233677,"current_range_meters":3200,"station_id":"cpo36qri1sfpv3e86is0","pricing_plan_id":"cebpf4jnsgd1na2vs0mg"},{"bike_id":"cc8413ae-bc4e-4483-830f-8c4da63d2301","system_id":"levelo_inurba_marseille","lat":43.25111,"lon":5.40335,"is_reserved":false,"is_disabled":false,"rental_uris":{"android":"levelo://app?vid=cc8413ae-bc4e-4483-830f-8c4da63d2301","ios":"levelo://app?vid=cc8413ae-bc4e-4483-830f-8c4da63d2301"},"vehicle_type_id":"4","last_reported":1745233677,"current_range_meters":2000,"station_id":"ce4bhlh2rcd13ifvqgig","pricing_plan_id":"cebpf4jnsgd1na2vs0mg"},{"bike_id":"f25f63f0-9620-4c26-9e6c-e764e98d5cef","system_id":"levelo_inurba_marseille","lat":43.29009,"lon":5.35614,"is_reserved":false,"is_disabled":false,"rental_uris":{"android":"levelo://app?vid=f25f63f0-9620-4c26-9e6c-e764e98d5cef","ios":"levelo://app?vid=f25f63f0-9620-4c26-9e6c-e764e98d5cef"},"vehicle_type_id":"4","last_reported":1745233677,"current_range_meters":3600,"station_id":"ce4bhb92rcd13ifvqen0","pricing_plan_id":"cebpf4jnsgd1na2vs0mg"},{"bike_id":"56c66199-f145-4c12-a65f-f76b577b5ac3","system_id":"levelo_inurba_marseille","lat":43.31724,"lon":5.42399,"is_reserved":false,"is_disabled":false,"rental_uris":{"android":"levelo://app?vid=56c66199-f145-4c12-a65f-f76b577b5ac3","ios":"levelo://app?vid=56c66199-f145-4c12-a65f-f76b577b5ac3"},"vehicle_type_id":"4","last_reported":1745233677,"current_range_meters":4000,"station_id":"ce4bhp92rcd13ifvqhbg","pricing_plan_id":"cebpf4jnsgd1na2vs0mg"},{"bike_id":"691f6afa-713b-480d-b0cc-e6f0a457c73a","system_id":"levelo_inurba_marseille","lat":43.23185,"lon":5.39991,"is_reserved":false,"is_disabled":false,"rental_uris":{"android":"levelo://app?vid=691f6afa-713b-480d-b0cc-e6f0a457c73a","ios":"levelo://app?vid=691f6afa-713b-480d-b0cc-e6f0a457c73a"},"vehicle_type_id":"4","last_reported":1745233677,"current_range_meters":4400,"station_id":"ce4bhn12rcd13ifvqgqg","pricing_plan_id":"cebpf4jnsgd1na2vs0mg"},{"bike_id":"6565ca44-2e63-4f42-a847-09fa2bdb37f3","system_id":"levelo_inurba_marseille","lat":43.32005,"lon":5.38152,"is_reserved":false,"is_disabled":false,"rental_uris":{"android":"levelo://app?vid=6565ca44-2e63-4f42-a847-09fa2bdb37f3","ios":"levelo://app?vid=6565ca44-2e63-4f42-a847-09fa2bdb37f3"},"vehicle_type_id":"4","last_reported":1745233677,"current_range_meters":4400,"station_id":"ce4bhr12rcd13ifvqhpg","pricing_plan_id":"cebpf4jnsgd1na2vs0mg"},{"bike_id":"138d6608-886e-4863-a664-7df6e5cc9a47","system_id":"levelo_inurba_marseille","lat":43.32697,"lon":5.42242,"is_reserved":false,"is_disabled":false,"rental_uris":{"android":"levelo://app?vid=138d6608-886e-4863-a664-7df6e5cc9a47","ios":"levelo://app?vid=138d6608-886e-4863-a664-7df6e5cc9a47"},"vehicle_type_id":"4","last_reported":1745233677,"current_range_meters":4400,"station_id":"","pricing_plan_id":"cebpf4jnsgd1na2vs0mg"},{"bike_id":"4767835f-8bb5-4507-a9a3-6c2abe7339a6","system_id":"levelo_inurba_marseille","lat":43.295959,"lon":5.38103,"is_reserved":false,"is_disabled":false,"rental_uris":{"android":"levelo://app?vid=4767835f-8bb5-4507-a9a3-6c2abe7339a6","ios":"levelo://app?vid=4767835f-8bb5-4507-a9a3-6c2abe7339a6"},"vehicle_type_id":"4","last_reported":1745233677,"current_range_meters":4800,"station_id":"ce4bgl12rcd13ifvqbo0","pricing_plan_id":"cebpf4jnsgd1na2vs0mg"},{"bike_id":"4b464300-b119-4c6d-85b8-a2463b4d75c5","system_id":"levelo_inurba_marseille","lat":43.29274,"lon":5.38437,"is_reserved":false,"is_disabled":false,"rental_uris":{"android":"levelo://app?vid=4b464300-b119-4c6d-85b8-a2463b4d75c5","ios":"levelo://app?vid=4b464300-b119-4c6d-85b8-a2463b4d75c5"},"vehicle_type_id":"4","last_reported":1745233677,"current_range_meters":4400,"station_id":"ce4bh692rcd13ifvqea0","pricing_plan_id":"cebpf4jnsgd1na2vs0mg"},{"bike_id":"f0b6af0d-1cbf-47a3-af07-dab09fabbbf0","system_id":"levelo_inurba_marseille","lat":43.23191,"lon":5.35569,"is_reserved":false,"is_disabled":false,"rental_uris":{"android":"levelo://app?vid=f0b6af0d-1cbf-47a3-af07-dab09fabbbf0","ios":"levelo://app?vid=f0b6af0d-1cbf-47a3-af07-dab09fabbbf0"},"vehicle_type_id":"4","last_reported":1745233677,"current_range_meters":4800,"station_id":"ce4bhu92rcd13ifvqi70","pricing_plan_id":"cebpf4jnsgd1na2vs0mg"},{"bike_id":"d03f76b3-aa66-48f9-b30c-8d5eb7f911c3","system_id":"levelo_inurba_marseille","lat":43.2315,"lon":5.43727,"is_reserved":false,"is_disabled":false,"rental_uris":{"android":"levelo://app?vid=d03f76b3-aa66-48f9-b30c-8d5eb7f911c3","ios":"levelo://app?vid=d03f76b3-aa66-48f9-b30c-8d5eb7f911c3"},"vehicle_type_id":"4","last_reported":1745233677,"current_range_meters":6000,"station_id":"ce4bhmp2rcd13ifvqgog","pricing_plan_id":"cebpf4jnsgd1na2vs0mg"},{"bike_id":"ab9be9a2-b412-4e12-b774-0ac14e1c75f2","system_id":"levelo_inurba_marseille","lat":43.231629,"lon":5.437108,"is_reserved":false,"is_disabled":false,"rental_uris":{"android":"levelo://app?vid=ab9be9a2-b412-4e12-b774-0ac14e1c75f2","ios":"levelo://app?vid=ab9be9a2-b412-4e12-b774-0ac14e1c75f2"},"vehicle_type_id":"4","last_reported":1745233677,"current_range_meters":6000,"station_id":"ce4bhmp2rcd13ifvqgog","pricing_plan_id":"cebpf4jnsgd1na2vs0mg"},{"bike_id":"9810eab0-14d5-401c-ae8f-b57e44462930","system_id":"levelo_inurba_marseille","lat":43.23176,"lon":5.39982,"is_reserved":false,"is_disabled":false,"rental_uris":{"android":"levelo://app?vid=9810eab0-14d5-401c-ae8f-b57e44462930","ios":"levelo://app?vid=9810eab0-14d5-401c-ae8f-b57e44462930"},"vehicle_type_id":"4","last_reported":1745233677,"current_range_meters":6000,"station_id":"ce4bhn12rcd13ifvqgqg","pricing_plan_id":"cebpf4jnsgd1na2vs0mg"},{"bike_id":"157385fa-6f92-429e-a857-0fe19a6e5df2","system_id":"levelo_inurba_marseille","lat":43.22502,"lon":5.34783,"is_reserved":false,"is_disabled":false,"rental_uris":{"android":"levelo://app?vid=157385fa-6f92-429e-a857-0fe19a6e5df2","ios":"levelo://app?vid=157385fa-6f92-429e-a857-0fe19a6e5df2"},"vehicle_type_id":"4","last_reported":1745233677,"current_range_meters":38800,"station_id":"ce4bhbp2rcd13ifvqerg","pricing_plan_id":"cebpf4jnsgd1na2vs0mg"},{"bike_id":"7afeef51-2056-4d06-b296-c2c124d55600","system_id":"levelo_inurba_marseille","lat":43.31728,"lon":5.42402,"is_reserved":false,"is_disabled":false,"rental_uris":{"android":"levelo://app?vid=7afeef51-2056-4d06-b296-c2c124d55600","ios":"levelo://app?vid=7afeef51-2056-4d06-b296-c2c124d55600"},"vehicle_type_id":"4","last_reported":1745233677,"current_range_meters":6000,"station_id":"ce4bhp92rcd13ifvqhbg","pricing_plan_id":"cebpf4jnsgd1na2vs0mg"},{"bike_id":"1034788e-e03d-4dba-adaf-7ee1fbd6d27c","system_id":"levelo_inurba_marseille","lat":43.286187,"lon":5.351145,"is_reserved":false,"is_disabled":false,"rental_uris":{"android":"levelo://app?vid=1034788e-e03d-4dba-adaf-7ee1fbd6d27c","ios":"levelo://app?vid=1034788e-e03d-4dba-adaf-7ee1fbd6d27c"},"vehicle_type_id":"4","last_reported":1745233677,"current_range_meters":6000,"station_id":"","pricing_plan_id":"cebpf4jnsgd1na2vs0mg"},{"bike_id":"c4615b90-f6e7-460d-bcba-4dd7200b5200","system_id":"levelo_inurba_marseille","lat":43.31707,"lon":5.377427,"is_reserved":false,"is_disabled":false,"rental_uris":{"android":"levelo://app?vid=c4615b90-f6e7-460d-bcba-4dd7200b5200","ios":"levelo://app?vid=c4615b90-f6e7-460d-bcba-4dd7200b5200"},"vehicle_type_id":"4","last_reported":1745233677,"current_range_meters":6400,"station_id":"ce4bgth2rcd13ifvqch0","pricing_plan_id":"cebpf4jnsgd1na2vs0mg"},{"bike_id":"2b53a122-fb29-4ac4-9708-8a773aa77830","system_id":"levelo_inurba_marseille","lat":43.23061,"lon":5.35494,"is_reserved":false,"is_disabled":false,"rental_uris":{"android":"levelo://app?vid=2b53a122-fb29-4ac4-9708-8a773aa77830","ios":"levelo://app?vid=2b53a122-fb29-4ac4-9708-8a773aa77830"},"vehicle_type_id":"4","last_reported":1745233677,"current_range_meters":6400,"station_id":"cpo3342slgdg3j2ifvpg","pricing_plan_id":"cebpf4jnsgd1na2vs0mg"},{"bike_id":"468acb7c-be03-4f7c-adc8-9a6df669f857","system_id":"levelo_inurba_marseille","lat":43.21754,"lon":5.34604,"is_reserved":false,"is_disabled":false,"rental_uris":{"android":"levelo://app?vid=468acb7c-be03-4f7c-adc8-9a6df669f857","ios":"levelo://app?vid=468acb7c-be03-4f7c-adc8-9a6df669f857"},"vehicle_type_id":"4","last_reported":1745233677,"current_range_meters":6400,"station_id":"st_cvj6r9ubvosntc0bgbag","pricing_plan_id":"cebpf4jnsgd1na2vs0mg"},{"bike_id":"f0458011-83e3-45fa-8f09-7af53fc90c40","system_id":"levelo_inurba_marseille","lat":43.29284,"lon":5.38449,"is_reserved":false,"is_disabled":false,"rental_uris":{"android":"levelo://app?vid=f0458011-83e3-45fa-8f09-7af53fc90c40","ios":"levelo://app?vid=f0458011-83e3-45fa-8f09-7af53fc90c40"},"vehicle_type_id":"4","last_reported":1745233677,"current_range_meters":6400,"station_id":"ce4bh692rcd13ifvqea0","pricing_plan_id":"cebpf4jnsgd1na2vs0mg"},{"bike_id":"b59fc538-dcff-4529-af5a-086f5122f549","system_id":"levelo_inurba_marseille","lat":43.23151,"lon":5.43707,"is_reserved":false,"is_disabled":false,"rental_uris":{"android":"levelo://app?vid=b59fc538-dcff-4529-af5a-086f5122f549","ios":"levelo://app?vid=b59fc538-dcff-4529-af5a-086f5122f549"},"vehicle_type_id":"4","last_reported":1745233677,"current_range_meters":6800,"station_id":"ce4bhmp2rcd13ifvqgog","pricing_plan_id":"cebpf4jnsgd1na2vs0mg"},{"bike_id":"4d3376c3-45c8-4991-ab50-340236e8e08a","system_id":"levelo_inurba_marseille","lat":43.2315,"lon":5.43714,"is_reserved":false,"is_disabled":false,"rental_uris":{"android":"levelo://app?vid=4d3376c3-45c8-4991-ab50-340236e8e08a","ios":"levelo://app?vid=4d3376c3-45c8-4991-ab50-340236e8e08a"},"vehicle_type_id":"4","last_reported":1745233677,"current_range_meters":6800,"station_id":"ce4bhmp2rcd13ifvqgog","pricing_plan_id":"cebpf4jnsgd1na2vs0mg"},{"bike_id":"c9c4f305-a842-42ef-9936-f38321e11c3d","system_id":"levelo_inurba_marseille","lat":43.21757,"lon":5.34609,"is_reserved":false,"is_disabled":false,"rental_uris":{"android":"levelo://app?vid=c9c4f305-a842-42ef-9936-f38321e11c3d","ios":"levelo://app?vid=c9c4f305-a842-42ef-9936-f38321e11c3d"},"vehicle_type_id":"4","last_reported":1745233677,"current_range_meters":6800,"station_id":"st_cvj6r9ubvosntc0bgbag","pricing_plan_id":"cebpf4jnsgd1na2vs0mg"},{"bike_id":"527fac75-0783-4b2c-bd4e-07f2f2fee902","system_id":"levelo_inurba_marseille","lat":43.3119,"lon":5.37711,"is_reserved":false,"is_disabled":false,"rental_uris":{"android":"levelo://app?vid=527fac75-0783-4b2c-bd4e-07f2f2fee902","ios":"levelo://app?vid=527fac75-0783-4b2c-bd4e-07f2f2fee902"},"vehicle_type_id":"4","last_reported":1745233677,"current_range_meters":6800,"station_id":"","pricing_plan_id":"cebpf4jnsgd1na2vs0mg"},{"bike_id":"718f9a0e-a3a6-4628-a543-1e3f24c5622e","system_id":"levelo_inurba_marseille","lat":43.28345,"lon":5.38113,"is_reserved":false,"is_disabled":false,"rental_uris":{"android":"levelo://app?vid=718f9a0e-a3a6-4628-a543-1e3f24c5622e","ios":"levelo://app?vid=718f9a0e-a3a6-4628-a543-1e3f24c5622e"},"vehicle_type_id":"4","last_reported":1745233677,"current_range_meters":6800,"station_id":"ce4bh412rcd13ifvqdr0","pricing_plan_id":"cebpf4jnsgd1na2vs0mg"},{"bike_id":"c491b317-b256-4d1e-b9a4-dbf77400768a","system_id":"levelo_inurba_marseille","lat":43.31176,"lon":5.38713,"is_reserved":false,"is_disabled":false,"rental_uris":{"android":"levelo://app?vid=c491b317-b256-4d1e-b9a4-dbf77400768a","ios":"levelo://app?vid=c491b317-b256-4d1e-b9a4-dbf77400768a"},"vehicle_type_id":"4","last_reported":1745233677,"current_range_meters":7200,"station_id":"ce4bgv12rcd13ifvqcp0","pricing_plan_id":"cebpf4jnsgd1na2vs0mg"},{"bike_id":"1d0139a5-b2f1-4c52-818f-abd3084c18bf","system_id":"levelo_inurba_marseille","lat":43.29226,"lon":5.36055,"is_reserved":false,"is_disabled":false,"rental_uris":{"android":"levelo://app?vid=1d0139a5-b2f1-4c52-818f-abd3084c18bf","ios":"levelo://app?vid=1d0139a5-b2f1-4c52-818f-abd3084c18bf"},"vehicle_type_id":"4","last_reported":1745233677,"current_range_meters":7200,"station_id":"ce4bhbh2rcd13ifvqeqg","pricing_plan_id":"cebpf4jnsgd1na2vs0mg"},{"bike_id":"1886fb80-2895-40f7-844d-7933f5d904dc","system_id":"levelo_inurba_marseille","lat":43.27873,"lon":5.39299,"is_reserved":false,"is_disabled":false,"rental_uris":{"android":"levelo://app?vid=1886fb80-2895-40f7-844d-7933f5d904dc","ios":"levelo://app?vid=1886fb80-2895-40f7-844d-7933f5d904dc"},"vehicle_type_id":"4","last_reported":1745233677,"current_range_meters":7200,"station_id":"","pricing_plan_id":"cebpf4jnsgd1na2vs0mg"},{"bike_id":"15b9e426-9571-46b8-826a-bfc13ef9fa97","system_id":"levelo_inurba_marseille","lat":43.28619,"lon":5.35109,"is_reserved":false,"is_disabled":false,"rental_uris":{"android":"levelo://app?vid=15b9e426-9571-46b8-826a-bfc13ef9fa97","ios":"levelo://app?vid=15b9e426-9571-46b8-826a-bfc13ef9fa97"},"vehicle_type_id":"4","last_reported":1745233677,"current_range_meters":7200,"station_id":"ce4bhch2rcd13ifvqeug","pricing_plan_id":"cebpf4jnsgd1na2vs0mg"},{"bike_id":"1d072cb0-8521-4b44-95dd-9e28807c0764","system_id":"levelo_inurba_marseille","lat":43.29891,"lon":5.43655,"is_reserved":false,"is_disabled":false,"rental_uris":{"android":"levelo://app?vid=1d072cb0-8521-4b44-95dd-9e28807c0764","ios":"levelo://app?vid=1d072cb0-8521-4b44-95dd-9e28807c0764"},"vehicle_type_id":"4","last_reported":1745233677,"current_range_meters":8000,"station_id":"ce4bhpp2rcd13ifvqhfg","pricing_plan_id":"cebpf4jnsgd1na2vs0mg"},{"bike_id":"d3646ce0-46e4-4375-876b-ba47a83f12fc","system_id":"levelo_inurba_marseille","lat":43.25098,"lon":5.40332,"is_reserved":false,"is_disabled":false,"rental_uris":{"android":"levelo://app?vid=d3646ce0-46e4-4375-876b-ba47a83f12fc","ios":"levelo://app?vid=d3646ce0-46e4-4375-876b-ba47a83f12fc"},"vehicle_type_id":"4","last_reported":1745233677,"current_range_meters":8000,"station_id":"ce4bhlh2rcd13ifvqgig","pricing_plan_id":"cebpf4jnsgd1na2vs0mg"},{"bike_id":"00aa3640-97b9-4e1b-b02f-bc2a823e3429","system_id":"levelo_inurba_marseille","lat":43.21206,"lon":5.35066,"is_reserved":false,"is_disabled":false,"rental_uris":{"android":"levelo://app?vid=00aa3640-97b9-4e1b-b02f-bc2a823e3429","ios":"levelo://app?vid=00aa3640-97b9-4e1b-b02f-bc2a823e3429"},"vehicle_type_id":"4","last_reported":1745233677,"current_range_meters":8000,"station_id":"st_cvj6sg6p6f1abm77japg","pricing_plan_id":"cebpf4jnsgd1na2vs0mg"},{"bike_id":"5e77d5f0-5cf3-488a-a892-97962bf41264","system_id":"levelo_inurba_marseille","lat":43.23135,"lon":5.4371,"is_reserved":false,"is_disabled":false,"rental_uris":{"android":"levelo://app?vid=5e77d5f0-5cf3-488a-a892-97962bf41264","ios":"levelo://app?vid=5e77d5f0-5cf3-488a-a892-97962bf41264"},"vehicle_type_id":"4","last_reported":1745233677,"current_range_meters":8000,"station_id":"ce4bhmp2rcd13ifvqgog","pricing_plan_id":"cebpf4jnsgd1na2vs0mg"},{"bike_id":"d8754dce-3ce6-4f68-ba47-f64cfc8b26ab","system_id":"levelo_inurba_marseille","lat":43.23191,"lon":5.35575,"is_reserved":false,"is_disabled":false,"rental_uris":{"android":"levelo://app?vid=d8754dce-3ce6-4f68-ba47-f64cfc8b26ab","ios":"levelo://app?vid=d8754dce-3ce6-4f68-ba47-f64cfc8b26ab"},"vehicle_type_id":"4","last_reported":1745233677,"current_range_meters":8000,"station_id":"ce4bhu92rcd13ifvqi70","pricing_plan_id":"cebpf4jnsgd1na2vs0mg"},{"bike_id":"8be9cbdf-b039-4e8f-bc8e-afd9e56a8ece","system_id":"levelo_inurba_marseille","lat":43.217481,"lon":5.34603,"is_reserved":false,"is_disabled":false,"rental_uris":{"android":"levelo://app?vid=8be9cbdf-b039-4e8f-bc8e-afd9e56a8ece","ios":"levelo://app?vid=8be9cbdf-b039-4e8f-bc8e-afd9e56a8ece"},"vehicle_type_id":"4","last_reported":1745233677,"current_range_meters":8000,"station_id":"st_cvj6r9ubvosntc0bgbag","pricing_plan_id":"cebpf4jnsgd1na2vs0mg"},{"bike_id":"07147dae-f543-4f4b-a869-c5ff0465e230","system_id":"levelo_inurba_marseille","lat":43.24393,"lon":5.37056,"is_reserved":false,"is_disabled":false,"rental_uris":{"android":"levelo://app?vid=07147dae-f543-4f4b-a869-c5ff0465e230","ios":"levelo://app?vid=07147dae-f543-4f4b-a869-c5ff0465e230"},"vehicle_type_id":"4","last_reported":1745233677,"current_range_meters":8000,"station_id":"ce4bhhh2rcd13ifvqfk0","pricing_plan_id":"cebpf4jnsgd1na2vs0mg"},{"bike_id":"507ac0c8-9b04-4358-930f-ee9df6b66135","system_id":"levelo_inurba_marseille","lat":43.29798,"lon":5.37104,"is_reserved":false,"is_disabled":false,"rental_uris":{"android":"levelo://app?vid=507ac0c8-9b04-4358-930f-ee9df6b66135","ios":"levelo://app?vid=507ac0c8-9b04-4358-930f-ee9df6b66135"},"vehicle_type_id":"4","last_reported":1745233677,"current_range_meters":8400,"station_id":"","pricing_plan_id":"cebpf4jnsgd1na2vs0mg"},{"bike_id":"57187986-c919-4fb6-a125-0312e1965a84","system_id":"levelo_inurba_marseille","lat":43.24808,"lon":5.37454,"is_reserved":false,"is_disabled":false,"rental_uris":{"android":"levelo://app?vid=57187986-c919-4fb6-a125-0312e1965a84","ios":"levelo://app?vid=57187986-c919-4fb6-a125-0312e1965a84"},"vehicle_type_id":"4","last_reported":1745233677,"current_range_meters":8400,"station_id":"ce4bhgh2rcd13ifvqfb0","pricing_plan_id":"cebpf4jnsgd1na2vs0mg"},{"bike_id":"dcdb6f8d-261b-485d-a7e6-a722f0a75a1f","system_id":"levelo_inurba_marseille","lat":43.24552,"lon":5.38047,"is_reserved":false,"is_disabled":false,"rental_uris":{"android":"levelo://app?vid=dcdb6f8d-261b-485d-a7e6-a722f0a75a1f","ios":"levelo://app?vid=dcdb6f8d-261b-485d-a7e6-a722f0a75a1f"},"vehicle_type_id":"4","last_reported":1745233677,"current_range_meters":8800,"station_id":"","pricing_plan_id":"cebpf4jnsgd1na2vs0mg"},{"bike_id":"a0ea4537-292b-46da-8ac7-a08a68f78cf7","system_id":"levelo_inurba_marseille","lat":43.23148,"lon":5.4373,"is_reserved":false,"is_disabled":false,"rental_uris":{"android":"levelo://app?vid=a0ea4537-292b-46da-8ac7-a08a68f78cf7","ios":"levelo://app?vid=a0ea4537-292b-46da-8ac7-a08a68f78cf7"},"vehicle_type_id":"4","last_reported":1745233677,"current_range_meters":8800,"station_id":"ce4bhmp2rcd13ifvqgog","pricing_plan_id":"cebpf4jnsgd1na2vs0mg"},{"bike_id":"dd5a16f6-791f-4176-8bf0-ef7fd217c118","system_id":"levelo_inurba_marseille","lat":43.31509,"lon":5.37276,"is_reserved":false,"is_disabled":false,"rental_uris":{"android":"levelo://app?vid=dd5a16f6-791f-4176-8bf0-ef7fd217c118","ios":"levelo://app?vid=dd5a16f6-791f-4176-8bf0-ef7fd217c118"},"vehicle_type_id":"4","last_reported":1745233677,"current_range_meters":8800,"station_id":"ce4bgt12rcd13ifvqcd0","pricing_plan_id":"cebpf4jnsgd1na2vs0mg"},{"bike_id":"2f938840-ab84-498c-9868-8672d8fa7f17","system_id":"levelo_inurba_marseille","lat":43.23142,"lon":5.43703,"is_reserved":false,"is_disabled":true,"rental_uris":{"android":"levelo://app?vid=2f938840-ab84-498c-9868-8672d8fa7f17","ios":"levelo://app?vid=2f938840-ab84-498c-9868-8672d8fa7f17"},"vehicle_type_id":"4","last_reported":1745233677,"current_range_meters":8800,"station_id":"ce4bhmp2rcd13ifvqgog","pricing_plan_id":"cebpf4jnsgd1na2vs0mg"},{"bike_id":"d3a6f621-3cd5-4c0e-b14e-0c6136f06ddb","system_id":"levelo_inurba_marseille","lat":43.282654,"lon":5.35052,"is_reserved":false,"is_disabled":false,"rental_uris":{"android":"levelo://app?vid=d3a6f621-3cd5-4c0e-b14e-0c6136f06ddb","ios":"levelo://app?vid=d3a6f621-3cd5-4c0e-b14e-0c6136f06ddb"},"vehicle_type_id":"4","last_reported":1745233677,"current_range_meters":12400,"station_id":"ce4bhbp2rcd13ifvqerg","pricing_plan_id":"cebpf4jnsgd1na2vs0mg"},{"bike_id":"5765f61f-686e-4e04-b3ad-e5b764e79e66","system_id":"levelo_inurba_marseille","lat":43.279938,"lon":5.400071,"is_reserved":false,"is_disabled":false,"rental_uris":{"android":"levelo://app?vid=5765f61f-686e-4e04-b3ad-e5b764e79e66","ios":"levelo://app?vid=5765f61f-686e-4e04-b3ad-e5b764e79e66"},"vehicle_type_id":"4","last_reported":1745233677,"current_range_meters":9200,"station_id":"ce4bh112rcd13ifvqd90","pricing_plan_id":"cebpf4jnsgd1na2vs0mg"},{"bike_id":"e178d36a-4571-4587-b412-99048650e3f0","system_id":"levelo_inurba_marseille","lat":43.23191,"lon":5.35553,"is_reserved":false,"is_disabled":false,"rental_uris":{"android":"levelo://app?vid=e178d36a-4571-4587-b412-99048650e3f0","ios":"levelo://app?vid=e178d36a-4571-4587-b412-99048650e3f0"},"vehicle_type_id":"4","last_reported":1745233677,"current_range_meters":9200,"station_id":"ce4bhu92rcd13ifvqi70","pricing_plan_id":"cebpf4jnsgd1na2vs0mg"},{"bike_id":"455aa897-625e-4318-9627-a11d98a53afc","system_id":"levelo_inurba_marseille","lat":43.29621,"lon":5.37157,"is_reserved":false,"is_disabled":false,"rental_uris":{"android":"levelo://app?vid=455aa897-625e-4318-9627-a11d98a53afc","ios":"levelo://app?vid=455aa897-625e-4318-9627-a11d98a53afc"},"vehicle_type_id":"4","last_reported":1745233677,"current_range_meters":9200,"station_id":"ce4bgnh2rcd13ifvqc0g","pricing_plan_id":"cebpf4jnsgd1na2vs0mg"},{"bike_id":"087c77c7-1a9a-42b9-90e9-ba9edc162708","system_id":"levelo_inurba_marseille","lat":43.31718,"lon":5.3778,"is_reserved":false,"is_disabled":false,"rental_uris":{"android":"levelo://app?vid=087c77c7-1a9a-42b9-90e9-ba9edc162708","ios":"levelo://app?vid=087c77c7-1a9a-42b9-90e9-ba9edc162708"},"vehicle_type_id":"4","last_reported":1745233677,"current_range_meters":9200,"station_id":"ce4bgth2rcd13ifvqch0","pricing_plan_id":"cebpf4jnsgd1na2vs0mg"},{"bike_id":"478adf2f-07e1-4396-965c-e1a74e1fa681","system_id":"levelo_inurba_marseille","lat":43.27895,"lon":5.380141,"is_reserved":false,"is_disabled":false,"rental_uris":{"android":"levelo://app?vid=478adf2f-07e1-4396-965c-e1a74e1fa681","ios":"levelo://app?vid=478adf2f-07e1-4396-965c-e1a74e1fa681"},"vehicle_type_id":"4","last_reported":1745233677,"current_range_meters":9200,"station_id":"ce4bhf92rcd13ifvqf50","pricing_plan_id":"cebpf4jnsgd1na2vs0mg"},{"bike_id":"69575f9d-5400-4393-8dfd-2ae3afeaf431","system_id":"levelo_inurba_marseille","lat":43.21196,"lon":5.3508,"is_reserved":false,"is_disabled":false,"rental_uris":{"android":"levelo://app?vid=69575f9d-5400-4393-8dfd-2ae3afeaf431","ios":"levelo://app?vid=69575f9d-5400-4393-8dfd-2ae3afeaf431"},"vehicle_type_id":"4","last_reported":1745233677,"current_range_meters":9600,"station_id":"st_cvj6sg6p6f1abm77japg","pricing_plan_id":"cebpf4jnsgd1na2vs0mg"},{"bike_id":"50720bbe-5512-41d7-86e0-3df313b565c6","system_id":"levelo_inurba_marseille","lat":43.32347,"lon":5.38884,"is_reserved":false,"is_disabled":true,"rental_uris":{"android":"levelo://app?vid=50720bbe-5512-41d7-86e0-3df313b565c6","ios":"levelo://app?vid=50720bbe-5512-41d7-86e0-3df313b565c6"},"vehicle_type_id":"4","last_reported":1745233677,"current_range_meters":9600,"station_id":"ce4bhqp2rcd13ifvqhog","pricing_plan_id":"cebpf4jnsgd1na2vs0mg"},{"bike_id":"0a370939-c239-4e4d-98de-682ba3485850","system_id":"levelo_inurba_marseille","lat":43.2396,"lon":5.36626,"is_reserved":false,"is_disabled":false,"rental_uris":{"android":"levelo://app?vid=0a370939-c239-4e4d-98de-682ba3485850","ios":"levelo://app?vid=0a370939-c239-4e4d-98de-682ba3485850"},"vehicle_type_id":"4","last_reported":1745233677,"current_range_meters":9600,"station_id":"ce4bhi12rcd13ifvqfp0","pricing_plan_id":"cebpf4jnsgd1na2vs0mg"},{"bike_id":"735a0ca0-15ff-41e7-a2f7-fed46518485e","system_id":"levelo_inurba_marseille","lat":43.2318,"lon":5.39989,"is_reserved":false,"is_disabled":false,"rental_uris":{"android":"levelo://app?vid=735a0ca0-15ff-41e7-a2f7-fed46518485e","ios":"levelo://app?vid=735a0ca0-15ff-41e7-a2f7-fed46518485e"},"vehicle_type_id":"4","last_reported":1745233677,"current_range_meters":9600,"station_id":"ce4bhn12rcd13ifvqgqg","pricing_plan_id":"cebpf4jnsgd1na2vs0mg"},{"bike_id":"9214992b-50ac-4a9b-99d6-b592607f9ebd","system_id":"levelo_inurba_marseille","lat":43.23963,"lon":5.36629,"is_reserved":false,"is_disabled":false,"rental_uris":{"android":"levelo://app?vid=9214992b-50ac-4a9b-99d6-b592607f9ebd","ios":"levelo://app?vid=9214992b-50ac-4a9b-99d6-b592607f9ebd"},"vehicle_type_id":"4","last_reported":1745233677,"current_range_meters":9600,"station_id":"ce4bhi12rcd13ifvqfp0","pricing_plan_id":"cebpf4jnsgd1na2vs0mg"},{"bike_id":"1184e7cb-97e6-48bd-84cd-8e59c100c07b","system_id":"levelo_inurba_marseille","lat":43.2928,"lon":5.36856,"is_reserved":false,"is_disabled":false,"rental_uris":{"android":"levelo://app?vid=1184e7cb-97e6-48bd-84cd-8e59c100c07b","ios":"levelo://app?vid=1184e7cb-97e6-48bd-84cd-8e59c100c07b"},"vehicle_type_id":"4","last_reported":1745233677,"current_range_meters":10000,"station_id":"ce4bhbp2rcd13ifvqesg","pricing_plan_id":"cebpf4jnsgd1na2vs0mg"},{"bike_id":"d53e964c-f934-484c-a259-3e8f23cdd819","system_id":"levelo_inurba_marseille","lat":43.33736,"lon":5.39202,"is_reserved":false,"is_disabled":false,"rental_uris":{"android":"levelo://app?vid=d53e964c-f934-484c-a259-3e8f23cdd819","ios":"levelo://app?vid=d53e964c-f934-484c-a259-3e8f23cdd819"},"vehicle_type_id":"4","last_reported":1745233677,"current_range_meters":10000,"station_id":"ce4bhr92rcd13ifvqhsg","pricing_plan_id":"cebpf4jnsgd1na2vs0mg"},{"bike_id":"1737dea4-541f-4bc8-9731-1ab03c2deae6","system_id":"levelo_inurba_marseille","lat":43.23958,"lon":5.36622,"is_reserved":false,"is_disabled":true,"rental_uris":{"android":"levelo://app?vid=1737dea4-541f-4bc8-9731-1ab03c2deae6","ios":"levelo://app?vid=1737dea4-541f-4bc8-9731-1ab03c2deae6"},"vehicle_type_id":"4","last_reported":1745233677,"current_range_meters":10000,"station_id":"ce4bhi12rcd13ifvqfp0","pricing_plan_id":"cebpf4jnsgd1na2vs0mg"},{"bike_id":"d4a91fd2-763b-413d-9d93-e0d06b63b224","system_id":"levelo_inurba_marseille","lat":43.28965,"lon":5.3784,"is_reserved":false,"is_disabled":false,"rental_uris":{"android":"levelo://app?vid=d4a91fd2-763b-413d-9d93-e0d06b63b224","ios":"levelo://app?vid=d4a91fd2-763b-413d-9d93-e0d06b63b224"},"vehicle_type_id":"4","last_reported":1745233677,"current_range_meters":10000,"station_id":"ce4bh9p2rcd13ifvqed0","pricing_plan_id":"cebpf4jnsgd1na2vs0mg"},{"bike_id":"2d9cfaee-5a3f-4cff-ab66-1d243c7b68de","system_id":"levelo_inurba_marseille","lat":43.2315,"lon":5.43713,"is_reserved":false,"is_disabled":false,"rental_uris":{"android":"levelo://app?vid=2d9cfaee-5a3f-4cff-ab66-1d243c7b68de","ios":"levelo://app?vid=2d9cfaee-5a3f-4cff-ab66-1d243c7b68de"},"vehicle_type_id":"4","last_reported":1745233677,"current_range_meters":10800,"station_id":"ce4bhmp2rcd13ifvqgog","pricing_plan_id":"cebpf4jnsgd1na2vs0mg"},{"bike_id":"0e9c1402-fcc3-47f8-b0a6-111a1f05deed","system_id":"levelo_inurba_marseille","lat":43.225045,"lon":5.347863,"is_reserved":false,"is_disabled":false,"rental_uris":{"android":"levelo://app?vid=0e9c1402-fcc3-47f8-b0a6-111a1f05deed","ios":"levelo://app?vid=0e9c1402-fcc3-47f8-b0a6-111a1f05deed"},"vehicle_type_id":"4","last_reported":1745233677,"current_range_meters":10800,"station_id":"","pricing_plan_id":"cebpf4jnsgd1na2vs0mg"},{"bike_id":"4d8ee2c5-8346-4b66-ae86-f443b6bdd2d9","system_id":"levelo_inurba_marseille","lat":43.24547,"lon":5.41307,"is_reserved":false,"is_disabled":false,"rental_uris":{"android":"levelo://app?vid=4d8ee2c5-8346-4b66-ae86-f443b6bdd2d9","ios":"levelo://app?vid=4d8ee2c5-8346-4b66-ae86-f443b6bdd2d9"},"vehicle_type_id":"4","last_reported":1745233677,"current_range_meters":10800,"station_id":"","pricing_plan_id":"cebpf4jnsgd1na2vs0mg"},{"bike_id":"b25b6470-ff43-4d6b-b299-0f21ec070f27","system_id":"levelo_inurba_marseille","lat":43.29922,"lon":5.38178,"is_reserved":false,"is_disabled":true,"rental_uris":{"android":"levelo://app?vid=b25b6470-ff43-4d6b-b299-0f21ec070f27","ios":"levelo://app?vid=b25b6470-ff43-4d6b-b299-0f21ec070f27"},"vehicle_type_id":"4","last_reported":1745233677,"current_range_meters":10800,"station_id":"ce4bgj12rcd13ifvqbc0","pricing_plan_id":"cebpf4jnsgd1na2vs0mg"},{"bike_id":"5aa3cbee-8021-462f-83b7-c3897f4c23c3","system_id":"levelo_inurba_marseille","lat":43.23188,"lon":5.3556,"is_reserved":false,"is_disabled":false,"rental_uris":{"android":"levelo://app?vid=5aa3cbee-8021-462f-83b7-c3897f4c23c3","ios":"levelo://app?vid=5aa3cbee-8021-462f-83b7-c3897f4c23c3"},"vehicle_type_id":"4","last_reported":1745233677,"current_range_meters":11200,"station_id":"ce4bhu92rcd13ifvqi70","pricing_plan_id":"cebpf4jnsgd1na2vs0mg"},{"bike_id":"a030ed3c-806c-478a-8c76-99060a7fbe1c","system_id":"levelo_inurba_marseille","lat":43.23149,"lon":5.43722,"is_reserved":false,"is_disabled":true,"rental_uris":{"android":"levelo://app?vid=a030ed3c-806c-478a-8c76-99060a7fbe1c","ios":"levelo://app?vid=a030ed3c-806c-478a-8c76-99060a7fbe1c"},"vehicle_type_id":"4","last_reported":1745233677,"current_range_meters":11200,"station_id":"ce4bhmp2rcd13ifvqgog","pricing_plan_id":"cebpf4jnsgd1na2vs0mg"},{"bike_id":"ad92a0e8-cde2-45ea-899f-eb1e374f26fc","system_id":"levelo_inurba_marseille","lat":43.29201,"lon":5.35808,"is_reserved":false,"is_disabled":false,"rental_uris":{"android":"levelo://app?vid=ad92a0e8-cde2-45ea-899f-eb1e374f26fc","ios":"levelo://app?vid=ad92a0e8-cde2-45ea-899f-eb1e374f26fc"},"vehicle_type_id":"4","last_reported":1745233677,"current_range_meters":10800,"station_id":"ce4bhb12rcd13ifvqel0","pricing_plan_id":"cebpf4jnsgd1na2vs0mg"},{"bike_id":"67775bc4-8350-45e1-a966-a49b2be2d9f4","system_id":"levelo_inurba_marseille","lat":43.24164,"lon":5.36389,"is_reserved":false,"is_disabled":false,"rental_uris":{"android":"levelo://app?vid=67775bc4-8350-45e1-a966-a49b2be2d9f4","ios":"levelo://app?vid=67775bc4-8350-45e1-a966-a49b2be2d9f4"},"vehicle_type_id":"4","last_reported":1745233677,"current_range_meters":11600,"station_id":"cpo36qri1sfpv3e86is0","pricing_plan_id":"cebpf4jnsgd1na2vs0mg"},{"bike_id":"079c800c-5424-4929-8994-db61dad4e4b8","system_id":"levelo_inurba_marseille","lat":43.23148,"lon":5.43721,"is_reserved":false,"is_disabled":false,"rental_uris":{"android":"levelo://app?vid=079c800c-5424-4929-8994-db61dad4e4b8","ios":"levelo://app?vid=079c800c-5424-4929-8994-db61dad4e4b8"},"vehicle_type_id":"4","last_reported":1745233677,"current_range_meters":11600,"station_id":"ce4bhmp2rcd13ifvqgog","pricing_plan_id":"cebpf4jnsgd1na2vs0mg"},{"bike_id":"9cd66f20-0974-44a3-a00c-3af08e74ebf2","system_id":"levelo_inurba_marseille","lat":43.26031,"lon":5.41756,"is_reserved":false,"is_disabled":false,"rental_uris":{"android":"levelo://app?vid=9cd66f20-0974-44a3-a00c-3af08e74ebf2","ios":"levelo://app?vid=9cd66f20-0974-44a3-a00c-3af08e74ebf2"},"vehicle_type_id":"4","last_reported":1745233677,"current_range_meters":11600,"station_id":"","pricing_plan_id":"cebpf4jnsgd1na2vs0mg"},{"bike_id":"a8c30e33-a061-479b-be2f-c19f1a1a4a93","system_id":"levelo_inurba_marseille","lat":43.225009,"lon":5.347835,"is_reserved":false,"is_disabled":false,"rental_uris":{"android":"levelo://app?vid=a8c30e33-a061-479b-be2f-c19f1a1a4a93","ios":"levelo://app?vid=a8c30e33-a061-479b-be2f-c19f1a1a4a93"},"vehicle_type_id":"4","last_reported":1745233677,"current_range_meters":12000,"station_id":"","pricing_plan_id":"cebpf4jnsgd1na2vs0mg"},{"bike_id":"c2308cfb-2d0e-493c-8fcb-add4ff2bc4b7","system_id":"levelo_inurba_marseille","lat":43.24548,"lon":5.38054,"is_reserved":false,"is_disabled":false,"rental_uris":{"android":"levelo://app?vid=c2308cfb-2d0e-493c-8fcb-add4ff2bc4b7","ios":"levelo://app?vid=c2308cfb-2d0e-493c-8fcb-add4ff2bc4b7"},"vehicle_type_id":"4","last_reported":1745233677,"current_range_meters":12400,"station_id":"","pricing_plan_id":"cebpf4jnsgd1na2vs0mg"},{"bike_id":"f35d93f6-2341-4551-92c4-4f36ac0c2870","system_id":"levelo_inurba_marseille","lat":43.23064,"lon":5.35488,"is_reserved":false,"is_disabled":false,"rental_uris":{"android":"levelo://app?vid=f35d93f6-2341-4551-92c4-4f36ac0c2870","ios":"levelo://app?vid=f35d93f6-2341-4551-92c4-4f36ac0c2870"},"vehicle_type_id":"4","last_reported":1745233677,"current_range_meters":12400,"station_id":"cpo3342slgdg3j2ifvpg","pricing_plan_id":"cebpf4jnsgd1na2vs0mg"},{"bike_id":"a049c569-0294-4594-b06b-589d19df1531","system_id":"levelo_inurba_marseille","lat":43.248526,"lon":5.3821,"is_reserved":false,"is_disabled":false,"rental_uris":{"android":"levelo://app?vid=a049c569-0294-4594-b06b-589d19df1531","ios":"levelo://app?vid=a049c569-0294-4594-b06b-589d19df1531"},"vehicle_type_id":"4","last_reported":1745233677,"current_range_meters":12400,"station_id":"","pricing_plan_id":"cebpf4jnsgd1na2vs0mg"},{"bike_id":"387c862b-5cae-45de-865f-eee492d6ba48","system_id":"levelo_inurba_marseille","lat":43.273697,"lon":5.362642,"is_reserved":false,"is_disabled":false,"rental_uris":{"android":"levelo://app?vid=387c862b-5cae-45de-865f-eee492d6ba48","ios":"levelo://app?vid=387c862b-5cae-45de-865f-eee492d6ba48"},"vehicle_type_id":"4","last_reported":1745233677,"current_range_meters":12000,"station_id":"ce4bh112rcd13ifvqda0","pricing_plan_id":"cebpf4jnsgd1na2vs0mg"},{"bike_id":"bcfe19b2-c622-4acc-a768-feeb552ab1cb","system_id":"levelo_inurba_marseille","lat":43.232834,"lon":5.435972,"is_reserved":false,"is_disabled":false,"rental_uris":{"android":"levelo://app?vid=bcfe19b2-c622-4acc-a768-feeb552ab1cb","ios":"levelo://app?vid=bcfe19b2-c622-4acc-a768-feeb552ab1cb"},"vehicle_type_id":"4","last_reported":1745233677,"current_range_meters":12400,"station_id":"ce4bhmp2rcd13ifvqgog","pricing_plan_id":"cebpf4jnsgd1na2vs0mg"},{"bike_id":"ddf08875-1592-475b-ae64-af5865607585","system_id":"levelo_inurba_marseille","lat":43.30403,"lon":5.413,"is_reserved":false,"is_disabled":false,"rental_uris":{"android":"levelo://app?vid=ddf08875-1592-475b-ae64-af5865607585","ios":"levelo://app?vid=ddf08875-1592-475b-ae64-af5865607585"},"vehicle_type_id":"4","last_reported":1745233677,"current_range_meters":12400,"station_id":"ce4bhop2rcd13ifvqh8g","pricing_plan_id":"cebpf4jnsgd1na2vs0mg"},{"bike_id":"c1c14c33-943c-44de-9171-c62272c1edbb","system_id":"levelo_inurba_marseille","lat":43.23957,"lon":5.36639,"is_reserved":false,"is_disabled":true,"rental_uris":{"android":"levelo://app?vid=c1c14c33-943c-44de-9171-c62272c1edbb","ios":"levelo://app?vid=c1c14c33-943c-44de-9171-c62272c1edbb"},"vehicle_type_id":"4","last_reported":1745233677,"current_range_meters":12400,"station_id":"ce4bhi12rcd13ifvqfp0","pricing_plan_id":"cebpf4jnsgd1na2vs0mg"},{"bike_id":"ee62b8d0-547e-4c7e-9da0-de609502c779","system_id":"levelo_inurba_marseille","lat":43.2119,"lon":5.35071,"is_reserved":false,"is_disabled":false,"rental_uris":{"android":"levelo://app?vid=ee62b8d0-547e-4c7e-9da0-de609502c779","ios":"levelo://app?vid=ee62b8d0-547e-4c7e-9da0-de609502c779"},"vehicle_type_id":"4","last_reported":1745233677,"current_range_meters":12800,"station_id":"st_cvj6sg6p6f1abm77japg","pricing_plan_id":"cebpf4jnsgd1na2vs0mg"},{"bike_id":"de8601c8-59d7-431f-9a6d-ca6716e9a73a","system_id":"levelo_inurba_marseille","lat":43.23961,"lon":5.36622,"is_reserved":false,"is_disabled":false,"rental_uris":{"android":"levelo://app?vid=de8601c8-59d7-431f-9a6d-ca6716e9a73a","ios":"levelo://app?vid=de8601c8-59d7-431f-9a6d-ca6716e9a73a"},"vehicle_type_id":"4","last_reported":1745233677,"current_range_meters":12800,"station_id":"ce4bhi12rcd13ifvqfp0","pricing_plan_id":"cebpf4jnsgd1na2vs0mg"},{"bike_id":"7ab57e13-064e-4009-b9a1-2648c23295d4","system_id":"levelo_inurba_marseille","lat":43.24994,"lon":5.3893,"is_reserved":false,"is_disabled":false,"rental_uris":{"android":"levelo://app?vid=7ab57e13-064e-4009-b9a1-2648c23295d4","ios":"levelo://app?vid=7ab57e13-064e-4009-b9a1-2648c23295d4"},"vehicle_type_id":"4","last_reported":1745233677,"current_range_meters":12400,"station_id":"ce4bhgp2rcd13ifvqfd0","pricing_plan_id":"cebpf4jnsgd1na2vs0mg"},{"bike_id":"a2d72203-4b50-48e3-86fb-ac0acedc1342","system_id":"levelo_inurba_marseille","lat":43.25868,"lon":5.39893,"is_reserved":false,"is_disabled":false,"rental_uris":{"android":"levelo://app?vid=a2d72203-4b50-48e3-86fb-ac0acedc1342","ios":"levelo://app?vid=a2d72203-4b50-48e3-86fb-ac0acedc1342"},"vehicle_type_id":"4","last_reported":1745233677,"current_range_meters":12800,"station_id":"ce4bhl92rcd13ifvqghg","pricing_plan_id":"cebpf4jnsgd1na2vs0mg"},{"bike_id":"dd60f3c3-4d87-4b07-a6f2-c1ca17ab51bc","system_id":"levelo_inurba_marseille","lat":43.23158,"lon":5.43701,"is_reserved":false,"is_disabled":false,"rental_uris":{"android":"levelo://app?vid=dd60f3c3-4d87-4b07-a6f2-c1ca17ab51bc","ios":"levelo://app?vid=dd60f3c3-4d87-4b07-a6f2-c1ca17ab51bc"},"vehicle_type_id":"4","last_reported":1745233677,"current_range_meters":12800,"station_id":"ce4bhmp2rcd13ifvqgog","pricing_plan_id":"cebpf4jnsgd1na2vs0mg"},{"bike_id":"d4588e10-e89f-4361-9890-c26cb40b9e6f","system_id":"levelo_inurba_marseille","lat":43.32346,"lon":5.40627,"is_reserved":false,"is_disabled":false,"rental_uris":{"android":"levelo://app?vid=d4588e10-e89f-4361-9890-c26cb40b9e6f","ios":"levelo://app?vid=d4588e10-e89f-4361-9890-c26cb40b9e6f"},"vehicle_type_id":"4","last_reported":1745233677,"current_range_meters":13600,"station_id":"ce4bhq92rcd13ifvqhjg","pricing_plan_id":"cebpf4jnsgd1na2vs0mg"},{"bike_id":"4d0c211d-cc3b-4460-a3c4-121acaf031ae","system_id":"levelo_inurba_marseille","lat":43.33753,"lon":5.3918,"is_reserved":false,"is_disabled":false,"rental_uris":{"android":"levelo://app?vid=4d0c211d-cc3b-4460-a3c4-121acaf031ae","ios":"levelo://app?vid=4d0c211d-cc3b-4460-a3c4-121acaf031ae"},"vehicle_type_id":"4","last_reported":1745233677,"current_range_meters":14000,"station_id":"ce4bhr92rcd13ifvqhsg","pricing_plan_id":"cebpf4jnsgd1na2vs0mg"},{"bike_id":"a2930f69-1611-43d2-b122-0bce32419437","system_id":"levelo_inurba_marseille","lat":43.23153,"lon":5.43712,"is_reserved":false,"is_disabled":false,"rental_uris":{"android":"levelo://app?vid=a2930f69-1611-43d2-b122-0bce32419437","ios":"levelo://app?vid=a2930f69-1611-43d2-b122-0bce32419437"},"vehicle_type_id":"4","last_reported":1745233677,"current_range_meters":14000,"station_id":"ce4bhmp2rcd13ifvqgog","pricing_plan_id":"cebpf4jnsgd1na2vs0mg"},{"bike_id":"878b7bad-6baa-4a9a-97e3-cb147f9aea9b","system_id":"levelo_inurba_marseille","lat":43.23975,"lon":5.36645,"is_reserved":false,"is_disabled":false,"rental_uris":{"android":"levelo://app?vid=878b7bad-6baa-4a9a-97e3-cb147f9aea9b","ios":"levelo://app?vid=878b7bad-6baa-4a9a-97e3-cb147f9aea9b"},"vehicle_type_id":"4","last_reported":1745233677,"current_range_meters":14000,"station_id":"ce4bhi12rcd13ifvqfp0","pricing_plan_id":"cebpf4jnsgd1na2vs0mg"},{"bike_id":"5421f91f-c5b9-4312-b8b1-ba44221bb5c0","system_id":"levelo_inurba_marseille","lat":43.26213,"lon":5.37928,"is_reserved":false,"is_disabled":false,"rental_uris":{"android":"levelo://app?vid=5421f91f-c5b9-4312-b8b1-ba44221bb5c0","ios":"levelo://app?vid=5421f91f-c5b9-4312-b8b1-ba44221bb5c0"},"vehicle_type_id":"4","last_reported":1745233677,"current_range_meters":14400,"station_id":"ce4bhjp2rcd13ifvqg90","pricing_plan_id":"cebpf4jnsgd1na2vs0mg"},{"bike_id":"084030a3-c9e0-46eb-a85d-c20134965845","system_id":"levelo_inurba_marseille","lat":43.23953,"lon":5.3664,"is_reserved":false,"is_disabled":false,"rental_uris":{"android":"levelo://app?vid=084030a3-c9e0-46eb-a85d-c20134965845","ios":"levelo://app?vid=084030a3-c9e0-46eb-a85d-c20134965845"},"vehicle_type_id":"4","last_reported":1745233677,"current_range_meters":14800,"station_id":"ce4bhi12rcd13ifvqfp0","pricing_plan_id":"cebpf4jnsgd1na2vs0mg"},{"bike_id":"332c90dd-acae-4de1-a7ab-8062072ac75d","system_id":"levelo_inurba_marseille","lat":43.24811,"lon":5.37456,"is_reserved":false,"is_disabled":false,"rental_uris":{"android":"levelo://app?vid=332c90dd-acae-4de1-a7ab-8062072ac75d","ios":"levelo://app?vid=332c90dd-acae-4de1-a7ab-8062072ac75d"},"vehicle_type_id":"4","last_reported":1745233677,"current_range_meters":14800,"station_id":"ce4bhgh2rcd13ifvqfb0","pricing_plan_id":"cebpf4jnsgd1na2vs0mg"},{"bike_id":"9ac71ca5-2383-46a6-a16c-953501f7c65a","system_id":"levelo_inurba_marseille","lat":43.2175,"lon":5.34598,"is_reserved":false,"is_disabled":false,"rental_uris":{"android":"levelo://app?vid=9ac71ca5-2383-46a6-a16c-953501f7c65a","ios":"levelo://app?vid=9ac71ca5-2383-46a6-a16c-953501f7c65a"},"vehicle_type_id":"4","last_reported":1745233677,"current_range_meters":14800,"station_id":"st_cvj6r9ubvosntc0bgbag","pricing_plan_id":"cebpf4jnsgd1na2vs0mg"},{"bike_id":"080bdf52-524c-4ddc-8f23-770ba5fc8e3d","system_id":"levelo_inurba_marseille","lat":43.28273,"lon":5.35064,"is_reserved":false,"is_disabled":false,"rental_uris":{"android":"levelo://app?vid=080bdf52-524c-4ddc-8f23-770ba5fc8e3d","ios":"levelo://app?vid=080bdf52-524c-4ddc-8f23-770ba5fc8e3d"},"vehicle_type_id":"4","last_reported":1745233677,"current_range_meters":14800,"station_id":"ce4bhbp2rcd13ifvqerg","pricing_plan_id":"cebpf4jnsgd1na2vs0mg"},{"bike_id":"a969d1ed-77d3-4189-b5a7-0bf8cf90d349","system_id":"levelo_inurba_marseille","lat":43.23153,"lon":5.43705,"is_reserved":false,"is_disabled":false,"rental_uris":{"android":"levelo://app?vid=a969d1ed-77d3-4189-b5a7-0bf8cf90d349","ios":"levelo://app?vid=a969d1ed-77d3-4189-b5a7-0bf8cf90d349"},"vehicle_type_id":"4","last_reported":1745233677,"current_range_meters":14800,"station_id":"ce4bhmp2rcd13ifvqgog","pricing_plan_id":"cebpf4jnsgd1na2vs0mg"},{"bike_id":"f196fed5-b09f-4fc0-888b-09ddc69a03fa","system_id":"levelo_inurba_marseille","lat":43.240668,"lon":5.377604,"is_reserved":false,"is_disabled":false,"rental_uris":{"android":"levelo://app?vid=f196fed5-b09f-4fc0-888b-09ddc69a03fa","ios":"levelo://app?vid=f196fed5-b09f-4fc0-888b-09ddc69a03fa"},"vehicle_type_id":"4","last_reported":1745233677,"current_range_meters":15200,"station_id":"ce4bhnp2rcd13ifvqgvg","pricing_plan_id":"cebpf4jnsgd1na2vs0mg"},{"bike_id":"68501225-8cea-4f95-ae47-484785f78e68","system_id":"levelo_inurba_marseille","lat":43.32359,"lon":5.38883,"is_reserved":false,"is_disabled":true,"rental_uris":{"android":"levelo://app?vid=68501225-8cea-4f95-ae47-484785f78e68","ios":"levelo://app?vid=68501225-8cea-4f95-ae47-484785f78e68"},"vehicle_type_id":"4","last_reported":1745233677,"current_range_meters":16000,"station_id":"ce4bhqp2rcd13ifvqhog","pricing_plan_id":"cebpf4jnsgd1na2vs0mg"},{"bike_id":"2de4ec46-03f8-43b7-8cbd-36bb267b1f69","system_id":"levelo_inurba_marseille","lat":43.29919,"lon":5.37479,"is_reserved":false,"is_disabled":false,"rental_uris":{"android":"levelo://app?vid=2de4ec46-03f8-43b7-8cbd-36bb267b1f69","ios":"levelo://app?vid=2de4ec46-03f8-43b7-8cbd-36bb267b1f69"},"vehicle_type_id":"4","last_reported":1745233677,"current_range_meters":14800,"station_id":"ce4bgjh2rcd13ifvqbg0","pricing_plan_id":"cebpf4jnsgd1na2vs0mg"},{"bike_id":"87a6991c-b0c9-438e-8100-239a31a23e76","system_id":"levelo_inurba_marseille","lat":43.2319,"lon":5.35554,"is_reserved":false,"is_disabled":false,"rental_uris":{"android":"levelo://app?vid=87a6991c-b0c9-438e-8100-239a31a23e76","ios":"levelo://app?vid=87a6991c-b0c9-438e-8100-239a31a23e76"},"vehicle_type_id":"4","last_reported":1745233677,"current_range_meters":15200,"station_id":"ce4bhu92rcd13ifvqi70","pricing_plan_id":"cebpf4jnsgd1na2vs0mg"},{"bike_id":"f80eb025-cdb6-403d-96a9-ed04475c8549","system_id":"levelo_inurba_marseille","lat":43.24169,"lon":5.36396,"is_reserved":false,"is_disabled":false,"rental_uris":{"android":"levelo://app?vid=f80eb025-cdb6-403d-96a9-ed04475c8549","ios":"levelo://app?vid=f80eb025-cdb6-403d-96a9-ed04475c8549"},"vehicle_type_id":"4","last_reported":1745233677,"current_range_meters":16000,"station_id":"cpo36qri1sfpv3e86is0","pricing_plan_id":"cebpf4jnsgd1na2vs0mg"},{"bike_id":"2b9dc3a3-9ca1-4379-9bb7-4b8dbd4e17cf","system_id":"levelo_inurba_marseille","lat":43.23956,"lon":5.36629,"is_reserved":false,"is_disabled":true,"rental_uris":{"android":"levelo://app?vid=2b9dc3a3-9ca1-4379-9bb7-4b8dbd4e17cf","ios":"levelo://app?vid=2b9dc3a3-9ca1-4379-9bb7-4b8dbd4e17cf"},"vehicle_type_id":"4","last_reported":1745233677,"current_range_meters":16000,"station_id":"ce4bhi12rcd13ifvqfp0","pricing_plan_id":"cebpf4jnsgd1na2vs0mg"},{"bike_id":"af5ba08c-0730-4dda-a43c-3e08ff505b3c","system_id":"levelo_inurba_marseille","lat":43.23199,"lon":5.35551,"is_reserved":false,"is_disabled":false,"rental_uris":{"android":"levelo://app?vid=af5ba08c-0730-4dda-a43c-3e08ff505b3c","ios":"levelo://app?vid=af5ba08c-0730-4dda-a43c-3e08ff505b3c"},"vehicle_type_id":"4","last_reported":1745233677,"current_range_meters":16000,"station_id":"ce4bhu92rcd13ifvqi70","pricing_plan_id":"cebpf4jnsgd1na2vs0mg"},{"bike_id":"273dbbf1-6621-4917-8883-491e49c35f60","system_id":"levelo_inurba_marseille","lat":43.23189,"lon":5.35553,"is_reserved":false,"is_disabled":false,"rental_uris":{"android":"levelo://app?vid=273dbbf1-6621-4917-8883-491e49c35f60","ios":"levelo://app?vid=273dbbf1-6621-4917-8883-491e49c35f60"},"vehicle_type_id":"4","last_reported":1745233677,"current_range_meters":16000,"station_id":"ce4bhu92rcd13ifvqi70","pricing_plan_id":"cebpf4jnsgd1na2vs0mg"},{"bike_id":"e1520c10-5a5c-4181-9725-8938654befe2","system_id":"levelo_inurba_marseille","lat":43.29372,"lon":5.37804,"is_reserved":false,"is_disabled":false,"rental_uris":{"android":"levelo://app?vid=e1520c10-5a5c-4181-9725-8938654befe2","ios":"levelo://app?vid=e1520c10-5a5c-4181-9725-8938654befe2"},"vehicle_type_id":"4","last_reported":1745233677,"current_range_meters":16000,"station_id":"ce4bgjh2rcd13ifvqbf0","pricing_plan_id":"cebpf4jnsgd1na2vs0mg"},{"bike_id":"ccf7fb1a-2b2f-4567-82bc-bea5e5bacb44","system_id":"levelo_inurba_marseille","lat":43.25119,"lon":5.39455,"is_reserved":false,"is_disabled":false,"rental_uris":{"android":"levelo://app?vid=ccf7fb1a-2b2f-4567-82bc-bea5e5bacb44","ios":"levelo://app?vid=ccf7fb1a-2b2f-4567-82bc-bea5e5bacb44"},"vehicle_type_id":"4","last_reported":1745233677,"current_range_meters":16400,"station_id":"ce4bhm12rcd13ifvqgkg","pricing_plan_id":"cebpf4jnsgd1na2vs0mg"},{"bike_id":"815228c1-b05e-49cf-9e82-cf6be4d5757f","system_id":"levelo_inurba_marseille","lat":43.30374,"lon":5.42486,"is_reserved":false,"is_disabled":false,"rental_uris":{"android":"levelo://app?vid=815228c1-b05e-49cf-9e82-cf6be4d5757f","ios":"levelo://app?vid=815228c1-b05e-49cf-9e82-cf6be4d5757f"},"vehicle_type_id":"4","last_reported":1745233677,"current_range_meters":16400,"station_id":"ce4bhoh2rcd13ifvqh6g","pricing_plan_id":"cebpf4jnsgd1na2vs0mg"},{"bike_id":"4bec183f-b880-48a3-af42-d742895817a1","system_id":"levelo_inurba_marseille","lat":43.287118,"lon":5.379282,"is_reserved":false,"is_disabled":false,"rental_uris":{"android":"levelo://app?vid=4bec183f-b880-48a3-af42-d742895817a1","ios":"levelo://app?vid=4bec183f-b880-48a3-af42-d742895817a1"},"vehicle_type_id":"4","last_reported":1745233677,"current_range_meters":16400,"station_id":"ce4bgi12rcd13ifvqb70","pricing_plan_id":"cebpf4jnsgd1na2vs0mg"},{"bike_id":"599e3597-1ce3-40cc-ac1e-84c6c45291b1","system_id":"levelo_inurba_marseille","lat":43.28852,"lon":5.40964,"is_reserved":false,"is_disabled":false,"rental_uris":{"android":"levelo://app?vid=599e3597-1ce3-40cc-ac1e-84c6c45291b1","ios":"levelo://app?vid=599e3597-1ce3-40cc-ac1e-84c6c45291b1"},"vehicle_type_id":"4","last_reported":1745233677,"current_range_meters":16400,"station_id":"","pricing_plan_id":"cebpf4jnsgd1na2vs0mg"},{"bike_id":"27360305-ddd6-4480-8d49-05ac1e7babbe","system_id":"levelo_inurba_marseille","lat":43.262074,"lon":5.37928,"is_reserved":false,"is_disabled":false,"rental_uris":{"android":"levelo://app?vid=27360305-ddd6-4480-8d49-05ac1e7babbe","ios":"levelo://app?vid=27360305-ddd6-4480-8d49-05ac1e7babbe"},"vehicle_type_id":"4","last_reported":1745233677,"current_range_meters":16400,"station_id":"ce4bhh12rcd13ifvqfg0","pricing_plan_id":"cebpf4jnsgd1na2vs0mg"},{"bike_id":"9235e989-b644-4df1-b668-556e4921b40e","system_id":"levelo_inurba_marseille","lat":43.24163,"lon":5.39708,"is_reserved":false,"is_disabled":true,"rental_uris":{"android":"levelo://app?vid=9235e989-b644-4df1-b668-556e4921b40e","ios":"levelo://app?vid=9235e989-b644-4df1-b668-556e4921b40e"},"vehicle_type_id":"4","last_reported":1745233677,"current_range_meters":16800,"station_id":"ce4bhn12rcd13ifvqgpg","pricing_plan_id":"cebpf4jnsgd1na2vs0mg"},{"bike_id":"d7026fdd-384a-47a2-82e4-90ed490ec2ab","system_id":"levelo_inurba_marseille","lat":43.27374,"lon":5.36263,"is_reserved":false,"is_disabled":false,"rental_uris":{"android":"levelo://app?vid=d7026fdd-384a-47a2-82e4-90ed490ec2ab","ios":"levelo://app?vid=d7026fdd-384a-47a2-82e4-90ed490ec2ab"},"vehicle_type_id":"4","last_reported":1745233677,"current_range_meters":16800,"station_id":"ce4bhbh2rcd13ifvqeo0","pricing_plan_id":"cebpf4jnsgd1na2vs0mg"},{"bike_id":"71ac8e66-7bca-4f63-8eac-83591d00110a","system_id":"levelo_inurba_marseille","lat":43.23964,"lon":5.36628,"is_reserved":false,"is_disabled":false,"rental_uris":{"android":"levelo://app?vid=71ac8e66-7bca-4f63-8eac-83591d00110a","ios":"levelo://app?vid=71ac8e66-7bca-4f63-8eac-83591d00110a"},"vehicle_type_id":"4","last_reported":1745233677,"current_range_meters":16800,"station_id":"ce4bhi12rcd13ifvqfp0","pricing_plan_id":"cebpf4jnsgd1na2vs0mg"},{"bike_id":"6d5e89a5-0b9e-4c47-a7cb-72554401ff71","system_id":"levelo_inurba_marseille","lat":43.23164,"lon":5.43697,"is_reserved":false,"is_disabled":false,"rental_uris":{"android":"levelo://app?vid=6d5e89a5-0b9e-4c47-a7cb-72554401ff71","ios":"levelo://app?vid=6d5e89a5-0b9e-4c47-a7cb-72554401ff71"},"vehicle_type_id":"4","last_reported":1745233677,"current_range_meters":16800,"station_id":"ce4bhmp2rcd13ifvqgog","pricing_plan_id":"cebpf4jnsgd1na2vs0mg"},{"bike_id":"3cb8f175-120c-4d3e-884d-8051b1bbeadd","system_id":"levelo_inurba_marseille","lat":43.24166,"lon":5.36395,"is_reserved":false,"is_disabled":false,"rental_uris":{"android":"levelo://app?vid=3cb8f175-120c-4d3e-884d-8051b1bbeadd","ios":"levelo://app?vid=3cb8f175-120c-4d3e-884d-8051b1bbeadd"},"vehicle_type_id":"4","last_reported":1745233677,"current_range_meters":17200,"station_id":"cpo36qri1sfpv3e86is0","pricing_plan_id":"cebpf4jnsgd1na2vs0mg"},{"bike_id":"68916cdb-ace9-4fa6-a174-8fa1ab716b18","system_id":"levelo_inurba_marseille","lat":43.21199,"lon":5.3507,"is_reserved":false,"is_disabled":false,"rental_uris":{"android":"levelo://app?vid=68916cdb-ace9-4fa6-a174-8fa1ab716b18","ios":"levelo://app?vid=68916cdb-ace9-4fa6-a174-8fa1ab716b18"},"vehicle_type_id":"4","last_reported":1745233677,"current_range_meters":17200,"station_id":"st_cvj6sg6p6f1abm77japg","pricing_plan_id":"cebpf4jnsgd1na2vs0mg"},{"bike_id":"2950eb8d-1e1e-458e-8d71-f1aafc6dad87","system_id":"levelo_inurba_marseille","lat":43.23158,"lon":5.43701,"is_reserved":false,"is_disabled":false,"rental_uris":{"android":"levelo://app?vid=2950eb8d-1e1e-458e-8d71-f1aafc6dad87","ios":"levelo://app?vid=2950eb8d-1e1e-458e-8d71-f1aafc6dad87"},"vehicle_type_id":"4","last_reported":1745233677,"current_range_meters":17200,"station_id":"ce4bhmp2rcd13ifvqgog","pricing_plan_id":"cebpf4jnsgd1na2vs0mg"},{"bike_id":"ff70ae6c-ee6e-4eed-8bdb-74898e28bee6","system_id":"levelo_inurba_marseille","lat":43.2795,"lon":5.41043,"is_reserved":false,"is_disabled":false,"rental_uris":{"android":"levelo://app?vid=ff70ae6c-ee6e-4eed-8bdb-74898e28bee6","ios":"levelo://app?vid=ff70ae6c-ee6e-4eed-8bdb-74898e28bee6"},"vehicle_type_id":"4","last_reported":1745233677,"current_range_meters":17200,"station_id":"ce4bhnp2rcd13ifvqh0g","pricing_plan_id":"cebpf4jnsgd1na2vs0mg"},{"bike_id":"66770498-ea2f-40ff-8223-2ed1d90878af","system_id":"levelo_inurba_marseille","lat":43.33026,"lon":5.39045,"is_reserved":false,"is_disabled":false,"rental_uris":{"android":"levelo://app?vid=66770498-ea2f-40ff-8223-2ed1d90878af","ios":"levelo://app?vid=66770498-ea2f-40ff-8223-2ed1d90878af"},"vehicle_type_id":"4","last_reported":1745233677,"current_range_meters":16800,"station_id":"ce4bhr92rcd13ifvqhrg","pricing_plan_id":"cebpf4jnsgd1na2vs0mg"},{"bike_id":"18711f74-4a0a-438e-9099-5a3df79d3f8a","system_id":"levelo_inurba_marseille","lat":43.30745,"lon":5.42452,"is_reserved":false,"is_disabled":false,"rental_uris":{"android":"levelo://app?vid=18711f74-4a0a-438e-9099-5a3df79d3f8a","ios":"levelo://app?vid=18711f74-4a0a-438e-9099-5a3df79d3f8a"},"vehicle_type_id":"4","last_reported":1745233677,"current_range_meters":17200,"station_id":"st_cvj6ca6bvosntc0bfgr0","pricing_plan_id":"cebpf4jnsgd1na2vs0mg"},{"bike_id":"9ebb9e31-b181-4120-a985-5579f166c1c4","system_id":"levelo_inurba_marseille","lat":43.27988,"lon":5.40016,"is_reserved":false,"is_disabled":false,"rental_uris":{"android":"levelo://app?vid=9ebb9e31-b181-4120-a985-5579f166c1c4","ios":"levelo://app?vid=9ebb9e31-b181-4120-a985-5579f166c1c4"},"vehicle_type_id":"4","last_reported":1745233677,"current_range_meters":17600,"station_id":"ce4bho92rcd13ifvqh4g","pricing_plan_id":"cebpf4jnsgd1na2vs0mg"},{"bike_id":"64533dff-2b65-44b3-9f5b-8515b0edd10f","system_id":"levelo_inurba_marseille","lat":43.23059,"lon":5.35492,"is_reserved":false,"is_disabled":false,"rental_uris":{"android":"levelo://app?vid=64533dff-2b65-44b3-9f5b-8515b0edd10f","ios":"levelo://app?vid=64533dff-2b65-44b3-9f5b-8515b0edd10f"},"vehicle_type_id":"4","last_reported":1745233677,"current_range_meters":17600,"station_id":"cpo3342slgdg3j2ifvpg","pricing_plan_id":"cebpf4jnsgd1na2vs0mg"},{"bike_id":"df9f5717-96be-4ff5-8c2d-015aba335bd4","system_id":"levelo_inurba_marseille","lat":43.28423,"lon":5.3499,"is_reserved":false,"is_disabled":false,"rental_uris":{"android":"levelo://app?vid=df9f5717-96be-4ff5-8c2d-015aba335bd4","ios":"levelo://app?vid=df9f5717-96be-4ff5-8c2d-015aba335bd4"},"vehicle_type_id":"4","last_reported":1745233677,"current_range_meters":17600,"station_id":"ce4bhbh2rcd13ifvqepg","pricing_plan_id":"cebpf4jnsgd1na2vs0mg"},{"bike_id":"ff2bf607-4a25-4cbd-8774-c344af2a90e7","system_id":"levelo_inurba_marseille","lat":43.258217,"lon":5.394342,"is_reserved":false,"is_disabled":false,"rental_uris":{"android":"levelo://app?vid=ff2bf607-4a25-4cbd-8774-c344af2a90e7","ios":"levelo://app?vid=ff2bf607-4a25-4cbd-8774-c344af2a90e7"},"vehicle_type_id":"4","last_reported":1745233677,"current_range_meters":17600,"station_id":"ce4bhip2rcd13ifvqft0","pricing_plan_id":"cebpf4jnsgd1na2vs0mg"},{"bike_id":"517300f6-74cd-4b2d-9633-97b4e6f3edb9","system_id":"levelo_inurba_marseille","lat":43.3253,"lon":5.41457,"is_reserved":false,"is_disabled":false,"rental_uris":{"android":"levelo://app?vid=517300f6-74cd-4b2d-9633-97b4e6f3edb9","ios":"levelo://app?vid=517300f6-74cd-4b2d-9633-97b4e6f3edb9"},"vehicle_type_id":"4","last_reported":1745233677,"current_range_meters":17600,"station_id":"ce4bhq12rcd13ifvqhhg","pricing_plan_id":"cebpf4jnsgd1na2vs0mg"},{"bike_id":"d56bf67d-0e61-45a9-bc6e-93172b7c9a23","system_id":"levelo_inurba_marseille","lat":43.28613,"lon":5.35098,"is_reserved":false,"is_disabled":false,"rental_uris":{"android":"levelo://app?vid=d56bf67d-0e61-45a9-bc6e-93172b7c9a23","ios":"levelo://app?vid=d56bf67d-0e61-45a9-bc6e-93172b7c9a23"},"vehicle_type_id":"4","last_reported":1745233677,"current_range_meters":17600,"station_id":"ce4bhch2rcd13ifvqeug","pricing_plan_id":"cebpf4jnsgd1na2vs0mg"},{"bike_id":"19b012c2-0439-4117-9a4e-f949f6023a6f","system_id":"levelo_inurba_marseille","lat":43.21752,"lon":5.34606,"is_reserved":false,"is_disabled":false,"rental_uris":{"android":"levelo://app?vid=19b012c2-0439-4117-9a4e-f949f6023a6f","ios":"levelo://app?vid=19b012c2-0439-4117-9a4e-f949f6023a6f"},"vehicle_type_id":"4","last_reported":1745233677,"current_range_meters":17600,"station_id":"st_cvj6r9ubvosntc0bgbag","pricing_plan_id":"cebpf4jnsgd1na2vs0mg"},{"bike_id":"b8733fee-e487-4ddc-bd56-be765f1f1240","system_id":"levelo_inurba_marseille","lat":43.2176,"lon":5.346,"is_reserved":false,"is_disabled":false,"rental_uris":{"android":"levelo://app?vid=b8733fee-e487-4ddc-bd56-be765f1f1240","ios":"levelo://app?vid=b8733fee-e487-4ddc-bd56-be765f1f1240"},"vehicle_type_id":"4","last_reported":1745233677,"current_range_meters":18000,"station_id":"st_cvj6r9ubvosntc0bgbag","pricing_plan_id":"cebpf4jnsgd1na2vs0mg"},{"bike_id":"7ebedc7b-2bce-45cd-8613-0a33eb40ca3f","system_id":"levelo_inurba_marseille","lat":43.2695,"lon":5.38633,"is_reserved":false,"is_disabled":true,"rental_uris":{"android":"levelo://app?vid=7ebedc7b-2bce-45cd-8613-0a33eb40ca3f","ios":"levelo://app?vid=7ebedc7b-2bce-45cd-8613-0a33eb40ca3f"},"vehicle_type_id":"4","last_reported":1745233677,"current_range_meters":18000,"station_id":"ce4bhh92rcd13ifvqfh0","pricing_plan_id":"cebpf4jnsgd1na2vs0mg"},{"bike_id":"93e8258b-a75f-4b11-8dd4-b776e2bcdd89","system_id":"levelo_inurba_marseille","lat":43.23131,"lon":5.43709,"is_reserved":false,"is_disabled":false,"rental_uris":{"android":"levelo://app?vid=93e8258b-a75f-4b11-8dd4-b776e2bcdd89","ios":"levelo://app?vid=93e8258b-a75f-4b11-8dd4-b776e2bcdd89"},"vehicle_type_id":"4","last_reported":1745233677,"current_range_meters":18000,"station_id":"ce4bhmp2rcd13ifvqgog","pricing_plan_id":"cebpf4jnsgd1na2vs0mg"},{"bike_id":"1acfafe7-850e-4a2d-b08f-d1ac70c876c9","system_id":"levelo_inurba_marseille","lat":43.27073,"lon":5.40337,"is_reserved":false,"is_disabled":false,"rental_uris":{"android":"levelo://app?vid=1acfafe7-850e-4a2d-b08f-d1ac70c876c9","ios":"levelo://app?vid=1acfafe7-850e-4a2d-b08f-d1ac70c876c9"},"vehicle_type_id":"4","last_reported":1745233677,"current_range_meters":18000,"station_id":"","pricing_plan_id":"cebpf4jnsgd1na2vs0mg"},{"bike_id":"f0f4bb4c-d025-4338-b60b-f956e5296544","system_id":"levelo_inurba_marseille","lat":43.23154,"lon":5.43695,"is_reserved":false,"is_disabled":false,"rental_uris":{"android":"levelo://app?vid=f0f4bb4c-d025-4338-b60b-f956e5296544","ios":"levelo://app?vid=f0f4bb4c-d025-4338-b60b-f956e5296544"},"vehicle_type_id":"4","last_reported":1745233677,"current_range_meters":18800,"station_id":"ce4bhmp2rcd13ifvqgog","pricing_plan_id":"cebpf4jnsgd1na2vs0mg"},{"bike_id":"60799a7c-9c66-472e-ae7c-2c7e0972a713","system_id":"levelo_inurba_marseille","lat":43.24558,"lon":5.38049,"is_reserved":false,"is_disabled":false,"rental_uris":{"android":"levelo://app?vid=60799a7c-9c66-472e-ae7c-2c7e0972a713","ios":"levelo://app?vid=60799a7c-9c66-472e-ae7c-2c7e0972a713"},"vehicle_type_id":"4","last_reported":1745233677,"current_range_meters":18800,"station_id":"","pricing_plan_id":"cebpf4jnsgd1na2vs0mg"},{"bike_id":"787a71bf-46e5-4fde-a018-e21794f3688f","system_id":"levelo_inurba_marseille","lat":43.25824,"lon":5.39437,"is_reserved":false,"is_disabled":false,"rental_uris":{"android":"levelo://app?vid=787a71bf-46e5-4fde-a018-e21794f3688f","ios":"levelo://app?vid=787a71bf-46e5-4fde-a018-e21794f3688f"},"vehicle_type_id":"4","last_reported":1745233677,"current_range_meters":18800,"station_id":"ce4bhip2rcd13ifvqft0","pricing_plan_id":"cebpf4jnsgd1na2vs0mg"},{"bike_id":"5c2b3efc-9613-4206-aa58-981afef31c64","system_id":"levelo_inurba_marseille","lat":43.2761,"lon":5.36106,"is_reserved":false,"is_disabled":false,"rental_uris":{"android":"levelo://app?vid=5c2b3efc-9613-4206-aa58-981afef31c64","ios":"levelo://app?vid=5c2b3efc-9613-4206-aa58-981afef31c64"},"vehicle_type_id":"4","last_reported":1745233677,"current_range_meters":13600,"station_id":"ce4bgj92rcd13ifvqbe0","pricing_plan_id":"cebpf4jnsgd1na2vs0mg"},{"bike_id":"0154de4a-2f2c-4644-b193-67e6687a1ee8","system_id":"levelo_inurba_marseille","lat":43.23153,"lon":5.43725,"is_reserved":false,"is_disabled":false,"rental_uris":{"android":"levelo://app?vid=0154de4a-2f2c-4644-b193-67e6687a1ee8","ios":"levelo://app?vid=0154de4a-2f2c-4644-b193-67e6687a1ee8"},"vehicle_type_id":"4","last_reported":1745233677,"current_range_meters":18800,"station_id":"ce4bhmp2rcd13ifvqgog","pricing_plan_id":"cebpf4jnsgd1na2vs0mg"},{"bike_id":"f694d8be-6e68-405a-89cd-cf2e43aead66","system_id":"levelo_inurba_marseille","lat":43.28424,"lon":5.34981,"is_reserved":false,"is_disabled":false,"rental_uris":{"android":"levelo://app?vid=f694d8be-6e68-405a-89cd-cf2e43aead66","ios":"levelo://app?vid=f694d8be-6e68-405a-89cd-cf2e43aead66"},"vehicle_type_id":"4","last_reported":1745233677,"current_range_meters":19200,"station_id":"ce4bhbh2rcd13ifvqepg","pricing_plan_id":"cebpf4jnsgd1na2vs0mg"},{"bike_id":"b261fe84-cd86-4730-b2ee-802177904fc1","system_id":"levelo_inurba_marseille","lat":43.31731,"lon":5.37776,"is_reserved":false,"is_disabled":false,"rental_uris":{"android":"levelo://app?vid=b261fe84-cd86-4730-b2ee-802177904fc1","ios":"levelo://app?vid=b261fe84-cd86-4730-b2ee-802177904fc1"},"vehicle_type_id":"4","last_reported":1745233677,"current_range_meters":19200,"station_id":"ce4bgth2rcd13ifvqch0","pricing_plan_id":"cebpf4jnsgd1na2vs0mg"},{"bike_id":"0ea403e7-0bae-4fc6-85cb-2bcadf8a0a3b","system_id":"levelo_inurba_marseille","lat":43.31188,"lon":5.37718,"is_reserved":false,"is_disabled":false,"rental_uris":{"android":"levelo://app?vid=0ea403e7-0bae-4fc6-85cb-2bcadf8a0a3b","ios":"levelo://app?vid=0ea403e7-0bae-4fc6-85cb-2bcadf8a0a3b"},"vehicle_type_id":"4","last_reported":1745233677,"current_range_meters":19200,"station_id":"","pricing_plan_id":"cebpf4jnsgd1na2vs0mg"},{"bike_id":"153a84b6-5955-414b-8f48-157674aa798d","system_id":"levelo_inurba_marseille","lat":43.23155,"lon":5.43707,"is_reserved":false,"is_disabled":false,"rental_uris":{"android":"levelo://app?vid=153a84b6-5955-414b-8f48-157674aa798d","ios":"levelo://app?vid=153a84b6-5955-414b-8f48-157674aa798d"},"vehicle_type_id":"4","last_reported":1745233677,"current_range_meters":19200,"station_id":"ce4bhmp2rcd13ifvqgog","pricing_plan_id":"cebpf4jnsgd1na2vs0mg"},{"bike_id":"8180f083-26d6-4ed2-937a-949780364ddc","system_id":"levelo_inurba_marseille","lat":43.21194,"lon":5.35067,"is_reserved":false,"is_disabled":false,"rental_uris":{"android":"levelo://app?vid=8180f083-26d6-4ed2-937a-949780364ddc","ios":"levelo://app?vid=8180f083-26d6-4ed2-937a-949780364ddc"},"vehicle_type_id":"4","last_reported":1745233677,"current_range_meters":19200,"station_id":"st_cvj6sg6p6f1abm77japg","pricing_plan_id":"cebpf4jnsgd1na2vs0mg"},{"bike_id":"51829883-6e13-4715-bb4a-9103da405c82","system_id":"levelo_inurba_marseille","lat":43.21748,"lon":5.34608,"is_reserved":false,"is_disabled":false,"rental_uris":{"android":"levelo://app?vid=51829883-6e13-4715-bb4a-9103da405c82","ios":"levelo://app?vid=51829883-6e13-4715-bb4a-9103da405c82"},"vehicle_type_id":"4","last_reported":1745233677,"current_range_meters":19200,"station_id":"st_cvj6r9ubvosntc0bgbag","pricing_plan_id":"cebpf4jnsgd1na2vs0mg"},{"bike_id":"b50ee86a-c2b6-48d4-b7d1-f2a0c87356c5","system_id":"levelo_inurba_marseille","lat":43.23974,"lon":5.36607,"is_reserved":false,"is_disabled":false,"rental_uris":{"android":"levelo://app?vid=b50ee86a-c2b6-48d4-b7d1-f2a0c87356c5","ios":"levelo://app?vid=b50ee86a-c2b6-48d4-b7d1-f2a0c87356c5"},"vehicle_type_id":"4","last_reported":1745233677,"current_range_meters":19200,"station_id":"ce4bhi12rcd13ifvqfp0","pricing_plan_id":"cebpf4jnsgd1na2vs0mg"},{"bike_id":"13463fce-1b11-4c9b-b473-2ed8636f2675","system_id":"levelo_inurba_marseille","lat":43.21751,"lon":5.34598,"is_reserved":false,"is_disabled":false,"rental_uris":{"android":"levelo://app?vid=13463fce-1b11-4c9b-b473-2ed8636f2675","ios":"levelo://app?vid=13463fce-1b11-4c9b-b473-2ed8636f2675"},"vehicle_type_id":"4","last_reported":1745233677,"current_range_meters":19200,"station_id":"st_cvj6r9ubvosntc0bgbag","pricing_plan_id":"cebpf4jnsgd1na2vs0mg"},{"bike_id":"9995aaee-a12e-4c17-9469-d71ce1bb1b1b","system_id":"levelo_inurba_marseille","lat":43.28275,"lon":5.35056,"is_reserved":false,"is_disabled":false,"rental_uris":{"android":"levelo://app?vid=9995aaee-a12e-4c17-9469-d71ce1bb1b1b","ios":"levelo://app?vid=9995aaee-a12e-4c17-9469-d71ce1bb1b1b"},"vehicle_type_id":"4","last_reported":1745233677,"current_range_meters":19600,"station_id":"ce4bhbp2rcd13ifvqerg","pricing_plan_id":"cebpf4jnsgd1na2vs0mg"},{"bike_id":"b89ca489-2f28-4808-8ae7-499823f4a397","system_id":"levelo_inurba_marseille","lat":43.286114,"lon":5.351027,"is_reserved":false,"is_disabled":false,"rental_uris":{"android":"levelo://app?vid=b89ca489-2f28-4808-8ae7-499823f4a397","ios":"levelo://app?vid=b89ca489-2f28-4808-8ae7-499823f4a397"},"vehicle_type_id":"4","last_reported":1745233677,"current_range_meters":19600,"station_id":"ce4bhch2rcd13ifvqeug","pricing_plan_id":"cebpf4jnsgd1na2vs0mg"},{"bike_id":"5903f000-fb70-489d-9866-a370f98d865b","system_id":"levelo_inurba_marseille","lat":43.29224,"lon":5.360573,"is_reserved":false,"is_disabled":false,"rental_uris":{"android":"levelo://app?vid=5903f000-fb70-489d-9866-a370f98d865b","ios":"levelo://app?vid=5903f000-fb70-489d-9866-a370f98d865b"},"vehicle_type_id":"4","last_reported":1745233677,"current_range_meters":19600,"station_id":"","pricing_plan_id":"cebpf4jnsgd1na2vs0mg"},{"bike_id":"59e0332a-055c-4a55-bbe7-35149d5556ed","system_id":"levelo_inurba_marseille","lat":43.24046,"lon":5.37755,"is_reserved":false,"is_disabled":false,"rental_uris":{"android":"levelo://app?vid=59e0332a-055c-4a55-bbe7-35149d5556ed","ios":"levelo://app?vid=59e0332a-055c-4a55-bbe7-35149d5556ed"},"vehicle_type_id":"4","last_reported":1745233677,"current_range_meters":19600,"station_id":"ce4bhnp2rcd13ifvqgvg","pricing_plan_id":"cebpf4jnsgd1na2vs0mg"},{"bike_id":"f4393709-2b7f-4b0b-9cbd-bb18dcc3d97f","system_id":"levelo_inurba_marseille","lat":43.21209,"lon":5.35075,"is_reserved":false,"is_disabled":false,"rental_uris":{"android":"levelo://app?vid=f4393709-2b7f-4b0b-9cbd-bb18dcc3d97f","ios":"levelo://app?vid=f4393709-2b7f-4b0b-9cbd-bb18dcc3d97f"},"vehicle_type_id":"4","last_reported":1745233677,"current_range_meters":19600,"station_id":"st_cvj6sg6p6f1abm77japg","pricing_plan_id":"cebpf4jnsgd1na2vs0mg"},{"bike_id":"d578f5ae-fe47-4998-9671-eb306c19e360","system_id":"levelo_inurba_marseille","lat":43.29014,"lon":5.35619,"is_reserved":false,"is_disabled":false,"rental_uris":{"android":"levelo://app?vid=d578f5ae-fe47-4998-9671-eb306c19e360","ios":"levelo://app?vid=d578f5ae-fe47-4998-9671-eb306c19e360"},"vehicle_type_id":"4","last_reported":1745233677,"current_range_meters":19200,"station_id":"ce4bhb92rcd13ifvqen0","pricing_plan_id":"cebpf4jnsgd1na2vs0mg"},{"bike_id":"a79fb0f7-3487-47ce-865f-146ad377c1c2","system_id":"levelo_inurba_marseille","lat":43.24707,"lon":5.38167,"is_reserved":false,"is_disabled":false,"rental_uris":{"android":"levelo://app?vid=a79fb0f7-3487-47ce-865f-146ad377c1c2","ios":"levelo://app?vid=a79fb0f7-3487-47ce-865f-146ad377c1c2"},"vehicle_type_id":"4","last_reported":1745233677,"current_range_meters":19600,"station_id":"","pricing_plan_id":"cebpf4jnsgd1na2vs0mg"},{"bike_id":"affcda50-a238-4772-8ea1-3d4f874e7e00","system_id":"levelo_inurba_marseille","lat":43.28462,"lon":5.35883,"is_reserved":false,"is_disabled":false,"rental_uris":{"android":"levelo://app?vid=affcda50-a238-4772-8ea1-3d4f874e7e00","ios":"levelo://app?vid=affcda50-a238-4772-8ea1-3d4f874e7e00"},"vehicle_type_id":"4","last_reported":1745233677,"current_range_meters":19600,"station_id":"ce4bhah2rcd13ifvqei0","pricing_plan_id":"cebpf4jnsgd1na2vs0mg"},{"bike_id":"5b82dfa4-979b-4e82-a45a-c517324f2c12","system_id":"levelo_inurba_marseille","lat":43.28276,"lon":5.35068,"is_reserved":false,"is_disabled":true,"rental_uris":{"android":"levelo://app?vid=5b82dfa4-979b-4e82-a45a-c517324f2c12","ios":"levelo://app?vid=5b82dfa4-979b-4e82-a45a-c517324f2c12"},"vehicle_type_id":"4","last_reported":1745233677,"current_range_meters":19600,"station_id":"ce4bhbp2rcd13ifvqerg","pricing_plan_id":"cebpf4jnsgd1na2vs0mg"},{"bike_id":"2ad01f2b-f6f3-4310-818f-a5e73dbdafee","system_id":"levelo_inurba_marseille","lat":43.28269,"lon":5.35066,"is_reserved":false,"is_disabled":false,"rental_uris":{"android":"levelo://app?vid=2ad01f2b-f6f3-4310-818f-a5e73dbdafee","ios":"levelo://app?vid=2ad01f2b-f6f3-4310-818f-a5e73dbdafee"},"vehicle_type_id":"4","last_reported":1745233677,"current_range_meters":19600,"station_id":"ce4bhbp2rcd13ifvqerg","pricing_plan_id":"cebpf4jnsgd1na2vs0mg"},{"bike_id":"d687f365-ce04-4bc2-8005-0abb8618d274","system_id":"levelo_inurba_marseille","lat":43.317108,"lon":5.377528,"is_reserved":false,"is_disabled":false,"rental_uris":{"android":"levelo://app?vid=d687f365-ce04-4bc2-8005-0abb8618d274","ios":"levelo://app?vid=d687f365-ce04-4bc2-8005-0abb8618d274"},"vehicle_type_id":"4","last_reported":1745233677,"current_range_meters":19600,"station_id":"ce4bgth2rcd13ifvqch0","pricing_plan_id":"cebpf4jnsgd1na2vs0mg"},{"bike_id":"dface6bc-51eb-4db2-8861-2c05ef654713","system_id":"levelo_inurba_marseille","lat":43.298954,"lon":5.436696,"is_reserved":false,"is_disabled":false,"rental_uris":{"android":"levelo://app?vid=dface6bc-51eb-4db2-8861-2c05ef654713","ios":"levelo://app?vid=dface6bc-51eb-4db2-8861-2c05ef654713"},"vehicle_type_id":"4","last_reported":1745233677,"current_range_meters":20000,"station_id":"ce4bhpp2rcd13ifvqhfg","pricing_plan_id":"cebpf4jnsgd1na2vs0mg"},{"bike_id":"4492d8af-4df2-48ba-8a7a-30a76a3055dd","system_id":"levelo_inurba_marseille","lat":43.31508,"lon":5.3729,"is_reserved":false,"is_disabled":false,"rental_uris":{"android":"levelo://app?vid=4492d8af-4df2-48ba-8a7a-30a76a3055dd","ios":"levelo://app?vid=4492d8af-4df2-48ba-8a7a-30a76a3055dd"},"vehicle_type_id":"4","last_reported":1745233677,"current_range_meters":20000,"station_id":"ce4bgt12rcd13ifvqcd0","pricing_plan_id":"cebpf4jnsgd1na2vs0mg"},{"bike_id":"615e49cd-4ff6-4fc8-9c20-4df85af238c9","system_id":"levelo_inurba_marseille","lat":43.24169,"lon":5.36391,"is_reserved":false,"is_disabled":false,"rental_uris":{"android":"levelo://app?vid=615e49cd-4ff6-4fc8-9c20-4df85af238c9","ios":"levelo://app?vid=615e49cd-4ff6-4fc8-9c20-4df85af238c9"},"vehicle_type_id":"4","last_reported":1745233677,"current_range_meters":20000,"station_id":"cpo36qri1sfpv3e86is0","pricing_plan_id":"cebpf4jnsgd1na2vs0mg"},{"bike_id":"ff9ae48d-8a0a-4e07-b15d-56740974daab","system_id":"levelo_inurba_marseille","lat":43.28614,"lon":5.35103,"is_reserved":false,"is_disabled":false,"rental_uris":{"android":"levelo://app?vid=ff9ae48d-8a0a-4e07-b15d-56740974daab","ios":"levelo://app?vid=ff9ae48d-8a0a-4e07-b15d-56740974daab"},"vehicle_type_id":"4","last_reported":1745233677,"current_range_meters":20000,"station_id":"ce4bhch2rcd13ifvqeug","pricing_plan_id":"cebpf4jnsgd1na2vs0mg"},{"bike_id":"7b184fcb-8493-418c-970a-b38700a9d83d","system_id":"levelo_inurba_marseille","lat":43.32118,"lon":5.36792,"is_reserved":false,"is_disabled":false,"rental_uris":{"android":"levelo://app?vid=7b184fcb-8493-418c-970a-b38700a9d83d","ios":"levelo://app?vid=7b184fcb-8493-418c-970a-b38700a9d83d"},"vehicle_type_id":"4","last_reported":1745233677,"current_range_meters":20000,"station_id":"ce4bhrh2rcd13ifvqhug","pricing_plan_id":"cebpf4jnsgd1na2vs0mg"},{"bike_id":"f6056272-932f-4296-9277-6d2ce19d9e25","system_id":"levelo_inurba_marseille","lat":43.24077,"lon":5.37755,"is_reserved":false,"is_disabled":false,"rental_uris":{"android":"levelo://app?vid=f6056272-932f-4296-9277-6d2ce19d9e25","ios":"levelo://app?vid=f6056272-932f-4296-9277-6d2ce19d9e25"},"vehicle_type_id":"4","last_reported":1745233677,"current_range_meters":20000,"station_id":"ce4bhnp2rcd13ifvqgvg","pricing_plan_id":"cebpf4jnsgd1na2vs0mg"},{"bike_id":"82ac1733-a392-4919-af55-f1e34f387a97","system_id":"levelo_inurba_marseille","lat":43.310791,"lon":5.383702,"is_reserved":false,"is_disabled":false,"rental_uris":{"android":"levelo://app?vid=82ac1733-a392-4919-af55-f1e34f387a97","ios":"levelo://app?vid=82ac1733-a392-4919-af55-f1e34f387a97"},"vehicle_type_id":"4","last_reported":1745233677,"current_range_meters":20000,"station_id":"ce4bgv92rcd13ifvqcr0","pricing_plan_id":"cebpf4jnsgd1na2vs0mg"},{"bike_id":"4e0feb4b-9af5-4c5c-a215-eabded87c4f9","system_id":"levelo_inurba_marseille","lat":43.23154,"lon":5.43706,"is_reserved":false,"is_disabled":false,"rental_uris":{"android":"levelo://app?vid=4e0feb4b-9af5-4c5c-a215-eabded87c4f9","ios":"levelo://app?vid=4e0feb4b-9af5-4c5c-a215-eabded87c4f9"},"vehicle_type_id":"4","last_reported":1745233677,"current_range_meters":20000,"station_id":"ce4bhmp2rcd13ifvqgog","pricing_plan_id":"cebpf4jnsgd1na2vs0mg"},{"bike_id":"0c921051-6c2d-45c8-9aa1-91f47852b042","system_id":"levelo_inurba_marseille","lat":43.24554,"lon":5.38056,"is_reserved":false,"is_disabled":false,"rental_uris":{"android":"levelo://app?vid=0c921051-6c2d-45c8-9aa1-91f47852b042","ios":"levelo://app?vid=0c921051-6c2d-45c8-9aa1-91f47852b042"},"vehicle_type_id":"4","last_reported":1745233677,"current_range_meters":20000,"station_id":"","pricing_plan_id":"cebpf4jnsgd1na2vs0mg"},{"bike_id":"34fecf7e-3781-4d9f-9063-cd9faed01508","system_id":"levelo_inurba_marseille","lat":43.21196,"lon":5.35066,"is_reserved":false,"is_disabled":false,"rental_uris":{"android":"levelo://app?vid=34fecf7e-3781-4d9f-9063-cd9faed01508","ios":"levelo://app?vid=34fecf7e-3781-4d9f-9063-cd9faed01508"},"vehicle_type_id":"4","last_reported":1745233677,"current_range_meters":20000,"station_id":"","pricing_plan_id":"cebpf4jnsgd1na2vs0mg"},{"bike_id":"9ab4e829-1a3f-4610-b1e2-0f3bd8bbf6bb","system_id":"levelo_inurba_marseille","lat":43.28272,"lon":5.35059,"is_reserved":false,"is_disabled":false,"rental_uris":{"android":"levelo://app?vid=9ab4e829-1a3f-4610-b1e2-0f3bd8bbf6bb","ios":"levelo://app?vid=9ab4e829-1a3f-4610-b1e2-0f3bd8bbf6bb"},"vehicle_type_id":"4","last_reported":1745233677,"current_range_meters":20000,"station_id":"ce4bhbp2rcd13ifvqerg","pricing_plan_id":"cebpf4jnsgd1na2vs0mg"},{"bike_id":"8b130a09-aaaf-4aa6-818b-7046c9a559b0","system_id":"levelo_inurba_marseille","lat":43.24686,"lon":5.38139,"is_reserved":false,"is_disabled":false,"rental_uris":{"android":"levelo://app?vid=8b130a09-aaaf-4aa6-818b-7046c9a559b0","ios":"levelo://app?vid=8b130a09-aaaf-4aa6-818b-7046c9a559b0"},"vehicle_type_id":"4","last_reported":1745233677,"current_range_meters":20000,"station_id":"ce4bhih2rcd13ifvqfr0","pricing_plan_id":"cebpf4jnsgd1na2vs0mg"},{"bike_id":"6f9d7e91-7c21-4a14-a0af-9262831f141f","system_id":"levelo_inurba_marseille","lat":43.28271,"lon":5.35052,"is_reserved":false,"is_disabled":false,"rental_uris":{"android":"levelo://app?vid=6f9d7e91-7c21-4a14-a0af-9262831f141f","ios":"levelo://app?vid=6f9d7e91-7c21-4a14-a0af-9262831f141f"},"vehicle_type_id":"4","last_reported":1745233677,"current_range_meters":20400,"station_id":"ce4bhbp2rcd13ifvqerg","pricing_plan_id":"cebpf4jnsgd1na2vs0mg"},{"bike_id":"ea8855bb-b20a-49e4-ac0f-a34c16e6aae9","system_id":"levelo_inurba_marseille","lat":43.245493,"lon":5.395077,"is_reserved":false,"is_disabled":false,"rental_uris":{"android":"levelo://app?vid=ea8855bb-b20a-49e4-ac0f-a34c16e6aae9","ios":"levelo://app?vid=ea8855bb-b20a-49e4-ac0f-a34c16e6aae9"},"vehicle_type_id":"4","last_reported":1745233677,"current_range_meters":20400,"station_id":"ce4bhlp2rcd13ifvqgjg","pricing_plan_id":"cebpf4jnsgd1na2vs0mg"},{"bike_id":"ba04e240-389e-4d70-bad4-6c85fc2ed90f","system_id":"levelo_inurba_marseille","lat":43.28426,"lon":5.34987,"is_reserved":false,"is_disabled":false,"rental_uris":{"android":"levelo://app?vid=ba04e240-389e-4d70-bad4-6c85fc2ed90f","ios":"levelo://app?vid=ba04e240-389e-4d70-bad4-6c85fc2ed90f"},"vehicle_type_id":"4","last_reported":1745233677,"current_range_meters":20400,"station_id":"ce4bhbh2rcd13ifvqepg","pricing_plan_id":"cebpf4jnsgd1na2vs0mg"},{"bike_id":"1ce3e250-4ff7-4535-a8a4-40b7a60ad7b0","system_id":"levelo_inurba_marseille","lat":43.24169,"lon":5.36397,"is_reserved":false,"is_disabled":false,"rental_uris":{"android":"levelo://app?vid=1ce3e250-4ff7-4535-a8a4-40b7a60ad7b0","ios":"levelo://app?vid=1ce3e250-4ff7-4535-a8a4-40b7a60ad7b0"},"vehicle_type_id":"4","last_reported":1745233677,"current_range_meters":20800,"station_id":"cpo36qri1sfpv3e86is0","pricing_plan_id":"cebpf4jnsgd1na2vs0mg"},{"bike_id":"f472e54b-77a0-43da-87b7-a5569a4eb590","system_id":"levelo_inurba_marseille","lat":43.317161,"lon":5.37767,"is_reserved":false,"is_disabled":false,"rental_uris":{"android":"levelo://app?vid=f472e54b-77a0-43da-87b7-a5569a4eb590","ios":"levelo://app?vid=f472e54b-77a0-43da-87b7-a5569a4eb590"},"vehicle_type_id":"4","last_reported":1745233677,"current_range_meters":20800,"station_id":"ce4bgth2rcd13ifvqch0","pricing_plan_id":"cebpf4jnsgd1na2vs0mg"},{"bike_id":"858506c8-9676-4cf0-9557-35f55adf2784","system_id":"levelo_inurba_marseille","lat":43.28275,"lon":5.35058,"is_reserved":false,"is_disabled":false,"rental_uris":{"android":"levelo://app?vid=858506c8-9676-4cf0-9557-35f55adf2784","ios":"levelo://app?vid=858506c8-9676-4cf0-9557-35f55adf2784"},"vehicle_type_id":"4","last_reported":1745233677,"current_range_meters":20800,"station_id":"ce4bhbp2rcd13ifvqerg","pricing_plan_id":"cebpf4jnsgd1na2vs0mg"},{"bike_id":"cb9917fc-856e-4194-b94e-d83b0fe1bd27","system_id":"levelo_inurba_marseille","lat":43.311878,"lon":5.416166,"is_reserved":false,"is_disabled":false,"rental_uris":{"android":"levelo://app?vid=cb9917fc-856e-4194-b94e-d83b0fe1bd27","ios":"levelo://app?vid=cb9917fc-856e-4194-b94e-d83b0fe1bd27"},"vehicle_type_id":"4","last_reported":1745233677,"current_range_meters":20800,"station_id":"","pricing_plan_id":"cebpf4jnsgd1na2vs0mg"},{"bike_id":"08e59318-16da-4e61-b69e-67dd7f8afc09","system_id":"levelo_inurba_marseille","lat":43.25494,"lon":5.37652,"is_reserved":false,"is_disabled":false,"rental_uris":{"android":"levelo://app?vid=08e59318-16da-4e61-b69e-67dd7f8afc09","ios":"levelo://app?vid=08e59318-16da-4e61-b69e-67dd7f8afc09"},"vehicle_type_id":"4","last_reported":1745233677,"current_range_meters":20800,"station_id":"ce4bhh12rcd13ifvqff0","pricing_plan_id":"cebpf4jnsgd1na2vs0mg"},{"bike_id":"293002e2-c811-490f-9e14-1c9565846bbd","system_id":"levelo_inurba_marseille","lat":43.2119,"lon":5.35071,"is_reserved":false,"is_disabled":false,"rental_uris":{"android":"levelo://app?vid=293002e2-c811-490f-9e14-1c9565846bbd","ios":"levelo://app?vid=293002e2-c811-490f-9e14-1c9565846bbd"},"vehicle_type_id":"4","last_reported":1745233677,"current_range_meters":20800,"station_id":"st_cvj6sg6p6f1abm77japg","pricing_plan_id":"cebpf4jnsgd1na2vs0mg"},{"bike_id":"d8fedef9-207e-48be-a03c-36efea066f01","system_id":"levelo_inurba_marseille","lat":43.27374,"lon":5.36263,"is_reserved":false,"is_disabled":false,"rental_uris":{"android":"levelo://app?vid=d8fedef9-207e-48be-a03c-36efea066f01","ios":"levelo://app?vid=d8fedef9-207e-48be-a03c-36efea066f01"},"vehicle_type_id":"4","last_reported":1745233677,"current_range_meters":20400,"station_id":"ce4bhbh2rcd13ifvqeo0","pricing_plan_id":"cebpf4jnsgd1na2vs0mg"},{"bike_id":"00f2f62d-78d1-4a01-bb22-cfc6c6d40bc5","system_id":"levelo_inurba_marseille","lat":43.24563,"lon":5.38036,"is_reserved":false,"is_disabled":false,"rental_uris":{"android":"levelo://app?vid=00f2f62d-78d1-4a01-bb22-cfc6c6d40bc5","ios":"levelo://app?vid=00f2f62d-78d1-4a01-bb22-cfc6c6d40bc5"},"vehicle_type_id":"4","last_reported":1745233677,"current_range_meters":20800,"station_id":"","pricing_plan_id":"cebpf4jnsgd1na2vs0mg"},{"bike_id":"cdd5db1d-b589-4ca1-94c1-202d30db1e56","system_id":"levelo_inurba_marseille","lat":43.23958,"lon":5.36663,"is_reserved":false,"is_disabled":true,"rental_uris":{"android":"levelo://app?vid=cdd5db1d-b589-4ca1-94c1-202d30db1e56","ios":"levelo://app?vid=cdd5db1d-b589-4ca1-94c1-202d30db1e56"},"vehicle_type_id":"4","last_reported":1745233677,"current_range_meters":21600,"station_id":"ce4bhi12rcd13ifvqfp0","pricing_plan_id":"cebpf4jnsgd1na2vs0mg"},{"bike_id":"0cd04ba3-e9bb-4364-9c3e-67e4228e3081","system_id":"levelo_inurba_marseille","lat":43.299834,"lon":5.387547,"is_reserved":false,"is_disabled":false,"rental_uris":{"android":"levelo://app?vid=0cd04ba3-e9bb-4364-9c3e-67e4228e3081","ios":"levelo://app?vid=0cd04ba3-e9bb-4364-9c3e-67e4228e3081"},"vehicle_type_id":"4","last_reported":1745233677,"current_range_meters":20800,"station_id":"ce4bgjh2rcd13ifvqbg0","pricing_plan_id":"cebpf4jnsgd1na2vs0mg"},{"bike_id":"e8e62d3d-e6b4-4ad6-8aec-55d5d0277531","system_id":"levelo_inurba_marseille","lat":43.23176,"lon":5.39986,"is_reserved":false,"is_disabled":false,"rental_uris":{"android":"levelo://app?vid=e8e62d3d-e6b4-4ad6-8aec-55d5d0277531","ios":"levelo://app?vid=e8e62d3d-e6b4-4ad6-8aec-55d5d0277531"},"vehicle_type_id":"4","last_reported":1745233677,"current_range_meters":20800,"station_id":"ce4bhn12rcd13ifvqgqg","pricing_plan_id":"cebpf4jnsgd1na2vs0mg"},{"bike_id":"278ee132-281e-4a56-a4a6-ae5a169037d3","system_id":"levelo_inurba_marseille","lat":43.23966,"lon":5.36635,"is_reserved":false,"is_disabled":false,"rental_uris":{"android":"levelo://app?vid=278ee132-281e-4a56-a4a6-ae5a169037d3","ios":"levelo://app?vid=278ee132-281e-4a56-a4a6-ae5a169037d3"},"vehicle_type_id":"4","last_reported":1745233677,"current_range_meters":20800,"station_id":"ce4bhi12rcd13ifvqfp0","pricing_plan_id":"cebpf4jnsgd1na2vs0mg"},{"bike_id":"f6919607-44fc-4060-9fb0-09ba314e9711","system_id":"levelo_inurba_marseille","lat":43.23143,"lon":5.43702,"is_reserved":false,"is_disabled":false,"rental_uris":{"android":"levelo://app?vid=f6919607-44fc-4060-9fb0-09ba314e9711","ios":"levelo://app?vid=f6919607-44fc-4060-9fb0-09ba314e9711"},"vehicle_type_id":"4","last_reported":1745233677,"current_range_meters":21600,"station_id":"ce4bhmp2rcd13ifvqgog","pricing_plan_id":"cebpf4jnsgd1na2vs0mg"},{"bike_id":"c9661656-9d3c-4816-8749-4aae75d47d35","system_id":"levelo_inurba_marseille","lat":43.29917,"lon":5.37485,"is_reserved":false,"is_disabled":false,"rental_uris":{"android":"levelo://app?vid=c9661656-9d3c-4816-8749-4aae75d47d35","ios":"levelo://app?vid=c9661656-9d3c-4816-8749-4aae75d47d35"},"vehicle_type_id":"4","last_reported":1745233677,"current_range_meters":21600,"station_id":"ce4bgjh2rcd13ifvqbg0","pricing_plan_id":"cebpf4jnsgd1na2vs0mg"},{"bike_id":"885a9c08-c84d-444b-abfc-268e26bdaf4a","system_id":"levelo_inurba_marseille","lat":43.225002,"lon":5.347807,"is_reserved":false,"is_disabled":true,"rental_uris":{"android":"levelo://app?vid=885a9c08-c84d-444b-abfc-268e26bdaf4a","ios":"levelo://app?vid=885a9c08-c84d-444b-abfc-268e26bdaf4a"},"vehicle_type_id":"4","last_reported":1745233677,"current_range_meters":21600,"station_id":"","pricing_plan_id":"cebpf4jnsgd1na2vs0mg"},{"bike_id":"78bd8681-aaec-4040-8944-74b5c0a45d6b","system_id":"levelo_inurba_marseille","lat":43.29916,"lon":5.3748,"is_reserved":false,"is_disabled":false,"rental_uris":{"android":"levelo://app?vid=78bd8681-aaec-4040-8944-74b5c0a45d6b","ios":"levelo://app?vid=78bd8681-aaec-4040-8944-74b5c0a45d6b"},"vehicle_type_id":"4","last_reported":1745233677,"current_range_meters":21600,"station_id":"ce4bgjh2rcd13ifvqbg0","pricing_plan_id":"cebpf4jnsgd1na2vs0mg"},{"bike_id":"aae3b670-41be-443f-bfcb-5cb1d906e0c1","system_id":"levelo_inurba_marseille","lat":43.23153,"lon":5.43718,"is_reserved":false,"is_disabled":false,"rental_uris":{"android":"levelo://app?vid=aae3b670-41be-443f-bfcb-5cb1d906e0c1","ios":"levelo://app?vid=aae3b670-41be-443f-bfcb-5cb1d906e0c1"},"vehicle_type_id":"4","last_reported":1745233677,"current_range_meters":21600,"station_id":"ce4bhmp2rcd13ifvqgog","pricing_plan_id":"cebpf4jnsgd1na2vs0mg"},{"bike_id":"70a5f950-0c74-43e5-a6f3-cba284ed0581","system_id":"levelo_inurba_marseille","lat":43.27367,"lon":5.3626,"is_reserved":false,"is_disabled":false,"rental_uris":{"android":"levelo://app?vid=70a5f950-0c74-43e5-a6f3-cba284ed0581","ios":"levelo://app?vid=70a5f950-0c74-43e5-a6f3-cba284ed0581"},"vehicle_type_id":"4","last_reported":1745233677,"current_range_meters":21600,"station_id":"ce4bhbh2rcd13ifvqeo0","pricing_plan_id":"cebpf4jnsgd1na2vs0mg"},{"bike_id":"4211e0ad-2988-493b-8e28-c73eb2fddf42","system_id":"levelo_inurba_marseille","lat":43.26226,"lon":5.40453,"is_reserved":false,"is_disabled":false,"rental_uris":{"android":"levelo://app?vid=4211e0ad-2988-493b-8e28-c73eb2fddf42","ios":"levelo://app?vid=4211e0ad-2988-493b-8e28-c73eb2fddf42"},"vehicle_type_id":"4","last_reported":1745233677,"current_range_meters":21600,"station_id":"ce4bhmh2rcd13ifvqgmg","pricing_plan_id":"cebpf4jnsgd1na2vs0mg"},{"bike_id":"0ea1a013-d2c2-454c-aea8-94c2e5b4dbbe","system_id":"levelo_inurba_marseille","lat":43.21748,"lon":5.34612,"is_reserved":false,"is_disabled":false,"rental_uris":{"android":"levelo://app?vid=0ea1a013-d2c2-454c-aea8-94c2e5b4dbbe","ios":"levelo://app?vid=0ea1a013-d2c2-454c-aea8-94c2e5b4dbbe"},"vehicle_type_id":"4","last_reported":1745233677,"current_range_meters":21600,"station_id":"st_cvj6r9ubvosntc0bgbag","pricing_plan_id":"cebpf4jnsgd1na2vs0mg"},{"bike_id":"67f051ed-2d9c-4355-90d6-965013aae856","system_id":"levelo_inurba_marseille","lat":43.27998,"lon":5.41666,"is_reserved":false,"is_disabled":false,"rental_uris":{"android":"levelo://app?vid=67f051ed-2d9c-4355-90d6-965013aae856","ios":"levelo://app?vid=67f051ed-2d9c-4355-90d6-965013aae856"},"vehicle_type_id":"4","last_reported":1745233677,"current_range_meters":21600,"station_id":"ce4bho12rcd13ifvqh1g","pricing_plan_id":"cebpf4jnsgd1na2vs0mg"},{"bike_id":"c3c511e3-acf9-486d-afc8-d7ec828ab0b9","system_id":"levelo_inurba_marseille","lat":43.29265,"lon":5.37631,"is_reserved":false,"is_disabled":false,"rental_uris":{"android":"levelo://app?vid=c3c511e3-acf9-486d-afc8-d7ec828ab0b9","ios":"levelo://app?vid=c3c511e3-acf9-486d-afc8-d7ec828ab0b9"},"vehicle_type_id":"4","last_reported":1745233677,"current_range_meters":22000,"station_id":"ce4bgi12rcd13ifvqb80","pricing_plan_id":"cebpf4jnsgd1na2vs0mg"},{"bike_id":"4f3a7427-5756-430d-a360-78b32b4a012c","system_id":"levelo_inurba_marseille","lat":43.29266,"lon":5.37618,"is_reserved":false,"is_disabled":false,"rental_uris":{"android":"levelo://app?vid=4f3a7427-5756-430d-a360-78b32b4a012c","ios":"levelo://app?vid=4f3a7427-5756-430d-a360-78b32b4a012c"},"vehicle_type_id":"4","last_reported":1745233677,"current_range_meters":22000,"station_id":"ce4bgi12rcd13ifvqb80","pricing_plan_id":"cebpf4jnsgd1na2vs0mg"},{"bike_id":"b8940917-0b80-4572-b867-e4af3d449d32","system_id":"levelo_inurba_marseille","lat":43.21199,"lon":5.35055,"is_reserved":false,"is_disabled":false,"rental_uris":{"android":"levelo://app?vid=b8940917-0b80-4572-b867-e4af3d449d32","ios":"levelo://app?vid=b8940917-0b80-4572-b867-e4af3d449d32"},"vehicle_type_id":"4","last_reported":1745233677,"current_range_meters":22000,"station_id":"st_cvj6sg6p6f1abm77japg","pricing_plan_id":"cebpf4jnsgd1na2vs0mg"},{"bike_id":"7ce7446d-e7fc-4f4e-b498-1cdc4944613c","system_id":"levelo_inurba_marseille","lat":43.2996,"lon":5.41336,"is_reserved":false,"is_disabled":false,"rental_uris":{"android":"levelo://app?vid=7ce7446d-e7fc-4f4e-b498-1cdc4944613c","ios":"levelo://app?vid=7ce7446d-e7fc-4f4e-b498-1cdc4944613c"},"vehicle_type_id":"4","last_reported":1745233677,"current_range_meters":22000,"station_id":"ce4bhp12rcd13ifvqh9g","pricing_plan_id":"cebpf4jnsgd1na2vs0mg"},{"bike_id":"aa578386-b3c9-4b0f-921f-60d661cbe893","system_id":"levelo_inurba_marseille","lat":43.21205,"lon":5.35071,"is_reserved":false,"is_disabled":false,"rental_uris":{"android":"levelo://app?vid=aa578386-b3c9-4b0f-921f-60d661cbe893","ios":"levelo://app?vid=aa578386-b3c9-4b0f-921f-60d661cbe893"},"vehicle_type_id":"4","last_reported":1745233677,"current_range_meters":22000,"station_id":"st_cvj6sg6p6f1abm77japg","pricing_plan_id":"cebpf4jnsgd1na2vs0mg"},{"bike_id":"ef588677-e937-4fb6-8359-89032b9d9c2e","system_id":"levelo_inurba_marseille","lat":43.25942,"lon":5.4087,"is_reserved":false,"is_disabled":false,"rental_uris":{"android":"levelo://app?vid=ef588677-e937-4fb6-8359-89032b9d9c2e","ios":"levelo://app?vid=ef588677-e937-4fb6-8359-89032b9d9c2e"},"vehicle_type_id":"4","last_reported":1745233677,"current_range_meters":22000,"station_id":"ce4bhm92rcd13ifvqglg","pricing_plan_id":"cebpf4jnsgd1na2vs0mg"},{"bike_id":"36d23774-007b-492c-882e-5817475a3a79","system_id":"levelo_inurba_marseille","lat":43.23155,"lon":5.43683,"is_reserved":false,"is_disabled":true,"rental_uris":{"android":"levelo://app?vid=36d23774-007b-492c-882e-5817475a3a79","ios":"levelo://app?vid=36d23774-007b-492c-882e-5817475a3a79"},"vehicle_type_id":"4","last_reported":1745233677,"current_range_meters":22000,"station_id":"ce4bhmp2rcd13ifvqgog","pricing_plan_id":"cebpf4jnsgd1na2vs0mg"},{"bike_id":"cfe6bd41-8432-45f0-8f74-c43c402f6b48","system_id":"levelo_inurba_marseille","lat":43.24166,"lon":5.36401,"is_reserved":false,"is_disabled":false,"rental_uris":{"android":"levelo://app?vid=cfe6bd41-8432-45f0-8f74-c43c402f6b48","ios":"levelo://app?vid=cfe6bd41-8432-45f0-8f74-c43c402f6b48"},"vehicle_type_id":"4","last_reported":1745233677,"current_range_meters":22000,"station_id":"cpo36qri1sfpv3e86is0","pricing_plan_id":"cebpf4jnsgd1na2vs0mg"},{"bike_id":"04c8951e-3a8b-40df-8ac4-0ebf1b70c9b4","system_id":"levelo_inurba_marseille","lat":43.24761,"lon":5.41146,"is_reserved":false,"is_disabled":false,"rental_uris":{"android":"levelo://app?vid=04c8951e-3a8b-40df-8ac4-0ebf1b70c9b4","ios":"levelo://app?vid=04c8951e-3a8b-40df-8ac4-0ebf1b70c9b4"},"vehicle_type_id":"4","last_reported":1745233677,"current_range_meters":22000,"station_id":"","pricing_plan_id":"cebpf4jnsgd1na2vs0mg"},{"bike_id":"630c0191-68ef-4387-835f-ff41d8f57f84","system_id":"levelo_inurba_marseille","lat":43.21746,"lon":5.34602,"is_reserved":false,"is_disabled":false,"rental_uris":{"android":"levelo://app?vid=630c0191-68ef-4387-835f-ff41d8f57f84","ios":"levelo://app?vid=630c0191-68ef-4387-835f-ff41d8f57f84"},"vehicle_type_id":"4","last_reported":1745233677,"current_range_meters":22400,"station_id":"st_cvj6r9ubvosntc0bgbag","pricing_plan_id":"cebpf4jnsgd1na2vs0mg"},{"bike_id":"c79de7b9-2845-4a93-99b7-e3154089fb25","system_id":"levelo_inurba_marseille","lat":43.23179,"lon":5.39985,"is_reserved":false,"is_disabled":false,"rental_uris":{"android":"levelo://app?vid=c79de7b9-2845-4a93-99b7-e3154089fb25","ios":"levelo://app?vid=c79de7b9-2845-4a93-99b7-e3154089fb25"},"vehicle_type_id":"4","last_reported":1745233677,"current_range_meters":22000,"station_id":"ce4bhn12rcd13ifvqgqg","pricing_plan_id":"cebpf4jnsgd1na2vs0mg"},{"bike_id":"01431caa-50c2-4f8e-86fd-39f7f5468ae9","system_id":"levelo_inurba_marseille","lat":43.21755,"lon":5.34603,"is_reserved":false,"is_disabled":false,"rental_uris":{"android":"levelo://app?vid=01431caa-50c2-4f8e-86fd-39f7f5468ae9","ios":"levelo://app?vid=01431caa-50c2-4f8e-86fd-39f7f5468ae9"},"vehicle_type_id":"4","last_reported":1745233677,"current_range_meters":22400,"station_id":"","pricing_plan_id":"cebpf4jnsgd1na2vs0mg"},{"bike_id":"8d538396-77bc-4761-9ac5-63ef1d407b3f","system_id":"levelo_inurba_marseille","lat":43.23057,"lon":5.35488,"is_reserved":false,"is_disabled":false,"rental_uris":{"android":"levelo://app?vid=8d538396-77bc-4761-9ac5-63ef1d407b3f","ios":"levelo://app?vid=8d538396-77bc-4761-9ac5-63ef1d407b3f"},"vehicle_type_id":"4","last_reported":1745233677,"current_range_meters":22400,"station_id":"cpo3342slgdg3j2ifvpg","pricing_plan_id":"cebpf4jnsgd1na2vs0mg"},{"bike_id":"ee4868f0-b3b2-4242-9970-c5b8a8297085","system_id":"levelo_inurba_marseille","lat":43.337444,"lon":5.374475,"is_reserved":false,"is_disabled":false,"rental_uris":{"android":"levelo://app?vid=ee4868f0-b3b2-4242-9970-c5b8a8297085","ios":"levelo://app?vid=ee4868f0-b3b2-4242-9970-c5b8a8297085"},"vehicle_type_id":"4","last_reported":1745233677,"current_range_meters":22400,"station_id":"","pricing_plan_id":"cebpf4jnsgd1na2vs0mg"},{"bike_id":"9a4ad686-4fb6-4cb6-84b8-e930f1c2e7c9","system_id":"levelo_inurba_marseille","lat":43.24167,"lon":5.36392,"is_reserved":false,"is_disabled":false,"rental_uris":{"android":"levelo://app?vid=9a4ad686-4fb6-4cb6-84b8-e930f1c2e7c9","ios":"levelo://app?vid=9a4ad686-4fb6-4cb6-84b8-e930f1c2e7c9"},"vehicle_type_id":"4","last_reported":1745233677,"current_range_meters":22400,"station_id":"cpo36qri1sfpv3e86is0","pricing_plan_id":"cebpf4jnsgd1na2vs0mg"},{"bike_id":"842df924-ea5d-463c-94a9-3c3ce450183b","system_id":"levelo_inurba_marseille","lat":43.24601,"lon":5.38053,"is_reserved":false,"is_disabled":false,"rental_uris":{"android":"levelo://app?vid=842df924-ea5d-463c-94a9-3c3ce450183b","ios":"levelo://app?vid=842df924-ea5d-463c-94a9-3c3ce450183b"},"vehicle_type_id":"4","last_reported":1745233677,"current_range_meters":22400,"station_id":"","pricing_plan_id":"cebpf4jnsgd1na2vs0mg"},{"bike_id":"72fb13b8-35f9-409c-bb3f-5d8726d2f96f","system_id":"levelo_inurba_marseille","lat":43.23084,"lon":5.35471,"is_reserved":false,"is_disabled":false,"rental_uris":{"android":"levelo://app?vid=72fb13b8-35f9-409c-bb3f-5d8726d2f96f","ios":"levelo://app?vid=72fb13b8-35f9-409c-bb3f-5d8726d2f96f"},"vehicle_type_id":"4","last_reported":1745233677,"current_range_meters":22400,"station_id":"cpo3342slgdg3j2ifvpg","pricing_plan_id":"cebpf4jnsgd1na2vs0mg"},{"bike_id":"91e77937-0391-4e59-8edf-8196451822c7","system_id":"levelo_inurba_marseille","lat":43.217519,"lon":5.34601,"is_reserved":false,"is_disabled":false,"rental_uris":{"android":"levelo://app?vid=91e77937-0391-4e59-8edf-8196451822c7","ios":"levelo://app?vid=91e77937-0391-4e59-8edf-8196451822c7"},"vehicle_type_id":"4","last_reported":1745233677,"current_range_meters":22800,"station_id":"st_cvj6r9ubvosntc0bgbag","pricing_plan_id":"cebpf4jnsgd1na2vs0mg"},{"bike_id":"a29dbf01-7588-43b8-8eaf-15da94811583","system_id":"levelo_inurba_marseille","lat":43.28421,"lon":5.34988,"is_reserved":false,"is_disabled":false,"rental_uris":{"android":"levelo://app?vid=a29dbf01-7588-43b8-8eaf-15da94811583","ios":"levelo://app?vid=a29dbf01-7588-43b8-8eaf-15da94811583"},"vehicle_type_id":"4","last_reported":1745233677,"current_range_meters":22800,"station_id":"ce4bhbh2rcd13ifvqepg","pricing_plan_id":"cebpf4jnsgd1na2vs0mg"},{"bike_id":"855a2842-6dff-4567-8eb2-be6b7cff1d08","system_id":"levelo_inurba_marseille","lat":43.21749,"lon":5.34601,"is_reserved":false,"is_disabled":false,"rental_uris":{"android":"levelo://app?vid=855a2842-6dff-4567-8eb2-be6b7cff1d08","ios":"levelo://app?vid=855a2842-6dff-4567-8eb2-be6b7cff1d08"},"vehicle_type_id":"4","last_reported":1745233677,"current_range_meters":22800,"station_id":"st_cvj6r9ubvosntc0bgbag","pricing_plan_id":"cebpf4jnsgd1na2vs0mg"},{"bike_id":"9d8d9f37-dcd0-4b42-a7d5-66f3905fd75d","system_id":"levelo_inurba_marseille","lat":43.24166,"lon":5.36393,"is_reserved":false,"is_disabled":false,"rental_uris":{"android":"levelo://app?vid=9d8d9f37-dcd0-4b42-a7d5-66f3905fd75d","ios":"levelo://app?vid=9d8d9f37-dcd0-4b42-a7d5-66f3905fd75d"},"vehicle_type_id":"4","last_reported":1745233677,"current_range_meters":22800,"station_id":"cpo36qri1sfpv3e86is0","pricing_plan_id":"cebpf4jnsgd1na2vs0mg"},{"bike_id":"30accf61-1153-474b-b5a5-d020c66e87ce","system_id":"levelo_inurba_marseille","lat":43.30412,"lon":5.41284,"is_reserved":false,"is_disabled":false,"rental_uris":{"android":"levelo://app?vid=30accf61-1153-474b-b5a5-d020c66e87ce","ios":"levelo://app?vid=30accf61-1153-474b-b5a5-d020c66e87ce"},"vehicle_type_id":"4","last_reported":1745233677,"current_range_meters":22800,"station_id":"ce4bhop2rcd13ifvqh8g","pricing_plan_id":"cebpf4jnsgd1na2vs0mg"},{"bike_id":"bd13e69a-fa4e-4201-add5-52d95e5308e0","system_id":"levelo_inurba_marseille","lat":43.24698,"lon":5.38131,"is_reserved":false,"is_disabled":false,"rental_uris":{"android":"levelo://app?vid=bd13e69a-fa4e-4201-add5-52d95e5308e0","ios":"levelo://app?vid=bd13e69a-fa4e-4201-add5-52d95e5308e0"},"vehicle_type_id":"4","last_reported":1745233677,"current_range_meters":22800,"station_id":"","pricing_plan_id":"cebpf4jnsgd1na2vs0mg"},{"bike_id":"0a22bd09-5eac-4676-afd0-9e1b91c5bb31","system_id":"levelo_inurba_marseille","lat":43.2732,"lon":5.39074,"is_reserved":false,"is_disabled":false,"rental_uris":{"android":"levelo://app?vid=0a22bd09-5eac-4676-afd0-9e1b91c5bb31","ios":"levelo://app?vid=0a22bd09-5eac-4676-afd0-9e1b91c5bb31"},"vehicle_type_id":"4","last_reported":1745233677,"current_range_meters":22800,"station_id":"ce4bhgp2rcd13ifvqfe0","pricing_plan_id":"cebpf4jnsgd1na2vs0mg"},{"bike_id":"d9f1414c-c1aa-49a6-9a1c-524096f35f17","system_id":"levelo_inurba_marseille","lat":43.23168,"lon":5.43679,"is_reserved":false,"is_disabled":false,"rental_uris":{"android":"levelo://app?vid=d9f1414c-c1aa-49a6-9a1c-524096f35f17","ios":"levelo://app?vid=d9f1414c-c1aa-49a6-9a1c-524096f35f17"},"vehicle_type_id":"4","last_reported":1745233677,"current_range_meters":22800,"station_id":"ce4bhmp2rcd13ifvqgog","pricing_plan_id":"cebpf4jnsgd1na2vs0mg"},{"bike_id":"7c5363c1-7ea6-443b-9a61-5fa660662bc0","system_id":"levelo_inurba_marseille","lat":43.23968,"lon":5.36656,"is_reserved":false,"is_disabled":false,"rental_uris":{"android":"levelo://app?vid=7c5363c1-7ea6-443b-9a61-5fa660662bc0","ios":"levelo://app?vid=7c5363c1-7ea6-443b-9a61-5fa660662bc0"},"vehicle_type_id":"4","last_reported":1745233677,"current_range_meters":22800,"station_id":"ce4bhi12rcd13ifvqfp0","pricing_plan_id":"cebpf4jnsgd1na2vs0mg"},{"bike_id":"fd17e20a-aff8-4d80-a102-1d589289c851","system_id":"levelo_inurba_marseille","lat":43.32114,"lon":5.36801,"is_reserved":false,"is_disabled":false,"rental_uris":{"android":"levelo://app?vid=fd17e20a-aff8-4d80-a102-1d589289c851","ios":"levelo://app?vid=fd17e20a-aff8-4d80-a102-1d589289c851"},"vehicle_type_id":"4","last_reported":1745233677,"current_range_meters":23200,"station_id":"ce4bhrh2rcd13ifvqhug","pricing_plan_id":"cebpf4jnsgd1na2vs0mg"},{"bike_id":"cf8523d1-f484-4a14-b596-37e4390077ef","system_id":"levelo_inurba_marseille","lat":43.23959,"lon":5.36651,"is_reserved":false,"is_disabled":false,"rental_uris":{"android":"levelo://app?vid=cf8523d1-f484-4a14-b596-37e4390077ef","ios":"levelo://app?vid=cf8523d1-f484-4a14-b596-37e4390077ef"},"vehicle_type_id":"4","last_reported":1745233677,"current_range_meters":23200,"station_id":"ce4bhi12rcd13ifvqfp0","pricing_plan_id":"cebpf4jnsgd1na2vs0mg"},{"bike_id":"3ef191c0-7ece-452a-a12b-85e084b28283","system_id":"levelo_inurba_marseille","lat":43.2984,"lon":5.36264,"is_reserved":false,"is_disabled":false,"rental_uris":{"android":"levelo://app?vid=3ef191c0-7ece-452a-a12b-85e084b28283","ios":"levelo://app?vid=3ef191c0-7ece-452a-a12b-85e084b28283"},"vehicle_type_id":"4","last_reported":1745233677,"current_range_meters":23200,"station_id":"ce4bgpp2rcd13ifvqc3g","pricing_plan_id":"cebpf4jnsgd1na2vs0mg"},{"bike_id":"75446f05-1550-4d03-885a-1d6655f946a6","system_id":"levelo_inurba_marseille","lat":43.299632,"lon":5.371686,"is_reserved":false,"is_disabled":false,"rental_uris":{"android":"levelo://app?vid=75446f05-1550-4d03-885a-1d6655f946a6","ios":"levelo://app?vid=75446f05-1550-4d03-885a-1d6655f946a6"},"vehicle_type_id":"4","last_reported":1745233677,"current_range_meters":23200,"station_id":"ce4bhgh2rcd13ifvqfb0","pricing_plan_id":"cebpf4jnsgd1na2vs0mg"},{"bike_id":"179d147f-60b8-4e90-ba0a-61c53f88dfdb","system_id":"levelo_inurba_marseille","lat":43.24804,"lon":5.37452,"is_reserved":false,"is_disabled":false,"rental_uris":{"android":"levelo://app?vid=179d147f-60b8-4e90-ba0a-61c53f88dfdb","ios":"levelo://app?vid=179d147f-60b8-4e90-ba0a-61c53f88dfdb"},