{"last_updated":1702821956,"ttl":30,"version":"2.2","data":{"bikes":[{"bike_id":"fcb16ad4-3037-4d61-a7e4-f1dfe19d8183","system_id":"levelo_inurba_marseille","lat":43.309039,"lon":5.371797,"is_reserved":false,"is_disabled":false,"rental_uris":{"android":"levelo://app?vid=fcb16ad4-3037-4d61-a7e4-f1dfe19d8183","ios":"levelo://app?vid=fcb16ad4-3037-4d61-a7e4-f1dfe19d8183"},"vehicle_type_id":"4","last_reported":1702821956,"current_range_meters":12800,"station_id":"ce4bguh2rcd13ifvqckg","pricing_plan_id":"free"},{"bike_id":"e7715dbc-ad54-4c11-a25f-b999e23b2f67","system_id":"levelo_inurba_marseille","lat":43.305447,"lon":5.365423,"is_reserved":false,"is_disabled":false,"rental_uris":{"android":"levelo://app?vid=e7715dbc-ad54-4c11-a25f-b999e23b2f67","ios":"levelo://app?vid=e7715dbc-ad54-4c11-a25f-b999e23b2f67"},"vehicle_type_id":"4","last_reported":1702821956,"current_range_meters":18800,"station_id":"ce4bgs12rcd13ifvqcag","pricing_plan_id":"free"},{"bike_id":"838cd4c1-62bb-46a0-938d-2142b9c6c5ab","system_id":"levelo_inurba_marseille","lat":43.305706,"lon":5.365654,"is_reserved":false,"is_disabled":false,"rental_uris":{"android":"levelo://app?vid=838cd4c1-62bb-46a0-938d-2142b9c6c5ab","ios":"levelo://app?vid=838cd4c1-62bb-46a0-938d-2142b9c6c5ab"},"vehicle_type_id":"4","last_reported":1702821956,"current_range_meters":18800,"station_id":"ce4bgs12rcd13ifvqcag","pricing_plan_id":"free"},{"bike_id":"9ceb293f-a109-4932-9155-33628cc9f2da","system_id":"levelo_inurba_marseille","lat":43.305706,"lon":5.365654,"is_reserved":false,"is_disabled":false,"rental_uris":{"android":"levelo://app?vid=9ceb293f-a109-4932-9155-33628cc9f2da","ios":"levelo://app?vid=9ceb293f-a109-4932-9155-33628cc9f2da"},"vehicle_type_id":"4","last_reported":1702821956,"current_range_meters":17600,"station_id":"ce4bgs12rcd13ifvqcag","pricing_plan_id":"free"},{"bike_id":"5a431e56-3b8e-407a-ac26-08cdbfeeb5c5","system_id":"levelo_inurba_marseille","lat":43.305368,"lon":5.367343,"is_reserved":false,"is_disabled":false,"rental_uris":{"android":"levelo://app?vid=5a431e56-3b8e-407a-ac26-08cdbfeeb5c5","ios":"levelo://app?vid=5a431e56-3b8e-407a-ac26-08cdbfeeb5c5"},"vehicle_type_id":"4","last_reported":1702821956,"current_range_meters":8000,"station_id":"ce4bgrp2rcd13ifvqc9g","pricing_plan_id":"free"},{"bike_id":"daee9b48-5354-4086-b6e4-c14c79a269e8","system_id":"levelo_inurba_marseille","lat":43.305706,"lon":5.365654,"is_reserved":false,"is_disabled":false,"rental_uris":{"android":"levelo://app?vid=daee9b48-5354-4086-b6e4-c14c79a269e8","ios":"levelo://app?vid=daee9b48-5354-4086-b6e4-c14c79a269e8"},"vehicle_type_id":"4","last_reported":1702821956,"current_range_meters":2800,"station_id":"ce4bgs12rcd13ifvqcag","pricing_plan_id":"free"},{"bike_id":"880434cc-f547-466d-83ed-46c29a8b0494","system_id":"levelo_inurba_marseille","lat":43.305706,"lon":5.365654,"is_reserved":false,"is_disabled":false,"rental_uris":{"android":"levelo://app?vid=880434cc-f547-466d-83ed-46c29a8b0494","ios":"levelo://app?vid=880434cc-f547-466d-83ed-46c29a8b0494"},"vehicle_type_id":"4","last_reported":1702821956,"current_range_meters":24400,"station_id":"ce4bgs12rcd13ifvqcag","pricing_plan_id":"free"},{"bike_id":"955e4ab2-16e5-44e8-a986-a2f50ff96c06","system_id":"levelo_inurba_marseille","lat":43.305382,"lon":5.365389,"is_reserved":false,"is_disabled":false,"rental_uris":{"android":"levelo://app?vid=955e4ab2-16e5-44e8-a986-a2f50ff96c06","ios":"levelo://app?vid=955e4ab2-16e5-44e8-a986-a2f50ff96c06"},"vehicle_type_id":"4","last_reported":1702821956,"current_range_meters":11600,"station_id":"","pricing_plan_id":"free"},{"bike_id":"f2dc595a-1f75-4a40-aa84-2e51a993fc3b","system_id":"levelo_inurba_marseille","lat":43.305989,"lon":5.37225,"is_reserved":false,"is_disabled":false,"rental_uris":{"android":"levelo://app?vid=f2dc595a-1f75-4a40-aa84-2e51a993fc3b","ios":"levelo://app?vid=f2dc595a-1f75-4a40-aa84-2e51a993fc3b"},"vehicle_type_id":"4","last_reported":1702821956,"current_range_meters":24400,"station_id":"ce4bgqh2rcd13ifvqc4g","pricing_plan_id":"free"},{"bike_id":"ea75267f-f62f-4305-ac08-1a62c42d5718","system_id":"levelo_inurba_marseille","lat":43.317075,"lon":5.377367,"is_reserved":false,"is_disabled":false,"rental_uris":{"android":"levelo://app?vid=ea75267f-f62f-4305-ac08-1a62c42d5718","ios":"levelo://app?vid=ea75267f-f62f-4305-ac08-1a62c42d5718"},"vehicle_type_id":"4","last_reported":1702821956,"current_range_meters":22800,"station_id":"ce4bgth2rcd13ifvqch0","pricing_plan_id":"free"},{"bike_id":"360a4314-3695-4145-964d-47d5df65b28d","system_id":"levelo_inurba_marseille","lat":43.317075,"lon":5.377367,"is_reserved":false,"is_disabled":false,"rental_uris":{"android":"levelo://app?vid=360a4314-3695-4145-964d-47d5df65b28d","ios":"levelo://app?vid=360a4314-3695-4145-964d-47d5df65b28d"},"vehicle_type_id":"4","last_reported":1702821956,"current_range_meters":24400,"station_id":"ce4bgth2rcd13ifvqch0","pricing_plan_id":"free"},{"bike_id":"03959a64-6e55-43a5-be31-474b23834e58","system_id":"levelo_inurba_marseille","lat":43.303046,"lon":5.368981,"is_reserved":false,"is_disabled":false,"rental_uris":{"android":"levelo://app?vid=03959a64-6e55-43a5-be31-474b23834e58","ios":"levelo://app?vid=03959a64-6e55-43a5-be31-474b23834e58"},"vehicle_type_id":"4","last_reported":1702821956,"current_range_meters":27600,"station_id":"ce4bgqh2rcd13ifvqc5g","pricing_plan_id":"free"},{"bike_id":"dc6f3cd8-6224-4e95-be4c-4a6cd60ea005","system_id":"levelo_inurba_marseille","lat":43.308012,"lon":5.381511,"is_reserved":false,"is_disabled":false,"rental_uris":{"android":"levelo://app?vid=dc6f3cd8-6224-4e95-be4c-4a6cd60ea005","ios":"levelo://app?vid=dc6f3cd8-6224-4e95-be4c-4a6cd60ea005"},"vehicle_type_id":"4","last_reported":1702821956,"current_range_meters":8800,"station_id":"ce4bgt12rcd13ifvqce0","pricing_plan_id":"free"},{"bike_id":"ca4f7b5e-bfdb-445b-a211-9af6154ae793","system_id":"levelo_inurba_marseille","lat":43.308021,"lon":5.381452,"is_reserved":false,"is_disabled":false,"rental_uris":{"android":"levelo://app?vid=ca4f7b5e-bfdb-445b-a211-9af6154ae793","ios":"levelo://app?vid=ca4f7b5e-bfdb-445b-a211-9af6154ae793"},"vehicle_type_id":"4","last_reported":1702821956,"current_range_meters":19200,"station_id":"ce4bgt12rcd13ifvqce0","pricing_plan_id":"free"},{"bike_id":"88f7ea2a-62f7-4a88-9e9d-900940b4d7e5","system_id":"levelo_inurba_marseille","lat":43.324771,"lon":5.36557,"is_reserved":false,"is_disabled":false,"rental_uris":{"android":"levelo://app?vid=88f7ea2a-62f7-4a88-9e9d-900940b4d7e5","ios":"levelo://app?vid=88f7ea2a-62f7-4a88-9e9d-900940b4d7e5"},"vehicle_type_id":"4","last_reported":1702821956,"current_range_meters":28800,"station_id":"ce4bhs12rcd13ifvqhvg","pricing_plan_id":"free"},{"bike_id":"afb8cea1-e69f-4083-a258-425318c0346e","system_id":"levelo_inurba_marseille","lat":43.313571,"lon":5.384829,"is_reserved":false,"is_disabled":false,"rental_uris":{"android":"levelo://app?vid=afb8cea1-e69f-4083-a258-425318c0346e","ios":"levelo://app?vid=afb8cea1-e69f-4083-a258-425318c0346e"},"vehicle_type_id":"4","last_reported":1702821956,"current_range_meters":23200,"station_id":"ce4bgt92rcd13ifvqcf0","pricing_plan_id":"free"},{"bike_id":"636d71a5-61a7-4c52-875a-e60ed08cda37","system_id":"levelo_inurba_marseille","lat":43.299724,"lon":5.371829,"is_reserved":false,"is_disabled":false,"rental_uris":{"android":"levelo://app?vid=636d71a5-61a7-4c52-875a-e60ed08cda37","ios":"levelo://app?vid=636d71a5-61a7-4c52-875a-e60ed08cda37"},"vehicle_type_id":"4","last_reported":1702821956,"current_range_meters":21200,"station_id":"ce4bgr92rcd13ifvqc7g","pricing_plan_id":"free"},{"bike_id":"f6b39348-9601-48ed-8fde-9a57ad4b1f75","system_id":"levelo_inurba_marseille","lat":43.29855,"lon":5.36288,"is_reserved":false,"is_disabled":false,"rental_uris":{"android":"levelo://app?vid=f6b39348-9601-48ed-8fde-9a57ad4b1f75","ios":"levelo://app?vid=f6b39348-9601-48ed-8fde-9a57ad4b1f75"},"vehicle_type_id":"4","last_reported":1702821956,"current_range_meters":28400,"station_id":"ce4bgpp2rcd13ifvqc3g","pricing_plan_id":"free"},{"bike_id":"c4e77394-aef9-4077-b745-e99148625344","system_id":"levelo_inurba_marseille","lat":43.32733,"lon":5.36707,"is_reserved":false,"is_disabled":false,"rental_uris":{"android":"levelo://app?vid=c4e77394-aef9-4077-b745-e99148625344","ios":"levelo://app?vid=c4e77394-aef9-4077-b745-e99148625344"},"vehicle_type_id":"4","last_reported":1702821956,"current_range_meters":18800,"station_id":"","pricing_plan_id":"free"},{"bike_id":"819cb438-2e9c-4e0b-902b-5e19ef554d5c","system_id":"levelo_inurba_marseille","lat":43.30552,"lon":5.384368,"is_reserved":false,"is_disabled":false,"rental_uris":{"android":"levelo://app?vid=819cb438-2e9c-4e0b-902b-5e19ef554d5c","ios":"levelo://app?vid=819cb438-2e9c-4e0b-902b-5e19ef554d5c"},"vehicle_type_id":"4","last_reported":1702821956,"current_range_meters":11600,"station_id":"ce4bgg92rcd13ifvqb30","pricing_plan_id":"free"},{"bike_id":"d1ee5763-071e-4698-b74f-cdedcff8420b","system_id":"levelo_inurba_marseille","lat":43.298433,"lon":5.362774,"is_reserved":false,"is_disabled":false,"rental_uris":{"android":"levelo://app?vid=d1ee5763-071e-4698-b74f-cdedcff8420b","ios":"levelo://app?vid=d1ee5763-071e-4698-b74f-cdedcff8420b"},"vehicle_type_id":"4","last_reported":1702821956,"current_range_meters":23200,"station_id":"ce4bgpp2rcd13ifvqc3g","pricing_plan_id":"free"},{"bike_id":"f0d4e4d4-81f4-450d-a34e-bd1612497eb8","system_id":"levelo_inurba_marseille","lat":43.299243,"lon":5.374807,"is_reserved":false,"is_disabled":false,"rental_uris":{"android":"levelo://app?vid=f0d4e4d4-81f4-450d-a34e-bd1612497eb8","ios":"levelo://app?vid=f0d4e4d4-81f4-450d-a34e-bd1612497eb8"},"vehicle_type_id":"4","last_reported":1702821956,"current_range_meters":31600,"station_id":"ce4bgjh2rcd13ifvqbg0","pricing_plan_id":"free"},{"bike_id":"d552ebbe-3535-4233-b783-27841fdde344","system_id":"levelo_inurba_marseille","lat":43.32823,"lon":5.3667,"is_reserved":false,"is_disabled":false,"rental_uris":{"android":"levelo://app?vid=d552ebbe-3535-4233-b783-27841fdde344","ios":"levelo://app?vid=d552ebbe-3535-4233-b783-27841fdde344"},"vehicle_type_id":"4","last_reported":1702821956,"current_range_meters":30800,"station_id":"ce4bhs92rcd13ifvqi0g","pricing_plan_id":"free"},{"bike_id":"f23a2580-db37-4275-b92e-1ed5c0a4ece4","system_id":"levelo_inurba_marseille","lat":43.3283,"lon":5.36691,"is_reserved":false,"is_disabled":false,"rental_uris":{"android":"levelo://app?vid=f23a2580-db37-4275-b92e-1ed5c0a4ece4","ios":"levelo://app?vid=f23a2580-db37-4275-b92e-1ed5c0a4ece4"},"vehicle_type_id":"4","last_reported":1702821956,"current_range_meters":14400,"station_id":"ce4bhs92rcd13ifvqi0g","pricing_plan_id":"free"},{"bike_id":"08e02540-3019-418b-90b3-d89ab75b1549","system_id":"levelo_inurba_marseille","lat":43.29573,"lon":5.367355,"is_reserved":false,"is_disabled":false,"rental_uris":{"android":"levelo://app?vid=08e02540-3019-418b-90b3-d89ab75b1549","ios":"levelo://app?vid=08e02540-3019-418b-90b3-d89ab75b1549"},"vehicle_type_id":"4","last_reported":1702821956,"current_range_meters":22000,"station_id":"ce4bgph2rcd13ifvqc2g","pricing_plan_id":"free"},{"bike_id":"39b7058a-a86e-45e9-986c-763dc80ea3ff","system_id":"levelo_inurba_marseille","lat":43.29573,"lon":5.367355,"is_reserved":false,"is_disabled":false,"rental_uris":{"android":"levelo://app?vid=39b7058a-a86e-45e9-986c-763dc80ea3ff","ios":"levelo://app?vid=39b7058a-a86e-45e9-986c-763dc80ea3ff"},"vehicle_type_id":"4","last_reported":1702821956,"current_range_meters":14800,"station_id":"ce4bgph2rcd13ifvqc2g","pricing_plan_id":"free"},{"bike_id":"256b7bbe-eccc-42c8-97e9-6405868f6a3c","system_id":"levelo_inurba_marseille","lat":43.309589,"lon":5.390258,"is_reserved":false,"is_disabled":false,"rental_uris":{"android":"levelo://app?vid=256b7bbe-eccc-42c8-97e9-6405868f6a3c","ios":"levelo://app?vid=256b7bbe-eccc-42c8-97e9-6405868f6a3c"},"vehicle_type_id":"4","last_reported":1702821956,"current_range_meters":8800,"station_id":"ce4bgup2rcd13ifvqco0","pricing_plan_id":"free"},{"bike_id":"fbd6ea71-825d-482d-9992-e720a56f3b32","system_id":"levelo_inurba_marseille","lat":43.317557,"lon":5.390173,"is_reserved":false,"is_disabled":false,"rental_uris":{"android":"levelo://app?vid=fbd6ea71-825d-482d-9992-e720a56f3b32","ios":"levelo://app?vid=fbd6ea71-825d-482d-9992-e720a56f3b32"},"vehicle_type_id":"4","last_reported":1702821956,"current_range_meters":29600,"station_id":"ce4bhqp2rcd13ifvqhng","pricing_plan_id":"free"},{"bike_id":"49e9e5d9-27ea-4699-a8cd-4e6b803e255e","system_id":"levelo_inurba_marseille","lat":43.2981,"lon":5.38097,"is_reserved":false,"is_disabled":false,"rental_uris":{"android":"levelo://app?vid=49e9e5d9-27ea-4699-a8cd-4e6b803e255e","ios":"levelo://app?vid=49e9e5d9-27ea-4699-a8cd-4e6b803e255e"},"vehicle_type_id":"4","last_reported":1702821956,"current_range_meters":5600,"station_id":"ce4bgip2rcd13ifvqbb0","pricing_plan_id":"free"},{"bike_id":"378e8289-33f8-49b4-bd9b-1152c9f2d6c9","system_id":"levelo_inurba_marseille","lat":43.295748,"lon":5.37522,"is_reserved":false,"is_disabled":false,"rental_uris":{"android":"levelo://app?vid=378e8289-33f8-49b4-bd9b-1152c9f2d6c9","ios":"levelo://app?vid=378e8289-33f8-49b4-bd9b-1152c9f2d6c9"},"vehicle_type_id":"4","last_reported":1702821956,"current_range_meters":0,"station_id":"ce4bgh92rcd13ifvqb50","pricing_plan_id":"free"},{"bike_id":"42f313aa-e914-4fe0-aca2-f4043f402650","system_id":"levelo_inurba_marseille","lat":43.2979,"lon":5.38123,"is_reserved":false,"is_disabled":false,"rental_uris":{"android":"levelo://app?vid=42f313aa-e914-4fe0-aca2-f4043f402650","ios":"levelo://app?vid=42f313aa-e914-4fe0-aca2-f4043f402650"},"vehicle_type_id":"4","last_reported":1702821956,"current_range_meters":3200,"station_id":"","pricing_plan_id":"free"},{"bike_id":"da2bf830-8371-4987-8296-d78e324a9b5b","system_id":"levelo_inurba_marseille","lat":43.296537,"lon":5.379543,"is_reserved":false,"is_disabled":false,"rental_uris":{"android":"levelo://app?vid=da2bf830-8371-4987-8296-d78e324a9b5b","ios":"levelo://app?vid=da2bf830-8371-4987-8296-d78e324a9b5b"},"vehicle_type_id":"4","last_reported":1702821956,"current_range_meters":0,"station_id":"","pricing_plan_id":"free"},{"bike_id":"1a46d9ef-c184-4963-9815-3045ff57aa7a","system_id":"levelo_inurba_marseille","lat":43.33103,"lon":5.37476,"is_reserved":false,"is_disabled":false,"rental_uris":{"android":"levelo://app?vid=1a46d9ef-c184-4963-9815-3045ff57aa7a","ios":"levelo://app?vid=1a46d9ef-c184-4963-9815-3045ff57aa7a"},"vehicle_type_id":"4","last_reported":1702821956,"current_range_meters":30400,"station_id":"","pricing_plan_id":"free"},{"bike_id":"7ff21894-2f32-4658-85e2-91c4f4d495d4","system_id":"levelo_inurba_marseille","lat":43.32363,"lon":5.3888,"is_reserved":false,"is_disabled":false,"rental_uris":{"android":"levelo://app?vid=7ff21894-2f32-4658-85e2-91c4f4d495d4","ios":"levelo://app?vid=7ff21894-2f32-4658-85e2-91c4f4d495d4"},"vehicle_type_id":"4","last_reported":1702821956,"current_range_meters":30800,"station_id":"ce4bhqp2rcd13ifvqhog","pricing_plan_id":"free"},{"bike_id":"8ccc904f-1ea3-40ed-bc35-9fef3b397272","system_id":"levelo_inurba_marseille","lat":43.292749,"lon":5.368402,"is_reserved":false,"is_disabled":false,"rental_uris":{"android":"levelo://app?vid=8ccc904f-1ea3-40ed-bc35-9fef3b397272","ios":"levelo://app?vid=8ccc904f-1ea3-40ed-bc35-9fef3b397272"},"vehicle_type_id":"4","last_reported":1702821956,"current_range_meters":4400,"station_id":"ce4bhbp2rcd13ifvqesg","pricing_plan_id":"free"},{"bike_id":"867e95d0-2e2c-4f07-8d4c-351ecb97f51c","system_id":"levelo_inurba_marseille","lat":43.292749,"lon":5.368398,"is_reserved":false,"is_disabled":false,"rental_uris":{"android":"levelo://app?vid=867e95d0-2e2c-4f07-8d4c-351ecb97f51c","ios":"levelo://app?vid=867e95d0-2e2c-4f07-8d4c-351ecb97f51c"},"vehicle_type_id":"4","last_reported":1702821956,"current_range_meters":11200,"station_id":"ce4bhbp2rcd13ifvqesg","pricing_plan_id":"free"},{"bike_id":"5120b34e-3dab-4cf3-bb72-f2cabb886eeb","system_id":"levelo_inurba_marseille","lat":43.33193,"lon":5.37467,"is_reserved":false,"is_disabled":false,"rental_uris":{"android":"levelo://app?vid=5120b34e-3dab-4cf3-bb72-f2cabb886eeb","ios":"levelo://app?vid=5120b34e-3dab-4cf3-bb72-f2cabb886eeb"},"vehicle_type_id":"4","last_reported":1702821956,"current_range_meters":29200,"station_id":"","pricing_plan_id":"free"},{"bike_id":"0110dfb9-e503-4bd1-9886-184ec67e0b97","system_id":"levelo_inurba_marseille","lat":43.305994,"lon":5.393687,"is_reserved":false,"is_disabled":false,"rental_uris":{"android":"levelo://app?vid=0110dfb9-e503-4bd1-9886-184ec67e0b97","ios":"levelo://app?vid=0110dfb9-e503-4bd1-9886-184ec67e0b97"},"vehicle_type_id":"4","last_reported":1702821956,"current_range_meters":0,"station_id":"ce4bh0p2rcd13ifvqd80","pricing_plan_id":"free"},{"bike_id":"e5882d6e-6a91-4e99-b87b-5679e92a2279","system_id":"levelo_inurba_marseille","lat":43.29356,"lon":5.37845,"is_reserved":false,"is_disabled":false,"rental_uris":{"android":"levelo://app?vid=e5882d6e-6a91-4e99-b87b-5679e92a2279","ios":"levelo://app?vid=e5882d6e-6a91-4e99-b87b-5679e92a2279"},"vehicle_type_id":"4","last_reported":1702821956,"current_range_meters":0,"station_id":"ce4bgjh2rcd13ifvqbf0","pricing_plan_id":"free"},{"bike_id":"f331f1c3-681a-4d5e-9beb-8511010a1b8c","system_id":"levelo_inurba_marseille","lat":43.293681,"lon":5.379034,"is_reserved":false,"is_disabled":false,"rental_uris":{"android":"levelo://app?vid=f331f1c3-681a-4d5e-9beb-8511010a1b8c","ios":"levelo://app?vid=f331f1c3-681a-4d5e-9beb-8511010a1b8c"},"vehicle_type_id":"4","last_reported":1702821956,"current_range_meters":22000,"station_id":"","pricing_plan_id":"free"},{"bike_id":"23fad901-a37b-4c22-9226-8a9c4b0ae7c4","system_id":"levelo_inurba_marseille","lat":43.291671,"lon":5.371575,"is_reserved":false,"is_disabled":false,"rental_uris":{"android":"levelo://app?vid=23fad901-a37b-4c22-9226-8a9c4b0ae7c4","ios":"levelo://app?vid=23fad901-a37b-4c22-9226-8a9c4b0ae7c4"},"vehicle_type_id":"4","last_reported":1702821956,"current_range_meters":12800,"station_id":"ce4bha92rcd13ifvqeh0","pricing_plan_id":"free"},{"bike_id":"f987e058-ea9b-4827-a0cf-e9075c7a7205","system_id":"levelo_inurba_marseille","lat":43.319179,"lon":5.407725,"is_reserved":false,"is_disabled":false,"rental_uris":{"android":"levelo://app?vid=f987e058-ea9b-4827-a0cf-e9075c7a7205","ios":"levelo://app?vid=f987e058-ea9b-4827-a0cf-e9075c7a7205"},"vehicle_type_id":"4","last_reported":1702821956,"current_range_meters":19200,"station_id":"ce4bhq12rcd13ifvqhig","pricing_plan_id":"free"},{"bike_id":"ed5937fa-ddce-4604-8f77-d882cf378eef","system_id":"levelo_inurba_marseille","lat":43.309038,"lon":5.396546,"is_reserved":false,"is_disabled":false,"rental_uris":{"android":"levelo://app?vid=ed5937fa-ddce-4604-8f77-d882cf378eef","ios":"levelo://app?vid=ed5937fa-ddce-4604-8f77-d882cf378eef"},"vehicle_type_id":"4","last_reported":1702821956,"current_range_meters":18000,"station_id":"ce4bh012rcd13ifvqcv0","pricing_plan_id":"free"},{"bike_id":"eb0ac6c5-a3c7-40c2-8da8-b02d6621e509","system_id":"levelo_inurba_marseille","lat":43.29529,"lon":5.385581,"is_reserved":false,"is_disabled":false,"rental_uris":{"android":"levelo://app?vid=eb0ac6c5-a3c7-40c2-8da8-b02d6621e509","ios":"levelo://app?vid=eb0ac6c5-a3c7-40c2-8da8-b02d6621e509"},"vehicle_type_id":"4","last_reported":1702821956,"current_range_meters":25200,"station_id":"ce4bgih2rcd13ifvqba0","pricing_plan_id":"free"},{"bike_id":"6207d1a8-0af9-4431-968c-938ddeb39887","system_id":"levelo_inurba_marseille","lat":43.29529,"lon":5.385581,"is_reserved":false,"is_disabled":false,"rental_uris":{"android":"levelo://app?vid=6207d1a8-0af9-4431-968c-938ddeb39887","ios":"levelo://app?vid=6207d1a8-0af9-4431-968c-938ddeb39887"},"vehicle_type_id":"4","last_reported":1702821956,"current_range_meters":0,"station_id":"ce4bgih2rcd13ifvqba0","pricing_plan_id":"free"},{"bike_id":"5c2c999f-f069-462a-bb0c-921115aced43","system_id":"levelo_inurba_marseille","lat":43.290779,"lon":5.371482,"is_reserved":false,"is_disabled":false,"rental_uris":{"android":"levelo://app?vid=5c2c999f-f069-462a-bb0c-921115aced43","ios":"levelo://app?vid=5c2c999f-f069-462a-bb0c-921115aced43"},"vehicle_type_id":"4","last_reported":1702821956,"current_range_meters":17200,"station_id":"ce4bh5p2rcd13ifvqe4g","pricing_plan_id":"free"},{"bike_id":"43da21aa-5145-4290-aa8f-378065139ca7","system_id":"levelo_inurba_marseille","lat":43.290327,"lon":5.375711,"is_reserved":false,"is_disabled":false,"rental_uris":{"android":"levelo://app?vid=43da21aa-5145-4290-aa8f-378065139ca7","ios":"levelo://app?vid=43da21aa-5145-4290-aa8f-378065139ca7"},"vehicle_type_id":"4","last_reported":1702821956,"current_range_meters":28000,"station_id":"ce4bh692rcd13ifvqe90","pricing_plan_id":"free"},{"bike_id":"fc748fd4-092b-4814-bddf-7852663c663a","system_id":"levelo_inurba_marseille","lat":43.294162,"lon":5.386292,"is_reserved":false,"is_disabled":false,"rental_uris":{"android":"levelo://app?vid=fc748fd4-092b-4814-bddf-7852663c663a","ios":"levelo://app?vid=fc748fd4-092b-4814-bddf-7852663c663a"},"vehicle_type_id":"4","last_reported":1702821956,"current_range_meters":12800,"station_id":"ce4bh2h2rcd13ifvqdh0","pricing_plan_id":"free"},{"bike_id":"c18ec9d0-add8-4749-8e7d-908cfff0cd89","system_id":"levelo_inurba_marseille","lat":43.289413,"lon":5.363837,"is_reserved":false,"is_disabled":false,"rental_uris":{"android":"levelo://app?vid=c18ec9d0-add8-4749-8e7d-908cfff0cd89","ios":"levelo://app?vid=c18ec9d0-add8-4749-8e7d-908cfff0cd89"},"vehicle_type_id":"4","last_reported":1702821956,"current_range_meters":30000,"station_id":"ce4bhc92rcd13ifvqetg","pricing_plan_id":"free"},{"bike_id":"20ce1861-3b17-4911-a7c2-f8494c54b4d0","system_id":"levelo_inurba_marseille","lat":43.292642,"lon":5.384254,"is_reserved":false,"is_disabled":false,"rental_uris":{"android":"levelo://app?vid=20ce1861-3b17-4911-a7c2-f8494c54b4d0","ios":"levelo://app?vid=20ce1861-3b17-4911-a7c2-f8494c54b4d0"},"vehicle_type_id":"4","last_reported":1702821956,"current_range_meters":10800,"station_id":"ce4bh692rcd13ifvqea0","pricing_plan_id":"free"},{"bike_id":"94f82a4e-dbb1-42c9-b737-39bafcc0086e","system_id":"levelo_inurba_marseille","lat":43.292644,"lon":5.384257,"is_reserved":false,"is_disabled":false,"rental_uris":{"android":"levelo://app?vid=94f82a4e-dbb1-42c9-b737-39bafcc0086e","ios":"levelo://app?vid=94f82a4e-dbb1-42c9-b737-39bafcc0086e"},"vehicle_type_id":"4","last_reported":1702821956,"current_range_meters":30000,"station_id":"ce4bh692rcd13ifvqea0","pricing_plan_id":"free"},{"bike_id":"a7e2187b-efbe-4c54-bbf2-0d9d9de30506","system_id":"levelo_inurba_marseille","lat":43.33038,"lon":5.38923,"is_reserved":false,"is_disabled":false,"rental_uris":{"android":"levelo://app?vid=a7e2187b-efbe-4c54-bbf2-0d9d9de30506","ios":"levelo://app?vid=a7e2187b-efbe-4c54-bbf2-0d9d9de30506"},"vehicle_type_id":"4","last_reported":1702821956,"current_range_meters":16400,"station_id":"ce4bhr92rcd13ifvqhrg","pricing_plan_id":"free"},{"bike_id":"fb93a28a-3e1d-42ac-bf3f-50dd75ef180a","system_id":"levelo_inurba_marseille","lat":43.29007,"lon":5.3562,"is_reserved":false,"is_disabled":false,"rental_uris":{"android":"levelo://app?vid=fb93a28a-3e1d-42ac-bf3f-50dd75ef180a","ios":"levelo://app?vid=fb93a28a-3e1d-42ac-bf3f-50dd75ef180a"},"vehicle_type_id":"4","last_reported":1702821956,"current_range_meters":0,"station_id":"ce4bhb92rcd13ifvqen0","pricing_plan_id":"free"},{"bike_id":"032c6aed-6fd4-4b47-aede-7e4c6b393ba7","system_id":"levelo_inurba_marseille","lat":43.33042,"lon":5.38922,"is_reserved":false,"is_disabled":false,"rental_uris":{"android":"levelo://app?vid=032c6aed-6fd4-4b47-aede-7e4c6b393ba7","ios":"levelo://app?vid=032c6aed-6fd4-4b47-aede-7e4c6b393ba7"},"vehicle_type_id":"4","last_reported":1702821956,"current_range_meters":28000,"station_id":"","pricing_plan_id":"free"},{"bike_id":"ad0f6538-ba65-40b7-bd35-329a98101cc1","system_id":"levelo_inurba_marseille","lat":43.29014,"lon":5.35521,"is_reserved":false,"is_disabled":false,"rental_uris":{"android":"levelo://app?vid=ad0f6538-ba65-40b7-bd35-329a98101cc1","ios":"levelo://app?vid=ad0f6538-ba65-40b7-bd35-329a98101cc1"},"vehicle_type_id":"4","last_reported":1702821956,"current_range_meters":6800,"station_id":"","pricing_plan_id":"free"},{"bike_id":"98a68525-8610-45bd-b9e7-bfd3645c5b04","system_id":"levelo_inurba_marseille","lat":43.289743,"lon":5.378304,"is_reserved":false,"is_disabled":false,"rental_uris":{"android":"levelo://app?vid=98a68525-8610-45bd-b9e7-bfd3645c5b04","ios":"levelo://app?vid=98a68525-8610-45bd-b9e7-bfd3645c5b04"},"vehicle_type_id":"4","last_reported":1702821956,"current_range_meters":25600,"station_id":"ce4bh9p2rcd13ifvqed0","pricing_plan_id":"free"},{"bike_id":"f0cd831c-cfb9-44c7-9487-103b6df223ca","system_id":"levelo_inurba_marseille","lat":43.337445,"lon":5.374592,"is_reserved":false,"is_disabled":false,"rental_uris":{"android":"levelo://app?vid=f0cd831c-cfb9-44c7-9487-103b6df223ca","ios":"levelo://app?vid=f0cd831c-cfb9-44c7-9487-103b6df223ca"},"vehicle_type_id":"4","last_reported":1702821956,"current_range_meters":25200,"station_id":"","pricing_plan_id":"free"},{"bike_id":"d1ce15a7-7b24-4f43-bcc6-324753cafb7d","system_id":"levelo_inurba_marseille","lat":43.309263,"lon":5.401457,"is_reserved":false,"is_disabled":false,"rental_uris":{"android":"levelo://app?vid=d1ce15a7-7b24-4f43-bcc6-324753cafb7d","ios":"levelo://app?vid=d1ce15a7-7b24-4f43-bcc6-324753cafb7d"},"vehicle_type_id":"4","last_reported":1702821956,"current_range_meters":10000,"station_id":"ce4bgvp2rcd13ifvqct0","pricing_plan_id":"free"},{"bike_id":"ef80ceab-dc9f-4b6c-8f52-707d5177f481","system_id":"levelo_inurba_marseille","lat":43.33752,"lon":5.37466,"is_reserved":false,"is_disabled":false,"rental_uris":{"android":"levelo://app?vid=ef80ceab-dc9f-4b6c-8f52-707d5177f481","ios":"levelo://app?vid=ef80ceab-dc9f-4b6c-8f52-707d5177f481"},"vehicle_type_id":"4","last_reported":1702821956,"current_range_meters":24800,"station_id":"","pricing_plan_id":"free"},{"bike_id":"74029e47-c92e-4a09-93e2-966e816bf173","system_id":"levelo_inurba_marseille","lat":43.33759,"lon":5.37475,"is_reserved":false,"is_disabled":false,"rental_uris":{"android":"levelo://app?vid=74029e47-c92e-4a09-93e2-966e816bf173","ios":"levelo://app?vid=74029e47-c92e-4a09-93e2-966e816bf173"},"vehicle_type_id":"4","last_reported":1702821956,"current_range_meters":28400,"station_id":"","pricing_plan_id":"free"},{"bike_id":"f6eac803-2936-4a40-9e71-858d8702670e","system_id":"levelo_inurba_marseille","lat":43.33768,"lon":5.37436,"is_reserved":false,"is_disabled":false,"rental_uris":{"android":"levelo://app?vid=f6eac803-2936-4a40-9e71-858d8702670e","ios":"levelo://app?vid=f6eac803-2936-4a40-9e71-858d8702670e"},"vehicle_type_id":"4","last_reported":1702821956,"current_range_meters":25200,"station_id":"","pricing_plan_id":"free"},{"bike_id":"59b57198-a06f-45fa-a566-e40d5cdee018","system_id":"levelo_inurba_marseille","lat":43.337703,"lon":5.37431,"is_reserved":false,"is_disabled":false,"rental_uris":{"android":"levelo://app?vid=59b57198-a06f-45fa-a566-e40d5cdee018","ios":"levelo://app?vid=59b57198-a06f-45fa-a566-e40d5cdee018"},"vehicle_type_id":"4","last_reported":1702821956,"current_range_meters":30000,"station_id":"","pricing_plan_id":"free"},{"bike_id":"c2045420-022e-4e47-a9ca-b416c1a9d12b","system_id":"levelo_inurba_marseille","lat":43.28727,"lon":5.36078,"is_reserved":false,"is_disabled":false,"rental_uris":{"android":"levelo://app?vid=c2045420-022e-4e47-a9ca-b416c1a9d12b","ios":"levelo://app?vid=c2045420-022e-4e47-a9ca-b416c1a9d12b"},"vehicle_type_id":"4","last_reported":1702821956,"current_range_meters":18400,"station_id":"cki0cbj6b192h4jlfktg","pricing_plan_id":"free"},{"bike_id":"f43251c6-3159-4bb9-b394-1d3299b1ad78","system_id":"levelo_inurba_marseille","lat":43.287184,"lon":5.37937,"is_reserved":false,"is_disabled":false,"rental_uris":{"android":"levelo://app?vid=f43251c6-3159-4bb9-b394-1d3299b1ad78","ios":"levelo://app?vid=f43251c6-3159-4bb9-b394-1d3299b1ad78"},"vehicle_type_id":"4","last_reported":1702821956,"current_range_meters":2000,"station_id":"ce4bh9p2rcd13ifvqec0","pricing_plan_id":"free"},{"bike_id":"d12b2aeb-0cfc-4cf1-a219-cc932ceb05b6","system_id":"levelo_inurba_marseille","lat":43.291994,"lon":5.392907,"is_reserved":false,"is_disabled":false,"rental_uris":{"android":"levelo://app?vid=d12b2aeb-0cfc-4cf1-a219-cc932ceb05b6","ios":"levelo://app?vid=d12b2aeb-0cfc-4cf1-a219-cc932ceb05b6"},"vehicle_type_id":"4","last_reported":1702821956,"current_range_meters":400,"station_id":"ce4bh192rcd13ifvqdd0","pricing_plan_id":"free"},{"bike_id":"ae0330f5-5ddf-4c9a-9aa3-0e5f72c63bf3","system_id":"levelo_inurba_marseille","lat":43.284538,"lon":5.358657,"is_reserved":false,"is_disabled":false,"rental_uris":{"android":"levelo://app?vid=ae0330f5-5ddf-4c9a-9aa3-0e5f72c63bf3","ios":"levelo://app?vid=ae0330f5-5ddf-4c9a-9aa3-0e5f72c63bf3"},"vehicle_type_id":"4","last_reported":1702821956,"current_range_meters":24800,"station_id":"ce4bhah2rcd13ifvqei0","pricing_plan_id":"free"},{"bike_id":"d510368f-9178-4a9b-83e0-8235e8b0f6fe","system_id":"levelo_inurba_marseille","lat":43.284534,"lon":5.358662,"is_reserved":false,"is_disabled":false,"rental_uris":{"android":"levelo://app?vid=d510368f-9178-4a9b-83e0-8235e8b0f6fe","ios":"levelo://app?vid=d510368f-9178-4a9b-83e0-8235e8b0f6fe"},"vehicle_type_id":"4","last_reported":1702821956,"current_range_meters":10800,"station_id":"ce4bhah2rcd13ifvqei0","pricing_plan_id":"free"},{"bike_id":"089e989b-fd56-4d93-a73c-c22eee4a95b8","system_id":"levelo_inurba_marseille","lat":43.28636,"lon":5.35093,"is_reserved":false,"is_disabled":false,"rental_uris":{"android":"levelo://app?vid=089e989b-fd56-4d93-a73c-c22eee4a95b8","ios":"levelo://app?vid=089e989b-fd56-4d93-a73c-c22eee4a95b8"},"vehicle_type_id":"4","last_reported":1702821956,"current_range_meters":28800,"station_id":"ce4bhch2rcd13ifvqeug","pricing_plan_id":"free"},{"bike_id":"6f5b8df9-1e67-4481-9355-0d4845c19051","system_id":"levelo_inurba_marseille","lat":43.28627,"lon":5.35104,"is_reserved":false,"is_disabled":false,"rental_uris":{"android":"levelo://app?vid=6f5b8df9-1e67-4481-9355-0d4845c19051","ios":"levelo://app?vid=6f5b8df9-1e67-4481-9355-0d4845c19051"},"vehicle_type_id":"4","last_reported":1702821956,"current_range_meters":30400,"station_id":"ce4bhch2rcd13ifvqeug","pricing_plan_id":"free"},{"bike_id":"d1cd8feb-db91-44da-bb66-3f62d0e15132","system_id":"levelo_inurba_marseille","lat":43.28617,"lon":5.35111,"is_reserved":false,"is_disabled":false,"rental_uris":{"android":"levelo://app?vid=d1cd8feb-db91-44da-bb66-3f62d0e15132","ios":"levelo://app?vid=d1cd8feb-db91-44da-bb66-3f62d0e15132"},"vehicle_type_id":"4","last_reported":1702821956,"current_range_meters":30000,"station_id":"ce4bhch2rcd13ifvqeug","pricing_plan_id":"free"},{"bike_id":"cd8f93e4-72fe-4206-8f7b-f30389dbea56","system_id":"levelo_inurba_marseille","lat":43.28616,"lon":5.35111,"is_reserved":false,"is_disabled":false,"rental_uris":{"android":"levelo://app?vid=cd8f93e4-72fe-4206-8f7b-f30389dbea56","ios":"levelo://app?vid=cd8f93e4-72fe-4206-8f7b-f30389dbea56"},"vehicle_type_id":"4","last_reported":1702821956,"current_range_meters":29200,"station_id":"ce4bhch2rcd13ifvqeug","pricing_plan_id":"free"},{"bike_id":"2116278b-b79b-43b5-bea3-56fc6ffb2ccc","system_id":"levelo_inurba_marseille","lat":43.285856,"lon":5.350771,"is_reserved":false,"is_disabled":false,"rental_uris":{"android":"levelo://app?vid=2116278b-b79b-43b5-bea3-56fc6ffb2ccc","ios":"levelo://app?vid=2116278b-b79b-43b5-bea3-56fc6ffb2ccc"},"vehicle_type_id":"4","last_reported":1702821956,"current_range_meters":18800,"station_id":"ce4bhch2rcd13ifvqeug","pricing_plan_id":"free"},{"bike_id":"dbbcfc5c-cf6c-408e-8923-f6dd32bfe925","system_id":"levelo_inurba_marseille","lat":43.28617,"lon":5.35105,"is_reserved":false,"is_disabled":false,"rental_uris":{"android":"levelo://app?vid=dbbcfc5c-cf6c-408e-8923-f6dd32bfe925","ios":"levelo://app?vid=dbbcfc5c-cf6c-408e-8923-f6dd32bfe925"},"vehicle_type_id":"4","last_reported":1702821956,"current_range_meters":29200,"station_id":"ce4bhch2rcd13ifvqeug","pricing_plan_id":"free"},{"bike_id":"625be37e-b713-40dd-b0c9-2e2df4712c8b","system_id":"levelo_inurba_marseille","lat":43.286178,"lon":5.351001,"is_reserved":false,"is_disabled":false,"rental_uris":{"android":"levelo://app?vid=625be37e-b713-40dd-b0c9-2e2df4712c8b","ios":"levelo://app?vid=625be37e-b713-40dd-b0c9-2e2df4712c8b"},"vehicle_type_id":"4","last_reported":1702821956,"current_range_meters":25200,"station_id":"ce4bhch2rcd13ifvqeug","pricing_plan_id":"free"},{"bike_id":"cf02940d-956a-41d1-beee-f0f3e4ec89df","system_id":"levelo_inurba_marseille","lat":43.28617,"lon":5.35102,"is_reserved":false,"is_disabled":false,"rental_uris":{"android":"levelo://app?vid=cf02940d-956a-41d1-beee-f0f3e4ec89df","ios":"levelo://app?vid=cf02940d-956a-41d1-beee-f0f3e4ec89df"},"vehicle_type_id":"4","last_reported":1702821956,"current_range_meters":25200,"station_id":"ce4bhch2rcd13ifvqeug","pricing_plan_id":"free"},{"bike_id":"a942f512-654d-4777-b0f9-043535f7e17a","system_id":"levelo_inurba_marseille","lat":43.28617,"lon":5.350957,"is_reserved":false,"is_disabled":false,"rental_uris":{"android":"levelo://app?vid=a942f512-654d-4777-b0f9-043535f7e17a","ios":"levelo://app?vid=a942f512-654d-4777-b0f9-043535f7e17a"},"vehicle_type_id":"4","last_reported":1702821956,"current_range_meters":22400,"station_id":"ce4bhch2rcd13ifvqeug","pricing_plan_id":"free"},{"bike_id":"521cf5ff-3147-4394-8f3b-a36a1fdcd48b","system_id":"levelo_inurba_marseille","lat":43.28613,"lon":5.35105,"is_reserved":false,"is_disabled":false,"rental_uris":{"android":"levelo://app?vid=521cf5ff-3147-4394-8f3b-a36a1fdcd48b","ios":"levelo://app?vid=521cf5ff-3147-4394-8f3b-a36a1fdcd48b"},"vehicle_type_id":"4","last_reported":1702821956,"current_range_meters":10000,"station_id":"ce4bhch2rcd13ifvqeug","pricing_plan_id":"free"},{"bike_id":"44c570d9-7067-4282-8ca0-85019fc86979","system_id":"levelo_inurba_marseille","lat":43.2861,"lon":5.35106,"is_reserved":false,"is_disabled":false,"rental_uris":{"android":"levelo://app?vid=44c570d9-7067-4282-8ca0-85019fc86979","ios":"levelo://app?vid=44c570d9-7067-4282-8ca0-85019fc86979"},"vehicle_type_id":"4","last_reported":1702821956,"current_range_meters":29200,"station_id":"ce4bhch2rcd13ifvqeug","pricing_plan_id":"free"},{"bike_id":"2dfa5049-0e1b-4839-b5c3-156910a65dbd","system_id":"levelo_inurba_marseille","lat":43.331561,"lon":5.398175,"is_reserved":false,"is_disabled":false,"rental_uris":{"android":"levelo://app?vid=2dfa5049-0e1b-4839-b5c3-156910a65dbd","ios":"levelo://app?vid=2dfa5049-0e1b-4839-b5c3-156910a65dbd"},"vehicle_type_id":"4","last_reported":1702821956,"current_range_meters":6400,"station_id":"","pricing_plan_id":"free"},{"bike_id":"b1bba2b6-372d-49dd-b13b-1b4d710db23d","system_id":"levelo_inurba_marseille","lat":43.323464,"lon":5.406297,"is_reserved":false,"is_disabled":false,"rental_uris":{"android":"levelo://app?vid=b1bba2b6-372d-49dd-b13b-1b4d710db23d","ios":"levelo://app?vid=b1bba2b6-372d-49dd-b13b-1b4d710db23d"},"vehicle_type_id":"4","last_reported":1702821956,"current_range_meters":31200,"station_id":"ce4bhq92rcd13ifvqhjg","pricing_plan_id":"free"},{"bike_id":"c9d10ecd-96f5-476f-ab17-dc3860630bb7","system_id":"levelo_inurba_marseille","lat":43.297946,"lon":5.404063,"is_reserved":false,"is_disabled":false,"rental_uris":{"android":"levelo://app?vid=c9d10ecd-96f5-476f-ab17-dc3860630bb7","ios":"levelo://app?vid=c9d10ecd-96f5-476f-ab17-dc3860630bb7"},"vehicle_type_id":"4","last_reported":1702821956,"current_range_meters":19200,"station_id":"ce4bh112rcd13ifvqd90","pricing_plan_id":"free"},{"bike_id":"186daa9c-bd6a-4bf0-b64c-b9d9682c3ee3","system_id":"levelo_inurba_marseille","lat":43.284219,"lon":5.3497,"is_reserved":false,"is_disabled":false,"rental_uris":{"android":"levelo://app?vid=186daa9c-bd6a-4bf0-b64c-b9d9682c3ee3","ios":"levelo://app?vid=186daa9c-bd6a-4bf0-b64c-b9d9682c3ee3"},"vehicle_type_id":"4","last_reported":1702821956,"current_range_meters":29600,"station_id":"ce4bhbh2rcd13ifvqepg","pricing_plan_id":"free"},{"bike_id":"4942db67-b178-4aa4-8e81-de85c6d7cd17","system_id":"levelo_inurba_marseille","lat":43.284123,"lon":5.349876,"is_reserved":false,"is_disabled":false,"rental_uris":{"android":"levelo://app?vid=4942db67-b178-4aa4-8e81-de85c6d7cd17","ios":"levelo://app?vid=4942db67-b178-4aa4-8e81-de85c6d7cd17"},"vehicle_type_id":"4","last_reported":1702821956,"current_range_meters":26800,"station_id":"ce4bhbh2rcd13ifvqepg","pricing_plan_id":"free"},{"bike_id":"0cbbd46a-85b1-4993-a70b-866d5690f808","system_id":"levelo_inurba_marseille","lat":43.284219,"lon":5.3497,"is_reserved":false,"is_disabled":false,"rental_uris":{"android":"levelo://app?vid=0cbbd46a-85b1-4993-a70b-866d5690f808","ios":"levelo://app?vid=0cbbd46a-85b1-4993-a70b-866d5690f808"},"vehicle_type_id":"4","last_reported":1702821956,"current_range_meters":31200,"station_id":"ce4bhbh2rcd13ifvqepg","pricing_plan_id":"free"},{"bike_id":"c83734ec-f65e-4faa-b9bd-d205da0e9ee9","system_id":"levelo_inurba_marseille","lat":43.282744,"lon":5.350533,"is_reserved":false,"is_disabled":false,"rental_uris":{"android":"levelo://app?vid=c83734ec-f65e-4faa-b9bd-d205da0e9ee9","ios":"levelo://app?vid=c83734ec-f65e-4faa-b9bd-d205da0e9ee9"},"vehicle_type_id":"4","last_reported":1702821956,"current_range_meters":31200,"station_id":"ce4bhbp2rcd13ifvqerg","pricing_plan_id":"free"},{"bike_id":"3f0ea13f-59c7-4557-8ab3-42a94f168384","system_id":"levelo_inurba_marseille","lat":43.282744,"lon":5.350533,"is_reserved":false,"is_disabled":false,"rental_uris":{"android":"levelo://app?vid=3f0ea13f-59c7-4557-8ab3-42a94f168384","ios":"levelo://app?vid=3f0ea13f-59c7-4557-8ab3-42a94f168384"},"vehicle_type_id":"4","last_reported":1702821956,"current_range_meters":0,"station_id":"ce4bhbp2rcd13ifvqerg","pricing_plan_id":"free"},{"bike_id":"7bed120b-9509-455a-8b68-a367263bc11e","system_id":"levelo_inurba_marseille","lat":43.282744,"lon":5.350533,"is_reserved":false,"is_disabled":false,"rental_uris":{"android":"levelo://app?vid=7bed120b-9509-455a-8b68-a367263bc11e","ios":"levelo://app?vid=7bed120b-9509-455a-8b68-a367263bc11e"},"vehicle_type_id":"4","last_reported":1702821956,"current_range_meters":31200,"station_id":"ce4bhbp2rcd13ifvqerg","pricing_plan_id":"free"},{"bike_id":"09d620b2-59f2-4ec4-983b-39e8bec778f4","system_id":"levelo_inurba_marseille","lat":43.28265,"lon":5.35081,"is_reserved":false,"is_disabled":false,"rental_uris":{"android":"levelo://app?vid=09d620b2-59f2-4ec4-983b-39e8bec778f4","ios":"levelo://app?vid=09d620b2-59f2-4ec4-983b-39e8bec778f4"},"vehicle_type_id":"4","last_reported":1702821956,"current_range_meters":29200,"station_id":"ce4bhbp2rcd13ifvqerg","pricing_plan_id":"free"},{"bike_id":"385819ba-d7dd-4fc1-ba4a-d2f85481ab77","system_id":"levelo_inurba_marseille","lat":43.32659,"lon":5.40987,"is_reserved":false,"is_disabled":false,"rental_uris":{"android":"levelo://app?vid=385819ba-d7dd-4fc1-ba4a-d2f85481ab77","ios":"levelo://app?vid=385819ba-d7dd-4fc1-ba4a-d2f85481ab77"},"vehicle_type_id":"4","last_reported":1702821956,"current_range_meters":12800,"station_id":"ce4bhpp2rcd13ifvqhgg","pricing_plan_id":"free"},{"bike_id":"4095372e-240c-45fd-9fc6-a397501c0767","system_id":"levelo_inurba_marseille","lat":43.326605,"lon":5.409903,"is_reserved":false,"is_disabled":false,"rental_uris":{"android":"levelo://app?vid=4095372e-240c-45fd-9fc6-a397501c0767","ios":"levelo://app?vid=4095372e-240c-45fd-9fc6-a397501c0767"},"vehicle_type_id":"4","last_reported":1702821956,"current_range_meters":30800,"station_id":"ce4bhpp2rcd13ifvqhgg","pricing_plan_id":"free"},{"bike_id":"62257f14-3c9d-4eca-84fe-2193dd518c01","system_id":"levelo_inurba_marseille","lat":43.32655,"lon":5.40998,"is_reserved":false,"is_disabled":false,"rental_uris":{"android":"levelo://app?vid=62257f14-3c9d-4eca-84fe-2193dd518c01","ios":"levelo://app?vid=62257f14-3c9d-4eca-84fe-2193dd518c01"},"vehicle_type_id":"4","last_reported":1702821956,"current_range_meters":30000,"station_id":"ce4bhpp2rcd13ifvqhgg","pricing_plan_id":"free"},{"bike_id":"6d895c30-3c84-48b4-9615-c0b1772e9a7c","system_id":"levelo_inurba_marseille","lat":43.279087,"lon":5.380114,"is_reserved":false,"is_disabled":false,"rental_uris":{"android":"levelo://app?vid=6d895c30-3c84-48b4-9615-c0b1772e9a7c","ios":"levelo://app?vid=6d895c30-3c84-48b4-9615-c0b1772e9a7c"},"vehicle_type_id":"4","last_reported":1702821956,"current_range_meters":9600,"station_id":"ce4bhf92rcd13ifvqf50","pricing_plan_id":"free"},{"bike_id":"3a57e97e-0661-4678-8660-64daa6b84577","system_id":"levelo_inurba_marseille","lat":43.29955,"lon":5.41317,"is_reserved":false,"is_disabled":false,"rental_uris":{"android":"levelo://app?vid=3a57e97e-0661-4678-8660-64daa6b84577","ios":"levelo://app?vid=3a57e97e-0661-4678-8660-64daa6b84577"},"vehicle_type_id":"4","last_reported":1702821956,"current_range_meters":23200,"station_id":"ce4bhp12rcd13ifvqh9g","pricing_plan_id":"free"},{"bike_id":"bc6854b1-1c97-475b-94f4-a5fb757841a1","system_id":"levelo_inurba_marseille","lat":43.299632,"lon":5.413218,"is_reserved":false,"is_disabled":false,"rental_uris":{"android":"levelo://app?vid=bc6854b1-1c97-475b-94f4-a5fb757841a1","ios":"levelo://app?vid=bc6854b1-1c97-475b-94f4-a5fb757841a1"},"vehicle_type_id":"4","last_reported":1702821956,"current_range_meters":29200,"station_id":"ce4bhp12rcd13ifvqh9g","pricing_plan_id":"free"},{"bike_id":"1c6efb0f-5748-48b2-bc59-d954a26c7255","system_id":"levelo_inurba_marseille","lat":43.320045,"lon":5.415048,"is_reserved":false,"is_disabled":false,"rental_uris":{"android":"levelo://app?vid=1c6efb0f-5748-48b2-bc59-d954a26c7255","ios":"levelo://app?vid=1c6efb0f-5748-48b2-bc59-d954a26c7255"},"vehicle_type_id":"4","last_reported":1702821956,"current_range_meters":28000,"station_id":"ce4bhq92rcd13ifvqhkg","pricing_plan_id":"free"},{"bike_id":"434f842b-f282-4dd6-b874-29e357570e08","system_id":"levelo_inurba_marseille","lat":43.325243,"lon":5.414326,"is_reserved":false,"is_disabled":false,"rental_uris":{"android":"levelo://app?vid=434f842b-f282-4dd6-b874-29e357570e08","ios":"levelo://app?vid=434f842b-f282-4dd6-b874-29e357570e08"},"vehicle_type_id":"4","last_reported":1702821956,"current_range_meters":30800,"station_id":"ce4bhq12rcd13ifvqhhg","pricing_plan_id":"free"},{"bike_id":"4ae0f495-0dff-4d07-9141-51d23d2c9165","system_id":"levelo_inurba_marseille","lat":43.27618,"lon":5.361009,"is_reserved":false,"is_disabled":false,"rental_uris":{"android":"levelo://app?vid=4ae0f495-0dff-4d07-9141-51d23d2c9165","ios":"levelo://app?vid=4ae0f495-0dff-4d07-9141-51d23d2c9165"},"vehicle_type_id":"4","last_reported":1702821956,"current_range_meters":28800,"station_id":"ce4bgj92rcd13ifvqbe0","pricing_plan_id":"free"},{"bike_id":"764631f7-a5c9-43a5-a8aa-3e827540bc0e","system_id":"levelo_inurba_marseille","lat":43.27615,"lon":5.36112,"is_reserved":false,"is_disabled":false,"rental_uris":{"android":"levelo://app?vid=764631f7-a5c9-43a5-a8aa-3e827540bc0e","ios":"levelo://app?vid=764631f7-a5c9-43a5-a8aa-3e827540bc0e"},"vehicle_type_id":"4","last_reported":1702821956,"current_range_meters":2400,"station_id":"ce4bgj92rcd13ifvqbe0","pricing_plan_id":"free"},{"bike_id":"02087654-3441-4009-af6d-9a61e3ef87b7","system_id":"levelo_inurba_marseille","lat":43.273613,"lon":5.362705,"is_reserved":false,"is_disabled":false,"rental_uris":{"android":"levelo://app?vid=02087654-3441-4009-af6d-9a61e3ef87b7","ios":"levelo://app?vid=02087654-3441-4009-af6d-9a61e3ef87b7"},"vehicle_type_id":"4","last_reported":1702821956,"current_range_meters":24400,"station_id":"ce4bhbh2rcd13ifvqeo0","pricing_plan_id":"free"},{"bike_id":"c27b2d56-0f7d-452e-8631-4608d3f98df0","system_id":"levelo_inurba_marseille","lat":43.273613,"lon":5.362705,"is_reserved":false,"is_disabled":false,"rental_uris":{"android":"levelo://app?vid=c27b2d56-0f7d-452e-8631-4608d3f98df0","ios":"levelo://app?vid=c27b2d56-0f7d-452e-8631-4608d3f98df0"},"vehicle_type_id":"4","last_reported":1702821956,"current_range_meters":8800,"station_id":"ce4bhbh2rcd13ifvqeo0","pricing_plan_id":"free"},{"bike_id":"bc3eaa9e-601d-4616-a1e1-0cc57f3f3fc1","system_id":"levelo_inurba_marseille","lat":43.27377,"lon":5.36253,"is_reserved":false,"is_disabled":false,"rental_uris":{"android":"levelo://app?vid=bc3eaa9e-601d-4616-a1e1-0cc57f3f3fc1","ios":"levelo://app?vid=bc3eaa9e-601d-4616-a1e1-0cc57f3f3fc1"},"vehicle_type_id":"4","last_reported":1702821956,"current_range_meters":12800,"station_id":"ce4bhbh2rcd13ifvqeo0","pricing_plan_id":"free"},{"bike_id":"78935254-c293-46ac-8048-2dd36a5a71d8","system_id":"levelo_inurba_marseille","lat":43.273613,"lon":5.362705,"is_reserved":false,"is_disabled":false,"rental_uris":{"android":"levelo://app?vid=78935254-c293-46ac-8048-2dd36a5a71d8","ios":"levelo://app?vid=78935254-c293-46ac-8048-2dd36a5a71d8"},"vehicle_type_id":"4","last_reported":1702821956,"current_range_meters":16800,"station_id":"ce4bhbh2rcd13ifvqeo0","pricing_plan_id":"free"},{"bike_id":"2954f4c1-318d-46bc-91cc-35c39dcd58bc","system_id":"levelo_inurba_marseille","lat":43.273613,"lon":5.362705,"is_reserved":false,"is_disabled":false,"rental_uris":{"android":"levelo://app?vid=2954f4c1-318d-46bc-91cc-35c39dcd58bc","ios":"levelo://app?vid=2954f4c1-318d-46bc-91cc-35c39dcd58bc"},"vehicle_type_id":"4","last_reported":1702821956,"current_range_meters":3200,"station_id":"ce4bhbh2rcd13ifvqeo0","pricing_plan_id":"free"},{"bike_id":"cd85cecd-b38f-467e-85b1-ad59e6a7d21d","system_id":"levelo_inurba_marseille","lat":43.273609,"lon":5.362708,"is_reserved":false,"is_disabled":false,"rental_uris":{"android":"levelo://app?vid=cd85cecd-b38f-467e-85b1-ad59e6a7d21d","ios":"levelo://app?vid=cd85cecd-b38f-467e-85b1-ad59e6a7d21d"},"vehicle_type_id":"4","last_reported":1702821956,"current_range_meters":11200,"station_id":"ce4bhbh2rcd13ifvqeo0","pricing_plan_id":"free"},{"bike_id":"ea3d35f6-b07e-4308-ae51-5376e9d8e7cc","system_id":"levelo_inurba_marseille","lat":43.273433,"lon":5.364577,"is_reserved":false,"is_disabled":false,"rental_uris":{"android":"levelo://app?vid=ea3d35f6-b07e-4308-ae51-5376e9d8e7cc","ios":"levelo://app?vid=ea3d35f6-b07e-4308-ae51-5376e9d8e7cc"},"vehicle_type_id":"4","last_reported":1702821956,"current_range_meters":12000,"station_id":"","pricing_plan_id":"free"},{"bike_id":"3ea1598e-8bec-4f3c-966a-972a19281b46","system_id":"levelo_inurba_marseille","lat":43.279952,"lon":5.400085,"is_reserved":false,"is_disabled":false,"rental_uris":{"android":"levelo://app?vid=3ea1598e-8bec-4f3c-966a-972a19281b46","ios":"levelo://app?vid=3ea1598e-8bec-4f3c-966a-972a19281b46"},"vehicle_type_id":"4","last_reported":1702821956,"current_range_meters":30000,"station_id":"ce4bho92rcd13ifvqh4g","pricing_plan_id":"free"},{"bike_id":"251de0dc-299e-4a18-abf1-eec4ea9c23e2","system_id":"levelo_inurba_marseille","lat":43.310785,"lon":5.424305,"is_reserved":false,"is_disabled":false,"rental_uris":{"android":"levelo://app?vid=251de0dc-299e-4a18-abf1-eec4ea9c23e2","ios":"levelo://app?vid=251de0dc-299e-4a18-abf1-eec4ea9c23e2"},"vehicle_type_id":"4","last_reported":1702821956,"current_range_meters":31600,"station_id":"ce4bhp92rcd13ifvqhag","pricing_plan_id":"free"},{"bike_id":"a3776f53-cea4-49f3-8100-19e61a426b19","system_id":"levelo_inurba_marseille","lat":43.310785,"lon":5.424305,"is_reserved":false,"is_disabled":false,"rental_uris":{"android":"levelo://app?vid=a3776f53-cea4-49f3-8100-19e61a426b19","ios":"levelo://app?vid=a3776f53-cea4-49f3-8100-19e61a426b19"},"vehicle_type_id":"4","last_reported":1702821956,"current_range_meters":18000,"station_id":"ce4bhp92rcd13ifvqhag","pricing_plan_id":"free"},{"bike_id":"f97f3ae3-0746-4a73-8a97-072f8aa9cb10","system_id":"levelo_inurba_marseille","lat":43.310785,"lon":5.424305,"is_reserved":false,"is_disabled":false,"rental_uris":{"android":"levelo://app?vid=f97f3ae3-0746-4a73-8a97-072f8aa9cb10","ios":"levelo://app?vid=f97f3ae3-0746-4a73-8a97-072f8aa9cb10"},"vehicle_type_id":"4","last_reported":1702821956,"current_range_meters":31600,"station_id":"ce4bhp92rcd13ifvqhag","pricing_plan_id":"free"},{"bike_id":"3ca2c2d2-99b0-4aa6-a05d-e30f02e6a7fb","system_id":"levelo_inurba_marseille","lat":43.276092,"lon":5.395289,"is_reserved":false,"is_disabled":false,"rental_uris":{"android":"levelo://app?vid=3ca2c2d2-99b0-4aa6-a05d-e30f02e6a7fb","ios":"levelo://app?vid=3ca2c2d2-99b0-4aa6-a05d-e30f02e6a7fb"},"vehicle_type_id":"4","last_reported":1702821956,"current_range_meters":18400,"station_id":"","pricing_plan_id":"free"},{"bike_id":"b2011963-c6c3-45de-8efb-2b15c174e690","system_id":"levelo_inurba_marseille","lat":43.273125,"lon":5.390731,"is_reserved":false,"is_disabled":false,"rental_uris":{"android":"levelo://app?vid=b2011963-c6c3-45de-8efb-2b15c174e690","ios":"levelo://app?vid=b2011963-c6c3-45de-8efb-2b15c174e690"},"vehicle_type_id":"4","last_reported":1702821956,"current_range_meters":26000,"station_id":"ce4bhgp2rcd13ifvqfe0","pricing_plan_id":"free"},{"bike_id":"cfe6ed2b-8f97-4c52-b8e8-c70be6e7aefd","system_id":"levelo_inurba_marseille","lat":43.2732,"lon":5.39077,"is_reserved":false,"is_disabled":false,"rental_uris":{"android":"levelo://app?vid=cfe6ed2b-8f97-4c52-b8e8-c70be6e7aefd","ios":"levelo://app?vid=cfe6ed2b-8f97-4c52-b8e8-c70be6e7aefd"},"vehicle_type_id":"4","last_reported":1702821956,"current_range_meters":24800,"station_id":"","pricing_plan_id":"free"},{"bike_id":"ca1f68d8-bf43-4807-91ed-d71402ae0985","system_id":"levelo_inurba_marseille","lat":43.272124,"lon":5.391768,"is_reserved":false,"is_disabled":false,"rental_uris":{"android":"levelo://app?vid=ca1f68d8-bf43-4807-91ed-d71402ae0985","ios":"levelo://app?vid=ca1f68d8-bf43-4807-91ed-d71402ae0985"},"vehicle_type_id":"4","last_reported":1702821956,"current_range_meters":30000,"station_id":"ce4bhhp2rcd13ifvqfm0","pricing_plan_id":"free"},{"bike_id":"d737f210-3407-4c33-830a-cb8d9bcbcbca","system_id":"levelo_inurba_marseille","lat":43.272118,"lon":5.391758,"is_reserved":false,"is_disabled":false,"rental_uris":{"android":"levelo://app?vid=d737f210-3407-4c33-830a-cb8d9bcbcbca","ios":"levelo://app?vid=d737f210-3407-4c33-830a-cb8d9bcbcbca"},"vehicle_type_id":"4","last_reported":1702821956,"current_range_meters":28800,"station_id":"ce4bhhp2rcd13ifvqfm0","pricing_plan_id":"free"},{"bike_id":"7c5e5a9a-9f39-4a14-9573-d5b8ab599dd5","system_id":"levelo_inurba_marseille","lat":43.27188,"lon":5.39224,"is_reserved":false,"is_disabled":false,"rental_uris":{"android":"levelo://app?vid=7c5e5a9a-9f39-4a14-9573-d5b8ab599dd5","ios":"levelo://app?vid=7c5e5a9a-9f39-4a14-9573-d5b8ab599dd5"},"vehicle_type_id":"4","last_reported":1702821956,"current_range_meters":18000,"station_id":"ce4bhhp2rcd13ifvqfm0","pricing_plan_id":"free"},{"bike_id":"dc485707-174a-4d8b-8462-9abdddf1e87e","system_id":"levelo_inurba_marseille","lat":43.278128,"lon":5.407195,"is_reserved":false,"is_disabled":false,"rental_uris":{"android":"levelo://app?vid=dc485707-174a-4d8b-8462-9abdddf1e87e","ios":"levelo://app?vid=dc485707-174a-4d8b-8462-9abdddf1e87e"},"vehicle_type_id":"4","last_reported":1702821956,"current_range_meters":22400,"station_id":"ce4bhnh2rcd13ifvqgtg","pricing_plan_id":"free"},{"bike_id":"79742ef2-f3ad-4f5b-a7bc-8215905d2e2e","system_id":"levelo_inurba_marseille","lat":43.278128,"lon":5.407195,"is_reserved":false,"is_disabled":false,"rental_uris":{"android":"levelo://app?vid=79742ef2-f3ad-4f5b-a7bc-8215905d2e2e","ios":"levelo://app?vid=79742ef2-f3ad-4f5b-a7bc-8215905d2e2e"},"vehicle_type_id":"4","last_reported":1702821956,"current_range_meters":29200,"station_id":"ce4bhnh2rcd13ifvqgtg","pricing_plan_id":"free"},{"bike_id":"c0d4131f-8d8d-4750-bf09-aa224f883954","system_id":"levelo_inurba_marseille","lat":43.27948,"lon":5.41045,"is_reserved":false,"is_disabled":false,"rental_uris":{"android":"levelo://app?vid=c0d4131f-8d8d-4750-bf09-aa224f883954","ios":"levelo://app?vid=c0d4131f-8d8d-4750-bf09-aa224f883954"},"vehicle_type_id":"4","last_reported":1702821956,"current_range_meters":0,"station_id":"ce4bhnp2rcd13ifvqh0g","pricing_plan_id":"free"},{"bike_id":"5c32fbb2-794a-4288-b762-ad697da04c49","system_id":"levelo_inurba_marseille","lat":43.27948,"lon":5.41054,"is_reserved":false,"is_disabled":false,"rental_uris":{"android":"levelo://app?vid=5c32fbb2-794a-4288-b762-ad697da04c49","ios":"levelo://app?vid=5c32fbb2-794a-4288-b762-ad697da04c49"},"vehicle_type_id":"4","last_reported":1702821956,"current_range_meters":12400,"station_id":"ce4bhnp2rcd13ifvqh0g","pricing_plan_id":"free"},{"bike_id":"3cf43922-531f-4417-901a-bef01022c774","system_id":"levelo_inurba_marseille","lat":43.269319,"lon":5.389397,"is_reserved":false,"is_disabled":false,"rental_uris":{"android":"levelo://app?vid=3cf43922-531f-4417-901a-bef01022c774","ios":"levelo://app?vid=3cf43922-531f-4417-901a-bef01022c774"},"vehicle_type_id":"4","last_reported":1702821956,"current_range_meters":20000,"station_id":"ce4bhhh2rcd13ifvqfl0","pricing_plan_id":"free"},{"bike_id":"526604fa-16ad-4e41-8f92-dc5cd5efb4a2","system_id":"levelo_inurba_marseille","lat":43.269319,"lon":5.389397,"is_reserved":false,"is_disabled":false,"rental_uris":{"android":"levelo://app?vid=526604fa-16ad-4e41-8f92-dc5cd5efb4a2","ios":"levelo://app?vid=526604fa-16ad-4e41-8f92-dc5cd5efb4a2"},"vehicle_type_id":"4","last_reported":1702821956,"current_range_meters":0,"station_id":"ce4bhhh2rcd13ifvqfl0","pricing_plan_id":"free"},{"bike_id":"db774753-4382-453e-a138-c32d538f9839","system_id":"levelo_inurba_marseille","lat":43.358673,"lon":5.356739,"is_reserved":false,"is_disabled":false,"rental_uris":{"android":"levelo://app?vid=db774753-4382-453e-a138-c32d538f9839","ios":"levelo://app?vid=db774753-4382-453e-a138-c32d538f9839"},"vehicle_type_id":"4","last_reported":1702821956,"current_range_meters":11200,"station_id":"","pricing_plan_id":"free"},{"bike_id":"800302f0-e978-49ff-aa75-f36b780db857","system_id":"levelo_inurba_marseille","lat":43.26552,"lon":5.37291,"is_reserved":false,"is_disabled":false,"rental_uris":{"android":"levelo://app?vid=800302f0-e978-49ff-aa75-f36b780db857","ios":"levelo://app?vid=800302f0-e978-49ff-aa75-f36b780db857"},"vehicle_type_id":"4","last_reported":1702821956,"current_range_meters":31200,"station_id":"ce4bhg12rcd13ifvqf70","pricing_plan_id":"free"},{"bike_id":"3ec397f0-b8da-4e84-be43-f4abb20ebecf","system_id":"levelo_inurba_marseille","lat":43.276631,"lon":5.411794,"is_reserved":false,"is_disabled":false,"rental_uris":{"android":"levelo://app?vid=3ec397f0-b8da-4e84-be43-f4abb20ebecf","ios":"levelo://app?vid=3ec397f0-b8da-4e84-be43-f4abb20ebecf"},"vehicle_type_id":"4","last_reported":1702821956,"current_range_meters":27600,"station_id":"","pricing_plan_id":"free"},{"bike_id":"2b8d4d39-0b95-4a15-8ce0-9836020f1901","system_id":"levelo_inurba_marseille","lat":43.26788,"lon":5.39414,"is_reserved":false,"is_disabled":false,"rental_uris":{"android":"levelo://app?vid=2b8d4d39-0b95-4a15-8ce0-9836020f1901","ios":"levelo://app?vid=2b8d4d39-0b95-4a15-8ce0-9836020f1901"},"vehicle_type_id":"4","last_reported":1702821956,"current_range_meters":26000,"station_id":"ce4bhh12rcd13ifvqfg0","pricing_plan_id":"free"},{"bike_id":"aaf4e48a-9b77-42fe-a999-8a25db259be0","system_id":"levelo_inurba_marseille","lat":43.26785,"lon":5.39421,"is_reserved":false,"is_disabled":false,"rental_uris":{"android":"levelo://app?vid=aaf4e48a-9b77-42fe-a999-8a25db259be0","ios":"levelo://app?vid=aaf4e48a-9b77-42fe-a999-8a25db259be0"},"vehicle_type_id":"4","last_reported":1702821956,"current_range_meters":26400,"station_id":"ce4bhh12rcd13ifvqfg0","pricing_plan_id":"free"},{"bike_id":"52b75330-794b-4ffe-89fe-9184ff499c6e","system_id":"levelo_inurba_marseille","lat":43.26784,"lon":5.39418,"is_reserved":false,"is_disabled":false,"rental_uris":{"android":"levelo://app?vid=52b75330-794b-4ffe-89fe-9184ff499c6e","ios":"levelo://app?vid=52b75330-794b-4ffe-89fe-9184ff499c6e"},"vehicle_type_id":"4","last_reported":1702821956,"current_range_meters":30800,"station_id":"ce4bhh12rcd13ifvqfg0","pricing_plan_id":"free"},{"bike_id":"04243655-5fac-451f-a46a-afe846fd4d1c","system_id":"levelo_inurba_marseille","lat":43.26782,"lon":5.39415,"is_reserved":false,"is_disabled":false,"rental_uris":{"android":"levelo://app?vid=04243655-5fac-451f-a46a-afe846fd4d1c","ios":"levelo://app?vid=04243655-5fac-451f-a46a-afe846fd4d1c"},"vehicle_type_id":"4","last_reported":1702821956,"current_range_meters":28800,"station_id":"ce4bhh12rcd13ifvqfg0","pricing_plan_id":"free"},{"bike_id":"a6b5c86e-e9be-4a68-ab85-30371e406289","system_id":"levelo_inurba_marseille","lat":43.26779,"lon":5.39419,"is_reserved":false,"is_disabled":false,"rental_uris":{"android":"levelo://app?vid=a6b5c86e-e9be-4a68-ab85-30371e406289","ios":"levelo://app?vid=a6b5c86e-e9be-4a68-ab85-30371e406289"},"vehicle_type_id":"4","last_reported":1702821956,"current_range_meters":24800,"station_id":"ce4bhh12rcd13ifvqfg0","pricing_plan_id":"free"},{"bike_id":"e006afea-3a42-4bbf-9245-227e1779d18b","system_id":"levelo_inurba_marseille","lat":43.265727,"lon":5.390061,"is_reserved":false,"is_disabled":false,"rental_uris":{"android":"levelo://app?vid=e006afea-3a42-4bbf-9245-227e1779d18b","ios":"levelo://app?vid=e006afea-3a42-4bbf-9245-227e1779d18b"},"vehicle_type_id":"4","last_reported":1702821956,"current_range_meters":19200,"station_id":"","pricing_plan_id":"free"},{"bike_id":"6d30ffcf-ca10-4df2-b4f9-808a7706daa3","system_id":"levelo_inurba_marseille","lat":43.2657,"lon":5.39013,"is_reserved":false,"is_disabled":false,"rental_uris":{"android":"levelo://app?vid=6d30ffcf-ca10-4df2-b4f9-808a7706daa3","ios":"levelo://app?vid=6d30ffcf-ca10-4df2-b4f9-808a7706daa3"},"vehicle_type_id":"4","last_reported":1702821956,"current_range_meters":18400,"station_id":"ce4bhe12rcd13ifvqf30","pricing_plan_id":"free"},{"bike_id":"5413d962-3171-4595-b5d9-016886cc743d","system_id":"levelo_inurba_marseille","lat":43.26564,"lon":5.39013,"is_reserved":false,"is_disabled":false,"rental_uris":{"android":"levelo://app?vid=5413d962-3171-4595-b5d9-016886cc743d","ios":"levelo://app?vid=5413d962-3171-4595-b5d9-016886cc743d"},"vehicle_type_id":"4","last_reported":1702821956,"current_range_meters":17200,"station_id":"ce4bhe12rcd13ifvqf30","pricing_plan_id":"free"},{"bike_id":"fda05bad-1d35-491c-a93f-9bb49736c9cc","system_id":"levelo_inurba_marseille","lat":43.2694,"lon":5.40258,"is_reserved":false,"is_disabled":false,"rental_uris":{"android":"levelo://app?vid=fda05bad-1d35-491c-a93f-9bb49736c9cc","ios":"levelo://app?vid=fda05bad-1d35-491c-a93f-9bb49736c9cc"},"vehicle_type_id":"4","last_reported":1702821956,"current_range_meters":21200,"station_id":"cjm6bp8fraef2m0cb0m0","pricing_plan_id":"free"},{"bike_id":"cde16cde-0b04-4be7-8596-f3e7b6fee431","system_id":"levelo_inurba_marseille","lat":43.26949,"lon":5.40262,"is_reserved":false,"is_disabled":false,"rental_uris":{"android":"levelo://app?vid=cde16cde-0b04-4be7-8596-f3e7b6fee431","ios":"levelo://app?vid=cde16cde-0b04-4be7-8596-f3e7b6fee431"},"vehicle_type_id":"4","last_reported":1702821956,"current_range_meters":5200,"station_id":"cjm6bp8fraef2m0cb0m0","pricing_plan_id":"free"},{"bike_id":"8a89967b-a5ba-4c98-9fe4-fc037e82266e","system_id":"levelo_inurba_marseille","lat":43.2694,"lon":5.40268,"is_reserved":false,"is_disabled":false,"rental_uris":{"android":"levelo://app?vid=8a89967b-a5ba-4c98-9fe4-fc037e82266e","ios":"levelo://app?vid=8a89967b-a5ba-4c98-9fe4-fc037e82266e"},"vehicle_type_id":"4","last_reported":1702821956,"current_range_meters":22000,"station_id":"cjm6bp8fraef2m0cb0m0","pricing_plan_id":"free"},{"bike_id":"2ddaa260-3dde-415e-85e9-e03f5b2dd164","system_id":"levelo_inurba_marseille","lat":43.26936,"lon":5.40261,"is_reserved":false,"is_disabled":false,"rental_uris":{"android":"levelo://app?vid=2ddaa260-3dde-415e-85e9-e03f5b2dd164","ios":"levelo://app?vid=2ddaa260-3dde-415e-85e9-e03f5b2dd164"},"vehicle_type_id":"4","last_reported":1702821956,"current_range_meters":1200,"station_id":"cjm6bp8fraef2m0cb0m0","pricing_plan_id":"free"},{"bike_id":"5cc87c5f-03c3-4c7f-bcd8-e11e665d9b9a","system_id":"levelo_inurba_marseille","lat":43.267959,"lon":5.402687,"is_reserved":false,"is_disabled":false,"rental_uris":{"android":"levelo://app?vid=5cc87c5f-03c3-4c7f-bcd8-e11e665d9b9a","ios":"levelo://app?vid=5cc87c5f-03c3-4c7f-bcd8-e11e665d9b9a"},"vehicle_type_id":"4","last_reported":1702821956,"current_range_meters":18800,"station_id":"ce501612rcd8frsf0b60","pricing_plan_id":"free"},{"bike_id":"6c0377bb-a76e-4969-939b-7403664e0b8c","system_id":"levelo_inurba_marseille","lat":43.267959,"lon":5.402687,"is_reserved":false,"is_disabled":false,"rental_uris":{"android":"levelo://app?vid=6c0377bb-a76e-4969-939b-7403664e0b8c","ios":"levelo://app?vid=6c0377bb-a76e-4969-939b-7403664e0b8c"},"vehicle_type_id":"4","last_reported":1702821956,"current_range_meters":26800,"station_id":"ce501612rcd8frsf0b60","pricing_plan_id":"free"},{"bike_id":"7743d713-d033-44f0-9919-d35e21ec4494","system_id":"levelo_inurba_marseille","lat":43.265019,"lon":5.395403,"is_reserved":false,"is_disabled":false,"rental_uris":{"android":"levelo://app?vid=7743d713-d033-44f0-9919-d35e21ec4494","ios":"levelo://app?vid=7743d713-d033-44f0-9919-d35e21ec4494"},"vehicle_type_id":"4","last_reported":1702821956,"current_range_meters":17200,"station_id":"","pricing_plan_id":"free"},{"bike_id":"f2318a53-9471-42dc-8d4f-a7730a7a36c8","system_id":"levelo_inurba_marseille","lat":43.26499,"lon":5.39551,"is_reserved":false,"is_disabled":false,"rental_uris":{"android":"levelo://app?vid=f2318a53-9471-42dc-8d4f-a7730a7a36c8","ios":"levelo://app?vid=f2318a53-9471-42dc-8d4f-a7730a7a36c8"},"vehicle_type_id":"4","last_reported":1702821956,"current_range_meters":1600,"station_id":"","pricing_plan_id":"free"},{"bike_id":"4c30ab0b-cc54-4ba6-ae72-a8fb812c2d2c","system_id":"levelo_inurba_marseille","lat":43.26498,"lon":5.3955,"is_reserved":false,"is_disabled":false,"rental_uris":{"android":"levelo://app?vid=4c30ab0b-cc54-4ba6-ae72-a8fb812c2d2c","ios":"levelo://app?vid=4c30ab0b-cc54-4ba6-ae72-a8fb812c2d2c"},"vehicle_type_id":"4","last_reported":1702821956,"current_range_meters":23600,"station_id":"","pricing_plan_id":"free"},{"bike_id":"1765264f-1e74-4ce5-841e-c97748fde2f9","system_id":"levelo_inurba_marseille","lat":43.26497,"lon":5.39551,"is_reserved":false,"is_disabled":false,"rental_uris":{"android":"levelo://app?vid=1765264f-1e74-4ce5-841e-c97748fde2f9","ios":"levelo://app?vid=1765264f-1e74-4ce5-841e-c97748fde2f9"},"vehicle_type_id":"4","last_reported":1702821956,"current_range_meters":22400,"station_id":"","pricing_plan_id":"free"},{"bike_id":"1027c1c2-ba39-4720-b00d-2c56da016646","system_id":"levelo_inurba_marseille","lat":43.26496,"lon":5.39548,"is_reserved":false,"is_disabled":false,"rental_uris":{"android":"levelo://app?vid=1027c1c2-ba39-4720-b00d-2c56da016646","ios":"levelo://app?vid=1027c1c2-ba39-4720-b00d-2c56da016646"},"vehicle_type_id":"4","last_reported":1702821956,"current_range_meters":27600,"station_id":"","pricing_plan_id":"free"},{"bike_id":"789899a7-63a0-46b3-843c-64ff0b8e294b","system_id":"levelo_inurba_marseille","lat":43.28152,"lon":5.42639,"is_reserved":false,"is_disabled":false,"rental_uris":{"android":"levelo://app?vid=789899a7-63a0-46b3-843c-64ff0b8e294b","ios":"levelo://app?vid=789899a7-63a0-46b3-843c-64ff0b8e294b"},"vehicle_type_id":"4","last_reported":1702821956,"current_range_meters":2800,"station_id":"ce4bhnh2rcd13ifvqgug","pricing_plan_id":"free"},{"bike_id":"fe953e3e-ab83-4b64-a1c3-db4d08a830b5","system_id":"levelo_inurba_marseille","lat":43.28148,"lon":5.42645,"is_reserved":false,"is_disabled":false,"rental_uris":{"android":"levelo://app?vid=fe953e3e-ab83-4b64-a1c3-db4d08a830b5","ios":"levelo://app?vid=fe953e3e-ab83-4b64-a1c3-db4d08a830b5"},"vehicle_type_id":"4","last_reported":1702821956,"current_range_meters":800,"station_id":"ce4bhnh2rcd13ifvqgug","pricing_plan_id":"free"},{"bike_id":"86e8efcc-9a9d-4657-8fc4-7b76fe514acc","system_id":"levelo_inurba_marseille","lat":43.275028,"lon":5.424534,"is_reserved":false,"is_disabled":false,"rental_uris":{"android":"levelo://app?vid=86e8efcc-9a9d-4657-8fc4-7b76fe514acc","ios":"levelo://app?vid=86e8efcc-9a9d-4657-8fc4-7b76fe514acc"},"vehicle_type_id":"4","last_reported":1702821956,"current_range_meters":10400,"station_id":"ce4bhn92rcd13ifvqgrg","pricing_plan_id":"free"},{"bike_id":"41bc15f8-3b1d-4ccf-944e-034bbcc08f91","system_id":"levelo_inurba_marseille","lat":43.275028,"lon":5.424534,"is_reserved":false,"is_disabled":false,"rental_uris":{"android":"levelo://app?vid=41bc15f8-3b1d-4ccf-944e-034bbcc08f91","ios":"levelo://app?vid=41bc15f8-3b1d-4ccf-944e-034bbcc08f91"},"vehicle_type_id":"4","last_reported":1702821956,"current_range_meters":30000,"station_id":"ce4bhn92rcd13ifvqgrg","pricing_plan_id":"free"},{"bike_id":"26edb7e5-1cc5-434c-a417-271b88181037","system_id":"levelo_inurba_marseille","lat":43.275028,"lon":5.424534,"is_reserved":false,"is_disabled":false,"rental_uris":{"android":"levelo://app?vid=26edb7e5-1cc5-434c-a417-271b88181037","ios":"levelo://app?vid=26edb7e5-1cc5-434c-a417-271b88181037"},"vehicle_type_id":"4","last_reported":1702821956,"current_range_meters":28800,"station_id":"ce4bhn92rcd13ifvqgrg","pricing_plan_id":"free"},{"bike_id":"b6836b5c-bf87-43d1-afcb-477e491235ab","system_id":"levelo_inurba_marseille","lat":43.26088,"lon":5.39768,"is_reserved":false,"is_disabled":false,"rental_uris":{"android":"levelo://app?vid=b6836b5c-bf87-43d1-afcb-477e491235ab","ios":"levelo://app?vid=b6836b5c-bf87-43d1-afcb-477e491235ab"},"vehicle_type_id":"4","last_reported":1702821956,"current_range_meters":400,"station_id":"","pricing_plan_id":"free"},{"bike_id":"9a221386-4eef-461d-8e18-f3fc3f633bbb","system_id":"levelo_inurba_marseille","lat":43.25739,"lon":5.38979,"is_reserved":false,"is_disabled":false,"rental_uris":{"android":"levelo://app?vid=9a221386-4eef-461d-8e18-f3fc3f633bbb","ios":"levelo://app?vid=9a221386-4eef-461d-8e18-f3fc3f633bbb"},"vehicle_type_id":"4","last_reported":1702821956,"current_range_meters":22000,"station_id":"","pricing_plan_id":"free"},{"bike_id":"c389d107-e6f2-478d-bd6a-ba0085ee0286","system_id":"levelo_inurba_marseille","lat":43.25827,"lon":5.3943,"is_reserved":false,"is_disabled":false,"rental_uris":{"android":"levelo://app?vid=c389d107-e6f2-478d-bd6a-ba0085ee0286","ios":"levelo://app?vid=c389d107-e6f2-478d-bd6a-ba0085ee0286"},"vehicle_type_id":"4","last_reported":1702821956,"current_range_meters":24400,"station_id":"ce4bhip2rcd13ifvqft0","pricing_plan_id":"free"},{"bike_id":"4a14eb90-0bcc-46d5-a7ef-68f7a4f98435","system_id":"levelo_inurba_marseille","lat":43.25578,"lon":5.38235,"is_reserved":false,"is_disabled":false,"rental_uris":{"android":"levelo://app?vid=4a14eb90-0bcc-46d5-a7ef-68f7a4f98435","ios":"levelo://app?vid=4a14eb90-0bcc-46d5-a7ef-68f7a4f98435"},"vehicle_type_id":"4","last_reported":1702821956,"current_range_meters":29600,"station_id":"ce4bhih2rcd13ifvqfs0","pricing_plan_id":"free"},{"bike_id":"e26b66d7-8e1c-4dcd-861b-191f17be1d19","system_id":"levelo_inurba_marseille","lat":43.258224,"lon":5.394369,"is_reserved":false,"is_disabled":false,"rental_uris":{"android":"levelo://app?vid=e26b66d7-8e1c-4dcd-861b-191f17be1d19","ios":"levelo://app?vid=e26b66d7-8e1c-4dcd-861b-191f17be1d19"},"vehicle_type_id":"4","last_reported":1702821956,"current_range_meters":18400,"station_id":"ce4bhip2rcd13ifvqft0","pricing_plan_id":"free"},{"bike_id":"ed3d158c-0ef7-4ccc-a615-7cd06b736988","system_id":"levelo_inurba_marseille","lat":43.254947,"lon":5.376454,"is_reserved":false,"is_disabled":false,"rental_uris":{"android":"levelo://app?vid=ed3d158c-0ef7-4ccc-a615-7cd06b736988","ios":"levelo://app?vid=ed3d158c-0ef7-4ccc-a615-7cd06b736988"},"vehicle_type_id":"4","last_reported":1702821956,"current_range_meters":24000,"station_id":"ce4bhh12rcd13ifvqff0","pricing_plan_id":"free"},{"bike_id":"e22bfa2e-887e-4f39-94a3-367bba166b50","system_id":"levelo_inurba_marseille","lat":43.270721,"lon":5.422764,"is_reserved":false,"is_disabled":false,"rental_uris":{"android":"levelo://app?vid=e22bfa2e-887e-4f39-94a3-367bba166b50","ios":"levelo://app?vid=e22bfa2e-887e-4f39-94a3-367bba166b50"},"vehicle_type_id":"4","last_reported":1702821956,"current_range_meters":12800,"station_id":"ce4bhk92rcd13ifvqgb0","pricing_plan_id":"free"},{"bike_id":"93843a82-5a46-49fc-906b-f676445f2645","system_id":"levelo_inurba_marseille","lat":43.258658,"lon":5.398935,"is_reserved":false,"is_disabled":false,"rental_uris":{"android":"levelo://app?vid=93843a82-5a46-49fc-906b-f676445f2645","ios":"levelo://app?vid=93843a82-5a46-49fc-906b-f676445f2645"},"vehicle_type_id":"4","last_reported":1702821956,"current_range_meters":8800,"station_id":"ce4bhl92rcd13ifvqghg","pricing_plan_id":"free"},{"bike_id":"2ff6c3bc-498c-4825-9301-32899d54408c","system_id":"levelo_inurba_marseille","lat":43.258658,"lon":5.398935,"is_reserved":false,"is_disabled":false,"rental_uris":{"android":"levelo://app?vid=2ff6c3bc-498c-4825-9301-32899d54408c","ios":"levelo://app?vid=2ff6c3bc-498c-4825-9301-32899d54408c"},"vehicle_type_id":"4","last_reported":1702821956,"current_range_meters":29600,"station_id":"ce4bhl92rcd13ifvqghg","pricing_plan_id":"free"},{"bike_id":"ec33c351-d9ce-4e10-b1de-8c2e1d3b4600","system_id":"levelo_inurba_marseille","lat":43.258658,"lon":5.398935,"is_reserved":false,"is_disabled":false,"rental_uris":{"android":"levelo://app?vid=ec33c351-d9ce-4e10-b1de-8c2e1d3b4600","ios":"levelo://app?vid=ec33c351-d9ce-4e10-b1de-8c2e1d3b4600"},"vehicle_type_id":"4","last_reported":1702821956,"current_range_meters":6400,"station_id":"ce4bhl92rcd13ifvqghg","pricing_plan_id":"free"},{"bike_id":"486de631-4303-438d-8a28-45c67f8e2772","system_id":"levelo_inurba_marseille","lat":43.2593,"lon":5.40907,"is_reserved":false,"is_disabled":false,"rental_uris":{"android":"levelo://app?vid=486de631-4303-438d-8a28-45c67f8e2772","ios":"levelo://app?vid=486de631-4303-438d-8a28-45c67f8e2772"},"vehicle_type_id":"4","last_reported":1702821956,"current_range_meters":18000,"station_id":"ce4bhm92rcd13ifvqglg","pricing_plan_id":"free"},{"bike_id":"e341de01-5fcc-4f5d-9a6e-add29695d1df","system_id":"levelo_inurba_marseille","lat":43.25932,"lon":5.40917,"is_reserved":false,"is_disabled":false,"rental_uris":{"android":"levelo://app?vid=e341de01-5fcc-4f5d-9a6e-add29695d1df","ios":"levelo://app?vid=e341de01-5fcc-4f5d-9a6e-add29695d1df"},"vehicle_type_id":"4","last_reported":1702821956,"current_range_meters":17600,"station_id":"ce4bhm92rcd13ifvqglg","pricing_plan_id":"free"},{"bike_id":"790f0c85-435e-464f-af9f-df0afa087a9d","system_id":"levelo_inurba_marseille","lat":43.259278,"lon":5.409126,"is_reserved":false,"is_disabled":false,"rental_uris":{"android":"levelo://app?vid=790f0c85-435e-464f-af9f-df0afa087a9d","ios":"levelo://app?vid=790f0c85-435e-464f-af9f-df0afa087a9d"},"vehicle_type_id":"4","last_reported":1702821956,"current_range_meters":31600,"station_id":"ce4bhm92rcd13ifvqglg","pricing_plan_id":"free"},{"bike_id":"c42c8265-a87f-4db6-b8a4-696660579129","system_id":"levelo_inurba_marseille","lat":43.257079,"lon":5.411051,"is_reserved":false,"is_disabled":false,"rental_uris":{"android":"levelo://app?vid=c42c8265-a87f-4db6-b8a4-696660579129","ios":"levelo://app?vid=c42c8265-a87f-4db6-b8a4-696660579129"},"vehicle_type_id":"4","last_reported":1702821956,"current_range_meters":30000,"station_id":"ce4bhkp2rcd13ifvqgd0","pricing_plan_id":"free"},{"bike_id":"b975f840-e9e7-4103-847b-0b0ed2380f1b","system_id":"levelo_inurba_marseille","lat":43.257079,"lon":5.411051,"is_reserved":false,"is_disabled":false,"rental_uris":{"android":"levelo://app?vid=b975f840-e9e7-4103-847b-0b0ed2380f1b","ios":"levelo://app?vid=b975f840-e9e7-4103-847b-0b0ed2380f1b"},"vehicle_type_id":"4","last_reported":1702821956,"current_range_meters":30400,"station_id":"ce4bhkp2rcd13ifvqgd0","pricing_plan_id":"free"},{"bike_id":"fdfd912c-54b9-4d65-a21b-7fbd8b950474","system_id":"levelo_inurba_marseille","lat":43.257079,"lon":5.411051,"is_reserved":false,"is_disabled":false,"rental_uris":{"android":"levelo://app?vid=fdfd912c-54b9-4d65-a21b-7fbd8b950474","ios":"levelo://app?vid=fdfd912c-54b9-4d65-a21b-7fbd8b950474"},"vehicle_type_id":"4","last_reported":1702821956,"current_range_meters":26800,"station_id":"ce4bhkp2rcd13ifvqgd0","pricing_plan_id":"free"},{"bike_id":"0e59f729-2f39-4646-9170-c1a3a820db3b","system_id":"levelo_inurba_marseille","lat":43.257079,"lon":5.411051,"is_reserved":false,"is_disabled":false,"rental_uris":{"android":"levelo://app?vid=0e59f729-2f39-4646-9170-c1a3a820db3b","ios":"levelo://app?vid=0e59f729-2f39-4646-9170-c1a3a820db3b"},"vehicle_type_id":"4","last_reported":1702821956,"current_range_meters":21200,"station_id":"ce4bhkp2rcd13ifvqgd0","pricing_plan_id":"free"},{"bike_id":"3cec78b0-b5aa-41c7-86c1-de0e9bda6db8","system_id":"levelo_inurba_marseille","lat":43.25004,"lon":5.3892,"is_reserved":false,"is_disabled":false,"rental_uris":{"android":"levelo://app?vid=3cec78b0-b5aa-41c7-86c1-de0e9bda6db8","ios":"levelo://app?vid=3cec78b0-b5aa-41c7-86c1-de0e9bda6db8"},"vehicle_type_id":"4","last_reported":1702821956,"current_range_meters":11200,"station_id":"ce4bhgp2rcd13ifvqfd0","pricing_plan_id":"free"},{"bike_id":"80ea593d-27ab-4fb4-94e5-d4462ce7d011","system_id":"levelo_inurba_marseille","lat":43.250009,"lon":5.389195,"is_reserved":false,"is_disabled":false,"rental_uris":{"android":"levelo://app?vid=80ea593d-27ab-4fb4-94e5-d4462ce7d011","ios":"levelo://app?vid=80ea593d-27ab-4fb4-94e5-d4462ce7d011"},"vehicle_type_id":"4","last_reported":1702821956,"current_range_meters":13200,"station_id":"ce4bhgp2rcd13ifvqfd0","pricing_plan_id":"free"},{"bike_id":"3692ac1b-9a1b-44d8-848a-4f91d86e83fb","system_id":"levelo_inurba_marseille","lat":43.24807,"lon":5.37461,"is_reserved":false,"is_disabled":false,"rental_uris":{"android":"levelo://app?vid=3692ac1b-9a1b-44d8-848a-4f91d86e83fb","ios":"levelo://app?vid=3692ac1b-9a1b-44d8-848a-4f91d86e83fb"},"vehicle_type_id":"4","last_reported":1702821956,"current_range_meters":16000,"station_id":"ce4bhgh2rcd13ifvqfb0","pricing_plan_id":"free"},{"bike_id":"504a9a8f-fed1-4d0c-8112-2c243c9aebfe","system_id":"levelo_inurba_marseille","lat":43.2479,"lon":5.374457,"is_reserved":false,"is_disabled":false,"rental_uris":{"android":"levelo://app?vid=504a9a8f-fed1-4d0c-8112-2c243c9aebfe","ios":"levelo://app?vid=504a9a8f-fed1-4d0c-8112-2c243c9aebfe"},"vehicle_type_id":"4","last_reported":1702821956,"current_range_meters":21600,"station_id":"ce4bhgh2rcd13ifvqfb0","pricing_plan_id":"free"},{"bike_id":"687adf15-9215-46c7-9e60-54619e51bfb0","system_id":"levelo_inurba_marseille","lat":43.25102,"lon":5.403214,"is_reserved":false,"is_disabled":false,"rental_uris":{"android":"levelo://app?vid=687adf15-9215-46c7-9e60-54619e51bfb0","ios":"levelo://app?vid=687adf15-9215-46c7-9e60-54619e51bfb0"},"vehicle_type_id":"4","last_reported":1702821956,"current_range_meters":31200,"station_id":"ce4bhlh2rcd13ifvqgig","pricing_plan_id":"free"},{"bike_id":"cda151f2-9ad2-46c9-9115-b73ba9a06619","system_id":"levelo_inurba_marseille","lat":43.25218,"lon":5.40642,"is_reserved":false,"is_disabled":false,"rental_uris":{"android":"levelo://app?vid=cda151f2-9ad2-46c9-9115-b73ba9a06619","ios":"levelo://app?vid=cda151f2-9ad2-46c9-9115-b73ba9a06619"},"vehicle_type_id":"4","last_reported":1702821956,"current_range_meters":0,"station_id":"","pricing_plan_id":"free"},{"bike_id":"e8e68204-ea7e-4613-bea5-c9bc902b591a","system_id":"levelo_inurba_marseille","lat":43.25102,"lon":5.403214,"is_reserved":false,"is_disabled":false,"rental_uris":{"android":"levelo://app?vid=e8e68204-ea7e-4613-bea5-c9bc902b591a","ios":"levelo://app?vid=e8e68204-ea7e-4613-bea5-c9bc902b591a"},"vehicle_type_id":"4","last_reported":1702821956,"current_range_meters":10400,"station_id":"ce4bhlh2rcd13ifvqgig","pricing_plan_id":"free"},{"bike_id":"4aec8f58-efa2-448b-8f5b-5f444c47e5e5","system_id":"levelo_inurba_marseille","lat":43.25102,"lon":5.403214,"is_reserved":false,"is_disabled":false,"rental_uris":{"android":"levelo://app?vid=4aec8f58-efa2-448b-8f5b-5f444c47e5e5","ios":"levelo://app?vid=4aec8f58-efa2-448b-8f5b-5f444c47e5e5"},"vehicle_type_id":"4","last_reported":1702821956,"current_range_meters":11200,"station_id":"ce4bhlh2rcd13ifvqgig","pricing_plan_id":"free"},{"bike_id":"4d1a019e-fdef-4b9d-a8bf-ac159288be0c","system_id":"levelo_inurba_marseille","lat":43.25102,"lon":5.403214,"is_reserved":false,"is_disabled":false,"rental_uris":{"android":"levelo://app?vid=4d1a019e-fdef-4b9d-a8bf-ac159288be0c","ios":"levelo://app?vid=4d1a019e-fdef-4b9d-a8bf-ac159288be0c"},"vehicle_type_id":"4","last_reported":1702821956,"current_range_meters":23200,"station_id":"ce4bhlh2rcd13ifvqgig","pricing_plan_id":"free"},{"bike_id":"7084b186-9844-43b1-92e3-50ac5f88c779","system_id":"levelo_inurba_marseille","lat":43.246461,"lon":5.389014,"is_reserved":false,"is_disabled":false,"rental_uris":{"android":"levelo://app?vid=7084b186-9844-43b1-92e3-50ac5f88c779","ios":"levelo://app?vid=7084b186-9844-43b1-92e3-50ac5f88c779"},"vehicle_type_id":"4","last_reported":1702821956,"current_range_meters":18000,"station_id":"ce4bhg12rcd13ifvqf60","pricing_plan_id":"free"},{"bike_id":"9fca151b-c7e1-4d9e-a3ab-a5c3d18fa366","system_id":"levelo_inurba_marseille","lat":43.246461,"lon":5.389014,"is_reserved":false,"is_disabled":false,"rental_uris":{"android":"levelo://app?vid=9fca151b-c7e1-4d9e-a3ab-a5c3d18fa366","ios":"levelo://app?vid=9fca151b-c7e1-4d9e-a3ab-a5c3d18fa366"},"vehicle_type_id":"4","last_reported":1702821956,"current_range_meters":27600,"station_id":"ce4bhg12rcd13ifvqf60","pricing_plan_id":"free"},{"bike_id":"bc216731-560f-4b50-89a4-c23a33e8f426","system_id":"levelo_inurba_marseille","lat":43.24395,"lon":5.3707,"is_reserved":false,"is_disabled":false,"rental_uris":{"android":"levelo://app?vid=bc216731-560f-4b50-89a4-c23a33e8f426","ios":"levelo://app?vid=bc216731-560f-4b50-89a4-c23a33e8f426"},"vehicle_type_id":"4","last_reported":1702821956,"current_range_meters":20400,"station_id":"ce4bhhh2rcd13ifvqfk0","pricing_plan_id":"free"},{"bike_id":"5171abc0-176b-4095-b8f7-136aa02ef30c","system_id":"levelo_inurba_marseille","lat":43.245581,"lon":5.395069,"is_reserved":false,"is_disabled":false,"rental_uris":{"android":"levelo://app?vid=5171abc0-176b-4095-b8f7-136aa02ef30c","ios":"levelo://app?vid=5171abc0-176b-4095-b8f7-136aa02ef30c"},"vehicle_type_id":"4","last_reported":1702821956,"current_range_meters":22800,"station_id":"ce4bhlp2rcd13ifvqgjg","pricing_plan_id":"free"},{"bike_id":"2d1bda45-01a0-4cc8-9b66-ed2d284860d1","system_id":"levelo_inurba_marseille","lat":43.245581,"lon":5.395069,"is_reserved":false,"is_disabled":false,"rental_uris":{"android":"levelo://app?vid=2d1bda45-01a0-4cc8-9b66-ed2d284860d1","ios":"levelo://app?vid=2d1bda45-01a0-4cc8-9b66-ed2d284860d1"},"vehicle_type_id":"4","last_reported":1702821956,"current_range_meters":24400,"station_id":"ce4bhlp2rcd13ifvqgjg","pricing_plan_id":"free"},{"bike_id":"04333794-5cb5-4282-8637-41cb4908f2fb","system_id":"levelo_inurba_marseille","lat":43.24077,"lon":5.3775,"is_reserved":false,"is_disabled":false,"rental_uris":{"android":"levelo://app?vid=04333794-5cb5-4282-8637-41cb4908f2fb","ios":"levelo://app?vid=04333794-5cb5-4282-8637-41cb4908f2fb"},"vehicle_type_id":"4","last_reported":1702821956,"current_range_meters":9200,"station_id":"ce4bhnp2rcd13ifvqgvg","pricing_plan_id":"free"},{"bike_id":"99dddd79-2a07-4af0-a550-fe20dbb7cfbb","system_id":"levelo_inurba_marseille","lat":43.239588,"lon":5.366238,"is_reserved":false,"is_disabled":false,"rental_uris":{"android":"levelo://app?vid=99dddd79-2a07-4af0-a550-fe20dbb7cfbb","ios":"levelo://app?vid=99dddd79-2a07-4af0-a550-fe20dbb7cfbb"},"vehicle_type_id":"4","last_reported":1702821956,"current_range_meters":31600,"station_id":"ce4bhi12rcd13ifvqfp0","pricing_plan_id":"free"},{"bike_id":"faa31a7e-54c4-4e18-86c2-0c32117bc5eb","system_id":"levelo_inurba_marseille","lat":43.239588,"lon":5.366238,"is_reserved":false,"is_disabled":false,"rental_uris":{"android":"levelo://app?vid=faa31a7e-54c4-4e18-86c2-0c32117bc5eb","ios":"levelo://app?vid=faa31a7e-54c4-4e18-86c2-0c32117bc5eb"},"vehicle_type_id":"4","last_reported":1702821956,"current_range_meters":31600,"station_id":"ce4bhi12rcd13ifvqfp0","pricing_plan_id":"free"},{"bike_id":"052cba09-9723-4747-98d9-a70412aa9e3b","system_id":"levelo_inurba_marseille","lat":43.23965,"lon":5.3663,"is_reserved":false,"is_disabled":false,"rental_uris":{"android":"levelo://app?vid=052cba09-9723-4747-98d9-a70412aa9e3b","ios":"levelo://app?vid=052cba09-9723-4747-98d9-a70412aa9e3b"},"vehicle_type_id":"4","last_reported":1702821956,"current_range_meters":22400,"station_id":"ce4bhi12rcd13ifvqfp0","pricing_plan_id":"free"},{"bike_id":"23d837c6-d638-457e-90aa-163ac6a13346","system_id":"levelo_inurba_marseille","lat":43.239588,"lon":5.366238,"is_reserved":false,"is_disabled":false,"rental_uris":{"android":"levelo://app?vid=23d837c6-d638-457e-90aa-163ac6a13346","ios":"levelo://app?vid=23d837c6-d638-457e-90aa-163ac6a13346"},"vehicle_type_id":"4","last_reported":1702821956,"current_range_meters":22800,"station_id":"ce4bhi12rcd13ifvqfp0","pricing_plan_id":"free"},{"bike_id":"7730620f-a9e2-4b07-acc8-c4873c875b7d","system_id":"levelo_inurba_marseille","lat":43.239623,"lon":5.36639,"is_reserved":false,"is_disabled":false,"rental_uris":{"android":"levelo://app?vid=7730620f-a9e2-4b07-acc8-c4873c875b7d","ios":"levelo://app?vid=7730620f-a9e2-4b07-acc8-c4873c875b7d"},"vehicle_type_id":"4","last_reported":1702821956,"current_range_meters":18800,"station_id":"ce4bhi12rcd13ifvqfp0","pricing_plan_id":"free"},{"bike_id":"c6d9dfd2-a539-439d-8118-546d7460c24f","system_id":"levelo_inurba_marseille","lat":43.23962,"lon":5.36639,"is_reserved":false,"is_disabled":false,"rental_uris":{"android":"levelo://app?vid=c6d9dfd2-a539-439d-8118-546d7460c24f","ios":"levelo://app?vid=c6d9dfd2-a539-439d-8118-546d7460c24f"},"vehicle_type_id":"4","last_reported":1702821956,"current_range_meters":16400,"station_id":"ce4bhi12rcd13ifvqfp0","pricing_plan_id":"free"},{"bike_id":"947bd8ef-34e9-47ae-9f34-7d97f76cae41","system_id":"levelo_inurba_marseille","lat":43.23961,"lon":5.36627,"is_reserved":false,"is_disabled":false,"rental_uris":{"android":"levelo://app?vid=947bd8ef-34e9-47ae-9f34-7d97f76cae41","ios":"levelo://app?vid=947bd8ef-34e9-47ae-9f34-7d97f76cae41"},"vehicle_type_id":"4","last_reported":1702821956,"current_range_meters":1600,"station_id":"","pricing_plan_id":"free"},{"bike_id":"4f826f04-7f81-47bd-a9a8-a8b5839ca942","system_id":"levelo_inurba_marseille","lat":43.23961,"lon":5.36624,"is_reserved":false,"is_disabled":false,"rental_uris":{"android":"levelo://app?vid=4f826f04-7f81-47bd-a9a8-a8b5839ca942","ios":"levelo://app?vid=4f826f04-7f81-47bd-a9a8-a8b5839ca942"},"vehicle_type_id":"4","last_reported":1702821956,"current_range_meters":22800,"station_id":"ce4bhi12rcd13ifvqfp0","pricing_plan_id":"free"},{"bike_id":"958f4ef7-1020-4ccd-8ff6-04ad9bdde8bf","system_id":"levelo_inurba_marseille","lat":43.2396,"lon":5.36632,"is_reserved":false,"is_disabled":false,"rental_uris":{"android":"levelo://app?vid=958f4ef7-1020-4ccd-8ff6-04ad9bdde8bf","ios":"levelo://app?vid=958f4ef7-1020-4ccd-8ff6-04ad9bdde8bf"},"vehicle_type_id":"4","last_reported":1702821956,"current_range_meters":31200,"station_id":"ce4bhi12rcd13ifvqfp0","pricing_plan_id":"free"},{"bike_id":"c9074b87-4262-4412-9d82-f62d3786e247","system_id":"levelo_inurba_marseille","lat":43.23959,"lon":5.36647,"is_reserved":false,"is_disabled":false,"rental_uris":{"android":"levelo://app?vid=c9074b87-4262-4412-9d82-f62d3786e247","ios":"levelo://app?vid=c9074b87-4262-4412-9d82-f62d3786e247"},"vehicle_type_id":"4","last_reported":1702821956,"current_range_meters":31200,"station_id":"ce4bhi12rcd13ifvqfp0","pricing_plan_id":"free"},{"bike_id":"391d21ee-50f4-4ad5-9205-d2446648b03a","system_id":"levelo_inurba_marseille","lat":43.23956,"lon":5.36631,"is_reserved":false,"is_disabled":false,"rental_uris":{"android":"levelo://app?vid=391d21ee-50f4-4ad5-9205-d2446648b03a","ios":"levelo://app?vid=391d21ee-50f4-4ad5-9205-d2446648b03a"},"vehicle_type_id":"4","last_reported":1702821956,"current_range_meters":28800,"station_id":"ce4bhi12rcd13ifvqfp0","pricing_plan_id":"free"},{"bike_id":"630cf2f9-baf1-4860-be47-7a66ce2ac839","system_id":"levelo_inurba_marseille","lat":43.23955,"lon":5.36627,"is_reserved":false,"is_disabled":false,"rental_uris":{"android":"levelo://app?vid=630cf2f9-baf1-4860-be47-7a66ce2ac839","ios":"levelo://app?vid=630cf2f9-baf1-4860-be47-7a66ce2ac839"},"vehicle_type_id":"4","last_reported":1702821956,"current_range_meters":24400,"station_id":"ce4bhi12rcd13ifvqfp0","pricing_plan_id":"free"},{"bike_id":"d1a8358e-ea35-4d8f-bb74-cb28961860a8","system_id":"levelo_inurba_marseille","lat":43.23954,"lon":5.36626,"is_reserved":false,"is_disabled":false,"rental_uris":{"android":"levelo://app?vid=d1a8358e-ea35-4d8f-bb74-cb28961860a8","ios":"levelo://app?vid=d1a8358e-ea35-4d8f-bb74-cb28961860a8"},"vehicle_type_id":"4","last_reported":1702821956,"current_range_meters":30800,"station_id":"ce4bhi12rcd13ifvqfp0","pricing_plan_id":"free"},{"bike_id":"60af8cfb-2398-4bdc-bab5-bcc8299c6c0d","system_id":"levelo_inurba_marseille","lat":43.231919,"lon":5.355532,"is_reserved":false,"is_disabled":false,"rental_uris":{"android":"levelo://app?vid=60af8cfb-2398-4bdc-bab5-bcc8299c6c0d","ios":"levelo://app?vid=60af8cfb-2398-4bdc-bab5-bcc8299c6c0d"},"vehicle_type_id":"4","last_reported":1702821956,"current_range_meters":31200,"station_id":"ce4bhu92rcd13ifvqi70","pricing_plan_id":"free"},{"bike_id":"944e4d09-cdd6-4b0c-b7b9-f8dd5ebd30de","system_id":"levelo_inurba_marseille","lat":43.23198,"lon":5.35559,"is_reserved":false,"is_disabled":false,"rental_uris":{"android":"levelo://app?vid=944e4d09-cdd6-4b0c-b7b9-f8dd5ebd30de","ios":"levelo://app?vid=944e4d09-cdd6-4b0c-b7b9-f8dd5ebd30de"},"vehicle_type_id":"4","last_reported":1702821956,"current_range_meters":31200,"station_id":"ce4bhu92rcd13ifvqi70","pricing_plan_id":"free"},{"bike_id":"0914bc04-89c8-46f4-bf04-78aea5230869","system_id":"levelo_inurba_marseille","lat":43.231919,"lon":5.355532,"is_reserved":false,"is_disabled":false,"rental_uris":{"android":"levelo://app?vid=0914bc04-89c8-46f4-bf04-78aea5230869","ios":"levelo://app?vid=0914bc04-89c8-46f4-bf04-78aea5230869"},"vehicle_type_id":"4","last_reported":1702821956,"current_range_meters":26000,"station_id":"ce4bhu92rcd13ifvqi70","pricing_plan_id":"free"},{"bike_id":"56dee7e6-1189-4420-98f7-78158f1ad0b3","system_id":"levelo_inurba_marseille","lat":43.23198,"lon":5.35551,"is_reserved":false,"is_disabled":false,"rental_uris":{"android":"levelo://app?vid=56dee7e6-1189-4420-98f7-78158f1ad0b3","ios":"levelo://app?vid=56dee7e6-1189-4420-98f7-78158f1ad0b3"},"vehicle_type_id":"4","last_reported":1702821956,"current_range_meters":26800,"station_id":"ce4bhu92rcd13ifvqi70","pricing_plan_id":"free"},{"bike_id":"fd025fad-df70-4c4b-a2a3-f07d679d8398","system_id":"levelo_inurba_marseille","lat":43.23197,"lon":5.3556,"is_reserved":false,"is_disabled":false,"rental_uris":{"android":"levelo://app?vid=fd025fad-df70-4c4b-a2a3-f07d679d8398","ios":"levelo://app?vid=fd025fad-df70-4c4b-a2a3-f07d679d8398"},"vehicle_type_id":"4","last_reported":1702821956,"current_range_meters":17200,"station_id":"ce4bhu92rcd13ifvqi70","pricing_plan_id":"free"},{"bike_id":"c58c2105-152a-4be3-96b7-ef7d8114d5d4","system_id":"levelo_inurba_marseille","lat":43.231919,"lon":5.355532,"is_reserved":false,"is_disabled":false,"rental_uris":{"android":"levelo://app?vid=c58c2105-152a-4be3-96b7-ef7d8114d5d4","ios":"levelo://app?vid=c58c2105-152a-4be3-96b7-ef7d8114d5d4"},"vehicle_type_id":"4","last_reported":1702821956,"current_range_meters":13200,"station_id":"ce4bhu92rcd13ifvqi70","pricing_plan_id":"free"},{"bike_id":"c53a2a92-e1e0-4270-9ace-bc6f2376443e","system_id":"levelo_inurba_marseille","lat":43.231923,"lon":5.355545,"is_reserved":false,"is_disabled":false,"rental_uris":{"android":"levelo://app?vid=c53a2a92-e1e0-4270-9ace-bc6f2376443e","ios":"levelo://app?vid=c53a2a92-e1e0-4270-9ace-bc6f2376443e"},"vehicle_type_id":"4","last_reported":1702821956,"current_range_meters":21600,"station_id":"ce4bhu92rcd13ifvqi70","pricing_plan_id":"free"},{"bike_id":"f5cfb89a-ce48-405c-82ee-5a941b48c540","system_id":"levelo_inurba_marseille","lat":43.231919,"lon":5.355532,"is_reserved":false,"is_disabled":false,"rental_uris":{"android":"levelo://app?vid=f5cfb89a-ce48-405c-82ee-5a941b48c540","ios":"levelo://app?vid=f5cfb89a-ce48-405c-82ee-5a941b48c540"},"vehicle_type_id":"4","last_reported":1702821956,"current_range_meters":18800,"station_id":"ce4bhu92rcd13ifvqi70","pricing_plan_id":"free"},{"bike_id":"ba0933b1-d7ab-49e9-a8be-d9339226b8e3","system_id":"levelo_inurba_marseille","lat":43.231919,"lon":5.355532,"is_reserved":false,"is_disabled":false,"rental_uris":{"android":"levelo://app?vid=ba0933b1-d7ab-49e9-a8be-d9339226b8e3","ios":"levelo://app?vid=ba0933b1-d7ab-49e9-a8be-d9339226b8e3"},"vehicle_type_id":"4","last_reported":1702821956,"current_range_meters":24400,"station_id":"ce4bhu92rcd13ifvqi70","pricing_plan_id":"free"},{"bike_id":"e4f94050-aae1-4821-b78a-030e7070af2a","system_id":"levelo_inurba_marseille","lat":43.231919,"lon":5.355532,"is_reserved":false,"is_disabled":false,"rental_uris":{"android":"levelo://app?vid=e4f94050-aae1-4821-b78a-030e7070af2a","ios":"levelo://app?vid=e4f94050-aae1-4821-b78a-030e7070af2a"},"vehicle_type_id":"4","last_reported":1702821956,"current_range_meters":15600,"station_id":"ce4bhu92rcd13ifvqi70","pricing_plan_id":"free"},{"bike_id":"6407938b-389d-4533-9ecb-2228594d1ac0","system_id":"levelo_inurba_marseille","lat":43.231919,"lon":5.355532,"is_reserved":false,"is_disabled":false,"rental_uris":{"android":"levelo://app?vid=6407938b-389d-4533-9ecb-2228594d1ac0","ios":"levelo://app?vid=6407938b-389d-4533-9ecb-2228594d1ac0"},"vehicle_type_id":"4","last_reported":1702821956,"current_range_meters":16000,"station_id":"ce4bhu92rcd13ifvqi70","pricing_plan_id":"free"},{"bike_id":"1f737c7f-2974-4922-9313-bee27508e56d","system_id":"levelo_inurba_marseille","lat":43.23195,"lon":5.35553,"is_reserved":false,"is_disabled":false,"rental_uris":{"android":"levelo://app?vid=1f737c7f-2974-4922-9313-bee27508e56d","ios":"levelo://app?vid=1f737c7f-2974-4922-9313-bee27508e56d"},"vehicle_type_id":"4","last_reported":1702821956,"current_range_meters":24400,"station_id":"ce4bhu92rcd13ifvqi70","pricing_plan_id":"free"},{"bike_id":"deb8549c-895f-4c6d-b68c-130ea343f1e6","system_id":"levelo_inurba_marseille","lat":43.23194,"lon":5.35555,"is_reserved":false,"is_disabled":false,"rental_uris":{"android":"levelo://app?vid=deb8549c-895f-4c6d-b68c-130ea343f1e6","ios":"levelo://app?vid=deb8549c-895f-4c6d-b68c-130ea343f1e6"},"vehicle_type_id":"4","last_reported":1702821956,"current_range_meters":20000,"station_id":"ce4bhu92rcd13ifvqi70","pricing_plan_id":"free"},{"bike_id":"3dd05bbe-7d4d-4d5f-b9a9-4266846c777b","system_id":"levelo_inurba_marseille","lat":43.231919,"lon":5.355532,"is_reserved":false,"is_disabled":false,"rental_uris":{"android":"levelo://app?vid=3dd05bbe-7d4d-4d5f-b9a9-4266846c777b","ios":"levelo://app?vid=3dd05bbe-7d4d-4d5f-b9a9-4266846c777b"},"vehicle_type_id":"4","last_reported":1702821956,"current_range_meters":30800,"station_id":"ce4bhu92rcd13ifvqi70","pricing_plan_id":"free"},{"bike_id":"01900f06-0595-4b94-be0c-dc394cad7cc7","system_id":"levelo_inurba_marseille","lat":43.23194,"lon":5.35552,"is_reserved":false,"is_disabled":false,"rental_uris":{"android":"levelo://app?vid=01900f06-0595-4b94-be0c-dc394cad7cc7","ios":"levelo://app?vid=01900f06-0595-4b94-be0c-dc394cad7cc7"},"vehicle_type_id":"4","last_reported":1702821956,"current_range_meters":31200,"station_id":"ce4bhu92rcd13ifvqi70","pricing_plan_id":"free"},{"bike_id":"9abeec97-e84e-490c-b252-4ec253961478","system_id":"levelo_inurba_marseille","lat":43.23193,"lon":5.35563,"is_reserved":false,"is_disabled":false,"rental_uris":{"android":"levelo://app?vid=9abeec97-e84e-490c-b252-4ec253961478","ios":"levelo://app?vid=9abeec97-e84e-490c-b252-4ec253961478"},"vehicle_type_id":"4","last_reported":1702821956,"current_range_meters":31200,"station_id":"ce4bhu92rcd13ifvqi70","pricing_plan_id":"free"},{"bike_id":"00322b22-de45-4809-9160-dde787a1e848","system_id":"levelo_inurba_marseille","lat":43.23193,"lon":5.35558,"is_reserved":false,"is_disabled":false,"rental_uris":{"android":"levelo://app?vid=00322b22-de45-4809-9160-dde787a1e848","ios":"levelo://app?vid=00322b22-de45-4809-9160-dde787a1e848"},"vehicle_type_id":"4","last_reported":1702821956,"current_range_meters":15600,"station_id":"ce4bhu92rcd13ifvqi70","pricing_plan_id":"free"},{"bike_id":"79ddd983-a8fc-494d-84c2-53aea6d96edf","system_id":"levelo_inurba_marseille","lat":43.231919,"lon":5.355532,"is_reserved":false,"is_disabled":false,"rental_uris":{"android":"levelo://app?vid=79ddd983-a8fc-494d-84c2-53aea6d96edf","ios":"levelo://app?vid=79ddd983-a8fc-494d-84c2-53aea6d96edf"},"vehicle_type_id":"4","last_reported":1702821956,"current_range_meters":30400,"station_id":"ce4bhu92rcd13ifvqi70","pricing_plan_id":"free"},{"bike_id":"88183f8f-6cfd-40de-8cc1-7a06f9af572e","system_id":"levelo_inurba_marseille","lat":43.231919,"lon":5.355532,"is_reserved":false,"is_disabled":false,"rental_uris":{"android":"levelo://app?vid=88183f8f-6cfd-40de-8cc1-7a06f9af572e","ios":"levelo://app?vid=88183f8f-6cfd-40de-8cc1-7a06f9af572e"},"vehicle_type_id":"4","last_reported":1702821956,"current_range_meters":31200,"station_id":"ce4bhu92rcd13ifvqi70","pricing_plan_id":"free"},{"bike_id":"be641546-dcea-4309-ad5a-32c7507f146a","system_id":"levelo_inurba_marseille","lat":43.231919,"lon":5.355532,"is_reserved":false,"is_disabled":false,"rental_uris":{"android":"levelo://app?vid=be641546-dcea-4309-ad5a-32c7507f146a","ios":"levelo://app?vid=be641546-dcea-4309-ad5a-32c7507f146a"},"vehicle_type_id":"4","last_reported":1702821956,"current_range_meters":23200,"station_id":"ce4bhu92rcd13ifvqi70","pricing_plan_id":"free"},{"bike_id":"e84f6252-dfd2-4688-b914-9eca8c7cdb93","system_id":"levelo_inurba_marseille","lat":43.23193,"lon":5.35545,"is_reserved":false,"is_disabled":false,"rental_uris":{"android":"levelo://app?vid=e84f6252-dfd2-4688-b914-9eca8c7cdb93","ios":"levelo://app?vid=e84f6252-dfd2-4688-b914-9eca8c7cdb93"},"vehicle_type_id":"4","last_reported":1702821956,"current_range_meters":20800,"station_id":"ce4bhu92rcd13ifvqi70","pricing_plan_id":"free"},{"bike_id":"191f6f0b-4018-4bda-bc6a-a26820373ad5","system_id":"levelo_inurba_marseille","lat":43.23192,"lon":5.35555,"is_reserved":false,"is_disabled":false,"rental_uris":{"android":"levelo://app?vid=191f6f0b-4018-4bda-bc6a-a26820373ad5","ios":"levelo://app?vid=191f6f0b-4018-4bda-bc6a-a26820373ad5"},"vehicle_type_id":"4","last_reported":1702821956,"current_range_meters":27200,"station_id":"ce4bhu92rcd13ifvqi70","pricing_plan_id":"free"},{"bike_id":"8bde1f20-3114-431c-b2df-22d6e7b7655a","system_id":"levelo_inurba_marseille","lat":43.231919,"lon":5.355532,"is_reserved":false,"is_disabled":false,"rental_uris":{"android":"levelo://app?vid=8bde1f20-3114-431c-b2df-22d6e7b7655a","ios":"levelo://app?vid=8bde1f20-3114-431c-b2df-22d6e7b7655a"},"vehicle_type_id":"4","last_reported":1702821956,"current_range_meters":30400,"station_id":"ce4bhu92rcd13ifvqi70","pricing_plan_id":"free"},{"bike_id":"8fa1218a-276f-41e7-a579-8c2ed931a2f9","system_id":"levelo_inurba_marseille","lat":43.231794,"lon":5.400052,"is_reserved":false,"is_disabled":false,"rental_uris":{"android":"levelo://app?vid=8fa1218a-276f-41e7-a579-8c2ed931a2f9","ios":"levelo://app?vid=8fa1218a-276f-41e7-a579-8c2ed931a2f9"},"vehicle_type_id":"4","last_reported":1702821956,"current_range_meters":18800,"station_id":"ce4bhn12rcd13ifvqgqg","pricing_plan_id":"free"},{"bike_id":"f01df4f9-4c07-49f3-8959-762b34cdbe6c","system_id":"levelo_inurba_marseille","lat":43.231793,"lon":5.400044,"is_reserved":false,"is_disabled":false,"rental_uris":{"android":"levelo://app?vid=f01df4f9-4c07-49f3-8959-762b34cdbe6c","ios":"levelo://app?vid=f01df4f9-4c07-49f3-8959-762b34cdbe6c"},"vehicle_type_id":"4","last_reported":1702821956,"current_range_meters":29200,"station_id":"ce4bhn12rcd13ifvqgqg","pricing_plan_id":"free"},{"bike_id":"d5206a6c-92a9-4a75-8859-313a2b40fcd2","system_id":"levelo_inurba_marseille","lat":43.231793,"lon":5.400044,"is_reserved":false,"is_disabled":false,"rental_uris":{"android":"levelo://app?vid=d5206a6c-92a9-4a75-8859-313a2b40fcd2","ios":"levelo://app?vid=d5206a6c-92a9-4a75-8859-313a2b40fcd2"},"vehicle_type_id":"4","last_reported":1702821956,"current_range_meters":31600,"station_id":"ce4bhn12rcd13ifvqgqg","pricing_plan_id":"free"},{"bike_id":"3ee0ea00-8e05-48c0-a38d-caf8a81146cd","system_id":"levelo_inurba_marseille","lat":43.231794,"lon":5.400052,"is_reserved":false,"is_disabled":false,"rental_uris":{"android":"levelo://app?vid=3ee0ea00-8e05-48c0-a38d-caf8a81146cd","ios":"levelo://app?vid=3ee0ea00-8e05-48c0-a38d-caf8a81146cd"},"vehicle_type_id":"4","last_reported":1702821956,"current_range_meters":31200,"station_id":"ce4bhn12rcd13ifvqgqg","pricing_plan_id":"free"},{"bike_id":"82b0b121-d2e6-4f04-8530-97cda8a0fbcd","system_id":"levelo_inurba_marseille","lat":43.231794,"lon":5.400052,"is_reserved":false,"is_disabled":false,"rental_uris":{"android":"levelo://app?vid=82b0b121-d2e6-4f04-8530-97cda8a0fbcd","ios":"levelo://app?vid=82b0b121-d2e6-4f04-8530-97cda8a0fbcd"},"vehicle_type_id":"4","last_reported":1702821956,"current_range_meters":31600,"station_id":"ce4bhn12rcd13ifvqgqg","pricing_plan_id":"free"},{"bike_id":"6e314437-e406-44bb-9c7a-b82c090183e0","system_id":"levelo_inurba_marseille","lat":43.231794,"lon":5.400052,"is_reserved":false,"is_disabled":false,"rental_uris":{"android":"levelo://app?vid=6e314437-e406-44bb-9c7a-b82c090183e0","ios":"levelo://app?vid=6e314437-e406-44bb-9c7a-b82c090183e0"},"vehicle_type_id":"4","last_reported":1702821956,"current_range_meters":25200,"station_id":"ce4bhn12rcd13ifvqgqg","pricing_plan_id":"free"},{"bike_id":"9be4aa80-16c6-496b-85c8-4af18fb2a1ba","system_id":"levelo_inurba_marseille","lat":43.231562,"lon":5.436933,"is_reserved":false,"is_disabled":false,"rental_uris":{"android":"levelo://app?vid=9be4aa80-16c6-496b-85c8-4af18fb2a1ba","ios":"levelo://app?vid=9be4aa80-16c6-496b-85c8-4af18fb2a1ba"},"vehicle_type_id":"4","last_reported":1702821956,"current_range_meters":23600,"station_id":"ce4bhmp2rcd13ifvqgog","pricing_plan_id":"free"},{"bike_id":"a45a64c1-651d-4ed9-82ae-e5cc79b54a6d","system_id":"levelo_inurba_marseille","lat":43.231562,"lon":5.436933,"is_reserved":false,"is_disabled":false,"rental_uris":{"android":"levelo://app?vid=a45a64c1-651d-4ed9-82ae-e5cc79b54a6d","ios":"levelo://app?vid=a45a64c1-651d-4ed9-82ae-e5cc79b54a6d"},"vehicle_type_id":"4","last_reported":1702821956,"current_range_meters":4000,"station_id":"ce4bhmp2rcd13ifvqgog","pricing_plan_id":"free"},{"bike_id":"e3a31995-6e8a-468c-82cd-596628dd184b","system_id":"levelo_inurba_marseille","lat":43.231562,"lon":5.436933,"is_reserved":false,"is_disabled":false,"rental_uris":{"android":"levelo://app?vid=e3a31995-6e8a-468c-82cd-596628dd184b","ios":"levelo://app?vid=e3a31995-6e8a-468c-82cd-596628dd184b"},"vehicle_type_id":"4","last_reported":1702821956,"current_range_meters":31600,"station_id":"ce4bhmp2rcd13ifvqgog","pricing_plan_id":"free"},{"bike_id":"a3fe5a44-9734-463b-a9aa-efffb1c271cf","system_id":"levelo_inurba_marseille","lat":43.231562,"lon":5.436933,"is_reserved":false,"is_disabled":false,"rental_uris":{"android":"levelo://app?vid=a3fe5a44-9734-463b-a9aa-efffb1c271cf","ios":"levelo://app?vid=a3fe5a44-9734-463b-a9aa-efffb1c271cf"},"vehicle_type_id":"4","last_reported":1702821956,"current_range_meters":24000,"station_id":"ce4bhmp2rcd13ifvqgog","pricing_plan_id":"free"},{"bike_id":"e5d672a6-c42d-4bc0-9c21-0a66c6af6cbd","system_id":"levelo_inurba_marseille","lat":43.231562,"lon":5.436933,"is_reserved":false,"is_disabled":false,"rental_uris":{"android":"levelo://app?vid=e5d672a6-c42d-4bc0-9c21-0a66c6af6cbd","ios":"levelo://app?vid=e5d672a6-c42d-4bc0-9c21-0a66c6af6cbd"},"vehicle_type_id":"4","last_reported":1702821956,"current_range_meters":22800,"station_id":"ce4bhmp2rcd13ifvqgog","pricing_plan_id":"free"},