{"last_updated":1692896760,"ttl":30,"version":"2.2","data":{"bikes":[{"bike_id":"65674239-bfb7-4928-84de-b7277febf7c2","system_id":"levelo_inurba_marseille","lat":43.312239,"lon":5.368562,"is_reserved":false,"is_disabled":false,"rental_uris":{"android":"levelo://app?vid=65674239-bfb7-4928-84de-b7277febf7c2","ios":"levelo://app?vid=65674239-bfb7-4928-84de-b7277febf7c2"},"vehicle_type_id":"4","last_reported":1692896761,"current_range_meters":22000,"station_id":"ce4bgl92rcd13ifvqbq0","pricing_plan_id":"free"},{"bike_id":"f22ca441-4e4e-4660-b824-b2f46943e54d","system_id":"levelo_inurba_marseille","lat":43.312239,"lon":5.368562,"is_reserved":false,"is_disabled":false,"rental_uris":{"android":"levelo://app?vid=f22ca441-4e4e-4660-b824-b2f46943e54d","ios":"levelo://app?vid=f22ca441-4e4e-4660-b824-b2f46943e54d"},"vehicle_type_id":"4","last_reported":1692896761,"current_range_meters":31200,"station_id":"ce4bgl92rcd13ifvqbq0","pricing_plan_id":"free"},{"bike_id":"d2be997d-44d2-40a5-bb20-02aeaaf65fa5","system_id":"levelo_inurba_marseille","lat":43.314811,"lon":5.373103,"is_reserved":false,"is_disabled":false,"rental_uris":{"android":"levelo://app?vid=d2be997d-44d2-40a5-bb20-02aeaaf65fa5","ios":"levelo://app?vid=d2be997d-44d2-40a5-bb20-02aeaaf65fa5"},"vehicle_type_id":"4","last_reported":1692896761,"current_range_meters":30800,"station_id":"ce4bgt12rcd13ifvqcd0","pricing_plan_id":"free"},{"bike_id":"d0071c56-d4ff-427f-ae6c-0f76f01b869e","system_id":"levelo_inurba_marseille","lat":43.309039,"lon":5.371797,"is_reserved":false,"is_disabled":false,"rental_uris":{"android":"levelo://app?vid=d0071c56-d4ff-427f-ae6c-0f76f01b869e","ios":"levelo://app?vid=d0071c56-d4ff-427f-ae6c-0f76f01b869e"},"vehicle_type_id":"4","last_reported":1692896761,"current_range_meters":0,"station_id":"ce4bguh2rcd13ifvqckg","pricing_plan_id":"free"},{"bike_id":"60f3f744-8096-429d-a17e-6dbcf6b9a0db","system_id":"levelo_inurba_marseille","lat":43.30537,"lon":5.36709,"is_reserved":false,"is_disabled":false,"rental_uris":{"android":"levelo://app?vid=60f3f744-8096-429d-a17e-6dbcf6b9a0db","ios":"levelo://app?vid=60f3f744-8096-429d-a17e-6dbcf6b9a0db"},"vehicle_type_id":"4","last_reported":1692896761,"current_range_meters":26000,"station_id":"ce4bgrp2rcd13ifvqc9g","pricing_plan_id":"free"},{"bike_id":"9bb989a7-d21e-4dfc-afcd-d5ac3602c505","system_id":"levelo_inurba_marseille","lat":43.270721,"lon":5.422764,"is_reserved":false,"is_disabled":false,"rental_uris":{"android":"levelo://app?vid=9bb989a7-d21e-4dfc-afcd-d5ac3602c505","ios":"levelo://app?vid=9bb989a7-d21e-4dfc-afcd-d5ac3602c505"},"vehicle_type_id":"4","last_reported":1692896761,"current_range_meters":5200,"station_id":"ce4bhk92rcd13ifvqgb0","pricing_plan_id":"free"},{"bike_id":"59ee1665-5d66-439a-8322-3ebb10704d04","system_id":"levelo_inurba_marseille","lat":43.30304,"lon":5.368987,"is_reserved":false,"is_disabled":false,"rental_uris":{"android":"levelo://app?vid=59ee1665-5d66-439a-8322-3ebb10704d04","ios":"levelo://app?vid=59ee1665-5d66-439a-8322-3ebb10704d04"},"vehicle_type_id":"4","last_reported":1692896761,"current_range_meters":31200,"station_id":"ce4bgqh2rcd13ifvqc5g","pricing_plan_id":"free"},{"bike_id":"abe37441-bfee-41d1-8a6f-fc27ccda9513","system_id":"levelo_inurba_marseille","lat":43.315293,"lon":5.380349,"is_reserved":false,"is_disabled":false,"rental_uris":{"android":"levelo://app?vid=abe37441-bfee-41d1-8a6f-fc27ccda9513","ios":"levelo://app?vid=abe37441-bfee-41d1-8a6f-fc27ccda9513"},"vehicle_type_id":"4","last_reported":1692896761,"current_range_meters":14400,"station_id":"ce4bhsp2rcd13ifvqi50","pricing_plan_id":"free"},{"bike_id":"5982ab2e-07e6-4f2f-a081-73968b26c8fa","system_id":"levelo_inurba_marseille","lat":43.315293,"lon":5.380349,"is_reserved":false,"is_disabled":false,"rental_uris":{"android":"levelo://app?vid=5982ab2e-07e6-4f2f-a081-73968b26c8fa","ios":"levelo://app?vid=5982ab2e-07e6-4f2f-a081-73968b26c8fa"},"vehicle_type_id":"4","last_reported":1692896761,"current_range_meters":22800,"station_id":"ce4bhsp2rcd13ifvqi50","pricing_plan_id":"free"},{"bike_id":"ae23c5ea-ff9c-4949-b07d-ac04d708f295","system_id":"levelo_inurba_marseille","lat":43.31535,"lon":5.38031,"is_reserved":false,"is_disabled":false,"rental_uris":{"android":"levelo://app?vid=ae23c5ea-ff9c-4949-b07d-ac04d708f295","ios":"levelo://app?vid=ae23c5ea-ff9c-4949-b07d-ac04d708f295"},"vehicle_type_id":"4","last_reported":1692896761,"current_range_meters":30800,"station_id":"ce4bhsp2rcd13ifvqi50","pricing_plan_id":"free"},{"bike_id":"4eade472-7afb-49db-9ee3-172c560e1fe0","system_id":"levelo_inurba_marseille","lat":43.31537,"lon":5.38031,"is_reserved":false,"is_disabled":false,"rental_uris":{"android":"levelo://app?vid=4eade472-7afb-49db-9ee3-172c560e1fe0","ios":"levelo://app?vid=4eade472-7afb-49db-9ee3-172c560e1fe0"},"vehicle_type_id":"4","last_reported":1692896761,"current_range_meters":31200,"station_id":"ce4bhsp2rcd13ifvqi50","pricing_plan_id":"free"},{"bike_id":"3661e5f6-9474-422f-abac-e9bf1d884c16","system_id":"levelo_inurba_marseille","lat":43.3154,"lon":5.3803,"is_reserved":false,"is_disabled":false,"rental_uris":{"android":"levelo://app?vid=3661e5f6-9474-422f-abac-e9bf1d884c16","ios":"levelo://app?vid=3661e5f6-9474-422f-abac-e9bf1d884c16"},"vehicle_type_id":"4","last_reported":1692896761,"current_range_meters":31200,"station_id":"ce4bhsp2rcd13ifvqi50","pricing_plan_id":"free"},{"bike_id":"c08f1b4f-a36e-4d10-adc0-670ab5b30659","system_id":"levelo_inurba_marseille","lat":43.31537,"lon":5.3804,"is_reserved":false,"is_disabled":false,"rental_uris":{"android":"levelo://app?vid=c08f1b4f-a36e-4d10-adc0-670ab5b30659","ios":"levelo://app?vid=c08f1b4f-a36e-4d10-adc0-670ab5b30659"},"vehicle_type_id":"4","last_reported":1692896761,"current_range_meters":20000,"station_id":"ce4bhsp2rcd13ifvqi50","pricing_plan_id":"free"},{"bike_id":"6860d59d-f401-44b1-b7a3-3f9ede53fd64","system_id":"levelo_inurba_marseille","lat":43.302077,"lon":5.36637,"is_reserved":false,"is_disabled":false,"rental_uris":{"android":"levelo://app?vid=6860d59d-f401-44b1-b7a3-3f9ede53fd64","ios":"levelo://app?vid=6860d59d-f401-44b1-b7a3-3f9ede53fd64"},"vehicle_type_id":"4","last_reported":1692896761,"current_range_meters":30000,"station_id":"ce4bgrh2rcd13ifvqc8g","pricing_plan_id":"free"},{"bike_id":"4b1ee8ab-c61b-4ab2-8115-547fd051d6c1","system_id":"levelo_inurba_marseille","lat":43.311131,"lon":5.377651,"is_reserved":false,"is_disabled":false,"rental_uris":{"android":"levelo://app?vid=4b1ee8ab-c61b-4ab2-8115-547fd051d6c1","ios":"levelo://app?vid=4b1ee8ab-c61b-4ab2-8115-547fd051d6c1"},"vehicle_type_id":"4","last_reported":1692896761,"current_range_meters":27200,"station_id":"ce4bgt92rcd13ifvqcg0","pricing_plan_id":"free"},{"bike_id":"24ebbae9-8d2c-4798-918b-6399a92f6af9","system_id":"levelo_inurba_marseille","lat":43.308012,"lon":5.381511,"is_reserved":false,"is_disabled":false,"rental_uris":{"android":"levelo://app?vid=24ebbae9-8d2c-4798-918b-6399a92f6af9","ios":"levelo://app?vid=24ebbae9-8d2c-4798-918b-6399a92f6af9"},"vehicle_type_id":"4","last_reported":1692896761,"current_range_meters":0,"station_id":"ce4bgt12rcd13ifvqce0","pricing_plan_id":"free"},{"bike_id":"4d999838-a9bd-4cf3-b81f-b86a606ac0ca","system_id":"levelo_inurba_marseille","lat":43.302784,"lon":5.377158,"is_reserved":false,"is_disabled":false,"rental_uris":{"android":"levelo://app?vid=4d999838-a9bd-4cf3-b81f-b86a606ac0ca","ios":"levelo://app?vid=4d999838-a9bd-4cf3-b81f-b86a606ac0ca"},"vehicle_type_id":"4","last_reported":1692896761,"current_range_meters":0,"station_id":"ce4bguh2rcd13ifvqcj0","pricing_plan_id":"free"},{"bike_id":"3272ddad-ff15-4bf7-a1f2-fa50600bbb7c","system_id":"levelo_inurba_marseille","lat":43.299222,"lon":5.365554,"is_reserved":false,"is_disabled":false,"rental_uris":{"android":"levelo://app?vid=3272ddad-ff15-4bf7-a1f2-fa50600bbb7c","ios":"levelo://app?vid=3272ddad-ff15-4bf7-a1f2-fa50600bbb7c"},"vehicle_type_id":"4","last_reported":1692896761,"current_range_meters":11600,"station_id":"ce4bgm92rcd13ifvqbr0","pricing_plan_id":"free"},{"bike_id":"95dc9ecf-047e-4c3a-bb12-a5676cb36ad4","system_id":"levelo_inurba_marseille","lat":43.3216,"lon":5.38166,"is_reserved":false,"is_disabled":false,"rental_uris":{"android":"levelo://app?vid=95dc9ecf-047e-4c3a-bb12-a5676cb36ad4","ios":"levelo://app?vid=95dc9ecf-047e-4c3a-bb12-a5676cb36ad4"},"vehicle_type_id":"4","last_reported":1692896761,"current_range_meters":0,"station_id":"","pricing_plan_id":"free"},{"bike_id":"ce5406d8-706b-4e54-a700-ed7dc4e81530","system_id":"levelo_inurba_marseille","lat":43.298433,"lon":5.362774,"is_reserved":false,"is_disabled":false,"rental_uris":{"android":"levelo://app?vid=ce5406d8-706b-4e54-a700-ed7dc4e81530","ios":"levelo://app?vid=ce5406d8-706b-4e54-a700-ed7dc4e81530"},"vehicle_type_id":"4","last_reported":1692896761,"current_range_meters":28000,"station_id":"ce4bgpp2rcd13ifvqc3g","pricing_plan_id":"free"},{"bike_id":"ea628102-f413-4421-a451-01c3055a1ca3","system_id":"levelo_inurba_marseille","lat":43.30541,"lon":5.38428,"is_reserved":false,"is_disabled":false,"rental_uris":{"android":"levelo://app?vid=ea628102-f413-4421-a451-01c3055a1ca3","ios":"levelo://app?vid=ea628102-f413-4421-a451-01c3055a1ca3"},"vehicle_type_id":"4","last_reported":1692896761,"current_range_meters":31200,"station_id":"ce4bgg92rcd13ifvqb30","pricing_plan_id":"free"},{"bike_id":"72026fd9-6cf9-4dc6-a44f-93d6d05e390e","system_id":"levelo_inurba_marseille","lat":43.298433,"lon":5.362774,"is_reserved":false,"is_disabled":false,"rental_uris":{"android":"levelo://app?vid=72026fd9-6cf9-4dc6-a44f-93d6d05e390e","ios":"levelo://app?vid=72026fd9-6cf9-4dc6-a44f-93d6d05e390e"},"vehicle_type_id":"4","last_reported":1692896761,"current_range_meters":5200,"station_id":"ce4bgpp2rcd13ifvqc3g","pricing_plan_id":"free"},{"bike_id":"5342e174-ca49-435b-b733-8dd03b01db3e","system_id":"levelo_inurba_marseille","lat":43.298433,"lon":5.362774,"is_reserved":false,"is_disabled":false,"rental_uris":{"android":"levelo://app?vid=5342e174-ca49-435b-b733-8dd03b01db3e","ios":"levelo://app?vid=5342e174-ca49-435b-b733-8dd03b01db3e"},"vehicle_type_id":"4","last_reported":1692896761,"current_range_meters":6400,"station_id":"ce4bgpp2rcd13ifvqc3g","pricing_plan_id":"free"},{"bike_id":"83b2c6d4-f369-44c2-80ec-57081dc6ceec","system_id":"levelo_inurba_marseille","lat":43.298433,"lon":5.362774,"is_reserved":false,"is_disabled":false,"rental_uris":{"android":"levelo://app?vid=83b2c6d4-f369-44c2-80ec-57081dc6ceec","ios":"levelo://app?vid=83b2c6d4-f369-44c2-80ec-57081dc6ceec"},"vehicle_type_id":"4","last_reported":1692896761,"current_range_meters":19200,"station_id":"ce4bgpp2rcd13ifvqc3g","pricing_plan_id":"free"},{"bike_id":"35eec3a1-aa54-4990-8eb4-78e6c0dd24d0","system_id":"levelo_inurba_marseille","lat":43.299243,"lon":5.374807,"is_reserved":false,"is_disabled":false,"rental_uris":{"android":"levelo://app?vid=35eec3a1-aa54-4990-8eb4-78e6c0dd24d0","ios":"levelo://app?vid=35eec3a1-aa54-4990-8eb4-78e6c0dd24d0"},"vehicle_type_id":"4","last_reported":1692896761,"current_range_meters":26000,"station_id":"ce4bgjh2rcd13ifvqbg0","pricing_plan_id":"free"},{"bike_id":"b885f463-e8c5-42cc-902f-7152167ce1c7","system_id":"levelo_inurba_marseille","lat":43.299243,"lon":5.374807,"is_reserved":false,"is_disabled":false,"rental_uris":{"android":"levelo://app?vid=b885f463-e8c5-42cc-902f-7152167ce1c7","ios":"levelo://app?vid=b885f463-e8c5-42cc-902f-7152167ce1c7"},"vehicle_type_id":"4","last_reported":1692896761,"current_range_meters":31200,"station_id":"ce4bgjh2rcd13ifvqbg0","pricing_plan_id":"free"},{"bike_id":"2f9e2def-2173-4eb4-a460-9a385f59debe","system_id":"levelo_inurba_marseille","lat":43.299243,"lon":5.37481,"is_reserved":false,"is_disabled":false,"rental_uris":{"android":"levelo://app?vid=2f9e2def-2173-4eb4-a460-9a385f59debe","ios":"levelo://app?vid=2f9e2def-2173-4eb4-a460-9a385f59debe"},"vehicle_type_id":"4","last_reported":1692896761,"current_range_meters":31200,"station_id":"ce4bgjh2rcd13ifvqbg0","pricing_plan_id":"free"},{"bike_id":"38b04131-5a71-4066-988d-ef18967fac34","system_id":"levelo_inurba_marseille","lat":43.328371,"lon":5.366909,"is_reserved":false,"is_disabled":false,"rental_uris":{"android":"levelo://app?vid=38b04131-5a71-4066-988d-ef18967fac34","ios":"levelo://app?vid=38b04131-5a71-4066-988d-ef18967fac34"},"vehicle_type_id":"4","last_reported":1692896761,"current_range_meters":30400,"station_id":"ce4bhs92rcd13ifvqi0g","pricing_plan_id":"free"},{"bike_id":"dd789220-e7b5-42c1-b9dc-dc4243148021","system_id":"levelo_inurba_marseille","lat":43.297163,"lon":5.365866,"is_reserved":false,"is_disabled":false,"rental_uris":{"android":"levelo://app?vid=dd789220-e7b5-42c1-b9dc-dc4243148021","ios":"levelo://app?vid=dd789220-e7b5-42c1-b9dc-dc4243148021"},"vehicle_type_id":"4","last_reported":1692896761,"current_range_meters":31200,"station_id":"ce4bgn12rcd13ifvqbt0","pricing_plan_id":"free"},{"bike_id":"c0f1fdf8-8693-4d4f-a248-41c778261b20","system_id":"levelo_inurba_marseille","lat":43.32834,"lon":5.36679,"is_reserved":false,"is_disabled":false,"rental_uris":{"android":"levelo://app?vid=c0f1fdf8-8693-4d4f-a248-41c778261b20","ios":"levelo://app?vid=c0f1fdf8-8693-4d4f-a248-41c778261b20"},"vehicle_type_id":"4","last_reported":1692896761,"current_range_meters":23600,"station_id":"ce4bhs92rcd13ifvqi0g","pricing_plan_id":"free"},{"bike_id":"7e754b2b-151b-4e41-9377-2eda24fce5ae","system_id":"levelo_inurba_marseille","lat":43.32835,"lon":5.36678,"is_reserved":false,"is_disabled":false,"rental_uris":{"android":"levelo://app?vid=7e754b2b-151b-4e41-9377-2eda24fce5ae","ios":"levelo://app?vid=7e754b2b-151b-4e41-9377-2eda24fce5ae"},"vehicle_type_id":"4","last_reported":1692896761,"current_range_meters":30800,"station_id":"ce4bhs92rcd13ifvqi0g","pricing_plan_id":"free"},{"bike_id":"fdcfe3db-d685-46ad-b150-ea687c42d925","system_id":"levelo_inurba_marseille","lat":43.297163,"lon":5.365866,"is_reserved":false,"is_disabled":false,"rental_uris":{"android":"levelo://app?vid=fdcfe3db-d685-46ad-b150-ea687c42d925","ios":"levelo://app?vid=fdcfe3db-d685-46ad-b150-ea687c42d925"},"vehicle_type_id":"4","last_reported":1692896761,"current_range_meters":400,"station_id":"ce4bgn12rcd13ifvqbt0","pricing_plan_id":"free"},{"bike_id":"bd0bd295-6ecc-40c4-a4d0-89f645593756","system_id":"levelo_inurba_marseille","lat":43.297163,"lon":5.365866,"is_reserved":false,"is_disabled":false,"rental_uris":{"android":"levelo://app?vid=bd0bd295-6ecc-40c4-a4d0-89f645593756","ios":"levelo://app?vid=bd0bd295-6ecc-40c4-a4d0-89f645593756"},"vehicle_type_id":"4","last_reported":1692896761,"current_range_meters":15200,"station_id":"ce4bgn12rcd13ifvqbt0","pricing_plan_id":"free"},{"bike_id":"9dd3a47a-685c-44e0-a946-fe6447cf516c","system_id":"levelo_inurba_marseille","lat":43.297163,"lon":5.365866,"is_reserved":false,"is_disabled":false,"rental_uris":{"android":"levelo://app?vid=9dd3a47a-685c-44e0-a946-fe6447cf516c","ios":"levelo://app?vid=9dd3a47a-685c-44e0-a946-fe6447cf516c"},"vehicle_type_id":"4","last_reported":1692896761,"current_range_meters":0,"station_id":"ce4bgn12rcd13ifvqbt0","pricing_plan_id":"free"},{"bike_id":"3cc5a155-68ed-4676-8c92-416bfc549c5d","system_id":"levelo_inurba_marseille","lat":43.2968,"lon":5.37291,"is_reserved":false,"is_disabled":false,"rental_uris":{"android":"levelo://app?vid=3cc5a155-68ed-4676-8c92-416bfc549c5d","ios":"levelo://app?vid=3cc5a155-68ed-4676-8c92-416bfc549c5d"},"vehicle_type_id":"4","last_reported":1692896761,"current_range_meters":25200,"station_id":"ce4bgk12rcd13ifvqbj0","pricing_plan_id":"free"},{"bike_id":"d3139180-8ba9-4c91-b6e4-8baae3c22113","system_id":"levelo_inurba_marseille","lat":43.296131,"lon":5.370791,"is_reserved":false,"is_disabled":false,"rental_uris":{"android":"levelo://app?vid=d3139180-8ba9-4c91-b6e4-8baae3c22113","ios":"levelo://app?vid=d3139180-8ba9-4c91-b6e4-8baae3c22113"},"vehicle_type_id":"4","last_reported":1692896761,"current_range_meters":31200,"station_id":"ce4bgnh2rcd13ifvqc0g","pricing_plan_id":"free"},{"bike_id":"5c2290cd-2207-4162-bdee-7e3f70a3d43b","system_id":"levelo_inurba_marseille","lat":43.29573,"lon":5.367355,"is_reserved":false,"is_disabled":false,"rental_uris":{"android":"levelo://app?vid=5c2290cd-2207-4162-bdee-7e3f70a3d43b","ios":"levelo://app?vid=5c2290cd-2207-4162-bdee-7e3f70a3d43b"},"vehicle_type_id":"4","last_reported":1692896761,"current_range_meters":19600,"station_id":"ce4bgph2rcd13ifvqc2g","pricing_plan_id":"free"},{"bike_id":"6c452be1-709d-4eb5-9e66-7b80ead66e8b","system_id":"levelo_inurba_marseille","lat":43.309589,"lon":5.390258,"is_reserved":false,"is_disabled":false,"rental_uris":{"android":"levelo://app?vid=6c452be1-709d-4eb5-9e66-7b80ead66e8b","ios":"levelo://app?vid=6c452be1-709d-4eb5-9e66-7b80ead66e8b"},"vehicle_type_id":"4","last_reported":1692896761,"current_range_meters":2000,"station_id":"ce4bgup2rcd13ifvqco0","pricing_plan_id":"free"},{"bike_id":"2c93ce6f-c5e1-4ec9-9941-ebb7469bb8f2","system_id":"levelo_inurba_marseille","lat":43.317557,"lon":5.390173,"is_reserved":false,"is_disabled":false,"rental_uris":{"android":"levelo://app?vid=2c93ce6f-c5e1-4ec9-9941-ebb7469bb8f2","ios":"levelo://app?vid=2c93ce6f-c5e1-4ec9-9941-ebb7469bb8f2"},"vehicle_type_id":"4","last_reported":1692896761,"current_range_meters":31200,"station_id":"ce4bhqp2rcd13ifvqhng","pricing_plan_id":"free"},{"bike_id":"236ed6c3-86ca-435f-84e0-e4c3ce229bc0","system_id":"levelo_inurba_marseille","lat":43.31481,"lon":5.39124,"is_reserved":false,"is_disabled":false,"rental_uris":{"android":"levelo://app?vid=236ed6c3-86ca-435f-84e0-e4c3ce229bc0","ios":"levelo://app?vid=236ed6c3-86ca-435f-84e0-e4c3ce229bc0"},"vehicle_type_id":"4","last_reported":1692896761,"current_range_meters":2800,"station_id":"","pricing_plan_id":"free"},{"bike_id":"ab55d248-3f81-4866-b5e4-98b1535315b2","system_id":"levelo_inurba_marseille","lat":43.30435,"lon":5.388885,"is_reserved":false,"is_disabled":false,"rental_uris":{"android":"levelo://app?vid=ab55d248-3f81-4866-b5e4-98b1535315b2","ios":"levelo://app?vid=ab55d248-3f81-4866-b5e4-98b1535315b2"},"vehicle_type_id":"4","last_reported":1692896761,"current_range_meters":27200,"station_id":"ce4bgk12rcd13ifvqbi0","pricing_plan_id":"free"},{"bike_id":"952a19e7-6602-41c3-942f-79cfb514366f","system_id":"levelo_inurba_marseille","lat":43.296277,"lon":5.377108,"is_reserved":false,"is_disabled":false,"rental_uris":{"android":"levelo://app?vid=952a19e7-6602-41c3-942f-79cfb514366f","ios":"levelo://app?vid=952a19e7-6602-41c3-942f-79cfb514366f"},"vehicle_type_id":"4","last_reported":1692896761,"current_range_meters":30400,"station_id":"ce4bgi92rcd13ifvqb90","pricing_plan_id":"free"},{"bike_id":"7bb30b84-95e0-4f35-9f9a-458cf4fd154a","system_id":"levelo_inurba_marseille","lat":43.304354,"lon":5.389065,"is_reserved":false,"is_disabled":false,"rental_uris":{"android":"levelo://app?vid=7bb30b84-95e0-4f35-9f9a-458cf4fd154a","ios":"levelo://app?vid=7bb30b84-95e0-4f35-9f9a-458cf4fd154a"},"vehicle_type_id":"4","last_reported":1692896761,"current_range_meters":15600,"station_id":"ce4bgk12rcd13ifvqbi0","pricing_plan_id":"free"},{"bike_id":"88633cd0-092e-443a-a19c-7f566d24b133","system_id":"levelo_inurba_marseille","lat":43.33072,"lon":5.36267,"is_reserved":false,"is_disabled":false,"rental_uris":{"android":"levelo://app?vid=88633cd0-092e-443a-a19c-7f566d24b133","ios":"levelo://app?vid=88633cd0-092e-443a-a19c-7f566d24b133"},"vehicle_type_id":"4","last_reported":1692896761,"current_range_meters":8800,"station_id":"","pricing_plan_id":"free"},{"bike_id":"d12d9328-bea9-4bff-807d-53ba15033917","system_id":"levelo_inurba_marseille","lat":43.295279,"lon":5.375048,"is_reserved":false,"is_disabled":false,"rental_uris":{"android":"levelo://app?vid=d12d9328-bea9-4bff-807d-53ba15033917","ios":"levelo://app?vid=d12d9328-bea9-4bff-807d-53ba15033917"},"vehicle_type_id":"4","last_reported":1692896761,"current_range_meters":18000,"station_id":"ce4bgkp2rcd13ifvqbmg","pricing_plan_id":"free"},{"bike_id":"329b52da-6179-4119-8885-76b50cbdc2a9","system_id":"levelo_inurba_marseille","lat":43.299717,"lon":5.384845,"is_reserved":false,"is_disabled":false,"rental_uris":{"android":"levelo://app?vid=329b52da-6179-4119-8885-76b50cbdc2a9","ios":"levelo://app?vid=329b52da-6179-4119-8885-76b50cbdc2a9"},"vehicle_type_id":"4","last_reported":1692896761,"current_range_meters":23200,"station_id":"ce4bgj92rcd13ifvqbd0","pricing_plan_id":"free"},{"bike_id":"03ff0f86-8bfc-43a4-80b5-d8f7aebc4ea9","system_id":"levelo_inurba_marseille","lat":43.29526,"lon":5.37504,"is_reserved":false,"is_disabled":false,"rental_uris":{"android":"levelo://app?vid=03ff0f86-8bfc-43a4-80b5-d8f7aebc4ea9","ios":"levelo://app?vid=03ff0f86-8bfc-43a4-80b5-d8f7aebc4ea9"},"vehicle_type_id":"4","last_reported":1692896761,"current_range_meters":6800,"station_id":"ce4bgkp2rcd13ifvqbmg","pricing_plan_id":"free"},{"bike_id":"7f32b9dc-ef89-4ba3-8d07-0c5903bf2696","system_id":"levelo_inurba_marseille","lat":43.301252,"lon":5.387877,"is_reserved":false,"is_disabled":false,"rental_uris":{"android":"levelo://app?vid=7f32b9dc-ef89-4ba3-8d07-0c5903bf2696","ios":"levelo://app?vid=7f32b9dc-ef89-4ba3-8d07-0c5903bf2696"},"vehicle_type_id":"4","last_reported":1692896761,"current_range_meters":22400,"station_id":"","pricing_plan_id":"free"},{"bike_id":"baab8f95-6cb5-4cdb-8709-d526f67d1483","system_id":"levelo_inurba_marseille","lat":43.3236,"lon":5.38881,"is_reserved":false,"is_disabled":false,"rental_uris":{"android":"levelo://app?vid=baab8f95-6cb5-4cdb-8709-d526f67d1483","ios":"levelo://app?vid=baab8f95-6cb5-4cdb-8709-d526f67d1483"},"vehicle_type_id":"4","last_reported":1692896761,"current_range_meters":27200,"station_id":"ce4bhqp2rcd13ifvqhog","pricing_plan_id":"free"},{"bike_id":"f56184c8-73f8-47cd-bd4b-43ba382c0a0e","system_id":"levelo_inurba_marseille","lat":43.32361,"lon":5.38882,"is_reserved":false,"is_disabled":false,"rental_uris":{"android":"levelo://app?vid=f56184c8-73f8-47cd-bd4b-43ba382c0a0e","ios":"levelo://app?vid=f56184c8-73f8-47cd-bd4b-43ba382c0a0e"},"vehicle_type_id":"4","last_reported":1692896761,"current_range_meters":11600,"station_id":"ce4bhqp2rcd13ifvqhog","pricing_plan_id":"free"},{"bike_id":"32ecad24-e92e-4fa4-967e-7876de8b623c","system_id":"levelo_inurba_marseille","lat":43.32361,"lon":5.38883,"is_reserved":false,"is_disabled":false,"rental_uris":{"android":"levelo://app?vid=32ecad24-e92e-4fa4-967e-7876de8b623c","ios":"levelo://app?vid=32ecad24-e92e-4fa4-967e-7876de8b623c"},"vehicle_type_id":"4","last_reported":1692896761,"current_range_meters":11200,"station_id":"ce4bhqp2rcd13ifvqhog","pricing_plan_id":"free"},{"bike_id":"373c4bdf-e363-4db2-b092-deabc3a4907a","system_id":"levelo_inurba_marseille","lat":43.32366,"lon":5.38879,"is_reserved":false,"is_disabled":false,"rental_uris":{"android":"levelo://app?vid=373c4bdf-e363-4db2-b092-deabc3a4907a","ios":"levelo://app?vid=373c4bdf-e363-4db2-b092-deabc3a4907a"},"vehicle_type_id":"4","last_reported":1692896761,"current_range_meters":26800,"station_id":"ce4bhqp2rcd13ifvqhog","pricing_plan_id":"free"},{"bike_id":"828dede6-92f9-4c93-ad20-df1fdc8a0c35","system_id":"levelo_inurba_marseille","lat":43.32371,"lon":5.38875,"is_reserved":false,"is_disabled":false,"rental_uris":{"android":"levelo://app?vid=828dede6-92f9-4c93-ad20-df1fdc8a0c35","ios":"levelo://app?vid=828dede6-92f9-4c93-ad20-df1fdc8a0c35"},"vehicle_type_id":"4","last_reported":1692896761,"current_range_meters":12400,"station_id":"ce4bhqp2rcd13ifvqhog","pricing_plan_id":"free"},{"bike_id":"d7fb9c00-6bf8-4bfa-822f-aac11f42d8d9","system_id":"levelo_inurba_marseille","lat":43.32369,"lon":5.38877,"is_reserved":false,"is_disabled":false,"rental_uris":{"android":"levelo://app?vid=d7fb9c00-6bf8-4bfa-822f-aac11f42d8d9","ios":"levelo://app?vid=d7fb9c00-6bf8-4bfa-822f-aac11f42d8d9"},"vehicle_type_id":"4","last_reported":1692896761,"current_range_meters":26000,"station_id":"ce4bhqp2rcd13ifvqhog","pricing_plan_id":"free"},{"bike_id":"806c2268-3423-46f3-b665-6097df066def","system_id":"levelo_inurba_marseille","lat":43.32362,"lon":5.38885,"is_reserved":false,"is_disabled":false,"rental_uris":{"android":"levelo://app?vid=806c2268-3423-46f3-b665-6097df066def","ios":"levelo://app?vid=806c2268-3423-46f3-b665-6097df066def"},"vehicle_type_id":"4","last_reported":1692896761,"current_range_meters":27200,"station_id":"ce4bhqp2rcd13ifvqhog","pricing_plan_id":"free"},{"bike_id":"9622801f-a665-42a8-bdea-eba2330a474a","system_id":"levelo_inurba_marseille","lat":43.32362,"lon":5.38885,"is_reserved":false,"is_disabled":false,"rental_uris":{"android":"levelo://app?vid=9622801f-a665-42a8-bdea-eba2330a474a","ios":"levelo://app?vid=9622801f-a665-42a8-bdea-eba2330a474a"},"vehicle_type_id":"4","last_reported":1692896761,"current_range_meters":24000,"station_id":"ce4bhqp2rcd13ifvqhog","pricing_plan_id":"free"},{"bike_id":"7c7d326f-cdfb-41e6-abbb-d7c1d9d2955d","system_id":"levelo_inurba_marseille","lat":43.32365,"lon":5.38883,"is_reserved":false,"is_disabled":false,"rental_uris":{"android":"levelo://app?vid=7c7d326f-cdfb-41e6-abbb-d7c1d9d2955d","ios":"levelo://app?vid=7c7d326f-cdfb-41e6-abbb-d7c1d9d2955d"},"vehicle_type_id":"4","last_reported":1692896761,"current_range_meters":23200,"station_id":"ce4bhqp2rcd13ifvqhog","pricing_plan_id":"free"},{"bike_id":"086ccc2b-b3e2-402c-9fd3-6512af113421","system_id":"levelo_inurba_marseille","lat":43.32367,"lon":5.388836,"is_reserved":false,"is_disabled":false,"rental_uris":{"android":"levelo://app?vid=086ccc2b-b3e2-402c-9fd3-6512af113421","ios":"levelo://app?vid=086ccc2b-b3e2-402c-9fd3-6512af113421"},"vehicle_type_id":"4","last_reported":1692896761,"current_range_meters":23200,"station_id":"ce4bhqp2rcd13ifvqhog","pricing_plan_id":"free"},{"bike_id":"c5bc3cba-282e-484d-b591-63b5722745ec","system_id":"levelo_inurba_marseille","lat":43.32373,"lon":5.38878,"is_reserved":false,"is_disabled":false,"rental_uris":{"android":"levelo://app?vid=c5bc3cba-282e-484d-b591-63b5722745ec","ios":"levelo://app?vid=c5bc3cba-282e-484d-b591-63b5722745ec"},"vehicle_type_id":"4","last_reported":1692896761,"current_range_meters":12800,"station_id":"ce4bhqp2rcd13ifvqhog","pricing_plan_id":"free"},{"bike_id":"2b9a2fce-dba0-4cf4-b5cf-3855da61766b","system_id":"levelo_inurba_marseille","lat":43.32367,"lon":5.38885,"is_reserved":false,"is_disabled":false,"rental_uris":{"android":"levelo://app?vid=2b9a2fce-dba0-4cf4-b5cf-3855da61766b","ios":"levelo://app?vid=2b9a2fce-dba0-4cf4-b5cf-3855da61766b"},"vehicle_type_id":"4","last_reported":1692896761,"current_range_meters":23600,"station_id":"ce4bhqp2rcd13ifvqhog","pricing_plan_id":"free"},{"bike_id":"00883cd9-a56a-4720-bb55-237d0136a4a1","system_id":"levelo_inurba_marseille","lat":43.32371,"lon":5.38882,"is_reserved":false,"is_disabled":false,"rental_uris":{"android":"levelo://app?vid=00883cd9-a56a-4720-bb55-237d0136a4a1","ios":"levelo://app?vid=00883cd9-a56a-4720-bb55-237d0136a4a1"},"vehicle_type_id":"4","last_reported":1692896761,"current_range_meters":24800,"station_id":"ce4bhqp2rcd13ifvqhog","pricing_plan_id":"free"},{"bike_id":"4cc6afcb-8ab3-420f-b8e1-a4bccdd2c827","system_id":"levelo_inurba_marseille","lat":43.32367,"lon":5.38889,"is_reserved":false,"is_disabled":false,"rental_uris":{"android":"levelo://app?vid=4cc6afcb-8ab3-420f-b8e1-a4bccdd2c827","ios":"levelo://app?vid=4cc6afcb-8ab3-420f-b8e1-a4bccdd2c827"},"vehicle_type_id":"4","last_reported":1692896761,"current_range_meters":31200,"station_id":"ce4bhqp2rcd13ifvqhog","pricing_plan_id":"free"},{"bike_id":"38fef587-7cc5-4800-b069-87b8f296a10a","system_id":"levelo_inurba_marseille","lat":43.293,"lon":5.37445,"is_reserved":false,"is_disabled":false,"rental_uris":{"android":"levelo://app?vid=38fef587-7cc5-4800-b069-87b8f296a10a","ios":"levelo://app?vid=38fef587-7cc5-4800-b069-87b8f296a10a"},"vehicle_type_id":"4","last_reported":1692896761,"current_range_meters":31200,"station_id":"ce4bgi12rcd13ifvqb70","pricing_plan_id":"free"},{"bike_id":"6533c646-1091-4458-9ef2-bc9d36dce22d","system_id":"levelo_inurba_marseille","lat":43.293009,"lon":5.374584,"is_reserved":false,"is_disabled":false,"rental_uris":{"android":"levelo://app?vid=6533c646-1091-4458-9ef2-bc9d36dce22d","ios":"levelo://app?vid=6533c646-1091-4458-9ef2-bc9d36dce22d"},"vehicle_type_id":"4","last_reported":1692896761,"current_range_meters":28400,"station_id":"ce4bgi12rcd13ifvqb70","pricing_plan_id":"free"},{"bike_id":"0724f352-a262-45b7-9b71-9a09ff17d945","system_id":"levelo_inurba_marseille","lat":43.30296,"lon":5.39204,"is_reserved":false,"is_disabled":false,"rental_uris":{"android":"levelo://app?vid=0724f352-a262-45b7-9b71-9a09ff17d945","ios":"levelo://app?vid=0724f352-a262-45b7-9b71-9a09ff17d945"},"vehicle_type_id":"4","last_reported":1692896761,"current_range_meters":21600,"station_id":"ce4bgkh2rcd13ifvqbk0","pricing_plan_id":"free"},{"bike_id":"59d4a7cc-c4d8-47e1-a63f-2e26b5d209c3","system_id":"levelo_inurba_marseille","lat":43.2936,"lon":5.37835,"is_reserved":false,"is_disabled":false,"rental_uris":{"android":"levelo://app?vid=59d4a7cc-c4d8-47e1-a63f-2e26b5d209c3","ios":"levelo://app?vid=59d4a7cc-c4d8-47e1-a63f-2e26b5d209c3"},"vehicle_type_id":"4","last_reported":1692896761,"current_range_meters":30400,"station_id":"ce4bgjh2rcd13ifvqbf0","pricing_plan_id":"free"},{"bike_id":"891b6052-da42-4400-abe4-5fb3165255ac","system_id":"levelo_inurba_marseille","lat":43.298764,"lon":5.388973,"is_reserved":false,"is_disabled":false,"rental_uris":{"android":"levelo://app?vid=891b6052-da42-4400-abe4-5fb3165255ac","ios":"levelo://app?vid=891b6052-da42-4400-abe4-5fb3165255ac"},"vehicle_type_id":"4","last_reported":1692896761,"current_range_meters":800,"station_id":"ce4bh392rcd13ifvqdl0","pricing_plan_id":"free"},{"bike_id":"bb664a15-9dbe-46e3-b51c-3e04be0b54e9","system_id":"levelo_inurba_marseille","lat":43.313291,"lon":5.396838,"is_reserved":false,"is_disabled":false,"rental_uris":{"android":"levelo://app?vid=bb664a15-9dbe-46e3-b51c-3e04be0b54e9","ios":"levelo://app?vid=bb664a15-9dbe-46e3-b51c-3e04be0b54e9"},"vehicle_type_id":"4","last_reported":1692896761,"current_range_meters":15200,"station_id":"ce4bgvp2rcd13ifvqcu0","pricing_plan_id":"free"},{"bike_id":"e7b4d14f-8ad1-4f96-83be-a4422c722e6d","system_id":"levelo_inurba_marseille","lat":43.31322,"lon":5.39696,"is_reserved":false,"is_disabled":false,"rental_uris":{"android":"levelo://app?vid=e7b4d14f-8ad1-4f96-83be-a4422c722e6d","ios":"levelo://app?vid=e7b4d14f-8ad1-4f96-83be-a4422c722e6d"},"vehicle_type_id":"4","last_reported":1692896761,"current_range_meters":0,"station_id":"ce4bgvp2rcd13ifvqcu0","pricing_plan_id":"free"},{"bike_id":"354dafe2-4950-4d4a-a178-8f4defa6f63b","system_id":"levelo_inurba_marseille","lat":43.309038,"lon":5.396546,"is_reserved":false,"is_disabled":false,"rental_uris":{"android":"levelo://app?vid=354dafe2-4950-4d4a-a178-8f4defa6f63b","ios":"levelo://app?vid=354dafe2-4950-4d4a-a178-8f4defa6f63b"},"vehicle_type_id":"4","last_reported":1692896761,"current_range_meters":15600,"station_id":"ce4bh012rcd13ifvqcv0","pricing_plan_id":"free"},{"bike_id":"eed17a3c-2367-481c-a338-270d4d470fe9","system_id":"levelo_inurba_marseille","lat":43.29529,"lon":5.385581,"is_reserved":false,"is_disabled":false,"rental_uris":{"android":"levelo://app?vid=eed17a3c-2367-481c-a338-270d4d470fe9","ios":"levelo://app?vid=eed17a3c-2367-481c-a338-270d4d470fe9"},"vehicle_type_id":"4","last_reported":1692896761,"current_range_meters":23600,"station_id":"ce4bgih2rcd13ifvqba0","pricing_plan_id":"free"},{"bike_id":"fd18dd01-fd6c-4c1d-8f12-e7616de3a2d4","system_id":"levelo_inurba_marseille","lat":43.29529,"lon":5.385581,"is_reserved":false,"is_disabled":false,"rental_uris":{"android":"levelo://app?vid=fd18dd01-fd6c-4c1d-8f12-e7616de3a2d4","ios":"levelo://app?vid=fd18dd01-fd6c-4c1d-8f12-e7616de3a2d4"},"vehicle_type_id":"4","last_reported":1692896761,"current_range_meters":4400,"station_id":"ce4bgih2rcd13ifvqba0","pricing_plan_id":"free"},{"bike_id":"39b5b5cf-86ef-48ea-a176-58e554756417","system_id":"levelo_inurba_marseille","lat":43.302008,"lon":5.394694,"is_reserved":false,"is_disabled":false,"rental_uris":{"android":"levelo://app?vid=39b5b5cf-86ef-48ea-a176-58e554756417","ios":"levelo://app?vid=39b5b5cf-86ef-48ea-a176-58e554756417"},"vehicle_type_id":"4","last_reported":1692896761,"current_range_meters":29600,"station_id":"ce4bh0p2rcd13ifvqd70","pricing_plan_id":"free"},{"bike_id":"24bf2d35-95e6-4478-8bc5-9fe2998a61fa","system_id":"levelo_inurba_marseille","lat":43.290327,"lon":5.375711,"is_reserved":false,"is_disabled":false,"rental_uris":{"android":"levelo://app?vid=24bf2d35-95e6-4478-8bc5-9fe2998a61fa","ios":"levelo://app?vid=24bf2d35-95e6-4478-8bc5-9fe2998a61fa"},"vehicle_type_id":"4","last_reported":1692896761,"current_range_meters":0,"station_id":"ce4bh692rcd13ifvqe90","pricing_plan_id":"free"},{"bike_id":"eb8a38d4-86d6-4db9-8134-bd6143ffa6ce","system_id":"levelo_inurba_marseille","lat":43.289184,"lon":5.366408,"is_reserved":false,"is_disabled":false,"rental_uris":{"android":"levelo://app?vid=eb8a38d4-86d6-4db9-8134-bd6143ffa6ce","ios":"levelo://app?vid=eb8a38d4-86d6-4db9-8134-bd6143ffa6ce"},"vehicle_type_id":"4","last_reported":1692896761,"current_range_meters":16000,"station_id":"ce4bhap2rcd13ifvqek0","pricing_plan_id":"free"},{"bike_id":"1c07e25f-84db-4513-bedb-11b97c6ec9b6","system_id":"levelo_inurba_marseille","lat":43.33041,"lon":5.38914,"is_reserved":false,"is_disabled":false,"rental_uris":{"android":"levelo://app?vid=1c07e25f-84db-4513-bedb-11b97c6ec9b6","ios":"levelo://app?vid=1c07e25f-84db-4513-bedb-11b97c6ec9b6"},"vehicle_type_id":"4","last_reported":1692896761,"current_range_meters":31200,"station_id":"ce4bhr92rcd13ifvqhrg","pricing_plan_id":"free"},{"bike_id":"be8459eb-81bf-48fb-8c04-d06090ab246c","system_id":"levelo_inurba_marseille","lat":43.33042,"lon":5.38915,"is_reserved":false,"is_disabled":false,"rental_uris":{"android":"levelo://app?vid=be8459eb-81bf-48fb-8c04-d06090ab246c","ios":"levelo://app?vid=be8459eb-81bf-48fb-8c04-d06090ab246c"},"vehicle_type_id":"4","last_reported":1692896761,"current_range_meters":8800,"station_id":"ce4bhr92rcd13ifvqhrg","pricing_plan_id":"free"},{"bike_id":"a2a8c01f-7280-4ca6-bc8a-6f0c618673eb","system_id":"levelo_inurba_marseille","lat":43.33042,"lon":5.38917,"is_reserved":false,"is_disabled":false,"rental_uris":{"android":"levelo://app?vid=a2a8c01f-7280-4ca6-bc8a-6f0c618673eb","ios":"levelo://app?vid=a2a8c01f-7280-4ca6-bc8a-6f0c618673eb"},"vehicle_type_id":"4","last_reported":1692896761,"current_range_meters":14800,"station_id":"ce4bhr92rcd13ifvqhrg","pricing_plan_id":"free"},{"bike_id":"73e30c8d-1fec-42fa-994e-db63cd20ad16","system_id":"levelo_inurba_marseille","lat":43.33039,"lon":5.38922,"is_reserved":false,"is_disabled":false,"rental_uris":{"android":"levelo://app?vid=73e30c8d-1fec-42fa-994e-db63cd20ad16","ios":"levelo://app?vid=73e30c8d-1fec-42fa-994e-db63cd20ad16"},"vehicle_type_id":"4","last_reported":1692896761,"current_range_meters":19600,"station_id":"ce4bhr92rcd13ifvqhrg","pricing_plan_id":"free"},{"bike_id":"5f4f9907-0787-4bf8-8a56-fcaa0a043375","system_id":"levelo_inurba_marseille","lat":43.3304,"lon":5.38922,"is_reserved":false,"is_disabled":false,"rental_uris":{"android":"levelo://app?vid=5f4f9907-0787-4bf8-8a56-fcaa0a043375","ios":"levelo://app?vid=5f4f9907-0787-4bf8-8a56-fcaa0a043375"},"vehicle_type_id":"4","last_reported":1692896761,"current_range_meters":16000,"station_id":"ce4bhr92rcd13ifvqhrg","pricing_plan_id":"free"},{"bike_id":"c64531b8-215c-466c-8107-948273dfc7b2","system_id":"levelo_inurba_marseille","lat":43.33045,"lon":5.38917,"is_reserved":false,"is_disabled":false,"rental_uris":{"android":"levelo://app?vid=c64531b8-215c-466c-8107-948273dfc7b2","ios":"levelo://app?vid=c64531b8-215c-466c-8107-948273dfc7b2"},"vehicle_type_id":"4","last_reported":1692896761,"current_range_meters":31200,"station_id":"ce4bhr92rcd13ifvqhrg","pricing_plan_id":"free"},{"bike_id":"8b9f9b54-2e03-4d4e-bfd8-a7cfda03648a","system_id":"levelo_inurba_marseille","lat":43.3304,"lon":5.38925,"is_reserved":false,"is_disabled":false,"rental_uris":{"android":"levelo://app?vid=8b9f9b54-2e03-4d4e-bfd8-a7cfda03648a","ios":"levelo://app?vid=8b9f9b54-2e03-4d4e-bfd8-a7cfda03648a"},"vehicle_type_id":"4","last_reported":1692896761,"current_range_meters":22400,"station_id":"ce4bhr92rcd13ifvqhrg","pricing_plan_id":"free"},{"bike_id":"81bdd50f-e2c9-4875-93b8-ce66b1f39ff9","system_id":"levelo_inurba_marseille","lat":43.33043,"lon":5.38924,"is_reserved":false,"is_disabled":false,"rental_uris":{"android":"levelo://app?vid=81bdd50f-e2c9-4875-93b8-ce66b1f39ff9","ios":"levelo://app?vid=81bdd50f-e2c9-4875-93b8-ce66b1f39ff9"},"vehicle_type_id":"4","last_reported":1692896761,"current_range_meters":31200,"station_id":"ce4bhr92rcd13ifvqhrg","pricing_plan_id":"free"},{"bike_id":"6093d433-f9d6-48fe-897b-a1be7c29ef34","system_id":"levelo_inurba_marseille","lat":43.290104,"lon":5.356111,"is_reserved":false,"is_disabled":false,"rental_uris":{"android":"levelo://app?vid=6093d433-f9d6-48fe-897b-a1be7c29ef34","ios":"levelo://app?vid=6093d433-f9d6-48fe-897b-a1be7c29ef34"},"vehicle_type_id":"4","last_reported":1692896761,"current_range_meters":24000,"station_id":"ce4bhb92rcd13ifvqen0","pricing_plan_id":"free"},{"bike_id":"a4df99ce-0488-49dd-a888-94686f562e88","system_id":"levelo_inurba_marseille","lat":43.290104,"lon":5.356111,"is_reserved":false,"is_disabled":false,"rental_uris":{"android":"levelo://app?vid=a4df99ce-0488-49dd-a888-94686f562e88","ios":"levelo://app?vid=a4df99ce-0488-49dd-a888-94686f562e88"},"vehicle_type_id":"4","last_reported":1692896761,"current_range_meters":29200,"station_id":"ce4bhb92rcd13ifvqen0","pricing_plan_id":"free"},{"bike_id":"0ffc3da2-43e5-46d8-9f01-7852b11fac25","system_id":"levelo_inurba_marseille","lat":43.28898,"lon":5.36171,"is_reserved":false,"is_disabled":false,"rental_uris":{"android":"levelo://app?vid=0ffc3da2-43e5-46d8-9f01-7852b11fac25","ios":"levelo://app?vid=0ffc3da2-43e5-46d8-9f01-7852b11fac25"},"vehicle_type_id":"4","last_reported":1692896761,"current_range_meters":6000,"station_id":"","pricing_plan_id":"free"},{"bike_id":"1895038e-acdb-4d35-aa35-e1291f23a30a","system_id":"levelo_inurba_marseille","lat":43.29,"lon":5.35608,"is_reserved":false,"is_disabled":false,"rental_uris":{"android":"levelo://app?vid=1895038e-acdb-4d35-aa35-e1291f23a30a","ios":"levelo://app?vid=1895038e-acdb-4d35-aa35-e1291f23a30a"},"vehicle_type_id":"4","last_reported":1692896761,"current_range_meters":31200,"station_id":"ce4bhb92rcd13ifvqen0","pricing_plan_id":"free"},{"bike_id":"c9b01ccf-417f-4da6-b7fc-b315d2bcc7e5","system_id":"levelo_inurba_marseille","lat":43.295169,"lon":5.390426,"is_reserved":false,"is_disabled":false,"rental_uris":{"android":"levelo://app?vid=c9b01ccf-417f-4da6-b7fc-b315d2bcc7e5","ios":"levelo://app?vid=c9b01ccf-417f-4da6-b7fc-b315d2bcc7e5"},"vehicle_type_id":"4","last_reported":1692896761,"current_range_meters":17200,"station_id":"ce4bh3p2rcd13ifvqdp0","pricing_plan_id":"free"},{"bike_id":"3e02ad2d-4607-49ee-a6d5-183e547e18be","system_id":"levelo_inurba_marseille","lat":43.2901,"lon":5.381269,"is_reserved":false,"is_disabled":false,"rental_uris":{"android":"levelo://app?vid=3e02ad2d-4607-49ee-a6d5-183e547e18be","ios":"levelo://app?vid=3e02ad2d-4607-49ee-a6d5-183e547e18be"},"vehicle_type_id":"4","last_reported":1692896761,"current_range_meters":14400,"station_id":"ce4bh4p2rcd13ifvqe1g","pricing_plan_id":"free"},{"bike_id":"004db0ef-d05a-4b21-af80-1a3b363c6e10","system_id":"levelo_inurba_marseille","lat":43.28854,"lon":5.358532,"is_reserved":false,"is_disabled":false,"rental_uris":{"android":"levelo://app?vid=004db0ef-d05a-4b21-af80-1a3b363c6e10","ios":"levelo://app?vid=004db0ef-d05a-4b21-af80-1a3b363c6e10"},"vehicle_type_id":"4","last_reported":1692896761,"current_range_meters":17200,"station_id":"","pricing_plan_id":"free"},{"bike_id":"01304553-1358-48cd-93e7-d355bd12aa9b","system_id":"levelo_inurba_marseille","lat":43.28856,"lon":5.358371,"is_reserved":false,"is_disabled":false,"rental_uris":{"android":"levelo://app?vid=01304553-1358-48cd-93e7-d355bd12aa9b","ios":"levelo://app?vid=01304553-1358-48cd-93e7-d355bd12aa9b"},"vehicle_type_id":"4","last_reported":1692896761,"current_range_meters":26800,"station_id":"ce4bhb12rcd13ifvqem0","pricing_plan_id":"free"},{"bike_id":"d9cc2523-60e1-4ee1-8612-da8fd1254678","system_id":"levelo_inurba_marseille","lat":43.312609,"lon":5.401662,"is_reserved":false,"is_disabled":false,"rental_uris":{"android":"levelo://app?vid=d9cc2523-60e1-4ee1-8612-da8fd1254678","ios":"levelo://app?vid=d9cc2523-60e1-4ee1-8612-da8fd1254678"},"vehicle_type_id":"4","last_reported":1692896761,"current_range_meters":22800,"station_id":"ce4bh092rcd13ifvqd30","pricing_plan_id":"free"},{"bike_id":"88bffac8-8535-4694-a7f2-6c3dd5613750","system_id":"levelo_inurba_marseille","lat":43.3127,"lon":5.40169,"is_reserved":false,"is_disabled":false,"rental_uris":{"android":"levelo://app?vid=88bffac8-8535-4694-a7f2-6c3dd5613750","ios":"levelo://app?vid=88bffac8-8535-4694-a7f2-6c3dd5613750"},"vehicle_type_id":"4","last_reported":1692896761,"current_range_meters":20000,"station_id":"ce4bh092rcd13ifvqd30","pricing_plan_id":"free"},{"bike_id":"eeeef028-1923-4320-90c7-288156ccc910","system_id":"levelo_inurba_marseille","lat":43.312732,"lon":5.40171,"is_reserved":false,"is_disabled":false,"rental_uris":{"android":"levelo://app?vid=eeeef028-1923-4320-90c7-288156ccc910","ios":"levelo://app?vid=eeeef028-1923-4320-90c7-288156ccc910"},"vehicle_type_id":"4","last_reported":1692896761,"current_range_meters":3600,"station_id":"ce4bh092rcd13ifvqd30","pricing_plan_id":"free"},{"bike_id":"2a3f497d-cc8a-4d79-8012-fb9dfb12cfc8","system_id":"levelo_inurba_marseille","lat":43.317104,"lon":5.436818,"is_reserved":false,"is_disabled":false,"rental_uris":{"android":"levelo://app?vid=2a3f497d-cc8a-4d79-8012-fb9dfb12cfc8","ios":"levelo://app?vid=2a3f497d-cc8a-4d79-8012-fb9dfb12cfc8"},"vehicle_type_id":"4","last_reported":1692896761,"current_range_meters":31200,"station_id":"ce4bhp92rcd13ifvqhcg","pricing_plan_id":"free"},{"bike_id":"91da28c0-f1d3-488c-a46c-cf79d954e320","system_id":"levelo_inurba_marseille","lat":43.304188,"lon":5.412904,"is_reserved":false,"is_disabled":false,"rental_uris":{"android":"levelo://app?vid=91da28c0-f1d3-488c-a46c-cf79d954e320","ios":"levelo://app?vid=91da28c0-f1d3-488c-a46c-cf79d954e320"},"vehicle_type_id":"4","last_reported":1692896761,"current_range_meters":9600,"station_id":"ce4bhop2rcd13ifvqh8g","pricing_plan_id":"free"},{"bike_id":"2365150f-73ab-4507-aea4-76016e6109c8","system_id":"levelo_inurba_marseille","lat":43.28671,"lon":5.36346,"is_reserved":false,"is_disabled":false,"rental_uris":{"android":"levelo://app?vid=2365150f-73ab-4507-aea4-76016e6109c8","ios":"levelo://app?vid=2365150f-73ab-4507-aea4-76016e6109c8"},"vehicle_type_id":"4","last_reported":1692896761,"current_range_meters":5200,"station_id":"ce4bhah2rcd13ifvqej0","pricing_plan_id":"free"},{"bike_id":"75199276-b705-4ad7-b6a9-49aeaa84628a","system_id":"levelo_inurba_marseille","lat":43.28669,"lon":5.36345,"is_reserved":false,"is_disabled":false,"rental_uris":{"android":"levelo://app?vid=75199276-b705-4ad7-b6a9-49aeaa84628a","ios":"levelo://app?vid=75199276-b705-4ad7-b6a9-49aeaa84628a"},"vehicle_type_id":"4","last_reported":1692896761,"current_range_meters":25600,"station_id":"ce4bhah2rcd13ifvqej0","pricing_plan_id":"free"},{"bike_id":"5c47e1b9-8c70-4f8a-b3aa-951cefb2b8d6","system_id":"levelo_inurba_marseille","lat":43.290336,"lon":5.386425,"is_reserved":false,"is_disabled":false,"rental_uris":{"android":"levelo://app?vid=5c47e1b9-8c70-4f8a-b3aa-951cefb2b8d6","ios":"levelo://app?vid=5c47e1b9-8c70-4f8a-b3aa-951cefb2b8d6"},"vehicle_type_id":"4","last_reported":1692896761,"current_range_meters":25200,"station_id":"ce4bh4p2rcd13ifvqe0g","pricing_plan_id":"free"},{"bike_id":"b479af77-2d49-4f51-89b2-cae994a0ab9a","system_id":"levelo_inurba_marseille","lat":43.28602,"lon":5.37064,"is_reserved":false,"is_disabled":false,"rental_uris":{"android":"levelo://app?vid=b479af77-2d49-4f51-89b2-cae994a0ab9a","ios":"levelo://app?vid=b479af77-2d49-4f51-89b2-cae994a0ab9a"},"vehicle_type_id":"4","last_reported":1692896761,"current_range_meters":8400,"station_id":"ce4bht12rcd13ifvqi60","pricing_plan_id":"free"},{"bike_id":"a96203ac-acb6-4ee6-871a-1c6965d538b3","system_id":"levelo_inurba_marseille","lat":43.28807,"lon":5.35229,"is_reserved":false,"is_disabled":false,"rental_uris":{"android":"levelo://app?vid=a96203ac-acb6-4ee6-871a-1c6965d538b3","ios":"levelo://app?vid=a96203ac-acb6-4ee6-871a-1c6965d538b3"},"vehicle_type_id":"4","last_reported":1692896761,"current_range_meters":0,"station_id":"","pricing_plan_id":"free"},{"bike_id":"7da9e437-1e79-4b5f-9ab0-65254ac17dd7","system_id":"levelo_inurba_marseille","lat":43.3165,"lon":5.40434,"is_reserved":false,"is_disabled":false,"rental_uris":{"android":"levelo://app?vid=7da9e437-1e79-4b5f-9ab0-65254ac17dd7","ios":"levelo://app?vid=7da9e437-1e79-4b5f-9ab0-65254ac17dd7"},"vehicle_type_id":"4","last_reported":1692896761,"current_range_meters":22000,"station_id":"ce4bh012rcd13ifvqd00","pricing_plan_id":"free"},{"bike_id":"f58b8c7f-cd28-4a7a-a953-891dff7ddc4f","system_id":"levelo_inurba_marseille","lat":43.29438,"lon":5.3974,"is_reserved":false,"is_disabled":false,"rental_uris":{"android":"levelo://app?vid=f58b8c7f-cd28-4a7a-a953-891dff7ddc4f","ios":"levelo://app?vid=f58b8c7f-cd28-4a7a-a953-891dff7ddc4f"},"vehicle_type_id":"4","last_reported":1692896761,"current_range_meters":0,"station_id":"ce4bh3h2rcd13ifvqdo0","pricing_plan_id":"free"},{"bike_id":"d17c293c-0a9b-4566-be91-45ace17c7f2e","system_id":"levelo_inurba_marseille","lat":43.28613,"lon":5.351122,"is_reserved":false,"is_disabled":false,"rental_uris":{"android":"levelo://app?vid=d17c293c-0a9b-4566-be91-45ace17c7f2e","ios":"levelo://app?vid=d17c293c-0a9b-4566-be91-45ace17c7f2e"},"vehicle_type_id":"4","last_reported":1692896761,"current_range_meters":11600,"station_id":"ce4bhch2rcd13ifvqeug","pricing_plan_id":"free"},{"bike_id":"b72eabca-a1db-4f8f-aa60-c522e8930751","system_id":"levelo_inurba_marseille","lat":43.286127,"lon":5.351125,"is_reserved":false,"is_disabled":false,"rental_uris":{"android":"levelo://app?vid=b72eabca-a1db-4f8f-aa60-c522e8930751","ios":"levelo://app?vid=b72eabca-a1db-4f8f-aa60-c522e8930751"},"vehicle_type_id":"4","last_reported":1692896761,"current_range_meters":12800,"station_id":"ce4bhch2rcd13ifvqeug","pricing_plan_id":"free"},{"bike_id":"9394e17c-4ccf-44a7-8141-c22791f0c4dc","system_id":"levelo_inurba_marseille","lat":43.286122,"lon":5.351111,"is_reserved":false,"is_disabled":false,"rental_uris":{"android":"levelo://app?vid=9394e17c-4ccf-44a7-8141-c22791f0c4dc","ios":"levelo://app?vid=9394e17c-4ccf-44a7-8141-c22791f0c4dc"},"vehicle_type_id":"4","last_reported":1692896761,"current_range_meters":9200,"station_id":"ce4bhch2rcd13ifvqeug","pricing_plan_id":"free"},{"bike_id":"b58ea84f-17ef-4320-a4cc-34fde01ade22","system_id":"levelo_inurba_marseille","lat":43.286122,"lon":5.351109,"is_reserved":false,"is_disabled":false,"rental_uris":{"android":"levelo://app?vid=b58ea84f-17ef-4320-a4cc-34fde01ade22","ios":"levelo://app?vid=b58ea84f-17ef-4320-a4cc-34fde01ade22"},"vehicle_type_id":"4","last_reported":1692896761,"current_range_meters":28000,"station_id":"ce4bhch2rcd13ifvqeug","pricing_plan_id":"free"},{"bike_id":"99446015-554a-4cd9-8391-55f7e5d840b0","system_id":"levelo_inurba_marseille","lat":43.286117,"lon":5.351117,"is_reserved":false,"is_disabled":false,"rental_uris":{"android":"levelo://app?vid=99446015-554a-4cd9-8391-55f7e5d840b0","ios":"levelo://app?vid=99446015-554a-4cd9-8391-55f7e5d840b0"},"vehicle_type_id":"4","last_reported":1692896761,"current_range_meters":18800,"station_id":"ce4bhch2rcd13ifvqeug","pricing_plan_id":"free"},{"bike_id":"f7120605-380f-4718-be3c-c8450e0ceeeb","system_id":"levelo_inurba_marseille","lat":43.285856,"lon":5.350771,"is_reserved":false,"is_disabled":false,"rental_uris":{"android":"levelo://app?vid=f7120605-380f-4718-be3c-c8450e0ceeeb","ios":"levelo://app?vid=f7120605-380f-4718-be3c-c8450e0ceeeb"},"vehicle_type_id":"4","last_reported":1692896761,"current_range_meters":31200,"station_id":"ce4bhch2rcd13ifvqeug","pricing_plan_id":"free"},{"bike_id":"67dc9307-5496-49bd-8321-ba4ab344ca03","system_id":"levelo_inurba_marseille","lat":43.286109,"lon":5.35111,"is_reserved":false,"is_disabled":false,"rental_uris":{"android":"levelo://app?vid=67dc9307-5496-49bd-8321-ba4ab344ca03","ios":"levelo://app?vid=67dc9307-5496-49bd-8321-ba4ab344ca03"},"vehicle_type_id":"4","last_reported":1692896761,"current_range_meters":8000,"station_id":"ce4bhch2rcd13ifvqeug","pricing_plan_id":"free"},{"bike_id":"0666b6a7-a666-48c5-a50b-5de9f29ad004","system_id":"levelo_inurba_marseille","lat":43.286106,"lon":5.351081,"is_reserved":false,"is_disabled":false,"rental_uris":{"android":"levelo://app?vid=0666b6a7-a666-48c5-a50b-5de9f29ad004","ios":"levelo://app?vid=0666b6a7-a666-48c5-a50b-5de9f29ad004"},"vehicle_type_id":"4","last_reported":1692896761,"current_range_meters":31200,"station_id":"ce4bhch2rcd13ifvqeug","pricing_plan_id":"free"},{"bike_id":"2363d3b5-6c15-401a-a59c-ee80bd4af927","system_id":"levelo_inurba_marseille","lat":43.28415,"lon":5.37522,"is_reserved":false,"is_disabled":false,"rental_uris":{"android":"levelo://app?vid=2363d3b5-6c15-401a-a59c-ee80bd4af927","ios":"levelo://app?vid=2363d3b5-6c15-401a-a59c-ee80bd4af927"},"vehicle_type_id":"4","last_reported":1692896761,"current_range_meters":800,"station_id":"ce4bh412rcd13ifvqds0","pricing_plan_id":"free"},{"bike_id":"e54ac8bf-03e6-4445-b501-5f2a8496318b","system_id":"levelo_inurba_marseille","lat":43.33713,"lon":5.39183,"is_reserved":false,"is_disabled":false,"rental_uris":{"android":"levelo://app?vid=e54ac8bf-03e6-4445-b501-5f2a8496318b","ios":"levelo://app?vid=e54ac8bf-03e6-4445-b501-5f2a8496318b"},"vehicle_type_id":"4","last_reported":1692896761,"current_range_meters":12800,"station_id":"ce4bhr92rcd13ifvqhsg","pricing_plan_id":"free"},{"bike_id":"f59572cd-eeee-45a7-81fd-c3c75f5406c9","system_id":"levelo_inurba_marseille","lat":43.33717,"lon":5.39179,"is_reserved":false,"is_disabled":false,"rental_uris":{"android":"levelo://app?vid=f59572cd-eeee-45a7-81fd-c3c75f5406c9","ios":"levelo://app?vid=f59572cd-eeee-45a7-81fd-c3c75f5406c9"},"vehicle_type_id":"4","last_reported":1692896761,"current_range_meters":29200,"station_id":"ce4bhr92rcd13ifvqhsg","pricing_plan_id":"free"},{"bike_id":"7995d5f8-4097-4ff8-9a26-c1e67947abf8","system_id":"levelo_inurba_marseille","lat":43.33721,"lon":5.39174,"is_reserved":false,"is_disabled":false,"rental_uris":{"android":"levelo://app?vid=7995d5f8-4097-4ff8-9a26-c1e67947abf8","ios":"levelo://app?vid=7995d5f8-4097-4ff8-9a26-c1e67947abf8"},"vehicle_type_id":"4","last_reported":1692896761,"current_range_meters":28400,"station_id":"ce4bhr92rcd13ifvqhsg","pricing_plan_id":"free"},{"bike_id":"a67bc8ba-477f-4950-afee-36977800f97f","system_id":"levelo_inurba_marseille","lat":43.337168,"lon":5.391825,"is_reserved":false,"is_disabled":false,"rental_uris":{"android":"levelo://app?vid=a67bc8ba-477f-4950-afee-36977800f97f","ios":"levelo://app?vid=a67bc8ba-477f-4950-afee-36977800f97f"},"vehicle_type_id":"4","last_reported":1692896761,"current_range_meters":30400,"station_id":"ce4bhr92rcd13ifvqhsg","pricing_plan_id":"free"},{"bike_id":"fa78aabd-8504-4fff-97d5-67819f3c7e97","system_id":"levelo_inurba_marseille","lat":43.33723,"lon":5.39182,"is_reserved":false,"is_disabled":false,"rental_uris":{"android":"levelo://app?vid=fa78aabd-8504-4fff-97d5-67819f3c7e97","ios":"levelo://app?vid=fa78aabd-8504-4fff-97d5-67819f3c7e97"},"vehicle_type_id":"4","last_reported":1692896761,"current_range_meters":31200,"station_id":"ce4bhr92rcd13ifvqhsg","pricing_plan_id":"free"},{"bike_id":"fcd157e8-6bfb-4a6b-89b1-fbc530062c9a","system_id":"levelo_inurba_marseille","lat":43.33721,"lon":5.39188,"is_reserved":false,"is_disabled":false,"rental_uris":{"android":"levelo://app?vid=fcd157e8-6bfb-4a6b-89b1-fbc530062c9a","ios":"levelo://app?vid=fcd157e8-6bfb-4a6b-89b1-fbc530062c9a"},"vehicle_type_id":"4","last_reported":1692896761,"current_range_meters":31200,"station_id":"ce4bhr92rcd13ifvqhsg","pricing_plan_id":"free"},{"bike_id":"22f5ebde-00e6-4c30-b807-8619e53ee930","system_id":"levelo_inurba_marseille","lat":43.33724,"lon":5.39185,"is_reserved":false,"is_disabled":false,"rental_uris":{"android":"levelo://app?vid=22f5ebde-00e6-4c30-b807-8619e53ee930","ios":"levelo://app?vid=22f5ebde-00e6-4c30-b807-8619e53ee930"},"vehicle_type_id":"4","last_reported":1692896761,"current_range_meters":31200,"station_id":"ce4bhr92rcd13ifvqhsg","pricing_plan_id":"free"},{"bike_id":"7009255e-b3b4-4c16-89fc-1dba203d6726","system_id":"levelo_inurba_marseille","lat":43.33725,"lon":5.39185,"is_reserved":false,"is_disabled":false,"rental_uris":{"android":"levelo://app?vid=7009255e-b3b4-4c16-89fc-1dba203d6726","ios":"levelo://app?vid=7009255e-b3b4-4c16-89fc-1dba203d6726"},"vehicle_type_id":"4","last_reported":1692896761,"current_range_meters":18000,"station_id":"ce4bhr92rcd13ifvqhsg","pricing_plan_id":"free"},{"bike_id":"3584ed82-8c83-4732-884b-ec35eb5758d6","system_id":"levelo_inurba_marseille","lat":43.33726,"lon":5.39185,"is_reserved":false,"is_disabled":false,"rental_uris":{"android":"levelo://app?vid=3584ed82-8c83-4732-884b-ec35eb5758d6","ios":"levelo://app?vid=3584ed82-8c83-4732-884b-ec35eb5758d6"},"vehicle_type_id":"4","last_reported":1692896761,"current_range_meters":14400,"station_id":"ce4bhr92rcd13ifvqhsg","pricing_plan_id":"free"},{"bike_id":"b814af44-4042-43e9-8b7d-548431887ed8","system_id":"levelo_inurba_marseille","lat":43.323464,"lon":5.406297,"is_reserved":false,"is_disabled":false,"rental_uris":{"android":"levelo://app?vid=b814af44-4042-43e9-8b7d-548431887ed8","ios":"levelo://app?vid=b814af44-4042-43e9-8b7d-548431887ed8"},"vehicle_type_id":"4","last_reported":1692896761,"current_range_meters":30000,"station_id":"ce4bhq92rcd13ifvqhjg","pricing_plan_id":"free"},{"bike_id":"486e5578-f4b6-46c8-b288-dd2598c97761","system_id":"levelo_inurba_marseille","lat":43.33726,"lon":5.3919,"is_reserved":false,"is_disabled":false,"rental_uris":{"android":"levelo://app?vid=486e5578-f4b6-46c8-b288-dd2598c97761","ios":"levelo://app?vid=486e5578-f4b6-46c8-b288-dd2598c97761"},"vehicle_type_id":"4","last_reported":1692896761,"current_range_meters":31200,"station_id":"ce4bhr92rcd13ifvqhsg","pricing_plan_id":"free"},{"bike_id":"54aa535b-3168-437d-a935-bb332c86467c","system_id":"levelo_inurba_marseille","lat":43.33728,"lon":5.39189,"is_reserved":false,"is_disabled":false,"rental_uris":{"android":"levelo://app?vid=54aa535b-3168-437d-a935-bb332c86467c","ios":"levelo://app?vid=54aa535b-3168-437d-a935-bb332c86467c"},"vehicle_type_id":"4","last_reported":1692896761,"current_range_meters":25200,"station_id":"ce4bhr92rcd13ifvqhsg","pricing_plan_id":"free"},{"bike_id":"73407d5d-ae91-461c-8582-bbf0e6e1ffea","system_id":"levelo_inurba_marseille","lat":43.337376,"lon":5.391927,"is_reserved":false,"is_disabled":false,"rental_uris":{"android":"levelo://app?vid=73407d5d-ae91-461c-8582-bbf0e6e1ffea","ios":"levelo://app?vid=73407d5d-ae91-461c-8582-bbf0e6e1ffea"},"vehicle_type_id":"4","last_reported":1692896761,"current_range_meters":0,"station_id":"ce4bhr92rcd13ifvqhsg","pricing_plan_id":"free"},{"bike_id":"81207e02-e329-4cea-9b6c-33ba9c0267d2","system_id":"levelo_inurba_marseille","lat":43.284787,"lon":5.384116,"is_reserved":false,"is_disabled":false,"rental_uris":{"android":"levelo://app?vid=81207e02-e329-4cea-9b6c-33ba9c0267d2","ios":"levelo://app?vid=81207e02-e329-4cea-9b6c-33ba9c0267d2"},"vehicle_type_id":"4","last_reported":1692896761,"current_range_meters":31200,"station_id":"ce4bh512rcd13ifvqe3g","pricing_plan_id":"free"},{"bike_id":"414290bd-353b-41b2-bd9a-1d3c2c5739df","system_id":"levelo_inurba_marseille","lat":43.28465,"lon":5.38417,"is_reserved":false,"is_disabled":false,"rental_uris":{"android":"levelo://app?vid=414290bd-353b-41b2-bd9a-1d3c2c5739df","ios":"levelo://app?vid=414290bd-353b-41b2-bd9a-1d3c2c5739df"},"vehicle_type_id":"4","last_reported":1692896761,"current_range_meters":26400,"station_id":"ce4bh512rcd13ifvqe3g","pricing_plan_id":"free"},{"bike_id":"b58136ee-ffb9-4237-9293-16846231b396","system_id":"levelo_inurba_marseille","lat":43.288497,"lon":5.393089,"is_reserved":false,"is_disabled":false,"rental_uris":{"android":"levelo://app?vid=b58136ee-ffb9-4237-9293-16846231b396","ios":"levelo://app?vid=b58136ee-ffb9-4237-9293-16846231b396"},"vehicle_type_id":"4","last_reported":1692896761,"current_range_meters":0,"station_id":"ce4bh2p2rcd13ifvqdi0","pricing_plan_id":"free"},{"bike_id":"2c15f53b-66c9-4dc3-badd-f680e07ef8de","system_id":"levelo_inurba_marseille","lat":43.28425,"lon":5.34989,"is_reserved":false,"is_disabled":false,"rental_uris":{"android":"levelo://app?vid=2c15f53b-66c9-4dc3-badd-f680e07ef8de","ios":"levelo://app?vid=2c15f53b-66c9-4dc3-badd-f680e07ef8de"},"vehicle_type_id":"4","last_reported":1692896761,"current_range_meters":6800,"station_id":"ce4bhbh2rcd13ifvqepg","pricing_plan_id":"free"},{"bike_id":"f3269bb0-1649-4a6c-b2df-bca5449afeba","system_id":"levelo_inurba_marseille","lat":43.284219,"lon":5.3497,"is_reserved":false,"is_disabled":false,"rental_uris":{"android":"levelo://app?vid=f3269bb0-1649-4a6c-b2df-bca5449afeba","ios":"levelo://app?vid=f3269bb0-1649-4a6c-b2df-bca5449afeba"},"vehicle_type_id":"4","last_reported":1692896761,"current_range_meters":22800,"station_id":"ce4bhbh2rcd13ifvqepg","pricing_plan_id":"free"},{"bike_id":"33822efa-e5a6-4523-8b60-4a593a388655","system_id":"levelo_inurba_marseille","lat":43.284217,"lon":5.349697,"is_reserved":false,"is_disabled":false,"rental_uris":{"android":"levelo://app?vid=33822efa-e5a6-4523-8b60-4a593a388655","ios":"levelo://app?vid=33822efa-e5a6-4523-8b60-4a593a388655"},"vehicle_type_id":"4","last_reported":1692896761,"current_range_meters":30000,"station_id":"ce4bhbh2rcd13ifvqepg","pricing_plan_id":"free"},{"bike_id":"725fe98d-03c5-478c-83e7-354716f8aeb7","system_id":"levelo_inurba_marseille","lat":43.284217,"lon":5.349697,"is_reserved":false,"is_disabled":false,"rental_uris":{"android":"levelo://app?vid=725fe98d-03c5-478c-83e7-354716f8aeb7","ios":"levelo://app?vid=725fe98d-03c5-478c-83e7-354716f8aeb7"},"vehicle_type_id":"4","last_reported":1692896761,"current_range_meters":21200,"station_id":"ce4bhbh2rcd13ifvqepg","pricing_plan_id":"free"},{"bike_id":"010d4d54-34c3-4277-be89-13cb25476a7f","system_id":"levelo_inurba_marseille","lat":43.284194,"lon":5.349811,"is_reserved":false,"is_disabled":false,"rental_uris":{"android":"levelo://app?vid=010d4d54-34c3-4277-be89-13cb25476a7f","ios":"levelo://app?vid=010d4d54-34c3-4277-be89-13cb25476a7f"},"vehicle_type_id":"4","last_reported":1692896761,"current_range_meters":2800,"station_id":"ce4bhbh2rcd13ifvqepg","pricing_plan_id":"free"},{"bike_id":"8a253eb2-bdb8-4d0e-951c-087b2240edc5","system_id":"levelo_inurba_marseille","lat":43.28418,"lon":5.34977,"is_reserved":false,"is_disabled":false,"rental_uris":{"android":"levelo://app?vid=8a253eb2-bdb8-4d0e-951c-087b2240edc5","ios":"levelo://app?vid=8a253eb2-bdb8-4d0e-951c-087b2240edc5"},"vehicle_type_id":"4","last_reported":1692896761,"current_range_meters":11200,"station_id":"ce4bhbh2rcd13ifvqepg","pricing_plan_id":"free"},{"bike_id":"6995bf44-d1c3-46d9-96a9-1beaaadae618","system_id":"levelo_inurba_marseille","lat":43.28416,"lon":5.34983,"is_reserved":false,"is_disabled":false,"rental_uris":{"android":"levelo://app?vid=6995bf44-d1c3-46d9-96a9-1beaaadae618","ios":"levelo://app?vid=6995bf44-d1c3-46d9-96a9-1beaaadae618"},"vehicle_type_id":"4","last_reported":1692896761,"current_range_meters":12800,"station_id":"ce4bhbh2rcd13ifvqepg","pricing_plan_id":"free"},{"bike_id":"cb81d566-a7fd-4bd1-93f3-82a35f4aa11f","system_id":"levelo_inurba_marseille","lat":43.28416,"lon":5.3498,"is_reserved":false,"is_disabled":false,"rental_uris":{"android":"levelo://app?vid=cb81d566-a7fd-4bd1-93f3-82a35f4aa11f","ios":"levelo://app?vid=cb81d566-a7fd-4bd1-93f3-82a35f4aa11f"},"vehicle_type_id":"4","last_reported":1692896761,"current_range_meters":13600,"station_id":"ce4bhbh2rcd13ifvqepg","pricing_plan_id":"free"},{"bike_id":"49bba190-4436-4530-9b61-a29a185490c7","system_id":"levelo_inurba_marseille","lat":43.284217,"lon":5.349697,"is_reserved":false,"is_disabled":false,"rental_uris":{"android":"levelo://app?vid=49bba190-4436-4530-9b61-a29a185490c7","ios":"levelo://app?vid=49bba190-4436-4530-9b61-a29a185490c7"},"vehicle_type_id":"4","last_reported":1692896761,"current_range_meters":17600,"station_id":"ce4bhbh2rcd13ifvqepg","pricing_plan_id":"free"},{"bike_id":"f50aca5f-cf5b-4020-925f-826a2e34874f","system_id":"levelo_inurba_marseille","lat":43.289363,"lon":5.396322,"is_reserved":false,"is_disabled":false,"rental_uris":{"android":"levelo://app?vid=f50aca5f-cf5b-4020-925f-826a2e34874f","ios":"levelo://app?vid=f50aca5f-cf5b-4020-925f-826a2e34874f"},"vehicle_type_id":"4","last_reported":1692896761,"current_range_meters":31200,"station_id":"ce4bh3h2rcd13ifvqdn0","pricing_plan_id":"free"},{"bike_id":"79ae07f7-3d9b-456b-927e-8e880eafedba","system_id":"levelo_inurba_marseille","lat":43.32572,"lon":5.40673,"is_reserved":false,"is_disabled":false,"rental_uris":{"android":"levelo://app?vid=79ae07f7-3d9b-456b-927e-8e880eafedba","ios":"levelo://app?vid=79ae07f7-3d9b-456b-927e-8e880eafedba"},"vehicle_type_id":"4","last_reported":1692896761,"current_range_meters":0,"station_id":"","pricing_plan_id":"free"},{"bike_id":"28b9ba6b-a500-4074-97a8-cee4d8f5bbb3","system_id":"levelo_inurba_marseille","lat":43.282744,"lon":5.350533,"is_reserved":false,"is_disabled":false,"rental_uris":{"android":"levelo://app?vid=28b9ba6b-a500-4074-97a8-cee4d8f5bbb3","ios":"levelo://app?vid=28b9ba6b-a500-4074-97a8-cee4d8f5bbb3"},"vehicle_type_id":"4","last_reported":1692896761,"current_range_meters":19600,"station_id":"ce4bhbp2rcd13ifvqerg","pricing_plan_id":"free"},{"bike_id":"97b50a9b-2a27-43b7-9b7d-2554e52a8935","system_id":"levelo_inurba_marseille","lat":43.282754,"lon":5.350519,"is_reserved":false,"is_disabled":false,"rental_uris":{"android":"levelo://app?vid=97b50a9b-2a27-43b7-9b7d-2554e52a8935","ios":"levelo://app?vid=97b50a9b-2a27-43b7-9b7d-2554e52a8935"},"vehicle_type_id":"4","last_reported":1692896761,"current_range_meters":1600,"station_id":"ce4bhbp2rcd13ifvqerg","pricing_plan_id":"free"},{"bike_id":"e835add8-f523-47ca-af71-6fc21e83c485","system_id":"levelo_inurba_marseille","lat":43.28267,"lon":5.35061,"is_reserved":false,"is_disabled":false,"rental_uris":{"android":"levelo://app?vid=e835add8-f523-47ca-af71-6fc21e83c485","ios":"levelo://app?vid=e835add8-f523-47ca-af71-6fc21e83c485"},"vehicle_type_id":"4","last_reported":1692896761,"current_range_meters":20800,"station_id":"ce4bhbp2rcd13ifvqerg","pricing_plan_id":"free"},{"bike_id":"da07018b-f76c-46db-9680-6daf43f4a0b4","system_id":"levelo_inurba_marseille","lat":43.282744,"lon":5.350533,"is_reserved":false,"is_disabled":false,"rental_uris":{"android":"levelo://app?vid=da07018b-f76c-46db-9680-6daf43f4a0b4","ios":"levelo://app?vid=da07018b-f76c-46db-9680-6daf43f4a0b4"},"vehicle_type_id":"4","last_reported":1692896761,"current_range_meters":18400,"station_id":"ce4bhbp2rcd13ifvqerg","pricing_plan_id":"free"},{"bike_id":"9f46cfde-4f76-4076-bade-5765c2d3d473","system_id":"levelo_inurba_marseille","lat":43.28039,"lon":5.369297,"is_reserved":false,"is_disabled":false,"rental_uris":{"android":"levelo://app?vid=9f46cfde-4f76-4076-bade-5765c2d3d473","ios":"levelo://app?vid=9f46cfde-4f76-4076-bade-5765c2d3d473"},"vehicle_type_id":"4","last_reported":1692896761,"current_range_meters":31200,"station_id":"ce4bha12rcd13ifvqef0","pricing_plan_id":"free"},{"bike_id":"acf615b6-d8c1-4373-975b-772f7e42c3b0","system_id":"levelo_inurba_marseille","lat":43.292724,"lon":5.401131,"is_reserved":false,"is_disabled":false,"rental_uris":{"android":"levelo://app?vid=acf615b6-d8c1-4373-975b-772f7e42c3b0","ios":"levelo://app?vid=acf615b6-d8c1-4373-975b-772f7e42c3b0"},"vehicle_type_id":"4","last_reported":1692896761,"current_range_meters":22800,"station_id":"ce4bh312rcd13ifvqdk0","pricing_plan_id":"free"},{"bike_id":"62505c25-28d1-4fe4-b0a0-7a168c7e984d","system_id":"levelo_inurba_marseille","lat":43.296263,"lon":5.40601,"is_reserved":false,"is_disabled":false,"rental_uris":{"android":"levelo://app?vid=62505c25-28d1-4fe4-b0a0-7a168c7e984d","ios":"levelo://app?vid=62505c25-28d1-4fe4-b0a0-7a168c7e984d"},"vehicle_type_id":"4","last_reported":1692896761,"current_range_meters":0,"station_id":"ce4bh0h2rcd13ifvqd60","pricing_plan_id":"free"},{"bike_id":"c2b61dc1-cd9f-45c2-828d-f1cdf19c2038","system_id":"levelo_inurba_marseille","lat":43.296263,"lon":5.40601,"is_reserved":false,"is_disabled":false,"rental_uris":{"android":"levelo://app?vid=c2b61dc1-cd9f-45c2-828d-f1cdf19c2038","ios":"levelo://app?vid=c2b61dc1-cd9f-45c2-828d-f1cdf19c2038"},"vehicle_type_id":"4","last_reported":1692896761,"current_range_meters":23600,"station_id":"ce4bh0h2rcd13ifvqd60","pricing_plan_id":"free"},{"bike_id":"5a50c99e-3c63-455e-9b44-4a121cdda894","system_id":"levelo_inurba_marseille","lat":43.28573,"lon":5.394992,"is_reserved":false,"is_disabled":false,"rental_uris":{"android":"levelo://app?vid=5a50c99e-3c63-455e-9b44-4a121cdda894","ios":"levelo://app?vid=5a50c99e-3c63-455e-9b44-4a121cdda894"},"vehicle_type_id":"4","last_reported":1692896761,"current_range_meters":400,"station_id":"ce4bh292rcd13ifvqdg0","pricing_plan_id":"free"},{"bike_id":"1df638fe-9262-4d2e-97f3-e55aed546475","system_id":"levelo_inurba_marseille","lat":43.32656,"lon":5.40992,"is_reserved":false,"is_disabled":false,"rental_uris":{"android":"levelo://app?vid=1df638fe-9262-4d2e-97f3-e55aed546475","ios":"levelo://app?vid=1df638fe-9262-4d2e-97f3-e55aed546475"},"vehicle_type_id":"4","last_reported":1692896761,"current_range_meters":28400,"station_id":"ce4bhpp2rcd13ifvqhgg","pricing_plan_id":"free"},{"bike_id":"c8df95a4-8dd4-4266-9b3a-2b6bf800c8bf","system_id":"levelo_inurba_marseille","lat":43.32658,"lon":5.40993,"is_reserved":false,"is_disabled":false,"rental_uris":{"android":"levelo://app?vid=c8df95a4-8dd4-4266-9b3a-2b6bf800c8bf","ios":"levelo://app?vid=c8df95a4-8dd4-4266-9b3a-2b6bf800c8bf"},"vehicle_type_id":"4","last_reported":1692896761,"current_range_meters":28400,"station_id":"ce4bhpp2rcd13ifvqhgg","pricing_plan_id":"free"},{"bike_id":"ef316339-2a9a-417f-b678-7a5af43ec4ff","system_id":"levelo_inurba_marseille","lat":43.3266,"lon":5.40992,"is_reserved":false,"is_disabled":false,"rental_uris":{"android":"levelo://app?vid=ef316339-2a9a-417f-b678-7a5af43ec4ff","ios":"levelo://app?vid=ef316339-2a9a-417f-b678-7a5af43ec4ff"},"vehicle_type_id":"4","last_reported":1692896761,"current_range_meters":27600,"station_id":"ce4bhpp2rcd13ifvqhgg","pricing_plan_id":"free"},{"bike_id":"0182811c-7990-4e85-93c1-dcb0f1497a54","system_id":"levelo_inurba_marseille","lat":43.32658,"lon":5.40994,"is_reserved":false,"is_disabled":false,"rental_uris":{"android":"levelo://app?vid=0182811c-7990-4e85-93c1-dcb0f1497a54","ios":"levelo://app?vid=0182811c-7990-4e85-93c1-dcb0f1497a54"},"vehicle_type_id":"4","last_reported":1692896761,"current_range_meters":16000,"station_id":"ce4bhpp2rcd13ifvqhgg","pricing_plan_id":"free"},{"bike_id":"7277e535-09c0-4b0a-afcd-8804ba5ea18b","system_id":"levelo_inurba_marseille","lat":43.326605,"lon":5.409903,"is_reserved":false,"is_disabled":false,"rental_uris":{"android":"levelo://app?vid=7277e535-09c0-4b0a-afcd-8804ba5ea18b","ios":"levelo://app?vid=7277e535-09c0-4b0a-afcd-8804ba5ea18b"},"vehicle_type_id":"4","last_reported":1692896761,"current_range_meters":28800,"station_id":"ce4bhpp2rcd13ifvqhgg","pricing_plan_id":"free"},{"bike_id":"9d6c2e5d-9ed9-48c2-bd26-83186c0e77f6","system_id":"levelo_inurba_marseille","lat":43.32661,"lon":5.40993,"is_reserved":false,"is_disabled":false,"rental_uris":{"android":"levelo://app?vid=9d6c2e5d-9ed9-48c2-bd26-83186c0e77f6","ios":"levelo://app?vid=9d6c2e5d-9ed9-48c2-bd26-83186c0e77f6"},"vehicle_type_id":"4","last_reported":1692896761,"current_range_meters":30400,"station_id":"ce4bhpp2rcd13ifvqhgg","pricing_plan_id":"free"},{"bike_id":"3012b52b-725b-4ccc-9d3e-3fb14617a0b6","system_id":"levelo_inurba_marseille","lat":43.32655,"lon":5.40997,"is_reserved":false,"is_disabled":false,"rental_uris":{"android":"levelo://app?vid=3012b52b-725b-4ccc-9d3e-3fb14617a0b6","ios":"levelo://app?vid=3012b52b-725b-4ccc-9d3e-3fb14617a0b6"},"vehicle_type_id":"4","last_reported":1692896761,"current_range_meters":31200,"station_id":"ce4bhpp2rcd13ifvqhgg","pricing_plan_id":"free"},{"bike_id":"9be732f8-8c60-4a3b-a06f-829466878453","system_id":"levelo_inurba_marseille","lat":43.32661,"lon":5.40997,"is_reserved":false,"is_disabled":false,"rental_uris":{"android":"levelo://app?vid=9be732f8-8c60-4a3b-a06f-829466878453","ios":"levelo://app?vid=9be732f8-8c60-4a3b-a06f-829466878453"},"vehicle_type_id":"4","last_reported":1692896761,"current_range_meters":31200,"station_id":"ce4bhpp2rcd13ifvqhgg","pricing_plan_id":"free"},{"bike_id":"c327718a-8fe6-4791-a349-aba0f8f94e82","system_id":"levelo_inurba_marseille","lat":43.279742,"lon":5.38744,"is_reserved":false,"is_disabled":false,"rental_uris":{"android":"levelo://app?vid=c327718a-8fe6-4791-a349-aba0f8f94e82","ios":"levelo://app?vid=c327718a-8fe6-4791-a349-aba0f8f94e82"},"vehicle_type_id":"4","last_reported":1692896761,"current_range_meters":24800,"station_id":"ce4bhg12rcd13ifvqf80","pricing_plan_id":"free"},{"bike_id":"2fce2067-ff10-47ae-b1b6-36ee63b03432","system_id":"levelo_inurba_marseille","lat":43.320045,"lon":5.415046,"is_reserved":false,"is_disabled":false,"rental_uris":{"android":"levelo://app?vid=2fce2067-ff10-47ae-b1b6-36ee63b03432","ios":"levelo://app?vid=2fce2067-ff10-47ae-b1b6-36ee63b03432"},"vehicle_type_id":"4","last_reported":1692896761,"current_range_meters":8000,"station_id":"ce4bhq92rcd13ifvqhkg","pricing_plan_id":"free"},{"bike_id":"dc130a96-1e90-4d60-beac-f8b1e5d602a9","system_id":"levelo_inurba_marseille","lat":43.27618,"lon":5.361009,"is_reserved":false,"is_disabled":false,"rental_uris":{"android":"levelo://app?vid=dc130a96-1e90-4d60-beac-f8b1e5d602a9","ios":"levelo://app?vid=dc130a96-1e90-4d60-beac-f8b1e5d602a9"},"vehicle_type_id":"4","last_reported":1692896761,"current_range_meters":18400,"station_id":"ce4bgj92rcd13ifvqbe0","pricing_plan_id":"free"},{"bike_id":"612b534f-5072-4bfe-a60c-a1f1365ca7de","system_id":"levelo_inurba_marseille","lat":43.27618,"lon":5.361009,"is_reserved":false,"is_disabled":false,"rental_uris":{"android":"levelo://app?vid=612b534f-5072-4bfe-a60c-a1f1365ca7de","ios":"levelo://app?vid=612b534f-5072-4bfe-a60c-a1f1365ca7de"},"vehicle_type_id":"4","last_reported":1692896761,"current_range_meters":14800,"station_id":"ce4bgj92rcd13ifvqbe0","pricing_plan_id":"free"},{"bike_id":"9e81489e-08af-4ef8-9365-8692a2d018d3","system_id":"levelo_inurba_marseille","lat":43.27618,"lon":5.361009,"is_reserved":false,"is_disabled":false,"rental_uris":{"android":"levelo://app?vid=9e81489e-08af-4ef8-9365-8692a2d018d3","ios":"levelo://app?vid=9e81489e-08af-4ef8-9365-8692a2d018d3"},"vehicle_type_id":"4","last_reported":1692896761,"current_range_meters":12000,"station_id":"ce4bgj92rcd13ifvqbe0","pricing_plan_id":"free"},{"bike_id":"e26cd1eb-cd60-435b-84f0-06e7536229f6","system_id":"levelo_inurba_marseille","lat":43.27606,"lon":5.36113,"is_reserved":false,"is_disabled":false,"rental_uris":{"android":"levelo://app?vid=e26cd1eb-cd60-435b-84f0-06e7536229f6","ios":"levelo://app?vid=e26cd1eb-cd60-435b-84f0-06e7536229f6"},"vehicle_type_id":"4","last_reported":1692896761,"current_range_meters":20000,"station_id":"ce4bgj92rcd13ifvqbe0","pricing_plan_id":"free"},{"bike_id":"e771f898-9276-4916-b2af-8cad46c44f8e","system_id":"levelo_inurba_marseille","lat":43.27415,"lon":5.36203,"is_reserved":false,"is_disabled":false,"rental_uris":{"android":"levelo://app?vid=e771f898-9276-4916-b2af-8cad46c44f8e","ios":"levelo://app?vid=e771f898-9276-4916-b2af-8cad46c44f8e"},"vehicle_type_id":"4","last_reported":1692896761,"current_range_meters":6800,"station_id":"","pricing_plan_id":"free"},{"bike_id":"dab7bb93-5eee-47bf-9b93-b0d92b78773f","system_id":"levelo_inurba_marseille","lat":43.303837,"lon":5.418724,"is_reserved":false,"is_disabled":false,"rental_uris":{"android":"levelo://app?vid=dab7bb93-5eee-47bf-9b93-b0d92b78773f","ios":"levelo://app?vid=dab7bb93-5eee-47bf-9b93-b0d92b78773f"},"vehicle_type_id":"4","last_reported":1692896761,"current_range_meters":21600,"station_id":"ce4bhop2rcd13ifvqh7g","pricing_plan_id":"free"},{"bike_id":"28f3f861-7f3c-4170-b9d8-8fd34dff154f","system_id":"levelo_inurba_marseille","lat":43.273825,"lon":5.362627,"is_reserved":false,"is_disabled":false,"rental_uris":{"android":"levelo://app?vid=28f3f861-7f3c-4170-b9d8-8fd34dff154f","ios":"levelo://app?vid=28f3f861-7f3c-4170-b9d8-8fd34dff154f"},"vehicle_type_id":"4","last_reported":1692896761,"current_range_meters":25200,"station_id":"ce4bhbh2rcd13ifvqeo0","pricing_plan_id":"free"},{"bike_id":"7a7a1442-743c-481f-a419-e4588dba9d67","system_id":"levelo_inurba_marseille","lat":43.273609,"lon":5.362708,"is_reserved":false,"is_disabled":false,"rental_uris":{"android":"levelo://app?vid=7a7a1442-743c-481f-a419-e4588dba9d67","ios":"levelo://app?vid=7a7a1442-743c-481f-a419-e4588dba9d67"},"vehicle_type_id":"4","last_reported":1692896761,"current_range_meters":31600,"station_id":"ce4bhbh2rcd13ifvqeo0","pricing_plan_id":"free"},{"bike_id":"82550b77-5c39-4a70-b584-24c7e53d2615","system_id":"levelo_inurba_marseille","lat":43.273609,"lon":5.362708,"is_reserved":false,"is_disabled":false,"rental_uris":{"android":"levelo://app?vid=82550b77-5c39-4a70-b584-24c7e53d2615","ios":"levelo://app?vid=82550b77-5c39-4a70-b584-24c7e53d2615"},"vehicle_type_id":"4","last_reported":1692896761,"current_range_meters":22000,"station_id":"ce4bhbh2rcd13ifvqeo0","pricing_plan_id":"free"},{"bike_id":"4e350090-62ef-4e99-8217-1a0406904748","system_id":"levelo_inurba_marseille","lat":43.27373,"lon":5.36249,"is_reserved":false,"is_disabled":false,"rental_uris":{"android":"levelo://app?vid=4e350090-62ef-4e99-8217-1a0406904748","ios":"levelo://app?vid=4e350090-62ef-4e99-8217-1a0406904748"},"vehicle_type_id":"4","last_reported":1692896761,"current_range_meters":31200,"station_id":"ce4bhbh2rcd13ifvqeo0","pricing_plan_id":"free"},{"bike_id":"3a569cf2-c3d2-4ee8-a5bb-5e08ded5d9ec","system_id":"levelo_inurba_marseille","lat":43.273609,"lon":5.362708,"is_reserved":false,"is_disabled":false,"rental_uris":{"android":"levelo://app?vid=3a569cf2-c3d2-4ee8-a5bb-5e08ded5d9ec","ios":"levelo://app?vid=3a569cf2-c3d2-4ee8-a5bb-5e08ded5d9ec"},"vehicle_type_id":"4","last_reported":1692896761,"current_range_meters":2400,"station_id":"ce4bhbh2rcd13ifvqeo0","pricing_plan_id":"free"},{"bike_id":"a56a1481-c2da-457b-82c5-9d78d1205a46","system_id":"levelo_inurba_marseille","lat":43.275625,"lon":5.384392,"is_reserved":false,"is_disabled":false,"rental_uris":{"android":"levelo://app?vid=a56a1481-c2da-457b-82c5-9d78d1205a46","ios":"levelo://app?vid=a56a1481-c2da-457b-82c5-9d78d1205a46"},"vehicle_type_id":"4","last_reported":1692896761,"current_range_meters":1600,"station_id":"ce4bhh92rcd13ifvqfi0","pricing_plan_id":"free"},{"bike_id":"a67c09cd-0198-413d-8223-a8fbd1551ce7","system_id":"levelo_inurba_marseille","lat":43.27369,"lon":5.36252,"is_reserved":false,"is_disabled":false,"rental_uris":{"android":"levelo://app?vid=a67c09cd-0198-413d-8223-a8fbd1551ce7","ios":"levelo://app?vid=a67c09cd-0198-413d-8223-a8fbd1551ce7"},"vehicle_type_id":"4","last_reported":1692896761,"current_range_meters":26400,"station_id":"ce4bhbh2rcd13ifvqeo0","pricing_plan_id":"free"},{"bike_id":"9278726e-fbb6-4d1c-afd8-9bbbcc5e3810","system_id":"levelo_inurba_marseille","lat":43.3361,"lon":5.41031,"is_reserved":false,"is_disabled":false,"rental_uris":{"android":"levelo://app?vid=9278726e-fbb6-4d1c-afd8-9bbbcc5e3810","ios":"levelo://app?vid=9278726e-fbb6-4d1c-afd8-9bbbcc5e3810"},"vehicle_type_id":"4","last_reported":1692896761,"current_range_meters":13600,"station_id":"ce4bhqh2rcd13ifvqhmg","pricing_plan_id":"free"},{"bike_id":"2c002134-e4d2-41d1-b436-28e8e2ea24ca","system_id":"levelo_inurba_marseille","lat":43.276769,"lon":5.388787,"is_reserved":false,"is_disabled":false,"rental_uris":{"android":"levelo://app?vid=2c002134-e4d2-41d1-b436-28e8e2ea24ca","ios":"levelo://app?vid=2c002134-e4d2-41d1-b436-28e8e2ea24ca"},"vehicle_type_id":"4","last_reported":1692896761,"current_range_meters":28800,"station_id":"ce4bhi12rcd13ifvqfo0","pricing_plan_id":"free"},{"bike_id":"7b19102a-7d3e-44cf-8194-721c0c6d79e0","system_id":"levelo_inurba_marseille","lat":43.317121,"lon":5.423936,"is_reserved":false,"is_disabled":false,"rental_uris":{"android":"levelo://app?vid=7b19102a-7d3e-44cf-8194-721c0c6d79e0","ios":"levelo://app?vid=7b19102a-7d3e-44cf-8194-721c0c6d79e0"},"vehicle_type_id":"4","last_reported":1692896761,"current_range_meters":14800,"station_id":"ce4bhp92rcd13ifvqhbg","pricing_plan_id":"free"},{"bike_id":"8597d573-3163-48a6-852f-be56568980fa","system_id":"levelo_inurba_marseille","lat":43.34139,"lon":5.409,"is_reserved":false,"is_disabled":false,"rental_uris":{"android":"levelo://app?vid=8597d573-3163-48a6-852f-be56568980fa","ios":"levelo://app?vid=8597d573-3163-48a6-852f-be56568980fa"},"vehicle_type_id":"4","last_reported":1692896761,"current_range_meters":27200,"station_id":"ce4bhqh2rcd13ifvqhlg","pricing_plan_id":"free"},{"bike_id":"517e42e8-7bf0-407a-9148-08d9c9486339","system_id":"levelo_inurba_marseille","lat":43.34142,"lon":5.40898,"is_reserved":false,"is_disabled":false,"rental_uris":{"android":"levelo://app?vid=517e42e8-7bf0-407a-9148-08d9c9486339","ios":"levelo://app?vid=517e42e8-7bf0-407a-9148-08d9c9486339"},"vehicle_type_id":"4","last_reported":1692896761,"current_range_meters":30000,"station_id":"ce4bhqh2rcd13ifvqhlg","pricing_plan_id":"free"},{"bike_id":"80bc4f7f-6b01-4264-9dc0-f1d8e1d4062e","system_id":"levelo_inurba_marseille","lat":43.34142,"lon":5.40898,"is_reserved":false,"is_disabled":false,"rental_uris":{"android":"levelo://app?vid=80bc4f7f-6b01-4264-9dc0-f1d8e1d4062e","ios":"levelo://app?vid=80bc4f7f-6b01-4264-9dc0-f1d8e1d4062e"},"vehicle_type_id":"4","last_reported":1692896761,"current_range_meters":23200,"station_id":"ce4bhqh2rcd13ifvqhlg","pricing_plan_id":"free"},{"bike_id":"56fae68c-5275-441a-9dc9-be69facb353e","system_id":"levelo_inurba_marseille","lat":43.34142,"lon":5.40901,"is_reserved":false,"is_disabled":false,"rental_uris":{"android":"levelo://app?vid=56fae68c-5275-441a-9dc9-be69facb353e","ios":"levelo://app?vid=56fae68c-5275-441a-9dc9-be69facb353e"},"vehicle_type_id":"4","last_reported":1692896761,"current_range_meters":25600,"station_id":"ce4bhqh2rcd13ifvqhlg","pricing_plan_id":"free"},{"bike_id":"31852202-872c-40ee-ad71-fa11e1944efb","system_id":"levelo_inurba_marseille","lat":43.340804,"lon":5.410219,"is_reserved":false,"is_disabled":false,"rental_uris":{"android":"levelo://app?vid=31852202-872c-40ee-ad71-fa11e1944efb","ios":"levelo://app?vid=31852202-872c-40ee-ad71-fa11e1944efb"},"vehicle_type_id":"4","last_reported":1692896761,"current_range_meters":22800,"station_id":"ce4bhqh2rcd13ifvqhlg","pricing_plan_id":"free"},{"bike_id":"b48fafa3-f376-4f62-bf2a-79b952294cee","system_id":"levelo_inurba_marseille","lat":43.34143,"lon":5.40902,"is_reserved":false,"is_disabled":false,"rental_uris":{"android":"levelo://app?vid=b48fafa3-f376-4f62-bf2a-79b952294cee","ios":"levelo://app?vid=b48fafa3-f376-4f62-bf2a-79b952294cee"},"vehicle_type_id":"4","last_reported":1692896761,"current_range_meters":29600,"station_id":"ce4bhqh2rcd13ifvqhlg","pricing_plan_id":"free"},{"bike_id":"002bb0a0-bb1a-470c-9c13-2518fae8f480","system_id":"levelo_inurba_marseille","lat":43.34144,"lon":5.40903,"is_reserved":false,"is_disabled":false,"rental_uris":{"android":"levelo://app?vid=002bb0a0-bb1a-470c-9c13-2518fae8f480","ios":"levelo://app?vid=002bb0a0-bb1a-470c-9c13-2518fae8f480"},"vehicle_type_id":"4","last_reported":1692896761,"current_range_meters":26400,"station_id":"ce4bhqh2rcd13ifvqhlg","pricing_plan_id":"free"},{"bike_id":"e70b76ea-5268-4e50-abe3-2f0407cbacc6","system_id":"levelo_inurba_marseille","lat":43.34148,"lon":5.40902,"is_reserved":false,"is_disabled":false,"rental_uris":{"android":"levelo://app?vid=e70b76ea-5268-4e50-abe3-2f0407cbacc6","ios":"levelo://app?vid=e70b76ea-5268-4e50-abe3-2f0407cbacc6"},"vehicle_type_id":"4","last_reported":1692896761,"current_range_meters":9200,"station_id":"ce4bhqh2rcd13ifvqhlg","pricing_plan_id":"free"},{"bike_id":"ff44c72d-7b66-4a26-994c-f5611c98fe22","system_id":"levelo_inurba_marseille","lat":43.273125,"lon":5.390731,"is_reserved":false,"is_disabled":false,"rental_uris":{"android":"levelo://app?vid=ff44c72d-7b66-4a26-994c-f5611c98fe22","ios":"levelo://app?vid=ff44c72d-7b66-4a26-994c-f5611c98fe22"},"vehicle_type_id":"4","last_reported":1692896761,"current_range_meters":0,"station_id":"ce4bhgp2rcd13ifvqfe0","pricing_plan_id":"free"},{"bike_id":"9ec715d9-1f84-423c-bfeb-74dbbf1a9467","system_id":"levelo_inurba_marseille","lat":43.26895,"lon":5.36815,"is_reserved":false,"is_disabled":false,"rental_uris":{"android":"levelo://app?vid=9ec715d9-1f84-423c-bfeb-74dbbf1a9467","ios":"levelo://app?vid=9ec715d9-1f84-423c-bfeb-74dbbf1a9467"},"vehicle_type_id":"4","last_reported":1692896761,"current_range_meters":19200,"station_id":"","pricing_plan_id":"free"},{"bike_id":"d258b83b-3a66-4e05-a75c-cd773bc2f8fc","system_id":"levelo_inurba_marseille","lat":43.26892,"lon":5.36812,"is_reserved":false,"is_disabled":false,"rental_uris":{"android":"levelo://app?vid=d258b83b-3a66-4e05-a75c-cd773bc2f8fc","ios":"levelo://app?vid=d258b83b-3a66-4e05-a75c-cd773bc2f8fc"},"vehicle_type_id":"4","last_reported":1692896761,"current_range_meters":28800,"station_id":"","pricing_plan_id":"free"},{"bike_id":"ae01cb88-b30b-490f-95b3-c0db0e86ff9b","system_id":"levelo_inurba_marseille","lat":43.29555,"lon":5.42282,"is_reserved":false,"is_disabled":false,"rental_uris":{"android":"levelo://app?vid=ae01cb88-b30b-490f-95b3-c0db0e86ff9b","ios":"levelo://app?vid=ae01cb88-b30b-490f-95b3-c0db0e86ff9b"},"vehicle_type_id":"4","last_reported":1692896761,"current_range_meters":27600,"station_id":"ce4bhph2rcd13ifvqhdg","pricing_plan_id":"free"},{"bike_id":"e925c7fc-62b4-46e0-b980-1e64df98966e","system_id":"levelo_inurba_marseille","lat":43.295511,"lon":5.422926,"is_reserved":false,"is_disabled":false,"rental_uris":{"android":"levelo://app?vid=e925c7fc-62b4-46e0-b980-1e64df98966e","ios":"levelo://app?vid=e925c7fc-62b4-46e0-b980-1e64df98966e"},"vehicle_type_id":"4","last_reported":1692896761,"current_range_meters":26800,"station_id":"ce4bhph2rcd13ifvqhdg","pricing_plan_id":"free"},{"bike_id":"a18625e6-129f-4664-9d5f-d150316ca4f5","system_id":"levelo_inurba_marseille","lat":43.278128,"lon":5.407195,"is_reserved":false,"is_disabled":false,"rental_uris":{"android":"levelo://app?vid=a18625e6-129f-4664-9d5f-d150316ca4f5","ios":"levelo://app?vid=a18625e6-129f-4664-9d5f-d150316ca4f5"},"vehicle_type_id":"4","last_reported":1692896761,"current_range_meters":0,"station_id":"ce4bhnh2rcd13ifvqgtg","pricing_plan_id":"free"},{"bike_id":"0b994e6e-a154-494b-a520-5321c05469af","system_id":"levelo_inurba_marseille","lat":43.279465,"lon":5.410561,"is_reserved":false,"is_disabled":false,"rental_uris":{"android":"levelo://app?vid=0b994e6e-a154-494b-a520-5321c05469af","ios":"levelo://app?vid=0b994e6e-a154-494b-a520-5321c05469af"},"vehicle_type_id":"4","last_reported":1692896761,"current_range_meters":4400,"station_id":"ce4bhnp2rcd13ifvqh0g","pricing_plan_id":"free"},{"bike_id":"afce1e8a-9a20-4476-8a11-8bdb5a71d5b9","system_id":"levelo_inurba_marseille","lat":43.2668,"lon":5.38252,"is_reserved":false,"is_disabled":false,"rental_uris":{"android":"levelo://app?vid=afce1e8a-9a20-4476-8a11-8bdb5a71d5b9","ios":"levelo://app?vid=afce1e8a-9a20-4476-8a11-8bdb5a71d5b9"},"vehicle_type_id":"4","last_reported":1692896761,"current_range_meters":0,"station_id":"ce4bhg92rcd13ifvqf90","pricing_plan_id":"free"},{"bike_id":"6e3ab586-a51c-4e6f-80fa-0b2ff07afb5e","system_id":"levelo_inurba_marseille","lat":43.27092,"lon":5.40028,"is_reserved":false,"is_disabled":false,"rental_uris":{"android":"levelo://app?vid=6e3ab586-a51c-4e6f-80fa-0b2ff07afb5e","ios":"levelo://app?vid=6e3ab586-a51c-4e6f-80fa-0b2ff07afb5e"},"vehicle_type_id":"4","last_reported":1692896761,"current_range_meters":13200,"station_id":"","pricing_plan_id":"free"},{"bike_id":"102e85ae-6c0b-4df3-b225-2f2f48c67c44","system_id":"levelo_inurba_marseille","lat":43.280003,"lon":5.416684,"is_reserved":false,"is_disabled":false,"rental_uris":{"android":"levelo://app?vid=102e85ae-6c0b-4df3-b225-2f2f48c67c44","ios":"levelo://app?vid=102e85ae-6c0b-4df3-b225-2f2f48c67c44"},"vehicle_type_id":"4","last_reported":1692896761,"current_range_meters":20400,"station_id":"ce4bho12rcd13ifvqh1g","pricing_plan_id":"free"},{"bike_id":"01c3706d-7734-4dca-afae-f3d7b601c343","system_id":"levelo_inurba_marseille","lat":43.267966,"lon":5.393976,"is_reserved":false,"is_disabled":false,"rental_uris":{"android":"levelo://app?vid=01c3706d-7734-4dca-afae-f3d7b601c343","ios":"levelo://app?vid=01c3706d-7734-4dca-afae-f3d7b601c343"},"vehicle_type_id":"4","last_reported":1692896761,"current_range_meters":17600,"station_id":"ce4bhh12rcd13ifvqfg0","pricing_plan_id":"free"},{"bike_id":"c7bbc296-128b-468c-b6ad-4ec02d5200d7","system_id":"levelo_inurba_marseille","lat":43.26229,"lon":5.37436,"is_reserved":false,"is_disabled":false,"rental_uris":{"android":"levelo://app?vid=c7bbc296-128b-468c-b6ad-4ec02d5200d7","ios":"levelo://app?vid=c7bbc296-128b-468c-b6ad-4ec02d5200d7"},"vehicle_type_id":"4","last_reported":1692896761,"current_range_meters":16800,"station_id":"","pricing_plan_id":"free"},{"bike_id":"da6acaf9-c3d5-4652-8b33-5f70af8cae7f","system_id":"levelo_inurba_marseille","lat":43.26195,"lon":5.37439,"is_reserved":false,"is_disabled":false,"rental_uris":{"android":"levelo://app?vid=da6acaf9-c3d5-4652-8b33-5f70af8cae7f","ios":"levelo://app?vid=da6acaf9-c3d5-4652-8b33-5f70af8cae7f"},"vehicle_type_id":"4","last_reported":1692896761,"current_range_meters":6000,"station_id":"","pricing_plan_id":"free"},{"bike_id":"a2ec74f1-7b4a-4d3b-a2e9-1e7500774b76","system_id":"levelo_inurba_marseille","lat":43.26195,"lon":5.37441,"is_reserved":false,"is_disabled":false,"rental_uris":{"android":"levelo://app?vid=a2ec74f1-7b4a-4d3b-a2e9-1e7500774b76","ios":"levelo://app?vid=a2ec74f1-7b4a-4d3b-a2e9-1e7500774b76"},"vehicle_type_id":"4","last_reported":1692896761,"current_range_meters":10800,"station_id":"","pricing_plan_id":"free"},{"bike_id":"d26577ae-1a46-440b-95ff-3a0ecf6f5147","system_id":"levelo_inurba_marseille","lat":43.26194,"lon":5.37445,"is_reserved":false,"is_disabled":false,"rental_uris":{"android":"levelo://app?vid=d26577ae-1a46-440b-95ff-3a0ecf6f5147","ios":"levelo://app?vid=d26577ae-1a46-440b-95ff-3a0ecf6f5147"},"vehicle_type_id":"4","last_reported":1692896761,"current_range_meters":7600,"station_id":"","pricing_plan_id":"free"},{"bike_id":"d6fe0202-a6cb-4953-aab0-9505dced1dbf","system_id":"levelo_inurba_marseille","lat":43.26193,"lon":5.37435,"is_reserved":false,"is_disabled":false,"rental_uris":{"android":"levelo://app?vid=d6fe0202-a6cb-4953-aab0-9505dced1dbf","ios":"levelo://app?vid=d6fe0202-a6cb-4953-aab0-9505dced1dbf"},"vehicle_type_id":"4","last_reported":1692896761,"current_range_meters":21600,"station_id":"","pricing_plan_id":"free"},{"bike_id":"086b1dd5-f4e7-43a4-8055-fb07b6d14a75","system_id":"levelo_inurba_marseille","lat":43.26192,"lon":5.37439,"is_reserved":false,"is_disabled":false,"rental_uris":{"android":"levelo://app?vid=086b1dd5-f4e7-43a4-8055-fb07b6d14a75","ios":"levelo://app?vid=086b1dd5-f4e7-43a4-8055-fb07b6d14a75"},"vehicle_type_id":"4","last_reported":1692896761,"current_range_meters":19600,"station_id":"","pricing_plan_id":"free"},{"bike_id":"95be610f-1fad-4edb-8ac1-7aa271f09429","system_id":"levelo_inurba_marseille","lat":43.26191,"lon":5.37441,"is_reserved":false,"is_disabled":false,"rental_uris":{"android":"levelo://app?vid=95be610f-1fad-4edb-8ac1-7aa271f09429","ios":"levelo://app?vid=95be610f-1fad-4edb-8ac1-7aa271f09429"},"vehicle_type_id":"4","last_reported":1692896761,"current_range_meters":11600,"station_id":"","pricing_plan_id":"free"},{"bike_id":"6d976d58-781a-45d9-897c-611d02565aba","system_id":"levelo_inurba_marseille","lat":43.2619,"lon":5.37438,"is_reserved":false,"is_disabled":false,"rental_uris":{"android":"levelo://app?vid=6d976d58-781a-45d9-897c-611d02565aba","ios":"levelo://app?vid=6d976d58-781a-45d9-897c-611d02565aba"},"vehicle_type_id":"4","last_reported":1692896761,"current_range_meters":22400,"station_id":"","pricing_plan_id":"free"},{"bike_id":"1213b440-485a-447f-bebb-ce844e05efeb","system_id":"levelo_inurba_marseille","lat":43.26189,"lon":5.3743,"is_reserved":false,"is_disabled":false,"rental_uris":{"android":"levelo://app?vid=1213b440-485a-447f-bebb-ce844e05efeb","ios":"levelo://app?vid=1213b440-485a-447f-bebb-ce844e05efeb"},"vehicle_type_id":"4","last_reported":1692896761,"current_range_meters":16000,"station_id":"","pricing_plan_id":"free"},{"bike_id":"3c5e2caf-ef3d-43fa-8df5-3c0a0b8e8ae6","system_id":"levelo_inurba_marseille","lat":43.26189,"lon":5.37436,"is_reserved":false,"is_disabled":false,"rental_uris":{"android":"levelo://app?vid=3c5e2caf-ef3d-43fa-8df5-3c0a0b8e8ae6","ios":"levelo://app?vid=3c5e2caf-ef3d-43fa-8df5-3c0a0b8e8ae6"},"vehicle_type_id":"4","last_reported":1692896761,"current_range_meters":26400,"station_id":"","pricing_plan_id":"free"},{"bike_id":"eba9e12c-4946-4c3e-9532-40519f37e675","system_id":"levelo_inurba_marseille","lat":43.26189,"lon":5.3744,"is_reserved":false,"is_disabled":false,"rental_uris":{"android":"levelo://app?vid=eba9e12c-4946-4c3e-9532-40519f37e675","ios":"levelo://app?vid=eba9e12c-4946-4c3e-9532-40519f37e675"},"vehicle_type_id":"4","last_reported":1692896761,"current_range_meters":8400,"station_id":"","pricing_plan_id":"free"},{"bike_id":"3aede007-9a76-49da-9e24-8059f37d085c","system_id":"levelo_inurba_marseille","lat":43.26188,"lon":5.3744,"is_reserved":false,"is_disabled":false,"rental_uris":{"android":"levelo://app?vid=3aede007-9a76-49da-9e24-8059f37d085c","ios":"levelo://app?vid=3aede007-9a76-49da-9e24-8059f37d085c"},"vehicle_type_id":"4","last_reported":1692896761,"current_range_meters":22800,"station_id":"","pricing_plan_id":"free"},{"bike_id":"1bc65f79-481c-4f5a-9510-503ff1fc4d22","system_id":"levelo_inurba_marseille","lat":43.26188,"lon":5.37446,"is_reserved":false,"is_disabled":false,"rental_uris":{"android":"levelo://app?vid=1bc65f79-481c-4f5a-9510-503ff1fc4d22","ios":"levelo://app?vid=1bc65f79-481c-4f5a-9510-503ff1fc4d22"},"vehicle_type_id":"4","last_reported":1692896761,"current_range_meters":17600,"station_id":"","pricing_plan_id":"free"},{"bike_id":"6742d20a-a004-4f92-8bb3-78c6ef6559e1","system_id":"levelo_inurba_marseille","lat":43.26187,"lon":5.37441,"is_reserved":false,"is_disabled":false,"rental_uris":{"android":"levelo://app?vid=6742d20a-a004-4f92-8bb3-78c6ef6559e1","ios":"levelo://app?vid=6742d20a-a004-4f92-8bb3-78c6ef6559e1"},"vehicle_type_id":"4","last_reported":1692896761,"current_range_meters":6800,"station_id":"","pricing_plan_id":"free"},{"bike_id":"a1876d02-9b35-467a-a1ef-16340a88af67","system_id":"levelo_inurba_marseille","lat":43.26187,"lon":5.37443,"is_reserved":false,"is_disabled":false,"rental_uris":{"android":"levelo://app?vid=a1876d02-9b35-467a-a1ef-16340a88af67","ios":"levelo://app?vid=a1876d02-9b35-467a-a1ef-16340a88af67"},"vehicle_type_id":"4","last_reported":1692896761,"current_range_meters":25600,"station_id":"","pricing_plan_id":"free"},{"bike_id":"40eabb6e-b972-4448-a2d0-0e4069a4a9d4","system_id":"levelo_inurba_marseille","lat":43.26187,"lon":5.37446,"is_reserved":false,"is_disabled":false,"rental_uris":{"android":"levelo://app?vid=40eabb6e-b972-4448-a2d0-0e4069a4a9d4","ios":"levelo://app?vid=40eabb6e-b972-4448-a2d0-0e4069a4a9d4"},"vehicle_type_id":"4","last_reported":1692896761,"current_range_meters":0,"station_id":"","pricing_plan_id":"free"},{"bike_id":"988df165-85a0-49d9-b885-6ae4a04ed801","system_id":"levelo_inurba_marseille","lat":43.26186,"lon":5.37438,"is_reserved":false,"is_disabled":false,"rental_uris":{"android":"levelo://app?vid=988df165-85a0-49d9-b885-6ae4a04ed801","ios":"levelo://app?vid=988df165-85a0-49d9-b885-6ae4a04ed801"},"vehicle_type_id":"4","last_reported":1692896761,"current_range_meters":23200,"station_id":"","pricing_plan_id":"free"},{"bike_id":"a6aaf974-ee7a-41ae-bb28-06197fd068a5","system_id":"levelo_inurba_marseille","lat":43.26186,"lon":5.3744,"is_reserved":false,"is_disabled":false,"rental_uris":{"android":"levelo://app?vid=a6aaf974-ee7a-41ae-bb28-06197fd068a5","ios":"levelo://app?vid=a6aaf974-ee7a-41ae-bb28-06197fd068a5"},"vehicle_type_id":"4","last_reported":1692896761,"current_range_meters":30000,"station_id":"","pricing_plan_id":"free"},{"bike_id":"76f85ae7-6296-4dc8-b8ed-0f8a5b82b3d6","system_id":"levelo_inurba_marseille","lat":43.26186,"lon":5.37442,"is_reserved":false,"is_disabled":false,"rental_uris":{"android":"levelo://app?vid=76f85ae7-6296-4dc8-b8ed-0f8a5b82b3d6","ios":"levelo://app?vid=76f85ae7-6296-4dc8-b8ed-0f8a5b82b3d6"},"vehicle_type_id":"4","last_reported":1692896761,"current_range_meters":22800,"station_id":"","pricing_plan_id":"free"},{"bike_id":"b1caa4c2-29c3-4e67-bc10-b4e10adeb6fa","system_id":"levelo_inurba_marseille","lat":43.26186,"lon":5.37442,"is_reserved":false,"is_disabled":false,"rental_uris":{"android":"levelo://app?vid=b1caa4c2-29c3-4e67-bc10-b4e10adeb6fa","ios":"levelo://app?vid=b1caa4c2-29c3-4e67-bc10-b4e10adeb6fa"},"vehicle_type_id":"4","last_reported":1692896761,"current_range_meters":17200,"station_id":"","pricing_plan_id":"free"},{"bike_id":"ea8bd491-cb71-4c8b-862c-f6ca3d1ee5cb","system_id":"levelo_inurba_marseille","lat":43.26186,"lon":5.37442,"is_reserved":false,"is_disabled":false,"rental_uris":{"android":"levelo://app?vid=ea8bd491-cb71-4c8b-862c-f6ca3d1ee5cb","ios":"levelo://app?vid=ea8bd491-cb71-4c8b-862c-f6ca3d1ee5cb"},"vehicle_type_id":"4","last_reported":1692896761,"current_range_meters":22800,"station_id":"","pricing_plan_id":"free"},{"bike_id":"2a895f09-3014-4973-ad28-3542c918f901","system_id":"levelo_inurba_marseille","lat":43.26186,"lon":5.37443,"is_reserved":false,"is_disabled":false,"rental_uris":{"android":"levelo://app?vid=2a895f09-3014-4973-ad28-3542c918f901","ios":"levelo://app?vid=2a895f09-3014-4973-ad28-3542c918f901"},"vehicle_type_id":"4","last_reported":1692896761,"current_range_meters":11200,"station_id":"","pricing_plan_id":"free"},{"bike_id":"dc61fe66-a5b0-4c9b-acd7-1c620b8eafc0","system_id":"levelo_inurba_marseille","lat":43.26186,"lon":5.37444,"is_reserved":false,"is_disabled":false,"rental_uris":{"android":"levelo://app?vid=dc61fe66-a5b0-4c9b-acd7-1c620b8eafc0","ios":"levelo://app?vid=dc61fe66-a5b0-4c9b-acd7-1c620b8eafc0"},"vehicle_type_id":"4","last_reported":1692896761,"current_range_meters":16800,"station_id":"","pricing_plan_id":"free"},{"bike_id":"f762fd75-c874-46f3-a48c-43e9d9007c27","system_id":"levelo_inurba_marseille","lat":43.26186,"lon":5.37446,"is_reserved":false,"is_disabled":false,"rental_uris":{"android":"levelo://app?vid=f762fd75-c874-46f3-a48c-43e9d9007c27","ios":"levelo://app?vid=f762fd75-c874-46f3-a48c-43e9d9007c27"},"vehicle_type_id":"4","last_reported":1692896761,"current_range_meters":4800,"station_id":"","pricing_plan_id":"free"},{"bike_id":"dba4962a-ae50-43e0-b9bf-110b6d03954a","system_id":"levelo_inurba_marseille","lat":43.26186,"lon":5.37448,"is_reserved":false,"is_disabled":false,"rental_uris":{"android":"levelo://app?vid=dba4962a-ae50-43e0-b9bf-110b6d03954a","ios":"levelo://app?vid=dba4962a-ae50-43e0-b9bf-110b6d03954a"},"vehicle_type_id":"4","last_reported":1692896761,"current_range_meters":10800,"station_id":"","pricing_plan_id":"free"},{"bike_id":"8e739e59-2c90-4e69-92c8-b4ab2a362894","system_id":"levelo_inurba_marseille","lat":43.26184,"lon":5.37442,"is_reserved":false,"is_disabled":false,"rental_uris":{"android":"levelo://app?vid=8e739e59-2c90-4e69-92c8-b4ab2a362894","ios":"levelo://app?vid=8e739e59-2c90-4e69-92c8-b4ab2a362894"},"vehicle_type_id":"4","last_reported":1692896761,"current_range_meters":22800,"station_id":"","pricing_plan_id":"free"},{"bike_id":"5c8c427b-5ec5-4d7c-a38b-2eb445816420","system_id":"levelo_inurba_marseille","lat":43.26184,"lon":5.37442,"is_reserved":false,"is_disabled":false,"rental_uris":{"android":"levelo://app?vid=5c8c427b-5ec5-4d7c-a38b-2eb445816420","ios":"levelo://app?vid=5c8c427b-5ec5-4d7c-a38b-2eb445816420"},"vehicle_type_id":"4","last_reported":1692896761,"current_range_meters":24000,"station_id":"","pricing_plan_id":"free"},{"bike_id":"7ca7da80-5684-4dd9-8c35-19720f4d6833","system_id":"levelo_inurba_marseille","lat":43.26184,"lon":5.37446,"is_reserved":false,"is_disabled":false,"rental_uris":{"android":"levelo://app?vid=7ca7da80-5684-4dd9-8c35-19720f4d6833","ios":"levelo://app?vid=7ca7da80-5684-4dd9-8c35-19720f4d6833"},"vehicle_type_id":"4","last_reported":1692896761,"current_range_meters":21200,"station_id":"","pricing_plan_id":"free"},{"bike_id":"d1a78b2a-add7-413f-aba2-5ab4dca036e8","system_id":"levelo_inurba_marseille","lat":43.317104,"lon":5.436818,"is_reserved":false,"is_disabled":false,"rental_uris":{"android":"levelo://app?vid=d1a78b2a-add7-413f-aba2-5ab4dca036e8","ios":"levelo://app?vid=d1a78b2a-add7-413f-aba2-5ab4dca036e8"},"vehicle_type_id":"4","last_reported":1692896761,"current_range_meters":30400,"station_id":"ce4bhp92rcd13ifvqhcg","pricing_plan_id":"free"},{"bike_id":"05b9602a-8253-4595-9938-0f8af85c1e6b","system_id":"levelo_inurba_marseille","lat":43.26183,"lon":5.37442,"is_reserved":false,"is_disabled":false,"rental_uris":{"android":"levelo://app?vid=05b9602a-8253-4595-9938-0f8af85c1e6b","ios":"levelo://app?vid=05b9602a-8253-4595-9938-0f8af85c1e6b"},"vehicle_type_id":"4","last_reported":1692896761,"current_range_meters":23200,"station_id":"","pricing_plan_id":"free"},{"bike_id":"6beac647-5ef2-4ea6-ac41-a98447ba0c9a","system_id":"levelo_inurba_marseille","lat":43.26182,"lon":5.37445,"is_reserved":false,"is_disabled":false,"rental_uris":{"android":"levelo://app?vid=6beac647-5ef2-4ea6-ac41-a98447ba0c9a","ios":"levelo://app?vid=6beac647-5ef2-4ea6-ac41-a98447ba0c9a"},"vehicle_type_id":"4","last_reported":1692896761,"current_range_meters":19200,"station_id":"","pricing_plan_id":"free"},{"bike_id":"1667050f-6266-4b64-8b7e-d511885b2dde","system_id":"levelo_inurba_marseille","lat":43.26181,"lon":5.3744,"is_reserved":false,"is_disabled":false,"rental_uris":{"android":"levelo://app?vid=1667050f-6266-4b64-8b7e-d511885b2dde","ios":"levelo://app?vid=1667050f-6266-4b64-8b7e-d511885b2dde"},"vehicle_type_id":"4","last_reported":1692896761,"current_range_meters":25200,"station_id":"","pricing_plan_id":"free"},{"bike_id":"d69b6697-5e36-4687-b8fb-cbe3488f8e07","system_id":"levelo_inurba_marseille","lat":43.317104,"lon":5.436818,"is_reserved":false,"is_disabled":false,"rental_uris":{"android":"levelo://app?vid=d69b6697-5e36-4687-b8fb-cbe3488f8e07","ios":"levelo://app?vid=d69b6697-5e36-4687-b8fb-cbe3488f8e07"},"vehicle_type_id":"4","last_reported":1692896761,"current_range_meters":22000,"station_id":"ce4bhp92rcd13ifvqhcg","pricing_plan_id":"free"},{"bike_id":"191167f8-fa35-4284-961a-3d7697cd1c3b","system_id":"levelo_inurba_marseille","lat":43.317104,"lon":5.436818,"is_reserved":false,"is_disabled":false,"rental_uris":{"android":"levelo://app?vid=191167f8-fa35-4284-961a-3d7697cd1c3b","ios":"levelo://app?vid=191167f8-fa35-4284-961a-3d7697cd1c3b"},"vehicle_type_id":"4","last_reported":1692896761,"current_range_meters":28400,"station_id":"ce4bhp92rcd13ifvqhcg","pricing_plan_id":"free"},{"bike_id":"c4840ed9-a568-4074-89e8-78b57d29f844","system_id":"levelo_inurba_marseille","lat":43.317104,"lon":5.436818,"is_reserved":false,"is_disabled":false,"rental_uris":{"android":"levelo://app?vid=c4840ed9-a568-4074-89e8-78b57d29f844","ios":"levelo://app?vid=c4840ed9-a568-4074-89e8-78b57d29f844"},"vehicle_type_id":"4","last_reported":1692896761,"current_range_meters":29600,"station_id":"ce4bhp92rcd13ifvqhcg","pricing_plan_id":"free"},