{"last_updated":1768234606,"ttl":60,"version":"2.2","data":{"bikes":[{"bike_id":"b52a18d7-2d86-46c1-9174-d5ec7bf55741","system_id":"levelo_inurba_marseille","lat":43.22554,"lon":5.41643,"is_reserved":false,"is_disabled":false,"rental_uris":{"android":"levelo://app?vid=b52a18d7-2d86-46c1-9174-d5ec7bf55741","ios":"levelo://app?vid=b52a18d7-2d86-46c1-9174-d5ec7bf55741"},"vehicle_type_id":"4","last_reported":1768234606,"current_range_meters":2800,"station_id":"st_d2o4gvlbi1j2169b742g","pricing_plan_id":"cebpf4jnsgd1na2vs0mg"},{"bike_id":"d226c608-92cf-4fe5-9668-4bc1475a51a0","system_id":"levelo_inurba_marseille","lat":43.32355,"lon":5.36742,"is_reserved":false,"is_disabled":false,"rental_uris":{"android":"levelo://app?vid=d226c608-92cf-4fe5-9668-4bc1475a51a0","ios":"levelo://app?vid=d226c608-92cf-4fe5-9668-4bc1475a51a0"},"vehicle_type_id":"4","last_reported":1768234606,"current_range_meters":2800,"station_id":"ce4bhsh2rcd13ifvqi2g","pricing_plan_id":"cebpf4jnsgd1na2vs0mg"},{"bike_id":"0b2d3bf5-39e6-4087-9946-cb61de936b7c","system_id":"levelo_inurba_marseille","lat":43.27211,"lon":5.39192,"is_reserved":false,"is_disabled":false,"rental_uris":{"android":"levelo://app?vid=0b2d3bf5-39e6-4087-9946-cb61de936b7c","ios":"levelo://app?vid=0b2d3bf5-39e6-4087-9946-cb61de936b7c"},"vehicle_type_id":"4","last_reported":1768234606,"current_range_meters":2800,"station_id":"ce4bhhp2rcd13ifvqfm0","pricing_plan_id":"cebpf4jnsgd1na2vs0mg"},{"bike_id":"cb3e0a49-9114-43cf-b9f0-ab4525e5cae9","system_id":"levelo_inurba_marseille","lat":43.296204,"lon":5.377295,"is_reserved":false,"is_disabled":false,"rental_uris":{"android":"levelo://app?vid=cb3e0a49-9114-43cf-b9f0-ab4525e5cae9","ios":"levelo://app?vid=cb3e0a49-9114-43cf-b9f0-ab4525e5cae9"},"vehicle_type_id":"4","last_reported":1768234606,"current_range_meters":2800,"station_id":"ce4bgi92rcd13ifvqb90","pricing_plan_id":"cebpf4jnsgd1na2vs0mg"},{"bike_id":"15f8d4ba-e879-4145-abfb-c5f09c8a8d2f","system_id":"levelo_inurba_marseille","lat":43.31553,"lon":5.39834,"is_reserved":false,"is_disabled":false,"rental_uris":{"android":"levelo://app?vid=15f8d4ba-e879-4145-abfb-c5f09c8a8d2f","ios":"levelo://app?vid=15f8d4ba-e879-4145-abfb-c5f09c8a8d2f"},"vehicle_type_id":"4","last_reported":1768234606,"current_range_meters":2800,"station_id":"","pricing_plan_id":"cebpf4jnsgd1na2vs0mg"},{"bike_id":"82ee537b-3334-4ace-8bb0-73b0a0d4cf7f","system_id":"levelo_inurba_marseille","lat":43.321123,"lon":5.367654,"is_reserved":false,"is_disabled":false,"rental_uris":{"android":"levelo://app?vid=82ee537b-3334-4ace-8bb0-73b0a0d4cf7f","ios":"levelo://app?vid=82ee537b-3334-4ace-8bb0-73b0a0d4cf7f"},"vehicle_type_id":"4","last_reported":1768234606,"current_range_meters":2800,"station_id":"ce4bhrh2rcd13ifvqhug","pricing_plan_id":"cebpf4jnsgd1na2vs0mg"},{"bike_id":"3cb113d5-c552-49ca-897b-02d9400a5e72","system_id":"levelo_inurba_marseille","lat":43.30639,"lon":5.401,"is_reserved":false,"is_disabled":false,"rental_uris":{"android":"levelo://app?vid=3cb113d5-c552-49ca-897b-02d9400a5e72","ios":"levelo://app?vid=3cb113d5-c552-49ca-897b-02d9400a5e72"},"vehicle_type_id":"4","last_reported":1768234606,"current_range_meters":2800,"station_id":"ce4bh112rcd13ifvqda0","pricing_plan_id":"cebpf4jnsgd1na2vs0mg"},{"bike_id":"891d1c52-5b83-4697-9442-465fd28f9645","system_id":"levelo_inurba_marseille","lat":43.29895,"lon":5.43669,"is_reserved":false,"is_disabled":false,"rental_uris":{"android":"levelo://app?vid=891d1c52-5b83-4697-9442-465fd28f9645","ios":"levelo://app?vid=891d1c52-5b83-4697-9442-465fd28f9645"},"vehicle_type_id":"4","last_reported":1768234606,"current_range_meters":3200,"station_id":"ce4bhpp2rcd13ifvqhfg","pricing_plan_id":"cebpf4jnsgd1na2vs0mg"},{"bike_id":"ccd75597-6bb8-4abb-9e69-a09c8856aabf","system_id":"levelo_inurba_marseille","lat":43.295306,"lon":5.39395,"is_reserved":false,"is_disabled":false,"rental_uris":{"android":"levelo://app?vid=ccd75597-6bb8-4abb-9e69-a09c8856aabf","ios":"levelo://app?vid=ccd75597-6bb8-4abb-9e69-a09c8856aabf"},"vehicle_type_id":"4","last_reported":1768234606,"current_range_meters":3200,"station_id":"ce4bh292rcd13ifvqdf0","pricing_plan_id":"cebpf4jnsgd1na2vs0mg"},{"bike_id":"6e5b4dbb-4572-4c6a-87ff-b54246248cf7","system_id":"levelo_inurba_marseille","lat":43.29841,"lon":5.36269,"is_reserved":false,"is_disabled":false,"rental_uris":{"android":"levelo://app?vid=6e5b4dbb-4572-4c6a-87ff-b54246248cf7","ios":"levelo://app?vid=6e5b4dbb-4572-4c6a-87ff-b54246248cf7"},"vehicle_type_id":"4","last_reported":1768234606,"current_range_meters":3200,"station_id":"ce4bgpp2rcd13ifvqc3g","pricing_plan_id":"cebpf4jnsgd1na2vs0mg"},{"bike_id":"6c97f10f-1c8d-4cf6-9985-1259173f2a40","system_id":"levelo_inurba_marseille","lat":43.26488,"lon":5.39537,"is_reserved":false,"is_disabled":false,"rental_uris":{"android":"levelo://app?vid=6c97f10f-1c8d-4cf6-9985-1259173f2a40","ios":"levelo://app?vid=6c97f10f-1c8d-4cf6-9985-1259173f2a40"},"vehicle_type_id":"4","last_reported":1768234606,"current_range_meters":3200,"station_id":"ce4bhi12rcd13ifvqfq0","pricing_plan_id":"cebpf4jnsgd1na2vs0mg"},{"bike_id":"4d8d18c1-8de9-45f9-beae-f38b2813e773","system_id":"levelo_inurba_marseille","lat":43.30419,"lon":5.41298,"is_reserved":false,"is_disabled":false,"rental_uris":{"android":"levelo://app?vid=4d8d18c1-8de9-45f9-beae-f38b2813e773","ios":"levelo://app?vid=4d8d18c1-8de9-45f9-beae-f38b2813e773"},"vehicle_type_id":"4","last_reported":1768234606,"current_range_meters":3200,"station_id":"ce4bhop2rcd13ifvqh8g","pricing_plan_id":"cebpf4jnsgd1na2vs0mg"},{"bike_id":"59599108-73aa-42a1-9716-e85d2448488b","system_id":"levelo_inurba_marseille","lat":43.28153,"lon":5.42638,"is_reserved":false,"is_disabled":false,"rental_uris":{"android":"levelo://app?vid=59599108-73aa-42a1-9716-e85d2448488b","ios":"levelo://app?vid=59599108-73aa-42a1-9716-e85d2448488b"},"vehicle_type_id":"4","last_reported":1768234606,"current_range_meters":3200,"station_id":"ce4bhnh2rcd13ifvqgug","pricing_plan_id":"cebpf4jnsgd1na2vs0mg"},{"bike_id":"feafa852-61f8-4119-a648-63c8bb2ff12b","system_id":"levelo_inurba_marseille","lat":43.31493,"lon":5.3731,"is_reserved":false,"is_disabled":true,"rental_uris":{"android":"levelo://app?vid=feafa852-61f8-4119-a648-63c8bb2ff12b","ios":"levelo://app?vid=feafa852-61f8-4119-a648-63c8bb2ff12b"},"vehicle_type_id":"4","last_reported":1768234606,"current_range_meters":3200,"station_id":"ce4bgt12rcd13ifvqcd0","pricing_plan_id":"cebpf4jnsgd1na2vs0mg"},{"bike_id":"4b8777f3-ad31-4252-a943-7c2b037b8cd7","system_id":"levelo_inurba_marseille","lat":43.24067,"lon":5.37723,"is_reserved":false,"is_disabled":false,"rental_uris":{"android":"levelo://app?vid=4b8777f3-ad31-4252-a943-7c2b037b8cd7","ios":"levelo://app?vid=4b8777f3-ad31-4252-a943-7c2b037b8cd7"},"vehicle_type_id":"4","last_reported":1768234606,"current_range_meters":3600,"station_id":"ce4bhnp2rcd13ifvqgvg","pricing_plan_id":"cebpf4jnsgd1na2vs0mg"},{"bike_id":"6d78ed68-23e2-4a95-8907-3709365aa1e5","system_id":"levelo_inurba_marseille","lat":43.28606,"lon":5.3987,"is_reserved":false,"is_disabled":false,"rental_uris":{"android":"levelo://app?vid=6d78ed68-23e2-4a95-8907-3709365aa1e5","ios":"levelo://app?vid=6d78ed68-23e2-4a95-8907-3709365aa1e5"},"vehicle_type_id":"4","last_reported":1768234606,"current_range_meters":3600,"station_id":"st_d4a7ka997mjs738ck50g","pricing_plan_id":"cebpf4jnsgd1na2vs0mg"},{"bike_id":"098d94c1-f520-462c-b21d-91020ee6aa01","system_id":"levelo_inurba_marseille","lat":43.30724,"lon":5.40986,"is_reserved":false,"is_disabled":false,"rental_uris":{"android":"levelo://app?vid=098d94c1-f520-462c-b21d-91020ee6aa01","ios":"levelo://app?vid=098d94c1-f520-462c-b21d-91020ee6aa01"},"vehicle_type_id":"4","last_reported":1768234606,"current_range_meters":3600,"station_id":"","pricing_plan_id":"cebpf4jnsgd1na2vs0mg"},{"bike_id":"0fa22ef5-d785-49d3-80e0-8122bc638a32","system_id":"levelo_inurba_marseille","lat":43.22563,"lon":5.41632,"is_reserved":false,"is_disabled":false,"rental_uris":{"android":"levelo://app?vid=0fa22ef5-d785-49d3-80e0-8122bc638a32","ios":"levelo://app?vid=0fa22ef5-d785-49d3-80e0-8122bc638a32"},"vehicle_type_id":"4","last_reported":1768234606,"current_range_meters":3600,"station_id":"st_d2o4gvlbi1j2169b742g","pricing_plan_id":"cebpf4jnsgd1na2vs0mg"},{"bike_id":"320be350-7ad8-4b9a-a7c5-19451b57fc01","system_id":"levelo_inurba_marseille","lat":43.22921,"lon":5.35384,"is_reserved":false,"is_disabled":false,"rental_uris":{"android":"levelo://app?vid=320be350-7ad8-4b9a-a7c5-19451b57fc01","ios":"levelo://app?vid=320be350-7ad8-4b9a-a7c5-19451b57fc01"},"vehicle_type_id":"4","last_reported":1768234606,"current_range_meters":3600,"station_id":"cpo3532slgdg3j2ikp40","pricing_plan_id":"cebpf4jnsgd1na2vs0mg"},{"bike_id":"2e20bb84-1c03-4f1e-bb7c-55c5ffc3fd10","system_id":"levelo_inurba_marseille","lat":43.31871,"lon":5.3768,"is_reserved":false,"is_disabled":false,"rental_uris":{"android":"levelo://app?vid=2e20bb84-1c03-4f1e-bb7c-55c5ffc3fd10","ios":"levelo://app?vid=2e20bb84-1c03-4f1e-bb7c-55c5ffc3fd10"},"vehicle_type_id":"4","last_reported":1768234606,"current_range_meters":3600,"station_id":"","pricing_plan_id":"cebpf4jnsgd1na2vs0mg"},{"bike_id":"f596da05-0b66-4513-826b-a866a276204c","system_id":"levelo_inurba_marseille","lat":43.245826,"lon":5.374825,"is_reserved":false,"is_disabled":false,"rental_uris":{"android":"levelo://app?vid=f596da05-0b66-4513-826b-a866a276204c","ios":"levelo://app?vid=f596da05-0b66-4513-826b-a866a276204c"},"vehicle_type_id":"4","last_reported":1768234606,"current_range_meters":3600,"station_id":"","pricing_plan_id":"cebpf4jnsgd1na2vs0mg"},{"bike_id":"dcb7be01-50ce-42e0-a9ed-adc761203c14","system_id":"levelo_inurba_marseille","lat":43.28623,"lon":5.42615,"is_reserved":false,"is_disabled":false,"rental_uris":{"android":"levelo://app?vid=dcb7be01-50ce-42e0-a9ed-adc761203c14","ios":"levelo://app?vid=dcb7be01-50ce-42e0-a9ed-adc761203c14"},"vehicle_type_id":"4","last_reported":1768234606,"current_range_meters":3600,"station_id":"","pricing_plan_id":"cebpf4jnsgd1na2vs0mg"},{"bike_id":"555bd51b-2a5a-4093-a990-e3ba3aa46448","system_id":"levelo_inurba_marseille","lat":43.292809,"lon":5.40112,"is_reserved":false,"is_disabled":false,"rental_uris":{"android":"levelo://app?vid=555bd51b-2a5a-4093-a990-e3ba3aa46448","ios":"levelo://app?vid=555bd51b-2a5a-4093-a990-e3ba3aa46448"},"vehicle_type_id":"4","last_reported":1768234606,"current_range_meters":3600,"station_id":"ce4bh312rcd13ifvqdk0","pricing_plan_id":"cebpf4jnsgd1na2vs0mg"},{"bike_id":"a5787e37-ecb5-4a87-bcf3-a0b74c386c9d","system_id":"levelo_inurba_marseille","lat":43.24173,"lon":5.3639,"is_reserved":false,"is_disabled":false,"rental_uris":{"android":"levelo://app?vid=a5787e37-ecb5-4a87-bcf3-a0b74c386c9d","ios":"levelo://app?vid=a5787e37-ecb5-4a87-bcf3-a0b74c386c9d"},"vehicle_type_id":"4","last_reported":1768234606,"current_range_meters":3600,"station_id":"cpo36qri1sfpv3e86is0","pricing_plan_id":"cebpf4jnsgd1na2vs0mg"},{"bike_id":"64cd3d95-1725-477d-bc45-fa8570d8f0cd","system_id":"levelo_inurba_marseille","lat":43.25336,"lon":5.42173,"is_reserved":false,"is_disabled":false,"rental_uris":{"android":"levelo://app?vid=64cd3d95-1725-477d-bc45-fa8570d8f0cd","ios":"levelo://app?vid=64cd3d95-1725-477d-bc45-fa8570d8f0cd"},"vehicle_type_id":"4","last_reported":1768234606,"current_range_meters":3600,"station_id":"st_d2m65c5bi1j21697t3ng","pricing_plan_id":"cebpf4jnsgd1na2vs0mg"},{"bike_id":"0819e983-2244-4de4-928a-ad5b3d4c29ca","system_id":"levelo_inurba_marseille","lat":43.27941,"lon":5.387,"is_reserved":false,"is_disabled":false,"rental_uris":{"android":"levelo://app?vid=0819e983-2244-4de4-928a-ad5b3d4c29ca","ios":"levelo://app?vid=0819e983-2244-4de4-928a-ad5b3d4c29ca"},"vehicle_type_id":"4","last_reported":1768234606,"current_range_meters":3600,"station_id":"ce4bhg12rcd13ifvqf80","pricing_plan_id":"cebpf4jnsgd1na2vs0mg"},{"bike_id":"9bc89c8e-a483-418e-b55a-8f6d2ebdde7a","system_id":"levelo_inurba_marseille","lat":43.22934,"lon":5.35377,"is_reserved":false,"is_disabled":false,"rental_uris":{"android":"levelo://app?vid=9bc89c8e-a483-418e-b55a-8f6d2ebdde7a","ios":"levelo://app?vid=9bc89c8e-a483-418e-b55a-8f6d2ebdde7a"},"vehicle_type_id":"4","last_reported":1768234606,"current_range_meters":4000,"station_id":"cpo3532slgdg3j2ikp40","pricing_plan_id":"cebpf4jnsgd1na2vs0mg"},{"bike_id":"6c3d77ae-e5b4-40fb-ac8d-55d2ca975358","system_id":"levelo_inurba_marseille","lat":43.253396,"lon":5.4218,"is_reserved":false,"is_disabled":false,"rental_uris":{"android":"levelo://app?vid=6c3d77ae-e5b4-40fb-ac8d-55d2ca975358","ios":"levelo://app?vid=6c3d77ae-e5b4-40fb-ac8d-55d2ca975358"},"vehicle_type_id":"4","last_reported":1768234606,"current_range_meters":4000,"station_id":"st_d2m65c5bi1j21697t3ng","pricing_plan_id":"cebpf4jnsgd1na2vs0mg"},{"bike_id":"a04642d1-1fba-4c6c-a844-a84b32a67a67","system_id":"levelo_inurba_marseille","lat":43.25942,"lon":5.40911,"is_reserved":false,"is_disabled":false,"rental_uris":{"android":"levelo://app?vid=a04642d1-1fba-4c6c-a844-a84b32a67a67","ios":"levelo://app?vid=a04642d1-1fba-4c6c-a844-a84b32a67a67"},"vehicle_type_id":"4","last_reported":1768234606,"current_range_meters":4000,"station_id":"ce4bhm92rcd13ifvqglg","pricing_plan_id":"cebpf4jnsgd1na2vs0mg"},{"bike_id":"fc07a5f4-baa1-432d-8197-76b4987e0970","system_id":"levelo_inurba_marseille","lat":43.305909,"lon":5.371119,"is_reserved":false,"is_disabled":false,"rental_uris":{"android":"levelo://app?vid=fc07a5f4-baa1-432d-8197-76b4987e0970","ios":"levelo://app?vid=fc07a5f4-baa1-432d-8197-76b4987e0970"},"vehicle_type_id":"4","last_reported":1768234606,"current_range_meters":4000,"station_id":"","pricing_plan_id":"cebpf4jnsgd1na2vs0mg"},{"bike_id":"4f37e848-9eb7-4e31-99f6-d7e83eb77a7c","system_id":"levelo_inurba_marseille","lat":43.24136,"lon":5.37788,"is_reserved":false,"is_disabled":false,"rental_uris":{"android":"levelo://app?vid=4f37e848-9eb7-4e31-99f6-d7e83eb77a7c","ios":"levelo://app?vid=4f37e848-9eb7-4e31-99f6-d7e83eb77a7c"},"vehicle_type_id":"4","last_reported":1768234606,"current_range_meters":4000,"station_id":"","pricing_plan_id":"cebpf4jnsgd1na2vs0mg"},{"bike_id":"18c696b9-d36c-47bf-81c1-a89668ef23c9","system_id":"levelo_inurba_marseille","lat":43.24079,"lon":5.3775,"is_reserved":false,"is_disabled":false,"rental_uris":{"android":"levelo://app?vid=18c696b9-d36c-47bf-81c1-a89668ef23c9","ios":"levelo://app?vid=18c696b9-d36c-47bf-81c1-a89668ef23c9"},"vehicle_type_id":"4","last_reported":1768234606,"current_range_meters":4000,"station_id":"ce4bhnp2rcd13ifvqgvg","pricing_plan_id":"cebpf4jnsgd1na2vs0mg"},{"bike_id":"aedb0b1d-61ef-4190-a07d-7f49f8bc3c0c","system_id":"levelo_inurba_marseille","lat":43.22929,"lon":5.3537,"is_reserved":false,"is_disabled":false,"rental_uris":{"android":"levelo://app?vid=aedb0b1d-61ef-4190-a07d-7f49f8bc3c0c","ios":"levelo://app?vid=aedb0b1d-61ef-4190-a07d-7f49f8bc3c0c"},"vehicle_type_id":"4","last_reported":1768234606,"current_range_meters":4000,"station_id":"cpo3532slgdg3j2ikp40","pricing_plan_id":"cebpf4jnsgd1na2vs0mg"},{"bike_id":"c42733a9-3460-4d69-9f64-7395e3d47680","system_id":"levelo_inurba_marseille","lat":43.32529,"lon":5.40674,"is_reserved":false,"is_disabled":false,"rental_uris":{"android":"levelo://app?vid=c42733a9-3460-4d69-9f64-7395e3d47680","ios":"levelo://app?vid=c42733a9-3460-4d69-9f64-7395e3d47680"},"vehicle_type_id":"4","last_reported":1768234606,"current_range_meters":4000,"station_id":"","pricing_plan_id":"cebpf4jnsgd1na2vs0mg"},{"bike_id":"682a25db-2229-438e-a91a-bd8e0ed43f7f","system_id":"levelo_inurba_marseille","lat":43.30216,"lon":5.37051,"is_reserved":false,"is_disabled":false,"rental_uris":{"android":"levelo://app?vid=682a25db-2229-438e-a91a-bd8e0ed43f7f","ios":"levelo://app?vid=682a25db-2229-438e-a91a-bd8e0ed43f7f"},"vehicle_type_id":"4","last_reported":1768234606,"current_range_meters":4400,"station_id":"","pricing_plan_id":"cebpf4jnsgd1na2vs0mg"},{"bike_id":"41541052-aaac-401b-9a4b-4100378978ed","system_id":"levelo_inurba_marseille","lat":43.24167,"lon":5.36397,"is_reserved":false,"is_disabled":false,"rental_uris":{"android":"levelo://app?vid=41541052-aaac-401b-9a4b-4100378978ed","ios":"levelo://app?vid=41541052-aaac-401b-9a4b-4100378978ed"},"vehicle_type_id":"4","last_reported":1768234606,"current_range_meters":4400,"station_id":"cpo36qri1sfpv3e86is0","pricing_plan_id":"cebpf4jnsgd1na2vs0mg"},{"bike_id":"ad6a4028-e8f6-4170-b59d-bb575efd3d62","system_id":"levelo_inurba_marseille","lat":43.29918,"lon":5.3748,"is_reserved":false,"is_disabled":false,"rental_uris":{"android":"levelo://app?vid=ad6a4028-e8f6-4170-b59d-bb575efd3d62","ios":"levelo://app?vid=ad6a4028-e8f6-4170-b59d-bb575efd3d62"},"vehicle_type_id":"4","last_reported":1768234606,"current_range_meters":4400,"station_id":"ce4bgjh2rcd13ifvqbg0","pricing_plan_id":"cebpf4jnsgd1na2vs0mg"},{"bike_id":"11b7113f-ff79-4452-9417-d352466ee269","system_id":"levelo_inurba_marseille","lat":43.32309,"lon":5.37024,"is_reserved":false,"is_disabled":false,"rental_uris":{"android":"levelo://app?vid=11b7113f-ff79-4452-9417-d352466ee269","ios":"levelo://app?vid=11b7113f-ff79-4452-9417-d352466ee269"},"vehicle_type_id":"4","last_reported":1768234606,"current_range_meters":4400,"station_id":"","pricing_plan_id":"cebpf4jnsgd1na2vs0mg"},{"bike_id":"8125e88c-461b-4905-b86d-3923932af4fb","system_id":"levelo_inurba_marseille","lat":43.27997,"lon":5.4001,"is_reserved":false,"is_disabled":false,"rental_uris":{"android":"levelo://app?vid=8125e88c-461b-4905-b86d-3923932af4fb","ios":"levelo://app?vid=8125e88c-461b-4905-b86d-3923932af4fb"},"vehicle_type_id":"4","last_reported":1768234606,"current_range_meters":4400,"station_id":"ce4bho92rcd13ifvqh4g","pricing_plan_id":"cebpf4jnsgd1na2vs0mg"},{"bike_id":"63b1856a-5e73-4949-8313-642a7aae66aa","system_id":"levelo_inurba_marseille","lat":43.229268,"lon":5.353791,"is_reserved":false,"is_disabled":false,"rental_uris":{"android":"levelo://app?vid=63b1856a-5e73-4949-8313-642a7aae66aa","ios":"levelo://app?vid=63b1856a-5e73-4949-8313-642a7aae66aa"},"vehicle_type_id":"4","last_reported":1768234606,"current_range_meters":4400,"station_id":"cpo3532slgdg3j2ikp40","pricing_plan_id":"cebpf4jnsgd1na2vs0mg"},{"bike_id":"8e3d015a-ef9a-478b-a233-dbe38950b284","system_id":"levelo_inurba_marseille","lat":43.28937,"lon":5.3962,"is_reserved":false,"is_disabled":false,"rental_uris":{"android":"levelo://app?vid=8e3d015a-ef9a-478b-a233-dbe38950b284","ios":"levelo://app?vid=8e3d015a-ef9a-478b-a233-dbe38950b284"},"vehicle_type_id":"4","last_reported":1768234606,"current_range_meters":4400,"station_id":"ce4bh3h2rcd13ifvqdn0","pricing_plan_id":"cebpf4jnsgd1na2vs0mg"},{"bike_id":"e8909d11-c6c0-4a1b-a11a-6b74d5a8be8d","system_id":"levelo_inurba_marseille","lat":43.225339,"lon":5.348392,"is_reserved":false,"is_disabled":false,"rental_uris":{"android":"levelo://app?vid=e8909d11-c6c0-4a1b-a11a-6b74d5a8be8d","ios":"levelo://app?vid=e8909d11-c6c0-4a1b-a11a-6b74d5a8be8d"},"vehicle_type_id":"4","last_reported":1768234606,"current_range_meters":4400,"station_id":"","pricing_plan_id":"cebpf4jnsgd1na2vs0mg"},{"bike_id":"2dd1d22e-3f68-457c-af9b-82003c4b6949","system_id":"levelo_inurba_marseille","lat":43.270651,"lon":5.4229,"is_reserved":false,"is_disabled":false,"rental_uris":{"android":"levelo://app?vid=2dd1d22e-3f68-457c-af9b-82003c4b6949","ios":"levelo://app?vid=2dd1d22e-3f68-457c-af9b-82003c4b6949"},"vehicle_type_id":"4","last_reported":1768234606,"current_range_meters":4400,"station_id":"","pricing_plan_id":"cebpf4jnsgd1na2vs0mg"},{"bike_id":"92b964f3-f2b6-4e24-a458-84302062efc7","system_id":"levelo_inurba_marseille","lat":43.322822,"lon":5.382682,"is_reserved":false,"is_disabled":false,"rental_uris":{"android":"levelo://app?vid=92b964f3-f2b6-4e24-a458-84302062efc7","ios":"levelo://app?vid=92b964f3-f2b6-4e24-a458-84302062efc7"},"vehicle_type_id":"4","last_reported":1768234606,"current_range_meters":4400,"station_id":"ce4bhr12rcd13ifvqhqg","pricing_plan_id":"cebpf4jnsgd1na2vs0mg"},{"bike_id":"bf785c8b-1d4d-444c-94c6-97ad6819c17a","system_id":"levelo_inurba_marseille","lat":43.29171,"lon":5.37161,"is_reserved":false,"is_disabled":false,"rental_uris":{"android":"levelo://app?vid=bf785c8b-1d4d-444c-94c6-97ad6819c17a","ios":"levelo://app?vid=bf785c8b-1d4d-444c-94c6-97ad6819c17a"},"vehicle_type_id":"4","last_reported":1768234606,"current_range_meters":4400,"station_id":"ce4bha92rcd13ifvqeh0","pricing_plan_id":"cebpf4jnsgd1na2vs0mg"},{"bike_id":"63455f42-0b47-4078-a8cf-348f242f0a66","system_id":"levelo_inurba_marseille","lat":43.255824,"lon":5.382289,"is_reserved":false,"is_disabled":false,"rental_uris":{"android":"levelo://app?vid=63455f42-0b47-4078-a8cf-348f242f0a66","ios":"levelo://app?vid=63455f42-0b47-4078-a8cf-348f242f0a66"},"vehicle_type_id":"4","last_reported":1768234606,"current_range_meters":4800,"station_id":"ce4bhih2rcd13ifvqfs0","pricing_plan_id":"cebpf4jnsgd1na2vs0mg"},{"bike_id":"6ad6e14f-b56b-421d-a6ba-eb1c8cdbfdc6","system_id":"levelo_inurba_marseille","lat":43.29851,"lon":5.36283,"is_reserved":false,"is_disabled":false,"rental_uris":{"android":"levelo://app?vid=6ad6e14f-b56b-421d-a6ba-eb1c8cdbfdc6","ios":"levelo://app?vid=6ad6e14f-b56b-421d-a6ba-eb1c8cdbfdc6"},"vehicle_type_id":"4","last_reported":1768234606,"current_range_meters":4800,"station_id":"ce4bgpp2rcd13ifvqc3g","pricing_plan_id":"cebpf4jnsgd1na2vs0mg"},{"bike_id":"74517fce-3511-422e-b7b6-d84d30e9d61f","system_id":"levelo_inurba_marseille","lat":43.30367,"lon":5.37326,"is_reserved":false,"is_disabled":false,"rental_uris":{"android":"levelo://app?vid=74517fce-3511-422e-b7b6-d84d30e9d61f","ios":"levelo://app?vid=74517fce-3511-422e-b7b6-d84d30e9d61f"},"vehicle_type_id":"4","last_reported":1768234606,"current_range_meters":4800,"station_id":"","pricing_plan_id":"cebpf4jnsgd1na2vs0mg"},{"bike_id":"63a8ad53-0407-4bea-a09c-eee796fd0c2b","system_id":"levelo_inurba_marseille","lat":43.27822,"lon":5.40703,"is_reserved":false,"is_disabled":false,"rental_uris":{"android":"levelo://app?vid=63a8ad53-0407-4bea-a09c-eee796fd0c2b","ios":"levelo://app?vid=63a8ad53-0407-4bea-a09c-eee796fd0c2b"},"vehicle_type_id":"4","last_reported":1768234606,"current_range_meters":4800,"station_id":"ce4bhnh2rcd13ifvqgtg","pricing_plan_id":"cebpf4jnsgd1na2vs0mg"},{"bike_id":"599551f3-489c-449c-a5f9-34490cbff37c","system_id":"levelo_inurba_marseille","lat":43.28481,"lon":5.38216,"is_reserved":false,"is_disabled":false,"rental_uris":{"android":"levelo://app?vid=599551f3-489c-449c-a5f9-34490cbff37c","ios":"levelo://app?vid=599551f3-489c-449c-a5f9-34490cbff37c"},"vehicle_type_id":"4","last_reported":1768234606,"current_range_meters":4800,"station_id":"","pricing_plan_id":"cebpf4jnsgd1na2vs0mg"},{"bike_id":"950fb9ca-8a92-4124-b176-97b616bd9ee7","system_id":"levelo_inurba_marseille","lat":43.28852,"lon":5.39322,"is_reserved":false,"is_disabled":true,"rental_uris":{"android":"levelo://app?vid=950fb9ca-8a92-4124-b176-97b616bd9ee7","ios":"levelo://app?vid=950fb9ca-8a92-4124-b176-97b616bd9ee7"},"vehicle_type_id":"4","last_reported":1768234606,"current_range_meters":4800,"station_id":"ce4bh2p2rcd13ifvqdi0","pricing_plan_id":"cebpf4jnsgd1na2vs0mg"},{"bike_id":"2f357f68-e8cc-4f6a-9fe7-b735ddecb351","system_id":"levelo_inurba_marseille","lat":43.31724,"lon":5.37753,"is_reserved":false,"is_disabled":false,"rental_uris":{"android":"levelo://app?vid=2f357f68-e8cc-4f6a-9fe7-b735ddecb351","ios":"levelo://app?vid=2f357f68-e8cc-4f6a-9fe7-b735ddecb351"},"vehicle_type_id":"4","last_reported":1768234606,"current_range_meters":4800,"station_id":"ce4bgth2rcd13ifvqch0","pricing_plan_id":"cebpf4jnsgd1na2vs0mg"},{"bike_id":"7cb5d32b-53f6-4fad-ae15-89b85565d6d5","system_id":"levelo_inurba_marseille","lat":43.27048,"lon":5.40268,"is_reserved":false,"is_disabled":false,"rental_uris":{"android":"levelo://app?vid=7cb5d32b-53f6-4fad-ae15-89b85565d6d5","ios":"levelo://app?vid=7cb5d32b-53f6-4fad-ae15-89b85565d6d5"},"vehicle_type_id":"4","last_reported":1768234606,"current_range_meters":4800,"station_id":"ce4bhk92rcd13ifvqgc0","pricing_plan_id":"cebpf4jnsgd1na2vs0mg"},{"bike_id":"55a860de-14b9-4f81-acc4-859eefa3e5f0","system_id":"levelo_inurba_marseille","lat":43.29634,"lon":5.40605,"is_reserved":false,"is_disabled":false,"rental_uris":{"android":"levelo://app?vid=55a860de-14b9-4f81-acc4-859eefa3e5f0","ios":"levelo://app?vid=55a860de-14b9-4f81-acc4-859eefa3e5f0"},"vehicle_type_id":"4","last_reported":1768234606,"current_range_meters":4800,"station_id":"ce4bh0h2rcd13ifvqd60","pricing_plan_id":"cebpf4jnsgd1na2vs0mg"},{"bike_id":"6e5c982e-c67a-4226-afb6-c45803df8e9d","system_id":"levelo_inurba_marseille","lat":43.279677,"lon":5.416532,"is_reserved":false,"is_disabled":false,"rental_uris":{"android":"levelo://app?vid=6e5c982e-c67a-4226-afb6-c45803df8e9d","ios":"levelo://app?vid=6e5c982e-c67a-4226-afb6-c45803df8e9d"},"vehicle_type_id":"4","last_reported":1768234606,"current_range_meters":4800,"station_id":"ce4bho12rcd13ifvqh1g","pricing_plan_id":"cebpf4jnsgd1na2vs0mg"},{"bike_id":"7fe21793-db8c-4337-8752-6b7e026e2640","system_id":"levelo_inurba_marseille","lat":43.25521,"lon":5.37628,"is_reserved":false,"is_disabled":false,"rental_uris":{"android":"levelo://app?vid=7fe21793-db8c-4337-8752-6b7e026e2640","ios":"levelo://app?vid=7fe21793-db8c-4337-8752-6b7e026e2640"},"vehicle_type_id":"4","last_reported":1768234606,"current_range_meters":4800,"station_id":"ce4bhh12rcd13ifvqff0","pricing_plan_id":"cebpf4jnsgd1na2vs0mg"},{"bike_id":"fe7e6124-ee89-4cae-89c0-caa10dd805be","system_id":"levelo_inurba_marseille","lat":43.2658,"lon":5.39031,"is_reserved":false,"is_disabled":false,"rental_uris":{"android":"levelo://app?vid=fe7e6124-ee89-4cae-89c0-caa10dd805be","ios":"levelo://app?vid=fe7e6124-ee89-4cae-89c0-caa10dd805be"},"vehicle_type_id":"4","last_reported":1768234606,"current_range_meters":4800,"station_id":"ce4bhe12rcd13ifvqf30","pricing_plan_id":"cebpf4jnsgd1na2vs0mg"},{"bike_id":"f66a133e-7af9-409d-b78c-71e5f6289609","system_id":"levelo_inurba_marseille","lat":43.22545,"lon":5.4164,"is_reserved":false,"is_disabled":false,"rental_uris":{"android":"levelo://app?vid=f66a133e-7af9-409d-b78c-71e5f6289609","ios":"levelo://app?vid=f66a133e-7af9-409d-b78c-71e5f6289609"},"vehicle_type_id":"4","last_reported":1768234606,"current_range_meters":4800,"station_id":"st_d2o4gvlbi1j2169b742g","pricing_plan_id":"cebpf4jnsgd1na2vs0mg"},{"bike_id":"97319d8f-4d1b-4b47-97e2-8511cc899077","system_id":"levelo_inurba_marseille","lat":43.24162,"lon":5.39764,"is_reserved":false,"is_disabled":false,"rental_uris":{"android":"levelo://app?vid=97319d8f-4d1b-4b47-97e2-8511cc899077","ios":"levelo://app?vid=97319d8f-4d1b-4b47-97e2-8511cc899077"},"vehicle_type_id":"4","last_reported":1768234606,"current_range_meters":4800,"station_id":"ce4bhn12rcd13ifvqgpg","pricing_plan_id":"cebpf4jnsgd1na2vs0mg"},{"bike_id":"886f6a48-d8c9-4f03-9c08-fa6700bc8f85","system_id":"levelo_inurba_marseille","lat":43.22935,"lon":5.35378,"is_reserved":false,"is_disabled":false,"rental_uris":{"android":"levelo://app?vid=886f6a48-d8c9-4f03-9c08-fa6700bc8f85","ios":"levelo://app?vid=886f6a48-d8c9-4f03-9c08-fa6700bc8f85"},"vehicle_type_id":"4","last_reported":1768234606,"current_range_meters":4800,"station_id":"cpo3532slgdg3j2ikp40","pricing_plan_id":"cebpf4jnsgd1na2vs0mg"},{"bike_id":"06f7fbe0-6011-457a-87f5-048670ced011","system_id":"levelo_inurba_marseille","lat":43.3171,"lon":5.37744,"is_reserved":false,"is_disabled":false,"rental_uris":{"android":"levelo://app?vid=06f7fbe0-6011-457a-87f5-048670ced011","ios":"levelo://app?vid=06f7fbe0-6011-457a-87f5-048670ced011"},"vehicle_type_id":"4","last_reported":1768234606,"current_range_meters":4800,"station_id":"ce4bgth2rcd13ifvqch0","pricing_plan_id":"cebpf4jnsgd1na2vs0mg"},{"bike_id":"4755f4de-5e86-47b9-8160-12c356d26375","system_id":"levelo_inurba_marseille","lat":43.22556,"lon":5.41634,"is_reserved":false,"is_disabled":false,"rental_uris":{"android":"levelo://app?vid=4755f4de-5e86-47b9-8160-12c356d26375","ios":"levelo://app?vid=4755f4de-5e86-47b9-8160-12c356d26375"},"vehicle_type_id":"4","last_reported":1768234606,"current_range_meters":4800,"station_id":"st_d2o4gvlbi1j2169b742g","pricing_plan_id":"cebpf4jnsgd1na2vs0mg"},{"bike_id":"021c3b11-e583-40b4-8ea1-2ae3371d0bc9","system_id":"levelo_inurba_marseille","lat":43.28467,"lon":5.48418,"is_reserved":false,"is_disabled":false,"rental_uris":{"android":"levelo://app?vid=021c3b11-e583-40b4-8ea1-2ae3371d0bc9","ios":"levelo://app?vid=021c3b11-e583-40b4-8ea1-2ae3371d0bc9"},"vehicle_type_id":"4","last_reported":1768234606,"current_range_meters":4800,"station_id":"","pricing_plan_id":"cebpf4jnsgd1na2vs0mg"},{"bike_id":"b77dd399-8633-4e57-b02f-3cf1ad9b2dc5","system_id":"levelo_inurba_marseille","lat":43.332746,"lon":5.412178,"is_reserved":false,"is_disabled":false,"rental_uris":{"android":"levelo://app?vid=b77dd399-8633-4e57-b02f-3cf1ad9b2dc5","ios":"levelo://app?vid=b77dd399-8633-4e57-b02f-3cf1ad9b2dc5"},"vehicle_type_id":"4","last_reported":1768234606,"current_range_meters":4800,"station_id":"","pricing_plan_id":"cebpf4jnsgd1na2vs0mg"},{"bike_id":"a7f3381d-b96a-4907-8886-7a2032e17419","system_id":"levelo_inurba_marseille","lat":43.3073,"lon":5.42429,"is_reserved":false,"is_disabled":false,"rental_uris":{"android":"levelo://app?vid=a7f3381d-b96a-4907-8886-7a2032e17419","ios":"levelo://app?vid=a7f3381d-b96a-4907-8886-7a2032e17419"},"vehicle_type_id":"4","last_reported":1768234606,"current_range_meters":5600,"station_id":"st_cvj6ca6bvosntc0bfgr0","pricing_plan_id":"cebpf4jnsgd1na2vs0mg"},{"bike_id":"2c79ba8b-e186-4531-bb05-ea95004575af","system_id":"levelo_inurba_marseille","lat":43.30182,"lon":5.38079,"is_reserved":false,"is_disabled":false,"rental_uris":{"android":"levelo://app?vid=2c79ba8b-e186-4531-bb05-ea95004575af","ios":"levelo://app?vid=2c79ba8b-e186-4531-bb05-ea95004575af"},"vehicle_type_id":"4","last_reported":1768234606,"current_range_meters":5600,"station_id":"ce4bgjp2rcd13ifvqbh0","pricing_plan_id":"cebpf4jnsgd1na2vs0mg"},{"bike_id":"e21f83f2-ad42-4aed-9759-576415e0cd84","system_id":"levelo_inurba_marseille","lat":43.285182,"lon":5.42999,"is_reserved":false,"is_disabled":false,"rental_uris":{"android":"levelo://app?vid=e21f83f2-ad42-4aed-9759-576415e0cd84","ios":"levelo://app?vid=e21f83f2-ad42-4aed-9759-576415e0cd84"},"vehicle_type_id":"4","last_reported":1768234606,"current_range_meters":5600,"station_id":"","pricing_plan_id":"cebpf4jnsgd1na2vs0mg"},{"bike_id":"795d793e-88df-4ac1-a147-0968b8571e02","system_id":"levelo_inurba_marseille","lat":43.23188,"lon":5.399763,"is_reserved":false,"is_disabled":false,"rental_uris":{"android":"levelo://app?vid=795d793e-88df-4ac1-a147-0968b8571e02","ios":"levelo://app?vid=795d793e-88df-4ac1-a147-0968b8571e02"},"vehicle_type_id":"4","last_reported":1768234606,"current_range_meters":5600,"station_id":"","pricing_plan_id":"cebpf4jnsgd1na2vs0mg"},{"bike_id":"64f7d702-cc24-4d72-aef8-c34806e3088b","system_id":"levelo_inurba_marseille","lat":43.25118,"lon":5.40314,"is_reserved":false,"is_disabled":false,"rental_uris":{"android":"levelo://app?vid=64f7d702-cc24-4d72-aef8-c34806e3088b","ios":"levelo://app?vid=64f7d702-cc24-4d72-aef8-c34806e3088b"},"vehicle_type_id":"4","last_reported":1768234606,"current_range_meters":5600,"station_id":"ce4bhlh2rcd13ifvqgig","pricing_plan_id":"cebpf4jnsgd1na2vs0mg"},{"bike_id":"c8ff5af5-da3b-4b10-9507-25dbe88a654d","system_id":"levelo_inurba_marseille","lat":43.28011,"lon":5.4091,"is_reserved":false,"is_disabled":false,"rental_uris":{"android":"levelo://app?vid=c8ff5af5-da3b-4b10-9507-25dbe88a654d","ios":"levelo://app?vid=c8ff5af5-da3b-4b10-9507-25dbe88a654d"},"vehicle_type_id":"4","last_reported":1768234606,"current_range_meters":5600,"station_id":"","pricing_plan_id":"cebpf4jnsgd1na2vs0mg"},{"bike_id":"8c09d4e7-b9d7-45f4-b78d-ab559cd06ada","system_id":"levelo_inurba_marseille","lat":43.290246,"lon":5.375529,"is_reserved":false,"is_disabled":false,"rental_uris":{"android":"levelo://app?vid=8c09d4e7-b9d7-45f4-b78d-ab559cd06ada","ios":"levelo://app?vid=8c09d4e7-b9d7-45f4-b78d-ab559cd06ada"},"vehicle_type_id":"4","last_reported":1768234606,"current_range_meters":5600,"station_id":"ce4bh692rcd13ifvqe90","pricing_plan_id":"cebpf4jnsgd1na2vs0mg"},{"bike_id":"d27437ba-3ffb-4f9d-bb78-9893a2ba4e33","system_id":"levelo_inurba_marseille","lat":43.28613,"lon":5.35104,"is_reserved":false,"is_disabled":false,"rental_uris":{"android":"levelo://app?vid=d27437ba-3ffb-4f9d-bb78-9893a2ba4e33","ios":"levelo://app?vid=d27437ba-3ffb-4f9d-bb78-9893a2ba4e33"},"vehicle_type_id":"4","last_reported":1768234606,"current_range_meters":5600,"station_id":"ce4bhch2rcd13ifvqeug","pricing_plan_id":"cebpf4jnsgd1na2vs0mg"},{"bike_id":"5a93c31a-82d4-4450-bb2d-5c0f5869f750","system_id":"levelo_inurba_marseille","lat":43.31469,"lon":5.36923,"is_reserved":false,"is_disabled":false,"rental_uris":{"android":"levelo://app?vid=5a93c31a-82d4-4450-bb2d-5c0f5869f750","ios":"levelo://app?vid=5a93c31a-82d4-4450-bb2d-5c0f5869f750"},"vehicle_type_id":"4","last_reported":1768234606,"current_range_meters":5600,"station_id":"","pricing_plan_id":"cebpf4jnsgd1na2vs0mg"},{"bike_id":"10a4859b-492e-4415-9063-1030a46ae63d","system_id":"levelo_inurba_marseille","lat":43.23774,"lon":5.36633,"is_reserved":false,"is_disabled":false,"rental_uris":{"android":"levelo://app?vid=10a4859b-492e-4415-9063-1030a46ae63d","ios":"levelo://app?vid=10a4859b-492e-4415-9063-1030a46ae63d"},"vehicle_type_id":"4","last_reported":1768234606,"current_range_meters":5600,"station_id":"st_d3nk18o9ro0c73en2l3g","pricing_plan_id":"cebpf4jnsgd1na2vs0mg"},{"bike_id":"04ef207e-70db-43c9-86b2-d82275958730","system_id":"levelo_inurba_marseille","lat":43.2984,"lon":5.36266,"is_reserved":false,"is_disabled":false,"rental_uris":{"android":"levelo://app?vid=04ef207e-70db-43c9-86b2-d82275958730","ios":"levelo://app?vid=04ef207e-70db-43c9-86b2-d82275958730"},"vehicle_type_id":"4","last_reported":1768234606,"current_range_meters":5600,"station_id":"ce4bgpp2rcd13ifvqc3g","pricing_plan_id":"cebpf4jnsgd1na2vs0mg"},{"bike_id":"a28b05e6-1095-4d5b-8ce9-3795b4f82df5","system_id":"levelo_inurba_marseille","lat":43.24997,"lon":5.389332,"is_reserved":false,"is_disabled":false,"rental_uris":{"android":"levelo://app?vid=a28b05e6-1095-4d5b-8ce9-3795b4f82df5","ios":"levelo://app?vid=a28b05e6-1095-4d5b-8ce9-3795b4f82df5"},"vehicle_type_id":"4","last_reported":1768234606,"current_range_meters":5600,"station_id":"ce4bhgp2rcd13ifvqfd0","pricing_plan_id":"cebpf4jnsgd1na2vs0mg"},{"bike_id":"53d22cba-91d1-42b1-b294-699211397009","system_id":"levelo_inurba_marseille","lat":43.25327,"lon":5.42162,"is_reserved":false,"is_disabled":false,"rental_uris":{"android":"levelo://app?vid=53d22cba-91d1-42b1-b294-699211397009","ios":"levelo://app?vid=53d22cba-91d1-42b1-b294-699211397009"},"vehicle_type_id":"4","last_reported":1768234606,"current_range_meters":5600,"station_id":"st_d2m65c5bi1j21697t3ng","pricing_plan_id":"cebpf4jnsgd1na2vs0mg"},{"bike_id":"3ef53d63-95c4-419f-837b-6d7378072498","system_id":"levelo_inurba_marseille","lat":43.26543,"lon":5.37285,"is_reserved":false,"is_disabled":false,"rental_uris":{"android":"levelo://app?vid=3ef53d63-95c4-419f-837b-6d7378072498","ios":"levelo://app?vid=3ef53d63-95c4-419f-837b-6d7378072498"},"vehicle_type_id":"4","last_reported":1768234606,"current_range_meters":5600,"station_id":"ce4bhg12rcd13ifvqf70","pricing_plan_id":"cebpf4jnsgd1na2vs0mg"},{"bike_id":"ae907e5f-5909-4c34-b7be-79c7c3fb1bc6","system_id":"levelo_inurba_marseille","lat":43.2839,"lon":5.3864,"is_reserved":false,"is_disabled":false,"rental_uris":{"android":"levelo://app?vid=ae907e5f-5909-4c34-b7be-79c7c3fb1bc6","ios":"levelo://app?vid=ae907e5f-5909-4c34-b7be-79c7c3fb1bc6"},"vehicle_type_id":"4","last_reported":1768234606,"current_range_meters":5600,"station_id":"ce4bh492rcd13ifvqdvg","pricing_plan_id":"cebpf4jnsgd1na2vs0mg"},{"bike_id":"fa41facd-1726-4f2f-947e-865f658f52f6","system_id":"levelo_inurba_marseille","lat":43.262074,"lon":5.37927,"is_reserved":false,"is_disabled":true,"rental_uris":{"android":"levelo://app?vid=fa41facd-1726-4f2f-947e-865f658f52f6","ios":"levelo://app?vid=fa41facd-1726-4f2f-947e-865f658f52f6"},"vehicle_type_id":"4","last_reported":1768234606,"current_range_meters":6000,"station_id":"","pricing_plan_id":"cebpf4jnsgd1na2vs0mg"},{"bike_id":"8fd2ff71-26d9-478a-854c-f1b9d79bb01b","system_id":"levelo_inurba_marseille","lat":43.2962,"lon":5.37162,"is_reserved":false,"is_disabled":false,"rental_uris":{"android":"levelo://app?vid=8fd2ff71-26d9-478a-854c-f1b9d79bb01b","ios":"levelo://app?vid=8fd2ff71-26d9-478a-854c-f1b9d79bb01b"},"vehicle_type_id":"4","last_reported":1768234606,"current_range_meters":6000,"station_id":"ce4bgnh2rcd13ifvqc0g","pricing_plan_id":"cebpf4jnsgd1na2vs0mg"},{"bike_id":"011a0f85-824d-4797-8acb-9e127db69d8a","system_id":"levelo_inurba_marseille","lat":43.24542,"lon":5.39531,"is_reserved":false,"is_disabled":false,"rental_uris":{"android":"levelo://app?vid=011a0f85-824d-4797-8acb-9e127db69d8a","ios":"levelo://app?vid=011a0f85-824d-4797-8acb-9e127db69d8a"},"vehicle_type_id":"4","last_reported":1768234606,"current_range_meters":6000,"station_id":"ce4bhlp2rcd13ifvqgjg","pricing_plan_id":"cebpf4jnsgd1na2vs0mg"},{"bike_id":"30eaeb92-a0d6-4906-a93b-9ced60a2096c","system_id":"levelo_inurba_marseille","lat":43.31126,"lon":5.37755,"is_reserved":false,"is_disabled":false,"rental_uris":{"android":"levelo://app?vid=30eaeb92-a0d6-4906-a93b-9ced60a2096c","ios":"levelo://app?vid=30eaeb92-a0d6-4906-a93b-9ced60a2096c"},"vehicle_type_id":"4","last_reported":1768234606,"current_range_meters":6000,"station_id":"ce4bgt92rcd13ifvqcg0","pricing_plan_id":"cebpf4jnsgd1na2vs0mg"},{"bike_id":"dd67a0b3-d5e0-4276-b1a4-1926be74a790","system_id":"levelo_inurba_marseille","lat":43.30014,"lon":5.37637,"is_reserved":false,"is_disabled":false,"rental_uris":{"android":"levelo://app?vid=dd67a0b3-d5e0-4276-b1a4-1926be74a790","ios":"levelo://app?vid=dd67a0b3-d5e0-4276-b1a4-1926be74a790"},"vehicle_type_id":"4","last_reported":1768234606,"current_range_meters":6000,"station_id":"","pricing_plan_id":"cebpf4jnsgd1na2vs0mg"},{"bike_id":"86cace23-1d48-4536-a292-b39fad20b40a","system_id":"levelo_inurba_marseille","lat":43.24646,"lon":5.3889,"is_reserved":false,"is_disabled":false,"rental_uris":{"android":"levelo://app?vid=86cace23-1d48-4536-a292-b39fad20b40a","ios":"levelo://app?vid=86cace23-1d48-4536-a292-b39fad20b40a"},"vehicle_type_id":"4","last_reported":1768234606,"current_range_meters":6000,"station_id":"ce4bhg12rcd13ifvqf60","pricing_plan_id":"cebpf4jnsgd1na2vs0mg"},{"bike_id":"fae57e34-d123-4b5d-b549-b5483c41b8c0","system_id":"levelo_inurba_marseille","lat":43.291413,"lon":5.376655,"is_reserved":false,"is_disabled":false,"rental_uris":{"android":"levelo://app?vid=fae57e34-d123-4b5d-b549-b5483c41b8c0","ios":"levelo://app?vid=fae57e34-d123-4b5d-b549-b5483c41b8c0"},"vehicle_type_id":"4","last_reported":1768234606,"current_range_meters":6000,"station_id":"","pricing_plan_id":"cebpf4jnsgd1na2vs0mg"},{"bike_id":"6b4cd2dc-25ea-4079-b9fe-5462d5e3a9f0","system_id":"levelo_inurba_marseille","lat":43.27125,"lon":5.40422,"is_reserved":false,"is_disabled":false,"rental_uris":{"android":"levelo://app?vid=6b4cd2dc-25ea-4079-b9fe-5462d5e3a9f0","ios":"levelo://app?vid=6b4cd2dc-25ea-4079-b9fe-5462d5e3a9f0"},"vehicle_type_id":"4","last_reported":1768234606,"current_range_meters":6000,"station_id":"","pricing_plan_id":"cebpf4jnsgd1na2vs0mg"},{"bike_id":"73458e0d-84b9-4043-9286-37e9026bc27e","system_id":"levelo_inurba_marseille","lat":43.22549,"lon":5.41639,"is_reserved":false,"is_disabled":false,"rental_uris":{"android":"levelo://app?vid=73458e0d-84b9-4043-9286-37e9026bc27e","ios":"levelo://app?vid=73458e0d-84b9-4043-9286-37e9026bc27e"},"vehicle_type_id":"4","last_reported":1768234606,"current_range_meters":6000,"station_id":"st_d2o4gvlbi1j2169b742g","pricing_plan_id":"cebpf4jnsgd1na2vs0mg"},{"bike_id":"1168f898-9927-4460-ab60-87aa882d0515","system_id":"levelo_inurba_marseille","lat":43.29944,"lon":5.36533,"is_reserved":false,"is_disabled":false,"rental_uris":{"android":"levelo://app?vid=1168f898-9927-4460-ab60-87aa882d0515","ios":"levelo://app?vid=1168f898-9927-4460-ab60-87aa882d0515"},"vehicle_type_id":"4","last_reported":1768234606,"current_range_meters":6000,"station_id":"ce4bgm92rcd13ifvqbr0","pricing_plan_id":"cebpf4jnsgd1na2vs0mg"},{"bike_id":"b088ad58-7f41-4ab8-80da-21ba2cb9e467","system_id":"levelo_inurba_marseille","lat":43.225603,"lon":5.416282,"is_reserved":false,"is_disabled":false,"rental_uris":{"android":"levelo://app?vid=b088ad58-7f41-4ab8-80da-21ba2cb9e467","ios":"levelo://app?vid=b088ad58-7f41-4ab8-80da-21ba2cb9e467"},"vehicle_type_id":"4","last_reported":1768234606,"current_range_meters":6000,"station_id":"st_d2o4gvlbi1j2169b742g","pricing_plan_id":"cebpf4jnsgd1na2vs0mg"},{"bike_id":"301c787a-5305-45f5-86ff-c559fa230a50","system_id":"levelo_inurba_marseille","lat":43.29881,"lon":5.37664,"is_reserved":false,"is_disabled":false,"rental_uris":{"android":"levelo://app?vid=301c787a-5305-45f5-86ff-c559fa230a50","ios":"levelo://app?vid=301c787a-5305-45f5-86ff-c559fa230a50"},"vehicle_type_id":"4","last_reported":1768234606,"current_range_meters":6000,"station_id":"","pricing_plan_id":"cebpf4jnsgd1na2vs0mg"},{"bike_id":"a5e4775c-fe09-4d93-916a-5022170bcc25","system_id":"levelo_inurba_marseille","lat":43.24165,"lon":5.36393,"is_reserved":false,"is_disabled":false,"rental_uris":{"android":"levelo://app?vid=a5e4775c-fe09-4d93-916a-5022170bcc25","ios":"levelo://app?vid=a5e4775c-fe09-4d93-916a-5022170bcc25"},"vehicle_type_id":"4","last_reported":1768234606,"current_range_meters":6000,"station_id":"cpo36qri1sfpv3e86is0","pricing_plan_id":"cebpf4jnsgd1na2vs0mg"},{"bike_id":"416e9add-b08d-41ef-8793-a994c0d3386c","system_id":"levelo_inurba_marseille","lat":43.28429,"lon":5.38506,"is_reserved":false,"is_disabled":false,"rental_uris":{"android":"levelo://app?vid=416e9add-b08d-41ef-8793-a994c0d3386c","ios":"levelo://app?vid=416e9add-b08d-41ef-8793-a994c0d3386c"},"vehicle_type_id":"4","last_reported":1768234606,"current_range_meters":6400,"station_id":"","pricing_plan_id":"cebpf4jnsgd1na2vs0mg"},{"bike_id":"5b74f76c-7655-4a1b-bf0f-ee1d1ac9b692","system_id":"levelo_inurba_marseille","lat":43.3138,"lon":5.36807,"is_reserved":false,"is_disabled":false,"rental_uris":{"android":"levelo://app?vid=5b74f76c-7655-4a1b-bf0f-ee1d1ac9b692","ios":"levelo://app?vid=5b74f76c-7655-4a1b-bf0f-ee1d1ac9b692"},"vehicle_type_id":"4","last_reported":1768234606,"current_range_meters":6400,"station_id":"","pricing_plan_id":"cebpf4jnsgd1na2vs0mg"},{"bike_id":"f043a1a1-4a69-4186-9666-3af6d6cee7e1","system_id":"levelo_inurba_marseille","lat":43.26188,"lon":5.37462,"is_reserved":false,"is_disabled":true,"rental_uris":{"android":"levelo://app?vid=f043a1a1-4a69-4186-9666-3af6d6cee7e1","ios":"levelo://app?vid=f043a1a1-4a69-4186-9666-3af6d6cee7e1"},"vehicle_type_id":"4","last_reported":1768234606,"current_range_meters":6400,"station_id":"ce4bhgp2rcd13ifvqfc0","pricing_plan_id":"cebpf4jnsgd1na2vs0mg"},{"bike_id":"0b89e391-f907-49b3-821c-11a35132660a","system_id":"levelo_inurba_marseille","lat":43.25334,"lon":5.4216,"is_reserved":false,"is_disabled":false,"rental_uris":{"android":"levelo://app?vid=0b89e391-f907-49b3-821c-11a35132660a","ios":"levelo://app?vid=0b89e391-f907-49b3-821c-11a35132660a"},"vehicle_type_id":"4","last_reported":1768234606,"current_range_meters":6400,"station_id":"st_d2m65c5bi1j21697t3ng","pricing_plan_id":"cebpf4jnsgd1na2vs0mg"},{"bike_id":"cf7ff780-5cc1-488c-bf59-2cc02d1f230b","system_id":"levelo_inurba_marseille","lat":43.23791,"lon":5.36616,"is_reserved":false,"is_disabled":false,"rental_uris":{"android":"levelo://app?vid=cf7ff780-5cc1-488c-bf59-2cc02d1f230b","ios":"levelo://app?vid=cf7ff780-5cc1-488c-bf59-2cc02d1f230b"},"vehicle_type_id":"4","last_reported":1768234606,"current_range_meters":6400,"station_id":"st_d3nk18o9ro0c73en2l3g","pricing_plan_id":"cebpf4jnsgd1na2vs0mg"},{"bike_id":"aaa7746b-4bb3-4745-9a78-16c7e3f0ea13","system_id":"levelo_inurba_marseille","lat":43.24068,"lon":5.37762,"is_reserved":false,"is_disabled":false,"rental_uris":{"android":"levelo://app?vid=aaa7746b-4bb3-4745-9a78-16c7e3f0ea13","ios":"levelo://app?vid=aaa7746b-4bb3-4745-9a78-16c7e3f0ea13"},"vehicle_type_id":"4","last_reported":1768234606,"current_range_meters":6400,"station_id":"ce4bhnp2rcd13ifvqgvg","pricing_plan_id":"cebpf4jnsgd1na2vs0mg"},{"bike_id":"5a7dd1fb-12da-4ffe-a80c-3d765edaa1e0","system_id":"levelo_inurba_marseille","lat":43.22555,"lon":5.41626,"is_reserved":false,"is_disabled":false,"rental_uris":{"android":"levelo://app?vid=5a7dd1fb-12da-4ffe-a80c-3d765edaa1e0","ios":"levelo://app?vid=5a7dd1fb-12da-4ffe-a80c-3d765edaa1e0"},"vehicle_type_id":"4","last_reported":1768234606,"current_range_meters":6400,"station_id":"st_d2o4gvlbi1j2169b742g","pricing_plan_id":"cebpf4jnsgd1na2vs0mg"},{"bike_id":"b0d8414b-9ec4-4d2d-ada4-4b5a508ba76c","system_id":"levelo_inurba_marseille","lat":43.25935,"lon":5.40903,"is_reserved":false,"is_disabled":false,"rental_uris":{"android":"levelo://app?vid=b0d8414b-9ec4-4d2d-ada4-4b5a508ba76c","ios":"levelo://app?vid=b0d8414b-9ec4-4d2d-ada4-4b5a508ba76c"},"vehicle_type_id":"4","last_reported":1768234606,"current_range_meters":6400,"station_id":"ce4bhm92rcd13ifvqglg","pricing_plan_id":"cebpf4jnsgd1na2vs0mg"},{"bike_id":"56f33d1a-63a6-44cd-9b0f-4476e7b7806c","system_id":"levelo_inurba_marseille","lat":43.24072,"lon":5.3776,"is_reserved":false,"is_disabled":false,"rental_uris":{"android":"levelo://app?vid=56f33d1a-63a6-44cd-9b0f-4476e7b7806c","ios":"levelo://app?vid=56f33d1a-63a6-44cd-9b0f-4476e7b7806c"},"vehicle_type_id":"4","last_reported":1768234606,"current_range_meters":6400,"station_id":"ce4bhnp2rcd13ifvqgvg","pricing_plan_id":"cebpf4jnsgd1na2vs0mg"},{"bike_id":"4e54f97c-d3ee-4d3e-85bc-a2d8b801dbee","system_id":"levelo_inurba_marseille","lat":43.311204,"lon":5.37762,"is_reserved":false,"is_disabled":false,"rental_uris":{"android":"levelo://app?vid=4e54f97c-d3ee-4d3e-85bc-a2d8b801dbee","ios":"levelo://app?vid=4e54f97c-d3ee-4d3e-85bc-a2d8b801dbee"},"vehicle_type_id":"4","last_reported":1768234606,"current_range_meters":6400,"station_id":"ce4bgt92rcd13ifvqcg0","pricing_plan_id":"cebpf4jnsgd1na2vs0mg"},{"bike_id":"63fc7043-c019-4251-abc3-87e8519908fa","system_id":"levelo_inurba_marseille","lat":43.26688,"lon":5.38274,"is_reserved":false,"is_disabled":true,"rental_uris":{"android":"levelo://app?vid=63fc7043-c019-4251-abc3-87e8519908fa","ios":"levelo://app?vid=63fc7043-c019-4251-abc3-87e8519908fa"},"vehicle_type_id":"4","last_reported":1768234606,"current_range_meters":6400,"station_id":"ce4bhg92rcd13ifvqf90","pricing_plan_id":"cebpf4jnsgd1na2vs0mg"},{"bike_id":"02d1d68a-b484-426e-ac69-2f52c3dd3ad3","system_id":"levelo_inurba_marseille","lat":43.25107,"lon":5.40321,"is_reserved":false,"is_disabled":false,"rental_uris":{"android":"levelo://app?vid=02d1d68a-b484-426e-ac69-2f52c3dd3ad3","ios":"levelo://app?vid=02d1d68a-b484-426e-ac69-2f52c3dd3ad3"},"vehicle_type_id":"4","last_reported":1768234606,"current_range_meters":6400,"station_id":"ce4bhlh2rcd13ifvqgig","pricing_plan_id":"cebpf4jnsgd1na2vs0mg"},{"bike_id":"9560acee-40c7-4a56-b963-8419cf89aa12","system_id":"levelo_inurba_marseille","lat":43.26193,"lon":5.37453,"is_reserved":false,"is_disabled":false,"rental_uris":{"android":"levelo://app?vid=9560acee-40c7-4a56-b963-8419cf89aa12","ios":"levelo://app?vid=9560acee-40c7-4a56-b963-8419cf89aa12"},"vehicle_type_id":"4","last_reported":1768234606,"current_range_meters":6400,"station_id":"ce4bhgp2rcd13ifvqfc0","pricing_plan_id":"cebpf4jnsgd1na2vs0mg"},{"bike_id":"5c7c7d9e-b199-43a9-9039-49ab92e678a2","system_id":"levelo_inurba_marseille","lat":43.27774,"lon":5.39961,"is_reserved":false,"is_disabled":false,"rental_uris":{"android":"levelo://app?vid=5c7c7d9e-b199-43a9-9039-49ab92e678a2","ios":"levelo://app?vid=5c7c7d9e-b199-43a9-9039-49ab92e678a2"},"vehicle_type_id":"4","last_reported":1768234606,"current_range_meters":6400,"station_id":"","pricing_plan_id":"cebpf4jnsgd1na2vs0mg"},{"bike_id":"dbad2cff-9661-422b-a29b-69069add4417","system_id":"levelo_inurba_marseille","lat":43.22926,"lon":5.35409,"is_reserved":false,"is_disabled":false,"rental_uris":{"android":"levelo://app?vid=dbad2cff-9661-422b-a29b-69069add4417","ios":"levelo://app?vid=dbad2cff-9661-422b-a29b-69069add4417"},"vehicle_type_id":"4","last_reported":1768234606,"current_range_meters":6400,"station_id":"cpo3532slgdg3j2ikp40","pricing_plan_id":"cebpf4jnsgd1na2vs0mg"},{"bike_id":"03881385-ba80-4079-8dbc-831ad08a972c","system_id":"levelo_inurba_marseille","lat":43.27912,"lon":5.3958,"is_reserved":false,"is_disabled":false,"rental_uris":{"android":"levelo://app?vid=03881385-ba80-4079-8dbc-831ad08a972c","ios":"levelo://app?vid=03881385-ba80-4079-8dbc-831ad08a972c"},"vehicle_type_id":"4","last_reported":1768234606,"current_range_meters":6400,"station_id":"ce4bhf92rcd13ifvqf40","pricing_plan_id":"cebpf4jnsgd1na2vs0mg"},{"bike_id":"81a643c0-1a9a-46af-a530-1390aa073323","system_id":"levelo_inurba_marseille","lat":43.24606,"lon":5.43086,"is_reserved":false,"is_disabled":false,"rental_uris":{"android":"levelo://app?vid=81a643c0-1a9a-46af-a530-1390aa073323","ios":"levelo://app?vid=81a643c0-1a9a-46af-a530-1390aa073323"},"vehicle_type_id":"4","last_reported":1768234606,"current_range_meters":6400,"station_id":"st_d2m6c4gdas8pm72e190g","pricing_plan_id":"cebpf4jnsgd1na2vs0mg"},{"bike_id":"010a41e4-b27e-4b0b-9f51-83fce1df4042","system_id":"levelo_inurba_marseille","lat":43.30541,"lon":5.36519,"is_reserved":false,"is_disabled":false,"rental_uris":{"android":"levelo://app?vid=010a41e4-b27e-4b0b-9f51-83fce1df4042","ios":"levelo://app?vid=010a41e4-b27e-4b0b-9f51-83fce1df4042"},"vehicle_type_id":"4","last_reported":1768234606,"current_range_meters":6400,"station_id":"ce4bgs12rcd13ifvqcag","pricing_plan_id":"cebpf4jnsgd1na2vs0mg"},{"bike_id":"0c84f9c6-c621-4fe3-8bd3-3260215c4f00","system_id":"levelo_inurba_marseille","lat":43.29729,"lon":5.37701,"is_reserved":false,"is_disabled":false,"rental_uris":{"android":"levelo://app?vid=0c84f9c6-c621-4fe3-8bd3-3260215c4f00","ios":"levelo://app?vid=0c84f9c6-c621-4fe3-8bd3-3260215c4f00"},"vehicle_type_id":"4","last_reported":1768234606,"current_range_meters":6400,"station_id":"ce4bgkh2rcd13ifvqbl0","pricing_plan_id":"cebpf4jnsgd1na2vs0mg"},{"bike_id":"70a92f6a-54d8-4143-bfb2-6358e6048d74","system_id":"levelo_inurba_marseille","lat":43.28452,"lon":5.35875,"is_reserved":false,"is_disabled":false,"rental_uris":{"android":"levelo://app?vid=70a92f6a-54d8-4143-bfb2-6358e6048d74","ios":"levelo://app?vid=70a92f6a-54d8-4143-bfb2-6358e6048d74"},"vehicle_type_id":"4","last_reported":1768234606,"current_range_meters":6400,"station_id":"ce4bhah2rcd13ifvqei0","pricing_plan_id":"cebpf4jnsgd1na2vs0mg"},{"bike_id":"e302982d-9308-44bc-b104-e4f71eab66ec","system_id":"levelo_inurba_marseille","lat":43.29268,"lon":5.38442,"is_reserved":false,"is_disabled":false,"rental_uris":{"android":"levelo://app?vid=e302982d-9308-44bc-b104-e4f71eab66ec","ios":"levelo://app?vid=e302982d-9308-44bc-b104-e4f71eab66ec"},"vehicle_type_id":"4","last_reported":1768234606,"current_range_meters":6400,"station_id":"ce4bh692rcd13ifvqea0","pricing_plan_id":"cebpf4jnsgd1na2vs0mg"},{"bike_id":"24f0a2da-aa1b-495a-8bd2-5db4872b3634","system_id":"levelo_inurba_marseille","lat":43.225613,"lon":5.416254,"is_reserved":false,"is_disabled":false,"rental_uris":{"android":"levelo://app?vid=24f0a2da-aa1b-495a-8bd2-5db4872b3634","ios":"levelo://app?vid=24f0a2da-aa1b-495a-8bd2-5db4872b3634"},"vehicle_type_id":"4","last_reported":1768234606,"current_range_meters":6400,"station_id":"st_d2o4gvlbi1j2169b742g","pricing_plan_id":"cebpf4jnsgd1na2vs0mg"},{"bike_id":"1da82394-edf2-4a0c-a62d-43072755bbb4","system_id":"levelo_inurba_marseille","lat":43.24659,"lon":5.3816,"is_reserved":false,"is_disabled":false,"rental_uris":{"android":"levelo://app?vid=1da82394-edf2-4a0c-a62d-43072755bbb4","ios":"levelo://app?vid=1da82394-edf2-4a0c-a62d-43072755bbb4"},"vehicle_type_id":"4","last_reported":1768234606,"current_range_meters":6400,"station_id":"ce4bhih2rcd13ifvqfr0","pricing_plan_id":"cebpf4jnsgd1na2vs0mg"},{"bike_id":"2e02cc71-3e50-4a35-806f-7e9a5398a999","system_id":"levelo_inurba_marseille","lat":43.29227,"lon":5.36078,"is_reserved":false,"is_disabled":true,"rental_uris":{"android":"levelo://app?vid=2e02cc71-3e50-4a35-806f-7e9a5398a999","ios":"levelo://app?vid=2e02cc71-3e50-4a35-806f-7e9a5398a999"},"vehicle_type_id":"4","last_reported":1768234606,"current_range_meters":6800,"station_id":"ce4bhbh2rcd13ifvqeqg","pricing_plan_id":"cebpf4jnsgd1na2vs0mg"},{"bike_id":"35254f06-efb2-4d00-b949-89c11838f9ec","system_id":"levelo_inurba_marseille","lat":43.23201,"lon":5.35569,"is_reserved":false,"is_disabled":false,"rental_uris":{"android":"levelo://app?vid=35254f06-efb2-4d00-b949-89c11838f9ec","ios":"levelo://app?vid=35254f06-efb2-4d00-b949-89c11838f9ec"},"vehicle_type_id":"4","last_reported":1768234606,"current_range_meters":6800,"station_id":"ce4bhu92rcd13ifvqi70","pricing_plan_id":"cebpf4jnsgd1na2vs0mg"},{"bike_id":"857213d5-7353-4d98-a3cc-a303673faf43","system_id":"levelo_inurba_marseille","lat":43.25573,"lon":5.38232,"is_reserved":false,"is_disabled":true,"rental_uris":{"android":"levelo://app?vid=857213d5-7353-4d98-a3cc-a303673faf43","ios":"levelo://app?vid=857213d5-7353-4d98-a3cc-a303673faf43"},"vehicle_type_id":"4","last_reported":1768234606,"current_range_meters":6800,"station_id":"ce4bhih2rcd13ifvqfs0","pricing_plan_id":"cebpf4jnsgd1na2vs0mg"},{"bike_id":"48e0d58e-bd7e-4b90-92d4-898fdf7abd39","system_id":"levelo_inurba_marseille","lat":43.30855,"lon":5.40595,"is_reserved":false,"is_disabled":false,"rental_uris":{"android":"levelo://app?vid=48e0d58e-bd7e-4b90-92d4-898fdf7abd39","ios":"levelo://app?vid=48e0d58e-bd7e-4b90-92d4-898fdf7abd39"},"vehicle_type_id":"4","last_reported":1768234606,"current_range_meters":6800,"station_id":"","pricing_plan_id":"cebpf4jnsgd1na2vs0mg"},{"bike_id":"c5cacf13-0b9c-41b5-94a2-55e05bf702f3","system_id":"levelo_inurba_marseille","lat":43.297137,"lon":5.37857,"is_reserved":false,"is_disabled":false,"rental_uris":{"android":"levelo://app?vid=c5cacf13-0b9c-41b5-94a2-55e05bf702f3","ios":"levelo://app?vid=c5cacf13-0b9c-41b5-94a2-55e05bf702f3"},"vehicle_type_id":"4","last_reported":1768234606,"current_range_meters":6800,"station_id":"","pricing_plan_id":"cebpf4jnsgd1na2vs0mg"},{"bike_id":"2587eba2-f80d-4b3a-88e3-bb85d27a199d","system_id":"levelo_inurba_marseille","lat":43.22556,"lon":5.41636,"is_reserved":false,"is_disabled":false,"rental_uris":{"android":"levelo://app?vid=2587eba2-f80d-4b3a-88e3-bb85d27a199d","ios":"levelo://app?vid=2587eba2-f80d-4b3a-88e3-bb85d27a199d"},"vehicle_type_id":"4","last_reported":1768234606,"current_range_meters":6800,"station_id":"st_d2o4gvlbi1j2169b742g","pricing_plan_id":"cebpf4jnsgd1na2vs0mg"},{"bike_id":"b75b9b40-daab-41be-984c-4907ce0bd6e7","system_id":"levelo_inurba_marseille","lat":43.28413,"lon":5.34993,"is_reserved":false,"is_disabled":false,"rental_uris":{"android":"levelo://app?vid=b75b9b40-daab-41be-984c-4907ce0bd6e7","ios":"levelo://app?vid=b75b9b40-daab-41be-984c-4907ce0bd6e7"},"vehicle_type_id":"4","last_reported":1768234606,"current_range_meters":6800,"station_id":"ce4bhbh2rcd13ifvqepg","pricing_plan_id":"cebpf4jnsgd1na2vs0mg"},{"bike_id":"13d2cc34-6c58-4420-b4f5-cfabc63d7229","system_id":"levelo_inurba_marseille","lat":43.33157,"lon":5.37691,"is_reserved":false,"is_disabled":false,"rental_uris":{"android":"levelo://app?vid=13d2cc34-6c58-4420-b4f5-cfabc63d7229","ios":"levelo://app?vid=13d2cc34-6c58-4420-b4f5-cfabc63d7229"},"vehicle_type_id":"4","last_reported":1768234606,"current_range_meters":6800,"station_id":"st_d46cu089ee8s73dldbu0","pricing_plan_id":"cebpf4jnsgd1na2vs0mg"},{"bike_id":"7939dc2a-1200-46f3-87e9-0269e25b463d","system_id":"levelo_inurba_marseille","lat":43.289711,"lon":5.378357,"is_reserved":false,"is_disabled":false,"rental_uris":{"android":"levelo://app?vid=7939dc2a-1200-46f3-87e9-0269e25b463d","ios":"levelo://app?vid=7939dc2a-1200-46f3-87e9-0269e25b463d"},"vehicle_type_id":"4","last_reported":1768234606,"current_range_meters":6800,"station_id":"ce4bh9p2rcd13ifvqed0","pricing_plan_id":"cebpf4jnsgd1na2vs0mg"},{"bike_id":"6dde8fad-f9d4-480c-8609-b0da6cd8adba","system_id":"levelo_inurba_marseille","lat":43.30419,"lon":5.4129,"is_reserved":false,"is_disabled":false,"rental_uris":{"android":"levelo://app?vid=6dde8fad-f9d4-480c-8609-b0da6cd8adba","ios":"levelo://app?vid=6dde8fad-f9d4-480c-8609-b0da6cd8adba"},"vehicle_type_id":"4","last_reported":1768234606,"current_range_meters":6800,"station_id":"ce4bhop2rcd13ifvqh8g","pricing_plan_id":"cebpf4jnsgd1na2vs0mg"},{"bike_id":"31b02cd8-90be-4607-9612-ef41245111ac","system_id":"levelo_inurba_marseille","lat":43.28952,"lon":5.36401,"is_reserved":false,"is_disabled":true,"rental_uris":{"android":"levelo://app?vid=31b02cd8-90be-4607-9612-ef41245111ac","ios":"levelo://app?vid=31b02cd8-90be-4607-9612-ef41245111ac"},"vehicle_type_id":"4","last_reported":1768234606,"current_range_meters":6800,"station_id":"ce4bhc92rcd13ifvqetg","pricing_plan_id":"cebpf4jnsgd1na2vs0mg"},{"bike_id":"d86ceb68-928c-4cd3-a45f-50c9cc1b47c6","system_id":"levelo_inurba_marseille","lat":43.27201,"lon":5.39188,"is_reserved":false,"is_disabled":false,"rental_uris":{"android":"levelo://app?vid=d86ceb68-928c-4cd3-a45f-50c9cc1b47c6","ios":"levelo://app?vid=d86ceb68-928c-4cd3-a45f-50c9cc1b47c6"},"vehicle_type_id":"4","last_reported":1768234606,"current_range_meters":6800,"station_id":"ce4bhhp2rcd13ifvqfm0","pricing_plan_id":"cebpf4jnsgd1na2vs0mg"},{"bike_id":"4202e215-6f29-4f58-ace8-2e6289f05e81","system_id":"levelo_inurba_marseille","lat":43.23959,"lon":5.36614,"is_reserved":false,"is_disabled":false,"rental_uris":{"android":"levelo://app?vid=4202e215-6f29-4f58-ace8-2e6289f05e81","ios":"levelo://app?vid=4202e215-6f29-4f58-ace8-2e6289f05e81"},"vehicle_type_id":"4","last_reported":1768234606,"current_range_meters":6800,"station_id":"ce4bhi12rcd13ifvqfp0","pricing_plan_id":"cebpf4jnsgd1na2vs0mg"},{"bike_id":"bce5bef6-66c0-48f9-9494-83e46be9a229","system_id":"levelo_inurba_marseille","lat":43.32336,"lon":5.36778,"is_reserved":false,"is_disabled":false,"rental_uris":{"android":"levelo://app?vid=bce5bef6-66c0-48f9-9494-83e46be9a229","ios":"levelo://app?vid=bce5bef6-66c0-48f9-9494-83e46be9a229"},"vehicle_type_id":"4","last_reported":1768234606,"current_range_meters":6800,"station_id":"ce4bhsh2rcd13ifvqi2g","pricing_plan_id":"cebpf4jnsgd1na2vs0mg"},{"bike_id":"90dfc0c4-0044-4337-8331-b045fdb00361","system_id":"levelo_inurba_marseille","lat":43.3315,"lon":5.37667,"is_reserved":false,"is_disabled":false,"rental_uris":{"android":"levelo://app?vid=90dfc0c4-0044-4337-8331-b045fdb00361","ios":"levelo://app?vid=90dfc0c4-0044-4337-8331-b045fdb00361"},"vehicle_type_id":"4","last_reported":1768234606,"current_range_meters":6800,"station_id":"st_d46cu089ee8s73dldbu0","pricing_plan_id":"cebpf4jnsgd1na2vs0mg"},{"bike_id":"2fbe3eff-58d3-4562-85db-49f50e399ac9","system_id":"levelo_inurba_marseille","lat":43.30163,"lon":5.39875,"is_reserved":false,"is_disabled":false,"rental_uris":{"android":"levelo://app?vid=2fbe3eff-58d3-4562-85db-49f50e399ac9","ios":"levelo://app?vid=2fbe3eff-58d3-4562-85db-49f50e399ac9"},"vehicle_type_id":"4","last_reported":1768234606,"current_range_meters":6800,"station_id":"ce4bh0h2rcd13ifvqd40","pricing_plan_id":"cebpf4jnsgd1na2vs0mg"},{"bike_id":"839abfa9-cc2f-4345-9d65-416105793055","system_id":"levelo_inurba_marseille","lat":43.28477,"lon":5.38417,"is_reserved":false,"is_disabled":false,"rental_uris":{"android":"levelo://app?vid=839abfa9-cc2f-4345-9d65-416105793055","ios":"levelo://app?vid=839abfa9-cc2f-4345-9d65-416105793055"},"vehicle_type_id":"4","last_reported":1768234606,"current_range_meters":6800,"station_id":"ce4bh512rcd13ifvqe3g","pricing_plan_id":"cebpf4jnsgd1na2vs0mg"},{"bike_id":"824e0100-c6fc-4a0d-bafe-328ab4a682ff","system_id":"levelo_inurba_marseille","lat":43.3234,"lon":5.36724,"is_reserved":false,"is_disabled":false,"rental_uris":{"android":"levelo://app?vid=824e0100-c6fc-4a0d-bafe-328ab4a682ff","ios":"levelo://app?vid=824e0100-c6fc-4a0d-bafe-328ab4a682ff"},"vehicle_type_id":"4","last_reported":1768234606,"current_range_meters":6800,"station_id":"ce4bhsh2rcd13ifvqi2g","pricing_plan_id":"cebpf4jnsgd1na2vs0mg"},{"bike_id":"b81a771e-796c-40e5-98d5-2c3857393d80","system_id":"levelo_inurba_marseille","lat":43.28486,"lon":5.48381,"is_reserved":false,"is_disabled":false,"rental_uris":{"android":"levelo://app?vid=b81a771e-796c-40e5-98d5-2c3857393d80","ios":"levelo://app?vid=b81a771e-796c-40e5-98d5-2c3857393d80"},"vehicle_type_id":"4","last_reported":1768234606,"current_range_meters":6800,"station_id":"st_d3svhcjqgbts73a3dn0g","pricing_plan_id":"cebpf4jnsgd1na2vs0mg"},{"bike_id":"d6fc741c-6097-4ce8-aeee-b2422caf87bb","system_id":"levelo_inurba_marseille","lat":43.30133,"lon":5.37433,"is_reserved":false,"is_disabled":false,"rental_uris":{"android":"levelo://app?vid=d6fc741c-6097-4ce8-aeee-b2422caf87bb","ios":"levelo://app?vid=d6fc741c-6097-4ce8-aeee-b2422caf87bb"},"vehicle_type_id":"4","last_reported":1768234606,"current_range_meters":7200,"station_id":"ce4bgs92rcd13ifvqcc0","pricing_plan_id":"cebpf4jnsgd1na2vs0mg"},{"bike_id":"7c2a7247-1757-4f73-86d7-4e2145cd68ac","system_id":"levelo_inurba_marseille","lat":43.29048,"lon":5.37182,"is_reserved":false,"is_disabled":false,"rental_uris":{"android":"levelo://app?vid=7c2a7247-1757-4f73-86d7-4e2145cd68ac","ios":"levelo://app?vid=7c2a7247-1757-4f73-86d7-4e2145cd68ac"},"vehicle_type_id":"4","last_reported":1768234606,"current_range_meters":7200,"station_id":"ce4bh5p2rcd13ifvqe4g","pricing_plan_id":"cebpf4jnsgd1na2vs0mg"},{"bike_id":"cddcf2c2-04b5-4843-b385-219618c4a20f","system_id":"levelo_inurba_marseille","lat":43.28621,"lon":5.35093,"is_reserved":false,"is_disabled":false,"rental_uris":{"android":"levelo://app?vid=cddcf2c2-04b5-4843-b385-219618c4a20f","ios":"levelo://app?vid=cddcf2c2-04b5-4843-b385-219618c4a20f"},"vehicle_type_id":"4","last_reported":1768234606,"current_range_meters":7200,"station_id":"ce4bhch2rcd13ifvqeug","pricing_plan_id":"cebpf4jnsgd1na2vs0mg"},{"bike_id":"bb1a79bd-f8cd-42d2-9565-6b62b5b7cf92","system_id":"levelo_inurba_marseille","lat":43.30818,"lon":5.38143,"is_reserved":false,"is_disabled":false,"rental_uris":{"android":"levelo://app?vid=bb1a79bd-f8cd-42d2-9565-6b62b5b7cf92","ios":"levelo://app?vid=bb1a79bd-f8cd-42d2-9565-6b62b5b7cf92"},"vehicle_type_id":"4","last_reported":1768234606,"current_range_meters":7200,"station_id":"ce4bgt12rcd13ifvqce0","pricing_plan_id":"cebpf4jnsgd1na2vs0mg"},{"bike_id":"8049ab61-e378-4478-bef4-ac0f529d7d1a","system_id":"levelo_inurba_marseille","lat":43.23186,"lon":5.35564,"is_reserved":false,"is_disabled":false,"rental_uris":{"android":"levelo://app?vid=8049ab61-e378-4478-bef4-ac0f529d7d1a","ios":"levelo://app?vid=8049ab61-e378-4478-bef4-ac0f529d7d1a"},"vehicle_type_id":"4","last_reported":1768234606,"current_range_meters":7200,"station_id":"ce4bhu92rcd13ifvqi70","pricing_plan_id":"cebpf4jnsgd1na2vs0mg"},{"bike_id":"e6befd7e-310d-4de6-875c-f5d8a2b61c92","system_id":"levelo_inurba_marseille","lat":43.29968,"lon":5.38504,"is_reserved":false,"is_disabled":false,"rental_uris":{"android":"levelo://app?vid=e6befd7e-310d-4de6-875c-f5d8a2b61c92","ios":"levelo://app?vid=e6befd7e-310d-4de6-875c-f5d8a2b61c92"},"vehicle_type_id":"4","last_reported":1768234606,"current_range_meters":7200,"station_id":"ce4bgj92rcd13ifvqbd0","pricing_plan_id":"cebpf4jnsgd1na2vs0mg"},{"bike_id":"89053bae-84e8-4597-aaae-9d95920b99b5","system_id":"levelo_inurba_marseille","lat":43.31209,"lon":5.36818,"is_reserved":false,"is_disabled":false,"rental_uris":{"android":"levelo://app?vid=89053bae-84e8-4597-aaae-9d95920b99b5","ios":"levelo://app?vid=89053bae-84e8-4597-aaae-9d95920b99b5"},"vehicle_type_id":"4","last_reported":1768234606,"current_range_meters":7200,"station_id":"ce4bgl92rcd13ifvqbq0","pricing_plan_id":"cebpf4jnsgd1na2vs0mg"},{"bike_id":"c2cba84f-ee12-4a90-80fe-b39fd8271c11","system_id":"levelo_inurba_marseille","lat":43.27556,"lon":5.38421,"is_reserved":false,"is_disabled":false,"rental_uris":{"android":"levelo://app?vid=c2cba84f-ee12-4a90-80fe-b39fd8271c11","ios":"levelo://app?vid=c2cba84f-ee12-4a90-80fe-b39fd8271c11"},"vehicle_type_id":"4","last_reported":1768234606,"current_range_meters":7200,"station_id":"ce4bhh92rcd13ifvqfi0","pricing_plan_id":"cebpf4jnsgd1na2vs0mg"},{"bike_id":"9f295e7a-65c6-4272-9043-5a3d89670383","system_id":"levelo_inurba_marseille","lat":43.24808,"lon":5.37458,"is_reserved":false,"is_disabled":false,"rental_uris":{"android":"levelo://app?vid=9f295e7a-65c6-4272-9043-5a3d89670383","ios":"levelo://app?vid=9f295e7a-65c6-4272-9043-5a3d89670383"},"vehicle_type_id":"4","last_reported":1768234606,"current_range_meters":7200,"station_id":"ce4bhgh2rcd13ifvqfb0","pricing_plan_id":"cebpf4jnsgd1na2vs0mg"},{"bike_id":"1b1a670a-fcf4-4828-aa79-e1b72cfec18c","system_id":"levelo_inurba_marseille","lat":43.23191,"lon":5.35559,"is_reserved":false,"is_disabled":false,"rental_uris":{"android":"levelo://app?vid=1b1a670a-fcf4-4828-aa79-e1b72cfec18c","ios":"levelo://app?vid=1b1a670a-fcf4-4828-aa79-e1b72cfec18c"},"vehicle_type_id":"4","last_reported":1768234606,"current_range_meters":7200,"station_id":"ce4bhu92rcd13ifvqi70","pricing_plan_id":"cebpf4jnsgd1na2vs0mg"},{"bike_id":"d4c76a3c-be64-4255-845b-8ccc9f87b7d9","system_id":"levelo_inurba_marseille","lat":43.300064,"lon":5.373513,"is_reserved":false,"is_disabled":false,"rental_uris":{"android":"levelo://app?vid=d4c76a3c-be64-4255-845b-8ccc9f87b7d9","ios":"levelo://app?vid=d4c76a3c-be64-4255-845b-8ccc9f87b7d9"},"vehicle_type_id":"4","last_reported":1768234606,"current_range_meters":7200,"station_id":"","pricing_plan_id":"cebpf4jnsgd1na2vs0mg"},{"bike_id":"c982d76b-7fd6-451c-9063-ebda7a233a9e","system_id":"levelo_inurba_marseille","lat":43.26944,"lon":5.40241,"is_reserved":false,"is_disabled":false,"rental_uris":{"android":"levelo://app?vid=c982d76b-7fd6-451c-9063-ebda7a233a9e","ios":"levelo://app?vid=c982d76b-7fd6-451c-9063-ebda7a233a9e"},"vehicle_type_id":"4","last_reported":1768234606,"current_range_meters":7200,"station_id":"cjm6bp8fraef2m0cb0m0","pricing_plan_id":"cebpf4jnsgd1na2vs0mg"},{"bike_id":"df269709-d44c-4576-84d8-e2021718e52e","system_id":"levelo_inurba_marseille","lat":43.27939,"lon":5.41037,"is_reserved":false,"is_disabled":false,"rental_uris":{"android":"levelo://app?vid=df269709-d44c-4576-84d8-e2021718e52e","ios":"levelo://app?vid=df269709-d44c-4576-84d8-e2021718e52e"},"vehicle_type_id":"4","last_reported":1768234606,"current_range_meters":7200,"station_id":"ce4bhnp2rcd13ifvqh0g","pricing_plan_id":"cebpf4jnsgd1na2vs0mg"},{"bike_id":"a10cebfe-81dc-4dff-bad4-c25d976b2067","system_id":"levelo_inurba_marseille","lat":43.28415,"lon":5.34984,"is_reserved":false,"is_disabled":false,"rental_uris":{"android":"levelo://app?vid=a10cebfe-81dc-4dff-bad4-c25d976b2067","ios":"levelo://app?vid=a10cebfe-81dc-4dff-bad4-c25d976b2067"},"vehicle_type_id":"4","last_reported":1768234606,"current_range_meters":8000,"station_id":"ce4bhbh2rcd13ifvqepg","pricing_plan_id":"cebpf4jnsgd1na2vs0mg"},{"bike_id":"7b6f12be-65ff-469f-954c-5bc823eb23e6","system_id":"levelo_inurba_marseille","lat":43.32526,"lon":5.36455,"is_reserved":false,"is_disabled":false,"rental_uris":{"android":"levelo://app?vid=7b6f12be-65ff-469f-954c-5bc823eb23e6","ios":"levelo://app?vid=7b6f12be-65ff-469f-954c-5bc823eb23e6"},"vehicle_type_id":"4","last_reported":1768234606,"current_range_meters":8000,"station_id":"","pricing_plan_id":"cebpf4jnsgd1na2vs0mg"},{"bike_id":"07459b0c-be4e-4b2c-ac3f-4f1630cbbe77","system_id":"levelo_inurba_marseille","lat":43.2655,"lon":5.37309,"is_reserved":false,"is_disabled":false,"rental_uris":{"android":"levelo://app?vid=07459b0c-be4e-4b2c-ac3f-4f1630cbbe77","ios":"levelo://app?vid=07459b0c-be4e-4b2c-ac3f-4f1630cbbe77"},"vehicle_type_id":"4","last_reported":1768234606,"current_range_meters":8000,"station_id":"ce4bhg12rcd13ifvqf70","pricing_plan_id":"cebpf4jnsgd1na2vs0mg"},{"bike_id":"a38bcbb1-c226-4bc2-8672-2e7d0273da8d","system_id":"levelo_inurba_marseille","lat":43.32348,"lon":5.36773,"is_reserved":false,"is_disabled":false,"rental_uris":{"android":"levelo://app?vid=a38bcbb1-c226-4bc2-8672-2e7d0273da8d","ios":"levelo://app?vid=a38bcbb1-c226-4bc2-8672-2e7d0273da8d"},"vehicle_type_id":"4","last_reported":1768234606,"current_range_meters":8000,"station_id":"ce4bhsh2rcd13ifvqi2g","pricing_plan_id":"cebpf4jnsgd1na2vs0mg"},{"bike_id":"bad9d05b-2efd-4707-af1a-d48b0eeaba21","system_id":"levelo_inurba_marseille","lat":43.24462,"lon":5.42538,"is_reserved":false,"is_disabled":false,"rental_uris":{"android":"levelo://app?vid=bad9d05b-2efd-4707-af1a-d48b0eeaba21","ios":"levelo://app?vid=bad9d05b-2efd-4707-af1a-d48b0eeaba21"},"vehicle_type_id":"4","last_reported":1768234606,"current_range_meters":8000,"station_id":"st_d4a3vfp97mjs738cd8kg","pricing_plan_id":"cebpf4jnsgd1na2vs0mg"},{"bike_id":"f2feb58b-2e1d-410d-a362-6a4d0a6ad00a","system_id":"levelo_inurba_marseille","lat":43.26949,"lon":5.40267,"is_reserved":false,"is_disabled":false,"rental_uris":{"android":"levelo://app?vid=f2feb58b-2e1d-410d-a362-6a4d0a6ad00a","ios":"levelo://app?vid=f2feb58b-2e1d-410d-a362-6a4d0a6ad00a"},"vehicle_type_id":"4","last_reported":1768234606,"current_range_meters":8000,"station_id":"cjm6bp8fraef2m0cb0m0","pricing_plan_id":"cebpf4jnsgd1na2vs0mg"},{"bike_id":"b0efd0f2-bc5c-4dff-bc29-9743c461b4d7","system_id":"levelo_inurba_marseille","lat":43.24062,"lon":5.37761,"is_reserved":false,"is_disabled":false,"rental_uris":{"android":"levelo://app?vid=b0efd0f2-bc5c-4dff-bc29-9743c461b4d7","ios":"levelo://app?vid=b0efd0f2-bc5c-4dff-bc29-9743c461b4d7"},"vehicle_type_id":"4","last_reported":1768234606,"current_range_meters":8000,"station_id":"ce4bhnp2rcd13ifvqgvg","pricing_plan_id":"cebpf4jnsgd1na2vs0mg"},{"bike_id":"4cae2ab2-1edd-4f5f-95d5-af64c1bec10a","system_id":"levelo_inurba_marseille","lat":43.28148,"lon":5.42636,"is_reserved":false,"is_disabled":false,"rental_uris":{"android":"levelo://app?vid=4cae2ab2-1edd-4f5f-95d5-af64c1bec10a","ios":"levelo://app?vid=4cae2ab2-1edd-4f5f-95d5-af64c1bec10a"},"vehicle_type_id":"4","last_reported":1768234606,"current_range_meters":8000,"station_id":"ce4bhnh2rcd13ifvqgug","pricing_plan_id":"cebpf4jnsgd1na2vs0mg"},{"bike_id":"7b7c4d5a-48b0-4253-8d68-ce9bdb9244be","system_id":"levelo_inurba_marseille","lat":43.265415,"lon":5.372895,"is_reserved":false,"is_disabled":false,"rental_uris":{"android":"levelo://app?vid=7b7c4d5a-48b0-4253-8d68-ce9bdb9244be","ios":"levelo://app?vid=7b7c4d5a-48b0-4253-8d68-ce9bdb9244be"},"vehicle_type_id":"4","last_reported":1768234606,"current_range_meters":8000,"station_id":"ce4bhg12rcd13ifvqf70","pricing_plan_id":"cebpf4jnsgd1na2vs0mg"},{"bike_id":"2455333c-abb5-40b2-83d1-6df58226f70a","system_id":"levelo_inurba_marseille","lat":43.3291,"lon":5.38957,"is_reserved":false,"is_disabled":false,"rental_uris":{"android":"levelo://app?vid=2455333c-abb5-40b2-83d1-6df58226f70a","ios":"levelo://app?vid=2455333c-abb5-40b2-83d1-6df58226f70a"},"vehicle_type_id":"4","last_reported":1768234606,"current_range_meters":8000,"station_id":"","pricing_plan_id":"cebpf4jnsgd1na2vs0mg"},{"bike_id":"38d076d2-a3a0-46d0-b800-0eaafad476d4","system_id":"levelo_inurba_marseille","lat":43.28213,"lon":5.40367,"is_reserved":false,"is_disabled":false,"rental_uris":{"android":"levelo://app?vid=38d076d2-a3a0-46d0-b800-0eaafad476d4","ios":"levelo://app?vid=38d076d2-a3a0-46d0-b800-0eaafad476d4"},"vehicle_type_id":"4","last_reported":1768234606,"current_range_meters":8000,"station_id":"","pricing_plan_id":"cebpf4jnsgd1na2vs0mg"},{"bike_id":"584740bc-b28f-45e7-8c07-3256faa8a0cc","system_id":"levelo_inurba_marseille","lat":43.26196,"lon":5.37889,"is_reserved":false,"is_disabled":true,"rental_uris":{"android":"levelo://app?vid=584740bc-b28f-45e7-8c07-3256faa8a0cc","ios":"levelo://app?vid=584740bc-b28f-45e7-8c07-3256faa8a0cc"},"vehicle_type_id":"4","last_reported":1768234606,"current_range_meters":8000,"station_id":"ce4bhjp2rcd13ifvqg90","pricing_plan_id":"cebpf4jnsgd1na2vs0mg"},{"bike_id":"62a6a880-8c2f-4973-954e-dca5b666173d","system_id":"levelo_inurba_marseille","lat":43.29958,"lon":5.37353,"is_reserved":false,"is_disabled":false,"rental_uris":{"android":"levelo://app?vid=62a6a880-8c2f-4973-954e-dca5b666173d","ios":"levelo://app?vid=62a6a880-8c2f-4973-954e-dca5b666173d"},"vehicle_type_id":"4","last_reported":1768234606,"current_range_meters":8000,"station_id":"","pricing_plan_id":"cebpf4jnsgd1na2vs0mg"},{"bike_id":"8778a270-debd-4124-975b-32917c0cd81c","system_id":"levelo_inurba_marseille","lat":43.30793,"lon":5.3816,"is_reserved":false,"is_disabled":false,"rental_uris":{"android":"levelo://app?vid=8778a270-debd-4124-975b-32917c0cd81c","ios":"levelo://app?vid=8778a270-debd-4124-975b-32917c0cd81c"},"vehicle_type_id":"4","last_reported":1768234606,"current_range_meters":8000,"station_id":"ce4bgt12rcd13ifvqce0","pricing_plan_id":"cebpf4jnsgd1na2vs0mg"},{"bike_id":"10d55602-05b7-463b-8f7c-e4c3a2bfa98d","system_id":"levelo_inurba_marseille","lat":43.312225,"lon":5.368849,"is_reserved":false,"is_disabled":false,"rental_uris":{"android":"levelo://app?vid=10d55602-05b7-463b-8f7c-e4c3a2bfa98d","ios":"levelo://app?vid=10d55602-05b7-463b-8f7c-e4c3a2bfa98d"},"vehicle_type_id":"4","last_reported":1768234606,"current_range_meters":8000,"station_id":"ce4bgl92rcd13ifvqbq0","pricing_plan_id":"cebpf4jnsgd1na2vs0mg"},{"bike_id":"924ecb11-0c1b-4c39-b49f-7311f30822f9","system_id":"levelo_inurba_marseille","lat":43.31393,"lon":5.36661,"is_reserved":false,"is_disabled":false,"rental_uris":{"android":"levelo://app?vid=924ecb11-0c1b-4c39-b49f-7311f30822f9","ios":"levelo://app?vid=924ecb11-0c1b-4c39-b49f-7311f30822f9"},"vehicle_type_id":"4","last_reported":1768234606,"current_range_meters":8000,"station_id":"","pricing_plan_id":"cebpf4jnsgd1na2vs0mg"},{"bike_id":"6a29d0f8-9368-4421-9203-6bbc7b648963","system_id":"levelo_inurba_marseille","lat":43.299114,"lon":5.374665,"is_reserved":false,"is_disabled":false,"rental_uris":{"android":"levelo://app?vid=6a29d0f8-9368-4421-9203-6bbc7b648963","ios":"levelo://app?vid=6a29d0f8-9368-4421-9203-6bbc7b648963"},"vehicle_type_id":"4","last_reported":1768234606,"current_range_meters":8000,"station_id":"ce4bgjh2rcd13ifvqbg0","pricing_plan_id":"cebpf4jnsgd1na2vs0mg"},{"bike_id":"bb872cf3-111a-4da5-8326-64266a28cac2","system_id":"levelo_inurba_marseille","lat":43.26067,"lon":5.39404,"is_reserved":false,"is_disabled":false,"rental_uris":{"android":"levelo://app?vid=bb872cf3-111a-4da5-8326-64266a28cac2","ios":"levelo://app?vid=bb872cf3-111a-4da5-8326-64266a28cac2"},"vehicle_type_id":"4","last_reported":1768234606,"current_range_meters":8000,"station_id":"ce4bhh92rcd13ifvqfj0","pricing_plan_id":"cebpf4jnsgd1na2vs0mg"},{"bike_id":"6409133c-4bbf-461b-816e-0788c8d1979b","system_id":"levelo_inurba_marseille","lat":43.3045,"lon":5.38907,"is_reserved":false,"is_disabled":true,"rental_uris":{"android":"levelo://app?vid=6409133c-4bbf-461b-816e-0788c8d1979b","ios":"levelo://app?vid=6409133c-4bbf-461b-816e-0788c8d1979b"},"vehicle_type_id":"4","last_reported":1768234606,"current_range_meters":8000,"station_id":"ce4bgk12rcd13ifvqbi0","pricing_plan_id":"cebpf4jnsgd1na2vs0mg"},{"bike_id":"9d6accbb-73f8-43f0-809d-0e06137c3c7a","system_id":"levelo_inurba_marseille","lat":43.33162,"lon":5.37693,"is_reserved":false,"is_disabled":false,"rental_uris":{"android":"levelo://app?vid=9d6accbb-73f8-43f0-809d-0e06137c3c7a","ios":"levelo://app?vid=9d6accbb-73f8-43f0-809d-0e06137c3c7a"},"vehicle_type_id":"4","last_reported":1768234606,"current_range_meters":8000,"station_id":"st_d46cu089ee8s73dldbu0","pricing_plan_id":"cebpf4jnsgd1na2vs0mg"},{"bike_id":"2cc9db73-43c9-4a56-a963-4c4c6878c41f","system_id":"levelo_inurba_marseille","lat":43.23843,"lon":5.36667,"is_reserved":false,"is_disabled":false,"rental_uris":{"android":"levelo://app?vid=2cc9db73-43c9-4a56-a963-4c4c6878c41f","ios":"levelo://app?vid=2cc9db73-43c9-4a56-a963-4c4c6878c41f"},"vehicle_type_id":"4","last_reported":1768234606,"current_range_meters":8000,"station_id":"","pricing_plan_id":"cebpf4jnsgd1na2vs0mg"},{"bike_id":"f36b7ae2-2030-496c-8dc8-4dc2101ff9b9","system_id":"levelo_inurba_marseille","lat":43.24549,"lon":5.39523,"is_reserved":false,"is_disabled":false,"rental_uris":{"android":"levelo://app?vid=f36b7ae2-2030-496c-8dc8-4dc2101ff9b9","ios":"levelo://app?vid=f36b7ae2-2030-496c-8dc8-4dc2101ff9b9"},"vehicle_type_id":"4","last_reported":1768234606,"current_range_meters":8000,"station_id":"ce4bhlp2rcd13ifvqgjg","pricing_plan_id":"cebpf4jnsgd1na2vs0mg"},{"bike_id":"23056a36-026f-44c9-aaf2-b8ef02dbea65","system_id":"levelo_inurba_marseille","lat":43.244736,"lon":5.425395,"is_reserved":false,"is_disabled":false,"rental_uris":{"android":"levelo://app?vid=23056a36-026f-44c9-aaf2-b8ef02dbea65","ios":"levelo://app?vid=23056a36-026f-44c9-aaf2-b8ef02dbea65"},"vehicle_type_id":"4","last_reported":1768234606,"current_range_meters":8000,"station_id":"st_d4a3vfp97mjs738cd8kg","pricing_plan_id":"cebpf4jnsgd1na2vs0mg"},{"bike_id":"952412d5-8359-4eb6-9ee8-294a4128a280","system_id":"levelo_inurba_marseille","lat":43.29299,"lon":5.37333,"is_reserved":false,"is_disabled":false,"rental_uris":{"android":"levelo://app?vid=952412d5-8359-4eb6-9ee8-294a4128a280","ios":"levelo://app?vid=952412d5-8359-4eb6-9ee8-294a4128a280"},"vehicle_type_id":"4","last_reported":1768234606,"current_range_meters":8000,"station_id":"","pricing_plan_id":"cebpf4jnsgd1na2vs0mg"},{"bike_id":"9a8a282b-996a-46b9-b886-ceba278e6621","system_id":"levelo_inurba_marseille","lat":43.26057,"lon":5.39396,"is_reserved":false,"is_disabled":false,"rental_uris":{"android":"levelo://app?vid=9a8a282b-996a-46b9-b886-ceba278e6621","ios":"levelo://app?vid=9a8a282b-996a-46b9-b886-ceba278e6621"},"vehicle_type_id":"4","last_reported":1768234606,"current_range_meters":8000,"station_id":"ce4bhh92rcd13ifvqfj0","pricing_plan_id":"cebpf4jnsgd1na2vs0mg"},{"bike_id":"cdb7f885-d79c-4a7f-be8b-87d7e51ae524","system_id":"levelo_inurba_marseille","lat":43.306511,"lon":5.405019,"is_reserved":false,"is_disabled":false,"rental_uris":{"android":"levelo://app?vid=cdb7f885-d79c-4a7f-be8b-87d7e51ae524","ios":"levelo://app?vid=cdb7f885-d79c-4a7f-be8b-87d7e51ae524"},"vehicle_type_id":"4","last_reported":1768234606,"current_range_meters":8000,"station_id":"ce4bh112rcd13ifvqda0","pricing_plan_id":"cebpf4jnsgd1na2vs0mg"},{"bike_id":"48e05a63-5594-42c5-acb0-4153101a4c9a","system_id":"levelo_inurba_marseille","lat":43.25864,"lon":5.40922,"is_reserved":false,"is_disabled":false,"rental_uris":{"android":"levelo://app?vid=48e05a63-5594-42c5-acb0-4153101a4c9a","ios":"levelo://app?vid=48e05a63-5594-42c5-acb0-4153101a4c9a"},"vehicle_type_id":"4","last_reported":1768234606,"current_range_meters":8000,"station_id":"","pricing_plan_id":"cebpf4jnsgd1na2vs0mg"},{"bike_id":"e17a9c82-8846-45df-b367-7545f106e168","system_id":"levelo_inurba_marseille","lat":43.31305,"lon":5.38464,"is_reserved":false,"is_disabled":false,"rental_uris":{"android":"levelo://app?vid=e17a9c82-8846-45df-b367-7545f106e168","ios":"levelo://app?vid=e17a9c82-8846-45df-b367-7545f106e168"},"vehicle_type_id":"4","last_reported":1768234606,"current_range_meters":8400,"station_id":"","pricing_plan_id":"cebpf4jnsgd1na2vs0mg"},{"bike_id":"f79921af-559e-4d94-95c2-036e9167deb5","system_id":"levelo_inurba_marseille","lat":43.31889,"lon":5.39982,"is_reserved":false,"is_disabled":false,"rental_uris":{"android":"levelo://app?vid=f79921af-559e-4d94-95c2-036e9167deb5","ios":"levelo://app?vid=f79921af-559e-4d94-95c2-036e9167deb5"},"vehicle_type_id":"4","last_reported":1768234606,"current_range_meters":8400,"station_id":"","pricing_plan_id":"cebpf4jnsgd1na2vs0mg"},{"bike_id":"94a3f4ee-c7be-4ab2-8169-5f555333294f","system_id":"levelo_inurba_marseille","lat":43.282773,"lon":5.350727,"is_reserved":false,"is_disabled":false,"rental_uris":{"android":"levelo://app?vid=94a3f4ee-c7be-4ab2-8169-5f555333294f","ios":"levelo://app?vid=94a3f4ee-c7be-4ab2-8169-5f555333294f"},"vehicle_type_id":"4","last_reported":1768234606,"current_range_meters":8400,"station_id":"ce4bhbp2rcd13ifvqerg","pricing_plan_id":"cebpf4jnsgd1na2vs0mg"},{"bike_id":"c9aa61c2-bf79-4eea-867a-5fdf9f19baaf","system_id":"levelo_inurba_marseille","lat":43.255125,"lon":5.376561,"is_reserved":false,"is_disabled":false,"rental_uris":{"android":"levelo://app?vid=c9aa61c2-bf79-4eea-867a-5fdf9f19baaf","ios":"levelo://app?vid=c9aa61c2-bf79-4eea-867a-5fdf9f19baaf"},"vehicle_type_id":"4","last_reported":1768234606,"current_range_meters":8400,"station_id":"ce4bhh12rcd13ifvqff0","pricing_plan_id":"cebpf4jnsgd1na2vs0mg"},{"bike_id":"71241dbd-daf2-4833-adeb-96581e598f17","system_id":"levelo_inurba_marseille","lat":43.30426,"lon":5.39742,"is_reserved":false,"is_disabled":false,"rental_uris":{"android":"levelo://app?vid=71241dbd-daf2-4833-adeb-96581e598f17","ios":"levelo://app?vid=71241dbd-daf2-4833-adeb-96581e598f17"},"vehicle_type_id":"4","last_reported":1768234606,"current_range_meters":8400,"station_id":"ce4bh092rcd13ifvqd20","pricing_plan_id":"cebpf4jnsgd1na2vs0mg"},{"bike_id":"ce421665-3c26-4baa-b8ec-61eb8aef5e07","system_id":"levelo_inurba_marseille","lat":43.28071,"lon":5.40705,"is_reserved":false,"is_disabled":false,"rental_uris":{"android":"levelo://app?vid=ce421665-3c26-4baa-b8ec-61eb8aef5e07","ios":"levelo://app?vid=ce421665-3c26-4baa-b8ec-61eb8aef5e07"},"vehicle_type_id":"4","last_reported":1768234606,"current_range_meters":8400,"station_id":"","pricing_plan_id":"cebpf4jnsgd1na2vs0mg"},{"bike_id":"fd5c22af-551e-4b5c-a587-8bd6f93a7d5e","system_id":"levelo_inurba_marseille","lat":43.27945,"lon":5.41031,"is_reserved":false,"is_disabled":false,"rental_uris":{"android":"levelo://app?vid=fd5c22af-551e-4b5c-a587-8bd6f93a7d5e","ios":"levelo://app?vid=fd5c22af-551e-4b5c-a587-8bd6f93a7d5e"},"vehicle_type_id":"4","last_reported":1768234606,"current_range_meters":8400,"station_id":"","pricing_plan_id":"cebpf4jnsgd1na2vs0mg"},{"bike_id":"7ef5b41a-b2d9-47da-bb44-e787f2bbb4fc","system_id":"levelo_inurba_marseille","lat":43.26556,"lon":5.37284,"is_reserved":false,"is_disabled":false,"rental_uris":{"android":"levelo://app?vid=7ef5b41a-b2d9-47da-bb44-e787f2bbb4fc","ios":"levelo://app?vid=7ef5b41a-b2d9-47da-bb44-e787f2bbb4fc"},"vehicle_type_id":"4","last_reported":1768234606,"current_range_meters":8400,"station_id":"ce4bhg12rcd13ifvqf70","pricing_plan_id":"cebpf4jnsgd1na2vs0mg"},{"bike_id":"02d9cbb6-5c9e-4938-aaa9-bde38556bda2","system_id":"levelo_inurba_marseille","lat":43.25581,"lon":5.38228,"is_reserved":false,"is_disabled":false,"rental_uris":{"android":"levelo://app?vid=02d9cbb6-5c9e-4938-aaa9-bde38556bda2","ios":"levelo://app?vid=02d9cbb6-5c9e-4938-aaa9-bde38556bda2"},"vehicle_type_id":"4","last_reported":1768234606,"current_range_meters":8400,"station_id":"ce4bhih2rcd13ifvqfs0","pricing_plan_id":"cebpf4jnsgd1na2vs0mg"},{"bike_id":"9bd81498-1c2d-46cc-b134-62e2c3cd9ba1","system_id":"levelo_inurba_marseille","lat":43.28861,"lon":5.42514,"is_reserved":false,"is_disabled":false,"rental_uris":{"android":"levelo://app?vid=9bd81498-1c2d-46cc-b134-62e2c3cd9ba1","ios":"levelo://app?vid=9bd81498-1c2d-46cc-b134-62e2c3cd9ba1"},"vehicle_type_id":"4","last_reported":1768234606,"current_range_meters":8400,"station_id":"st_d3b462108ojc7389ooeg","pricing_plan_id":"cebpf4jnsgd1na2vs0mg"},{"bike_id":"e7f880b9-9ced-4dbf-8dbc-b70fe3a8fb49","system_id":"levelo_inurba_marseille","lat":43.323591,"lon":5.367445,"is_reserved":false,"is_disabled":false,"rental_uris":{"android":"levelo://app?vid=e7f880b9-9ced-4dbf-8dbc-b70fe3a8fb49","ios":"levelo://app?vid=e7f880b9-9ced-4dbf-8dbc-b70fe3a8fb49"},"vehicle_type_id":"4","last_reported":1768234606,"current_range_meters":8400,"station_id":"ce4bhsh2rcd13ifvqi2g","pricing_plan_id":"cebpf4jnsgd1na2vs0mg"},{"bike_id":"9c6ac982-85bd-4de8-bac0-c36b3d884f3d","system_id":"levelo_inurba_marseille","lat":43.321119,"lon":5.367712,"is_reserved":false,"is_disabled":false,"rental_uris":{"android":"levelo://app?vid=9c6ac982-85bd-4de8-bac0-c36b3d884f3d","ios":"levelo://app?vid=9c6ac982-85bd-4de8-bac0-c36b3d884f3d"},"vehicle_type_id":"4","last_reported":1768234606,"current_range_meters":8400,"station_id":"ce4bhrh2rcd13ifvqhug","pricing_plan_id":"cebpf4jnsgd1na2vs0mg"},{"bike_id":"9d90b249-d586-45b6-8089-0203fb4f71aa","system_id":"levelo_inurba_marseille","lat":43.313856,"lon":5.3849,"is_reserved":false,"is_disabled":false,"rental_uris":{"android":"levelo://app?vid=9d90b249-d586-45b6-8089-0203fb4f71aa","ios":"levelo://app?vid=9d90b249-d586-45b6-8089-0203fb4f71aa"},"vehicle_type_id":"4","last_reported":1768234606,"current_range_meters":8400,"station_id":"ce4bgt92rcd13ifvqcf0","pricing_plan_id":"cebpf4jnsgd1na2vs0mg"},{"bike_id":"f322ca8a-b5f6-42b1-996f-3c1d56bf66ab","system_id":"levelo_inurba_marseille","lat":43.26549,"lon":5.37291,"is_reserved":false,"is_disabled":false,"rental_uris":{"android":"levelo://app?vid=f322ca8a-b5f6-42b1-996f-3c1d56bf66ab","ios":"levelo://app?vid=f322ca8a-b5f6-42b1-996f-3c1d56bf66ab"},"vehicle_type_id":"4","last_reported":1768234606,"current_range_meters":8400,"station_id":"ce4bhg12rcd13ifvqf70","pricing_plan_id":"cebpf4jnsgd1na2vs0mg"},{"bike_id":"8de61461-1f75-44ea-a321-3d572e66b2c1","system_id":"levelo_inurba_marseille","lat":43.293852,"lon":5.409855,"is_reserved":false,"is_disabled":false,"rental_uris":{"android":"levelo://app?vid=8de61461-1f75-44ea-a321-3d572e66b2c1","ios":"levelo://app?vid=8de61461-1f75-44ea-a321-3d572e66b2c1"},"vehicle_type_id":"4","last_reported":1768234606,"current_range_meters":8400,"station_id":"","pricing_plan_id":"cebpf4jnsgd1na2vs0mg"},{"bike_id":"b60c8777-50a1-4187-b012-61c8b2392d61","system_id":"levelo_inurba_marseille","lat":43.2417,"lon":5.36401,"is_reserved":false,"is_disabled":false,"rental_uris":{"android":"levelo://app?vid=b60c8777-50a1-4187-b012-61c8b2392d61","ios":"levelo://app?vid=b60c8777-50a1-4187-b012-61c8b2392d61"},"vehicle_type_id":"4","last_reported":1768234606,"current_range_meters":8400,"station_id":"cpo36qri1sfpv3e86is0","pricing_plan_id":"cebpf4jnsgd1na2vs0mg"},{"bike_id":"d8383b8e-76b1-4bd3-a5d7-eed05619c6a4","system_id":"levelo_inurba_marseille","lat":43.28938,"lon":5.3964,"is_reserved":false,"is_disabled":false,"rental_uris":{"android":"levelo://app?vid=d8383b8e-76b1-4bd3-a5d7-eed05619c6a4","ios":"levelo://app?vid=d8383b8e-76b1-4bd3-a5d7-eed05619c6a4"},"vehicle_type_id":"4","last_reported":1768234606,"current_range_meters":8400,"station_id":"ce4bh3h2rcd13ifvqdn0","pricing_plan_id":"cebpf4jnsgd1na2vs0mg"},{"bike_id":"7c2223d4-232b-4fd6-8d5b-26ebdc165a0f","system_id":"levelo_inurba_marseille","lat":43.27675,"lon":5.38916,"is_reserved":false,"is_disabled":false,"rental_uris":{"android":"levelo://app?vid=7c2223d4-232b-4fd6-8d5b-26ebdc165a0f","ios":"levelo://app?vid=7c2223d4-232b-4fd6-8d5b-26ebdc165a0f"},"vehicle_type_id":"4","last_reported":1768234606,"current_range_meters":8400,"station_id":"ce4bhi12rcd13ifvqfo0","pricing_plan_id":"cebpf4jnsgd1na2vs0mg"},{"bike_id":"573219be-8449-4b0b-914b-5825e3035243","system_id":"levelo_inurba_marseille","lat":43.2317,"lon":5.35606,"is_reserved":false,"is_disabled":false,"rental_uris":{"android":"levelo://app?vid=573219be-8449-4b0b-914b-5825e3035243","ios":"levelo://app?vid=573219be-8449-4b0b-914b-5825e3035243"},"vehicle_type_id":"4","last_reported":1768234606,"current_range_meters":8400,"station_id":"ce4bhu92rcd13ifvqi70","pricing_plan_id":"cebpf4jnsgd1na2vs0mg"},{"bike_id":"57bdf4fb-2267-4bd2-a728-86b5771aeb56","system_id":"levelo_inurba_marseille","lat":43.27054,"lon":5.38308,"is_reserved":false,"is_disabled":false,"rental_uris":{"android":"levelo://app?vid=57bdf4fb-2267-4bd2-a728-86b5771aeb56","ios":"levelo://app?vid=57bdf4fb-2267-4bd2-a728-86b5771aeb56"},"vehicle_type_id":"4","last_reported":1768234606,"current_range_meters":8800,"station_id":"st_d3n2fo6cfp8s73cte1j0","pricing_plan_id":"cebpf4jnsgd1na2vs0mg"},{"bike_id":"f00290d8-0d76-40a1-afae-72f69be0d052","system_id":"levelo_inurba_marseille","lat":43.30403,"lon":5.41297,"is_reserved":false,"is_disabled":false,"rental_uris":{"android":"levelo://app?vid=f00290d8-0d76-40a1-afae-72f69be0d052","ios":"levelo://app?vid=f00290d8-0d76-40a1-afae-72f69be0d052"},"vehicle_type_id":"4","last_reported":1768234606,"current_range_meters":8800,"station_id":"ce4bhop2rcd13ifvqh8g","pricing_plan_id":"cebpf4jnsgd1na2vs0mg"},{"bike_id":"47fa8c07-02d3-44db-8c89-106a6ddb4f66","system_id":"levelo_inurba_marseille","lat":43.2954,"lon":5.3854,"is_reserved":false,"is_disabled":false,"rental_uris":{"android":"levelo://app?vid=47fa8c07-02d3-44db-8c89-106a6ddb4f66","ios":"levelo://app?vid=47fa8c07-02d3-44db-8c89-106a6ddb4f66"},"vehicle_type_id":"4","last_reported":1768234606,"current_range_meters":8800,"station_id":"ce4bgih2rcd13ifvqba0","pricing_plan_id":"cebpf4jnsgd1na2vs0mg"},{"bike_id":"d57094ce-7af8-428e-9753-4201f05f4a86","system_id":"levelo_inurba_marseille","lat":43.24811,"lon":5.37461,"is_reserved":false,"is_disabled":false,"rental_uris":{"android":"levelo://app?vid=d57094ce-7af8-428e-9753-4201f05f4a86","ios":"levelo://app?vid=d57094ce-7af8-428e-9753-4201f05f4a86"},"vehicle_type_id":"4","last_reported":1768234606,"current_range_meters":8800,"station_id":"ce4bhgh2rcd13ifvqfb0","pricing_plan_id":"cebpf4jnsgd1na2vs0mg"},{"bike_id":"0fafc9bc-eab3-4497-b4de-e36867104d5a","system_id":"levelo_inurba_marseille","lat":43.26062,"lon":5.393863,"is_reserved":false,"is_disabled":false,"rental_uris":{"android":"levelo://app?vid=0fafc9bc-eab3-4497-b4de-e36867104d5a","ios":"levelo://app?vid=0fafc9bc-eab3-4497-b4de-e36867104d5a"},"vehicle_type_id":"4","last_reported":1768234606,"current_range_meters":8800,"station_id":"ce4bhh92rcd13ifvqfj0","pricing_plan_id":"cebpf4jnsgd1na2vs0mg"},{"bike_id":"7fb0d18d-87f0-4490-ac9a-259338a041dc","system_id":"levelo_inurba_marseille","lat":43.23523,"lon":5.3593,"is_reserved":false,"is_disabled":false,"rental_uris":{"android":"levelo://app?vid=7fb0d18d-87f0-4490-ac9a-259338a041dc","ios":"levelo://app?vid=7fb0d18d-87f0-4490-ac9a-259338a041dc"},"vehicle_type_id":"4","last_reported":1768234606,"current_range_meters":8800,"station_id":"","pricing_plan_id":"cebpf4jnsgd1na2vs0mg"},{"bike_id":"c4fcc189-751d-4eb2-af69-d5ccf6bfb543","system_id":"levelo_inurba_marseille","lat":43.284786,"lon":5.483957,"is_reserved":false,"is_disabled":false,"rental_uris":{"android":"levelo://app?vid=c4fcc189-751d-4eb2-af69-d5ccf6bfb543","ios":"levelo://app?vid=c4fcc189-751d-4eb2-af69-d5ccf6bfb543"},"vehicle_type_id":"4","last_reported":1768234606,"current_range_meters":8800,"station_id":"","pricing_plan_id":"cebpf4jnsgd1na2vs0mg"},{"bike_id":"4fcf8939-d9e5-44a3-8f16-b04dcd32071a","system_id":"levelo_inurba_marseille","lat":43.24163,"lon":5.36393,"is_reserved":false,"is_disabled":false,"rental_uris":{"android":"levelo://app?vid=4fcf8939-d9e5-44a3-8f16-b04dcd32071a","ios":"levelo://app?vid=4fcf8939-d9e5-44a3-8f16-b04dcd32071a"},"vehicle_type_id":"4","last_reported":1768234606,"current_range_meters":8800,"station_id":"cpo36qri1sfpv3e86is0","pricing_plan_id":"cebpf4jnsgd1na2vs0mg"},{"bike_id":"aa71df00-ac67-458a-bb07-9f22d4867495","system_id":"levelo_inurba_marseille","lat":43.243996,"lon":5.37074,"is_reserved":false,"is_disabled":false,"rental_uris":{"android":"levelo://app?vid=aa71df00-ac67-458a-bb07-9f22d4867495","ios":"levelo://app?vid=aa71df00-ac67-458a-bb07-9f22d4867495"},"vehicle_type_id":"4","last_reported":1768234606,"current_range_meters":8800,"station_id":"ce4bhhh2rcd13ifvqfk0","pricing_plan_id":"cebpf4jnsgd1na2vs0mg"},{"bike_id":"f177f7bc-1ed5-42e0-a608-82886412a4e4","system_id":"levelo_inurba_marseille","lat":43.23962,"lon":5.36624,"is_reserved":false,"is_disabled":false,"rental_uris":{"android":"levelo://app?vid=f177f7bc-1ed5-42e0-a608-82886412a4e4","ios":"levelo://app?vid=f177f7bc-1ed5-42e0-a608-82886412a4e4"},"vehicle_type_id":"4","last_reported":1768234606,"current_range_meters":8800,"station_id":"ce4bhi12rcd13ifvqfp0","pricing_plan_id":"cebpf4jnsgd1na2vs0mg"},{"bike_id":"1f9b9955-e796-44c1-ad9e-8d09d28927ea","system_id":"levelo_inurba_marseille","lat":43.30141,"lon":5.38087,"is_reserved":false,"is_disabled":false,"rental_uris":{"android":"levelo://app?vid=1f9b9955-e796-44c1-ad9e-8d09d28927ea","ios":"levelo://app?vid=1f9b9955-e796-44c1-ad9e-8d09d28927ea"},"vehicle_type_id":"4","last_reported":1768234606,"current_range_meters":8800,"station_id":"ce4bgjp2rcd13ifvqbh0","pricing_plan_id":"cebpf4jnsgd1na2vs0mg"},{"bike_id":"1bc4dd22-8b42-4ae1-b96e-ede97fc223cf","system_id":"levelo_inurba_marseille","lat":43.29898,"lon":5.37797,"is_reserved":false,"is_disabled":false,"rental_uris":{"android":"levelo://app?vid=1bc4dd22-8b42-4ae1-b96e-ede97fc223cf","ios":"levelo://app?vid=1bc4dd22-8b42-4ae1-b96e-ede97fc223cf"},"vehicle_type_id":"4","last_reported":1768234606,"current_range_meters":8800,"station_id":"","pricing_plan_id":"cebpf4jnsgd1na2vs0mg"},{"bike_id":"a9a67840-74d1-470a-9415-9a19d3d48466","system_id":"levelo_inurba_marseille","lat":43.29798,"lon":5.38102,"is_reserved":false,"is_disabled":false,"rental_uris":{"android":"levelo://app?vid=a9a67840-74d1-470a-9415-9a19d3d48466","ios":"levelo://app?vid=a9a67840-74d1-470a-9415-9a19d3d48466"},"vehicle_type_id":"4","last_reported":1768234606,"current_range_meters":8800,"station_id":"ce4bgip2rcd13ifvqbb0","pricing_plan_id":"cebpf4jnsgd1na2vs0mg"},{"bike_id":"b9e6a0eb-76c8-461b-81de-b2f72a24fad8","system_id":"levelo_inurba_marseille","lat":43.31228,"lon":5.36784,"is_reserved":false,"is_disabled":false,"rental_uris":{"android":"levelo://app?vid=b9e6a0eb-76c8-461b-81de-b2f72a24fad8","ios":"levelo://app?vid=b9e6a0eb-76c8-461b-81de-b2f72a24fad8"},"vehicle_type_id":"4","last_reported":1768234606,"current_range_meters":8800,"station_id":"ce4bgl92rcd13ifvqbq0","pricing_plan_id":"cebpf4jnsgd1na2vs0mg"},{"bike_id":"c4719649-1dbc-4c5a-b782-8fce65146957","system_id":"levelo_inurba_marseille","lat":43.28552,"lon":5.44078,"is_reserved":false,"is_disabled":false,"rental_uris":{"android":"levelo://app?vid=c4719649-1dbc-4c5a-b782-8fce65146957","ios":"levelo://app?vid=c4719649-1dbc-4c5a-b782-8fce65146957"},"vehicle_type_id":"4","last_reported":1768234606,"current_range_meters":8800,"station_id":"st_d3j3df2ikq2c7380ej80","pricing_plan_id":"cebpf4jnsgd1na2vs0mg"},{"bike_id":"fdde18f2-d88b-4124-90f8-7c9634bcc83e","system_id":"levelo_inurba_marseille","lat":43.30138,"lon":5.39866,"is_reserved":false,"is_disabled":false,"rental_uris":{"android":"levelo://app?vid=fdde18f2-d88b-4124-90f8-7c9634bcc83e","ios":"levelo://app?vid=fdde18f2-d88b-4124-90f8-7c9634bcc83e"},"vehicle_type_id":"4","last_reported":1768234606,"current_range_meters":8800,"station_id":"ce4bh0h2rcd13ifvqd40","pricing_plan_id":"cebpf4jnsgd1na2vs0mg"},{"bike_id":"fbaef028-ec74-4c9f-8bef-75df8753715b","system_id":"levelo_inurba_marseille","lat":43.29045,"lon":5.37056,"is_reserved":false,"is_disabled":false,"rental_uris":{"android":"levelo://app?vid=fbaef028-ec74-4c9f-8bef-75df8753715b","ios":"levelo://app?vid=fbaef028-ec74-4c9f-8bef-75df8753715b"},"vehicle_type_id":"4","last_reported":1768234606,"current_range_meters":8800,"station_id":"","pricing_plan_id":"cebpf4jnsgd1na2vs0mg"},{"bike_id":"a714f418-ed3b-4b59-9c3d-b14acbf5c7c6","system_id":"levelo_inurba_marseille","lat":43.25047,"lon":5.39501,"is_reserved":false,"is_disabled":false,"rental_uris":{"android":"levelo://app?vid=a714f418-ed3b-4b59-9c3d-b14acbf5c7c6","ios":"levelo://app?vid=a714f418-ed3b-4b59-9c3d-b14acbf5c7c6"},"vehicle_type_id":"4","last_reported":1768234606,"current_range_meters":8800,"station_id":"ce4bhm12rcd13ifvqgkg","pricing_plan_id":"cebpf4jnsgd1na2vs0mg"},{"bike_id":"642961b4-828d-4d01-b349-303de9ec5740","system_id":"levelo_inurba_marseille","lat":43.30124,"lon":5.38766,"is_reserved":false,"is_disabled":true,"rental_uris":{"android":"levelo://app?vid=642961b4-828d-4d01-b349-303de9ec5740","ios":"levelo://app?vid=642961b4-828d-4d01-b349-303de9ec5740"},"vehicle_type_id":"4","last_reported":1768234606,"current_range_meters":8800,"station_id":"ce4bghh2rcd13ifvqb60","pricing_plan_id":"cebpf4jnsgd1na2vs0mg"},{"bike_id":"7e090e94-0b08-4287-8885-df1da1b29553","system_id":"levelo_inurba_marseille","lat":43.27734,"lon":5.40782,"is_reserved":false,"is_disabled":false,"rental_uris":{"android":"levelo://app?vid=7e090e94-0b08-4287-8885-df1da1b29553","ios":"levelo://app?vid=7e090e94-0b08-4287-8885-df1da1b29553"},"vehicle_type_id":"4","last_reported":1768234606,"current_range_meters":8800,"station_id":"ce4bhnh2rcd13ifvqgtg","pricing_plan_id":"cebpf4jnsgd1na2vs0mg"},{"bike_id":"dcbbcdbd-a5fe-49dd-9a4d-efa17794d78c","system_id":"levelo_inurba_marseille","lat":43.23184,"lon":5.3999,"is_reserved":false,"is_disabled":false,"rental_uris":{"android":"levelo://app?vid=dcbbcdbd-a5fe-49dd-9a4d-efa17794d78c","ios":"levelo://app?vid=dcbbcdbd-a5fe-49dd-9a4d-efa17794d78c"},"vehicle_type_id":"4","last_reported":1768234606,"current_range_meters":8800,"station_id":"ce4bhn12rcd13ifvqgqg","pricing_plan_id":"cebpf4jnsgd1na2vs0mg"},{"bike_id":"6bcb6502-d284-47d7-b2d3-58f34a8eb710","system_id":"levelo_inurba_marseille","lat":43.24994,"lon":5.38936,"is_reserved":false,"is_disabled":false,"rental_uris":{"android":"levelo://app?vid=6bcb6502-d284-47d7-b2d3-58f34a8eb710","ios":"levelo://app?vid=6bcb6502-d284-47d7-b2d3-58f34a8eb710"},"vehicle_type_id":"4","last_reported":1768234606,"current_range_meters":8800,"station_id":"ce4bhgp2rcd13ifvqfd0","pricing_plan_id":"cebpf4jnsgd1na2vs0mg"},{"bike_id":"b659a5a2-a6de-438e-b560-ec4a8dc93085","system_id":"levelo_inurba_marseille","lat":43.26235,"lon":5.40446,"is_reserved":false,"is_disabled":false,"rental_uris":{"android":"levelo://app?vid=b659a5a2-a6de-438e-b560-ec4a8dc93085","ios":"levelo://app?vid=b659a5a2-a6de-438e-b560-ec4a8dc93085"},"vehicle_type_id":"4","last_reported":1768234606,"current_range_meters":8800,"station_id":"ce4bhmh2rcd13ifvqgmg","pricing_plan_id":"cebpf4jnsgd1na2vs0mg"},{"bike_id":"3ebfaa13-1907-4934-ac5a-ed7ebd2c1ab0","system_id":"levelo_inurba_marseille","lat":43.30183,"lon":5.36624,"is_reserved":false,"is_disabled":false,"rental_uris":{"android":"levelo://app?vid=3ebfaa13-1907-4934-ac5a-ed7ebd2c1ab0","ios":"levelo://app?vid=3ebfaa13-1907-4934-ac5a-ed7ebd2c1ab0"},"vehicle_type_id":"4","last_reported":1768234606,"current_range_meters":8800,"station_id":"ce4bgrh2rcd13ifvqc8g","pricing_plan_id":"cebpf4jnsgd1na2vs0mg"},{"bike_id":"388a2bd9-c248-439c-96c4-a340bcea5b5e","system_id":"levelo_inurba_marseille","lat":43.28697,"lon":5.39985,"is_reserved":false,"is_disabled":false,"rental_uris":{"android":"levelo://app?vid=388a2bd9-c248-439c-96c4-a340bcea5b5e","ios":"levelo://app?vid=388a2bd9-c248-439c-96c4-a340bcea5b5e"},"vehicle_type_id":"4","last_reported":1768234606,"current_range_meters":8800,"station_id":"ce4bho92rcd13ifvqh3g","pricing_plan_id":"cebpf4jnsgd1na2vs0mg"},{"bike_id":"f72a0330-2774-442c-a3bd-2da9f092a731","system_id":"levelo_inurba_marseille","lat":43.32359,"lon":5.36745,"is_reserved":false,"is_disabled":false,"rental_uris":{"android":"levelo://app?vid=f72a0330-2774-442c-a3bd-2da9f092a731","ios":"levelo://app?vid=f72a0330-2774-442c-a3bd-2da9f092a731"},"vehicle_type_id":"4","last_reported":1768234606,"current_range_meters":8800,"station_id":"ce4bhsh2rcd13ifvqi2g","pricing_plan_id":"cebpf4jnsgd1na2vs0mg"},{"bike_id":"73159171-0e70-4889-87e6-07eac0d40625","system_id":"levelo_inurba_marseille","lat":43.22573,"lon":5.41633,"is_reserved":false,"is_disabled":false,"rental_uris":{"android":"levelo://app?vid=73159171-0e70-4889-87e6-07eac0d40625","ios":"levelo://app?vid=73159171-0e70-4889-87e6-07eac0d40625"},"vehicle_type_id":"4","last_reported":1768234606,"current_range_meters":8800,"station_id":"st_d2o4gvlbi1j2169b742g","pricing_plan_id":"cebpf4jnsgd1na2vs0mg"},{"bike_id":"d7b99653-e383-4bf8-918a-0e39184ba770","system_id":"levelo_inurba_marseille","lat":43.24116,"lon":5.37769,"is_reserved":false,"is_disabled":false,"rental_uris":{"android":"levelo://app?vid=d7b99653-e383-4bf8-918a-0e39184ba770","ios":"levelo://app?vid=d7b99653-e383-4bf8-918a-0e39184ba770"},"vehicle_type_id":"4","last_reported":1768234606,"current_range_meters":9200,"station_id":"","pricing_plan_id":"cebpf4jnsgd1na2vs0mg"},