{"last_updated":1733173714,"ttl":60,"version":"2.2","data":{"bikes":[{"bike_id":"89c317dc-b498-4092-ab46-a64988b6ed0e","system_id":"levelo_inurba_marseille","lat":43.32292,"lon":5.38268,"is_reserved":false,"is_disabled":false,"rental_uris":{"android":"levelo://app?vid=89c317dc-b498-4092-ab46-a64988b6ed0e","ios":"levelo://app?vid=89c317dc-b498-4092-ab46-a64988b6ed0e"},"vehicle_type_id":"4","last_reported":1733173714,"current_range_meters":38000,"station_id":"ce4bhr12rcd13ifvqhqg","pricing_plan_id":"cebpf4jnsgd1na2vs0mg"},{"bike_id":"c6fcab72-3b24-4c75-b975-ad816d9a147b","system_id":"levelo_inurba_marseille","lat":43.24071,"lon":5.37759,"is_reserved":false,"is_disabled":true,"rental_uris":{"android":"levelo://app?vid=c6fcab72-3b24-4c75-b975-ad816d9a147b","ios":"levelo://app?vid=c6fcab72-3b24-4c75-b975-ad816d9a147b"},"vehicle_type_id":"4","last_reported":1733173714,"current_range_meters":0,"station_id":"ce4bhnp2rcd13ifvqgvg","pricing_plan_id":"cebpf4jnsgd1na2vs0mg"},{"bike_id":"7ebd64b2-3b0f-4222-ad9d-20406989239b","system_id":"levelo_inurba_marseille","lat":43.30152,"lon":5.38102,"is_reserved":false,"is_disabled":true,"rental_uris":{"android":"levelo://app?vid=7ebd64b2-3b0f-4222-ad9d-20406989239b","ios":"levelo://app?vid=7ebd64b2-3b0f-4222-ad9d-20406989239b"},"vehicle_type_id":"4","last_reported":1733173714,"current_range_meters":0,"station_id":"ce4bgjp2rcd13ifvqbh0","pricing_plan_id":"cebpf4jnsgd1na2vs0mg"},{"bike_id":"df479c2c-35ac-44ad-b9d6-81c89ed769ce","system_id":"levelo_inurba_marseille","lat":43.29699,"lon":5.37068,"is_reserved":false,"is_disabled":true,"rental_uris":{"android":"levelo://app?vid=df479c2c-35ac-44ad-b9d6-81c89ed769ce","ios":"levelo://app?vid=df479c2c-35ac-44ad-b9d6-81c89ed769ce"},"vehicle_type_id":"4","last_reported":1733173714,"current_range_meters":0,"station_id":"","pricing_plan_id":"cebpf4jnsgd1na2vs0mg"},{"bike_id":"8e029eaf-e104-4c5d-858d-6cd39de73d09","system_id":"levelo_inurba_marseille","lat":43.24162,"lon":5.36425,"is_reserved":false,"is_disabled":false,"rental_uris":{"android":"levelo://app?vid=8e029eaf-e104-4c5d-858d-6cd39de73d09","ios":"levelo://app?vid=8e029eaf-e104-4c5d-858d-6cd39de73d09"},"vehicle_type_id":"4","last_reported":1733173714,"current_range_meters":19600,"station_id":"cpo36qri1sfpv3e86is0","pricing_plan_id":"cebpf4jnsgd1na2vs0mg"},{"bike_id":"bd8cd1c7-abef-42cd-bb74-c23362a9f370","system_id":"levelo_inurba_marseille","lat":43.29423,"lon":5.38607,"is_reserved":false,"is_disabled":true,"rental_uris":{"android":"levelo://app?vid=bd8cd1c7-abef-42cd-bb74-c23362a9f370","ios":"levelo://app?vid=bd8cd1c7-abef-42cd-bb74-c23362a9f370"},"vehicle_type_id":"4","last_reported":1733173714,"current_range_meters":20800,"station_id":"ce4bh2h2rcd13ifvqdh0","pricing_plan_id":"cebpf4jnsgd1na2vs0mg"},{"bike_id":"12652c73-7b25-4805-92ca-4c9bb1159096","system_id":"levelo_inurba_marseille","lat":43.27617,"lon":5.36115,"is_reserved":false,"is_disabled":true,"rental_uris":{"android":"levelo://app?vid=12652c73-7b25-4805-92ca-4c9bb1159096","ios":"levelo://app?vid=12652c73-7b25-4805-92ca-4c9bb1159096"},"vehicle_type_id":"4","last_reported":1733173714,"current_range_meters":38800,"station_id":"ce4bgj92rcd13ifvqbe0","pricing_plan_id":"cebpf4jnsgd1na2vs0mg"},{"bike_id":"28ffdac5-d6d4-419f-901d-72f266afeec4","system_id":"levelo_inurba_marseille","lat":43.31533,"lon":5.38036,"is_reserved":false,"is_disabled":false,"rental_uris":{"android":"levelo://app?vid=28ffdac5-d6d4-419f-901d-72f266afeec4","ios":"levelo://app?vid=28ffdac5-d6d4-419f-901d-72f266afeec4"},"vehicle_type_id":"4","last_reported":1733173714,"current_range_meters":30400,"station_id":"ce4bhsp2rcd13ifvqi50","pricing_plan_id":"cebpf4jnsgd1na2vs0mg"},{"bike_id":"9dfb3ae0-2ee3-42e6-bc73-2b1ac76e82bc","system_id":"levelo_inurba_marseille","lat":43.30463,"lon":5.37895,"is_reserved":false,"is_disabled":true,"rental_uris":{"android":"levelo://app?vid=9dfb3ae0-2ee3-42e6-bc73-2b1ac76e82bc","ios":"levelo://app?vid=9dfb3ae0-2ee3-42e6-bc73-2b1ac76e82bc"},"vehicle_type_id":"4","last_reported":1733173714,"current_range_meters":0,"station_id":"ce4bgup2rcd13ifvqcn0","pricing_plan_id":"cebpf4jnsgd1na2vs0mg"},{"bike_id":"2448cf35-c73c-422f-877f-b7e72d7a8e2d","system_id":"levelo_inurba_marseille","lat":43.30126,"lon":5.398545,"is_reserved":false,"is_disabled":false,"rental_uris":{"android":"levelo://app?vid=2448cf35-c73c-422f-877f-b7e72d7a8e2d","ios":"levelo://app?vid=2448cf35-c73c-422f-877f-b7e72d7a8e2d"},"vehicle_type_id":"4","last_reported":1733173714,"current_range_meters":38800,"station_id":"ce4bh0h2rcd13ifvqd40","pricing_plan_id":"cebpf4jnsgd1na2vs0mg"},{"bike_id":"95100176-7ead-4230-932c-4b0bbddddb86","system_id":"levelo_inurba_marseille","lat":43.32506,"lon":5.36578,"is_reserved":false,"is_disabled":false,"rental_uris":{"android":"levelo://app?vid=95100176-7ead-4230-932c-4b0bbddddb86","ios":"levelo://app?vid=95100176-7ead-4230-932c-4b0bbddddb86"},"vehicle_type_id":"4","last_reported":1733173714,"current_range_meters":7200,"station_id":"ce4bhs12rcd13ifvqhvg","pricing_plan_id":"cebpf4jnsgd1na2vs0mg"},{"bike_id":"b81226b0-d7dc-4213-8de7-ddec7d23b0a8","system_id":"levelo_inurba_marseille","lat":43.284368,"lon":5.391832,"is_reserved":false,"is_disabled":false,"rental_uris":{"android":"levelo://app?vid=b81226b0-d7dc-4213-8de7-ddec7d23b0a8","ios":"levelo://app?vid=b81226b0-d7dc-4213-8de7-ddec7d23b0a8"},"vehicle_type_id":"4","last_reported":1733173714,"current_range_meters":39200,"station_id":"ce4bhoh2rcd13ifvqh5g","pricing_plan_id":"cebpf4jnsgd1na2vs0mg"},{"bike_id":"72bb3b95-a3c2-4aa4-a680-8b1585cb463a","system_id":"levelo_inurba_marseille","lat":43.24393,"lon":5.37066,"is_reserved":false,"is_disabled":false,"rental_uris":{"android":"levelo://app?vid=72bb3b95-a3c2-4aa4-a680-8b1585cb463a","ios":"levelo://app?vid=72bb3b95-a3c2-4aa4-a680-8b1585cb463a"},"vehicle_type_id":"4","last_reported":1733173714,"current_range_meters":38000,"station_id":"ce4bhhh2rcd13ifvqfk0","pricing_plan_id":"cebpf4jnsgd1na2vs0mg"},{"bike_id":"8bd642b2-0279-44c7-9ee2-fc3b57332c83","system_id":"levelo_inurba_marseille","lat":43.27455,"lon":5.40073,"is_reserved":false,"is_disabled":true,"rental_uris":{"android":"levelo://app?vid=8bd642b2-0279-44c7-9ee2-fc3b57332c83","ios":"levelo://app?vid=8bd642b2-0279-44c7-9ee2-fc3b57332c83"},"vehicle_type_id":"4","last_reported":1733173714,"current_range_meters":0,"station_id":"","pricing_plan_id":"cebpf4jnsgd1na2vs0mg"},{"bike_id":"83437d36-78d2-42fa-99fb-a4a968b35ce8","system_id":"levelo_inurba_marseille","lat":43.28156,"lon":5.42646,"is_reserved":false,"is_disabled":false,"rental_uris":{"android":"levelo://app?vid=83437d36-78d2-42fa-99fb-a4a968b35ce8","ios":"levelo://app?vid=83437d36-78d2-42fa-99fb-a4a968b35ce8"},"vehicle_type_id":"4","last_reported":1733173714,"current_range_meters":33200,"station_id":"ce4bhnh2rcd13ifvqgug","pricing_plan_id":"cebpf4jnsgd1na2vs0mg"},{"bike_id":"3b63d59d-dad2-4548-b637-e84c40b840ed","system_id":"levelo_inurba_marseille","lat":43.28462,"lon":5.35886,"is_reserved":false,"is_disabled":false,"rental_uris":{"android":"levelo://app?vid=3b63d59d-dad2-4548-b637-e84c40b840ed","ios":"levelo://app?vid=3b63d59d-dad2-4548-b637-e84c40b840ed"},"vehicle_type_id":"4","last_reported":1733173714,"current_range_meters":27600,"station_id":"ce4bhah2rcd13ifvqei0","pricing_plan_id":"cebpf4jnsgd1na2vs0mg"},{"bike_id":"c347fdc8-f848-4a1b-898c-58f3ee61813b","system_id":"levelo_inurba_marseille","lat":43.31323,"lon":5.39686,"is_reserved":false,"is_disabled":false,"rental_uris":{"android":"levelo://app?vid=c347fdc8-f848-4a1b-898c-58f3ee61813b","ios":"levelo://app?vid=c347fdc8-f848-4a1b-898c-58f3ee61813b"},"vehicle_type_id":"4","last_reported":1733173714,"current_range_meters":27200,"station_id":"ce4bgvp2rcd13ifvqcu0","pricing_plan_id":"cebpf4jnsgd1na2vs0mg"},{"bike_id":"cedc736d-b727-406a-9ad2-26d9fd826b9c","system_id":"levelo_inurba_marseille","lat":43.31757,"lon":5.39011,"is_reserved":false,"is_disabled":false,"rental_uris":{"android":"levelo://app?vid=cedc736d-b727-406a-9ad2-26d9fd826b9c","ios":"levelo://app?vid=cedc736d-b727-406a-9ad2-26d9fd826b9c"},"vehicle_type_id":"4","last_reported":1733173714,"current_range_meters":22400,"station_id":"ce4bhqp2rcd13ifvqhng","pricing_plan_id":"cebpf4jnsgd1na2vs0mg"},{"bike_id":"c0bec7ea-31af-49de-8a97-a7d6bf5d8bb8","system_id":"levelo_inurba_marseille","lat":43.29053,"lon":5.35904,"is_reserved":false,"is_disabled":true,"rental_uris":{"android":"levelo://app?vid=c0bec7ea-31af-49de-8a97-a7d6bf5d8bb8","ios":"levelo://app?vid=c0bec7ea-31af-49de-8a97-a7d6bf5d8bb8"},"vehicle_type_id":"4","last_reported":1733173714,"current_range_meters":38800,"station_id":"ce4bha92rcd13ifvqeg0","pricing_plan_id":"cebpf4jnsgd1na2vs0mg"},{"bike_id":"f9752e82-4438-4882-a3c3-c7c0578a03f9","system_id":"levelo_inurba_marseille","lat":43.28041,"lon":5.36948,"is_reserved":false,"is_disabled":false,"rental_uris":{"android":"levelo://app?vid=f9752e82-4438-4882-a3c3-c7c0578a03f9","ios":"levelo://app?vid=f9752e82-4438-4882-a3c3-c7c0578a03f9"},"vehicle_type_id":"4","last_reported":1733173714,"current_range_meters":6000,"station_id":"ce4bha12rcd13ifvqef0","pricing_plan_id":"cebpf4jnsgd1na2vs0mg"},{"bike_id":"d587e82d-3537-4948-9f3b-2f2478230937","system_id":"levelo_inurba_marseille","lat":43.31527,"lon":5.38034,"is_reserved":false,"is_disabled":false,"rental_uris":{"android":"levelo://app?vid=d587e82d-3537-4948-9f3b-2f2478230937","ios":"levelo://app?vid=d587e82d-3537-4948-9f3b-2f2478230937"},"vehicle_type_id":"4","last_reported":1733173714,"current_range_meters":39200,"station_id":"ce4bhsp2rcd13ifvqi50","pricing_plan_id":"cebpf4jnsgd1na2vs0mg"},{"bike_id":"475b0e62-d2b9-43a0-a896-2541e3d26116","system_id":"levelo_inurba_marseille","lat":43.24647,"lon":5.3889,"is_reserved":false,"is_disabled":true,"rental_uris":{"android":"levelo://app?vid=475b0e62-d2b9-43a0-a896-2541e3d26116","ios":"levelo://app?vid=475b0e62-d2b9-43a0-a896-2541e3d26116"},"vehicle_type_id":"4","last_reported":1733173714,"current_range_meters":0,"station_id":"ce4bhg12rcd13ifvqf60","pricing_plan_id":"cebpf4jnsgd1na2vs0mg"},{"bike_id":"58ff5ef4-5e8b-42b4-baea-f7cffbb7644c","system_id":"levelo_inurba_marseille","lat":43.27991,"lon":5.41669,"is_reserved":false,"is_disabled":false,"rental_uris":{"android":"levelo://app?vid=58ff5ef4-5e8b-42b4-baea-f7cffbb7644c","ios":"levelo://app?vid=58ff5ef4-5e8b-42b4-baea-f7cffbb7644c"},"vehicle_type_id":"4","last_reported":1733173714,"current_range_meters":4800,"station_id":"ce4bho12rcd13ifvqh1g","pricing_plan_id":"cebpf4jnsgd1na2vs0mg"},{"bike_id":"b3f478ac-3b05-4edf-bdbf-76399090f8e9","system_id":"levelo_inurba_marseille","lat":43.30001,"lon":5.37644,"is_reserved":false,"is_disabled":true,"rental_uris":{"android":"levelo://app?vid=b3f478ac-3b05-4edf-bdbf-76399090f8e9","ios":"levelo://app?vid=b3f478ac-3b05-4edf-bdbf-76399090f8e9"},"vehicle_type_id":"4","last_reported":1733173714,"current_range_meters":0,"station_id":"","pricing_plan_id":"cebpf4jnsgd1na2vs0mg"},{"bike_id":"c3587c28-5435-41c6-a9b7-aa468e6b19aa","system_id":"levelo_inurba_marseille","lat":43.29746,"lon":5.37916,"is_reserved":false,"is_disabled":true,"rental_uris":{"android":"levelo://app?vid=c3587c28-5435-41c6-a9b7-aa468e6b19aa","ios":"levelo://app?vid=c3587c28-5435-41c6-a9b7-aa468e6b19aa"},"vehicle_type_id":"4","last_reported":1733173714,"current_range_meters":0,"station_id":"","pricing_plan_id":"cebpf4jnsgd1na2vs0mg"},{"bike_id":"8d110d94-27e5-46a0-9a67-6cd617bec460","system_id":"levelo_inurba_marseille","lat":43.29414,"lon":5.38622,"is_reserved":false,"is_disabled":false,"rental_uris":{"android":"levelo://app?vid=8d110d94-27e5-46a0-9a67-6cd617bec460","ios":"levelo://app?vid=8d110d94-27e5-46a0-9a67-6cd617bec460"},"vehicle_type_id":"4","last_reported":1733173714,"current_range_meters":39200,"station_id":"ce4bh2h2rcd13ifvqdh0","pricing_plan_id":"cebpf4jnsgd1na2vs0mg"},{"bike_id":"4f426182-47e5-4542-8d3d-e98bb0b14833","system_id":"levelo_inurba_marseille","lat":43.30882,"lon":5.39642,"is_reserved":false,"is_disabled":false,"rental_uris":{"android":"levelo://app?vid=4f426182-47e5-4542-8d3d-e98bb0b14833","ios":"levelo://app?vid=4f426182-47e5-4542-8d3d-e98bb0b14833"},"vehicle_type_id":"4","last_reported":1733173714,"current_range_meters":17200,"station_id":"ce4bh012rcd13ifvqcv0","pricing_plan_id":"cebpf4jnsgd1na2vs0mg"},{"bike_id":"e8d9fcd3-6c4c-4c2e-a87e-41c5e4dfa6d0","system_id":"levelo_inurba_marseille","lat":43.25438,"lon":5.38158,"is_reserved":false,"is_disabled":true,"rental_uris":{"android":"levelo://app?vid=e8d9fcd3-6c4c-4c2e-a87e-41c5e4dfa6d0","ios":"levelo://app?vid=e8d9fcd3-6c4c-4c2e-a87e-41c5e4dfa6d0"},"vehicle_type_id":"4","last_reported":1733173714,"current_range_meters":0,"station_id":"","pricing_plan_id":"cebpf4jnsgd1na2vs0mg"},{"bike_id":"9e4ed454-42e6-4088-a463-3af3d1983d77","system_id":"levelo_inurba_marseille","lat":43.29912,"lon":5.40341,"is_reserved":false,"is_disabled":true,"rental_uris":{"android":"levelo://app?vid=9e4ed454-42e6-4088-a463-3af3d1983d77","ios":"levelo://app?vid=9e4ed454-42e6-4088-a463-3af3d1983d77"},"vehicle_type_id":"4","last_reported":1733173714,"current_range_meters":0,"station_id":"","pricing_plan_id":"cebpf4jnsgd1na2vs0mg"},{"bike_id":"101e72cb-5bc1-49ec-be2d-1e8628e565f6","system_id":"levelo_inurba_marseille","lat":43.31502,"lon":5.37297,"is_reserved":false,"is_disabled":true,"rental_uris":{"android":"levelo://app?vid=101e72cb-5bc1-49ec-be2d-1e8628e565f6","ios":"levelo://app?vid=101e72cb-5bc1-49ec-be2d-1e8628e565f6"},"vehicle_type_id":"4","last_reported":1733173714,"current_range_meters":36400,"station_id":"ce4bgt12rcd13ifvqcd0","pricing_plan_id":"cebpf4jnsgd1na2vs0mg"},{"bike_id":"a53e6830-9b41-48f9-afff-334398860118","system_id":"levelo_inurba_marseille","lat":43.29033,"lon":5.39962,"is_reserved":false,"is_disabled":false,"rental_uris":{"android":"levelo://app?vid=a53e6830-9b41-48f9-afff-334398860118","ios":"levelo://app?vid=a53e6830-9b41-48f9-afff-334398860118"},"vehicle_type_id":"4","last_reported":1733173714,"current_range_meters":36800,"station_id":"ce4bh392rcd13ifvqdm0","pricing_plan_id":"cebpf4jnsgd1na2vs0mg"},{"bike_id":"0a081414-1571-4fba-8c83-fe3438cc1403","system_id":"levelo_inurba_marseille","lat":43.29869,"lon":5.39736,"is_reserved":false,"is_disabled":false,"rental_uris":{"android":"levelo://app?vid=0a081414-1571-4fba-8c83-fe3438cc1403","ios":"levelo://app?vid=0a081414-1571-4fba-8c83-fe3438cc1403"},"vehicle_type_id":"4","last_reported":1733173714,"current_range_meters":30000,"station_id":"ce4bh0h2rcd13ifvqd50","pricing_plan_id":"cebpf4jnsgd1na2vs0mg"},{"bike_id":"52f78895-69de-4d71-a918-9f14f12e62d4","system_id":"levelo_inurba_marseille","lat":43.32342,"lon":5.40623,"is_reserved":false,"is_disabled":false,"rental_uris":{"android":"levelo://app?vid=52f78895-69de-4d71-a918-9f14f12e62d4","ios":"levelo://app?vid=52f78895-69de-4d71-a918-9f14f12e62d4"},"vehicle_type_id":"4","last_reported":1733173714,"current_range_meters":16800,"station_id":"ce4bhq92rcd13ifvqhjg","pricing_plan_id":"cebpf4jnsgd1na2vs0mg"},{"bike_id":"c01f5b32-14ab-4858-a38f-8664e35972dd","system_id":"levelo_inurba_marseille","lat":43.2791,"lon":5.38016,"is_reserved":false,"is_disabled":false,"rental_uris":{"android":"levelo://app?vid=c01f5b32-14ab-4858-a38f-8664e35972dd","ios":"levelo://app?vid=c01f5b32-14ab-4858-a38f-8664e35972dd"},"vehicle_type_id":"4","last_reported":1733173714,"current_range_meters":38800,"station_id":"ce4bhf92rcd13ifvqf50","pricing_plan_id":"cebpf4jnsgd1na2vs0mg"},{"bike_id":"16c70a5e-5687-46e9-8cf9-a205edcd36f2","system_id":"levelo_inurba_marseille","lat":43.29535,"lon":5.38543,"is_reserved":false,"is_disabled":false,"rental_uris":{"android":"levelo://app?vid=16c70a5e-5687-46e9-8cf9-a205edcd36f2","ios":"levelo://app?vid=16c70a5e-5687-46e9-8cf9-a205edcd36f2"},"vehicle_type_id":"4","last_reported":1733173714,"current_range_meters":11200,"station_id":"ce4bgih2rcd13ifvqba0","pricing_plan_id":"cebpf4jnsgd1na2vs0mg"},{"bike_id":"052a1e58-88fa-43c4-a493-9df8526488c7","system_id":"levelo_inurba_marseille","lat":43.29201,"lon":5.39317,"is_reserved":false,"is_disabled":true,"rental_uris":{"android":"levelo://app?vid=052a1e58-88fa-43c4-a493-9df8526488c7","ios":"levelo://app?vid=052a1e58-88fa-43c4-a493-9df8526488c7"},"vehicle_type_id":"4","last_reported":1733173714,"current_range_meters":10800,"station_id":"ce4bh192rcd13ifvqdd0","pricing_plan_id":"cebpf4jnsgd1na2vs0mg"},{"bike_id":"34ed7b16-e707-4c30-bb65-0c88ea055863","system_id":"levelo_inurba_marseille","lat":43.30806,"lon":5.43522,"is_reserved":false,"is_disabled":true,"rental_uris":{"android":"levelo://app?vid=34ed7b16-e707-4c30-bb65-0c88ea055863","ios":"levelo://app?vid=34ed7b16-e707-4c30-bb65-0c88ea055863"},"vehicle_type_id":"4","last_reported":1733173714,"current_range_meters":12800,"station_id":"ce4bhph2rcd13ifvqheg","pricing_plan_id":"cebpf4jnsgd1na2vs0mg"},{"bike_id":"670cdfe7-bbc3-4db4-98e2-42b2e481d6ed","system_id":"levelo_inurba_marseille","lat":43.28841,"lon":5.35838,"is_reserved":false,"is_disabled":false,"rental_uris":{"android":"levelo://app?vid=670cdfe7-bbc3-4db4-98e2-42b2e481d6ed","ios":"levelo://app?vid=670cdfe7-bbc3-4db4-98e2-42b2e481d6ed"},"vehicle_type_id":"4","last_reported":1733173714,"current_range_meters":28400,"station_id":"ce4bhb12rcd13ifvqem0","pricing_plan_id":"cebpf4jnsgd1na2vs0mg"},{"bike_id":"7f9f3d2e-2c33-4e9f-af7d-e28e797af1e6","system_id":"levelo_inurba_marseille","lat":43.28161,"lon":5.42634,"is_reserved":false,"is_disabled":false,"rental_uris":{"android":"levelo://app?vid=7f9f3d2e-2c33-4e9f-af7d-e28e797af1e6","ios":"levelo://app?vid=7f9f3d2e-2c33-4e9f-af7d-e28e797af1e6"},"vehicle_type_id":"4","last_reported":1733173714,"current_range_meters":14800,"station_id":"ce4bhnh2rcd13ifvqgug","pricing_plan_id":"cebpf4jnsgd1na2vs0mg"},{"bike_id":"6cbbb0fc-a53e-49a5-857c-7ed7712bd02c","system_id":"levelo_inurba_marseille","lat":43.28152,"lon":5.42644,"is_reserved":false,"is_disabled":false,"rental_uris":{"android":"levelo://app?vid=6cbbb0fc-a53e-49a5-857c-7ed7712bd02c","ios":"levelo://app?vid=6cbbb0fc-a53e-49a5-857c-7ed7712bd02c"},"vehicle_type_id":"4","last_reported":1733173714,"current_range_meters":16800,"station_id":"ce4bhnh2rcd13ifvqgug","pricing_plan_id":"cebpf4jnsgd1na2vs0mg"},{"bike_id":"049117d3-45b4-40a9-9b16-54c194d80ad6","system_id":"levelo_inurba_marseille","lat":43.31767,"lon":5.37734,"is_reserved":false,"is_disabled":false,"rental_uris":{"android":"levelo://app?vid=049117d3-45b4-40a9-9b16-54c194d80ad6","ios":"levelo://app?vid=049117d3-45b4-40a9-9b16-54c194d80ad6"},"vehicle_type_id":"4","last_reported":1733173714,"current_range_meters":15200,"station_id":"","pricing_plan_id":"cebpf4jnsgd1na2vs0mg"},{"bike_id":"476d3321-c3c7-48fc-9fc2-d082344699e4","system_id":"levelo_inurba_marseille","lat":43.25866,"lon":5.39899,"is_reserved":false,"is_disabled":false,"rental_uris":{"android":"levelo://app?vid=476d3321-c3c7-48fc-9fc2-d082344699e4","ios":"levelo://app?vid=476d3321-c3c7-48fc-9fc2-d082344699e4"},"vehicle_type_id":"4","last_reported":1733173714,"current_range_meters":9200,"station_id":"ce4bhl92rcd13ifvqghg","pricing_plan_id":"cebpf4jnsgd1na2vs0mg"},{"bike_id":"16bea42d-3248-41fd-8b51-39fb3d7ec2c4","system_id":"levelo_inurba_marseille","lat":43.26483,"lon":5.38535,"is_reserved":false,"is_disabled":true,"rental_uris":{"android":"levelo://app?vid=16bea42d-3248-41fd-8b51-39fb3d7ec2c4","ios":"levelo://app?vid=16bea42d-3248-41fd-8b51-39fb3d7ec2c4"},"vehicle_type_id":"4","last_reported":1733173714,"current_range_meters":0,"station_id":"","pricing_plan_id":"cebpf4jnsgd1na2vs0mg"},{"bike_id":"21d0c3c4-d980-4f5f-b80b-ac5ea02d4220","system_id":"levelo_inurba_marseille","lat":43.24069,"lon":5.37763,"is_reserved":false,"is_disabled":false,"rental_uris":{"android":"levelo://app?vid=21d0c3c4-d980-4f5f-b80b-ac5ea02d4220","ios":"levelo://app?vid=21d0c3c4-d980-4f5f-b80b-ac5ea02d4220"},"vehicle_type_id":"4","last_reported":1733173714,"current_range_meters":30800,"station_id":"ce4bhnp2rcd13ifvqgvg","pricing_plan_id":"cebpf4jnsgd1na2vs0mg"},{"bike_id":"963ff4d9-00da-46d0-81c1-0379db216364","system_id":"levelo_inurba_marseille","lat":43.31325,"lon":5.38476,"is_reserved":false,"is_disabled":false,"rental_uris":{"android":"levelo://app?vid=963ff4d9-00da-46d0-81c1-0379db216364","ios":"levelo://app?vid=963ff4d9-00da-46d0-81c1-0379db216364"},"vehicle_type_id":"4","last_reported":1733173714,"current_range_meters":21600,"station_id":"ce4bgt92rcd13ifvqcf0","pricing_plan_id":"cebpf4jnsgd1na2vs0mg"},{"bike_id":"29e34376-1403-4ab2-9991-c557af49d547","system_id":"levelo_inurba_marseille","lat":43.337444,"lon":5.374475,"is_reserved":false,"is_disabled":false,"rental_uris":{"android":"levelo://app?vid=29e34376-1403-4ab2-9991-c557af49d547","ios":"levelo://app?vid=29e34376-1403-4ab2-9991-c557af49d547"},"vehicle_type_id":"4","last_reported":1733173714,"current_range_meters":38400,"station_id":"","pricing_plan_id":"cebpf4jnsgd1na2vs0mg"},{"bike_id":"2b54ddc5-0583-4fc9-accb-0a4c7f0b096a","system_id":"levelo_inurba_marseille","lat":43.26684,"lon":5.38274,"is_reserved":false,"is_disabled":true,"rental_uris":{"android":"levelo://app?vid=2b54ddc5-0583-4fc9-accb-0a4c7f0b096a","ios":"levelo://app?vid=2b54ddc5-0583-4fc9-accb-0a4c7f0b096a"},"vehicle_type_id":"4","last_reported":1733173714,"current_range_meters":28800,"station_id":"ce4bhg92rcd13ifvqf90","pricing_plan_id":"cebpf4jnsgd1na2vs0mg"},{"bike_id":"eaa73896-04a8-4ef6-a4c7-4d4e56920b82","system_id":"levelo_inurba_marseille","lat":43.29299,"lon":5.37454,"is_reserved":false,"is_disabled":true,"rental_uris":{"android":"levelo://app?vid=eaa73896-04a8-4ef6-a4c7-4d4e56920b82","ios":"levelo://app?vid=eaa73896-04a8-4ef6-a4c7-4d4e56920b82"},"vehicle_type_id":"4","last_reported":1733173714,"current_range_meters":0,"station_id":"ce4bgi12rcd13ifvqb70","pricing_plan_id":"cebpf4jnsgd1na2vs0mg"},{"bike_id":"559c614f-06ce-4ba0-8e67-9de6ea8d86b2","system_id":"levelo_inurba_marseille","lat":43.309342,"lon":5.401572,"is_reserved":false,"is_disabled":false,"rental_uris":{"android":"levelo://app?vid=559c614f-06ce-4ba0-8e67-9de6ea8d86b2","ios":"levelo://app?vid=559c614f-06ce-4ba0-8e67-9de6ea8d86b2"},"vehicle_type_id":"4","last_reported":1733173714,"current_range_meters":22000,"station_id":"ce4bgvp2rcd13ifvqct0","pricing_plan_id":"cebpf4jnsgd1na2vs0mg"},{"bike_id":"3418be4f-03ce-4b15-8c72-c86fb14e06a8","system_id":"levelo_inurba_marseille","lat":43.28459,"lon":5.35877,"is_reserved":false,"is_disabled":false,"rental_uris":{"android":"levelo://app?vid=3418be4f-03ce-4b15-8c72-c86fb14e06a8","ios":"levelo://app?vid=3418be4f-03ce-4b15-8c72-c86fb14e06a8"},"vehicle_type_id":"4","last_reported":1733173714,"current_range_meters":38000,"station_id":"ce4bhah2rcd13ifvqei0","pricing_plan_id":"cebpf4jnsgd1na2vs0mg"},{"bike_id":"fa8f6d2c-1623-46a8-b61f-31fcea008774","system_id":"levelo_inurba_marseille","lat":43.310737,"lon":5.383627,"is_reserved":false,"is_disabled":false,"rental_uris":{"android":"levelo://app?vid=fa8f6d2c-1623-46a8-b61f-31fcea008774","ios":"levelo://app?vid=fa8f6d2c-1623-46a8-b61f-31fcea008774"},"vehicle_type_id":"4","last_reported":1733173714,"current_range_meters":38800,"station_id":"ce4bgv92rcd13ifvqcr0","pricing_plan_id":"cebpf4jnsgd1na2vs0mg"},{"bike_id":"749cb1cb-4d4c-4e48-bab8-f0f8d049f6fc","system_id":"levelo_inurba_marseille","lat":43.26686,"lon":5.38269,"is_reserved":false,"is_disabled":true,"rental_uris":{"android":"levelo://app?vid=749cb1cb-4d4c-4e48-bab8-f0f8d049f6fc","ios":"levelo://app?vid=749cb1cb-4d4c-4e48-bab8-f0f8d049f6fc"},"vehicle_type_id":"4","last_reported":1733173714,"current_range_meters":9600,"station_id":"ce4bhg92rcd13ifvqf90","pricing_plan_id":"cebpf4jnsgd1na2vs0mg"},{"bike_id":"f54353c2-2a23-46c1-99bd-9475127a043e","system_id":"levelo_inurba_marseille","lat":43.24661,"lon":5.38163,"is_reserved":false,"is_disabled":false,"rental_uris":{"android":"levelo://app?vid=f54353c2-2a23-46c1-99bd-9475127a043e","ios":"levelo://app?vid=f54353c2-2a23-46c1-99bd-9475127a043e"},"vehicle_type_id":"4","last_reported":1733173714,"current_range_meters":20800,"station_id":"ce4bhih2rcd13ifvqfr0","pricing_plan_id":"cebpf4jnsgd1na2vs0mg"},{"bike_id":"5e0c9254-7236-4bc5-afa8-ea14555b48ee","system_id":"levelo_inurba_marseille","lat":43.28003,"lon":5.41664,"is_reserved":false,"is_disabled":false,"rental_uris":{"android":"levelo://app?vid=5e0c9254-7236-4bc5-afa8-ea14555b48ee","ios":"levelo://app?vid=5e0c9254-7236-4bc5-afa8-ea14555b48ee"},"vehicle_type_id":"4","last_reported":1733173714,"current_range_meters":10800,"station_id":"ce4bho12rcd13ifvqh1g","pricing_plan_id":"cebpf4jnsgd1na2vs0mg"},{"bike_id":"fdb79724-3174-49c2-b15d-24e783687630","system_id":"levelo_inurba_marseille","lat":43.2866,"lon":5.36344,"is_reserved":false,"is_disabled":false,"rental_uris":{"android":"levelo://app?vid=fdb79724-3174-49c2-b15d-24e783687630","ios":"levelo://app?vid=fdb79724-3174-49c2-b15d-24e783687630"},"vehicle_type_id":"4","last_reported":1733173714,"current_range_meters":16800,"station_id":"ce4bhah2rcd13ifvqej0","pricing_plan_id":"cebpf4jnsgd1na2vs0mg"},{"bike_id":"0a1d68f8-0366-4da5-89d9-6eaaf358877d","system_id":"levelo_inurba_marseille","lat":43.29274,"lon":5.40115,"is_reserved":false,"is_disabled":false,"rental_uris":{"android":"levelo://app?vid=0a1d68f8-0366-4da5-89d9-6eaaf358877d","ios":"levelo://app?vid=0a1d68f8-0366-4da5-89d9-6eaaf358877d"},"vehicle_type_id":"4","last_reported":1733173714,"current_range_meters":38800,"station_id":"ce4bh312rcd13ifvqdk0","pricing_plan_id":"cebpf4jnsgd1na2vs0mg"},{"bike_id":"4ce6b821-9620-4ae8-a581-2b853c74d66e","system_id":"levelo_inurba_marseille","lat":43.30139,"lon":5.38781,"is_reserved":false,"is_disabled":false,"rental_uris":{"android":"levelo://app?vid=4ce6b821-9620-4ae8-a581-2b853c74d66e","ios":"levelo://app?vid=4ce6b821-9620-4ae8-a581-2b853c74d66e"},"vehicle_type_id":"4","last_reported":1733173714,"current_range_meters":38800,"station_id":"ce4bghh2rcd13ifvqb60","pricing_plan_id":"cebpf4jnsgd1na2vs0mg"},{"bike_id":"7932e894-60e4-4259-ad2b-e25a6bbb7ae7","system_id":"levelo_inurba_marseille","lat":43.28407,"lon":5.37515,"is_reserved":false,"is_disabled":true,"rental_uris":{"android":"levelo://app?vid=7932e894-60e4-4259-ad2b-e25a6bbb7ae7","ios":"levelo://app?vid=7932e894-60e4-4259-ad2b-e25a6bbb7ae7"},"vehicle_type_id":"4","last_reported":1733173714,"current_range_meters":27200,"station_id":"ce4bh412rcd13ifvqds0","pricing_plan_id":"cebpf4jnsgd1na2vs0mg"},{"bike_id":"770a059e-4419-4c03-a96a-0b79db0f097c","system_id":"levelo_inurba_marseille","lat":43.29521,"lon":5.37503,"is_reserved":false,"is_disabled":true,"rental_uris":{"android":"levelo://app?vid=770a059e-4419-4c03-a96a-0b79db0f097c","ios":"levelo://app?vid=770a059e-4419-4c03-a96a-0b79db0f097c"},"vehicle_type_id":"4","last_reported":1733173714,"current_range_meters":30000,"station_id":"ce4bgkp2rcd13ifvqbmg","pricing_plan_id":"cebpf4jnsgd1na2vs0mg"},{"bike_id":"560d7c7a-afe7-40ab-8881-10b4001d79ee","system_id":"levelo_inurba_marseille","lat":43.30788,"lon":5.37636,"is_reserved":false,"is_disabled":false,"rental_uris":{"android":"levelo://app?vid=560d7c7a-afe7-40ab-8881-10b4001d79ee","ios":"levelo://app?vid=560d7c7a-afe7-40ab-8881-10b4001d79ee"},"vehicle_type_id":"4","last_reported":1733173714,"current_range_meters":18800,"station_id":"ce4bgv92rcd13ifvqcq0","pricing_plan_id":"cebpf4jnsgd1na2vs0mg"},{"bike_id":"62c1fea9-dc8c-47b6-a0ea-b4a658e3a569","system_id":"levelo_inurba_marseille","lat":43.29885,"lon":5.39776,"is_reserved":false,"is_disabled":false,"rental_uris":{"android":"levelo://app?vid=62c1fea9-dc8c-47b6-a0ea-b4a658e3a569","ios":"levelo://app?vid=62c1fea9-dc8c-47b6-a0ea-b4a658e3a569"},"vehicle_type_id":"4","last_reported":1733173714,"current_range_meters":25200,"station_id":"ce4bh0h2rcd13ifvqd50","pricing_plan_id":"cebpf4jnsgd1na2vs0mg"},{"bike_id":"a35c7100-9024-4fb4-b667-f663717a8474","system_id":"levelo_inurba_marseille","lat":43.31123,"lon":5.37777,"is_reserved":false,"is_disabled":false,"rental_uris":{"android":"levelo://app?vid=a35c7100-9024-4fb4-b667-f663717a8474","ios":"levelo://app?vid=a35c7100-9024-4fb4-b667-f663717a8474"},"vehicle_type_id":"4","last_reported":1733173714,"current_range_meters":8800,"station_id":"ce4bgt92rcd13ifvqcg0","pricing_plan_id":"cebpf4jnsgd1na2vs0mg"},{"bike_id":"3bd41135-4eec-479e-9e8e-319f2054cf2f","system_id":"levelo_inurba_marseille","lat":43.31169,"lon":5.38713,"is_reserved":false,"is_disabled":false,"rental_uris":{"android":"levelo://app?vid=3bd41135-4eec-479e-9e8e-319f2054cf2f","ios":"levelo://app?vid=3bd41135-4eec-479e-9e8e-319f2054cf2f"},"vehicle_type_id":"4","last_reported":1733173714,"current_range_meters":24800,"station_id":"ce4bgv12rcd13ifvqcp0","pricing_plan_id":"cebpf4jnsgd1na2vs0mg"},{"bike_id":"763a15e5-5c0c-4db3-84a6-87cc9fff8ea4","system_id":"levelo_inurba_marseille","lat":43.279805,"lon":5.442257,"is_reserved":false,"is_disabled":false,"rental_uris":{"android":"levelo://app?vid=763a15e5-5c0c-4db3-84a6-87cc9fff8ea4","ios":"levelo://app?vid=763a15e5-5c0c-4db3-84a6-87cc9fff8ea4"},"vehicle_type_id":"4","last_reported":1733173714,"current_range_meters":21600,"station_id":"","pricing_plan_id":"cebpf4jnsgd1na2vs0mg"},{"bike_id":"d095855f-73cc-42bb-be93-fe22590221e0","system_id":"levelo_inurba_marseille","lat":43.30781,"lon":5.37662,"is_reserved":false,"is_disabled":false,"rental_uris":{"android":"levelo://app?vid=d095855f-73cc-42bb-be93-fe22590221e0","ios":"levelo://app?vid=d095855f-73cc-42bb-be93-fe22590221e0"},"vehicle_type_id":"4","last_reported":1733173714,"current_range_meters":37600,"station_id":"ce4bgv92rcd13ifvqcq0","pricing_plan_id":"cebpf4jnsgd1na2vs0mg"},{"bike_id":"0b7a5d71-bb71-4b7d-8b42-0ebfc1a18067","system_id":"levelo_inurba_marseille","lat":43.26939,"lon":5.38919,"is_reserved":false,"is_disabled":true,"rental_uris":{"android":"levelo://app?vid=0b7a5d71-bb71-4b7d-8b42-0ebfc1a18067","ios":"levelo://app?vid=0b7a5d71-bb71-4b7d-8b42-0ebfc1a18067"},"vehicle_type_id":"4","last_reported":1733173714,"current_range_meters":0,"station_id":"ce4bhhh2rcd13ifvqfl0","pricing_plan_id":"cebpf4jnsgd1na2vs0mg"},{"bike_id":"2855b41e-ffe6-45bb-92c0-b56b30fc022f","system_id":"levelo_inurba_marseille","lat":43.28455,"lon":5.35885,"is_reserved":false,"is_disabled":false,"rental_uris":{"android":"levelo://app?vid=2855b41e-ffe6-45bb-92c0-b56b30fc022f","ios":"levelo://app?vid=2855b41e-ffe6-45bb-92c0-b56b30fc022f"},"vehicle_type_id":"4","last_reported":1733173714,"current_range_meters":10000,"station_id":"ce4bhah2rcd13ifvqei0","pricing_plan_id":"cebpf4jnsgd1na2vs0mg"},{"bike_id":"453cf60e-1511-411a-96c0-aac394a3f132","system_id":"levelo_inurba_marseille","lat":43.31081,"lon":5.42428,"is_reserved":false,"is_disabled":false,"rental_uris":{"android":"levelo://app?vid=453cf60e-1511-411a-96c0-aac394a3f132","ios":"levelo://app?vid=453cf60e-1511-411a-96c0-aac394a3f132"},"vehicle_type_id":"4","last_reported":1733173714,"current_range_meters":38800,"station_id":"ce4bhp92rcd13ifvqhag","pricing_plan_id":"cebpf4jnsgd1na2vs0mg"},{"bike_id":"80253fe6-749c-48ad-be5c-a2c184e63c2b","system_id":"levelo_inurba_marseille","lat":43.31759,"lon":5.39018,"is_reserved":false,"is_disabled":false,"rental_uris":{"android":"levelo://app?vid=80253fe6-749c-48ad-be5c-a2c184e63c2b","ios":"levelo://app?vid=80253fe6-749c-48ad-be5c-a2c184e63c2b"},"vehicle_type_id":"4","last_reported":1733173714,"current_range_meters":38800,"station_id":"ce4bhqp2rcd13ifvqhng","pricing_plan_id":"cebpf4jnsgd1na2vs0mg"},{"bike_id":"24fdc168-ebb3-455e-9a84-fc7b79cc9f1c","system_id":"levelo_inurba_marseille","lat":43.29275,"lon":5.36853,"is_reserved":false,"is_disabled":true,"rental_uris":{"android":"levelo://app?vid=24fdc168-ebb3-455e-9a84-fc7b79cc9f1c","ios":"levelo://app?vid=24fdc168-ebb3-455e-9a84-fc7b79cc9f1c"},"vehicle_type_id":"4","last_reported":1733173714,"current_range_meters":25600,"station_id":"","pricing_plan_id":"cebpf4jnsgd1na2vs0mg"},{"bike_id":"9f34f0b1-5073-48c2-a6ec-45ea7811ab83","system_id":"levelo_inurba_marseille","lat":43.27934,"lon":5.41049,"is_reserved":false,"is_disabled":false,"rental_uris":{"android":"levelo://app?vid=9f34f0b1-5073-48c2-a6ec-45ea7811ab83","ios":"levelo://app?vid=9f34f0b1-5073-48c2-a6ec-45ea7811ab83"},"vehicle_type_id":"4","last_reported":1733173714,"current_range_meters":34800,"station_id":"ce4bhnp2rcd13ifvqh0g","pricing_plan_id":"cebpf4jnsgd1na2vs0mg"},{"bike_id":"56dea079-e1b1-4409-9a8d-109d8e40def4","system_id":"levelo_inurba_marseille","lat":43.31483,"lon":5.37307,"is_reserved":false,"is_disabled":false,"rental_uris":{"android":"levelo://app?vid=56dea079-e1b1-4409-9a8d-109d8e40def4","ios":"levelo://app?vid=56dea079-e1b1-4409-9a8d-109d8e40def4"},"vehicle_type_id":"4","last_reported":1733173714,"current_range_meters":38800,"station_id":"ce4bgt12rcd13ifvqcd0","pricing_plan_id":"cebpf4jnsgd1na2vs0mg"},{"bike_id":"1b29b174-eb5f-4f11-82c8-e1fea928625a","system_id":"levelo_inurba_marseille","lat":43.26936,"lon":5.4025,"is_reserved":false,"is_disabled":false,"rental_uris":{"android":"levelo://app?vid=1b29b174-eb5f-4f11-82c8-e1fea928625a","ios":"levelo://app?vid=1b29b174-eb5f-4f11-82c8-e1fea928625a"},"vehicle_type_id":"4","last_reported":1733173714,"current_range_meters":37600,"station_id":"cjm6bp8fraef2m0cb0m0","pricing_plan_id":"cebpf4jnsgd1na2vs0mg"},{"bike_id":"95f60bf8-91e0-4861-ba40-220672d1a64a","system_id":"levelo_inurba_marseille","lat":43.3133,"lon":5.37514,"is_reserved":false,"is_disabled":false,"rental_uris":{"android":"levelo://app?vid=95f60bf8-91e0-4861-ba40-220672d1a64a","ios":"levelo://app?vid=95f60bf8-91e0-4861-ba40-220672d1a64a"},"vehicle_type_id":"4","last_reported":1733173714,"current_range_meters":12000,"station_id":"","pricing_plan_id":"cebpf4jnsgd1na2vs0mg"},{"bike_id":"cdfe6590-4984-4014-86c8-6dd70747c27a","system_id":"levelo_inurba_marseille","lat":43.29748,"lon":5.37408,"is_reserved":false,"is_disabled":true,"rental_uris":{"android":"levelo://app?vid=cdfe6590-4984-4014-86c8-6dd70747c27a","ios":"levelo://app?vid=cdfe6590-4984-4014-86c8-6dd70747c27a"},"vehicle_type_id":"4","last_reported":1733173714,"current_range_meters":0,"station_id":"","pricing_plan_id":"cebpf4jnsgd1na2vs0mg"},{"bike_id":"05cecbbc-d928-48d6-bb9e-6db3f5e00983","system_id":"levelo_inurba_marseille","lat":43.23192,"lon":5.35546,"is_reserved":false,"is_disabled":false,"rental_uris":{"android":"levelo://app?vid=05cecbbc-d928-48d6-bb9e-6db3f5e00983","ios":"levelo://app?vid=05cecbbc-d928-48d6-bb9e-6db3f5e00983"},"vehicle_type_id":"4","last_reported":1733173714,"current_range_meters":37600,"station_id":"ce4bhu92rcd13ifvqi70","pricing_plan_id":"cebpf4jnsgd1na2vs0mg"},{"bike_id":"ec37755f-b4bd-46a4-a7ec-da33d8ff9ada","system_id":"levelo_inurba_marseille","lat":43.31374,"lon":5.38502,"is_reserved":false,"is_disabled":false,"rental_uris":{"android":"levelo://app?vid=ec37755f-b4bd-46a4-a7ec-da33d8ff9ada","ios":"levelo://app?vid=ec37755f-b4bd-46a4-a7ec-da33d8ff9ada"},"vehicle_type_id":"4","last_reported":1733173714,"current_range_meters":22800,"station_id":"ce4bgt92rcd13ifvqcf0","pricing_plan_id":"cebpf4jnsgd1na2vs0mg"},{"bike_id":"2d223975-18c1-4337-9b66-de44fe6788f3","system_id":"levelo_inurba_marseille","lat":43.30782,"lon":5.37657,"is_reserved":false,"is_disabled":true,"rental_uris":{"android":"levelo://app?vid=2d223975-18c1-4337-9b66-de44fe6788f3","ios":"levelo://app?vid=2d223975-18c1-4337-9b66-de44fe6788f3"},"vehicle_type_id":"4","last_reported":1733173714,"current_range_meters":0,"station_id":"","pricing_plan_id":"cebpf4jnsgd1na2vs0mg"},{"bike_id":"36142e23-8ff6-4096-ad19-b039c8156b69","system_id":"levelo_inurba_marseille","lat":43.28655,"lon":5.3636,"is_reserved":false,"is_disabled":true,"rental_uris":{"android":"levelo://app?vid=36142e23-8ff6-4096-ad19-b039c8156b69","ios":"levelo://app?vid=36142e23-8ff6-4096-ad19-b039c8156b69"},"vehicle_type_id":"4","last_reported":1733173714,"current_range_meters":35600,"station_id":"ce4bhah2rcd13ifvqej0","pricing_plan_id":"cebpf4jnsgd1na2vs0mg"},{"bike_id":"3e762295-e52d-483f-8654-ca00b8495b74","system_id":"levelo_inurba_marseille","lat":43.27439,"lon":5.40717,"is_reserved":false,"is_disabled":false,"rental_uris":{"android":"levelo://app?vid=3e762295-e52d-483f-8654-ca00b8495b74","ios":"levelo://app?vid=3e762295-e52d-483f-8654-ca00b8495b74"},"vehicle_type_id":"4","last_reported":1733173714,"current_range_meters":10800,"station_id":"","pricing_plan_id":"cebpf4jnsgd1na2vs0mg"},{"bike_id":"e0449ad3-6fa0-4664-b0f3-6ea1dced967e","system_id":"levelo_inurba_marseille","lat":43.28151,"lon":5.42637,"is_reserved":false,"is_disabled":true,"rental_uris":{"android":"levelo://app?vid=e0449ad3-6fa0-4664-b0f3-6ea1dced967e","ios":"levelo://app?vid=e0449ad3-6fa0-4664-b0f3-6ea1dced967e"},"vehicle_type_id":"4","last_reported":1733173714,"current_range_meters":24000,"station_id":"ce4bhnh2rcd13ifvqgug","pricing_plan_id":"cebpf4jnsgd1na2vs0mg"},{"bike_id":"4c3fb316-febe-4764-b0a1-d58fd67e3e9a","system_id":"levelo_inurba_marseille","lat":43.28187,"lon":5.38287,"is_reserved":false,"is_disabled":true,"rental_uris":{"android":"levelo://app?vid=4c3fb316-febe-4764-b0a1-d58fd67e3e9a","ios":"levelo://app?vid=4c3fb316-febe-4764-b0a1-d58fd67e3e9a"},"vehicle_type_id":"4","last_reported":1733173714,"current_range_meters":29600,"station_id":"","pricing_plan_id":"cebpf4jnsgd1na2vs0mg"},{"bike_id":"987a5ab4-d60c-480c-94b6-7cab38975402","system_id":"levelo_inurba_marseille","lat":43.29748,"lon":5.37971,"is_reserved":false,"is_disabled":true,"rental_uris":{"android":"levelo://app?vid=987a5ab4-d60c-480c-94b6-7cab38975402","ios":"levelo://app?vid=987a5ab4-d60c-480c-94b6-7cab38975402"},"vehicle_type_id":"4","last_reported":1733173714,"current_range_meters":0,"station_id":"","pricing_plan_id":"cebpf4jnsgd1na2vs0mg"},{"bike_id":"c971ede0-41c7-461a-bc29-ae50a8251821","system_id":"levelo_inurba_marseille","lat":43.32296,"lon":5.38265,"is_reserved":false,"is_disabled":false,"rental_uris":{"android":"levelo://app?vid=c971ede0-41c7-461a-bc29-ae50a8251821","ios":"levelo://app?vid=c971ede0-41c7-461a-bc29-ae50a8251821"},"vehicle_type_id":"4","last_reported":1733173714,"current_range_meters":17200,"station_id":"ce4bhr12rcd13ifvqhqg","pricing_plan_id":"cebpf4jnsgd1na2vs0mg"},{"bike_id":"2c4596ad-0ad9-4016-b92b-0093349de2b4","system_id":"levelo_inurba_marseille","lat":43.30724,"lon":5.3824,"is_reserved":false,"is_disabled":true,"rental_uris":{"android":"levelo://app?vid=2c4596ad-0ad9-4016-b92b-0093349de2b4","ios":"levelo://app?vid=2c4596ad-0ad9-4016-b92b-0093349de2b4"},"vehicle_type_id":"4","last_reported":1733173714,"current_range_meters":0,"station_id":"","pricing_plan_id":"cebpf4jnsgd1na2vs0mg"},{"bike_id":"bd2a3f44-48f5-4a9c-8e1c-fb919a93d5ef","system_id":"levelo_inurba_marseille","lat":43.24393,"lon":5.37057,"is_reserved":false,"is_disabled":false,"rental_uris":{"android":"levelo://app?vid=bd2a3f44-48f5-4a9c-8e1c-fb919a93d5ef","ios":"levelo://app?vid=bd2a3f44-48f5-4a9c-8e1c-fb919a93d5ef"},"vehicle_type_id":"4","last_reported":1733173714,"current_range_meters":22800,"station_id":"ce4bhhh2rcd13ifvqfk0","pricing_plan_id":"cebpf4jnsgd1na2vs0mg"},{"bike_id":"1f28300c-d8be-4d08-b5ea-d3aadf1e301d","system_id":"levelo_inurba_marseille","lat":43.26248,"lon":5.42103,"is_reserved":false,"is_disabled":false,"rental_uris":{"android":"levelo://app?vid=1f28300c-d8be-4d08-b5ea-d3aadf1e301d","ios":"levelo://app?vid=1f28300c-d8be-4d08-b5ea-d3aadf1e301d"},"vehicle_type_id":"4","last_reported":1733173714,"current_range_meters":22400,"station_id":"","pricing_plan_id":"cebpf4jnsgd1na2vs0mg"},{"bike_id":"b7ab8c01-033f-4395-8276-23c850ad3d02","system_id":"levelo_inurba_marseille","lat":43.3034,"lon":5.36579,"is_reserved":false,"is_disabled":true,"rental_uris":{"android":"levelo://app?vid=b7ab8c01-033f-4395-8276-23c850ad3d02","ios":"levelo://app?vid=b7ab8c01-033f-4395-8276-23c850ad3d02"},"vehicle_type_id":"4","last_reported":1733173714,"current_range_meters":0,"station_id":"","pricing_plan_id":"cebpf4jnsgd1na2vs0mg"},{"bike_id":"69e9fcad-1ca9-4bfe-ba99-c5967738f4e3","system_id":"levelo_inurba_marseille","lat":43.29879,"lon":5.38911,"is_reserved":false,"is_disabled":false,"rental_uris":{"android":"levelo://app?vid=69e9fcad-1ca9-4bfe-ba99-c5967738f4e3","ios":"levelo://app?vid=69e9fcad-1ca9-4bfe-ba99-c5967738f4e3"},"vehicle_type_id":"4","last_reported":1733173714,"current_range_meters":30000,"station_id":"ce4bh392rcd13ifvqdl0","pricing_plan_id":"cebpf4jnsgd1na2vs0mg"},{"bike_id":"f8fea99a-4e52-4b17-93f0-008530739965","system_id":"levelo_inurba_marseille","lat":43.26058,"lon":5.39398,"is_reserved":false,"is_disabled":false,"rental_uris":{"android":"levelo://app?vid=f8fea99a-4e52-4b17-93f0-008530739965","ios":"levelo://app?vid=f8fea99a-4e52-4b17-93f0-008530739965"},"vehicle_type_id":"4","last_reported":1733173714,"current_range_meters":10800,"station_id":"ce4bhh92rcd13ifvqfj0","pricing_plan_id":"cebpf4jnsgd1na2vs0mg"},{"bike_id":"4c1f4d35-89df-4abc-bb7d-02cc1be67725","system_id":"levelo_inurba_marseille","lat":43.23189,"lon":5.39988,"is_reserved":false,"is_disabled":false,"rental_uris":{"android":"levelo://app?vid=4c1f4d35-89df-4abc-bb7d-02cc1be67725","ios":"levelo://app?vid=4c1f4d35-89df-4abc-bb7d-02cc1be67725"},"vehicle_type_id":"4","last_reported":1733173714,"current_range_meters":38800,"station_id":"ce4bhn12rcd13ifvqgqg","pricing_plan_id":"cebpf4jnsgd1na2vs0mg"},{"bike_id":"a31d5e4b-a624-468c-b065-3a9db13ea214","system_id":"levelo_inurba_marseille","lat":43.29012,"lon":5.3562,"is_reserved":false,"is_disabled":false,"rental_uris":{"android":"levelo://app?vid=a31d5e4b-a624-468c-b065-3a9db13ea214","ios":"levelo://app?vid=a31d5e4b-a624-468c-b065-3a9db13ea214"},"vehicle_type_id":"4","last_reported":1733173714,"current_range_meters":38400,"station_id":"ce4bhb92rcd13ifvqen0","pricing_plan_id":"cebpf4jnsgd1na2vs0mg"},{"bike_id":"6b2b901e-5d96-4afc-b9a5-a7594ae72748","system_id":"levelo_inurba_marseille","lat":43.27277,"lon":5.39192,"is_reserved":false,"is_disabled":true,"rental_uris":{"android":"levelo://app?vid=6b2b901e-5d96-4afc-b9a5-a7594ae72748","ios":"levelo://app?vid=6b2b901e-5d96-4afc-b9a5-a7594ae72748"},"vehicle_type_id":"4","last_reported":1733173714,"current_range_meters":0,"station_id":"","pricing_plan_id":"cebpf4jnsgd1na2vs0mg"},{"bike_id":"b710c14a-2e98-462b-810e-03485af8d835","system_id":"levelo_inurba_marseille","lat":43.30641,"lon":5.40093,"is_reserved":false,"is_disabled":false,"rental_uris":{"android":"levelo://app?vid=b710c14a-2e98-462b-810e-03485af8d835","ios":"levelo://app?vid=b710c14a-2e98-462b-810e-03485af8d835"},"vehicle_type_id":"4","last_reported":1733173714,"current_range_meters":30800,"station_id":"ce4bh112rcd13ifvqda0","pricing_plan_id":"cebpf4jnsgd1na2vs0mg"},{"bike_id":"acec1224-6645-43f5-af04-14ed0b3b0954","system_id":"levelo_inurba_marseille","lat":43.26685,"lon":5.3827,"is_reserved":false,"is_disabled":false,"rental_uris":{"android":"levelo://app?vid=acec1224-6645-43f5-af04-14ed0b3b0954","ios":"levelo://app?vid=acec1224-6645-43f5-af04-14ed0b3b0954"},"vehicle_type_id":"4","last_reported":1733173714,"current_range_meters":32000,"station_id":"ce4bhg92rcd13ifvqf90","pricing_plan_id":"cebpf4jnsgd1na2vs0mg"},{"bike_id":"52dc60e8-593a-4919-9fa2-6ff28a9f8e54","system_id":"levelo_inurba_marseille","lat":43.3078,"lon":5.37656,"is_reserved":false,"is_disabled":false,"rental_uris":{"android":"levelo://app?vid=52dc60e8-593a-4919-9fa2-6ff28a9f8e54","ios":"levelo://app?vid=52dc60e8-593a-4919-9fa2-6ff28a9f8e54"},"vehicle_type_id":"4","last_reported":1733173714,"current_range_meters":33200,"station_id":"ce4bgv92rcd13ifvqcq0","pricing_plan_id":"cebpf4jnsgd1na2vs0mg"},{"bike_id":"6cc6805f-c0ca-4585-bdf1-b5a0339762b0","system_id":"levelo_inurba_marseille","lat":43.29012,"lon":5.42791,"is_reserved":false,"is_disabled":false,"rental_uris":{"android":"levelo://app?vid=6cc6805f-c0ca-4585-bdf1-b5a0339762b0","ios":"levelo://app?vid=6cc6805f-c0ca-4585-bdf1-b5a0339762b0"},"vehicle_type_id":"4","last_reported":1733173714,"current_range_meters":7200,"station_id":"","pricing_plan_id":"cebpf4jnsgd1na2vs0mg"},{"bike_id":"bf2dddfd-fcac-4ab9-9900-0783b7dfc160","system_id":"levelo_inurba_marseille","lat":43.28614,"lon":5.35102,"is_reserved":false,"is_disabled":false,"rental_uris":{"android":"levelo://app?vid=bf2dddfd-fcac-4ab9-9900-0783b7dfc160","ios":"levelo://app?vid=bf2dddfd-fcac-4ab9-9900-0783b7dfc160"},"vehicle_type_id":"4","last_reported":1733173714,"current_range_meters":17600,"station_id":"ce4bhch2rcd13ifvqeug","pricing_plan_id":"cebpf4jnsgd1na2vs0mg"},{"bike_id":"1e21ee7c-ab02-4877-817e-5d83de000297","system_id":"levelo_inurba_marseille","lat":43.30906,"lon":5.36855,"is_reserved":false,"is_disabled":true,"rental_uris":{"android":"levelo://app?vid=1e21ee7c-ab02-4877-817e-5d83de000297","ios":"levelo://app?vid=1e21ee7c-ab02-4877-817e-5d83de000297"},"vehicle_type_id":"4","last_reported":1733173714,"current_range_meters":38800,"station_id":"ce4bgn92rcd13ifvqbvg","pricing_plan_id":"cebpf4jnsgd1na2vs0mg"},{"bike_id":"8d1c8b92-79bb-4181-b0d2-5e94db1a14d0","system_id":"levelo_inurba_marseille","lat":43.30008,"lon":5.38288,"is_reserved":false,"is_disabled":true,"rental_uris":{"android":"levelo://app?vid=8d1c8b92-79bb-4181-b0d2-5e94db1a14d0","ios":"levelo://app?vid=8d1c8b92-79bb-4181-b0d2-5e94db1a14d0"},"vehicle_type_id":"4","last_reported":1733173714,"current_range_meters":0,"station_id":"","pricing_plan_id":"cebpf4jnsgd1na2vs0mg"},{"bike_id":"b393e343-ccc2-4e09-a3d5-b33fb6d87dbf","system_id":"levelo_inurba_marseille","lat":43.30136,"lon":5.38777,"is_reserved":false,"is_disabled":true,"rental_uris":{"android":"levelo://app?vid=b393e343-ccc2-4e09-a3d5-b33fb6d87dbf","ios":"levelo://app?vid=b393e343-ccc2-4e09-a3d5-b33fb6d87dbf"},"vehicle_type_id":"4","last_reported":1733173714,"current_range_meters":32000,"station_id":"ce4bghh2rcd13ifvqb60","pricing_plan_id":"cebpf4jnsgd1na2vs0mg"},{"bike_id":"ad09f950-afd5-4140-abf4-b95980cf37a5","system_id":"levelo_inurba_marseille","lat":43.27904,"lon":5.38015,"is_reserved":false,"is_disabled":false,"rental_uris":{"android":"levelo://app?vid=ad09f950-afd5-4140-abf4-b95980cf37a5","ios":"levelo://app?vid=ad09f950-afd5-4140-abf4-b95980cf37a5"},"vehicle_type_id":"4","last_reported":1733173714,"current_range_meters":35600,"station_id":"ce4bhf92rcd13ifvqf50","pricing_plan_id":"cebpf4jnsgd1na2vs0mg"},{"bike_id":"e6efd8d3-87c6-4c03-98ac-b1f7b6939daa","system_id":"levelo_inurba_marseille","lat":43.29981,"lon":5.37176,"is_reserved":false,"is_disabled":false,"rental_uris":{"android":"levelo://app?vid=e6efd8d3-87c6-4c03-98ac-b1f7b6939daa","ios":"levelo://app?vid=e6efd8d3-87c6-4c03-98ac-b1f7b6939daa"},"vehicle_type_id":"4","last_reported":1733173714,"current_range_meters":36400,"station_id":"ce4bgr92rcd13ifvqc7g","pricing_plan_id":"cebpf4jnsgd1na2vs0mg"},{"bike_id":"66af6c49-242f-463e-a9fa-e038221766e6","system_id":"levelo_inurba_marseille","lat":43.29549,"lon":5.42282,"is_reserved":false,"is_disabled":false,"rental_uris":{"android":"levelo://app?vid=66af6c49-242f-463e-a9fa-e038221766e6","ios":"levelo://app?vid=66af6c49-242f-463e-a9fa-e038221766e6"},"vehicle_type_id":"4","last_reported":1733173714,"current_range_meters":39200,"station_id":"ce4bhph2rcd13ifvqhdg","pricing_plan_id":"cebpf4jnsgd1na2vs0mg"},{"bike_id":"137d4891-e5e1-4cf6-a564-8f0b03ffad3a","system_id":"levelo_inurba_marseille","lat":43.2707,"lon":5.42279,"is_reserved":false,"is_disabled":false,"rental_uris":{"android":"levelo://app?vid=137d4891-e5e1-4cf6-a564-8f0b03ffad3a","ios":"levelo://app?vid=137d4891-e5e1-4cf6-a564-8f0b03ffad3a"},"vehicle_type_id":"4","last_reported":1733173714,"current_range_meters":22400,"station_id":"ce4bhk92rcd13ifvqgb0","pricing_plan_id":"cebpf4jnsgd1na2vs0mg"},{"bike_id":"a617e044-2beb-44d6-a1b9-0d089a160289","system_id":"levelo_inurba_marseille","lat":43.29843,"lon":5.3627,"is_reserved":false,"is_disabled":true,"rental_uris":{"android":"levelo://app?vid=a617e044-2beb-44d6-a1b9-0d089a160289","ios":"levelo://app?vid=a617e044-2beb-44d6-a1b9-0d089a160289"},"vehicle_type_id":"4","last_reported":1733173714,"current_range_meters":37600,"station_id":"ce4bgpp2rcd13ifvqc3g","pricing_plan_id":"cebpf4jnsgd1na2vs0mg"},{"bike_id":"d39cc680-1e4e-4656-be5e-2e76a870957f","system_id":"levelo_inurba_marseille","lat":43.27903,"lon":5.38017,"is_reserved":false,"is_disabled":false,"rental_uris":{"android":"levelo://app?vid=d39cc680-1e4e-4656-be5e-2e76a870957f","ios":"levelo://app?vid=d39cc680-1e4e-4656-be5e-2e76a870957f"},"vehicle_type_id":"4","last_reported":1733173714,"current_range_meters":35600,"station_id":"ce4bhf92rcd13ifvqf50","pricing_plan_id":"cebpf4jnsgd1na2vs0mg"},{"bike_id":"45891de7-8812-4ec2-a7c4-56ca81dd5332","system_id":"levelo_inurba_marseille","lat":43.23062,"lon":5.3549,"is_reserved":false,"is_disabled":false,"rental_uris":{"android":"levelo://app?vid=45891de7-8812-4ec2-a7c4-56ca81dd5332","ios":"levelo://app?vid=45891de7-8812-4ec2-a7c4-56ca81dd5332"},"vehicle_type_id":"4","last_reported":1733173714,"current_range_meters":27200,"station_id":"cpo3342slgdg3j2ifvpg","pricing_plan_id":"cebpf4jnsgd1na2vs0mg"},{"bike_id":"a79d3deb-4fb8-4e3e-8555-dfa46134ae86","system_id":"levelo_inurba_marseille","lat":43.28028,"lon":5.36948,"is_reserved":false,"is_disabled":false,"rental_uris":{"android":"levelo://app?vid=a79d3deb-4fb8-4e3e-8555-dfa46134ae86","ios":"levelo://app?vid=a79d3deb-4fb8-4e3e-8555-dfa46134ae86"},"vehicle_type_id":"4","last_reported":1733173714,"current_range_meters":38800,"station_id":"ce4bha12rcd13ifvqef0","pricing_plan_id":"cebpf4jnsgd1na2vs0mg"},{"bike_id":"b4e778b4-c647-4bdc-a0b7-36717499c9fd","system_id":"levelo_inurba_marseille","lat":43.29554,"lon":5.42286,"is_reserved":false,"is_disabled":false,"rental_uris":{"android":"levelo://app?vid=b4e778b4-c647-4bdc-a0b7-36717499c9fd","ios":"levelo://app?vid=b4e778b4-c647-4bdc-a0b7-36717499c9fd"},"vehicle_type_id":"4","last_reported":1733173714,"current_range_meters":17200,"station_id":"ce4bhph2rcd13ifvqhdg","pricing_plan_id":"cebpf4jnsgd1na2vs0mg"},{"bike_id":"8da4feef-1a3b-4a00-a2cc-f5f49fa81912","system_id":"levelo_inurba_marseille","lat":43.30426,"lon":5.39752,"is_reserved":false,"is_disabled":false,"rental_uris":{"android":"levelo://app?vid=8da4feef-1a3b-4a00-a2cc-f5f49fa81912","ios":"levelo://app?vid=8da4feef-1a3b-4a00-a2cc-f5f49fa81912"},"vehicle_type_id":"4","last_reported":1733173714,"current_range_meters":28000,"station_id":"ce4bh092rcd13ifvqd20","pricing_plan_id":"cebpf4jnsgd1na2vs0mg"},{"bike_id":"502a96ab-17c2-4054-85b0-d3158c661de7","system_id":"levelo_inurba_marseille","lat":43.29201,"lon":5.39331,"is_reserved":false,"is_disabled":true,"rental_uris":{"android":"levelo://app?vid=502a96ab-17c2-4054-85b0-d3158c661de7","ios":"levelo://app?vid=502a96ab-17c2-4054-85b0-d3158c661de7"},"vehicle_type_id":"4","last_reported":1733173714,"current_range_meters":17200,"station_id":"ce4bh192rcd13ifvqdd0","pricing_plan_id":"cebpf4jnsgd1na2vs0mg"},{"bike_id":"f78a695f-1e51-496d-a80d-f5757164d6e4","system_id":"levelo_inurba_marseille","lat":43.26681,"lon":5.3827,"is_reserved":false,"is_disabled":true,"rental_uris":{"android":"levelo://app?vid=f78a695f-1e51-496d-a80d-f5757164d6e4","ios":"levelo://app?vid=f78a695f-1e51-496d-a80d-f5757164d6e4"},"vehicle_type_id":"4","last_reported":1733173714,"current_range_meters":38800,"station_id":"ce4bhg92rcd13ifvqf90","pricing_plan_id":"cebpf4jnsgd1na2vs0mg"},{"bike_id":"bf7228a5-2b2e-4b97-85ea-62d84a335011","system_id":"levelo_inurba_marseille","lat":43.31887,"lon":5.40731,"is_reserved":false,"is_disabled":false,"rental_uris":{"android":"levelo://app?vid=bf7228a5-2b2e-4b97-85ea-62d84a335011","ios":"levelo://app?vid=bf7228a5-2b2e-4b97-85ea-62d84a335011"},"vehicle_type_id":"4","last_reported":1733173714,"current_range_meters":38800,"station_id":"ce4bhq12rcd13ifvqhig","pricing_plan_id":"cebpf4jnsgd1na2vs0mg"},{"bike_id":"4b54414e-2b4f-40c6-bf85-19bf6f8ab34a","system_id":"levelo_inurba_marseille","lat":43.29515,"lon":5.39408,"is_reserved":false,"is_disabled":false,"rental_uris":{"android":"levelo://app?vid=4b54414e-2b4f-40c6-bf85-19bf6f8ab34a","ios":"levelo://app?vid=4b54414e-2b4f-40c6-bf85-19bf6f8ab34a"},"vehicle_type_id":"4","last_reported":1733173714,"current_range_meters":34000,"station_id":"ce4bh292rcd13ifvqdf0","pricing_plan_id":"cebpf4jnsgd1na2vs0mg"},{"bike_id":"30f453f9-56e7-4c8c-b66c-1731358ac021","system_id":"levelo_inurba_marseille","lat":43.31326,"lon":5.39713,"is_reserved":false,"is_disabled":false,"rental_uris":{"android":"levelo://app?vid=30f453f9-56e7-4c8c-b66c-1731358ac021","ios":"levelo://app?vid=30f453f9-56e7-4c8c-b66c-1731358ac021"},"vehicle_type_id":"4","last_reported":1733173714,"current_range_meters":9600,"station_id":"ce4bgvp2rcd13ifvqcu0","pricing_plan_id":"cebpf4jnsgd1na2vs0mg"},{"bike_id":"74c76619-c714-481a-8022-d9fb55aa228e","system_id":"levelo_inurba_marseille","lat":43.25114,"lon":5.40318,"is_reserved":false,"is_disabled":false,"rental_uris":{"android":"levelo://app?vid=74c76619-c714-481a-8022-d9fb55aa228e","ios":"levelo://app?vid=74c76619-c714-481a-8022-d9fb55aa228e"},"vehicle_type_id":"4","last_reported":1733173714,"current_range_meters":38400,"station_id":"ce4bhlh2rcd13ifvqgig","pricing_plan_id":"cebpf4jnsgd1na2vs0mg"},{"bike_id":"65c78c58-8c0d-434a-bdb2-7571d40e1b57","system_id":"levelo_inurba_marseille","lat":43.31283,"lon":5.4018,"is_reserved":false,"is_disabled":false,"rental_uris":{"android":"levelo://app?vid=65c78c58-8c0d-434a-bdb2-7571d40e1b57","ios":"levelo://app?vid=65c78c58-8c0d-434a-bdb2-7571d40e1b57"},"vehicle_type_id":"4","last_reported":1733173714,"current_range_meters":38800,"station_id":"ce4bh092rcd13ifvqd30","pricing_plan_id":"cebpf4jnsgd1na2vs0mg"},{"bike_id":"548311ed-3865-44d8-8efd-814327e0f126","system_id":"levelo_inurba_marseille","lat":43.28678,"lon":5.37389,"is_reserved":false,"is_disabled":false,"rental_uris":{"android":"levelo://app?vid=548311ed-3865-44d8-8efd-814327e0f126","ios":"levelo://app?vid=548311ed-3865-44d8-8efd-814327e0f126"},"vehicle_type_id":"4","last_reported":1733173714,"current_range_meters":8400,"station_id":"ce4bh3p2rcd13ifvqdq0","pricing_plan_id":"cebpf4jnsgd1na2vs0mg"},{"bike_id":"738f9773-8f40-49da-abb3-8ec8cc729567","system_id":"levelo_inurba_marseille","lat":43.31732,"lon":5.42397,"is_reserved":false,"is_disabled":true,"rental_uris":{"android":"levelo://app?vid=738f9773-8f40-49da-abb3-8ec8cc729567","ios":"levelo://app?vid=738f9773-8f40-49da-abb3-8ec8cc729567"},"vehicle_type_id":"4","last_reported":1733173714,"current_range_meters":0,"station_id":"ce4bhp92rcd13ifvqhbg","pricing_plan_id":"cebpf4jnsgd1na2vs0mg"},{"bike_id":"fdd60b63-eff3-4d39-90e4-741a6608f6f2","system_id":"levelo_inurba_marseille","lat":43.28434,"lon":5.39194,"is_reserved":false,"is_disabled":false,"rental_uris":{"android":"levelo://app?vid=fdd60b63-eff3-4d39-90e4-741a6608f6f2","ios":"levelo://app?vid=fdd60b63-eff3-4d39-90e4-741a6608f6f2"},"vehicle_type_id":"4","last_reported":1733173714,"current_range_meters":39200,"station_id":"ce4bhoh2rcd13ifvqh5g","pricing_plan_id":"cebpf4jnsgd1na2vs0mg"},{"bike_id":"1ad1c1c4-5d06-4d0c-af90-58e0b45a7218","system_id":"levelo_inurba_marseille","lat":43.2792,"lon":5.39571,"is_reserved":false,"is_disabled":false,"rental_uris":{"android":"levelo://app?vid=1ad1c1c4-5d06-4d0c-af90-58e0b45a7218","ios":"levelo://app?vid=1ad1c1c4-5d06-4d0c-af90-58e0b45a7218"},"vehicle_type_id":"4","last_reported":1733173714,"current_range_meters":38800,"station_id":"ce4bhf92rcd13ifvqf40","pricing_plan_id":"cebpf4jnsgd1na2vs0mg"},{"bike_id":"9c77a68d-2e99-44e9-b903-950fb6644d35","system_id":"levelo_inurba_marseille","lat":43.25282,"lon":5.39456,"is_reserved":false,"is_disabled":true,"rental_uris":{"android":"levelo://app?vid=9c77a68d-2e99-44e9-b903-950fb6644d35","ios":"levelo://app?vid=9c77a68d-2e99-44e9-b903-950fb6644d35"},"vehicle_type_id":"4","last_reported":1733173714,"current_range_meters":0,"station_id":"","pricing_plan_id":"cebpf4jnsgd1na2vs0mg"},{"bike_id":"518691a5-448b-4ddf-b764-1a35b42e3659","system_id":"levelo_inurba_marseille","lat":43.25861,"lon":5.39899,"is_reserved":false,"is_disabled":false,"rental_uris":{"android":"levelo://app?vid=518691a5-448b-4ddf-b764-1a35b42e3659","ios":"levelo://app?vid=518691a5-448b-4ddf-b764-1a35b42e3659"},"vehicle_type_id":"4","last_reported":1733173714,"current_range_meters":38800,"station_id":"ce4bhl92rcd13ifvqghg","pricing_plan_id":"cebpf4jnsgd1na2vs0mg"},{"bike_id":"17eff935-01ac-47dd-9483-024bd18a81c2","system_id":"levelo_inurba_marseille","lat":43.28371,"lon":5.38636,"is_reserved":false,"is_disabled":false,"rental_uris":{"android":"levelo://app?vid=17eff935-01ac-47dd-9483-024bd18a81c2","ios":"levelo://app?vid=17eff935-01ac-47dd-9483-024bd18a81c2"},"vehicle_type_id":"4","last_reported":1733173714,"current_range_meters":30400,"station_id":"ce4bh492rcd13ifvqdvg","pricing_plan_id":"cebpf4jnsgd1na2vs0mg"},{"bike_id":"d343be82-d45b-4580-9267-ab2a574eac02","system_id":"levelo_inurba_marseille","lat":43.30796,"lon":5.43532,"is_reserved":false,"is_disabled":true,"rental_uris":{"android":"levelo://app?vid=d343be82-d45b-4580-9267-ab2a574eac02","ios":"levelo://app?vid=d343be82-d45b-4580-9267-ab2a574eac02"},"vehicle_type_id":"4","last_reported":1733173714,"current_range_meters":400,"station_id":"ce4bhph2rcd13ifvqheg","pricing_plan_id":"cebpf4jnsgd1na2vs0mg"},{"bike_id":"60cff7d7-5d38-48eb-90b8-2917b64cc732","system_id":"levelo_inurba_marseille","lat":43.30885,"lon":5.39657,"is_reserved":false,"is_disabled":false,"rental_uris":{"android":"levelo://app?vid=60cff7d7-5d38-48eb-90b8-2917b64cc732","ios":"levelo://app?vid=60cff7d7-5d38-48eb-90b8-2917b64cc732"},"vehicle_type_id":"4","last_reported":1733173714,"current_range_meters":38000,"station_id":"ce4bh012rcd13ifvqcv0","pricing_plan_id":"cebpf4jnsgd1na2vs0mg"},{"bike_id":"b506175b-e3b3-4ff6-94de-89fbcaee662e","system_id":"levelo_inurba_marseille","lat":43.30848,"lon":5.38176,"is_reserved":false,"is_disabled":false,"rental_uris":{"android":"levelo://app?vid=b506175b-e3b3-4ff6-94de-89fbcaee662e","ios":"levelo://app?vid=b506175b-e3b3-4ff6-94de-89fbcaee662e"},"vehicle_type_id":"4","last_reported":1733173714,"current_range_meters":18800,"station_id":"","pricing_plan_id":"cebpf4jnsgd1na2vs0mg"},{"bike_id":"4ea402f6-45b0-4846-84f5-29270e62c818","system_id":"levelo_inurba_marseille","lat":43.30834,"lon":5.37398,"is_reserved":false,"is_disabled":true,"rental_uris":{"android":"levelo://app?vid=4ea402f6-45b0-4846-84f5-29270e62c818","ios":"levelo://app?vid=4ea402f6-45b0-4846-84f5-29270e62c818"},"vehicle_type_id":"4","last_reported":1733173714,"current_range_meters":0,"station_id":"","pricing_plan_id":"cebpf4jnsgd1na2vs0mg"},{"bike_id":"83985555-c848-4b28-808f-8a7e7cf8519e","system_id":"levelo_inurba_marseille","lat":43.2811,"lon":5.4417,"is_reserved":false,"is_disabled":true,"rental_uris":{"android":"levelo://app?vid=83985555-c848-4b28-808f-8a7e7cf8519e","ios":"levelo://app?vid=83985555-c848-4b28-808f-8a7e7cf8519e"},"vehicle_type_id":"4","last_reported":1733173714,"current_range_meters":0,"station_id":"","pricing_plan_id":"cebpf4jnsgd1na2vs0mg"},{"bike_id":"d04f494c-42f0-47c3-a575-b3bf9af2afb9","system_id":"levelo_inurba_marseille","lat":43.29419,"lon":5.38628,"is_reserved":false,"is_disabled":false,"rental_uris":{"android":"levelo://app?vid=d04f494c-42f0-47c3-a575-b3bf9af2afb9","ios":"levelo://app?vid=d04f494c-42f0-47c3-a575-b3bf9af2afb9"},"vehicle_type_id":"4","last_reported":1733173714,"current_range_meters":38800,"station_id":"ce4bh2h2rcd13ifvqdh0","pricing_plan_id":"cebpf4jnsgd1na2vs0mg"},{"bike_id":"b69a7ec6-3d5e-4d55-a341-f036a915ecb1","system_id":"levelo_inurba_marseille","lat":43.29704,"lon":5.36611,"is_reserved":false,"is_disabled":false,"rental_uris":{"android":"levelo://app?vid=b69a7ec6-3d5e-4d55-a341-f036a915ecb1","ios":"levelo://app?vid=b69a7ec6-3d5e-4d55-a341-f036a915ecb1"},"vehicle_type_id":"4","last_reported":1733173714,"current_range_meters":36400,"station_id":"ce4bgn12rcd13ifvqbt0","pricing_plan_id":"cebpf4jnsgd1na2vs0mg"},{"bike_id":"4f5e55ea-1124-4dd0-8efa-8ecf5c9aca9e","system_id":"levelo_inurba_marseille","lat":43.32284,"lon":5.38269,"is_reserved":false,"is_disabled":false,"rental_uris":{"android":"levelo://app?vid=4f5e55ea-1124-4dd0-8efa-8ecf5c9aca9e","ios":"levelo://app?vid=4f5e55ea-1124-4dd0-8efa-8ecf5c9aca9e"},"vehicle_type_id":"4","last_reported":1733173714,"current_range_meters":39200,"station_id":"ce4bhr12rcd13ifvqhqg","pricing_plan_id":"cebpf4jnsgd1na2vs0mg"},{"bike_id":"a35cd35e-5802-44a2-b8a5-9c9fd89de4da","system_id":"levelo_inurba_marseille","lat":43.29712,"lon":5.36612,"is_reserved":false,"is_disabled":false,"rental_uris":{"android":"levelo://app?vid=a35cd35e-5802-44a2-b8a5-9c9fd89de4da","ios":"levelo://app?vid=a35cd35e-5802-44a2-b8a5-9c9fd89de4da"},"vehicle_type_id":"4","last_reported":1733173714,"current_range_meters":30400,"station_id":"ce4bgn12rcd13ifvqbt0","pricing_plan_id":"cebpf4jnsgd1na2vs0mg"},{"bike_id":"941eeae1-8936-4a86-b31a-ea87d84b2048","system_id":"levelo_inurba_marseille","lat":43.28061,"lon":5.35632,"is_reserved":false,"is_disabled":false,"rental_uris":{"android":"levelo://app?vid=941eeae1-8936-4a86-b31a-ea87d84b2048","ios":"levelo://app?vid=941eeae1-8936-4a86-b31a-ea87d84b2048"},"vehicle_type_id":"4","last_reported":1733173714,"current_range_meters":9600,"station_id":"","pricing_plan_id":"cebpf4jnsgd1na2vs0mg"},{"bike_id":"fbf196aa-b1d3-4543-a4a3-ba949cee7fd8","system_id":"levelo_inurba_marseille","lat":43.27183,"lon":5.40991,"is_reserved":false,"is_disabled":false,"rental_uris":{"android":"levelo://app?vid=fbf196aa-b1d3-4543-a4a3-ba949cee7fd8","ios":"levelo://app?vid=fbf196aa-b1d3-4543-a4a3-ba949cee7fd8"},"vehicle_type_id":"4","last_reported":1733173714,"current_range_meters":38800,"station_id":"ce4bhl12rcd13ifvqgf0","pricing_plan_id":"cebpf4jnsgd1na2vs0mg"},{"bike_id":"1176e033-efc4-474e-af61-8d3a0d5f5ccf","system_id":"levelo_inurba_marseille","lat":43.25886,"lon":5.39954,"is_reserved":false,"is_disabled":true,"rental_uris":{"android":"levelo://app?vid=1176e033-efc4-474e-af61-8d3a0d5f5ccf","ios":"levelo://app?vid=1176e033-efc4-474e-af61-8d3a0d5f5ccf"},"vehicle_type_id":"4","last_reported":1733173714,"current_range_meters":0,"station_id":"","pricing_plan_id":"cebpf4jnsgd1na2vs0mg"},{"bike_id":"e5a6f720-4c12-4520-a40e-691a5c48e726","system_id":"levelo_inurba_marseille","lat":43.29572,"lon":5.37509,"is_reserved":false,"is_disabled":false,"rental_uris":{"android":"levelo://app?vid=e5a6f720-4c12-4520-a40e-691a5c48e726","ios":"levelo://app?vid=e5a6f720-4c12-4520-a40e-691a5c48e726"},"vehicle_type_id":"4","last_reported":1733173714,"current_range_meters":36400,"station_id":"ce4bgh92rcd13ifvqb50","pricing_plan_id":"cebpf4jnsgd1na2vs0mg"},{"bike_id":"2d6ab9f8-89f5-4610-a594-a19f57be66b7","system_id":"levelo_inurba_marseille","lat":43.2963,"lon":5.38084,"is_reserved":false,"is_disabled":false,"rental_uris":{"android":"levelo://app?vid=2d6ab9f8-89f5-4610-a594-a19f57be66b7","ios":"levelo://app?vid=2d6ab9f8-89f5-4610-a594-a19f57be66b7"},"vehicle_type_id":"4","last_reported":1733173714,"current_range_meters":36000,"station_id":"ce4bgl12rcd13ifvqbo0","pricing_plan_id":"cebpf4jnsgd1na2vs0mg"},{"bike_id":"166baf5a-387f-4beb-a5fd-7c748004d880","system_id":"levelo_inurba_marseille","lat":43.31273,"lon":5.40171,"is_reserved":false,"is_disabled":false,"rental_uris":{"android":"levelo://app?vid=166baf5a-387f-4beb-a5fd-7c748004d880","ios":"levelo://app?vid=166baf5a-387f-4beb-a5fd-7c748004d880"},"vehicle_type_id":"4","last_reported":1733173714,"current_range_meters":38000,"station_id":"ce4bh092rcd13ifvqd30","pricing_plan_id":"cebpf4jnsgd1na2vs0mg"},{"bike_id":"d968385f-de2b-44eb-96a8-54efc707caa9","system_id":"levelo_inurba_marseille","lat":43.232031,"lon":5.355507,"is_reserved":false,"is_disabled":false,"rental_uris":{"android":"levelo://app?vid=d968385f-de2b-44eb-96a8-54efc707caa9","ios":"levelo://app?vid=d968385f-de2b-44eb-96a8-54efc707caa9"},"vehicle_type_id":"4","last_reported":1733173714,"current_range_meters":38800,"station_id":"ce4bhu92rcd13ifvqi70","pricing_plan_id":"cebpf4jnsgd1na2vs0mg"},{"bike_id":"e218f52a-3c8a-490a-99d9-5af7196625b0","system_id":"levelo_inurba_marseille","lat":43.23191,"lon":5.35549,"is_reserved":false,"is_disabled":false,"rental_uris":{"android":"levelo://app?vid=e218f52a-3c8a-490a-99d9-5af7196625b0","ios":"levelo://app?vid=e218f52a-3c8a-490a-99d9-5af7196625b0"},"vehicle_type_id":"4","last_reported":1733173714,"current_range_meters":38800,"station_id":"ce4bhu92rcd13ifvqi70","pricing_plan_id":"cebpf4jnsgd1na2vs0mg"},{"bike_id":"307ca336-3f57-4d5b-849b-5b9df48faeaf","system_id":"levelo_inurba_marseille","lat":43.30032,"lon":5.38877,"is_reserved":false,"is_disabled":true,"rental_uris":{"android":"levelo://app?vid=307ca336-3f57-4d5b-849b-5b9df48faeaf","ios":"levelo://app?vid=307ca336-3f57-4d5b-849b-5b9df48faeaf"},"vehicle_type_id":"4","last_reported":1733173714,"current_range_meters":0,"station_id":"","pricing_plan_id":"cebpf4jnsgd1na2vs0mg"},{"bike_id":"506c09f4-6c9b-4fb3-996c-4c7f86dd75a8","system_id":"levelo_inurba_marseille","lat":43.24555,"lon":5.37354,"is_reserved":false,"is_disabled":true,"rental_uris":{"android":"levelo://app?vid=506c09f4-6c9b-4fb3-996c-4c7f86dd75a8","ios":"levelo://app?vid=506c09f4-6c9b-4fb3-996c-4c7f86dd75a8"},"vehicle_type_id":"4","last_reported":1733173714,"current_range_meters":0,"station_id":"","pricing_plan_id":"cebpf4jnsgd1na2vs0mg"},{"bike_id":"9211c3d1-be1f-4677-9a82-b98349c83108","system_id":"levelo_inurba_marseille","lat":43.29451,"lon":5.3976,"is_reserved":false,"is_disabled":true,"rental_uris":{"android":"levelo://app?vid=9211c3d1-be1f-4677-9a82-b98349c83108","ios":"levelo://app?vid=9211c3d1-be1f-4677-9a82-b98349c83108"},"vehicle_type_id":"4","last_reported":1733173714,"current_range_meters":10000,"station_id":"ce4bh3h2rcd13ifvqdo0","pricing_plan_id":"cebpf4jnsgd1na2vs0mg"},{"bike_id":"109ceab6-1b2a-4f12-b390-5e5e505dd7d3","system_id":"levelo_inurba_marseille","lat":43.29016,"lon":5.35832,"is_reserved":false,"is_disabled":true,"rental_uris":{"android":"levelo://app?vid=109ceab6-1b2a-4f12-b390-5e5e505dd7d3","ios":"levelo://app?vid=109ceab6-1b2a-4f12-b390-5e5e505dd7d3"},"vehicle_type_id":"4","last_reported":1733173714,"current_range_meters":32800,"station_id":"ce4bh312rcd13ifvqdj0","pricing_plan_id":"cebpf4jnsgd1na2vs0mg"},{"bike_id":"9202c63e-372c-4469-a5c1-8e35757d1940","system_id":"levelo_inurba_marseille","lat":43.30053,"lon":5.38832,"is_reserved":false,"is_disabled":true,"rental_uris":{"android":"levelo://app?vid=9202c63e-372c-4469-a5c1-8e35757d1940","ios":"levelo://app?vid=9202c63e-372c-4469-a5c1-8e35757d1940"},"vehicle_type_id":"4","last_reported":1733173714,"current_range_meters":0,"station_id":"","pricing_plan_id":"cebpf4jnsgd1na2vs0mg"},{"bike_id":"7ce87540-068e-40a8-8b73-bc4713996526","system_id":"levelo_inurba_marseille","lat":43.30293,"lon":5.3771,"is_reserved":false,"is_disabled":true,"rental_uris":{"android":"levelo://app?vid=7ce87540-068e-40a8-8b73-bc4713996526","ios":"levelo://app?vid=7ce87540-068e-40a8-8b73-bc4713996526"},"vehicle_type_id":"4","last_reported":1733173714,"current_range_meters":0,"station_id":"ce4bguh2rcd13ifvqcj0","pricing_plan_id":"cebpf4jnsgd1na2vs0mg"},{"bike_id":"80bf9c9c-5325-46b1-aa3f-02ab70b13a7f","system_id":"levelo_inurba_marseille","lat":43.30639,"lon":5.40077,"is_reserved":false,"is_disabled":false,"rental_uris":{"android":"levelo://app?vid=80bf9c9c-5325-46b1-aa3f-02ab70b13a7f","ios":"levelo://app?vid=80bf9c9c-5325-46b1-aa3f-02ab70b13a7f"},"vehicle_type_id":"4","last_reported":1733173714,"current_range_meters":39200,"station_id":"ce4bh112rcd13ifvqda0","pricing_plan_id":"cebpf4jnsgd1na2vs0mg"},{"bike_id":"692691a9-bd4a-4c62-91e1-a89a2833f61b","system_id":"levelo_inurba_marseille","lat":43.268065,"lon":5.402601,"is_reserved":false,"is_disabled":false,"rental_uris":{"android":"levelo://app?vid=692691a9-bd4a-4c62-91e1-a89a2833f61b","ios":"levelo://app?vid=692691a9-bd4a-4c62-91e1-a89a2833f61b"},"vehicle_type_id":"4","last_reported":1733173714,"current_range_meters":38800,"station_id":"ce501612rcd8frsf0b60","pricing_plan_id":"cebpf4jnsgd1na2vs0mg"},{"bike_id":"455f4354-5d43-4475-8c22-1a490114890e","system_id":"levelo_inurba_marseille","lat":43.31358,"lon":5.38499,"is_reserved":false,"is_disabled":false,"rental_uris":{"android":"levelo://app?vid=455f4354-5d43-4475-8c22-1a490114890e","ios":"levelo://app?vid=455f4354-5d43-4475-8c22-1a490114890e"},"vehicle_type_id":"4","last_reported":1733173714,"current_range_meters":37600,"station_id":"ce4bgt92rcd13ifvqcf0","pricing_plan_id":"cebpf4jnsgd1na2vs0mg"},{"bike_id":"7133fb62-4b00-405e-be8b-e97382375bcd","system_id":"levelo_inurba_marseille","lat":43.30098,"lon":5.39078,"is_reserved":false,"is_disabled":false,"rental_uris":{"android":"levelo://app?vid=7133fb62-4b00-405e-be8b-e97382375bcd","ios":"levelo://app?vid=7133fb62-4b00-405e-be8b-e97382375bcd"},"vehicle_type_id":"4","last_reported":1733173714,"current_range_meters":4400,"station_id":"ce4bh192rcd13ifvqdb0","pricing_plan_id":"cebpf4jnsgd1na2vs0mg"},{"bike_id":"8cbb1876-809e-4922-953b-40d493b437d4","system_id":"levelo_inurba_marseille","lat":43.32331,"lon":5.40621,"is_reserved":false,"is_disabled":false,"rental_uris":{"android":"levelo://app?vid=8cbb1876-809e-4922-953b-40d493b437d4","ios":"levelo://app?vid=8cbb1876-809e-4922-953b-40d493b437d4"},"vehicle_type_id":"4","last_reported":1733173714,"current_range_meters":35600,"station_id":"ce4bhq92rcd13ifvqhjg","pricing_plan_id":"cebpf4jnsgd1na2vs0mg"},{"bike_id":"8bb552ff-a487-4ffd-9577-2165b4b63016","system_id":"levelo_inurba_marseille","lat":43.24806,"lon":5.37457,"is_reserved":false,"is_disabled":false,"rental_uris":{"android":"levelo://app?vid=8bb552ff-a487-4ffd-9577-2165b4b63016","ios":"levelo://app?vid=8bb552ff-a487-4ffd-9577-2165b4b63016"},"vehicle_type_id":"4","last_reported":1733173714,"current_range_meters":19600,"station_id":"ce4bhgh2rcd13ifvqfb0","pricing_plan_id":"cebpf4jnsgd1na2vs0mg"},{"bike_id":"36645121-5057-43b4-90bd-bb58978945da","system_id":"levelo_inurba_marseille","lat":43.32657,"lon":5.41014,"is_reserved":false,"is_disabled":false,"rental_uris":{"android":"levelo://app?vid=36645121-5057-43b4-90bd-bb58978945da","ios":"levelo://app?vid=36645121-5057-43b4-90bd-bb58978945da"},"vehicle_type_id":"4","last_reported":1733173714,"current_range_meters":800,"station_id":"ce4bhpp2rcd13ifvqhgg","pricing_plan_id":"cebpf4jnsgd1na2vs0mg"},{"bike_id":"16ebf7b5-f5c0-4627-80b2-c506facfa757","system_id":"levelo_inurba_marseille","lat":43.27808,"lon":5.40715,"is_reserved":false,"is_disabled":false,"rental_uris":{"android":"levelo://app?vid=16ebf7b5-f5c0-4627-80b2-c506facfa757","ios":"levelo://app?vid=16ebf7b5-f5c0-4627-80b2-c506facfa757"},"vehicle_type_id":"4","last_reported":1733173714,"current_range_meters":36000,"station_id":"ce4bhnh2rcd13ifvqgtg","pricing_plan_id":"cebpf4jnsgd1na2vs0mg"},{"bike_id":"719e509a-25e4-4b1b-9830-f708d85d7593","system_id":"levelo_inurba_marseille","lat":43.29569,"lon":5.37512,"is_reserved":false,"is_disabled":true,"rental_uris":{"android":"levelo://app?vid=719e509a-25e4-4b1b-9830-f708d85d7593","ios":"levelo://app?vid=719e509a-25e4-4b1b-9830-f708d85d7593"},"vehicle_type_id":"4","last_reported":1733173714,"current_range_meters":0,"station_id":"ce4bgh92rcd13ifvqb50","pricing_plan_id":"cebpf4jnsgd1na2vs0mg"},{"bike_id":"967a5ca3-ac25-4cc8-8c1f-1f1ef1d5ca9c","system_id":"levelo_inurba_marseille","lat":43.23194,"lon":5.35552,"is_reserved":false,"is_disabled":false,"rental_uris":{"android":"levelo://app?vid=967a5ca3-ac25-4cc8-8c1f-1f1ef1d5ca9c","ios":"levelo://app?vid=967a5ca3-ac25-4cc8-8c1f-1f1ef1d5ca9c"},"vehicle_type_id":"4","last_reported":1733173714,"current_range_meters":36000,"station_id":"ce4bhu92rcd13ifvqi70","pricing_plan_id":"cebpf4jnsgd1na2vs0mg"},{"bike_id":"9f7fbdb1-c653-4c71-8d1c-9c9e7c6782e3","system_id":"levelo_inurba_marseille","lat":43.28941,"lon":5.36398,"is_reserved":false,"is_disabled":false,"rental_uris":{"android":"levelo://app?vid=9f7fbdb1-c653-4c71-8d1c-9c9e7c6782e3","ios":"levelo://app?vid=9f7fbdb1-c653-4c71-8d1c-9c9e7c6782e3"},"vehicle_type_id":"4","last_reported":1733173714,"current_range_meters":32400,"station_id":"ce4bhc92rcd13ifvqetg","pricing_plan_id":"cebpf4jnsgd1na2vs0mg"},{"bike_id":"ab084de3-2d85-48ae-98ab-325746bfd6df","system_id":"levelo_inurba_marseille","lat":43.27812,"lon":5.40712,"is_reserved":false,"is_disabled":false,"rental_uris":{"android":"levelo://app?vid=ab084de3-2d85-48ae-98ab-325746bfd6df","ios":"levelo://app?vid=ab084de3-2d85-48ae-98ab-325746bfd6df"},"vehicle_type_id":"4","last_reported":1733173714,"current_range_meters":20400,"station_id":"ce4bhnh2rcd13ifvqgtg","pricing_plan_id":"cebpf4jnsgd1na2vs0mg"},{"bike_id":"30b6b84f-2823-4e05-9290-54e3cd970159","system_id":"levelo_inurba_marseille","lat":43.33019,"lon":5.39037,"is_reserved":false,"is_disabled":false,"rental_uris":{"android":"levelo://app?vid=30b6b84f-2823-4e05-9290-54e3cd970159","ios":"levelo://app?vid=30b6b84f-2823-4e05-9290-54e3cd970159"},"vehicle_type_id":"4","last_reported":1733173714,"current_range_meters":32000,"station_id":"ce4bhr92rcd13ifvqhrg","pricing_plan_id":"cebpf4jnsgd1na2vs0mg"},{"bike_id":"5d7c9e24-fecf-49f1-afd0-481a24a26cee","system_id":"levelo_inurba_marseille","lat":43.24071,"lon":5.3776,"is_reserved":false,"is_disabled":false,"rental_uris":{"android":"levelo://app?vid=5d7c9e24-fecf-49f1-afd0-481a24a26cee","ios":"levelo://app?vid=5d7c9e24-fecf-49f1-afd0-481a24a26cee"},"vehicle_type_id":"4","last_reported":1733173714,"current_range_meters":38800,"station_id":"ce4bhnp2rcd13ifvqgvg","pricing_plan_id":"cebpf4jnsgd1na2vs0mg"},{"bike_id":"2cf65095-36e5-4949-abae-c54c2895d97b","system_id":"levelo_inurba_marseille","lat":43.32595,"lon":5.41374,"is_reserved":false,"is_disabled":true,"rental_uris":{"android":"levelo://app?vid=2cf65095-36e5-4949-abae-c54c2895d97b","ios":"levelo://app?vid=2cf65095-36e5-4949-abae-c54c2895d97b"},"vehicle_type_id":"4","last_reported":1733173714,"current_range_meters":0,"station_id":"","pricing_plan_id":"cebpf4jnsgd1na2vs0mg"},{"bike_id":"bf625bbb-369c-45fb-b116-b24bbb453368","system_id":"levelo_inurba_marseille","lat":43.31486,"lon":5.37306,"is_reserved":false,"is_disabled":false,"rental_uris":{"android":"levelo://app?vid=bf625bbb-369c-45fb-b116-b24bbb453368","ios":"levelo://app?vid=bf625bbb-369c-45fb-b116-b24bbb453368"},"vehicle_type_id":"4","last_reported":1733173714,"current_range_meters":32800,"station_id":"ce4bgt12rcd13ifvqcd0","pricing_plan_id":"cebpf4jnsgd1na2vs0mg"},{"bike_id":"956185b4-5c6a-4d26-b536-6a16b131edf5","system_id":"levelo_inurba_marseille","lat":43.27942,"lon":5.41037,"is_reserved":false,"is_disabled":false,"rental_uris":{"android":"levelo://app?vid=956185b4-5c6a-4d26-b536-6a16b131edf5","ios":"levelo://app?vid=956185b4-5c6a-4d26-b536-6a16b131edf5"},"vehicle_type_id":"4","last_reported":1733173714,"current_range_meters":38000,"station_id":"ce4bhnp2rcd13ifvqh0g","pricing_plan_id":"cebpf4jnsgd1na2vs0mg"},{"bike_id":"8822981b-31a3-468f-897c-43bf728aa7e4","system_id":"levelo_inurba_marseille","lat":43.24069,"lon":5.37764,"is_reserved":false,"is_disabled":false,"rental_uris":{"android":"levelo://app?vid=8822981b-31a3-468f-897c-43bf728aa7e4","ios":"levelo://app?vid=8822981b-31a3-468f-897c-43bf728aa7e4"},"vehicle_type_id":"4","last_reported":1733173714,"current_range_meters":38800,"station_id":"ce4bhnp2rcd13ifvqgvg","pricing_plan_id":"cebpf4jnsgd1na2vs0mg"},{"bike_id":"1765576d-ad21-4bb0-85a8-4c7cde4f5294","system_id":"levelo_inurba_marseille","lat":43.29622,"lon":5.3715,"is_reserved":false,"is_disabled":true,"rental_uris":{"android":"levelo://app?vid=1765576d-ad21-4bb0-85a8-4c7cde4f5294","ios":"levelo://app?vid=1765576d-ad21-4bb0-85a8-4c7cde4f5294"},"vehicle_type_id":"4","last_reported":1733173714,"current_range_meters":8800,"station_id":"ce4bgnh2rcd13ifvqc0g","pricing_plan_id":"cebpf4jnsgd1na2vs0mg"},{"bike_id":"1db0cf7c-0f72-4bee-848d-93c3005fb599","system_id":"levelo_inurba_marseille","lat":43.31461,"lon":5.37267,"is_reserved":false,"is_disabled":false,"rental_uris":{"android":"levelo://app?vid=1db0cf7c-0f72-4bee-848d-93c3005fb599","ios":"levelo://app?vid=1db0cf7c-0f72-4bee-848d-93c3005fb599"},"vehicle_type_id":"4","last_reported":1733173714,"current_range_meters":30400,"station_id":"ce4bgt12rcd13ifvqcd0","pricing_plan_id":"cebpf4jnsgd1na2vs0mg"},{"bike_id":"9c7c18bc-8ef7-44fc-b828-b60eafae16bb","system_id":"levelo_inurba_marseille","lat":43.30421,"lon":5.39734,"is_reserved":false,"is_disabled":false,"rental_uris":{"android":"levelo://app?vid=9c7c18bc-8ef7-44fc-b828-b60eafae16bb","ios":"levelo://app?vid=9c7c18bc-8ef7-44fc-b828-b60eafae16bb"},"vehicle_type_id":"4","last_reported":1733173714,"current_range_meters":30800,"station_id":"ce4bh092rcd13ifvqd20","pricing_plan_id":"cebpf4jnsgd1na2vs0mg"},{"bike_id":"65d23b83-ead9-450f-a3aa-fba7fed37848","system_id":"levelo_inurba_marseille","lat":43.28456,"lon":5.35887,"is_reserved":false,"is_disabled":false,"rental_uris":{"android":"levelo://app?vid=65d23b83-ead9-450f-a3aa-fba7fed37848","ios":"levelo://app?vid=65d23b83-ead9-450f-a3aa-fba7fed37848"},"vehicle_type_id":"4","last_reported":1733173714,"current_range_meters":38800,"station_id":"ce4bhah2rcd13ifvqei0","pricing_plan_id":"cebpf4jnsgd1na2vs0mg"},{"bike_id":"11c1b4cd-dd70-44d6-b0ac-ecaf169e6ab8","system_id":"levelo_inurba_marseille","lat":43.30603,"lon":5.37222,"is_reserved":false,"is_disabled":false,"rental_uris":{"android":"levelo://app?vid=11c1b4cd-dd70-44d6-b0ac-ecaf169e6ab8","ios":"levelo://app?vid=11c1b4cd-dd70-44d6-b0ac-ecaf169e6ab8"},"vehicle_type_id":"4","last_reported":1733173714,"current_range_meters":26000,"station_id":"ce4bgqh2rcd13ifvqc4g","pricing_plan_id":"cebpf4jnsgd1na2vs0mg"},{"bike_id":"cce4929b-ec72-4a27-8354-4062904b82be","system_id":"levelo_inurba_marseille","lat":43.26951,"lon":5.38634,"is_reserved":false,"is_disabled":true,"rental_uris":{"android":"levelo://app?vid=cce4929b-ec72-4a27-8354-4062904b82be","ios":"levelo://app?vid=cce4929b-ec72-4a27-8354-4062904b82be"},"vehicle_type_id":"4","last_reported":1733173714,"current_range_meters":21600,"station_id":"ce4bhh92rcd13ifvqfh0","pricing_plan_id":"cebpf4jnsgd1na2vs0mg"},{"bike_id":"20bd2d49-04bc-4d94-b071-56e3d3a6a7f5","system_id":"levelo_inurba_marseille","lat":43.29254,"lon":5.40906,"is_reserved":false,"is_disabled":false,"rental_uris":{"android":"levelo://app?vid=20bd2d49-04bc-4d94-b071-56e3d3a6a7f5","ios":"levelo://app?vid=20bd2d49-04bc-4d94-b071-56e3d3a6a7f5"},"vehicle_type_id":"4","last_reported":1733173714,"current_range_meters":37600,"station_id":"ce4bh192rcd13ifvqdc0","pricing_plan_id":"cebpf4jnsgd1na2vs0mg"},{"bike_id":"d4582494-a1fb-4de6-bf90-d3e071b6d96d","system_id":"levelo_inurba_marseille","lat":43.31119,"lon":5.37767,"is_reserved":false,"is_disabled":false,"rental_uris":{"android":"levelo://app?vid=d4582494-a1fb-4de6-bf90-d3e071b6d96d","ios":"levelo://app?vid=d4582494-a1fb-4de6-bf90-d3e071b6d96d"},"vehicle_type_id":"4","last_reported":1733173714,"current_range_meters":30000,"station_id":"ce4bgt92rcd13ifvqcg0","pricing_plan_id":"cebpf4jnsgd1na2vs0mg"},{"bike_id":"2aed94bd-1014-4acf-8ca8-7dd02282411e","system_id":"levelo_inurba_marseille","lat":43.29417,"lon":5.38629,"is_reserved":false,"is_disabled":false,"rental_uris":{"android":"levelo://app?vid=2aed94bd-1014-4acf-8ca8-7dd02282411e","ios":"levelo://app?vid=2aed94bd-1014-4acf-8ca8-7dd02282411e"},"vehicle_type_id":"4","last_reported":1733173714,"current_range_meters":27600,"station_id":"ce4bh2h2rcd13ifvqdh0","pricing_plan_id":"cebpf4jnsgd1na2vs0mg"},{"bike_id":"fbea491b-7a53-4808-8ebe-d322f1f74651","system_id":"levelo_inurba_marseille","lat":43.27371,"lon":5.36256,"is_reserved":false,"is_disabled":false,"rental_uris":{"android":"levelo://app?vid=fbea491b-7a53-4808-8ebe-d322f1f74651","ios":"levelo://app?vid=fbea491b-7a53-4808-8ebe-d322f1f74651"},"vehicle_type_id":"4","last_reported":1733173714,"current_range_meters":38800,"station_id":"ce4bhbh2rcd13ifvqeo0","pricing_plan_id":"cebpf4jnsgd1na2vs0mg"},{"bike_id":"ce7dd36e-7854-4ef2-96f6-1e4edaba1aec","system_id":"levelo_inurba_marseille","lat":43.26685,"lon":5.38272,"is_reserved":false,"is_disabled":true,"rental_uris":{"android":"levelo://app?vid=ce7dd36e-7854-4ef2-96f6-1e4edaba1aec","ios":"levelo://app?vid=ce7dd36e-7854-4ef2-96f6-1e4edaba1aec"},"vehicle_type_id":"4","last_reported":1733173714,"current_range_meters":32000,"station_id":"ce4bhg92rcd13ifvqf90","pricing_plan_id":"cebpf4jnsgd1na2vs0mg"},{"bike_id":"627ba12d-f832-4637-bb92-5730be7f7ad7","system_id":"levelo_inurba_marseille","lat":43.32488,"lon":5.36564,"is_reserved":false,"is_disabled":false,"rental_uris":{"android":"levelo://app?vid=627ba12d-f832-4637-bb92-5730be7f7ad7","ios":"levelo://app?vid=627ba12d-f832-4637-bb92-5730be7f7ad7"},"vehicle_type_id":"4","last_reported":1733173714,"current_range_meters":24400,"station_id":"ce4bhs12rcd13ifvqhvg","pricing_plan_id":"cebpf4jnsgd1na2vs0mg"},{"bike_id":"025ba84b-e724-4f49-8b5b-db78f87bd09f","system_id":"levelo_inurba_marseille","lat":43.31117,"lon":5.37765,"is_reserved":false,"is_disabled":false,"rental_uris":{"android":"levelo://app?vid=025ba84b-e724-4f49-8b5b-db78f87bd09f","ios":"levelo://app?vid=025ba84b-e724-4f49-8b5b-db78f87bd09f"},"vehicle_type_id":"4","last_reported":1733173714,"current_range_meters":27200,"station_id":"ce4bgt92rcd13ifvqcg0","pricing_plan_id":"cebpf4jnsgd1na2vs0mg"},{"bike_id":"a6fcf14f-e057-40f5-8c35-9e32f79140fc","system_id":"levelo_inurba_marseille","lat":43.23182,"lon":5.39979,"is_reserved":false,"is_disabled":false,"rental_uris":{"android":"levelo://app?vid=a6fcf14f-e057-40f5-8c35-9e32f79140fc","ios":"levelo://app?vid=a6fcf14f-e057-40f5-8c35-9e32f79140fc"},"vehicle_type_id":"4","last_reported":1733173714,"current_range_meters":19600,"station_id":"ce4bhn12rcd13ifvqgqg","pricing_plan_id":"cebpf4jnsgd1na2vs0mg"},{"bike_id":"79c8ea6d-5102-4a1e-b941-afdabc095945","system_id":"levelo_inurba_marseille","lat":43.29059,"lon":5.38335,"is_reserved":false,"is_disabled":true,"rental_uris":{"android":"levelo://app?vid=79c8ea6d-5102-4a1e-b941-afdabc095945","ios":"levelo://app?vid=79c8ea6d-5102-4a1e-b941-afdabc095945"},"vehicle_type_id":"4","last_reported":1733173714,"current_range_meters":28000,"station_id":"","pricing_plan_id":"cebpf4jnsgd1na2vs0mg"},{"bike_id":"140949cd-5df8-4a69-9594-0f229724e566","system_id":"levelo_inurba_marseille","lat":43.28841,"lon":5.39314,"is_reserved":false,"is_disabled":false,"rental_uris":{"android":"levelo://app?vid=140949cd-5df8-4a69-9594-0f229724e566","ios":"levelo://app?vid=140949cd-5df8-4a69-9594-0f229724e566"},"vehicle_type_id":"4","last_reported":1733173714,"current_range_meters":22000,"station_id":"ce4bh2p2rcd13ifvqdi0","pricing_plan_id":"cebpf4jnsgd1na2vs0mg"},{"bike_id":"e829d2ef-4149-488d-8db5-f68c9ce23887","system_id":"levelo_inurba_marseille","lat":43.29524,"lon":5.3941,"is_reserved":false,"is_disabled":false,"rental_uris":{"android":"levelo://app?vid=e829d2ef-4149-488d-8db5-f68c9ce23887","ios":"levelo://app?vid=e829d2ef-4149-488d-8db5-f68c9ce23887"},"vehicle_type_id":"4","last_reported":1733173714,"current_range_meters":14800,"station_id":"ce4bh292rcd13ifvqdf0","pricing_plan_id":"cebpf4jnsgd1na2vs0mg"},{"bike_id":"defb2e66-a1a2-47b0-ab69-2600758b4bc7","system_id":"levelo_inurba_marseille","lat":43.25575,"lon":5.38238,"is_reserved":false,"is_disabled":false,"rental_uris":{"android":"levelo://app?vid=defb2e66-a1a2-47b0-ab69-2600758b4bc7","ios":"levelo://app?vid=defb2e66-a1a2-47b0-ab69-2600758b4bc7"},"vehicle_type_id":"4","last_reported":1733173714,"current_range_meters":38800,"station_id":"ce4bhih2rcd13ifvqfs0","pricing_plan_id":"cebpf4jnsgd1na2vs0mg"},{"bike_id":"072d616d-73ce-43a5-a0c5-7f5366897302","system_id":"levelo_inurba_marseille","lat":43.29795,"lon":5.38117,"is_reserved":false,"is_disabled":true,"rental_uris":{"android":"levelo://app?vid=072d616d-73ce-43a5-a0c5-7f5366897302","ios":"levelo://app?vid=072d616d-73ce-43a5-a0c5-7f5366897302"},"vehicle_type_id":"4","last_reported":1733173714,"current_range_meters":38000,"station_id":"ce4bgip2rcd13ifvqbb0","pricing_plan_id":"cebpf4jnsgd1na2vs0mg"},{"bike_id":"425d7585-f3d1-4ef0-9d6d-7591bf69f3d4","system_id":"levelo_inurba_marseille","lat":43.28469,"lon":5.35884,"is_reserved":false,"is_disabled":false,"rental_uris":{"android":"levelo://app?vid=425d7585-f3d1-4ef0-9d6d-7591bf69f3d4","ios":"levelo://app?vid=425d7585-f3d1-4ef0-9d6d-7591bf69f3d4"},"vehicle_type_id":"4","last_reported":1733173714,"current_range_meters":27200,"station_id":"ce4bhah2rcd13ifvqei0","pricing_plan_id":"cebpf4jnsgd1na2vs0mg"},{"bike_id":"d0201ca8-2509-490a-b01f-0b38c1a965c9","system_id":"levelo_inurba_marseille","lat":43.28669,"lon":5.36341,"is_reserved":false,"is_disabled":false,"rental_uris":{"android":"levelo://app?vid=d0201ca8-2509-490a-b01f-0b38c1a965c9","ios":"levelo://app?vid=d0201ca8-2509-490a-b01f-0b38c1a965c9"},"vehicle_type_id":"4","last_reported":1733173714,"current_range_meters":38400,"station_id":"ce4bhah2rcd13ifvqej0","pricing_plan_id":"cebpf4jnsgd1na2vs0mg"},{"bike_id":"34b8a852-801d-48f2-b601-a0c9b61d54c6","system_id":"levelo_inurba_marseille","lat":43.28259,"lon":5.35084,"is_reserved":false,"is_disabled":false,"rental_uris":{"android":"levelo://app?vid=34b8a852-801d-48f2-b601-a0c9b61d54c6","ios":"levelo://app?vid=34b8a852-801d-48f2-b601-a0c9b61d54c6"},"vehicle_type_id":"4","last_reported":1733173714,"current_range_meters":38800,"station_id":"ce4bhbp2rcd13ifvqerg","pricing_plan_id":"cebpf4jnsgd1na2vs0mg"},{"bike_id":"7d3d0be4-3109-4898-8d71-f2cbb3bf8e5a","system_id":"levelo_inurba_marseille","lat":43.30879,"lon":5.39643,"is_reserved":false,"is_disabled":false,"rental_uris":{"android":"levelo://app?vid=7d3d0be4-3109-4898-8d71-f2cbb3bf8e5a","ios":"levelo://app?vid=7d3d0be4-3109-4898-8d71-f2cbb3bf8e5a"},"vehicle_type_id":"4","last_reported":1733173714,"current_range_meters":17600,"station_id":"ce4bh012rcd13ifvqcv0","pricing_plan_id":"cebpf4jnsgd1na2vs0mg"},{"bike_id":"58745024-055b-4c1b-b90f-3161671a49a0","system_id":"levelo_inurba_marseille","lat":43.25722,"lon":5.41109,"is_reserved":false,"is_disabled":false,"rental_uris":{"android":"levelo://app?vid=58745024-055b-4c1b-b90f-3161671a49a0","ios":"levelo://app?vid=58745024-055b-4c1b-b90f-3161671a49a0"},"vehicle_type_id":"4","last_reported":1733173714,"current_range_meters":39200,"station_id":"ce4bhkp2rcd13ifvqgd0","pricing_plan_id":"cebpf4jnsgd1na2vs0mg"},{"bike_id":"a24d42c0-2f2c-419a-8324-a882ddfb22d4","system_id":"levelo_inurba_marseille","lat":43.28078,"lon":5.39658,"is_reserved":false,"is_disabled":false,"rental_uris":{"android":"levelo://app?vid=a24d42c0-2f2c-419a-8324-a882ddfb22d4","ios":"levelo://app?vid=a24d42c0-2f2c-419a-8324-a882ddfb22d4"},"vehicle_type_id":"4","last_reported":1733173714,"current_range_meters":10000,"station_id":"ce4bho12rcd13ifvqh2g","pricing_plan_id":"cebpf4jnsgd1na2vs0mg"},{"bike_id":"b4744095-b43a-4a3a-8531-6b50e9a3f7cb","system_id":"levelo_inurba_marseille","lat":43.3361,"lon":5.41028,"is_reserved":false,"is_disabled":true,"rental_uris":{"android":"levelo://app?vid=b4744095-b43a-4a3a-8531-6b50e9a3f7cb","ios":"levelo://app?vid=b4744095-b43a-4a3a-8531-6b50e9a3f7cb"},"vehicle_type_id":"4","last_reported":1733173714,"current_range_meters":0,"station_id":"ce4bhqh2rcd13ifvqhmg","pricing_plan_id":"cebpf4jnsgd1na2vs0mg"},{"bike_id":"a4b9e425-64b8-4ce2-a5ab-5fcc5d1230a4","system_id":"levelo_inurba_marseille","lat":43.32108,"lon":5.36783,"is_reserved":false,"is_disabled":false,"rental_uris":{"android":"levelo://app?vid=a4b9e425-64b8-4ce2-a5ab-5fcc5d1230a4","ios":"levelo://app?vid=a4b9e425-64b8-4ce2-a5ab-5fcc5d1230a4"},"vehicle_type_id":"4","last_reported":1733173714,"current_range_meters":15200,"station_id":"ce4bhrh2rcd13ifvqhug","pricing_plan_id":"cebpf4jnsgd1na2vs0mg"},{"bike_id":"2bcee0a3-6161-4327-a343-7c8d8d06983b","system_id":"levelo_inurba_marseille","lat":43.28673,"lon":5.36359,"is_reserved":false,"is_disabled":false,"rental_uris":{"android":"levelo://app?vid=2bcee0a3-6161-4327-a343-7c8d8d06983b","ios":"levelo://app?vid=2bcee0a3-6161-4327-a343-7c8d8d06983b"},"vehicle_type_id":"4","last_reported":1733173714,"current_range_meters":38800,"station_id":"ce4bhah2rcd13ifvqej0","pricing_plan_id":"cebpf4jnsgd1na2vs0mg"},{"bike_id":"44b58192-051d-42f1-9f2f-2b997dac0a9a","system_id":"levelo_inurba_marseille","lat":43.26212,"lon":5.37437,"is_reserved":false,"is_disabled":false,"rental_uris":{"android":"levelo://app?vid=44b58192-051d-42f1-9f2f-2b997dac0a9a","ios":"levelo://app?vid=44b58192-051d-42f1-9f2f-2b997dac0a9a"},"vehicle_type_id":"4","last_reported":1733173714,"current_range_meters":16400,"station_id":"ce4bhgp2rcd13ifvqfc0","pricing_plan_id":"cebpf4jnsgd1na2vs0mg"},{"bike_id":"31d8c651-ed90-4517-a23d-a56303361a21","system_id":"levelo_inurba_marseille","lat":43.2396,"lon":5.36625,"is_reserved":false,"is_disabled":false,"rental_uris":{"android":"levelo://app?vid=31d8c651-ed90-4517-a23d-a56303361a21","ios":"levelo://app?vid=31d8c651-ed90-4517-a23d-a56303361a21"},"vehicle_type_id":"4","last_reported":1733173714,"current_range_meters":10800,"station_id":"ce4bhi12rcd13ifvqfp0","pricing_plan_id":"cebpf4jnsgd1na2vs0mg"},{"bike_id":"216616ff-f59a-4303-9300-a50b08bc08b0","system_id":"levelo_inurba_marseille","lat":43.30307,"lon":5.3922,"is_reserved":false,"is_disabled":true,"rental_uris":{"android":"levelo://app?vid=216616ff-f59a-4303-9300-a50b08bc08b0","ios":"levelo://app?vid=216616ff-f59a-4303-9300-a50b08bc08b0"},"vehicle_type_id":"4","last_reported":1733173714,"current_range_meters":6400,"station_id":"ce4bgkh2rcd13ifvqbk0","pricing_plan_id":"cebpf4jnsgd1na2vs0mg"},{"bike_id":"cf411c2a-cc80-4aeb-9c99-a3d88fef5d8f","system_id":"levelo_inurba_marseille","lat":43.29606,"lon":5.37723,"is_reserved":false,"is_disabled":true,"rental_uris":{"android":"levelo://app?vid=cf411c2a-cc80-4aeb-9c99-a3d88fef5d8f","ios":"levelo://app?vid=cf411c2a-cc80-4aeb-9c99-a3d88fef5d8f"},"vehicle_type_id":"4","last_reported":1733173714,"current_range_meters":12000,"station_id":"ce4bgi92rcd13ifvqb90","pricing_plan_id":"cebpf4jnsgd1na2vs0mg"},{"bike_id":"d44b0368-00be-4d57-a135-fbc6d4303bca","system_id":"levelo_inurba_marseille","lat":43.2668,"lon":5.38267,"is_reserved":false,"is_disabled":true,"rental_uris":{"android":"levelo://app?vid=d44b0368-00be-4d57-a135-fbc6d4303bca","ios":"levelo://app?vid=d44b0368-00be-4d57-a135-fbc6d4303bca"},"vehicle_type_id":"4","last_reported":1733173714,"current_range_meters":10800,"station_id":"ce4bhg92rcd13ifvqf90","pricing_plan_id":"cebpf4jnsgd1na2vs0mg"},{"bike_id":"b6d6b07e-4688-45f1-857e-88e0c9f71088","system_id":"levelo_inurba_marseille","lat":43.29585,"lon":5.37512,"is_reserved":false,"is_disabled":true,"rental_uris":{"android":"levelo://app?vid=b6d6b07e-4688-45f1-857e-88e0c9f71088","ios":"levelo://app?vid=b6d6b07e-4688-45f1-857e-88e0c9f71088"},"vehicle_type_id":"4","last_reported":1733173714,"current_range_meters":36400,"station_id":"ce4bgh92rcd13ifvqb50","pricing_plan_id":"cebpf4jnsgd1na2vs0mg"},{"bike_id":"38763041-8d1c-4382-adad-9a4a3cd40ae8","system_id":"levelo_inurba_marseille","lat":43.29726,"lon":5.36612,"is_reserved":false,"is_disabled":false,"rental_uris":{"android":"levelo://app?vid=38763041-8d1c-4382-adad-9a4a3cd40ae8","ios":"levelo://app?vid=38763041-8d1c-4382-adad-9a4a3cd40ae8"},"vehicle_type_id":"4","last_reported":1733173714,"current_range_meters":18800,"station_id":"ce4bgn12rcd13ifvqbt0","pricing_plan_id":"cebpf4jnsgd1na2vs0mg"},{"bike_id":"e9e7398b-e7d9-4b3e-96c1-8b827c7b537e","system_id":"levelo_inurba_marseille","lat":43.30665,"lon":5.381741,"is_reserved":false,"is_disabled":false,"rental_uris":{"android":"levelo://app?vid=e9e7398b-e7d9-4b3e-96c1-8b827c7b537e","ios":"levelo://app?vid=e9e7398b-e7d9-4b3e-96c1-8b827c7b537e"},"vehicle_type_id":"4","last_reported":1733173714,"current_range_meters":29600,"station_id":"","pricing_plan_id":"cebpf4jnsgd1na2vs0mg"},{"bike_id":"9725ee5d-bd47-447d-bc60-8d3609137de3","system_id":"levelo_inurba_marseille","lat":43.29568,"lon":5.39974,"is_reserved":false,"is_disabled":true,"rental_uris":{"android":"levelo://app?vid=9725ee5d-bd47-447d-bc60-8d3609137de3","ios":"levelo://app?vid=9725ee5d-bd47-447d-bc60-8d3609137de3"},"vehicle_type_id":"4","last_reported":1733173714,"current_range_meters":38000,"station_id":"ce4bh312rcd13ifvqdj0","pricing_plan_id":"cebpf4jnsgd1na2vs0mg"},{"bike_id":"13b522c6-2451-4718-982c-f9ce1342f93f","system_id":"levelo_inurba_marseille","lat":43.28459,"lon":5.35881,"is_reserved":false,"is_disabled":false,"rental_uris":{"android":"levelo://app?vid=13b522c6-2451-4718-982c-f9ce1342f93f","ios":"levelo://app?vid=13b522c6-2451-4718-982c-f9ce1342f93f"},"vehicle_type_id":"4","last_reported":1733173714,"current_range_meters":27200,"station_id":"ce4bhah2rcd13ifvqei0","pricing_plan_id":"cebpf4jnsgd1na2vs0mg"},{"bike_id":"9f6372a6-065a-4e4e-a232-8f126a87f16a","system_id":"levelo_inurba_marseille","lat":43.27914,"lon":5.39577,"is_reserved":false,"is_disabled":false,"rental_uris":{"android":"levelo://app?vid=9f6372a6-065a-4e4e-a232-8f126a87f16a","ios":"levelo://app?vid=9f6372a6-065a-4e4e-a232-8f126a87f16a"},"vehicle_type_id":"4","last_reported":1733173714,"current_range_meters":38400,"station_id":"ce4bhf92rcd13ifvqf40","pricing_plan_id":"cebpf4jnsgd1na2vs0mg"},{"bike_id":"29211cd7-8a7d-4517-8d88-5a7991d24e45","system_id":"levelo_inurba_marseille","lat":43.29717,"lon":5.36625,"is_reserved":false,"is_disabled":false,"rental_uris":{"android":"levelo://app?vid=29211cd7-8a7d-4517-8d88-5a7991d24e45","ios":"levelo://app?vid=29211cd7-8a7d-4517-8d88-5a7991d24e45"},"vehicle_type_id":"4","last_reported":1733173714,"current_range_meters":38400,"station_id":"ce4bgn12rcd13ifvqbt0","pricing_plan_id":"cebpf4jnsgd1na2vs0mg"},{"bike_id":"d1ffa682-d1a4-427e-959d-4c47f057ecd9","system_id":"levelo_inurba_marseille","lat":43.25862,"lon":5.39904,"is_reserved":false,"is_disabled":false,"rental_uris":{"android":"levelo://app?vid=d1ffa682-d1a4-427e-959d-4c47f057ecd9","ios":"levelo://app?vid=d1ffa682-d1a4-427e-959d-4c47f057ecd9"},"vehicle_type_id":"4","last_reported":1733173714,"current_range_meters":8000,"station_id":"ce4bhl92rcd13ifvqghg","pricing_plan_id":"cebpf4jnsgd1na2vs0mg"},{"bike_id":"7caca3ca-4ad5-4e41-ba66-df02bee491aa","system_id":"levelo_inurba_marseille","lat":43.29938,"lon":5.36544,"is_reserved":false,"is_disabled":true,"rental_uris":{"android":"levelo://app?vid=7caca3ca-4ad5-4e41-ba66-df02bee491aa","ios":"levelo://app?vid=7caca3ca-4ad5-4e41-ba66-df02bee491aa"},"vehicle_type_id":"4","last_reported":1733173714,"current_range_meters":8400,"station_id":"ce4bgm92rcd13ifvqbr0","pricing_plan_id":"cebpf4jnsgd1na2vs0mg"},{"bike_id":"f76e48f6-3306-4656-a4b4-640a6d3772c4","system_id":"levelo_inurba_marseille","lat":43.25091,"lon":5.39501,"is_reserved":false,"is_disabled":false,"rental_uris":{"android":"levelo://app?vid=f76e48f6-3306-4656-a4b4-640a6d3772c4","ios":"levelo://app?vid=f76e48f6-3306-4656-a4b4-640a6d3772c4"},"vehicle_type_id":"4","last_reported":1733173714,"current_range_meters":5600,"station_id":"ce4bhm12rcd13ifvqgkg","pricing_plan_id":"cebpf4jnsgd1na2vs0mg"},{"bike_id":"b5a03233-d31f-4598-84c4-07d6d6043f52","system_id":"levelo_inurba_marseille","lat":43.28135,"lon":5.42631,"is_reserved":false,"is_disabled":false,"rental_uris":{"android":"levelo://app?vid=b5a03233-d31f-4598-84c4-07d6d6043f52","ios":"levelo://app?vid=b5a03233-d31f-4598-84c4-07d6d6043f52"},"vehicle_type_id":"4","last_reported":1733173714,"current_range_meters":38800,"station_id":"ce4bhnh2rcd13ifvqgug","pricing_plan_id":"cebpf4jnsgd1na2vs0mg"},{"bike_id":"ceff3a70-21e2-46d0-9278-bb00b584448f","system_id":"levelo_inurba_marseille","lat":43.31124,"lon":5.3777,"is_reserved":false,"is_disabled":false,"rental_uris":{"android":"levelo://app?vid=ceff3a70-21e2-46d0-9278-bb00b584448f","ios":"levelo://app?vid=ceff3a70-21e2-46d0-9278-bb00b584448f"},"vehicle_type_id":"4","last_reported":1733173714,"current_range_meters":32800,"station_id":"ce4bgt92rcd13ifvqcg0","pricing_plan_id":"cebpf4jnsgd1na2vs0mg"},{"bike_id":"5e160b8e-5c83-4423-b051-bd2cf577003d","system_id":"levelo_inurba_marseille","lat":43.23191,"lon":5.35552,"is_reserved":false,"is_disabled":false,"rental_uris":{"android":"levelo://app?vid=5e160b8e-5c83-4423-b051-bd2cf577003d","ios":"levelo://app?vid=5e160b8e-5c83-4423-b051-bd2cf577003d"},"vehicle_type_id":"4","last_reported":1733173714,"current_range_meters":38800,"station_id":"ce4bhu92rcd13ifvqi70","pricing_plan_id":"cebpf4jnsgd1na2vs0mg"},{"bike_id":"322cf6fe-0822-422b-95a4-35c4bd952f62","system_id":"levelo_inurba_marseille","lat":43.27181,"lon":5.40995,"is_reserved":false,"is_disabled":false,"rental_uris":{"android":"levelo://app?vid=322cf6fe-0822-422b-95a4-35c4bd952f62","ios":"levelo://app?vid=322cf6fe-0822-422b-95a4-35c4bd952f62"},"vehicle_type_id":"4","last_reported":1733173714,"current_range_meters":27600,"station_id":"ce4bhl12rcd13ifvqgf0","pricing_plan_id":"cebpf4jnsgd1na2vs0mg"},{"bike_id":"df282ba8-17eb-4fce-abd3-e1ba704dcef4","system_id":"levelo_inurba_marseille","lat":43.295723,"lon":5.399681,"is_reserved":false,"is_disabled":true,"rental_uris":{"android":"levelo://app?vid=df282ba8-17eb-4fce-abd3-e1ba704dcef4","ios":"levelo://app?vid=df282ba8-17eb-4fce-abd3-e1ba704dcef4"},"vehicle_type_id":"4","last_reported":1733173714,"current_range_meters":18000,"station_id":"ce4bh312rcd13ifvqdj0","pricing_plan_id":"cebpf4jnsgd1na2vs0mg"},{"bike_id":"d5867436-2295-40b8-b5e8-0b2fe12d0e10","system_id":"levelo_inurba_marseille","lat":43.29588,"lon":5.37508,"is_reserved":false,"is_disabled":false,"rental_uris":{"android":"levelo://app?vid=d5867436-2295-40b8-b5e8-0b2fe12d0e10","ios":"levelo://app?vid=d5867436-2295-40b8-b5e8-0b2fe12d0e10"},"vehicle_type_id":"4","last_reported":1733173714,"current_range_meters":21600,"station_id":"ce4bgh92rcd13ifvqb50","pricing_plan_id":"cebpf4jnsgd1na2vs0mg"},{"bike_id":"792e1a6b-f0f7-42da-99bd-148571fb1286","system_id":"levelo_inurba_marseille","lat":43.29537,"lon":5.38552,"is_reserved":false,"is_disabled":false,"rental_uris":{"android":"levelo://app?vid=792e1a6b-f0f7-42da-99bd-148571fb1286","ios":"levelo://app?vid=792e1a6b-f0f7-42da-99bd-148571fb1286"},"vehicle_type_id":"4","last_reported":1733173714,"current_range_meters":28800,"station_id":"ce4bgih2rcd13ifvqba0","pricing_plan_id":"cebpf4jnsgd1na2vs0mg"},{"bike_id":"c19f75f9-abb9-4e20-9bc4-dd62e139777d","system_id":"levelo_inurba_marseille","lat":43.3079,"lon":5.38157,"is_reserved":false,"is_disabled":false,"rental_uris":{"android":"levelo://app?vid=c19f75f9-abb9-4e20-9bc4-dd62e139777d","ios":"levelo://app?vid=c19f75f9-abb9-4e20-9bc4-dd62e139777d"},"vehicle_type_id":"4","last_reported":1733173714,"current_range_meters":35200,"station_id":"ce4bgt12rcd13ifvqce0","pricing_plan_id":"cebpf4jnsgd1na2vs0mg"},{"bike_id":"8f4472d9-2394-4eea-b04f-e9e717fbc435","system_id":"levelo_inurba_marseille","lat":43.3302,"lon":5.39017,"is_reserved":false,"is_disabled":false,"rental_uris":{"android":"levelo://app?vid=8f4472d9-2394-4eea-b04f-e9e717fbc435","ios":"levelo://app?vid=8f4472d9-2394-4eea-b04f-e9e717fbc435"},"vehicle_type_id":"4","last_reported":1733173714,"current_range_meters":24000,"station_id":"ce4bhr92rcd13ifvqhrg","pricing_plan_id":"cebpf4jnsgd1na2vs0mg"},{"bike_id":"78626048-7e48-440f-a4d0-89f4a4769f8f","system_id":"levelo_inurba_marseille","lat":43.26203,"lon":5.37929,"is_reserved":false,"is_disabled":false,"rental_uris":{"android":"levelo://app?vid=78626048-7e48-440f-a4d0-89f4a4769f8f","ios":"levelo://app?vid=78626048-7e48-440f-a4d0-89f4a4769f8f"},"vehicle_type_id":"4","last_reported":1733173714,"current_range_meters":35600,"station_id":"ce4bhjp2rcd13ifvqg90","pricing_plan_id":"cebpf4jnsgd1na2vs0mg"},{"bike_id":"75750bfe-c46b-4af8-84ff-531971832fc9","system_id":"levelo_inurba_marseille","lat":43.31116,"lon":5.37782,"is_reserved":false,"is_disabled":false,"rental_uris":{"android":"levelo://app?vid=75750bfe-c46b-4af8-84ff-531971832fc9","ios":"levelo://app?vid=75750bfe-c46b-4af8-84ff-531971832fc9"},"vehicle_type_id":"4","last_reported":1733173714,"current_range_meters":36800,"station_id":"ce4bgt92rcd13ifvqcg0","pricing_plan_id":"cebpf4jnsgd1na2vs0mg"},{"bike_id":"e3448b77-7de4-4199-936c-624f456daa5a","system_id":"levelo_inurba_marseille","lat":43.32297,"lon":5.38271,"is_reserved":false,"is_disabled":false,"rental_uris":{"android":"levelo://app?vid=e3448b77-7de4-4199-936c-624f456daa5a","ios":"levelo://app?vid=e3448b77-7de4-4199-936c-624f456daa5a"},