{"last_updated":1704013594,"ttl":30,"version":"2.2","data":{"bikes":[{"bike_id":"2bf732d1-cd8c-466f-a8a7-9bd69662d50f","system_id":"levelo_inurba_marseille","lat":43.313391,"lon":5.36706,"is_reserved":false,"is_disabled":false,"rental_uris":{"android":"levelo://app?vid=2bf732d1-cd8c-466f-a8a7-9bd69662d50f","ios":"levelo://app?vid=2bf732d1-cd8c-466f-a8a7-9bd69662d50f"},"vehicle_type_id":"4","last_reported":1704013594,"current_range_meters":27200,"station_id":"ce4bgr92rcd13ifvqc6g","pricing_plan_id":"free"},{"bike_id":"29d8ca3b-1307-4f4d-8876-890f426acc1b","system_id":"levelo_inurba_marseille","lat":43.31341,"lon":5.367098,"is_reserved":false,"is_disabled":false,"rental_uris":{"android":"levelo://app?vid=29d8ca3b-1307-4f4d-8876-890f426acc1b","ios":"levelo://app?vid=29d8ca3b-1307-4f4d-8876-890f426acc1b"},"vehicle_type_id":"4","last_reported":1704013594,"current_range_meters":28400,"station_id":"ce4bgr92rcd13ifvqc6g","pricing_plan_id":"free"},{"bike_id":"1ed43ed3-3c89-458f-8822-a511383f4aac","system_id":"levelo_inurba_marseille","lat":43.31341,"lon":5.367098,"is_reserved":false,"is_disabled":false,"rental_uris":{"android":"levelo://app?vid=1ed43ed3-3c89-458f-8822-a511383f4aac","ios":"levelo://app?vid=1ed43ed3-3c89-458f-8822-a511383f4aac"},"vehicle_type_id":"4","last_reported":1704013594,"current_range_meters":30000,"station_id":"ce4bgr92rcd13ifvqc6g","pricing_plan_id":"free"},{"bike_id":"1869da40-949e-42cb-8785-8abe5db7debe","system_id":"levelo_inurba_marseille","lat":43.312239,"lon":5.368562,"is_reserved":false,"is_disabled":false,"rental_uris":{"android":"levelo://app?vid=1869da40-949e-42cb-8785-8abe5db7debe","ios":"levelo://app?vid=1869da40-949e-42cb-8785-8abe5db7debe"},"vehicle_type_id":"4","last_reported":1704013594,"current_range_meters":11200,"station_id":"ce4bgl92rcd13ifvqbq0","pricing_plan_id":"free"},{"bike_id":"a12bc0d9-5f6f-44ed-b534-fbc5f3361744","system_id":"levelo_inurba_marseille","lat":43.312239,"lon":5.368562,"is_reserved":false,"is_disabled":false,"rental_uris":{"android":"levelo://app?vid=a12bc0d9-5f6f-44ed-b534-fbc5f3361744","ios":"levelo://app?vid=a12bc0d9-5f6f-44ed-b534-fbc5f3361744"},"vehicle_type_id":"4","last_reported":1704013594,"current_range_meters":30400,"station_id":"ce4bgl92rcd13ifvqbq0","pricing_plan_id":"free"},{"bike_id":"6792296f-2fef-4c5c-8a6a-3c62cf0f744e","system_id":"levelo_inurba_marseille","lat":43.312239,"lon":5.368562,"is_reserved":false,"is_disabled":false,"rental_uris":{"android":"levelo://app?vid=6792296f-2fef-4c5c-8a6a-3c62cf0f744e","ios":"levelo://app?vid=6792296f-2fef-4c5c-8a6a-3c62cf0f744e"},"vehicle_type_id":"4","last_reported":1704013594,"current_range_meters":27600,"station_id":"ce4bgl92rcd13ifvqbq0","pricing_plan_id":"free"},{"bike_id":"205322d9-5db9-41b0-87a0-69a0f371155a","system_id":"levelo_inurba_marseille","lat":43.314811,"lon":5.373103,"is_reserved":false,"is_disabled":false,"rental_uris":{"android":"levelo://app?vid=205322d9-5db9-41b0-87a0-69a0f371155a","ios":"levelo://app?vid=205322d9-5db9-41b0-87a0-69a0f371155a"},"vehicle_type_id":"4","last_reported":1704013594,"current_range_meters":31200,"station_id":"ce4bgt12rcd13ifvqcd0","pricing_plan_id":"free"},{"bike_id":"a23b1e95-1fc8-49a1-ac0c-1a1f9ddd8486","system_id":"levelo_inurba_marseille","lat":43.314811,"lon":5.373103,"is_reserved":false,"is_disabled":false,"rental_uris":{"android":"levelo://app?vid=a23b1e95-1fc8-49a1-ac0c-1a1f9ddd8486","ios":"levelo://app?vid=a23b1e95-1fc8-49a1-ac0c-1a1f9ddd8486"},"vehicle_type_id":"4","last_reported":1704013594,"current_range_meters":26400,"station_id":"ce4bgt12rcd13ifvqcd0","pricing_plan_id":"free"},{"bike_id":"63749c65-a3ae-4dda-b16a-f3f884850e3c","system_id":"levelo_inurba_marseille","lat":43.314811,"lon":5.373103,"is_reserved":false,"is_disabled":false,"rental_uris":{"android":"levelo://app?vid=63749c65-a3ae-4dda-b16a-f3f884850e3c","ios":"levelo://app?vid=63749c65-a3ae-4dda-b16a-f3f884850e3c"},"vehicle_type_id":"4","last_reported":1704013594,"current_range_meters":30400,"station_id":"ce4bgt12rcd13ifvqcd0","pricing_plan_id":"free"},{"bike_id":"03db1e88-4195-42e9-a4e5-42ea8fbf139c","system_id":"levelo_inurba_marseille","lat":43.314959,"lon":5.372961,"is_reserved":false,"is_disabled":false,"rental_uris":{"android":"levelo://app?vid=03db1e88-4195-42e9-a4e5-42ea8fbf139c","ios":"levelo://app?vid=03db1e88-4195-42e9-a4e5-42ea8fbf139c"},"vehicle_type_id":"4","last_reported":1704013594,"current_range_meters":30800,"station_id":"ce4bgt12rcd13ifvqcd0","pricing_plan_id":"free"},{"bike_id":"9059a35f-a0e9-44c2-8a37-e0e8c31af139","system_id":"levelo_inurba_marseille","lat":43.314811,"lon":5.373103,"is_reserved":false,"is_disabled":false,"rental_uris":{"android":"levelo://app?vid=9059a35f-a0e9-44c2-8a37-e0e8c31af139","ios":"levelo://app?vid=9059a35f-a0e9-44c2-8a37-e0e8c31af139"},"vehicle_type_id":"4","last_reported":1704013594,"current_range_meters":23600,"station_id":"ce4bgt12rcd13ifvqcd0","pricing_plan_id":"free"},{"bike_id":"2d053efa-2cc9-4008-a7b7-8172bcb46fad","system_id":"levelo_inurba_marseille","lat":43.314811,"lon":5.373103,"is_reserved":false,"is_disabled":false,"rental_uris":{"android":"levelo://app?vid=2d053efa-2cc9-4008-a7b7-8172bcb46fad","ios":"levelo://app?vid=2d053efa-2cc9-4008-a7b7-8172bcb46fad"},"vehicle_type_id":"4","last_reported":1704013594,"current_range_meters":31200,"station_id":"ce4bgt12rcd13ifvqcd0","pricing_plan_id":"free"},{"bike_id":"2bf1159c-4b34-4bc3-a8b5-156be571c011","system_id":"levelo_inurba_marseille","lat":43.307843,"lon":5.373431,"is_reserved":false,"is_disabled":false,"rental_uris":{"android":"levelo://app?vid=2bf1159c-4b34-4bc3-a8b5-156be571c011","ios":"levelo://app?vid=2bf1159c-4b34-4bc3-a8b5-156be571c011"},"vehicle_type_id":"4","last_reported":1704013594,"current_range_meters":24800,"station_id":"","pricing_plan_id":"free"},{"bike_id":"4e088e7a-c35c-437f-ba03-be2c29d22c10","system_id":"levelo_inurba_marseille","lat":43.305712,"lon":5.365641,"is_reserved":false,"is_disabled":false,"rental_uris":{"android":"levelo://app?vid=4e088e7a-c35c-437f-ba03-be2c29d22c10","ios":"levelo://app?vid=4e088e7a-c35c-437f-ba03-be2c29d22c10"},"vehicle_type_id":"4","last_reported":1704013594,"current_range_meters":28000,"station_id":"ce4bgs12rcd13ifvqcag","pricing_plan_id":"free"},{"bike_id":"a3c8d623-a85c-45ca-8fac-8710ce7491da","system_id":"levelo_inurba_marseille","lat":43.30648,"lon":5.37179,"is_reserved":false,"is_disabled":false,"rental_uris":{"android":"levelo://app?vid=a3c8d623-a85c-45ca-8fac-8710ce7491da","ios":"levelo://app?vid=a3c8d623-a85c-45ca-8fac-8710ce7491da"},"vehicle_type_id":"4","last_reported":1704013594,"current_range_meters":5200,"station_id":"","pricing_plan_id":"free"},{"bike_id":"67696d62-a2e4-404d-bb88-51188f51f017","system_id":"levelo_inurba_marseille","lat":43.305714,"lon":5.365633,"is_reserved":false,"is_disabled":false,"rental_uris":{"android":"levelo://app?vid=67696d62-a2e4-404d-bb88-51188f51f017","ios":"levelo://app?vid=67696d62-a2e4-404d-bb88-51188f51f017"},"vehicle_type_id":"4","last_reported":1704013594,"current_range_meters":28000,"station_id":"ce4bgs12rcd13ifvqcag","pricing_plan_id":"free"},{"bike_id":"64a93320-b6f7-4f00-82e1-5c71938933c4","system_id":"levelo_inurba_marseille","lat":43.313929,"lon":5.376932,"is_reserved":false,"is_disabled":false,"rental_uris":{"android":"levelo://app?vid=64a93320-b6f7-4f00-82e1-5c71938933c4","ios":"levelo://app?vid=64a93320-b6f7-4f00-82e1-5c71938933c4"},"vehicle_type_id":"4","last_reported":1704013594,"current_range_meters":22000,"station_id":"","pricing_plan_id":"free"},{"bike_id":"aeb00762-e5ec-4687-88cc-52fcd57156f6","system_id":"levelo_inurba_marseille","lat":43.305706,"lon":5.365654,"is_reserved":false,"is_disabled":false,"rental_uris":{"android":"levelo://app?vid=aeb00762-e5ec-4687-88cc-52fcd57156f6","ios":"levelo://app?vid=aeb00762-e5ec-4687-88cc-52fcd57156f6"},"vehicle_type_id":"4","last_reported":1704013594,"current_range_meters":28000,"station_id":"ce4bgs12rcd13ifvqcag","pricing_plan_id":"free"},{"bike_id":"252147cc-2c78-4751-b713-25eb078234ad","system_id":"levelo_inurba_marseille","lat":43.305706,"lon":5.365654,"is_reserved":false,"is_disabled":false,"rental_uris":{"android":"levelo://app?vid=252147cc-2c78-4751-b713-25eb078234ad","ios":"levelo://app?vid=252147cc-2c78-4751-b713-25eb078234ad"},"vehicle_type_id":"4","last_reported":1704013594,"current_range_meters":27600,"station_id":"ce4bgs12rcd13ifvqcag","pricing_plan_id":"free"},{"bike_id":"a39d4a44-03f1-4782-b2e2-e59a66cdfe76","system_id":"levelo_inurba_marseille","lat":43.305989,"lon":5.37225,"is_reserved":false,"is_disabled":false,"rental_uris":{"android":"levelo://app?vid=a39d4a44-03f1-4782-b2e2-e59a66cdfe76","ios":"levelo://app?vid=a39d4a44-03f1-4782-b2e2-e59a66cdfe76"},"vehicle_type_id":"4","last_reported":1704013594,"current_range_meters":29200,"station_id":"ce4bgqh2rcd13ifvqc4g","pricing_plan_id":"free"},{"bike_id":"b618f3bc-21de-472c-bda3-14119853ee8c","system_id":"levelo_inurba_marseille","lat":43.30597,"lon":5.37225,"is_reserved":false,"is_disabled":false,"rental_uris":{"android":"levelo://app?vid=b618f3bc-21de-472c-bda3-14119853ee8c","ios":"levelo://app?vid=b618f3bc-21de-472c-bda3-14119853ee8c"},"vehicle_type_id":"4","last_reported":1704013594,"current_range_meters":29600,"station_id":"ce4bgqh2rcd13ifvqc4g","pricing_plan_id":"free"},{"bike_id":"c21e22da-ec0d-4947-b771-cb0b5f74d7a1","system_id":"levelo_inurba_marseille","lat":43.311131,"lon":5.377651,"is_reserved":false,"is_disabled":false,"rental_uris":{"android":"levelo://app?vid=c21e22da-ec0d-4947-b771-cb0b5f74d7a1","ios":"levelo://app?vid=c21e22da-ec0d-4947-b771-cb0b5f74d7a1"},"vehicle_type_id":"4","last_reported":1704013594,"current_range_meters":14800,"station_id":"ce4bgt92rcd13ifvqcg0","pricing_plan_id":"free"},{"bike_id":"25af9e1c-886c-4f64-92f2-5ca68e46ae4a","system_id":"levelo_inurba_marseille","lat":43.31722,"lon":5.37668,"is_reserved":false,"is_disabled":false,"rental_uris":{"android":"levelo://app?vid=25af9e1c-886c-4f64-92f2-5ca68e46ae4a","ios":"levelo://app?vid=25af9e1c-886c-4f64-92f2-5ca68e46ae4a"},"vehicle_type_id":"4","last_reported":1704013594,"current_range_meters":22800,"station_id":"","pricing_plan_id":"free"},{"bike_id":"43ca8f0e-45c8-46db-88a7-88fa1ac98477","system_id":"levelo_inurba_marseille","lat":43.317075,"lon":5.377367,"is_reserved":false,"is_disabled":false,"rental_uris":{"android":"levelo://app?vid=43ca8f0e-45c8-46db-88a7-88fa1ac98477","ios":"levelo://app?vid=43ca8f0e-45c8-46db-88a7-88fa1ac98477"},"vehicle_type_id":"4","last_reported":1704013594,"current_range_meters":24400,"station_id":"ce4bgth2rcd13ifvqch0","pricing_plan_id":"free"},{"bike_id":"e5cdb6f6-1300-406e-9303-c0f03d781d71","system_id":"levelo_inurba_marseille","lat":43.317075,"lon":5.377367,"is_reserved":false,"is_disabled":false,"rental_uris":{"android":"levelo://app?vid=e5cdb6f6-1300-406e-9303-c0f03d781d71","ios":"levelo://app?vid=e5cdb6f6-1300-406e-9303-c0f03d781d71"},"vehicle_type_id":"4","last_reported":1704013594,"current_range_meters":31200,"station_id":"ce4bgth2rcd13ifvqch0","pricing_plan_id":"free"},{"bike_id":"c85935c6-4b05-4750-941c-1bbcea17b32b","system_id":"levelo_inurba_marseille","lat":43.317075,"lon":5.377367,"is_reserved":false,"is_disabled":false,"rental_uris":{"android":"levelo://app?vid=c85935c6-4b05-4750-941c-1bbcea17b32b","ios":"levelo://app?vid=c85935c6-4b05-4750-941c-1bbcea17b32b"},"vehicle_type_id":"4","last_reported":1704013594,"current_range_meters":18000,"station_id":"ce4bgth2rcd13ifvqch0","pricing_plan_id":"free"},{"bike_id":"e396057a-9e96-4e6d-bb6b-ed001471212f","system_id":"levelo_inurba_marseille","lat":43.317075,"lon":5.377367,"is_reserved":false,"is_disabled":false,"rental_uris":{"android":"levelo://app?vid=e396057a-9e96-4e6d-bb6b-ed001471212f","ios":"levelo://app?vid=e396057a-9e96-4e6d-bb6b-ed001471212f"},"vehicle_type_id":"4","last_reported":1704013594,"current_range_meters":28400,"station_id":"ce4bgth2rcd13ifvqch0","pricing_plan_id":"free"},{"bike_id":"e964d4b1-05c8-4139-97ad-6c371ea4e95a","system_id":"levelo_inurba_marseille","lat":43.303046,"lon":5.368981,"is_reserved":false,"is_disabled":false,"rental_uris":{"android":"levelo://app?vid=e964d4b1-05c8-4139-97ad-6c371ea4e95a","ios":"levelo://app?vid=e964d4b1-05c8-4139-97ad-6c371ea4e95a"},"vehicle_type_id":"4","last_reported":1704013594,"current_range_meters":31200,"station_id":"ce4bgqh2rcd13ifvqc5g","pricing_plan_id":"free"},{"bike_id":"247b8228-83bc-44bb-8da2-67d2d89cee7c","system_id":"levelo_inurba_marseille","lat":43.303046,"lon":5.368981,"is_reserved":false,"is_disabled":false,"rental_uris":{"android":"levelo://app?vid=247b8228-83bc-44bb-8da2-67d2d89cee7c","ios":"levelo://app?vid=247b8228-83bc-44bb-8da2-67d2d89cee7c"},"vehicle_type_id":"4","last_reported":1704013594,"current_range_meters":21600,"station_id":"ce4bgqh2rcd13ifvqc5g","pricing_plan_id":"free"},{"bike_id":"6e5818dc-3972-4287-9058-8f8f2e517733","system_id":"levelo_inurba_marseille","lat":43.3153,"lon":5.38028,"is_reserved":false,"is_disabled":false,"rental_uris":{"android":"levelo://app?vid=6e5818dc-3972-4287-9058-8f8f2e517733","ios":"levelo://app?vid=6e5818dc-3972-4287-9058-8f8f2e517733"},"vehicle_type_id":"4","last_reported":1704013594,"current_range_meters":22400,"station_id":"ce4bhsp2rcd13ifvqi50","pricing_plan_id":"free"},{"bike_id":"fa42125a-2b48-4e78-9b49-e4925096e263","system_id":"levelo_inurba_marseille","lat":43.31534,"lon":5.38027,"is_reserved":false,"is_disabled":false,"rental_uris":{"android":"levelo://app?vid=fa42125a-2b48-4e78-9b49-e4925096e263","ios":"levelo://app?vid=fa42125a-2b48-4e78-9b49-e4925096e263"},"vehicle_type_id":"4","last_reported":1704013594,"current_range_meters":31200,"station_id":"ce4bhsp2rcd13ifvqi50","pricing_plan_id":"free"},{"bike_id":"c3c5781b-aa1e-41c0-8458-9e4b022e5f11","system_id":"levelo_inurba_marseille","lat":43.31533,"lon":5.38031,"is_reserved":false,"is_disabled":false,"rental_uris":{"android":"levelo://app?vid=c3c5781b-aa1e-41c0-8458-9e4b022e5f11","ios":"levelo://app?vid=c3c5781b-aa1e-41c0-8458-9e4b022e5f11"},"vehicle_type_id":"4","last_reported":1704013594,"current_range_meters":13600,"station_id":"ce4bhsp2rcd13ifvqi50","pricing_plan_id":"free"},{"bike_id":"20b445b1-ef40-46cb-b604-8b4753688fff","system_id":"levelo_inurba_marseille","lat":43.315233,"lon":5.380382,"is_reserved":false,"is_disabled":false,"rental_uris":{"android":"levelo://app?vid=20b445b1-ef40-46cb-b604-8b4753688fff","ios":"levelo://app?vid=20b445b1-ef40-46cb-b604-8b4753688fff"},"vehicle_type_id":"4","last_reported":1704013594,"current_range_meters":22400,"station_id":"","pricing_plan_id":"free"},{"bike_id":"d2b60c20-a57a-4587-9dfe-b0ec525218c2","system_id":"levelo_inurba_marseille","lat":43.301939,"lon":5.366286,"is_reserved":false,"is_disabled":false,"rental_uris":{"android":"levelo://app?vid=d2b60c20-a57a-4587-9dfe-b0ec525218c2","ios":"levelo://app?vid=d2b60c20-a57a-4587-9dfe-b0ec525218c2"},"vehicle_type_id":"4","last_reported":1704013594,"current_range_meters":30000,"station_id":"ce4bgrh2rcd13ifvqc8g","pricing_plan_id":"free"},{"bike_id":"efb24e79-fefd-4480-82ad-790690615074","system_id":"levelo_inurba_marseille","lat":43.308066,"lon":5.381504,"is_reserved":false,"is_disabled":false,"rental_uris":{"android":"levelo://app?vid=efb24e79-fefd-4480-82ad-790690615074","ios":"levelo://app?vid=efb24e79-fefd-4480-82ad-790690615074"},"vehicle_type_id":"4","last_reported":1704013594,"current_range_meters":31200,"station_id":"ce4bgt12rcd13ifvqce0","pricing_plan_id":"free"},{"bike_id":"0d517729-fb61-40ef-bb01-91bab4ba57f7","system_id":"levelo_inurba_marseille","lat":43.307947,"lon":5.381549,"is_reserved":false,"is_disabled":false,"rental_uris":{"android":"levelo://app?vid=0d517729-fb61-40ef-bb01-91bab4ba57f7","ios":"levelo://app?vid=0d517729-fb61-40ef-bb01-91bab4ba57f7"},"vehicle_type_id":"4","last_reported":1704013594,"current_range_meters":31200,"station_id":"ce4bgt12rcd13ifvqce0","pricing_plan_id":"free"},{"bike_id":"5f5e654f-00d6-48a4-a8fe-6eb3104d493e","system_id":"levelo_inurba_marseille","lat":43.304606,"lon":5.379026,"is_reserved":false,"is_disabled":false,"rental_uris":{"android":"levelo://app?vid=5f5e654f-00d6-48a4-a8fe-6eb3104d493e","ios":"levelo://app?vid=5f5e654f-00d6-48a4-a8fe-6eb3104d493e"},"vehicle_type_id":"4","last_reported":1704013594,"current_range_meters":31200,"station_id":"ce4bgup2rcd13ifvqcn0","pricing_plan_id":"free"},{"bike_id":"9adb32c7-82f8-4ccf-b2d9-f74983a410c7","system_id":"levelo_inurba_marseille","lat":43.304606,"lon":5.379026,"is_reserved":false,"is_disabled":false,"rental_uris":{"android":"levelo://app?vid=9adb32c7-82f8-4ccf-b2d9-f74983a410c7","ios":"levelo://app?vid=9adb32c7-82f8-4ccf-b2d9-f74983a410c7"},"vehicle_type_id":"4","last_reported":1704013594,"current_range_meters":25600,"station_id":"ce4bgup2rcd13ifvqcn0","pricing_plan_id":"free"},{"bike_id":"e4dcb29d-6179-427e-822d-8621bcd08456","system_id":"levelo_inurba_marseille","lat":43.304708,"lon":5.379039,"is_reserved":false,"is_disabled":false,"rental_uris":{"android":"levelo://app?vid=e4dcb29d-6179-427e-822d-8621bcd08456","ios":"levelo://app?vid=e4dcb29d-6179-427e-822d-8621bcd08456"},"vehicle_type_id":"4","last_reported":1704013594,"current_range_meters":19200,"station_id":"","pricing_plan_id":"free"},{"bike_id":"fc1eb1be-8f99-41ab-ba18-115898c83ba9","system_id":"levelo_inurba_marseille","lat":43.304606,"lon":5.379026,"is_reserved":false,"is_disabled":false,"rental_uris":{"android":"levelo://app?vid=fc1eb1be-8f99-41ab-ba18-115898c83ba9","ios":"levelo://app?vid=fc1eb1be-8f99-41ab-ba18-115898c83ba9"},"vehicle_type_id":"4","last_reported":1704013594,"current_range_meters":28800,"station_id":"ce4bgup2rcd13ifvqcn0","pricing_plan_id":"free"},{"bike_id":"8dd58076-50d2-4c22-a985-171400cd4f55","system_id":"levelo_inurba_marseille","lat":43.304606,"lon":5.379026,"is_reserved":false,"is_disabled":false,"rental_uris":{"android":"levelo://app?vid=8dd58076-50d2-4c22-a985-171400cd4f55","ios":"levelo://app?vid=8dd58076-50d2-4c22-a985-171400cd4f55"},"vehicle_type_id":"4","last_reported":1704013594,"current_range_meters":22800,"station_id":"ce4bgup2rcd13ifvqcn0","pricing_plan_id":"free"},{"bike_id":"1b3b935a-d730-47b8-8f1a-27d7dbde499d","system_id":"levelo_inurba_marseille","lat":43.304606,"lon":5.379026,"is_reserved":false,"is_disabled":false,"rental_uris":{"android":"levelo://app?vid=1b3b935a-d730-47b8-8f1a-27d7dbde499d","ios":"levelo://app?vid=1b3b935a-d730-47b8-8f1a-27d7dbde499d"},"vehicle_type_id":"4","last_reported":1704013594,"current_range_meters":24400,"station_id":"ce4bgup2rcd13ifvqcn0","pricing_plan_id":"free"},{"bike_id":"e120e24c-e3c8-4209-8dbb-e732b044f4db","system_id":"levelo_inurba_marseille","lat":43.304606,"lon":5.379026,"is_reserved":false,"is_disabled":false,"rental_uris":{"android":"levelo://app?vid=e120e24c-e3c8-4209-8dbb-e732b044f4db","ios":"levelo://app?vid=e120e24c-e3c8-4209-8dbb-e732b044f4db"},"vehicle_type_id":"4","last_reported":1704013594,"current_range_meters":26400,"station_id":"ce4bgup2rcd13ifvqcn0","pricing_plan_id":"free"},{"bike_id":"ff502fa9-0e47-4ec2-903e-b00764e85bbc","system_id":"levelo_inurba_marseille","lat":43.304606,"lon":5.379026,"is_reserved":false,"is_disabled":false,"rental_uris":{"android":"levelo://app?vid=ff502fa9-0e47-4ec2-903e-b00764e85bbc","ios":"levelo://app?vid=ff502fa9-0e47-4ec2-903e-b00764e85bbc"},"vehicle_type_id":"4","last_reported":1704013594,"current_range_meters":27200,"station_id":"ce4bgup2rcd13ifvqcn0","pricing_plan_id":"free"},{"bike_id":"20757a92-b7f3-4449-8614-21e63b8b5b9f","system_id":"levelo_inurba_marseille","lat":43.304606,"lon":5.379026,"is_reserved":false,"is_disabled":false,"rental_uris":{"android":"levelo://app?vid=20757a92-b7f3-4449-8614-21e63b8b5b9f","ios":"levelo://app?vid=20757a92-b7f3-4449-8614-21e63b8b5b9f"},"vehicle_type_id":"4","last_reported":1704013594,"current_range_meters":29200,"station_id":"ce4bgup2rcd13ifvqcn0","pricing_plan_id":"free"},{"bike_id":"e6b6ec46-ff9d-4979-8e48-2831c6d29578","system_id":"levelo_inurba_marseille","lat":43.304606,"lon":5.379026,"is_reserved":false,"is_disabled":false,"rental_uris":{"android":"levelo://app?vid=e6b6ec46-ff9d-4979-8e48-2831c6d29578","ios":"levelo://app?vid=e6b6ec46-ff9d-4979-8e48-2831c6d29578"},"vehicle_type_id":"4","last_reported":1704013594,"current_range_meters":24800,"station_id":"ce4bgup2rcd13ifvqcn0","pricing_plan_id":"free"},{"bike_id":"4fa861da-569d-4bc0-bf7d-f2025a29d04e","system_id":"levelo_inurba_marseille","lat":43.304606,"lon":5.379026,"is_reserved":false,"is_disabled":false,"rental_uris":{"android":"levelo://app?vid=4fa861da-569d-4bc0-bf7d-f2025a29d04e","ios":"levelo://app?vid=4fa861da-569d-4bc0-bf7d-f2025a29d04e"},"vehicle_type_id":"4","last_reported":1704013594,"current_range_meters":28800,"station_id":"ce4bgup2rcd13ifvqcn0","pricing_plan_id":"free"},{"bike_id":"bbe46cff-0355-447d-8bc6-e090b80337fe","system_id":"levelo_inurba_marseille","lat":43.304606,"lon":5.379026,"is_reserved":false,"is_disabled":false,"rental_uris":{"android":"levelo://app?vid=bbe46cff-0355-447d-8bc6-e090b80337fe","ios":"levelo://app?vid=bbe46cff-0355-447d-8bc6-e090b80337fe"},"vehicle_type_id":"4","last_reported":1704013594,"current_range_meters":22400,"station_id":"ce4bgup2rcd13ifvqcn0","pricing_plan_id":"free"},{"bike_id":"c9abfcd5-791b-4ddb-9bb4-23ffe03e3924","system_id":"levelo_inurba_marseille","lat":43.304606,"lon":5.379026,"is_reserved":false,"is_disabled":false,"rental_uris":{"android":"levelo://app?vid=c9abfcd5-791b-4ddb-9bb4-23ffe03e3924","ios":"levelo://app?vid=c9abfcd5-791b-4ddb-9bb4-23ffe03e3924"},"vehicle_type_id":"4","last_reported":1704013594,"current_range_meters":23200,"station_id":"ce4bgup2rcd13ifvqcn0","pricing_plan_id":"free"},{"bike_id":"b684027f-b6cb-4bcf-9226-4556aa04044c","system_id":"levelo_inurba_marseille","lat":43.304606,"lon":5.379026,"is_reserved":false,"is_disabled":false,"rental_uris":{"android":"levelo://app?vid=b684027f-b6cb-4bcf-9226-4556aa04044c","ios":"levelo://app?vid=b684027f-b6cb-4bcf-9226-4556aa04044c"},"vehicle_type_id":"4","last_reported":1704013594,"current_range_meters":24000,"station_id":"ce4bgup2rcd13ifvqcn0","pricing_plan_id":"free"},{"bike_id":"a96185c9-0e86-4dcb-88b6-87e2e9cadb1c","system_id":"levelo_inurba_marseille","lat":43.304606,"lon":5.379026,"is_reserved":false,"is_disabled":false,"rental_uris":{"android":"levelo://app?vid=a96185c9-0e86-4dcb-88b6-87e2e9cadb1c","ios":"levelo://app?vid=a96185c9-0e86-4dcb-88b6-87e2e9cadb1c"},"vehicle_type_id":"4","last_reported":1704013594,"current_range_meters":21600,"station_id":"ce4bgup2rcd13ifvqcn0","pricing_plan_id":"free"},{"bike_id":"edd9c623-f9e5-4efd-ac1b-dd522e328204","system_id":"levelo_inurba_marseille","lat":43.304606,"lon":5.379026,"is_reserved":false,"is_disabled":false,"rental_uris":{"android":"levelo://app?vid=edd9c623-f9e5-4efd-ac1b-dd522e328204","ios":"levelo://app?vid=edd9c623-f9e5-4efd-ac1b-dd522e328204"},"vehicle_type_id":"4","last_reported":1704013594,"current_range_meters":31200,"station_id":"ce4bgup2rcd13ifvqcn0","pricing_plan_id":"free"},{"bike_id":"04989ec7-db91-4943-81f9-f4a3fba86a38","system_id":"levelo_inurba_marseille","lat":43.302784,"lon":5.377158,"is_reserved":false,"is_disabled":false,"rental_uris":{"android":"levelo://app?vid=04989ec7-db91-4943-81f9-f4a3fba86a38","ios":"levelo://app?vid=04989ec7-db91-4943-81f9-f4a3fba86a38"},"vehicle_type_id":"4","last_reported":1704013594,"current_range_meters":21200,"station_id":"ce4bguh2rcd13ifvqcj0","pricing_plan_id":"free"},{"bike_id":"9030d8d6-4659-48bb-ab24-ce81b0712d26","system_id":"levelo_inurba_marseille","lat":43.301429,"lon":5.37413,"is_reserved":false,"is_disabled":false,"rental_uris":{"android":"levelo://app?vid=9030d8d6-4659-48bb-ab24-ce81b0712d26","ios":"levelo://app?vid=9030d8d6-4659-48bb-ab24-ce81b0712d26"},"vehicle_type_id":"4","last_reported":1704013594,"current_range_meters":29200,"station_id":"ce4bgs92rcd13ifvqcc0","pricing_plan_id":"free"},{"bike_id":"cf7de832-7671-448c-8926-8c4cffc145a8","system_id":"levelo_inurba_marseille","lat":43.319935,"lon":5.381699,"is_reserved":false,"is_disabled":false,"rental_uris":{"android":"levelo://app?vid=cf7de832-7671-448c-8926-8c4cffc145a8","ios":"levelo://app?vid=cf7de832-7671-448c-8926-8c4cffc145a8"},"vehicle_type_id":"4","last_reported":1704013594,"current_range_meters":30800,"station_id":"ce4bhr12rcd13ifvqhpg","pricing_plan_id":"free"},{"bike_id":"42f0e134-8926-4ffe-84f7-77b44767e66d","system_id":"levelo_inurba_marseille","lat":43.319935,"lon":5.381699,"is_reserved":false,"is_disabled":false,"rental_uris":{"android":"levelo://app?vid=42f0e134-8926-4ffe-84f7-77b44767e66d","ios":"levelo://app?vid=42f0e134-8926-4ffe-84f7-77b44767e66d"},"vehicle_type_id":"4","last_reported":1704013594,"current_range_meters":27600,"station_id":"ce4bhr12rcd13ifvqhpg","pricing_plan_id":"free"},{"bike_id":"b6e175b2-7ff4-44c6-a5a6-070588ca3901","system_id":"levelo_inurba_marseille","lat":43.313571,"lon":5.384829,"is_reserved":false,"is_disabled":false,"rental_uris":{"android":"levelo://app?vid=b6e175b2-7ff4-44c6-a5a6-070588ca3901","ios":"levelo://app?vid=b6e175b2-7ff4-44c6-a5a6-070588ca3901"},"vehicle_type_id":"4","last_reported":1704013594,"current_range_meters":24400,"station_id":"ce4bgt92rcd13ifvqcf0","pricing_plan_id":"free"},{"bike_id":"a38004ee-721c-4ebf-9263-150d7ec6133c","system_id":"levelo_inurba_marseille","lat":43.313653,"lon":5.384942,"is_reserved":false,"is_disabled":false,"rental_uris":{"android":"levelo://app?vid=a38004ee-721c-4ebf-9263-150d7ec6133c","ios":"levelo://app?vid=a38004ee-721c-4ebf-9263-150d7ec6133c"},"vehicle_type_id":"4","last_reported":1704013594,"current_range_meters":22800,"station_id":"ce4bgt92rcd13ifvqcf0","pricing_plan_id":"free"},{"bike_id":"bc0ac5aa-31a4-4271-815f-67908c45df76","system_id":"levelo_inurba_marseille","lat":43.305364,"lon":5.384119,"is_reserved":false,"is_disabled":false,"rental_uris":{"android":"levelo://app?vid=bc0ac5aa-31a4-4271-815f-67908c45df76","ios":"levelo://app?vid=bc0ac5aa-31a4-4271-815f-67908c45df76"},"vehicle_type_id":"4","last_reported":1704013594,"current_range_meters":26000,"station_id":"ce4bgg92rcd13ifvqb30","pricing_plan_id":"free"},{"bike_id":"e8fdfba1-78a6-49db-b882-69c1c85a3342","system_id":"levelo_inurba_marseille","lat":43.305364,"lon":5.384119,"is_reserved":false,"is_disabled":false,"rental_uris":{"android":"levelo://app?vid=e8fdfba1-78a6-49db-b882-69c1c85a3342","ios":"levelo://app?vid=e8fdfba1-78a6-49db-b882-69c1c85a3342"},"vehicle_type_id":"4","last_reported":1704013594,"current_range_meters":18800,"station_id":"ce4bgg92rcd13ifvqb30","pricing_plan_id":"free"},{"bike_id":"7c47ec01-0a7c-4a35-9bf5-102b72259b64","system_id":"levelo_inurba_marseille","lat":43.298433,"lon":5.362774,"is_reserved":false,"is_disabled":false,"rental_uris":{"android":"levelo://app?vid=7c47ec01-0a7c-4a35-9bf5-102b72259b64","ios":"levelo://app?vid=7c47ec01-0a7c-4a35-9bf5-102b72259b64"},"vehicle_type_id":"4","last_reported":1704013594,"current_range_meters":24400,"station_id":"ce4bgpp2rcd13ifvqc3g","pricing_plan_id":"free"},{"bike_id":"044d5ef5-0c25-41e7-ae2b-658e95d7702b","system_id":"levelo_inurba_marseille","lat":43.298433,"lon":5.362774,"is_reserved":false,"is_disabled":false,"rental_uris":{"android":"levelo://app?vid=044d5ef5-0c25-41e7-ae2b-658e95d7702b","ios":"levelo://app?vid=044d5ef5-0c25-41e7-ae2b-658e95d7702b"},"vehicle_type_id":"4","last_reported":1704013594,"current_range_meters":27600,"station_id":"ce4bgpp2rcd13ifvqc3g","pricing_plan_id":"free"},{"bike_id":"dc35eec6-da4e-423a-b87d-8a0ec1fa8785","system_id":"levelo_inurba_marseille","lat":43.298433,"lon":5.362774,"is_reserved":false,"is_disabled":false,"rental_uris":{"android":"levelo://app?vid=dc35eec6-da4e-423a-b87d-8a0ec1fa8785","ios":"levelo://app?vid=dc35eec6-da4e-423a-b87d-8a0ec1fa8785"},"vehicle_type_id":"4","last_reported":1704013594,"current_range_meters":23600,"station_id":"ce4bgpp2rcd13ifvqc3g","pricing_plan_id":"free"},{"bike_id":"1bbf8a36-5b5d-45cc-908b-25967c01c47e","system_id":"levelo_inurba_marseille","lat":43.311722,"lon":5.387247,"is_reserved":false,"is_disabled":false,"rental_uris":{"android":"levelo://app?vid=1bbf8a36-5b5d-45cc-908b-25967c01c47e","ios":"levelo://app?vid=1bbf8a36-5b5d-45cc-908b-25967c01c47e"},"vehicle_type_id":"4","last_reported":1704013594,"current_range_meters":7600,"station_id":"ce4bgv12rcd13ifvqcp0","pricing_plan_id":"free"},{"bike_id":"4911eca9-9de5-440b-99c2-f0b5109ca9e7","system_id":"levelo_inurba_marseille","lat":43.311722,"lon":5.387247,"is_reserved":false,"is_disabled":false,"rental_uris":{"android":"levelo://app?vid=4911eca9-9de5-440b-99c2-f0b5109ca9e7","ios":"levelo://app?vid=4911eca9-9de5-440b-99c2-f0b5109ca9e7"},"vehicle_type_id":"4","last_reported":1704013594,"current_range_meters":27600,"station_id":"ce4bgv12rcd13ifvqcp0","pricing_plan_id":"free"},{"bike_id":"dc4b106d-c80d-4bd8-8ab9-5f1e1b429e00","system_id":"levelo_inurba_marseille","lat":43.311722,"lon":5.387247,"is_reserved":false,"is_disabled":false,"rental_uris":{"android":"levelo://app?vid=dc4b106d-c80d-4bd8-8ab9-5f1e1b429e00","ios":"levelo://app?vid=dc4b106d-c80d-4bd8-8ab9-5f1e1b429e00"},"vehicle_type_id":"4","last_reported":1704013594,"current_range_meters":31200,"station_id":"ce4bgv12rcd13ifvqcp0","pricing_plan_id":"free"},{"bike_id":"8e3c1396-3ebb-449b-b96d-9dc92db64366","system_id":"levelo_inurba_marseille","lat":43.311722,"lon":5.387247,"is_reserved":false,"is_disabled":false,"rental_uris":{"android":"levelo://app?vid=8e3c1396-3ebb-449b-b96d-9dc92db64366","ios":"levelo://app?vid=8e3c1396-3ebb-449b-b96d-9dc92db64366"},"vehicle_type_id":"4","last_reported":1704013594,"current_range_meters":20400,"station_id":"ce4bgv12rcd13ifvqcp0","pricing_plan_id":"free"},{"bike_id":"fdc0b565-20a1-493e-9668-b0fcc5598c2d","system_id":"levelo_inurba_marseille","lat":43.311722,"lon":5.387247,"is_reserved":false,"is_disabled":false,"rental_uris":{"android":"levelo://app?vid=fdc0b565-20a1-493e-9668-b0fcc5598c2d","ios":"levelo://app?vid=fdc0b565-20a1-493e-9668-b0fcc5598c2d"},"vehicle_type_id":"4","last_reported":1704013594,"current_range_meters":28000,"station_id":"ce4bgv12rcd13ifvqcp0","pricing_plan_id":"free"},{"bike_id":"b5ccd610-ca96-47a9-bd64-c4aac3fbf958","system_id":"levelo_inurba_marseille","lat":43.311722,"lon":5.387247,"is_reserved":false,"is_disabled":false,"rental_uris":{"android":"levelo://app?vid=b5ccd610-ca96-47a9-bd64-c4aac3fbf958","ios":"levelo://app?vid=b5ccd610-ca96-47a9-bd64-c4aac3fbf958"},"vehicle_type_id":"4","last_reported":1704013594,"current_range_meters":30800,"station_id":"ce4bgv12rcd13ifvqcp0","pricing_plan_id":"free"},{"bike_id":"5f628256-6b8a-462d-bc50-6979c994c9a6","system_id":"levelo_inurba_marseille","lat":43.311722,"lon":5.387247,"is_reserved":false,"is_disabled":false,"rental_uris":{"android":"levelo://app?vid=5f628256-6b8a-462d-bc50-6979c994c9a6","ios":"levelo://app?vid=5f628256-6b8a-462d-bc50-6979c994c9a6"},"vehicle_type_id":"4","last_reported":1704013594,"current_range_meters":31200,"station_id":"ce4bgv12rcd13ifvqcp0","pricing_plan_id":"free"},{"bike_id":"1c86e5d7-cbb3-4aae-9d82-7bae1674fe97","system_id":"levelo_inurba_marseille","lat":43.297774,"lon":5.370875,"is_reserved":false,"is_disabled":false,"rental_uris":{"android":"levelo://app?vid=1c86e5d7-cbb3-4aae-9d82-7bae1674fe97","ios":"levelo://app?vid=1c86e5d7-cbb3-4aae-9d82-7bae1674fe97"},"vehicle_type_id":"4","last_reported":1704013594,"current_range_meters":24800,"station_id":"ce4bgop2rcd13ifvqc1g","pricing_plan_id":"free"},{"bike_id":"c05d138a-9eaa-4578-84f8-5eb99c852b0c","system_id":"levelo_inurba_marseille","lat":43.299126,"lon":5.376298,"is_reserved":false,"is_disabled":false,"rental_uris":{"android":"levelo://app?vid=c05d138a-9eaa-4578-84f8-5eb99c852b0c","ios":"levelo://app?vid=c05d138a-9eaa-4578-84f8-5eb99c852b0c"},"vehicle_type_id":"4","last_reported":1704013594,"current_range_meters":4400,"station_id":"","pricing_plan_id":"free"},{"bike_id":"2567715a-6f49-4249-a04d-3f445815e91b","system_id":"levelo_inurba_marseille","lat":43.297794,"lon":5.370888,"is_reserved":false,"is_disabled":false,"rental_uris":{"android":"levelo://app?vid=2567715a-6f49-4249-a04d-3f445815e91b","ios":"levelo://app?vid=2567715a-6f49-4249-a04d-3f445815e91b"},"vehicle_type_id":"4","last_reported":1704013594,"current_range_meters":31200,"station_id":"ce4bgop2rcd13ifvqc1g","pricing_plan_id":"free"},{"bike_id":"78b2282b-b46b-4494-bc4d-0783d9b9b106","system_id":"levelo_inurba_marseille","lat":43.322872,"lon":5.382756,"is_reserved":false,"is_disabled":false,"rental_uris":{"android":"levelo://app?vid=78b2282b-b46b-4494-bc4d-0783d9b9b106","ios":"levelo://app?vid=78b2282b-b46b-4494-bc4d-0783d9b9b106"},"vehicle_type_id":"4","last_reported":1704013594,"current_range_meters":27600,"station_id":"ce4bhr12rcd13ifvqhqg","pricing_plan_id":"free"},{"bike_id":"2154e13a-10ef-4d79-b4f3-a92c055765e5","system_id":"levelo_inurba_marseille","lat":43.322872,"lon":5.382756,"is_reserved":false,"is_disabled":false,"rental_uris":{"android":"levelo://app?vid=2154e13a-10ef-4d79-b4f3-a92c055765e5","ios":"levelo://app?vid=2154e13a-10ef-4d79-b4f3-a92c055765e5"},"vehicle_type_id":"4","last_reported":1704013594,"current_range_meters":31200,"station_id":"ce4bhr12rcd13ifvqhqg","pricing_plan_id":"free"},{"bike_id":"341c08e8-590f-49ec-b3d8-929d1eff1926","system_id":"levelo_inurba_marseille","lat":43.328228,"lon":5.366808,"is_reserved":false,"is_disabled":false,"rental_uris":{"android":"levelo://app?vid=341c08e8-590f-49ec-b3d8-929d1eff1926","ios":"levelo://app?vid=341c08e8-590f-49ec-b3d8-929d1eff1926"},"vehicle_type_id":"4","last_reported":1704013594,"current_range_meters":30400,"station_id":"ce4bhs92rcd13ifvqi0g","pricing_plan_id":"free"},{"bike_id":"b30b3d1b-ef61-4776-bd7b-61c34fd8cc81","system_id":"levelo_inurba_marseille","lat":43.328249,"lon":5.366764,"is_reserved":false,"is_disabled":false,"rental_uris":{"android":"levelo://app?vid=b30b3d1b-ef61-4776-bd7b-61c34fd8cc81","ios":"levelo://app?vid=b30b3d1b-ef61-4776-bd7b-61c34fd8cc81"},"vehicle_type_id":"4","last_reported":1704013594,"current_range_meters":4000,"station_id":"ce4bhs92rcd13ifvqi0g","pricing_plan_id":"free"},{"bike_id":"a677cd10-a09b-4b2e-bffd-45b05d2c9229","system_id":"levelo_inurba_marseille","lat":43.32826,"lon":5.36681,"is_reserved":false,"is_disabled":false,"rental_uris":{"android":"levelo://app?vid=a677cd10-a09b-4b2e-bffd-45b05d2c9229","ios":"levelo://app?vid=a677cd10-a09b-4b2e-bffd-45b05d2c9229"},"vehicle_type_id":"4","last_reported":1704013594,"current_range_meters":14000,"station_id":"ce4bhs92rcd13ifvqi0g","pricing_plan_id":"free"},{"bike_id":"3406ac08-144e-419c-8a8c-9c89910b5b78","system_id":"levelo_inurba_marseille","lat":43.32827,"lon":5.36681,"is_reserved":false,"is_disabled":false,"rental_uris":{"android":"levelo://app?vid=3406ac08-144e-419c-8a8c-9c89910b5b78","ios":"levelo://app?vid=3406ac08-144e-419c-8a8c-9c89910b5b78"},"vehicle_type_id":"4","last_reported":1704013594,"current_range_meters":28400,"station_id":"ce4bhs92rcd13ifvqi0g","pricing_plan_id":"free"},{"bike_id":"74ff96ff-c851-4d57-8883-0d7347bd471f","system_id":"levelo_inurba_marseille","lat":43.32827,"lon":5.36672,"is_reserved":false,"is_disabled":false,"rental_uris":{"android":"levelo://app?vid=74ff96ff-c851-4d57-8883-0d7347bd471f","ios":"levelo://app?vid=74ff96ff-c851-4d57-8883-0d7347bd471f"},"vehicle_type_id":"4","last_reported":1704013594,"current_range_meters":27600,"station_id":"ce4bhs92rcd13ifvqi0g","pricing_plan_id":"free"},{"bike_id":"60ed3d85-f6ba-4cba-adae-3ffec35ea736","system_id":"levelo_inurba_marseille","lat":43.328371,"lon":5.366912,"is_reserved":false,"is_disabled":false,"rental_uris":{"android":"levelo://app?vid=60ed3d85-f6ba-4cba-adae-3ffec35ea736","ios":"levelo://app?vid=60ed3d85-f6ba-4cba-adae-3ffec35ea736"},"vehicle_type_id":"4","last_reported":1704013594,"current_range_meters":17200,"station_id":"ce4bhs92rcd13ifvqi0g","pricing_plan_id":"free"},{"bike_id":"9d832f49-b330-492c-bca5-26b211dfab4e","system_id":"levelo_inurba_marseille","lat":43.32828,"lon":5.36673,"is_reserved":false,"is_disabled":false,"rental_uris":{"android":"levelo://app?vid=9d832f49-b330-492c-bca5-26b211dfab4e","ios":"levelo://app?vid=9d832f49-b330-492c-bca5-26b211dfab4e"},"vehicle_type_id":"4","last_reported":1704013594,"current_range_meters":16800,"station_id":"ce4bhs92rcd13ifvqi0g","pricing_plan_id":"free"},{"bike_id":"51714c4a-3132-4951-88ec-80e85fa125e8","system_id":"levelo_inurba_marseille","lat":43.328286,"lon":5.366803,"is_reserved":false,"is_disabled":false,"rental_uris":{"android":"levelo://app?vid=51714c4a-3132-4951-88ec-80e85fa125e8","ios":"levelo://app?vid=51714c4a-3132-4951-88ec-80e85fa125e8"},"vehicle_type_id":"4","last_reported":1704013594,"current_range_meters":30400,"station_id":"ce4bhs92rcd13ifvqi0g","pricing_plan_id":"free"},{"bike_id":"43517afb-7930-42e8-a305-e900a3000a28","system_id":"levelo_inurba_marseille","lat":43.328371,"lon":5.366912,"is_reserved":false,"is_disabled":false,"rental_uris":{"android":"levelo://app?vid=43517afb-7930-42e8-a305-e900a3000a28","ios":"levelo://app?vid=43517afb-7930-42e8-a305-e900a3000a28"},"vehicle_type_id":"4","last_reported":1704013594,"current_range_meters":16800,"station_id":"ce4bhs92rcd13ifvqi0g","pricing_plan_id":"free"},{"bike_id":"c99c1421-6c70-45e1-a99f-19afba82ca69","system_id":"levelo_inurba_marseille","lat":43.32829,"lon":5.36673,"is_reserved":false,"is_disabled":false,"rental_uris":{"android":"levelo://app?vid=c99c1421-6c70-45e1-a99f-19afba82ca69","ios":"levelo://app?vid=c99c1421-6c70-45e1-a99f-19afba82ca69"},"vehicle_type_id":"4","last_reported":1704013594,"current_range_meters":23600,"station_id":"ce4bhs92rcd13ifvqi0g","pricing_plan_id":"free"},{"bike_id":"7aa6a530-3ac6-4ec6-a447-a7bf4c489e07","system_id":"levelo_inurba_marseille","lat":43.3283,"lon":5.36676,"is_reserved":false,"is_disabled":false,"rental_uris":{"android":"levelo://app?vid=7aa6a530-3ac6-4ec6-a447-a7bf4c489e07","ios":"levelo://app?vid=7aa6a530-3ac6-4ec6-a447-a7bf4c489e07"},"vehicle_type_id":"4","last_reported":1704013594,"current_range_meters":16400,"station_id":"ce4bhs92rcd13ifvqi0g","pricing_plan_id":"free"},{"bike_id":"a448ca86-2b35-41e1-89c4-32a99bab0563","system_id":"levelo_inurba_marseille","lat":43.328371,"lon":5.366912,"is_reserved":false,"is_disabled":false,"rental_uris":{"android":"levelo://app?vid=a448ca86-2b35-41e1-89c4-32a99bab0563","ios":"levelo://app?vid=a448ca86-2b35-41e1-89c4-32a99bab0563"},"vehicle_type_id":"4","last_reported":1704013594,"current_range_meters":12000,"station_id":"ce4bhs92rcd13ifvqi0g","pricing_plan_id":"free"},{"bike_id":"15c48ead-179a-4b34-8e1c-920824ff4c19","system_id":"levelo_inurba_marseille","lat":43.32831,"lon":5.36672,"is_reserved":false,"is_disabled":false,"rental_uris":{"android":"levelo://app?vid=15c48ead-179a-4b34-8e1c-920824ff4c19","ios":"levelo://app?vid=15c48ead-179a-4b34-8e1c-920824ff4c19"},"vehicle_type_id":"4","last_reported":1704013594,"current_range_meters":30800,"station_id":"ce4bhs92rcd13ifvqi0g","pricing_plan_id":"free"},{"bike_id":"ea7074d7-b7c9-4941-82c2-dff391bae9cb","system_id":"levelo_inurba_marseille","lat":43.32832,"lon":5.36678,"is_reserved":false,"is_disabled":false,"rental_uris":{"android":"levelo://app?vid=ea7074d7-b7c9-4941-82c2-dff391bae9cb","ios":"levelo://app?vid=ea7074d7-b7c9-4941-82c2-dff391bae9cb"},"vehicle_type_id":"4","last_reported":1704013594,"current_range_meters":25600,"station_id":"ce4bhs92rcd13ifvqi0g","pricing_plan_id":"free"},{"bike_id":"904f83aa-e9ab-401d-84c1-9edfed82b884","system_id":"levelo_inurba_marseille","lat":43.32832,"lon":5.36675,"is_reserved":false,"is_disabled":false,"rental_uris":{"android":"levelo://app?vid=904f83aa-e9ab-401d-84c1-9edfed82b884","ios":"levelo://app?vid=904f83aa-e9ab-401d-84c1-9edfed82b884"},"vehicle_type_id":"4","last_reported":1704013594,"current_range_meters":22800,"station_id":"ce4bhs92rcd13ifvqi0g","pricing_plan_id":"free"},{"bike_id":"882dc7bf-57dd-43a7-8b9c-e58a692c7cb9","system_id":"levelo_inurba_marseille","lat":43.297163,"lon":5.365866,"is_reserved":false,"is_disabled":false,"rental_uris":{"android":"levelo://app?vid=882dc7bf-57dd-43a7-8b9c-e58a692c7cb9","ios":"levelo://app?vid=882dc7bf-57dd-43a7-8b9c-e58a692c7cb9"},"vehicle_type_id":"4","last_reported":1704013594,"current_range_meters":7600,"station_id":"ce4bgn12rcd13ifvqbt0","pricing_plan_id":"free"},{"bike_id":"370cccf7-c9ba-46c2-819b-c8e8cacc4c21","system_id":"levelo_inurba_marseille","lat":43.3277,"lon":5.37458,"is_reserved":false,"is_disabled":false,"rental_uris":{"android":"levelo://app?vid=370cccf7-c9ba-46c2-819b-c8e8cacc4c21","ios":"levelo://app?vid=370cccf7-c9ba-46c2-819b-c8e8cacc4c21"},"vehicle_type_id":"4","last_reported":1704013594,"current_range_meters":17200,"station_id":"","pricing_plan_id":"free"},{"bike_id":"921b424d-ad0d-4c7a-9d74-66e3a49bfa19","system_id":"levelo_inurba_marseille","lat":43.32934,"lon":5.36612,"is_reserved":false,"is_disabled":false,"rental_uris":{"android":"levelo://app?vid=921b424d-ad0d-4c7a-9d74-66e3a49bfa19","ios":"levelo://app?vid=921b424d-ad0d-4c7a-9d74-66e3a49bfa19"},"vehicle_type_id":"4","last_reported":1704013594,"current_range_meters":2400,"station_id":"","pricing_plan_id":"free"},{"bike_id":"8c6d35b2-5153-45c4-8b31-bbd617f7b378","system_id":"levelo_inurba_marseille","lat":43.29628,"lon":5.37143,"is_reserved":false,"is_disabled":false,"rental_uris":{"android":"levelo://app?vid=8c6d35b2-5153-45c4-8b31-bbd617f7b378","ios":"levelo://app?vid=8c6d35b2-5153-45c4-8b31-bbd617f7b378"},"vehicle_type_id":"4","last_reported":1704013594,"current_range_meters":30800,"station_id":"ce4bgnh2rcd13ifvqc0g","pricing_plan_id":"free"},{"bike_id":"2409447b-5d27-4dd8-b233-2985f5b89ea7","system_id":"levelo_inurba_marseille","lat":43.296131,"lon":5.370791,"is_reserved":false,"is_disabled":false,"rental_uris":{"android":"levelo://app?vid=2409447b-5d27-4dd8-b233-2985f5b89ea7","ios":"levelo://app?vid=2409447b-5d27-4dd8-b233-2985f5b89ea7"},"vehicle_type_id":"4","last_reported":1704013594,"current_range_meters":26000,"station_id":"ce4bgnh2rcd13ifvqc0g","pricing_plan_id":"free"},{"bike_id":"4762fa4b-c1cd-4873-8ad4-413028440705","system_id":"levelo_inurba_marseille","lat":43.296131,"lon":5.370773,"is_reserved":false,"is_disabled":false,"rental_uris":{"android":"levelo://app?vid=4762fa4b-c1cd-4873-8ad4-413028440705","ios":"levelo://app?vid=4762fa4b-c1cd-4873-8ad4-413028440705"},"vehicle_type_id":"4","last_reported":1704013594,"current_range_meters":28800,"station_id":"ce4bgnh2rcd13ifvqc0g","pricing_plan_id":"free"},{"bike_id":"2f38b8d5-9886-4bf1-a31a-6914535ab415","system_id":"levelo_inurba_marseille","lat":43.29573,"lon":5.367355,"is_reserved":false,"is_disabled":false,"rental_uris":{"android":"levelo://app?vid=2f38b8d5-9886-4bf1-a31a-6914535ab415","ios":"levelo://app?vid=2f38b8d5-9886-4bf1-a31a-6914535ab415"},"vehicle_type_id":"4","last_reported":1704013594,"current_range_meters":29600,"station_id":"ce4bgph2rcd13ifvqc2g","pricing_plan_id":"free"},{"bike_id":"a727d3ac-6858-4795-941c-52dba21a791f","system_id":"levelo_inurba_marseille","lat":43.309589,"lon":5.390258,"is_reserved":false,"is_disabled":false,"rental_uris":{"android":"levelo://app?vid=a727d3ac-6858-4795-941c-52dba21a791f","ios":"levelo://app?vid=a727d3ac-6858-4795-941c-52dba21a791f"},"vehicle_type_id":"4","last_reported":1704013594,"current_range_meters":27600,"station_id":"ce4bgup2rcd13ifvqco0","pricing_plan_id":"free"},{"bike_id":"4c73a732-4f7e-49b1-bf0c-710e1d70f659","system_id":"levelo_inurba_marseille","lat":43.309589,"lon":5.390258,"is_reserved":false,"is_disabled":false,"rental_uris":{"android":"levelo://app?vid=4c73a732-4f7e-49b1-bf0c-710e1d70f659","ios":"levelo://app?vid=4c73a732-4f7e-49b1-bf0c-710e1d70f659"},"vehicle_type_id":"4","last_reported":1704013594,"current_range_meters":2000,"station_id":"ce4bgup2rcd13ifvqco0","pricing_plan_id":"free"},{"bike_id":"962a558e-c8e6-4d08-a884-c03597fcd27e","system_id":"levelo_inurba_marseille","lat":43.317557,"lon":5.390173,"is_reserved":false,"is_disabled":false,"rental_uris":{"android":"levelo://app?vid=962a558e-c8e6-4d08-a884-c03597fcd27e","ios":"levelo://app?vid=962a558e-c8e6-4d08-a884-c03597fcd27e"},"vehicle_type_id":"4","last_reported":1704013594,"current_range_meters":29200,"station_id":"ce4bhqp2rcd13ifvqhng","pricing_plan_id":"free"},{"bike_id":"d60802d6-4f47-444a-b234-883690eec05b","system_id":"levelo_inurba_marseille","lat":43.33062,"lon":5.3627,"is_reserved":false,"is_disabled":false,"rental_uris":{"android":"levelo://app?vid=d60802d6-4f47-444a-b234-883690eec05b","ios":"levelo://app?vid=d60802d6-4f47-444a-b234-883690eec05b"},"vehicle_type_id":"4","last_reported":1704013594,"current_range_meters":24000,"station_id":"","pricing_plan_id":"free"},{"bike_id":"e79a5f20-0b6f-4ac7-9d22-2c5f3bc2f949","system_id":"levelo_inurba_marseille","lat":43.296263,"lon":5.377094,"is_reserved":false,"is_disabled":false,"rental_uris":{"android":"levelo://app?vid=e79a5f20-0b6f-4ac7-9d22-2c5f3bc2f949","ios":"levelo://app?vid=e79a5f20-0b6f-4ac7-9d22-2c5f3bc2f949"},"vehicle_type_id":"4","last_reported":1704013594,"current_range_meters":24400,"station_id":"ce4bgi92rcd13ifvqb90","pricing_plan_id":"free"},{"bike_id":"f0e3d6c2-83b7-452a-bee2-42d42208850a","system_id":"levelo_inurba_marseille","lat":43.296277,"lon":5.377108,"is_reserved":false,"is_disabled":false,"rental_uris":{"android":"levelo://app?vid=f0e3d6c2-83b7-452a-bee2-42d42208850a","ios":"levelo://app?vid=f0e3d6c2-83b7-452a-bee2-42d42208850a"},"vehicle_type_id":"4","last_reported":1704013594,"current_range_meters":21200,"station_id":"ce4bgi92rcd13ifvqb90","pricing_plan_id":"free"},{"bike_id":"7119845d-00aa-4d9f-be8c-fc97d41f1380","system_id":"levelo_inurba_marseille","lat":43.297594,"lon":5.381134,"is_reserved":false,"is_disabled":false,"rental_uris":{"android":"levelo://app?vid=7119845d-00aa-4d9f-be8c-fc97d41f1380","ios":"levelo://app?vid=7119845d-00aa-4d9f-be8c-fc97d41f1380"},"vehicle_type_id":"4","last_reported":1704013594,"current_range_meters":12400,"station_id":"ce4bgip2rcd13ifvqbb0","pricing_plan_id":"free"},{"bike_id":"6dc8b67f-7677-4649-90b5-6c004787a94e","system_id":"levelo_inurba_marseille","lat":43.32367,"lon":5.388836,"is_reserved":false,"is_disabled":false,"rental_uris":{"android":"levelo://app?vid=6dc8b67f-7677-4649-90b5-6c004787a94e","ios":"levelo://app?vid=6dc8b67f-7677-4649-90b5-6c004787a94e"},"vehicle_type_id":"4","last_reported":1704013594,"current_range_meters":12000,"station_id":"ce4bhqp2rcd13ifvqhog","pricing_plan_id":"free"},{"bike_id":"c472997c-8921-4240-9407-9bbb195b44d8","system_id":"levelo_inurba_marseille","lat":43.32367,"lon":5.388836,"is_reserved":false,"is_disabled":false,"rental_uris":{"android":"levelo://app?vid=c472997c-8921-4240-9407-9bbb195b44d8","ios":"levelo://app?vid=c472997c-8921-4240-9407-9bbb195b44d8"},"vehicle_type_id":"4","last_reported":1704013594,"current_range_meters":30400,"station_id":"ce4bhqp2rcd13ifvqhog","pricing_plan_id":"free"},{"bike_id":"2086e601-f5ee-4693-9563-19ce1935d7be","system_id":"levelo_inurba_marseille","lat":43.32367,"lon":5.388836,"is_reserved":false,"is_disabled":false,"rental_uris":{"android":"levelo://app?vid=2086e601-f5ee-4693-9563-19ce1935d7be","ios":"levelo://app?vid=2086e601-f5ee-4693-9563-19ce1935d7be"},"vehicle_type_id":"4","last_reported":1704013594,"current_range_meters":31200,"station_id":"ce4bhqp2rcd13ifvqhog","pricing_plan_id":"free"},{"bike_id":"21c35184-2cff-45c5-a579-0cd18467e694","system_id":"levelo_inurba_marseille","lat":43.32367,"lon":5.388836,"is_reserved":false,"is_disabled":false,"rental_uris":{"android":"levelo://app?vid=21c35184-2cff-45c5-a579-0cd18467e694","ios":"levelo://app?vid=21c35184-2cff-45c5-a579-0cd18467e694"},"vehicle_type_id":"4","last_reported":1704013594,"current_range_meters":28400,"station_id":"ce4bhqp2rcd13ifvqhog","pricing_plan_id":"free"},{"bike_id":"122ea523-742e-4de1-aad4-693e2611c6b8","system_id":"levelo_inurba_marseille","lat":43.32367,"lon":5.388836,"is_reserved":false,"is_disabled":false,"rental_uris":{"android":"levelo://app?vid=122ea523-742e-4de1-aad4-693e2611c6b8","ios":"levelo://app?vid=122ea523-742e-4de1-aad4-693e2611c6b8"},"vehicle_type_id":"4","last_reported":1704013594,"current_range_meters":31200,"station_id":"ce4bhqp2rcd13ifvqhog","pricing_plan_id":"free"},{"bike_id":"fdba10d6-6c0f-4aa0-aa2d-a60cd34dc728","system_id":"levelo_inurba_marseille","lat":43.32367,"lon":5.388836,"is_reserved":false,"is_disabled":false,"rental_uris":{"android":"levelo://app?vid=fdba10d6-6c0f-4aa0-aa2d-a60cd34dc728","ios":"levelo://app?vid=fdba10d6-6c0f-4aa0-aa2d-a60cd34dc728"},"vehicle_type_id":"4","last_reported":1704013594,"current_range_meters":11600,"station_id":"ce4bhqp2rcd13ifvqhog","pricing_plan_id":"free"},{"bike_id":"62b008d0-e1df-40e1-8992-86ae612cce77","system_id":"levelo_inurba_marseille","lat":43.293259,"lon":5.371586,"is_reserved":false,"is_disabled":false,"rental_uris":{"android":"levelo://app?vid=62b008d0-e1df-40e1-8992-86ae612cce77","ios":"levelo://app?vid=62b008d0-e1df-40e1-8992-86ae612cce77"},"vehicle_type_id":"4","last_reported":1704013594,"current_range_meters":29600,"station_id":"ce4bgh92rcd13ifvqb40","pricing_plan_id":"free"},{"bike_id":"8dd75542-a35b-444e-a285-c2ce5af03ae9","system_id":"levelo_inurba_marseille","lat":43.293009,"lon":5.374584,"is_reserved":false,"is_disabled":false,"rental_uris":{"android":"levelo://app?vid=8dd75542-a35b-444e-a285-c2ce5af03ae9","ios":"levelo://app?vid=8dd75542-a35b-444e-a285-c2ce5af03ae9"},"vehicle_type_id":"4","last_reported":1704013594,"current_range_meters":30800,"station_id":"ce4bgi12rcd13ifvqb70","pricing_plan_id":"free"},{"bike_id":"9a9d7426-cc25-45a5-898b-7503c7189f35","system_id":"levelo_inurba_marseille","lat":43.293259,"lon":5.371586,"is_reserved":false,"is_disabled":false,"rental_uris":{"android":"levelo://app?vid=9a9d7426-cc25-45a5-898b-7503c7189f35","ios":"levelo://app?vid=9a9d7426-cc25-45a5-898b-7503c7189f35"},"vehicle_type_id":"4","last_reported":1704013594,"current_range_meters":20400,"station_id":"ce4bgh92rcd13ifvqb40","pricing_plan_id":"free"},{"bike_id":"d3f39e14-2c01-4cbd-b5c7-86781713825b","system_id":"levelo_inurba_marseille","lat":43.293009,"lon":5.374584,"is_reserved":false,"is_disabled":false,"rental_uris":{"android":"levelo://app?vid=d3f39e14-2c01-4cbd-b5c7-86781713825b","ios":"levelo://app?vid=d3f39e14-2c01-4cbd-b5c7-86781713825b"},"vehicle_type_id":"4","last_reported":1704013594,"current_range_meters":28400,"station_id":"ce4bgi12rcd13ifvqb70","pricing_plan_id":"free"},{"bike_id":"37cdaec2-643b-460e-b812-52ed1cbc6b93","system_id":"levelo_inurba_marseille","lat":43.293009,"lon":5.374584,"is_reserved":false,"is_disabled":false,"rental_uris":{"android":"levelo://app?vid=37cdaec2-643b-460e-b812-52ed1cbc6b93","ios":"levelo://app?vid=37cdaec2-643b-460e-b812-52ed1cbc6b93"},"vehicle_type_id":"4","last_reported":1704013594,"current_range_meters":30000,"station_id":"ce4bgi12rcd13ifvqb70","pricing_plan_id":"free"},{"bike_id":"35228086-edfa-4848-801f-a2282ebc3acf","system_id":"levelo_inurba_marseille","lat":43.292654,"lon":5.376218,"is_reserved":false,"is_disabled":false,"rental_uris":{"android":"levelo://app?vid=35228086-edfa-4848-801f-a2282ebc3acf","ios":"levelo://app?vid=35228086-edfa-4848-801f-a2282ebc3acf"},"vehicle_type_id":"4","last_reported":1704013594,"current_range_meters":23200,"station_id":"","pricing_plan_id":"free"},{"bike_id":"390b3f3a-65ed-40bd-859c-ca405438ce53","system_id":"levelo_inurba_marseille","lat":43.292647,"lon":5.376236,"is_reserved":false,"is_disabled":false,"rental_uris":{"android":"levelo://app?vid=390b3f3a-65ed-40bd-859c-ca405438ce53","ios":"levelo://app?vid=390b3f3a-65ed-40bd-859c-ca405438ce53"},"vehicle_type_id":"4","last_reported":1704013594,"current_range_meters":20400,"station_id":"","pricing_plan_id":"free"},{"bike_id":"008c4ea5-2993-43d4-b2fd-f0627f67fb95","system_id":"levelo_inurba_marseille","lat":43.291675,"lon":5.371583,"is_reserved":false,"is_disabled":false,"rental_uris":{"android":"levelo://app?vid=008c4ea5-2993-43d4-b2fd-f0627f67fb95","ios":"levelo://app?vid=008c4ea5-2993-43d4-b2fd-f0627f67fb95"},"vehicle_type_id":"4","last_reported":1704013594,"current_range_meters":17600,"station_id":"ce4bha92rcd13ifvqeh0","pricing_plan_id":"free"},{"bike_id":"3a40696a-163e-4d79-aaa1-c02972165851","system_id":"levelo_inurba_marseille","lat":43.291675,"lon":5.371583,"is_reserved":false,"is_disabled":false,"rental_uris":{"android":"levelo://app?vid=3a40696a-163e-4d79-aaa1-c02972165851","ios":"levelo://app?vid=3a40696a-163e-4d79-aaa1-c02972165851"},"vehicle_type_id":"4","last_reported":1704013594,"current_range_meters":30000,"station_id":"ce4bha92rcd13ifvqeh0","pricing_plan_id":"free"},{"bike_id":"dc86c63f-e497-4dc4-b167-4862199c82e7","system_id":"levelo_inurba_marseille","lat":43.309038,"lon":5.396546,"is_reserved":false,"is_disabled":false,"rental_uris":{"android":"levelo://app?vid=dc86c63f-e497-4dc4-b167-4862199c82e7","ios":"levelo://app?vid=dc86c63f-e497-4dc4-b167-4862199c82e7"},"vehicle_type_id":"4","last_reported":1704013594,"current_range_meters":29600,"station_id":"ce4bh012rcd13ifvqcv0","pricing_plan_id":"free"},{"bike_id":"ae3f9e9b-12bb-4ce2-a918-a1f08b210511","system_id":"levelo_inurba_marseille","lat":43.291994,"lon":5.357886,"is_reserved":false,"is_disabled":false,"rental_uris":{"android":"levelo://app?vid=ae3f9e9b-12bb-4ce2-a918-a1f08b210511","ios":"levelo://app?vid=ae3f9e9b-12bb-4ce2-a918-a1f08b210511"},"vehicle_type_id":"4","last_reported":1704013594,"current_range_meters":0,"station_id":"ce4bhb12rcd13ifvqel0","pricing_plan_id":"free"},{"bike_id":"5cf30968-0f7d-4d59-becc-64e3e994078f","system_id":"levelo_inurba_marseille","lat":43.313291,"lon":5.396838,"is_reserved":false,"is_disabled":false,"rental_uris":{"android":"levelo://app?vid=5cf30968-0f7d-4d59-becc-64e3e994078f","ios":"levelo://app?vid=5cf30968-0f7d-4d59-becc-64e3e994078f"},"vehicle_type_id":"4","last_reported":1704013594,"current_range_meters":28800,"station_id":"ce4bgvp2rcd13ifvqcu0","pricing_plan_id":"free"},{"bike_id":"b7ed5c5f-1ed9-4daa-8224-d1003e8fac9c","system_id":"levelo_inurba_marseille","lat":43.29529,"lon":5.385581,"is_reserved":false,"is_disabled":false,"rental_uris":{"android":"levelo://app?vid=b7ed5c5f-1ed9-4daa-8224-d1003e8fac9c","ios":"levelo://app?vid=b7ed5c5f-1ed9-4daa-8224-d1003e8fac9c"},"vehicle_type_id":"4","last_reported":1704013594,"current_range_meters":24800,"station_id":"ce4bgih2rcd13ifvqba0","pricing_plan_id":"free"},{"bike_id":"2407f5a3-9835-4467-92e7-9249706332b9","system_id":"levelo_inurba_marseille","lat":43.302008,"lon":5.394694,"is_reserved":false,"is_disabled":false,"rental_uris":{"android":"levelo://app?vid=2407f5a3-9835-4467-92e7-9249706332b9","ios":"levelo://app?vid=2407f5a3-9835-4467-92e7-9249706332b9"},"vehicle_type_id":"4","last_reported":1704013594,"current_range_meters":22000,"station_id":"ce4bh0p2rcd13ifvqd70","pricing_plan_id":"free"},{"bike_id":"6d63a046-b564-44ee-a7f7-102eba77b5cb","system_id":"levelo_inurba_marseille","lat":43.289184,"lon":5.366408,"is_reserved":false,"is_disabled":false,"rental_uris":{"android":"levelo://app?vid=6d63a046-b564-44ee-a7f7-102eba77b5cb","ios":"levelo://app?vid=6d63a046-b564-44ee-a7f7-102eba77b5cb"},"vehicle_type_id":"4","last_reported":1704013594,"current_range_meters":30000,"station_id":"ce4bhap2rcd13ifvqek0","pricing_plan_id":"free"},{"bike_id":"4e7d81a0-fd8b-41e7-bb87-f8addf177de0","system_id":"levelo_inurba_marseille","lat":43.304285,"lon":5.39748,"is_reserved":false,"is_disabled":false,"rental_uris":{"android":"levelo://app?vid=4e7d81a0-fd8b-41e7-bb87-f8addf177de0","ios":"levelo://app?vid=4e7d81a0-fd8b-41e7-bb87-f8addf177de0"},"vehicle_type_id":"4","last_reported":1704013594,"current_range_meters":30800,"station_id":"ce4bh092rcd13ifvqd20","pricing_plan_id":"free"},{"bike_id":"495faf64-a935-4c6e-b77f-2b296d14493a","system_id":"levelo_inurba_marseille","lat":43.331017,"lon":5.389194,"is_reserved":false,"is_disabled":false,"rental_uris":{"android":"levelo://app?vid=495faf64-a935-4c6e-b77f-2b296d14493a","ios":"levelo://app?vid=495faf64-a935-4c6e-b77f-2b296d14493a"},"vehicle_type_id":"4","last_reported":1704013594,"current_range_meters":0,"station_id":"","pricing_plan_id":"free"},{"bike_id":"3fc25d44-2370-44b5-9305-4ef67d74cc1f","system_id":"levelo_inurba_marseille","lat":43.289743,"lon":5.378304,"is_reserved":false,"is_disabled":false,"rental_uris":{"android":"levelo://app?vid=3fc25d44-2370-44b5-9305-4ef67d74cc1f","ios":"levelo://app?vid=3fc25d44-2370-44b5-9305-4ef67d74cc1f"},"vehicle_type_id":"4","last_reported":1704013594,"current_range_meters":24800,"station_id":"ce4bh9p2rcd13ifvqed0","pricing_plan_id":"free"},{"bike_id":"f8f797f8-d929-4c31-a99f-b7d4033b1a49","system_id":"levelo_inurba_marseille","lat":43.289743,"lon":5.378304,"is_reserved":false,"is_disabled":false,"rental_uris":{"android":"levelo://app?vid=f8f797f8-d929-4c31-a99f-b7d4033b1a49","ios":"levelo://app?vid=f8f797f8-d929-4c31-a99f-b7d4033b1a49"},"vehicle_type_id":"4","last_reported":1704013594,"current_range_meters":29600,"station_id":"ce4bh9p2rcd13ifvqed0","pricing_plan_id":"free"},{"bike_id":"e1f02e12-515c-4006-bba0-52d7ba66ce07","system_id":"levelo_inurba_marseille","lat":43.289743,"lon":5.378304,"is_reserved":false,"is_disabled":false,"rental_uris":{"android":"levelo://app?vid=e1f02e12-515c-4006-bba0-52d7ba66ce07","ios":"levelo://app?vid=e1f02e12-515c-4006-bba0-52d7ba66ce07"},"vehicle_type_id":"4","last_reported":1704013594,"current_range_meters":24800,"station_id":"ce4bh9p2rcd13ifvqed0","pricing_plan_id":"free"},{"bike_id":"23477dd1-495b-4599-beab-8a3d0665491b","system_id":"levelo_inurba_marseille","lat":43.290094,"lon":5.381264,"is_reserved":false,"is_disabled":false,"rental_uris":{"android":"levelo://app?vid=23477dd1-495b-4599-beab-8a3d0665491b","ios":"levelo://app?vid=23477dd1-495b-4599-beab-8a3d0665491b"},"vehicle_type_id":"4","last_reported":1704013594,"current_range_meters":31200,"station_id":"ce4bh4p2rcd13ifvqe1g","pricing_plan_id":"free"},{"bike_id":"cdbafc34-84c2-4c7e-a713-2035f1517edf","system_id":"levelo_inurba_marseille","lat":43.2901,"lon":5.381269,"is_reserved":false,"is_disabled":false,"rental_uris":{"android":"levelo://app?vid=cdbafc34-84c2-4c7e-a713-2035f1517edf","ios":"levelo://app?vid=cdbafc34-84c2-4c7e-a713-2035f1517edf"},"vehicle_type_id":"4","last_reported":1704013594,"current_range_meters":30000,"station_id":"ce4bh4p2rcd13ifvqe1g","pricing_plan_id":"free"},{"bike_id":"e339e0e7-99d1-4b64-ba45-e1b9370c523f","system_id":"levelo_inurba_marseille","lat":43.337373,"lon":5.37447,"is_reserved":false,"is_disabled":false,"rental_uris":{"android":"levelo://app?vid=e339e0e7-99d1-4b64-ba45-e1b9370c523f","ios":"levelo://app?vid=e339e0e7-99d1-4b64-ba45-e1b9370c523f"},"vehicle_type_id":"4","last_reported":1704013594,"current_range_meters":30800,"station_id":"","pricing_plan_id":"free"},{"bike_id":"0512d4d7-1751-4509-87a7-50c6c1714c19","system_id":"levelo_inurba_marseille","lat":43.312609,"lon":5.401662,"is_reserved":false,"is_disabled":false,"rental_uris":{"android":"levelo://app?vid=0512d4d7-1751-4509-87a7-50c6c1714c19","ios":"levelo://app?vid=0512d4d7-1751-4509-87a7-50c6c1714c19"},"vehicle_type_id":"4","last_reported":1704013594,"current_range_meters":20000,"station_id":"ce4bh092rcd13ifvqd30","pricing_plan_id":"free"},{"bike_id":"cababbbd-bdea-44dd-a30c-3bd5cdef8812","system_id":"levelo_inurba_marseille","lat":43.312743,"lon":5.401643,"is_reserved":false,"is_disabled":false,"rental_uris":{"android":"levelo://app?vid=cababbbd-bdea-44dd-a30c-3bd5cdef8812","ios":"levelo://app?vid=cababbbd-bdea-44dd-a30c-3bd5cdef8812"},"vehicle_type_id":"4","last_reported":1704013594,"current_range_meters":8000,"station_id":"ce4bh092rcd13ifvqd30","pricing_plan_id":"free"},{"bike_id":"2d33c5a2-5f86-49e1-a2c7-0ec45fdb387f","system_id":"levelo_inurba_marseille","lat":43.312609,"lon":5.401662,"is_reserved":false,"is_disabled":false,"rental_uris":{"android":"levelo://app?vid=2d33c5a2-5f86-49e1-a2c7-0ec45fdb387f","ios":"levelo://app?vid=2d33c5a2-5f86-49e1-a2c7-0ec45fdb387f"},"vehicle_type_id":"4","last_reported":1704013594,"current_range_meters":16000,"station_id":"ce4bh092rcd13ifvqd30","pricing_plan_id":"free"},{"bike_id":"2b7adb5c-9d94-444d-aafc-6e6fd4fb1ec1","system_id":"levelo_inurba_marseille","lat":43.31277,"lon":5.40165,"is_reserved":false,"is_disabled":false,"rental_uris":{"android":"levelo://app?vid=2b7adb5c-9d94-444d-aafc-6e6fd4fb1ec1","ios":"levelo://app?vid=2b7adb5c-9d94-444d-aafc-6e6fd4fb1ec1"},"vehicle_type_id":"4","last_reported":1704013594,"current_range_meters":28800,"station_id":"ce4bh092rcd13ifvqd30","pricing_plan_id":"free"},{"bike_id":"4ecf8bd4-ee8e-4dab-9c66-bb61c393dd2f","system_id":"levelo_inurba_marseille","lat":43.312806,"lon":5.401662,"is_reserved":false,"is_disabled":false,"rental_uris":{"android":"levelo://app?vid=4ecf8bd4-ee8e-4dab-9c66-bb61c393dd2f","ios":"levelo://app?vid=4ecf8bd4-ee8e-4dab-9c66-bb61c393dd2f"},"vehicle_type_id":"4","last_reported":1704013594,"current_range_meters":30000,"station_id":"ce4bh092rcd13ifvqd30","pricing_plan_id":"free"},{"bike_id":"9d948fc5-0a0b-4973-ba84-fddb60045e1c","system_id":"levelo_inurba_marseille","lat":43.312609,"lon":5.401662,"is_reserved":false,"is_disabled":false,"rental_uris":{"android":"levelo://app?vid=9d948fc5-0a0b-4973-ba84-fddb60045e1c","ios":"levelo://app?vid=9d948fc5-0a0b-4973-ba84-fddb60045e1c"},"vehicle_type_id":"4","last_reported":1704013594,"current_range_meters":21600,"station_id":"ce4bh092rcd13ifvqd30","pricing_plan_id":"free"},{"bike_id":"c9cf6ef6-708b-4ef5-b4e9-4c33358c220e","system_id":"levelo_inurba_marseille","lat":43.309371,"lon":5.401449,"is_reserved":false,"is_disabled":false,"rental_uris":{"android":"levelo://app?vid=c9cf6ef6-708b-4ef5-b4e9-4c33358c220e","ios":"levelo://app?vid=c9cf6ef6-708b-4ef5-b4e9-4c33358c220e"},"vehicle_type_id":"4","last_reported":1704013594,"current_range_meters":13600,"station_id":"ce4bgvp2rcd13ifvqct0","pricing_plan_id":"free"},{"bike_id":"0aaa9a54-f1a6-424c-ba21-2fb59e6eef23","system_id":"levelo_inurba_marseille","lat":43.30642,"lon":5.401031,"is_reserved":false,"is_disabled":false,"rental_uris":{"android":"levelo://app?vid=0aaa9a54-f1a6-424c-ba21-2fb59e6eef23","ios":"levelo://app?vid=0aaa9a54-f1a6-424c-ba21-2fb59e6eef23"},"vehicle_type_id":"4","last_reported":1704013594,"current_range_meters":27200,"station_id":"ce4bh112rcd13ifvqda0","pricing_plan_id":"free"},{"bike_id":"34f42ac5-ac2f-43c1-86fc-e5d8e70978c4","system_id":"levelo_inurba_marseille","lat":43.30642,"lon":5.401031,"is_reserved":false,"is_disabled":false,"rental_uris":{"android":"levelo://app?vid=34f42ac5-ac2f-43c1-86fc-e5d8e70978c4","ios":"levelo://app?vid=34f42ac5-ac2f-43c1-86fc-e5d8e70978c4"},"vehicle_type_id":"4","last_reported":1704013594,"current_range_meters":31200,"station_id":"ce4bh112rcd13ifvqda0","pricing_plan_id":"free"},{"bike_id":"c301fb8c-cfe6-441c-8d68-c52db0e2a128","system_id":"levelo_inurba_marseille","lat":43.28727,"lon":5.36078,"is_reserved":false,"is_disabled":false,"rental_uris":{"android":"levelo://app?vid=c301fb8c-cfe6-441c-8d68-c52db0e2a128","ios":"levelo://app?vid=c301fb8c-cfe6-441c-8d68-c52db0e2a128"},"vehicle_type_id":"4","last_reported":1704013594,"current_range_meters":28800,"station_id":"cki0cbj6b192h4jlfktg","pricing_plan_id":"free"},{"bike_id":"b262299b-df41-4c0e-acea-7d1f4a3c6a3b","system_id":"levelo_inurba_marseille","lat":43.28727,"lon":5.36078,"is_reserved":false,"is_disabled":false,"rental_uris":{"android":"levelo://app?vid=b262299b-df41-4c0e-acea-7d1f4a3c6a3b","ios":"levelo://app?vid=b262299b-df41-4c0e-acea-7d1f4a3c6a3b"},"vehicle_type_id":"4","last_reported":1704013594,"current_range_meters":31200,"station_id":"cki0cbj6b192h4jlfktg","pricing_plan_id":"free"},{"bike_id":"98cc25ca-f7e4-4722-a164-2e8c552ed796","system_id":"levelo_inurba_marseille","lat":43.298681,"lon":5.397225,"is_reserved":false,"is_disabled":false,"rental_uris":{"android":"levelo://app?vid=98cc25ca-f7e4-4722-a164-2e8c552ed796","ios":"levelo://app?vid=98cc25ca-f7e4-4722-a164-2e8c552ed796"},"vehicle_type_id":"4","last_reported":1704013594,"current_range_meters":23600,"station_id":"ce4bh0h2rcd13ifvqd50","pricing_plan_id":"free"},{"bike_id":"9cb4e78a-4eeb-4c3d-8898-cb9534b20b8c","system_id":"levelo_inurba_marseille","lat":43.286591,"lon":5.363346,"is_reserved":false,"is_disabled":false,"rental_uris":{"android":"levelo://app?vid=9cb4e78a-4eeb-4c3d-8898-cb9534b20b8c","ios":"levelo://app?vid=9cb4e78a-4eeb-4c3d-8898-cb9534b20b8c"},"vehicle_type_id":"4","last_reported":1704013594,"current_range_meters":28000,"station_id":"ce4bhah2rcd13ifvqej0","pricing_plan_id":"free"},{"bike_id":"a5738968-8f49-4df4-be73-2bb217d4bb7e","system_id":"levelo_inurba_marseille","lat":43.286961,"lon":5.373785,"is_reserved":false,"is_disabled":false,"rental_uris":{"android":"levelo://app?vid=a5738968-8f49-4df4-be73-2bb217d4bb7e","ios":"levelo://app?vid=a5738968-8f49-4df4-be73-2bb217d4bb7e"},"vehicle_type_id":"4","last_reported":1704013594,"current_range_meters":30800,"station_id":"ce4bh3p2rcd13ifvqdq0","pricing_plan_id":"free"},{"bike_id":"1bed1e9f-2d1e-40af-ba0f-5604a4b96a80","system_id":"levelo_inurba_marseille","lat":43.302759,"lon":5.400793,"is_reserved":false,"is_disabled":false,"rental_uris":{"android":"levelo://app?vid=1bed1e9f-2d1e-40af-ba0f-5604a4b96a80","ios":"levelo://app?vid=1bed1e9f-2d1e-40af-ba0f-5604a4b96a80"},"vehicle_type_id":"4","last_reported":1704013594,"current_range_meters":31200,"station_id":"ce4bgvh2rcd13ifvqcs0","pricing_plan_id":"free"},{"bike_id":"9c04cabe-0f5c-4783-a5a0-e94d3cd5abc9","system_id":"levelo_inurba_marseille","lat":43.302759,"lon":5.400793,"is_reserved":false,"is_disabled":false,"rental_uris":{"android":"levelo://app?vid=9c04cabe-0f5c-4783-a5a0-e94d3cd5abc9","ios":"levelo://app?vid=9c04cabe-0f5c-4783-a5a0-e94d3cd5abc9"},"vehicle_type_id":"4","last_reported":1704013594,"current_range_meters":27200,"station_id":"ce4bgvh2rcd13ifvqcs0","pricing_plan_id":"free"},{"bike_id":"5c28e87b-40b8-4984-9240-4ac6a465ad25","system_id":"levelo_inurba_marseille","lat":43.286039,"lon":5.370679,"is_reserved":false,"is_disabled":false,"rental_uris":{"android":"levelo://app?vid=5c28e87b-40b8-4984-9240-4ac6a465ad25","ios":"levelo://app?vid=5c28e87b-40b8-4984-9240-4ac6a465ad25"},"vehicle_type_id":"4","last_reported":1704013594,"current_range_meters":25600,"station_id":"ce4bht12rcd13ifvqi60","pricing_plan_id":"free"},{"bike_id":"b756c8cb-8465-4389-ae58-f7022e479857","system_id":"levelo_inurba_marseille","lat":43.316828,"lon":5.404723,"is_reserved":false,"is_disabled":false,"rental_uris":{"android":"levelo://app?vid=b756c8cb-8465-4389-ae58-f7022e479857","ios":"levelo://app?vid=b756c8cb-8465-4389-ae58-f7022e479857"},"vehicle_type_id":"4","last_reported":1704013594,"current_range_meters":19600,"station_id":"ce4bh012rcd13ifvqd00","pricing_plan_id":"free"},{"bike_id":"0adf7f00-b0b7-450c-8f99-71d3c0e9f55b","system_id":"levelo_inurba_marseille","lat":43.284538,"lon":5.358657,"is_reserved":false,"is_disabled":false,"rental_uris":{"android":"levelo://app?vid=0adf7f00-b0b7-450c-8f99-71d3c0e9f55b","ios":"levelo://app?vid=0adf7f00-b0b7-450c-8f99-71d3c0e9f55b"},"vehicle_type_id":"4","last_reported":1704013594,"current_range_meters":22400,"station_id":"ce4bhah2rcd13ifvqei0","pricing_plan_id":"free"},{"bike_id":"93b47ccd-1870-4ef8-ad03-55747a0a092f","system_id":"levelo_inurba_marseille","lat":43.294314,"lon":5.397498,"is_reserved":false,"is_disabled":false,"rental_uris":{"android":"levelo://app?vid=93b47ccd-1870-4ef8-ad03-55747a0a092f","ios":"levelo://app?vid=93b47ccd-1870-4ef8-ad03-55747a0a092f"},"vehicle_type_id":"4","last_reported":1704013594,"current_range_meters":4400,"station_id":"ce4bh3h2rcd13ifvqdo0","pricing_plan_id":"free"},{"bike_id":"47e3c16d-cd95-4338-b51c-5c7903b306d8","system_id":"levelo_inurba_marseille","lat":43.284534,"lon":5.358662,"is_reserved":false,"is_disabled":false,"rental_uris":{"android":"levelo://app?vid=47e3c16d-cd95-4338-b51c-5c7903b306d8","ios":"levelo://app?vid=47e3c16d-cd95-4338-b51c-5c7903b306d8"},"vehicle_type_id":"4","last_reported":1704013594,"current_range_meters":24800,"station_id":"ce4bhah2rcd13ifvqei0","pricing_plan_id":"free"},{"bike_id":"1327c928-4b92-4584-99ef-f115f827c8ed","system_id":"levelo_inurba_marseille","lat":43.294314,"lon":5.397498,"is_reserved":false,"is_disabled":false,"rental_uris":{"android":"levelo://app?vid=1327c928-4b92-4584-99ef-f115f827c8ed","ios":"levelo://app?vid=1327c928-4b92-4584-99ef-f115f827c8ed"},"vehicle_type_id":"4","last_reported":1704013594,"current_range_meters":26400,"station_id":"ce4bh3h2rcd13ifvqdo0","pricing_plan_id":"free"},{"bike_id":"aa615a5f-261b-48d7-b06b-a6d8051df684","system_id":"levelo_inurba_marseille","lat":43.284534,"lon":5.358662,"is_reserved":false,"is_disabled":false,"rental_uris":{"android":"levelo://app?vid=aa615a5f-261b-48d7-b06b-a6d8051df684","ios":"levelo://app?vid=aa615a5f-261b-48d7-b06b-a6d8051df684"},"vehicle_type_id":"4","last_reported":1704013594,"current_range_meters":31200,"station_id":"ce4bhah2rcd13ifvqei0","pricing_plan_id":"free"},{"bike_id":"9e9a7724-bf59-4a55-9479-a5f90021a7f9","system_id":"levelo_inurba_marseille","lat":43.28619,"lon":5.35099,"is_reserved":false,"is_disabled":false,"rental_uris":{"android":"levelo://app?vid=9e9a7724-bf59-4a55-9479-a5f90021a7f9","ios":"levelo://app?vid=9e9a7724-bf59-4a55-9479-a5f90021a7f9"},"vehicle_type_id":"4","last_reported":1704013594,"current_range_meters":0,"station_id":"","pricing_plan_id":"free"},{"bike_id":"11ea6338-2358-438c-bbf4-54ed051e3225","system_id":"levelo_inurba_marseille","lat":43.285848,"lon":5.350787,"is_reserved":false,"is_disabled":false,"rental_uris":{"android":"levelo://app?vid=11ea6338-2358-438c-bbf4-54ed051e3225","ios":"levelo://app?vid=11ea6338-2358-438c-bbf4-54ed051e3225"},"vehicle_type_id":"4","last_reported":1704013594,"current_range_meters":17200,"station_id":"ce4bhch2rcd13ifvqeug","pricing_plan_id":"free"},{"bike_id":"6ad551d5-8f9b-4dcd-858b-1cfe2df68e62","system_id":"levelo_inurba_marseille","lat":43.285848,"lon":5.350787,"is_reserved":false,"is_disabled":false,"rental_uris":{"android":"levelo://app?vid=6ad551d5-8f9b-4dcd-858b-1cfe2df68e62","ios":"levelo://app?vid=6ad551d5-8f9b-4dcd-858b-1cfe2df68e62"},"vehicle_type_id":"4","last_reported":1704013594,"current_range_meters":15600,"station_id":"ce4bhch2rcd13ifvqeug","pricing_plan_id":"free"},{"bike_id":"d07cf06e-217a-489c-ad6c-0e72608655a6","system_id":"levelo_inurba_marseille","lat":43.286595,"lon":5.386795,"is_reserved":false,"is_disabled":false,"rental_uris":{"android":"levelo://app?vid=d07cf06e-217a-489c-ad6c-0e72608655a6","ios":"levelo://app?vid=d07cf06e-217a-489c-ad6c-0e72608655a6"},"vehicle_type_id":"4","last_reported":1704013594,"current_range_meters":22400,"station_id":"ce4bh492rcd13ifvqdug","pricing_plan_id":"free"},{"bike_id":"2a34418a-68fc-4df0-a58c-b424089bf812","system_id":"levelo_inurba_marseille","lat":43.33717,"lon":5.391857,"is_reserved":false,"is_disabled":false,"rental_uris":{"android":"levelo://app?vid=2a34418a-68fc-4df0-a58c-b424089bf812","ios":"levelo://app?vid=2a34418a-68fc-4df0-a58c-b424089bf812"},"vehicle_type_id":"4","last_reported":1704013594,"current_range_meters":29600,"station_id":"ce4bhr92rcd13ifvqhsg","pricing_plan_id":"free"},{"bike_id":"ca8cc347-d5bd-40d2-8cba-775c99edb6ed","system_id":"levelo_inurba_marseille","lat":43.33717,"lon":5.391857,"is_reserved":false,"is_disabled":false,"rental_uris":{"android":"levelo://app?vid=ca8cc347-d5bd-40d2-8cba-775c99edb6ed","ios":"levelo://app?vid=ca8cc347-d5bd-40d2-8cba-775c99edb6ed"},"vehicle_type_id":"4","last_reported":1704013594,"current_range_meters":24800,"station_id":"ce4bhr92rcd13ifvqhsg","pricing_plan_id":"free"},{"bike_id":"81e98546-48f6-4e53-9a96-d12ea8cec360","system_id":"levelo_inurba_marseille","lat":43.323464,"lon":5.406297,"is_reserved":false,"is_disabled":false,"rental_uris":{"android":"levelo://app?vid=81e98546-48f6-4e53-9a96-d12ea8cec360","ios":"levelo://app?vid=81e98546-48f6-4e53-9a96-d12ea8cec360"},"vehicle_type_id":"4","last_reported":1704013594,"current_range_meters":28000,"station_id":"ce4bhq92rcd13ifvqhjg","pricing_plan_id":"free"},{"bike_id":"27384424-8a97-42bd-b5e2-2620d9722f47","system_id":"levelo_inurba_marseille","lat":43.284763,"lon":5.38417,"is_reserved":false,"is_disabled":false,"rental_uris":{"android":"levelo://app?vid=27384424-8a97-42bd-b5e2-2620d9722f47","ios":"levelo://app?vid=27384424-8a97-42bd-b5e2-2620d9722f47"},"vehicle_type_id":"4","last_reported":1704013594,"current_range_meters":30800,"station_id":"ce4bh512rcd13ifvqe3g","pricing_plan_id":"free"},{"bike_id":"261e31b7-0114-450c-bb23-322c2163f3b8","system_id":"levelo_inurba_marseille","lat":43.283498,"lon":5.380948,"is_reserved":false,"is_disabled":false,"rental_uris":{"android":"levelo://app?vid=261e31b7-0114-450c-bb23-322c2163f3b8","ios":"levelo://app?vid=261e31b7-0114-450c-bb23-322c2163f3b8"},"vehicle_type_id":"4","last_reported":1704013594,"current_range_meters":31200,"station_id":"ce4bh412rcd13ifvqdr0","pricing_plan_id":"free"},{"bike_id":"e485450b-2736-4f4c-b94b-0da5a69b88aa","system_id":"levelo_inurba_marseille","lat":43.33385,"lon":5.39822,"is_reserved":false,"is_disabled":false,"rental_uris":{"android":"levelo://app?vid=e485450b-2736-4f4c-b94b-0da5a69b88aa","ios":"levelo://app?vid=e485450b-2736-4f4c-b94b-0da5a69b88aa"},"vehicle_type_id":"4","last_reported":1704013594,"current_range_meters":4000,"station_id":"","pricing_plan_id":"free"},{"bike_id":"8c1715b0-ba25-4230-aafa-ef6dc5421e5a","system_id":"levelo_inurba_marseille","lat":43.282754,"lon":5.350519,"is_reserved":false,"is_disabled":false,"rental_uris":{"android":"levelo://app?vid=8c1715b0-ba25-4230-aafa-ef6dc5421e5a","ios":"levelo://app?vid=8c1715b0-ba25-4230-aafa-ef6dc5421e5a"},"vehicle_type_id":"4","last_reported":1704013594,"current_range_meters":24800,"station_id":"ce4bhbp2rcd13ifvqerg","pricing_plan_id":"free"},{"bike_id":"f37a884c-c737-4f0d-bd38-cd3f65f6a0af","system_id":"levelo_inurba_marseille","lat":43.282754,"lon":5.350519,"is_reserved":false,"is_disabled":false,"rental_uris":{"android":"levelo://app?vid=f37a884c-c737-4f0d-bd38-cd3f65f6a0af","ios":"levelo://app?vid=f37a884c-c737-4f0d-bd38-cd3f65f6a0af"},"vehicle_type_id":"4","last_reported":1704013594,"current_range_meters":29200,"station_id":"ce4bhbp2rcd13ifvqerg","pricing_plan_id":"free"},{"bike_id":"7f9ea06f-a63f-487c-9076-0b7e40e402de","system_id":"levelo_inurba_marseille","lat":43.282754,"lon":5.350519,"is_reserved":false,"is_disabled":false,"rental_uris":{"android":"levelo://app?vid=7f9ea06f-a63f-487c-9076-0b7e40e402de","ios":"levelo://app?vid=7f9ea06f-a63f-487c-9076-0b7e40e402de"},"vehicle_type_id":"4","last_reported":1704013594,"current_range_meters":31200,"station_id":"ce4bhbp2rcd13ifvqerg","pricing_plan_id":"free"},{"bike_id":"ec23691f-cf72-4ed5-a843-a6445561b22e","system_id":"levelo_inurba_marseille","lat":43.282754,"lon":5.350519,"is_reserved":false,"is_disabled":false,"rental_uris":{"android":"levelo://app?vid=ec23691f-cf72-4ed5-a843-a6445561b22e","ios":"levelo://app?vid=ec23691f-cf72-4ed5-a843-a6445561b22e"},"vehicle_type_id":"4","last_reported":1704013594,"current_range_meters":17600,"station_id":"ce4bhbp2rcd13ifvqerg","pricing_plan_id":"free"},{"bike_id":"4a6a61b4-cc32-4630-bc63-6ef67c559ab5","system_id":"levelo_inurba_marseille","lat":43.282754,"lon":5.350519,"is_reserved":false,"is_disabled":false,"rental_uris":{"android":"levelo://app?vid=4a6a61b4-cc32-4630-bc63-6ef67c559ab5","ios":"levelo://app?vid=4a6a61b4-cc32-4630-bc63-6ef67c559ab5"},"vehicle_type_id":"4","last_reported":1704013594,"current_range_meters":27600,"station_id":"ce4bhbp2rcd13ifvqerg","pricing_plan_id":"free"},{"bike_id":"b03cc6f4-bb18-4d4a-805f-a3fdbe2f79fe","system_id":"levelo_inurba_marseille","lat":43.282754,"lon":5.350519,"is_reserved":false,"is_disabled":false,"rental_uris":{"android":"levelo://app?vid=b03cc6f4-bb18-4d4a-805f-a3fdbe2f79fe","ios":"levelo://app?vid=b03cc6f4-bb18-4d4a-805f-a3fdbe2f79fe"},"vehicle_type_id":"4","last_reported":1704013594,"current_range_meters":28400,"station_id":"ce4bhbp2rcd13ifvqerg","pricing_plan_id":"free"},{"bike_id":"79cc33bc-88f5-41d2-93de-83c60e8e81e5","system_id":"levelo_inurba_marseille","lat":43.282754,"lon":5.350519,"is_reserved":false,"is_disabled":false,"rental_uris":{"android":"levelo://app?vid=79cc33bc-88f5-41d2-93de-83c60e8e81e5","ios":"levelo://app?vid=79cc33bc-88f5-41d2-93de-83c60e8e81e5"},"vehicle_type_id":"4","last_reported":1704013594,"current_range_meters":24400,"station_id":"ce4bhbp2rcd13ifvqerg","pricing_plan_id":"free"},{"bike_id":"b0540660-2a9b-44d1-a0b1-9d70c719c8f1","system_id":"levelo_inurba_marseille","lat":43.282754,"lon":5.350519,"is_reserved":false,"is_disabled":false,"rental_uris":{"android":"levelo://app?vid=b0540660-2a9b-44d1-a0b1-9d70c719c8f1","ios":"levelo://app?vid=b0540660-2a9b-44d1-a0b1-9d70c719c8f1"},"vehicle_type_id":"4","last_reported":1704013594,"current_range_meters":26400,"station_id":"ce4bhbp2rcd13ifvqerg","pricing_plan_id":"free"},{"bike_id":"6325f18e-a2bf-4873-b2c4-740b9fbba92f","system_id":"levelo_inurba_marseille","lat":43.282754,"lon":5.350519,"is_reserved":false,"is_disabled":false,"rental_uris":{"android":"levelo://app?vid=6325f18e-a2bf-4873-b2c4-740b9fbba92f","ios":"levelo://app?vid=6325f18e-a2bf-4873-b2c4-740b9fbba92f"},"vehicle_type_id":"4","last_reported":1704013594,"current_range_meters":21600,"station_id":"ce4bhbp2rcd13ifvqerg","pricing_plan_id":"free"},{"bike_id":"88bb234c-4962-4132-8fb9-8db545bf7f38","system_id":"levelo_inurba_marseille","lat":43.282744,"lon":5.350533,"is_reserved":false,"is_disabled":false,"rental_uris":{"android":"levelo://app?vid=88bb234c-4962-4132-8fb9-8db545bf7f38","ios":"levelo://app?vid=88bb234c-4962-4132-8fb9-8db545bf7f38"},"vehicle_type_id":"4","last_reported":1704013594,"current_range_meters":18000,"station_id":"ce4bhbp2rcd13ifvqerg","pricing_plan_id":"free"},{"bike_id":"4e816d35-ca4e-44a4-8c6d-bffe5e399c3a","system_id":"levelo_inurba_marseille","lat":43.282744,"lon":5.350533,"is_reserved":false,"is_disabled":false,"rental_uris":{"android":"levelo://app?vid=4e816d35-ca4e-44a4-8c6d-bffe5e399c3a","ios":"levelo://app?vid=4e816d35-ca4e-44a4-8c6d-bffe5e399c3a"},"vehicle_type_id":"4","last_reported":1704013594,"current_range_meters":20000,"station_id":"ce4bhbp2rcd13ifvqerg","pricing_plan_id":"free"},{"bike_id":"fbfd8e32-4d80-4d8d-ba45-f560c59f860b","system_id":"levelo_inurba_marseille","lat":43.282754,"lon":5.350519,"is_reserved":false,"is_disabled":false,"rental_uris":{"android":"levelo://app?vid=fbfd8e32-4d80-4d8d-ba45-f560c59f860b","ios":"levelo://app?vid=fbfd8e32-4d80-4d8d-ba45-f560c59f860b"},"vehicle_type_id":"4","last_reported":1704013594,"current_range_meters":29600,"station_id":"ce4bhbp2rcd13ifvqerg","pricing_plan_id":"free"},{"bike_id":"75652f45-6b35-4786-a4f2-5fd4808af969","system_id":"levelo_inurba_marseille","lat":43.28039,"lon":5.369297,"is_reserved":false,"is_disabled":false,"rental_uris":{"android":"levelo://app?vid=75652f45-6b35-4786-a4f2-5fd4808af969","ios":"levelo://app?vid=75652f45-6b35-4786-a4f2-5fd4808af969"},"vehicle_type_id":"4","last_reported":1704013594,"current_range_meters":31200,"station_id":"ce4bha12rcd13ifvqef0","pricing_plan_id":"free"},{"bike_id":"c4832363-fda5-4b7d-ba06-dc16742ffb4d","system_id":"levelo_inurba_marseille","lat":43.280382,"lon":5.369291,"is_reserved":false,"is_disabled":false,"rental_uris":{"android":"levelo://app?vid=c4832363-fda5-4b7d-ba06-dc16742ffb4d","ios":"levelo://app?vid=c4832363-fda5-4b7d-ba06-dc16742ffb4d"},"vehicle_type_id":"4","last_reported":1704013594,"current_range_meters":21200,"station_id":"ce4bha12rcd13ifvqef0","pricing_plan_id":"free"},{"bike_id":"a17599d5-4cc5-4caf-908b-efd20eb479f1","system_id":"levelo_inurba_marseille","lat":43.28039,"lon":5.369297,"is_reserved":false,"is_disabled":false,"rental_uris":{"android":"levelo://app?vid=a17599d5-4cc5-4caf-908b-efd20eb479f1","ios":"levelo://app?vid=a17599d5-4cc5-4caf-908b-efd20eb479f1"},"vehicle_type_id":"4","last_reported":1704013594,"current_range_meters":28000,"station_id":"ce4bha12rcd13ifvqef0","pricing_plan_id":"free"},{"bike_id":"77ec6399-f2bb-44b8-8f10-e3badbe5046a","system_id":"levelo_inurba_marseille","lat":43.280382,"lon":5.369291,"is_reserved":false,"is_disabled":false,"rental_uris":{"android":"levelo://app?vid=77ec6399-f2bb-44b8-8f10-e3badbe5046a","ios":"levelo://app?vid=77ec6399-f2bb-44b8-8f10-e3badbe5046a"},"vehicle_type_id":"4","last_reported":1704013594,"current_range_meters":31200,"station_id":"ce4bha12rcd13ifvqef0","pricing_plan_id":"free"},{"bike_id":"255df2c5-d5fc-405c-ae1b-1cab9ff70f41","system_id":"levelo_inurba_marseille","lat":43.280382,"lon":5.369291,"is_reserved":false,"is_disabled":false,"rental_uris":{"android":"levelo://app?vid=255df2c5-d5fc-405c-ae1b-1cab9ff70f41","ios":"levelo://app?vid=255df2c5-d5fc-405c-ae1b-1cab9ff70f41"},"vehicle_type_id":"4","last_reported":1704013594,"current_range_meters":25200,"station_id":"ce4bha12rcd13ifvqef0","pricing_plan_id":"free"},{"bike_id":"1646a75e-95ed-4ba4-82a1-29de92d64f2c","system_id":"levelo_inurba_marseille","lat":43.2811,"lon":5.37835,"is_reserved":false,"is_disabled":false,"rental_uris":{"android":"levelo://app?vid=1646a75e-95ed-4ba4-82a1-29de92d64f2c","ios":"levelo://app?vid=1646a75e-95ed-4ba4-82a1-29de92d64f2c"},"vehicle_type_id":"4","last_reported":1704013594,"current_range_meters":17200,"station_id":"ce4bha12rcd13ifvqee0","pricing_plan_id":"free"},{"bike_id":"c47c6a03-8f3c-423b-a970-c425b0841b67","system_id":"levelo_inurba_marseille","lat":43.281044,"lon":5.378308,"is_reserved":false,"is_disabled":false,"rental_uris":{"android":"levelo://app?vid=c47c6a03-8f3c-423b-a970-c425b0841b67","ios":"levelo://app?vid=c47c6a03-8f3c-423b-a970-c425b0841b67"},"vehicle_type_id":"4","last_reported":1704013594,"current_range_meters":30000,"station_id":"ce4bha12rcd13ifvqee0","pricing_plan_id":"free"},{"bike_id":"227306e3-52e7-4da0-aa62-901bcf90aab6","system_id":"levelo_inurba_marseille","lat":43.296263,"lon":5.40601,"is_reserved":false,"is_disabled":false,"rental_uris":{"android":"levelo://app?vid=227306e3-52e7-4da0-aa62-901bcf90aab6","ios":"levelo://app?vid=227306e3-52e7-4da0-aa62-901bcf90aab6"},"vehicle_type_id":"4","last_reported":1704013594,"current_range_meters":26000,"station_id":"ce4bh0h2rcd13ifvqd60","pricing_plan_id":"free"},{"bike_id":"dc445ea7-ce1b-49c0-9ede-40ed126b1d6c","system_id":"levelo_inurba_marseille","lat":43.285699,"lon":5.39499,"is_reserved":false,"is_disabled":false,"rental_uris":{"android":"levelo://app?vid=dc445ea7-ce1b-49c0-9ede-40ed126b1d6c","ios":"levelo://app?vid=dc445ea7-ce1b-49c0-9ede-40ed126b1d6c"},"vehicle_type_id":"4","last_reported":1704013594,"current_range_meters":6000,"station_id":"ce4bh292rcd13ifvqdg0","pricing_plan_id":"free"},{"bike_id":"4a267614-7a4d-4c0c-8aaa-3351e931dc60","system_id":"levelo_inurba_marseille","lat":43.304188,"lon":5.412904,"is_reserved":false,"is_disabled":false,"rental_uris":{"android":"levelo://app?vid=4a267614-7a4d-4c0c-8aaa-3351e931dc60","ios":"levelo://app?vid=4a267614-7a4d-4c0c-8aaa-3351e931dc60"},"vehicle_type_id":"4","last_reported":1704013594,"current_range_meters":30000,"station_id":"ce4bhop2rcd13ifvqh8g","pricing_plan_id":"free"},{"bike_id":"be790f85-0f51-4dd1-84b4-9cfa727dc003","system_id":"levelo_inurba_marseille","lat":43.287154,"lon":5.399979,"is_reserved":false,"is_disabled":false,"rental_uris":{"android":"levelo://app?vid=be790f85-0f51-4dd1-84b4-9cfa727dc003","ios":"levelo://app?vid=be790f85-0f51-4dd1-84b4-9cfa727dc003"},"vehicle_type_id":"4","last_reported":1704013594,"current_range_meters":24800,"station_id":"ce4bho92rcd13ifvqh3g","pricing_plan_id":"free"},{"bike_id":"f36dd725-6f6f-44cb-ba9b-2b09e18e4b1e","system_id":"levelo_inurba_marseille","lat":43.287154,"lon":5.399979,"is_reserved":false,"is_disabled":false,"rental_uris":{"android":"levelo://app?vid=f36dd725-6f6f-44cb-ba9b-2b09e18e4b1e","ios":"levelo://app?vid=f36dd725-6f6f-44cb-ba9b-2b09e18e4b1e"},"vehicle_type_id":"4","last_reported":1704013594,"current_range_meters":24000,"station_id":"ce4bho92rcd13ifvqh3g","pricing_plan_id":"free"},{"bike_id":"f6a53825-6992-49ec-8bcb-a2cd8e3c45ba","system_id":"levelo_inurba_marseille","lat":43.299577,"lon":5.413277,"is_reserved":false,"is_disabled":false,"rental_uris":{"android":"levelo://app?vid=f6a53825-6992-49ec-8bcb-a2cd8e3c45ba","ios":"levelo://app?vid=f6a53825-6992-49ec-8bcb-a2cd8e3c45ba"},"vehicle_type_id":"4","last_reported":1704013594,"current_range_meters":30000,"station_id":"ce4bhp12rcd13ifvqh9g","pricing_plan_id":"free"},{"bike_id":"340d2918-7695-4436-ad6f-73c847b88cd0","system_id":"levelo_inurba_marseille","lat":43.279742,"lon":5.38744,"is_reserved":false,"is_disabled":false,"rental_uris":{"android":"levelo://app?vid=340d2918-7695-4436-ad6f-73c847b88cd0","ios":"levelo://app?vid=340d2918-7695-4436-ad6f-73c847b88cd0"},"vehicle_type_id":"4","last_reported":1704013594,"current_range_meters":23600,"station_id":"ce4bhg12rcd13ifvqf80","pricing_plan_id":"free"},{"bike_id":"97f54711-a4da-4bc1-8f00-ac80d7beda62","system_id":"levelo_inurba_marseille","lat":43.279742,"lon":5.38744,"is_reserved":false,"is_disabled":false,"rental_uris":{"android":"levelo://app?vid=97f54711-a4da-4bc1-8f00-ac80d7beda62","ios":"levelo://app?vid=97f54711-a4da-4bc1-8f00-ac80d7beda62"},"vehicle_type_id":"4","last_reported":1704013594,"current_range_meters":24400,"station_id":"ce4bhg12rcd13ifvqf80","pricing_plan_id":"free"},{"bike_id":"d6ec0950-22b9-4b80-a2a1-635aca4edc53","system_id":"levelo_inurba_marseille","lat":43.279742,"lon":5.38744,"is_reserved":false,"is_disabled":false,"rental_uris":{"android":"levelo://app?vid=d6ec0950-22b9-4b80-a2a1-635aca4edc53","ios":"levelo://app?vid=d6ec0950-22b9-4b80-a2a1-635aca4edc53"},"vehicle_type_id":"4","last_reported":1704013594,"current_range_meters":4800,"station_id":"ce4bhg12rcd13ifvqf80","pricing_plan_id":"free"},{"bike_id":"e2116b2e-3a5f-4bd8-a1c8-2607f2cb6d00","system_id":"levelo_inurba_marseille","lat":43.325459,"lon":5.414245,"is_reserved":false,"is_disabled":false,"rental_uris":{"android":"levelo://app?vid=e2116b2e-3a5f-4bd8-a1c8-2607f2cb6d00","ios":"levelo://app?vid=e2116b2e-3a5f-4bd8-a1c8-2607f2cb6d00"},"vehicle_type_id":"4","last_reported":1704013594,"current_range_meters":7200,"station_id":"ce4bhq12rcd13ifvqhhg","pricing_plan_id":"free"},{"bike_id":"24641ed1-2a59-432a-bb90-8ac02022f529","system_id":"levelo_inurba_marseille","lat":43.276179,"lon":5.361009,"is_reserved":false,"is_disabled":false,"rental_uris":{"android":"levelo://app?vid=24641ed1-2a59-432a-bb90-8ac02022f529","ios":"levelo://app?vid=24641ed1-2a59-432a-bb90-8ac02022f529"},"vehicle_type_id":"4","last_reported":1704013594,"current_range_meters":26000,"station_id":"ce4bgj92rcd13ifvqbe0","pricing_plan_id":"free"},{"bike_id":"4122cd37-de4a-40f4-8dd7-5befa0ce335e","system_id":"levelo_inurba_marseille","lat":43.276179,"lon":5.361009,"is_reserved":false,"is_disabled":false,"rental_uris":{"android":"levelo://app?vid=4122cd37-de4a-40f4-8dd7-5befa0ce335e","ios":"levelo://app?vid=4122cd37-de4a-40f4-8dd7-5befa0ce335e"},"vehicle_type_id":"4","last_reported":1704013594,"current_range_meters":30800,"station_id":"ce4bgj92rcd13ifvqbe0","pricing_plan_id":"free"},{"bike_id":"70017d6e-6f1a-4af6-baf6-320a119b5691","system_id":"levelo_inurba_marseille","lat":43.347929,"lon":5.350852,"is_reserved":false,"is_disabled":false,"rental_uris":{"android":"levelo://app?vid=70017d6e-6f1a-4af6-baf6-320a119b5691","ios":"levelo://app?vid=70017d6e-6f1a-4af6-baf6-320a119b5691"},"vehicle_type_id":"4","last_reported":1704013594,"current_range_meters":28800,"station_id":"","pricing_plan_id":"free"},{"bike_id":"ef3d5c69-7bf9-444c-9e09-ceca209c7099","system_id":"levelo_inurba_marseille","lat":43.280784,"lon":5.396622,"is_reserved":false,"is_disabled":false,"rental_uris":{"android":"levelo://app?vid=ef3d5c69-7bf9-444c-9e09-ceca209c7099","ios":"levelo://app?vid=ef3d5c69-7bf9-444c-9e09-ceca209c7099"},"vehicle_type_id":"4","last_reported":1704013594,"current_range_meters":26800,"station_id":"ce4bho12rcd13ifvqh2g","pricing_plan_id":"free"},{"bike_id":"bb4cbe5f-5561-4a37-a341-a39a691c1e82","system_id":"levelo_inurba_marseille","lat":43.303837,"lon":5.418724,"is_reserved":false,"is_disabled":false,"rental_uris":{"android":"levelo://app?vid=bb4cbe5f-5561-4a37-a341-a39a691c1e82","ios":"levelo://app?vid=bb4cbe5f-5561-4a37-a341-a39a691c1e82"},"vehicle_type_id":"4","last_reported":1704013594,"current_range_meters":27200,"station_id":"ce4bhop2rcd13ifvqh7g","pricing_plan_id":"free"},{"bike_id":"dcfb783e-4af4-4a2c-8b14-23597359d6a5","system_id":"levelo_inurba_marseille","lat":43.30354,"lon":5.41879,"is_reserved":false,"is_disabled":false,"rental_uris":{"android":"levelo://app?vid=dcfb783e-4af4-4a2c-8b14-23597359d6a5","ios":"levelo://app?vid=dcfb783e-4af4-4a2c-8b14-23597359d6a5"},"vehicle_type_id":"4","last_reported":1704013594,"current_range_meters":28400,"station_id":"ce4bhop2rcd13ifvqh7g","pricing_plan_id":"free"},{"bike_id":"fcd31f89-dd15-4f92-bd38-d8f30235aec7","system_id":"levelo_inurba_marseille","lat":43.303837,"lon":5.418724,"is_reserved":false,"is_disabled":false,"rental_uris":{"android":"levelo://app?vid=fcd31f89-dd15-4f92-bd38-d8f30235aec7","ios":"levelo://app?vid=fcd31f89-dd15-4f92-bd38-d8f30235aec7"},"vehicle_type_id":"4","last_reported":1704013594,"current_range_meters":27200,"station_id":"ce4bhop2rcd13ifvqh7g","pricing_plan_id":"free"},{"bike_id":"a9a45070-143a-40b8-a01d-1d3b603b6f45","system_id":"levelo_inurba_marseille","lat":43.278401,"lon":5.392152,"is_reserved":false,"is_disabled":false,"rental_uris":{"android":"levelo://app?vid=a9a45070-143a-40b8-a01d-1d3b603b6f45","ios":"levelo://app?vid=a9a45070-143a-40b8-a01d-1d3b603b6f45"},"vehicle_type_id":"4","last_reported":1704013594,"current_range_meters":30000,"station_id":"ce4bhjp2rcd13ifvqga0","pricing_plan_id":"free"},{"bike_id":"148d161d-505e-422b-85f3-f1f638c5ee50","system_id":"levelo_inurba_marseille","lat":43.27379,"lon":5.36257,"is_reserved":false,"is_disabled":false,"rental_uris":{"android":"levelo://app?vid=148d161d-505e-422b-85f3-f1f638c5ee50","ios":"levelo://app?vid=148d161d-505e-422b-85f3-f1f638c5ee50"},"vehicle_type_id":"4","last_reported":1704013594,"current_range_meters":28400,"station_id":"ce4bhbh2rcd13ifvqeo0","pricing_plan_id":"free"},{"bike_id":"ee22cc90-6aca-4b6b-b791-f4f6cf8f24ea","system_id":"levelo_inurba_marseille","lat":43.27374,"lon":5.36255,"is_reserved":false,"is_disabled":false,"rental_uris":{"android":"levelo://app?vid=ee22cc90-6aca-4b6b-b791-f4f6cf8f24ea","ios":"levelo://app?vid=ee22cc90-6aca-4b6b-b791-f4f6cf8f24ea"},"vehicle_type_id":"4","last_reported":1704013594,"current_range_meters":26400,"station_id":"ce4bhbh2rcd13ifvqeo0","pricing_plan_id":"free"},{"bike_id":"f99e8b15-1162-4a9a-8596-d93ca37a2a5a","system_id":"levelo_inurba_marseille","lat":43.336148,"lon":5.410349,"is_reserved":false,"is_disabled":false,"rental_uris":{"android":"levelo://app?vid=f99e8b15-1162-4a9a-8596-d93ca37a2a5a","ios":"levelo://app?vid=f99e8b15-1162-4a9a-8596-d93ca37a2a5a"},"vehicle_type_id":"4","last_reported":1704013594,"current_range_meters":29200,"station_id":"ce4bhqh2rcd13ifvqhmg","pricing_plan_id":"free"},{"bike_id":"9bf9bdae-692d-4da7-a696-bf88a7dd3259","system_id":"levelo_inurba_marseille","lat":43.276769,"lon":5.388787,"is_reserved":false,"is_disabled":false,"rental_uris":{"android":"levelo://app?vid=9bf9bdae-692d-4da7-a696-bf88a7dd3259","ios":"levelo://app?vid=9bf9bdae-692d-4da7-a696-bf88a7dd3259"},"vehicle_type_id":"4","last_reported":1704013594,"current_range_meters":24000,"station_id":"ce4bhi12rcd13ifvqfo0","pricing_plan_id":"free"},{"bike_id":"d9c8318c-3031-4f68-9885-19375abd858f","system_id":"levelo_inurba_marseille","lat":43.31468,"lon":5.42611,"is_reserved":false,"is_disabled":false,"rental_uris":{"android":"levelo://app?vid=d9c8318c-3031-4f68-9885-19375abd858f","ios":"levelo://app?vid=d9c8318c-3031-4f68-9885-19375abd858f"},"vehicle_type_id":"4","last_reported":1704013594,"current_range_meters":4000,"station_id":"","pricing_plan_id":"free"},{"bike_id":"65de7c43-5ed1-4d41-bdfb-ec5fb603e632","system_id":"levelo_inurba_marseille","lat":43.273125,"lon":5.390731,"is_reserved":false,"is_disabled":false,"rental_uris":{"android":"levelo://app?vid=65de7c43-5ed1-4d41-bdfb-ec5fb603e632","ios":"levelo://app?vid=65de7c43-5ed1-4d41-bdfb-ec5fb603e632"},"vehicle_type_id":"4","last_reported":1704013594,"current_range_meters":22000,"station_id":"ce4bhgp2rcd13ifvqfe0","pricing_plan_id":"free"},{"bike_id":"81da3098-aad1-42b4-b3b6-e26a8225fec3","system_id":"levelo_inurba_marseille","lat":43.273129,"lon":5.390725,"is_reserved":false,"is_disabled":false,"rental_uris":{"android":"levelo://app?vid=81da3098-aad1-42b4-b3b6-e26a8225fec3","ios":"levelo://app?vid=81da3098-aad1-42b4-b3b6-e26a8225fec3"},"vehicle_type_id":"4","last_reported":1704013594,"current_range_meters":4400,"station_id":"ce4bhgp2rcd13ifvqfe0","pricing_plan_id":"free"},{"bike_id":"8725ca5d-607e-418a-a259-285bf86c80d9","system_id":"levelo_inurba_marseille","lat":43.273125,"lon":5.390731,"is_reserved":false,"is_disabled":false,"rental_uris":{"android":"levelo://app?vid=8725ca5d-607e-418a-a259-285bf86c80d9","ios":"levelo://app?vid=8725ca5d-607e-418a-a259-285bf86c80d9"},"vehicle_type_id":"4","last_reported":1704013594,"current_range_meters":26800,"station_id":"ce4bhgp2rcd13ifvqfe0","pricing_plan_id":"free"},{"bike_id":"b8ab24ec-80a8-4d9b-bc8b-78af4b1ed5a1","system_id":"levelo_inurba_marseille","lat":43.274099,"lon":5.394019,"is_reserved":false,"is_disabled":false,"rental_uris":{"android":"levelo://app?vid=b8ab24ec-80a8-4d9b-bc8b-78af4b1ed5a1","ios":"levelo://app?vid=b8ab24ec-80a8-4d9b-bc8b-78af4b1ed5a1"},"vehicle_type_id":"4","last_reported":1704013594,"current_range_meters":30000,"station_id":"ce4bhdp2rcd13ifvqf20","pricing_plan_id":"free"},{"bike_id":"3d20e467-c94c-4d07-bb57-e7e0bc63f651","system_id":"levelo_inurba_marseille","lat":43.27305,"lon":5.39078,"is_reserved":false,"is_disabled":false,"rental_uris":{"android":"levelo://app?vid=3d20e467-c94c-4d07-bb57-e7e0bc63f651","ios":"levelo://app?vid=3d20e467-c94c-4d07-bb57-e7e0bc63f651"},"vehicle_type_id":"4","last_reported":1704013594,"current_range_meters":17200,"station_id":"ce4bhgp2rcd13ifvqfe0","pricing_plan_id":"free"},{"bike_id":"40548e44-fb50-48f8-89c8-1a5b61179c61","system_id":"levelo_inurba_marseille","lat":43.304096,"lon":5.425385,"is_reserved":false,"is_disabled":false,"rental_uris":{"android":"levelo://app?vid=40548e44-fb50-48f8-89c8-1a5b61179c61","ios":"levelo://app?vid=40548e44-fb50-48f8-89c8-1a5b61179c61"},"vehicle_type_id":"4","last_reported":1704013594,"current_range_meters":22400,"station_id":"ce4bhoh2rcd13ifvqh6g","pricing_plan_id":"free"},{"bike_id":"f469bb82-d41e-4cf7-88b8-44b7c61170d9","system_id":"levelo_inurba_marseille","lat":43.295511,"lon":5.422926,"is_reserved":false,"is_disabled":false,"rental_uris":{"android":"levelo://app?vid=f469bb82-d41e-4cf7-88b8-44b7c61170d9","ios":"levelo://app?vid=f469bb82-d41e-4cf7-88b8-44b7c61170d9"},"vehicle_type_id":"4","last_reported":1704013594,"current_range_meters":15600,"station_id":"ce4bhph2rcd13ifvqhdg","pricing_plan_id":"free"},{"bike_id":"65da9df5-8509-49ff-8b3d-cd31aab7ec06","system_id":"levelo_inurba_marseille","lat":43.295523,"lon":5.422926,"is_reserved":false,"is_disabled":false,"rental_uris":{"android":"levelo://app?vid=65da9df5-8509-49ff-8b3d-cd31aab7ec06","ios":"levelo://app?vid=65da9df5-8509-49ff-8b3d-cd31aab7ec06"},"vehicle_type_id":"4","last_reported":1704013594,"current_range_meters":30400,"station_id":"ce4bhph2rcd13ifvqhdg","pricing_plan_id":"free"},{"bike_id":"beb93061-85bf-4e20-99aa-79c67497ba42","system_id":"levelo_inurba_marseille","lat":43.295511,"lon":5.422926,"is_reserved":false,"is_disabled":false,"rental_uris":{"android":"levelo://app?vid=beb93061-85bf-4e20-99aa-79c67497ba42","ios":"levelo://app?vid=beb93061-85bf-4e20-99aa-79c67497ba42"},"vehicle_type_id":"4","last_reported":1704013594,"current_range_meters":16000,"station_id":"ce4bhph2rcd13ifvqhdg","pricing_plan_id":"free"},{"bike_id":"6876aea3-bcae-4465-9248-ec0980fc3939","system_id":"levelo_inurba_marseille","lat":43.295511,"lon":5.422926,"is_reserved":false,"is_disabled":false,"rental_uris":{"android":"levelo://app?vid=6876aea3-bcae-4465-9248-ec0980fc3939","ios":"levelo://app?vid=6876aea3-bcae-4465-9248-ec0980fc3939"},"vehicle_type_id":"4","last_reported":1704013594,"current_range_meters":15200,"station_id":"ce4bhph2rcd13ifvqhdg","pricing_plan_id":"free"},{"bike_id":"061bb09e-908a-4f76-afb2-44bcfcb6aa80","system_id":"levelo_inurba_marseille","lat":43.295511,"lon":5.422926,"is_reserved":false,"is_disabled":false,"rental_uris":{"android":"levelo://app?vid=061bb09e-908a-4f76-afb2-44bcfcb6aa80","ios":"levelo://app?vid=061bb09e-908a-4f76-afb2-44bcfcb6aa80"},"vehicle_type_id":"4","last_reported":1704013594,"current_range_meters":30800,"station_id":"ce4bhph2rcd13ifvqhdg","pricing_plan_id":"free"},{"bike_id":"1d19b9a1-2098-4e01-b5bd-50bc3084ccbf","system_id":"levelo_inurba_marseille","lat":43.272124,"lon":5.391768,"is_reserved":false,"is_disabled":false,"rental_uris":{"android":"levelo://app?vid=1d19b9a1-2098-4e01-b5bd-50bc3084ccbf","ios":"levelo://app?vid=1d19b9a1-2098-4e01-b5bd-50bc3084ccbf"},"vehicle_type_id":"4","last_reported":1704013594,"current_range_meters":24800,"station_id":"ce4bhhp2rcd13ifvqfm0","pricing_plan_id":"free"},{"bike_id":"27bcf207-ccbf-4861-b9cd-6d65f96113f5","system_id":"levelo_inurba_marseille","lat":43.272118,"lon":5.391758,"is_reserved":false,"is_disabled":false,"rental_uris":{"android":"levelo://app?vid=27bcf207-ccbf-4861-b9cd-6d65f96113f5","ios":"levelo://app?vid=27bcf207-ccbf-4861-b9cd-6d65f96113f5"},"vehicle_type_id":"4","last_reported":1704013594,"current_range_meters":30400,"station_id":"ce4bhhp2rcd13ifvqfm0","pricing_plan_id":"free"},{"bike_id":"263ccd88-5c1c-4c0a-9c16-4182c7ca5d85","system_id":"levelo_inurba_marseille","lat":43.272118,"lon":5.391758,"is_reserved":false,"is_disabled":false,"rental_uris":{"android":"levelo://app?vid=263ccd88-5c1c-4c0a-9c16-4182c7ca5d85","ios":"levelo://app?vid=263ccd88-5c1c-4c0a-9c16-4182c7ca5d85"},"vehicle_type_id":"4","last_reported":1704013594,"current_range_meters":27600,"station_id":"ce4bhhp2rcd13ifvqfm0","pricing_plan_id":"free"},{"bike_id":"caa4d308-0c7f-49c7-9950-41d2fc1a9c2f","system_id":"levelo_inurba_marseille","lat":43.27817,"lon":5.40721,"is_reserved":false,"is_disabled":false,"rental_uris":{"android":"levelo://app?vid=caa4d308-0c7f-49c7-9950-41d2fc1a9c2f","ios":"levelo://app?vid=caa4d308-0c7f-49c7-9950-41d2fc1a9c2f"},"vehicle_type_id":"4","last_reported":1704013594,"current_range_meters":21600,"station_id":"ce4bhnh2rcd13ifvqgtg","pricing_plan_id":"free"},{"bike_id":"483f65a7-e8d0-410e-95cf-12bc306b3fd4","system_id":"levelo_inurba_marseille","lat":43.269467,"lon":5.386439,"is_reserved":false,"is_disabled":false,"rental_uris":{"android":"levelo://app?vid=483f65a7-e8d0-410e-95cf-12bc306b3fd4","ios":"levelo://app?vid=483f65a7-e8d0-410e-95cf-12bc306b3fd4"},"vehicle_type_id":"4","last_reported":1704013594,"current_range_meters":22400,"station_id":"ce4bhh92rcd13ifvqfh0","pricing_plan_id":"free"},{"bike_id":"72c6e490-669d-47b4-b2bd-c608df130ddf","system_id":"levelo_inurba_marseille","lat":43.269467,"lon":5.386439,"is_reserved":false,"is_disabled":false,"rental_uris":{"android":"levelo://app?vid=72c6e490-669d-47b4-b2bd-c608df130ddf","ios":"levelo://app?vid=72c6e490-669d-47b4-b2bd-c608df130ddf"},"vehicle_type_id":"4","last_reported":1704013594,"current_range_meters":28400,"station_id":"ce4bhh92rcd13ifvqfh0","pricing_plan_id":"free"},{"bike_id":"53b9274c-d8f2-40fb-aa22-e82ddf288903","system_id":"levelo_inurba_marseille","lat":43.279465,"lon":5.410561,"is_reserved":false,"is_disabled":false,"rental_uris":{"android":"levelo://app?vid=53b9274c-d8f2-40fb-aa22-e82ddf288903","ios":"levelo://app?vid=53b9274c-d8f2-40fb-aa22-e82ddf288903"},"vehicle_type_id":"4","last_reported":1704013594,"current_range_meters":18800,"station_id":"ce4bhnp2rcd13ifvqh0g","pricing_plan_id":"free"},