{"last_updated":1703268505,"ttl":30,"version":"2.2","data":{"bikes":[{"bike_id":"7c4402cf-a2b7-4dd9-ba8d-43f2529fc189","system_id":"levelo_inurba_marseille","lat":43.31341,"lon":5.367098,"is_reserved":false,"is_disabled":false,"rental_uris":{"android":"levelo://app?vid=7c4402cf-a2b7-4dd9-ba8d-43f2529fc189","ios":"levelo://app?vid=7c4402cf-a2b7-4dd9-ba8d-43f2529fc189"},"vehicle_type_id":"4","last_reported":1703268505,"current_range_meters":6800,"station_id":"ce4bgr92rcd13ifvqc6g","pricing_plan_id":"free"},{"bike_id":"a067b845-8c2c-49b0-a169-5483f539f60d","system_id":"levelo_inurba_marseille","lat":43.312239,"lon":5.368562,"is_reserved":false,"is_disabled":false,"rental_uris":{"android":"levelo://app?vid=a067b845-8c2c-49b0-a169-5483f539f60d","ios":"levelo://app?vid=a067b845-8c2c-49b0-a169-5483f539f60d"},"vehicle_type_id":"4","last_reported":1703268505,"current_range_meters":16800,"station_id":"ce4bgl92rcd13ifvqbq0","pricing_plan_id":"free"},{"bike_id":"4e2b8901-f011-4053-9afd-d360f56a01d7","system_id":"levelo_inurba_marseille","lat":43.312239,"lon":5.368562,"is_reserved":false,"is_disabled":false,"rental_uris":{"android":"levelo://app?vid=4e2b8901-f011-4053-9afd-d360f56a01d7","ios":"levelo://app?vid=4e2b8901-f011-4053-9afd-d360f56a01d7"},"vehicle_type_id":"4","last_reported":1703268505,"current_range_meters":5600,"station_id":"ce4bgl92rcd13ifvqbq0","pricing_plan_id":"free"},{"bike_id":"4de757be-1c92-49c7-a54e-7f01d643902e","system_id":"levelo_inurba_marseille","lat":43.3124,"lon":5.36876,"is_reserved":false,"is_disabled":false,"rental_uris":{"android":"levelo://app?vid=4de757be-1c92-49c7-a54e-7f01d643902e","ios":"levelo://app?vid=4de757be-1c92-49c7-a54e-7f01d643902e"},"vehicle_type_id":"4","last_reported":1703268505,"current_range_meters":30400,"station_id":"ce4bgl92rcd13ifvqbq0","pricing_plan_id":"free"},{"bike_id":"2e2ceee1-ebc2-4cb9-a8bf-14fc4852ebf1","system_id":"levelo_inurba_marseille","lat":43.309447,"lon":5.36879,"is_reserved":false,"is_disabled":false,"rental_uris":{"android":"levelo://app?vid=2e2ceee1-ebc2-4cb9-a8bf-14fc4852ebf1","ios":"levelo://app?vid=2e2ceee1-ebc2-4cb9-a8bf-14fc4852ebf1"},"vehicle_type_id":"4","last_reported":1703268505,"current_range_meters":8400,"station_id":"ce4bgn92rcd13ifvqbvg","pricing_plan_id":"free"},{"bike_id":"0c652c75-d690-4f44-84e6-8c6cc0a277ae","system_id":"levelo_inurba_marseille","lat":43.309076,"lon":5.368465,"is_reserved":false,"is_disabled":false,"rental_uris":{"android":"levelo://app?vid=0c652c75-d690-4f44-84e6-8c6cc0a277ae","ios":"levelo://app?vid=0c652c75-d690-4f44-84e6-8c6cc0a277ae"},"vehicle_type_id":"4","last_reported":1703268505,"current_range_meters":23600,"station_id":"ce4bgn92rcd13ifvqbvg","pricing_plan_id":"free"},{"bike_id":"c5539d13-6e97-4e5b-a579-a351ca90e58f","system_id":"levelo_inurba_marseille","lat":43.309039,"lon":5.371797,"is_reserved":false,"is_disabled":false,"rental_uris":{"android":"levelo://app?vid=c5539d13-6e97-4e5b-a579-a351ca90e58f","ios":"levelo://app?vid=c5539d13-6e97-4e5b-a579-a351ca90e58f"},"vehicle_type_id":"4","last_reported":1703268505,"current_range_meters":2800,"station_id":"ce4bguh2rcd13ifvqckg","pricing_plan_id":"free"},{"bike_id":"e8753a50-faa5-4727-876a-b9ad4ab66808","system_id":"levelo_inurba_marseille","lat":43.309039,"lon":5.371797,"is_reserved":false,"is_disabled":false,"rental_uris":{"android":"levelo://app?vid=e8753a50-faa5-4727-876a-b9ad4ab66808","ios":"levelo://app?vid=e8753a50-faa5-4727-876a-b9ad4ab66808"},"vehicle_type_id":"4","last_reported":1703268505,"current_range_meters":28000,"station_id":"ce4bguh2rcd13ifvqckg","pricing_plan_id":"free"},{"bike_id":"595df37c-2893-49de-b5e0-935276a46bf4","system_id":"levelo_inurba_marseille","lat":43.305714,"lon":5.365633,"is_reserved":false,"is_disabled":false,"rental_uris":{"android":"levelo://app?vid=595df37c-2893-49de-b5e0-935276a46bf4","ios":"levelo://app?vid=595df37c-2893-49de-b5e0-935276a46bf4"},"vehicle_type_id":"4","last_reported":1703268505,"current_range_meters":14400,"station_id":"ce4bgs12rcd13ifvqcag","pricing_plan_id":"free"},{"bike_id":"5eade749-80e9-499d-a5bf-6d666271a6f1","system_id":"levelo_inurba_marseille","lat":43.311125,"lon":5.377624,"is_reserved":false,"is_disabled":false,"rental_uris":{"android":"levelo://app?vid=5eade749-80e9-499d-a5bf-6d666271a6f1","ios":"levelo://app?vid=5eade749-80e9-499d-a5bf-6d666271a6f1"},"vehicle_type_id":"4","last_reported":1703268505,"current_range_meters":6800,"station_id":"ce4bgt92rcd13ifvqcg0","pricing_plan_id":"free"},{"bike_id":"e621f788-e0b8-4fda-933f-4b10808ea0de","system_id":"levelo_inurba_marseille","lat":43.307864,"lon":5.376538,"is_reserved":false,"is_disabled":false,"rental_uris":{"android":"levelo://app?vid=e621f788-e0b8-4fda-933f-4b10808ea0de","ios":"levelo://app?vid=e621f788-e0b8-4fda-933f-4b10808ea0de"},"vehicle_type_id":"4","last_reported":1703268505,"current_range_meters":31200,"station_id":"ce4bgv92rcd13ifvqcq0","pricing_plan_id":"free"},{"bike_id":"02197891-ba9d-484e-942c-3f529ff5df75","system_id":"levelo_inurba_marseille","lat":43.303046,"lon":5.368981,"is_reserved":false,"is_disabled":false,"rental_uris":{"android":"levelo://app?vid=02197891-ba9d-484e-942c-3f529ff5df75","ios":"levelo://app?vid=02197891-ba9d-484e-942c-3f529ff5df75"},"vehicle_type_id":"4","last_reported":1703268505,"current_range_meters":14800,"station_id":"ce4bgqh2rcd13ifvqc5g","pricing_plan_id":"free"},{"bike_id":"b027d93a-8ab4-4d17-951c-24c72af0ffc1","system_id":"levelo_inurba_marseille","lat":43.301939,"lon":5.366286,"is_reserved":false,"is_disabled":false,"rental_uris":{"android":"levelo://app?vid=b027d93a-8ab4-4d17-951c-24c72af0ffc1","ios":"levelo://app?vid=b027d93a-8ab4-4d17-951c-24c72af0ffc1"},"vehicle_type_id":"4","last_reported":1703268505,"current_range_meters":25200,"station_id":"ce4bgrh2rcd13ifvqc8g","pricing_plan_id":"free"},{"bike_id":"895195fe-3f17-4276-a82b-18d50aa5847f","system_id":"levelo_inurba_marseille","lat":43.30793,"lon":5.38141,"is_reserved":false,"is_disabled":false,"rental_uris":{"android":"levelo://app?vid=895195fe-3f17-4276-a82b-18d50aa5847f","ios":"levelo://app?vid=895195fe-3f17-4276-a82b-18d50aa5847f"},"vehicle_type_id":"4","last_reported":1703268505,"current_range_meters":800,"station_id":"ce4bgt12rcd13ifvqce0","pricing_plan_id":"free"},{"bike_id":"ad7c09ef-f98a-4474-9063-5e8c0f4c66a7","system_id":"levelo_inurba_marseille","lat":43.30803,"lon":5.38161,"is_reserved":false,"is_disabled":false,"rental_uris":{"android":"levelo://app?vid=ad7c09ef-f98a-4474-9063-5e8c0f4c66a7","ios":"levelo://app?vid=ad7c09ef-f98a-4474-9063-5e8c0f4c66a7"},"vehicle_type_id":"4","last_reported":1703268505,"current_range_meters":400,"station_id":"ce4bgt12rcd13ifvqce0","pricing_plan_id":"free"},{"bike_id":"e114a614-8ba5-47af-8b25-cf7c29a0bec8","system_id":"levelo_inurba_marseille","lat":43.302784,"lon":5.377158,"is_reserved":false,"is_disabled":false,"rental_uris":{"android":"levelo://app?vid=e114a614-8ba5-47af-8b25-cf7c29a0bec8","ios":"levelo://app?vid=e114a614-8ba5-47af-8b25-cf7c29a0bec8"},"vehicle_type_id":"4","last_reported":1703268505,"current_range_meters":16000,"station_id":"ce4bguh2rcd13ifvqcj0","pricing_plan_id":"free"},{"bike_id":"3883bba9-04e7-4b03-80ae-7bc94c0a77fd","system_id":"levelo_inurba_marseille","lat":43.302784,"lon":5.377158,"is_reserved":false,"is_disabled":false,"rental_uris":{"android":"levelo://app?vid=3883bba9-04e7-4b03-80ae-7bc94c0a77fd","ios":"levelo://app?vid=3883bba9-04e7-4b03-80ae-7bc94c0a77fd"},"vehicle_type_id":"4","last_reported":1703268505,"current_range_meters":10000,"station_id":"ce4bguh2rcd13ifvqcj0","pricing_plan_id":"free"},{"bike_id":"82b7c1aa-506b-4cff-953c-bb835d7847c3","system_id":"levelo_inurba_marseille","lat":43.319935,"lon":5.381699,"is_reserved":false,"is_disabled":false,"rental_uris":{"android":"levelo://app?vid=82b7c1aa-506b-4cff-953c-bb835d7847c3","ios":"levelo://app?vid=82b7c1aa-506b-4cff-953c-bb835d7847c3"},"vehicle_type_id":"4","last_reported":1703268505,"current_range_meters":14400,"station_id":"ce4bhr12rcd13ifvqhpg","pricing_plan_id":"free"},{"bike_id":"9c231161-337f-4eba-87d3-44d75eaa84aa","system_id":"levelo_inurba_marseille","lat":43.319935,"lon":5.381699,"is_reserved":false,"is_disabled":false,"rental_uris":{"android":"levelo://app?vid=9c231161-337f-4eba-87d3-44d75eaa84aa","ios":"levelo://app?vid=9c231161-337f-4eba-87d3-44d75eaa84aa"},"vehicle_type_id":"4","last_reported":1703268505,"current_range_meters":30000,"station_id":"ce4bhr12rcd13ifvqhpg","pricing_plan_id":"free"},{"bike_id":"dc0f6af5-c02c-4610-baea-e5c6ca16f530","system_id":"levelo_inurba_marseille","lat":43.319922,"lon":5.381568,"is_reserved":false,"is_disabled":false,"rental_uris":{"android":"levelo://app?vid=dc0f6af5-c02c-4610-baea-e5c6ca16f530","ios":"levelo://app?vid=dc0f6af5-c02c-4610-baea-e5c6ca16f530"},"vehicle_type_id":"4","last_reported":1703268505,"current_range_meters":28400,"station_id":"ce4bhr12rcd13ifvqhpg","pricing_plan_id":"free"},{"bike_id":"a4d91f4c-0227-4bc9-a904-969806ef4ac5","system_id":"levelo_inurba_marseille","lat":43.319935,"lon":5.381699,"is_reserved":false,"is_disabled":false,"rental_uris":{"android":"levelo://app?vid=a4d91f4c-0227-4bc9-a904-969806ef4ac5","ios":"levelo://app?vid=a4d91f4c-0227-4bc9-a904-969806ef4ac5"},"vehicle_type_id":"4","last_reported":1703268505,"current_range_meters":21600,"station_id":"ce4bhr12rcd13ifvqhpg","pricing_plan_id":"free"},{"bike_id":"c616a760-5d15-46bb-9d75-552ebc124cb7","system_id":"levelo_inurba_marseille","lat":43.31995,"lon":5.38165,"is_reserved":false,"is_disabled":false,"rental_uris":{"android":"levelo://app?vid=c616a760-5d15-46bb-9d75-552ebc124cb7","ios":"levelo://app?vid=c616a760-5d15-46bb-9d75-552ebc124cb7"},"vehicle_type_id":"4","last_reported":1703268505,"current_range_meters":19600,"station_id":"ce4bhr12rcd13ifvqhpg","pricing_plan_id":"free"},{"bike_id":"5faa80dd-7ff2-404b-a2cb-ff29cdece0f2","system_id":"levelo_inurba_marseille","lat":43.313571,"lon":5.384829,"is_reserved":false,"is_disabled":false,"rental_uris":{"android":"levelo://app?vid=5faa80dd-7ff2-404b-a2cb-ff29cdece0f2","ios":"levelo://app?vid=5faa80dd-7ff2-404b-a2cb-ff29cdece0f2"},"vehicle_type_id":"4","last_reported":1703268505,"current_range_meters":4000,"station_id":"ce4bgt92rcd13ifvqcf0","pricing_plan_id":"free"},{"bike_id":"4232ccca-2b46-4566-a1f7-3627884a9a71","system_id":"levelo_inurba_marseille","lat":43.313571,"lon":5.384829,"is_reserved":false,"is_disabled":false,"rental_uris":{"android":"levelo://app?vid=4232ccca-2b46-4566-a1f7-3627884a9a71","ios":"levelo://app?vid=4232ccca-2b46-4566-a1f7-3627884a9a71"},"vehicle_type_id":"4","last_reported":1703268505,"current_range_meters":11200,"station_id":"ce4bgt92rcd13ifvqcf0","pricing_plan_id":"free"},{"bike_id":"e48052d1-d7e2-4d76-8ab7-9152e0afbd4d","system_id":"levelo_inurba_marseille","lat":43.299724,"lon":5.371829,"is_reserved":false,"is_disabled":false,"rental_uris":{"android":"levelo://app?vid=e48052d1-d7e2-4d76-8ab7-9152e0afbd4d","ios":"levelo://app?vid=e48052d1-d7e2-4d76-8ab7-9152e0afbd4d"},"vehicle_type_id":"4","last_reported":1703268505,"current_range_meters":22000,"station_id":"ce4bgr92rcd13ifvqc7g","pricing_plan_id":"free"},{"bike_id":"dc16988a-7d80-469d-96a5-d212bf56e0af","system_id":"levelo_inurba_marseille","lat":43.313571,"lon":5.384829,"is_reserved":false,"is_disabled":false,"rental_uris":{"android":"levelo://app?vid=dc16988a-7d80-469d-96a5-d212bf56e0af","ios":"levelo://app?vid=dc16988a-7d80-469d-96a5-d212bf56e0af"},"vehicle_type_id":"4","last_reported":1703268505,"current_range_meters":13600,"station_id":"ce4bgt92rcd13ifvqcf0","pricing_plan_id":"free"},{"bike_id":"b3975732-f488-41d9-b433-a6621822b6b2","system_id":"levelo_inurba_marseille","lat":43.305364,"lon":5.384119,"is_reserved":false,"is_disabled":false,"rental_uris":{"android":"levelo://app?vid=b3975732-f488-41d9-b433-a6621822b6b2","ios":"levelo://app?vid=b3975732-f488-41d9-b433-a6621822b6b2"},"vehicle_type_id":"4","last_reported":1703268505,"current_range_meters":2800,"station_id":"ce4bgg92rcd13ifvqb30","pricing_plan_id":"free"},{"bike_id":"a91ced8c-6f2c-4e6d-a059-2203e3b7fe8f","system_id":"levelo_inurba_marseille","lat":43.305364,"lon":5.384119,"is_reserved":false,"is_disabled":false,"rental_uris":{"android":"levelo://app?vid=a91ced8c-6f2c-4e6d-a059-2203e3b7fe8f","ios":"levelo://app?vid=a91ced8c-6f2c-4e6d-a059-2203e3b7fe8f"},"vehicle_type_id":"4","last_reported":1703268505,"current_range_meters":15600,"station_id":"ce4bgg92rcd13ifvqb30","pricing_plan_id":"free"},{"bike_id":"c1da8e34-36bf-4566-85c7-713dc699dcdd","system_id":"levelo_inurba_marseille","lat":43.298433,"lon":5.362774,"is_reserved":false,"is_disabled":false,"rental_uris":{"android":"levelo://app?vid=c1da8e34-36bf-4566-85c7-713dc699dcdd","ios":"levelo://app?vid=c1da8e34-36bf-4566-85c7-713dc699dcdd"},"vehicle_type_id":"4","last_reported":1703268505,"current_range_meters":9600,"station_id":"ce4bgpp2rcd13ifvqc3g","pricing_plan_id":"free"},{"bike_id":"f5987233-1d3e-4901-8b4d-56e1ca83344b","system_id":"levelo_inurba_marseille","lat":43.322872,"lon":5.382756,"is_reserved":false,"is_disabled":false,"rental_uris":{"android":"levelo://app?vid=f5987233-1d3e-4901-8b4d-56e1ca83344b","ios":"levelo://app?vid=f5987233-1d3e-4901-8b4d-56e1ca83344b"},"vehicle_type_id":"4","last_reported":1703268505,"current_range_meters":31200,"station_id":"ce4bhr12rcd13ifvqhqg","pricing_plan_id":"free"},{"bike_id":"62a0e181-56c1-4aad-a05b-240ecf27baec","system_id":"levelo_inurba_marseille","lat":43.322872,"lon":5.382756,"is_reserved":false,"is_disabled":false,"rental_uris":{"android":"levelo://app?vid=62a0e181-56c1-4aad-a05b-240ecf27baec","ios":"levelo://app?vid=62a0e181-56c1-4aad-a05b-240ecf27baec"},"vehicle_type_id":"4","last_reported":1703268505,"current_range_meters":24800,"station_id":"ce4bhr12rcd13ifvqhqg","pricing_plan_id":"free"},{"bike_id":"e4cf6f6e-7d8c-4b7e-ab01-7de3c446c970","system_id":"levelo_inurba_marseille","lat":43.322872,"lon":5.382756,"is_reserved":false,"is_disabled":false,"rental_uris":{"android":"levelo://app?vid=e4cf6f6e-7d8c-4b7e-ab01-7de3c446c970","ios":"levelo://app?vid=e4cf6f6e-7d8c-4b7e-ab01-7de3c446c970"},"vehicle_type_id":"4","last_reported":1703268505,"current_range_meters":18400,"station_id":"ce4bhr12rcd13ifvqhqg","pricing_plan_id":"free"},{"bike_id":"525f6ec1-c089-48ad-8216-d8e073aa768d","system_id":"levelo_inurba_marseille","lat":43.328287,"lon":5.366751,"is_reserved":false,"is_disabled":false,"rental_uris":{"android":"levelo://app?vid=525f6ec1-c089-48ad-8216-d8e073aa768d","ios":"levelo://app?vid=525f6ec1-c089-48ad-8216-d8e073aa768d"},"vehicle_type_id":"4","last_reported":1703268505,"current_range_meters":6800,"station_id":"ce4bhs92rcd13ifvqi0g","pricing_plan_id":"free"},{"bike_id":"903435cc-fb50-49ce-8ef3-248b2266d358","system_id":"levelo_inurba_marseille","lat":43.297163,"lon":5.365866,"is_reserved":false,"is_disabled":false,"rental_uris":{"android":"levelo://app?vid=903435cc-fb50-49ce-8ef3-248b2266d358","ios":"levelo://app?vid=903435cc-fb50-49ce-8ef3-248b2266d358"},"vehicle_type_id":"4","last_reported":1703268505,"current_range_meters":29200,"station_id":"ce4bgn12rcd13ifvqbt0","pricing_plan_id":"free"},{"bike_id":"ddffc893-9062-49ef-b64f-938f927b9cda","system_id":"levelo_inurba_marseille","lat":43.2968,"lon":5.37291,"is_reserved":false,"is_disabled":false,"rental_uris":{"android":"levelo://app?vid=ddffc893-9062-49ef-b64f-938f927b9cda","ios":"levelo://app?vid=ddffc893-9062-49ef-b64f-938f927b9cda"},"vehicle_type_id":"4","last_reported":1703268505,"current_range_meters":10400,"station_id":"ce4bgk12rcd13ifvqbj0","pricing_plan_id":"free"},{"bike_id":"558ec63f-134c-4e7a-9858-e5ff95d1d8fa","system_id":"levelo_inurba_marseille","lat":43.296017,"lon":5.367983,"is_reserved":false,"is_disabled":false,"rental_uris":{"android":"levelo://app?vid=558ec63f-134c-4e7a-9858-e5ff95d1d8fa","ios":"levelo://app?vid=558ec63f-134c-4e7a-9858-e5ff95d1d8fa"},"vehicle_type_id":"4","last_reported":1703268505,"current_range_meters":13600,"station_id":"ce4bgph2rcd13ifvqc2g","pricing_plan_id":"free"},{"bike_id":"c32c8a4d-7d1e-4c05-bc12-b3a03ec9ec80","system_id":"levelo_inurba_marseille","lat":43.29576,"lon":5.36736,"is_reserved":false,"is_disabled":false,"rental_uris":{"android":"levelo://app?vid=c32c8a4d-7d1e-4c05-bc12-b3a03ec9ec80","ios":"levelo://app?vid=c32c8a4d-7d1e-4c05-bc12-b3a03ec9ec80"},"vehicle_type_id":"4","last_reported":1703268505,"current_range_meters":0,"station_id":"ce4bgph2rcd13ifvqc2g","pricing_plan_id":"free"},{"bike_id":"4097da38-6fbd-44f1-be50-d3c41c7da57e","system_id":"levelo_inurba_marseille","lat":43.296921,"lon":5.376579,"is_reserved":false,"is_disabled":false,"rental_uris":{"android":"levelo://app?vid=4097da38-6fbd-44f1-be50-d3c41c7da57e","ios":"levelo://app?vid=4097da38-6fbd-44f1-be50-d3c41c7da57e"},"vehicle_type_id":"4","last_reported":1703268505,"current_range_meters":9600,"station_id":"ce4bgkh2rcd13ifvqbl0","pricing_plan_id":"free"},{"bike_id":"43855516-4c02-494d-aefa-3c215dbc6b85","system_id":"levelo_inurba_marseille","lat":43.317557,"lon":5.390173,"is_reserved":false,"is_disabled":false,"rental_uris":{"android":"levelo://app?vid=43855516-4c02-494d-aefa-3c215dbc6b85","ios":"levelo://app?vid=43855516-4c02-494d-aefa-3c215dbc6b85"},"vehicle_type_id":"4","last_reported":1703268505,"current_range_meters":2000,"station_id":"ce4bhqp2rcd13ifvqhng","pricing_plan_id":"free"},{"bike_id":"7eada8fb-8c59-41ea-ae15-1164bd9fc1af","system_id":"levelo_inurba_marseille","lat":43.32172,"lon":5.38778,"is_reserved":false,"is_disabled":false,"rental_uris":{"android":"levelo://app?vid=7eada8fb-8c59-41ea-ae15-1164bd9fc1af","ios":"levelo://app?vid=7eada8fb-8c59-41ea-ae15-1164bd9fc1af"},"vehicle_type_id":"4","last_reported":1703268505,"current_range_meters":30000,"station_id":"","pricing_plan_id":"free"},{"bike_id":"fd17499b-3912-4ba3-bc40-ce4949b44af2","system_id":"levelo_inurba_marseille","lat":43.29534,"lon":5.36115,"is_reserved":false,"is_disabled":false,"rental_uris":{"android":"levelo://app?vid=fd17499b-3912-4ba3-bc40-ce4949b44af2","ios":"levelo://app?vid=fd17499b-3912-4ba3-bc40-ce4949b44af2"},"vehicle_type_id":"4","last_reported":1703268505,"current_range_meters":8000,"station_id":"","pricing_plan_id":"free"},{"bike_id":"7605be5a-2c2c-4e16-82f9-8bf67e9d18f0","system_id":"levelo_inurba_marseille","lat":43.298037,"lon":5.381066,"is_reserved":false,"is_disabled":false,"rental_uris":{"android":"levelo://app?vid=7605be5a-2c2c-4e16-82f9-8bf67e9d18f0","ios":"levelo://app?vid=7605be5a-2c2c-4e16-82f9-8bf67e9d18f0"},"vehicle_type_id":"4","last_reported":1703268505,"current_range_meters":0,"station_id":"ce4bgip2rcd13ifvqbb0","pricing_plan_id":"free"},{"bike_id":"8ebacb0d-6ad5-4902-ad69-a8d79371c6ce","system_id":"levelo_inurba_marseille","lat":43.304278,"lon":5.388868,"is_reserved":false,"is_disabled":false,"rental_uris":{"android":"levelo://app?vid=8ebacb0d-6ad5-4902-ad69-a8d79371c6ce","ios":"levelo://app?vid=8ebacb0d-6ad5-4902-ad69-a8d79371c6ce"},"vehicle_type_id":"4","last_reported":1703268505,"current_range_meters":25600,"station_id":"ce4bgk12rcd13ifvqbi0","pricing_plan_id":"free"},{"bike_id":"68a4bc73-643d-435a-a92b-c32d91fe2f0f","system_id":"levelo_inurba_marseille","lat":43.304274,"lon":5.388873,"is_reserved":false,"is_disabled":false,"rental_uris":{"android":"levelo://app?vid=68a4bc73-643d-435a-a92b-c32d91fe2f0f","ios":"levelo://app?vid=68a4bc73-643d-435a-a92b-c32d91fe2f0f"},"vehicle_type_id":"4","last_reported":1703268505,"current_range_meters":14000,"station_id":"ce4bgk12rcd13ifvqbi0","pricing_plan_id":"free"},{"bike_id":"1378810b-812d-44e5-847a-1b7aeb90e4c4","system_id":"levelo_inurba_marseille","lat":43.299,"lon":5.38357,"is_reserved":false,"is_disabled":false,"rental_uris":{"android":"levelo://app?vid=1378810b-812d-44e5-847a-1b7aeb90e4c4","ios":"levelo://app?vid=1378810b-812d-44e5-847a-1b7aeb90e4c4"},"vehicle_type_id":"4","last_reported":1703268505,"current_range_meters":1200,"station_id":"","pricing_plan_id":"free"},{"bike_id":"d182c693-ee30-45c2-a6e9-c4959e59e0b7","system_id":"levelo_inurba_marseille","lat":43.299707,"lon":5.384859,"is_reserved":false,"is_disabled":false,"rental_uris":{"android":"levelo://app?vid=d182c693-ee30-45c2-a6e9-c4959e59e0b7","ios":"levelo://app?vid=d182c693-ee30-45c2-a6e9-c4959e59e0b7"},"vehicle_type_id":"4","last_reported":1703268505,"current_range_meters":0,"station_id":"ce4bgj92rcd13ifvqbd0","pricing_plan_id":"free"},{"bike_id":"5445550d-d868-4a7c-9e5f-809db6e60c08","system_id":"levelo_inurba_marseille","lat":43.29943,"lon":5.38539,"is_reserved":false,"is_disabled":false,"rental_uris":{"android":"levelo://app?vid=5445550d-d868-4a7c-9e5f-809db6e60c08","ios":"levelo://app?vid=5445550d-d868-4a7c-9e5f-809db6e60c08"},"vehicle_type_id":"4","last_reported":1703268505,"current_range_meters":3200,"station_id":"","pricing_plan_id":"free"},{"bike_id":"7b8c0bab-aa36-4ca7-b91b-8fdfbcf0792a","system_id":"levelo_inurba_marseille","lat":43.32367,"lon":5.388836,"is_reserved":false,"is_disabled":false,"rental_uris":{"android":"levelo://app?vid=7b8c0bab-aa36-4ca7-b91b-8fdfbcf0792a","ios":"levelo://app?vid=7b8c0bab-aa36-4ca7-b91b-8fdfbcf0792a"},"vehicle_type_id":"4","last_reported":1703268505,"current_range_meters":10400,"station_id":"ce4bhqp2rcd13ifvqhog","pricing_plan_id":"free"},{"bike_id":"035ba96c-8560-4c70-973e-f7eb3e99c40c","system_id":"levelo_inurba_marseille","lat":43.32367,"lon":5.388836,"is_reserved":false,"is_disabled":false,"rental_uris":{"android":"levelo://app?vid=035ba96c-8560-4c70-973e-f7eb3e99c40c","ios":"levelo://app?vid=035ba96c-8560-4c70-973e-f7eb3e99c40c"},"vehicle_type_id":"4","last_reported":1703268505,"current_range_meters":20800,"station_id":"ce4bhqp2rcd13ifvqhog","pricing_plan_id":"free"},{"bike_id":"cc7743c4-385c-403d-859e-14ff6c38e121","system_id":"levelo_inurba_marseille","lat":43.32367,"lon":5.388836,"is_reserved":false,"is_disabled":false,"rental_uris":{"android":"levelo://app?vid=cc7743c4-385c-403d-859e-14ff6c38e121","ios":"levelo://app?vid=cc7743c4-385c-403d-859e-14ff6c38e121"},"vehicle_type_id":"4","last_reported":1703268505,"current_range_meters":17600,"station_id":"ce4bhqp2rcd13ifvqhog","pricing_plan_id":"free"},{"bike_id":"6f0dd3d0-7775-4676-bea1-8298f784cd54","system_id":"levelo_inurba_marseille","lat":43.29601,"lon":5.381084,"is_reserved":false,"is_disabled":false,"rental_uris":{"android":"levelo://app?vid=6f0dd3d0-7775-4676-bea1-8298f784cd54","ios":"levelo://app?vid=6f0dd3d0-7775-4676-bea1-8298f784cd54"},"vehicle_type_id":"4","last_reported":1703268505,"current_range_meters":24400,"station_id":"ce4bgl12rcd13ifvqbo0","pricing_plan_id":"free"},{"bike_id":"4b2d6b6b-c381-4e00-b3aa-cc4bed5d70a0","system_id":"levelo_inurba_marseille","lat":43.29602,"lon":5.381084,"is_reserved":false,"is_disabled":false,"rental_uris":{"android":"levelo://app?vid=4b2d6b6b-c381-4e00-b3aa-cc4bed5d70a0","ios":"levelo://app?vid=4b2d6b6b-c381-4e00-b3aa-cc4bed5d70a0"},"vehicle_type_id":"4","last_reported":1703268505,"current_range_meters":16800,"station_id":"ce4bgl12rcd13ifvqbo0","pricing_plan_id":"free"},{"bike_id":"66c67b22-90d4-4737-ba00-1d473a02d814","system_id":"levelo_inurba_marseille","lat":43.292749,"lon":5.368402,"is_reserved":false,"is_disabled":false,"rental_uris":{"android":"levelo://app?vid=66c67b22-90d4-4737-ba00-1d473a02d814","ios":"levelo://app?vid=66c67b22-90d4-4737-ba00-1d473a02d814"},"vehicle_type_id":"4","last_reported":1703268505,"current_range_meters":800,"station_id":"ce4bhbp2rcd13ifvqesg","pricing_plan_id":"free"},{"bike_id":"fb74f448-cf0c-4f6d-9a57-05fd864169d2","system_id":"levelo_inurba_marseille","lat":43.293259,"lon":5.371586,"is_reserved":false,"is_disabled":false,"rental_uris":{"android":"levelo://app?vid=fb74f448-cf0c-4f6d-9a57-05fd864169d2","ios":"levelo://app?vid=fb74f448-cf0c-4f6d-9a57-05fd864169d2"},"vehicle_type_id":"4","last_reported":1703268505,"current_range_meters":6800,"station_id":"ce4bgh92rcd13ifvqb40","pricing_plan_id":"free"},{"bike_id":"5678b4f0-50fc-42c0-98a1-debf16675b2b","system_id":"levelo_inurba_marseille","lat":43.303002,"lon":5.392142,"is_reserved":false,"is_disabled":false,"rental_uris":{"android":"levelo://app?vid=5678b4f0-50fc-42c0-98a1-debf16675b2b","ios":"levelo://app?vid=5678b4f0-50fc-42c0-98a1-debf16675b2b"},"vehicle_type_id":"4","last_reported":1703268505,"current_range_meters":15600,"station_id":"ce4bgkh2rcd13ifvqbk0","pricing_plan_id":"free"},{"bike_id":"e14c17a5-8f7c-4801-a8b6-025e2d307a7e","system_id":"levelo_inurba_marseille","lat":43.302992,"lon":5.392136,"is_reserved":false,"is_disabled":false,"rental_uris":{"android":"levelo://app?vid=e14c17a5-8f7c-4801-a8b6-025e2d307a7e","ios":"levelo://app?vid=e14c17a5-8f7c-4801-a8b6-025e2d307a7e"},"vehicle_type_id":"4","last_reported":1703268505,"current_range_meters":1200,"station_id":"ce4bgkh2rcd13ifvqbk0","pricing_plan_id":"free"},{"bike_id":"57199e43-e5aa-4b73-b776-e4029f6aa0ee","system_id":"levelo_inurba_marseille","lat":43.302992,"lon":5.392136,"is_reserved":false,"is_disabled":false,"rental_uris":{"android":"levelo://app?vid=57199e43-e5aa-4b73-b776-e4029f6aa0ee","ios":"levelo://app?vid=57199e43-e5aa-4b73-b776-e4029f6aa0ee"},"vehicle_type_id":"4","last_reported":1703268505,"current_range_meters":22000,"station_id":"ce4bgkh2rcd13ifvqbk0","pricing_plan_id":"free"},{"bike_id":"557000a1-02d5-45c6-b20c-951b70bf4f82","system_id":"levelo_inurba_marseille","lat":43.300986,"lon":5.390864,"is_reserved":false,"is_disabled":false,"rental_uris":{"android":"levelo://app?vid=557000a1-02d5-45c6-b20c-951b70bf4f82","ios":"levelo://app?vid=557000a1-02d5-45c6-b20c-951b70bf4f82"},"vehicle_type_id":"4","last_reported":1703268505,"current_range_meters":0,"station_id":"","pricing_plan_id":"free"},{"bike_id":"6a1ecab1-301f-438f-91ab-4f1d87993e8a","system_id":"levelo_inurba_marseille","lat":43.291671,"lon":5.371575,"is_reserved":false,"is_disabled":false,"rental_uris":{"android":"levelo://app?vid=6a1ecab1-301f-438f-91ab-4f1d87993e8a","ios":"levelo://app?vid=6a1ecab1-301f-438f-91ab-4f1d87993e8a"},"vehicle_type_id":"4","last_reported":1703268505,"current_range_meters":8000,"station_id":"ce4bha92rcd13ifvqeh0","pricing_plan_id":"free"},{"bike_id":"bfeab3b4-00c2-4361-8c01-2d0b50c959af","system_id":"levelo_inurba_marseille","lat":43.308883,"lon":5.396308,"is_reserved":false,"is_disabled":false,"rental_uris":{"android":"levelo://app?vid=bfeab3b4-00c2-4361-8c01-2d0b50c959af","ios":"levelo://app?vid=bfeab3b4-00c2-4361-8c01-2d0b50c959af"},"vehicle_type_id":"4","last_reported":1703268505,"current_range_meters":0,"station_id":"ce4bh012rcd13ifvqcv0","pricing_plan_id":"free"},{"bike_id":"eceb5307-053e-422d-bbd0-9af032e873b8","system_id":"levelo_inurba_marseille","lat":43.313291,"lon":5.396838,"is_reserved":false,"is_disabled":false,"rental_uris":{"android":"levelo://app?vid=eceb5307-053e-422d-bbd0-9af032e873b8","ios":"levelo://app?vid=eceb5307-053e-422d-bbd0-9af032e873b8"},"vehicle_type_id":"4","last_reported":1703268505,"current_range_meters":15600,"station_id":"ce4bgvp2rcd13ifvqcu0","pricing_plan_id":"free"},{"bike_id":"af4eb44c-b6c6-4ffb-9294-38dd5d5dc4b6","system_id":"levelo_inurba_marseille","lat":43.313291,"lon":5.396838,"is_reserved":false,"is_disabled":false,"rental_uris":{"android":"levelo://app?vid=af4eb44c-b6c6-4ffb-9294-38dd5d5dc4b6","ios":"levelo://app?vid=af4eb44c-b6c6-4ffb-9294-38dd5d5dc4b6"},"vehicle_type_id":"4","last_reported":1703268505,"current_range_meters":13600,"station_id":"ce4bgvp2rcd13ifvqcu0","pricing_plan_id":"free"},{"bike_id":"cbc62839-3c9d-4d9e-963f-bbabfe928114","system_id":"levelo_inurba_marseille","lat":43.313291,"lon":5.396838,"is_reserved":false,"is_disabled":false,"rental_uris":{"android":"levelo://app?vid=cbc62839-3c9d-4d9e-963f-bbabfe928114","ios":"levelo://app?vid=cbc62839-3c9d-4d9e-963f-bbabfe928114"},"vehicle_type_id":"4","last_reported":1703268505,"current_range_meters":3600,"station_id":"ce4bgvp2rcd13ifvqcu0","pricing_plan_id":"free"},{"bike_id":"38d8ffb9-ac7c-4e14-9721-daaee9d23c1a","system_id":"levelo_inurba_marseille","lat":43.313291,"lon":5.396838,"is_reserved":false,"is_disabled":false,"rental_uris":{"android":"levelo://app?vid=38d8ffb9-ac7c-4e14-9721-daaee9d23c1a","ios":"levelo://app?vid=38d8ffb9-ac7c-4e14-9721-daaee9d23c1a"},"vehicle_type_id":"4","last_reported":1703268505,"current_range_meters":14800,"station_id":"ce4bgvp2rcd13ifvqcu0","pricing_plan_id":"free"},{"bike_id":"f6c1fa5a-46bd-4077-bc4a-fb521e11192e","system_id":"levelo_inurba_marseille","lat":43.313291,"lon":5.396838,"is_reserved":false,"is_disabled":false,"rental_uris":{"android":"levelo://app?vid=f6c1fa5a-46bd-4077-bc4a-fb521e11192e","ios":"levelo://app?vid=f6c1fa5a-46bd-4077-bc4a-fb521e11192e"},"vehicle_type_id":"4","last_reported":1703268505,"current_range_meters":16000,"station_id":"ce4bgvp2rcd13ifvqcu0","pricing_plan_id":"free"},{"bike_id":"c4b5c253-f844-42fd-82a6-50cb9b8a64cd","system_id":"levelo_inurba_marseille","lat":43.313291,"lon":5.396838,"is_reserved":false,"is_disabled":false,"rental_uris":{"android":"levelo://app?vid=c4b5c253-f844-42fd-82a6-50cb9b8a64cd","ios":"levelo://app?vid=c4b5c253-f844-42fd-82a6-50cb9b8a64cd"},"vehicle_type_id":"4","last_reported":1703268505,"current_range_meters":31600,"station_id":"ce4bgvp2rcd13ifvqcu0","pricing_plan_id":"free"},{"bike_id":"fa38fcc7-ca87-4463-a289-03c7cd4e6723","system_id":"levelo_inurba_marseille","lat":43.313291,"lon":5.396838,"is_reserved":false,"is_disabled":false,"rental_uris":{"android":"levelo://app?vid=fa38fcc7-ca87-4463-a289-03c7cd4e6723","ios":"levelo://app?vid=fa38fcc7-ca87-4463-a289-03c7cd4e6723"},"vehicle_type_id":"4","last_reported":1703268505,"current_range_meters":18000,"station_id":"ce4bgvp2rcd13ifvqcu0","pricing_plan_id":"free"},{"bike_id":"8574d9c3-1f5d-45bc-b840-34b822fa2f5a","system_id":"levelo_inurba_marseille","lat":43.309047,"lon":5.396551,"is_reserved":false,"is_disabled":false,"rental_uris":{"android":"levelo://app?vid=8574d9c3-1f5d-45bc-b840-34b822fa2f5a","ios":"levelo://app?vid=8574d9c3-1f5d-45bc-b840-34b822fa2f5a"},"vehicle_type_id":"4","last_reported":1703268505,"current_range_meters":1200,"station_id":"ce4bh012rcd13ifvqcv0","pricing_plan_id":"free"},{"bike_id":"a90b8b83-e596-4fc1-8b62-b201f740b064","system_id":"levelo_inurba_marseille","lat":43.313291,"lon":5.396838,"is_reserved":false,"is_disabled":false,"rental_uris":{"android":"levelo://app?vid=a90b8b83-e596-4fc1-8b62-b201f740b064","ios":"levelo://app?vid=a90b8b83-e596-4fc1-8b62-b201f740b064"},"vehicle_type_id":"4","last_reported":1703268505,"current_range_meters":14800,"station_id":"ce4bgvp2rcd13ifvqcu0","pricing_plan_id":"free"},{"bike_id":"6f67235a-f6f9-44a2-93dc-b91c7b4a723a","system_id":"levelo_inurba_marseille","lat":43.309047,"lon":5.396551,"is_reserved":false,"is_disabled":false,"rental_uris":{"android":"levelo://app?vid=6f67235a-f6f9-44a2-93dc-b91c7b4a723a","ios":"levelo://app?vid=6f67235a-f6f9-44a2-93dc-b91c7b4a723a"},"vehicle_type_id":"4","last_reported":1703268505,"current_range_meters":28000,"station_id":"ce4bh012rcd13ifvqcv0","pricing_plan_id":"free"},{"bike_id":"9c342a31-35e8-4afd-b5ff-f1ca705acd85","system_id":"levelo_inurba_marseille","lat":43.309038,"lon":5.396546,"is_reserved":false,"is_disabled":false,"rental_uris":{"android":"levelo://app?vid=9c342a31-35e8-4afd-b5ff-f1ca705acd85","ios":"levelo://app?vid=9c342a31-35e8-4afd-b5ff-f1ca705acd85"},"vehicle_type_id":"4","last_reported":1703268505,"current_range_meters":9200,"station_id":"ce4bh012rcd13ifvqcv0","pricing_plan_id":"free"},{"bike_id":"87cb32d3-1bf7-48e3-b786-4b5c5373c745","system_id":"levelo_inurba_marseille","lat":43.29529,"lon":5.385581,"is_reserved":false,"is_disabled":false,"rental_uris":{"android":"levelo://app?vid=87cb32d3-1bf7-48e3-b786-4b5c5373c745","ios":"levelo://app?vid=87cb32d3-1bf7-48e3-b786-4b5c5373c745"},"vehicle_type_id":"4","last_reported":1703268505,"current_range_meters":800,"station_id":"ce4bgih2rcd13ifvqba0","pricing_plan_id":"free"},{"bike_id":"7e26e0c3-5ffb-4130-a5d7-f75ae81c742a","system_id":"levelo_inurba_marseille","lat":43.290779,"lon":5.371482,"is_reserved":false,"is_disabled":false,"rental_uris":{"android":"levelo://app?vid=7e26e0c3-5ffb-4130-a5d7-f75ae81c742a","ios":"levelo://app?vid=7e26e0c3-5ffb-4130-a5d7-f75ae81c742a"},"vehicle_type_id":"4","last_reported":1703268505,"current_range_meters":4400,"station_id":"ce4bh5p2rcd13ifvqe4g","pricing_plan_id":"free"},{"bike_id":"9fead762-e431-4d6f-a827-a4b9fccd740c","system_id":"levelo_inurba_marseille","lat":43.290779,"lon":5.371482,"is_reserved":false,"is_disabled":false,"rental_uris":{"android":"levelo://app?vid=9fead762-e431-4d6f-a827-a4b9fccd740c","ios":"levelo://app?vid=9fead762-e431-4d6f-a827-a4b9fccd740c"},"vehicle_type_id":"4","last_reported":1703268505,"current_range_meters":7200,"station_id":"ce4bh5p2rcd13ifvqe4g","pricing_plan_id":"free"},{"bike_id":"c02aa490-3138-48e9-98a4-e1f09268609b","system_id":"levelo_inurba_marseille","lat":43.290779,"lon":5.371482,"is_reserved":false,"is_disabled":false,"rental_uris":{"android":"levelo://app?vid=c02aa490-3138-48e9-98a4-e1f09268609b","ios":"levelo://app?vid=c02aa490-3138-48e9-98a4-e1f09268609b"},"vehicle_type_id":"4","last_reported":1703268505,"current_range_meters":13600,"station_id":"ce4bh5p2rcd13ifvqe4g","pricing_plan_id":"free"},{"bike_id":"2181b0c2-3840-4280-a2fc-7a3d7ae35c06","system_id":"levelo_inurba_marseille","lat":43.294153,"lon":5.386305,"is_reserved":false,"is_disabled":false,"rental_uris":{"android":"levelo://app?vid=2181b0c2-3840-4280-a2fc-7a3d7ae35c06","ios":"levelo://app?vid=2181b0c2-3840-4280-a2fc-7a3d7ae35c06"},"vehicle_type_id":"4","last_reported":1703268505,"current_range_meters":14400,"station_id":"ce4bh2h2rcd13ifvqdh0","pricing_plan_id":"free"},{"bike_id":"ecc69ef9-1f3b-4d30-bb3b-055bc164a7e4","system_id":"levelo_inurba_marseille","lat":43.289184,"lon":5.366408,"is_reserved":false,"is_disabled":false,"rental_uris":{"android":"levelo://app?vid=ecc69ef9-1f3b-4d30-bb3b-055bc164a7e4","ios":"levelo://app?vid=ecc69ef9-1f3b-4d30-bb3b-055bc164a7e4"},"vehicle_type_id":"4","last_reported":1703268505,"current_range_meters":27600,"station_id":"ce4bhap2rcd13ifvqek0","pricing_plan_id":"free"},{"bike_id":"efadf5ab-2575-48e5-b02b-f0a4f77ee77e","system_id":"levelo_inurba_marseille","lat":43.289184,"lon":5.366408,"is_reserved":false,"is_disabled":false,"rental_uris":{"android":"levelo://app?vid=efadf5ab-2575-48e5-b02b-f0a4f77ee77e","ios":"levelo://app?vid=efadf5ab-2575-48e5-b02b-f0a4f77ee77e"},"vehicle_type_id":"4","last_reported":1703268505,"current_range_meters":4400,"station_id":"ce4bhap2rcd13ifvqek0","pricing_plan_id":"free"},{"bike_id":"0ae30d44-89ea-494d-8e98-84bf51dab596","system_id":"levelo_inurba_marseille","lat":43.292642,"lon":5.384254,"is_reserved":false,"is_disabled":false,"rental_uris":{"android":"levelo://app?vid=0ae30d44-89ea-494d-8e98-84bf51dab596","ios":"levelo://app?vid=0ae30d44-89ea-494d-8e98-84bf51dab596"},"vehicle_type_id":"4","last_reported":1703268505,"current_range_meters":0,"station_id":"ce4bh692rcd13ifvqea0","pricing_plan_id":"free"},{"bike_id":"86e961ca-b2f0-4d69-ba3f-ba039ca17090","system_id":"levelo_inurba_marseille","lat":43.290104,"lon":5.356111,"is_reserved":false,"is_disabled":false,"rental_uris":{"android":"levelo://app?vid=86e961ca-b2f0-4d69-ba3f-ba039ca17090","ios":"levelo://app?vid=86e961ca-b2f0-4d69-ba3f-ba039ca17090"},"vehicle_type_id":"4","last_reported":1703268505,"current_range_meters":25200,"station_id":"ce4bhb92rcd13ifvqen0","pricing_plan_id":"free"},{"bike_id":"22737403-81d2-4445-a12d-f84902b0580f","system_id":"levelo_inurba_marseille","lat":43.290103,"lon":5.356114,"is_reserved":false,"is_disabled":false,"rental_uris":{"android":"levelo://app?vid=22737403-81d2-4445-a12d-f84902b0580f","ios":"levelo://app?vid=22737403-81d2-4445-a12d-f84902b0580f"},"vehicle_type_id":"4","last_reported":1703268505,"current_range_meters":23200,"station_id":"ce4bhb92rcd13ifvqen0","pricing_plan_id":"free"},{"bike_id":"28bd0799-2d1f-44f9-bb5d-3b37f12e8dd4","system_id":"levelo_inurba_marseille","lat":43.29783,"lon":5.39331,"is_reserved":false,"is_disabled":false,"rental_uris":{"android":"levelo://app?vid=28bd0799-2d1f-44f9-bb5d-3b37f12e8dd4","ios":"levelo://app?vid=28bd0799-2d1f-44f9-bb5d-3b37f12e8dd4"},"vehicle_type_id":"4","last_reported":1703268505,"current_range_meters":0,"station_id":"chh1huq6cuj3fo74tm60","pricing_plan_id":"free"},{"bike_id":"094bdca1-3532-4f96-973b-cdf7b9fcde60","system_id":"levelo_inurba_marseille","lat":43.29783,"lon":5.39338,"is_reserved":false,"is_disabled":false,"rental_uris":{"android":"levelo://app?vid=094bdca1-3532-4f96-973b-cdf7b9fcde60","ios":"levelo://app?vid=094bdca1-3532-4f96-973b-cdf7b9fcde60"},"vehicle_type_id":"4","last_reported":1703268505,"current_range_meters":1600,"station_id":"chh1huq6cuj3fo74tm60","pricing_plan_id":"free"},{"bike_id":"34e339cb-cec2-4213-a0dc-a9babc90b632","system_id":"levelo_inurba_marseille","lat":43.297815,"lon":5.393548,"is_reserved":false,"is_disabled":false,"rental_uris":{"android":"levelo://app?vid=34e339cb-cec2-4213-a0dc-a9babc90b632","ios":"levelo://app?vid=34e339cb-cec2-4213-a0dc-a9babc90b632"},"vehicle_type_id":"4","last_reported":1703268505,"current_range_meters":16400,"station_id":"chh1huq6cuj3fo74tm60","pricing_plan_id":"free"},{"bike_id":"d7d66852-5551-47df-ba34-ff6624bb50a5","system_id":"levelo_inurba_marseille","lat":43.295169,"lon":5.390426,"is_reserved":false,"is_disabled":false,"rental_uris":{"android":"levelo://app?vid=d7d66852-5551-47df-ba34-ff6624bb50a5","ios":"levelo://app?vid=d7d66852-5551-47df-ba34-ff6624bb50a5"},"vehicle_type_id":"4","last_reported":1703268505,"current_range_meters":20400,"station_id":"ce4bh3p2rcd13ifvqdp0","pricing_plan_id":"free"},{"bike_id":"7d634cfd-fbb3-48ba-a754-d66abd6c9e89","system_id":"levelo_inurba_marseille","lat":43.295169,"lon":5.390426,"is_reserved":false,"is_disabled":false,"rental_uris":{"android":"levelo://app?vid=7d634cfd-fbb3-48ba-a754-d66abd6c9e89","ios":"levelo://app?vid=7d634cfd-fbb3-48ba-a754-d66abd6c9e89"},"vehicle_type_id":"4","last_reported":1703268505,"current_range_meters":24000,"station_id":"ce4bh3p2rcd13ifvqdp0","pricing_plan_id":"free"},{"bike_id":"302165e3-9b7e-4acf-a105-b89b604c511b","system_id":"levelo_inurba_marseille","lat":43.290094,"lon":5.381264,"is_reserved":false,"is_disabled":false,"rental_uris":{"android":"levelo://app?vid=302165e3-9b7e-4acf-a105-b89b604c511b","ios":"levelo://app?vid=302165e3-9b7e-4acf-a105-b89b604c511b"},"vehicle_type_id":"4","last_reported":1703268505,"current_range_meters":5600,"station_id":"ce4bh4p2rcd13ifvqe1g","pricing_plan_id":"free"},{"bike_id":"5ab7a3a4-a9b5-4c07-8e34-680fca3aa72d","system_id":"levelo_inurba_marseille","lat":43.28856,"lon":5.358371,"is_reserved":false,"is_disabled":false,"rental_uris":{"android":"levelo://app?vid=5ab7a3a4-a9b5-4c07-8e34-680fca3aa72d","ios":"levelo://app?vid=5ab7a3a4-a9b5-4c07-8e34-680fca3aa72d"},"vehicle_type_id":"4","last_reported":1703268505,"current_range_meters":18000,"station_id":"ce4bhb12rcd13ifvqem0","pricing_plan_id":"free"},{"bike_id":"f61deeec-d31b-4349-b677-8bd5c5176c68","system_id":"levelo_inurba_marseille","lat":43.28856,"lon":5.358371,"is_reserved":false,"is_disabled":false,"rental_uris":{"android":"levelo://app?vid=f61deeec-d31b-4349-b677-8bd5c5176c68","ios":"levelo://app?vid=f61deeec-d31b-4349-b677-8bd5c5176c68"},"vehicle_type_id":"4","last_reported":1703268505,"current_range_meters":0,"station_id":"ce4bhb12rcd13ifvqem0","pricing_plan_id":"free"},{"bike_id":"12d40c97-e77b-486c-9922-ce889bb2a5b7","system_id":"levelo_inurba_marseille","lat":43.28856,"lon":5.358371,"is_reserved":false,"is_disabled":false,"rental_uris":{"android":"levelo://app?vid=12d40c97-e77b-486c-9922-ce889bb2a5b7","ios":"levelo://app?vid=12d40c97-e77b-486c-9922-ce889bb2a5b7"},"vehicle_type_id":"4","last_reported":1703268505,"current_range_meters":12000,"station_id":"ce4bhb12rcd13ifvqem0","pricing_plan_id":"free"},{"bike_id":"eec52c31-0711-41b7-9902-d5fdebde1bf4","system_id":"levelo_inurba_marseille","lat":43.309371,"lon":5.401449,"is_reserved":false,"is_disabled":false,"rental_uris":{"android":"levelo://app?vid=eec52c31-0711-41b7-9902-d5fdebde1bf4","ios":"levelo://app?vid=eec52c31-0711-41b7-9902-d5fdebde1bf4"},"vehicle_type_id":"4","last_reported":1703268505,"current_range_meters":22400,"station_id":"ce4bgvp2rcd13ifvqct0","pricing_plan_id":"free"},{"bike_id":"ed03c11c-b2f2-4071-b320-8aa881128fb4","system_id":"levelo_inurba_marseille","lat":43.33754,"lon":5.37431,"is_reserved":false,"is_disabled":false,"rental_uris":{"android":"levelo://app?vid=ed03c11c-b2f2-4071-b320-8aa881128fb4","ios":"levelo://app?vid=ed03c11c-b2f2-4071-b320-8aa881128fb4"},"vehicle_type_id":"4","last_reported":1703268505,"current_range_meters":20800,"station_id":"ce4rr2p2rcd13i802rgg","pricing_plan_id":"free"},{"bike_id":"41c046a6-7cba-49c2-8c7a-f269d8a6e461","system_id":"levelo_inurba_marseille","lat":43.337586,"lon":5.374507,"is_reserved":false,"is_disabled":false,"rental_uris":{"android":"levelo://app?vid=41c046a6-7cba-49c2-8c7a-f269d8a6e461","ios":"levelo://app?vid=41c046a6-7cba-49c2-8c7a-f269d8a6e461"},"vehicle_type_id":"4","last_reported":1703268505,"current_range_meters":14000,"station_id":"ce4rr2p2rcd13i802rgg","pricing_plan_id":"free"},{"bike_id":"e3b05bb2-3bf6-4e93-a935-8d00a3036fa0","system_id":"levelo_inurba_marseille","lat":43.3376,"lon":5.3745,"is_reserved":false,"is_disabled":false,"rental_uris":{"android":"levelo://app?vid=e3b05bb2-3bf6-4e93-a935-8d00a3036fa0","ios":"levelo://app?vid=e3b05bb2-3bf6-4e93-a935-8d00a3036fa0"},"vehicle_type_id":"4","last_reported":1703268505,"current_range_meters":13200,"station_id":"ce4rr2p2rcd13i802rgg","pricing_plan_id":"free"},{"bike_id":"af782aaf-55ff-4275-9a35-1eaf63c3c50f","system_id":"levelo_inurba_marseille","lat":43.33764,"lon":5.374339,"is_reserved":false,"is_disabled":false,"rental_uris":{"android":"levelo://app?vid=af782aaf-55ff-4275-9a35-1eaf63c3c50f","ios":"levelo://app?vid=af782aaf-55ff-4275-9a35-1eaf63c3c50f"},"vehicle_type_id":"4","last_reported":1703268505,"current_range_meters":21600,"station_id":"ce4rr2p2rcd13i802rgg","pricing_plan_id":"free"},{"bike_id":"48361e8a-6fad-43b0-9b77-4696a50c3aea","system_id":"levelo_inurba_marseille","lat":43.33765,"lon":5.37433,"is_reserved":false,"is_disabled":false,"rental_uris":{"android":"levelo://app?vid=48361e8a-6fad-43b0-9b77-4696a50c3aea","ios":"levelo://app?vid=48361e8a-6fad-43b0-9b77-4696a50c3aea"},"vehicle_type_id":"4","last_reported":1703268505,"current_range_meters":16800,"station_id":"ce4rr2p2rcd13i802rgg","pricing_plan_id":"free"},{"bike_id":"248036c1-af81-4d27-9242-6593b46581d0","system_id":"levelo_inurba_marseille","lat":43.337665,"lon":5.374361,"is_reserved":false,"is_disabled":false,"rental_uris":{"android":"levelo://app?vid=248036c1-af81-4d27-9242-6593b46581d0","ios":"levelo://app?vid=248036c1-af81-4d27-9242-6593b46581d0"},"vehicle_type_id":"4","last_reported":1703268505,"current_range_meters":31200,"station_id":"ce4rr2p2rcd13i802rgg","pricing_plan_id":"free"},{"bike_id":"b9c8fefe-fcf2-4e1c-95c9-c0ffed42221d","system_id":"levelo_inurba_marseille","lat":43.33769,"lon":5.37423,"is_reserved":false,"is_disabled":false,"rental_uris":{"android":"levelo://app?vid=b9c8fefe-fcf2-4e1c-95c9-c0ffed42221d","ios":"levelo://app?vid=b9c8fefe-fcf2-4e1c-95c9-c0ffed42221d"},"vehicle_type_id":"4","last_reported":1703268505,"current_range_meters":6800,"station_id":"ce4rr2p2rcd13i802rgg","pricing_plan_id":"free"},{"bike_id":"db5ccab8-7a8a-4751-a062-0c2ba2bfc08b","system_id":"levelo_inurba_marseille","lat":43.337675,"lon":5.374341,"is_reserved":false,"is_disabled":false,"rental_uris":{"android":"levelo://app?vid=db5ccab8-7a8a-4751-a062-0c2ba2bfc08b","ios":"levelo://app?vid=db5ccab8-7a8a-4751-a062-0c2ba2bfc08b"},"vehicle_type_id":"4","last_reported":1703268505,"current_range_meters":17200,"station_id":"","pricing_plan_id":"free"},{"bike_id":"5f6df711-5c47-41c8-b2e0-ca21db0773eb","system_id":"levelo_inurba_marseille","lat":43.337712,"lon":5.374359,"is_reserved":false,"is_disabled":false,"rental_uris":{"android":"levelo://app?vid=5f6df711-5c47-41c8-b2e0-ca21db0773eb","ios":"levelo://app?vid=5f6df711-5c47-41c8-b2e0-ca21db0773eb"},"vehicle_type_id":"4","last_reported":1703268505,"current_range_meters":22800,"station_id":"","pricing_plan_id":"free"},{"bike_id":"8516412d-ed1b-43c4-bd1e-951e035510a0","system_id":"levelo_inurba_marseille","lat":43.33772,"lon":5.37439,"is_reserved":false,"is_disabled":false,"rental_uris":{"android":"levelo://app?vid=8516412d-ed1b-43c4-bd1e-951e035510a0","ios":"levelo://app?vid=8516412d-ed1b-43c4-bd1e-951e035510a0"},"vehicle_type_id":"4","last_reported":1703268505,"current_range_meters":10800,"station_id":"ce4rr2p2rcd13i802rgg","pricing_plan_id":"free"},{"bike_id":"2c6efcbf-9bcd-4089-9bf9-e752a7177cf7","system_id":"levelo_inurba_marseille","lat":43.306412,"lon":5.401035,"is_reserved":false,"is_disabled":false,"rental_uris":{"android":"levelo://app?vid=2c6efcbf-9bcd-4089-9bf9-e752a7177cf7","ios":"levelo://app?vid=2c6efcbf-9bcd-4089-9bf9-e752a7177cf7"},"vehicle_type_id":"4","last_reported":1703268505,"current_range_meters":20400,"station_id":"ce4bh112rcd13ifvqda0","pricing_plan_id":"free"},{"bike_id":"68435f12-ab5b-4580-a1ba-b83352233b8b","system_id":"levelo_inurba_marseille","lat":43.306412,"lon":5.401035,"is_reserved":false,"is_disabled":false,"rental_uris":{"android":"levelo://app?vid=68435f12-ab5b-4580-a1ba-b83352233b8b","ios":"levelo://app?vid=68435f12-ab5b-4580-a1ba-b83352233b8b"},"vehicle_type_id":"4","last_reported":1703268505,"current_range_meters":31200,"station_id":"ce4bh112rcd13ifvqda0","pricing_plan_id":"free"},{"bike_id":"7fbf3d35-7acf-43b0-8f6c-6a892a3ff473","system_id":"levelo_inurba_marseille","lat":43.301117,"lon":5.398795,"is_reserved":false,"is_disabled":false,"rental_uris":{"android":"levelo://app?vid=7fbf3d35-7acf-43b0-8f6c-6a892a3ff473","ios":"levelo://app?vid=7fbf3d35-7acf-43b0-8f6c-6a892a3ff473"},"vehicle_type_id":"4","last_reported":1703268505,"current_range_meters":800,"station_id":"ce4bh0h2rcd13ifvqd40","pricing_plan_id":"free"},{"bike_id":"4dfd2fe6-d396-45fe-a9f3-2cf80069454a","system_id":"levelo_inurba_marseille","lat":43.33785,"lon":5.37435,"is_reserved":false,"is_disabled":false,"rental_uris":{"android":"levelo://app?vid=4dfd2fe6-d396-45fe-a9f3-2cf80069454a","ios":"levelo://app?vid=4dfd2fe6-d396-45fe-a9f3-2cf80069454a"},"vehicle_type_id":"4","last_reported":1703268505,"current_range_meters":18000,"station_id":"ce4rr2p2rcd13i802rgg","pricing_plan_id":"free"},{"bike_id":"8ed93715-ec1e-4703-acb2-7183fed943a4","system_id":"levelo_inurba_marseille","lat":43.33789,"lon":5.3744,"is_reserved":false,"is_disabled":false,"rental_uris":{"android":"levelo://app?vid=8ed93715-ec1e-4703-acb2-7183fed943a4","ios":"levelo://app?vid=8ed93715-ec1e-4703-acb2-7183fed943a4"},"vehicle_type_id":"4","last_reported":1703268505,"current_range_meters":15200,"station_id":"ce4rr2p2rcd13i802rgg","pricing_plan_id":"free"},{"bike_id":"2972540b-4dd3-4a14-8ecd-db3012f61695","system_id":"levelo_inurba_marseille","lat":43.301117,"lon":5.398795,"is_reserved":false,"is_disabled":false,"rental_uris":{"android":"levelo://app?vid=2972540b-4dd3-4a14-8ecd-db3012f61695","ios":"levelo://app?vid=2972540b-4dd3-4a14-8ecd-db3012f61695"},"vehicle_type_id":"4","last_reported":1703268505,"current_range_meters":23200,"station_id":"ce4bh0h2rcd13ifvqd40","pricing_plan_id":"free"},{"bike_id":"9ce761ec-ccf5-468d-8025-e475ed98231e","system_id":"levelo_inurba_marseille","lat":43.301117,"lon":5.398795,"is_reserved":false,"is_disabled":false,"rental_uris":{"android":"levelo://app?vid=9ce761ec-ccf5-468d-8025-e475ed98231e","ios":"levelo://app?vid=9ce761ec-ccf5-468d-8025-e475ed98231e"},"vehicle_type_id":"4","last_reported":1703268505,"current_range_meters":18800,"station_id":"ce4bh0h2rcd13ifvqd40","pricing_plan_id":"free"},{"bike_id":"14804520-7c91-4aad-98e6-9c5277d845ad","system_id":"levelo_inurba_marseille","lat":43.301117,"lon":5.398795,"is_reserved":false,"is_disabled":false,"rental_uris":{"android":"levelo://app?vid=14804520-7c91-4aad-98e6-9c5277d845ad","ios":"levelo://app?vid=14804520-7c91-4aad-98e6-9c5277d845ad"},"vehicle_type_id":"4","last_reported":1703268505,"current_range_meters":400,"station_id":"ce4bh0h2rcd13ifvqd40","pricing_plan_id":"free"},{"bike_id":"14fdb900-864b-4d0e-84af-3a0f58a9c5c5","system_id":"levelo_inurba_marseille","lat":43.301117,"lon":5.398795,"is_reserved":false,"is_disabled":false,"rental_uris":{"android":"levelo://app?vid=14fdb900-864b-4d0e-84af-3a0f58a9c5c5","ios":"levelo://app?vid=14fdb900-864b-4d0e-84af-3a0f58a9c5c5"},"vehicle_type_id":"4","last_reported":1703268505,"current_range_meters":24400,"station_id":"ce4bh0h2rcd13ifvqd40","pricing_plan_id":"free"},{"bike_id":"aa2bb981-e08f-448f-a65e-a15a6461a4f7","system_id":"levelo_inurba_marseille","lat":43.33798,"lon":5.3745,"is_reserved":false,"is_disabled":false,"rental_uris":{"android":"levelo://app?vid=aa2bb981-e08f-448f-a65e-a15a6461a4f7","ios":"levelo://app?vid=aa2bb981-e08f-448f-a65e-a15a6461a4f7"},"vehicle_type_id":"4","last_reported":1703268505,"current_range_meters":19200,"station_id":"ce4rr2p2rcd13i802rgg","pricing_plan_id":"free"},{"bike_id":"1cfe4069-876e-48fe-b40d-98c5ef6e56af","system_id":"levelo_inurba_marseille","lat":43.28727,"lon":5.36078,"is_reserved":false,"is_disabled":false,"rental_uris":{"android":"levelo://app?vid=1cfe4069-876e-48fe-b40d-98c5ef6e56af","ios":"levelo://app?vid=1cfe4069-876e-48fe-b40d-98c5ef6e56af"},"vehicle_type_id":"4","last_reported":1703268505,"current_range_meters":12000,"station_id":"cki0cbj6b192h4jlfktg","pricing_plan_id":"free"},{"bike_id":"5ead1464-77c6-4df9-9688-a6faea1fbd31","system_id":"levelo_inurba_marseille","lat":43.30642,"lon":5.401031,"is_reserved":false,"is_disabled":false,"rental_uris":{"android":"levelo://app?vid=5ead1464-77c6-4df9-9688-a6faea1fbd31","ios":"levelo://app?vid=5ead1464-77c6-4df9-9688-a6faea1fbd31"},"vehicle_type_id":"4","last_reported":1703268505,"current_range_meters":9200,"station_id":"ce4bh112rcd13ifvqda0","pricing_plan_id":"free"},{"bike_id":"2e1aefd5-f180-4df7-9bca-d87d61720d18","system_id":"levelo_inurba_marseille","lat":43.286591,"lon":5.363346,"is_reserved":false,"is_disabled":false,"rental_uris":{"android":"levelo://app?vid=2e1aefd5-f180-4df7-9bca-d87d61720d18","ios":"levelo://app?vid=2e1aefd5-f180-4df7-9bca-d87d61720d18"},"vehicle_type_id":"4","last_reported":1703268505,"current_range_meters":18800,"station_id":"ce4bhah2rcd13ifvqej0","pricing_plan_id":"free"},{"bike_id":"deeea7c2-8f75-4688-9675-6ee9df44ac98","system_id":"levelo_inurba_marseille","lat":43.298681,"lon":5.397225,"is_reserved":false,"is_disabled":false,"rental_uris":{"android":"levelo://app?vid=deeea7c2-8f75-4688-9675-6ee9df44ac98","ios":"levelo://app?vid=deeea7c2-8f75-4688-9675-6ee9df44ac98"},"vehicle_type_id":"4","last_reported":1703268505,"current_range_meters":0,"station_id":"ce4bh0h2rcd13ifvqd50","pricing_plan_id":"free"},{"bike_id":"4d466300-7b3b-4817-af3d-4dc25288d3eb","system_id":"levelo_inurba_marseille","lat":43.298681,"lon":5.397225,"is_reserved":false,"is_disabled":false,"rental_uris":{"android":"levelo://app?vid=4d466300-7b3b-4817-af3d-4dc25288d3eb","ios":"levelo://app?vid=4d466300-7b3b-4817-af3d-4dc25288d3eb"},"vehicle_type_id":"4","last_reported":1703268505,"current_range_meters":8800,"station_id":"ce4bh0h2rcd13ifvqd50","pricing_plan_id":"free"},{"bike_id":"93d908c2-7c33-4d0a-baf7-fec7b3f1bd62","system_id":"levelo_inurba_marseille","lat":43.286591,"lon":5.363346,"is_reserved":false,"is_disabled":false,"rental_uris":{"android":"levelo://app?vid=93d908c2-7c33-4d0a-baf7-fec7b3f1bd62","ios":"levelo://app?vid=93d908c2-7c33-4d0a-baf7-fec7b3f1bd62"},"vehicle_type_id":"4","last_reported":1703268505,"current_range_meters":20800,"station_id":"ce4bhah2rcd13ifvqej0","pricing_plan_id":"free"},{"bike_id":"61a1dc70-bc21-4dea-b1e1-cddb9f224ee9","system_id":"levelo_inurba_marseille","lat":43.29864,"lon":5.3973,"is_reserved":false,"is_disabled":false,"rental_uris":{"android":"levelo://app?vid=61a1dc70-bc21-4dea-b1e1-cddb9f224ee9","ios":"levelo://app?vid=61a1dc70-bc21-4dea-b1e1-cddb9f224ee9"},"vehicle_type_id":"4","last_reported":1703268505,"current_range_meters":0,"station_id":"ce4bh0h2rcd13ifvqd50","pricing_plan_id":"free"},{"bike_id":"4e71b08e-f33a-49d9-ba8d-698ce8ffbba5","system_id":"levelo_inurba_marseille","lat":43.302759,"lon":5.400793,"is_reserved":false,"is_disabled":false,"rental_uris":{"android":"levelo://app?vid=4e71b08e-f33a-49d9-ba8d-698ce8ffbba5","ios":"levelo://app?vid=4e71b08e-f33a-49d9-ba8d-698ce8ffbba5"},"vehicle_type_id":"4","last_reported":1703268505,"current_range_meters":29200,"station_id":"ce4bgvh2rcd13ifvqcs0","pricing_plan_id":"free"},{"bike_id":"1308bc29-fefe-44ee-8d59-329f844a0af4","system_id":"levelo_inurba_marseille","lat":43.302759,"lon":5.400793,"is_reserved":false,"is_disabled":false,"rental_uris":{"android":"levelo://app?vid=1308bc29-fefe-44ee-8d59-329f844a0af4","ios":"levelo://app?vid=1308bc29-fefe-44ee-8d59-329f844a0af4"},"vehicle_type_id":"4","last_reported":1703268505,"current_range_meters":5200,"station_id":"ce4bgvh2rcd13ifvqcs0","pricing_plan_id":"free"},{"bike_id":"e930e6b7-30ee-404d-bdd6-3d2fb17a1c17","system_id":"levelo_inurba_marseille","lat":43.302759,"lon":5.400793,"is_reserved":false,"is_disabled":false,"rental_uris":{"android":"levelo://app?vid=e930e6b7-30ee-404d-bdd6-3d2fb17a1c17","ios":"levelo://app?vid=e930e6b7-30ee-404d-bdd6-3d2fb17a1c17"},"vehicle_type_id":"4","last_reported":1703268505,"current_range_meters":23200,"station_id":"ce4bgvh2rcd13ifvqcs0","pricing_plan_id":"free"},{"bike_id":"7f9b0883-e910-4278-ae9b-2631e7981111","system_id":"levelo_inurba_marseille","lat":43.290345,"lon":5.38646,"is_reserved":false,"is_disabled":false,"rental_uris":{"android":"levelo://app?vid=7f9b0883-e910-4278-ae9b-2631e7981111","ios":"levelo://app?vid=7f9b0883-e910-4278-ae9b-2631e7981111"},"vehicle_type_id":"4","last_reported":1703268505,"current_range_meters":26000,"station_id":"ce4bh4p2rcd13ifvqe0g","pricing_plan_id":"free"},{"bike_id":"3123620a-89a4-4b60-8161-d87cd8cc7a7e","system_id":"levelo_inurba_marseille","lat":43.30264,"lon":5.40082,"is_reserved":false,"is_disabled":false,"rental_uris":{"android":"levelo://app?vid=3123620a-89a4-4b60-8161-d87cd8cc7a7e","ios":"levelo://app?vid=3123620a-89a4-4b60-8161-d87cd8cc7a7e"},"vehicle_type_id":"4","last_reported":1703268505,"current_range_meters":1600,"station_id":"ce4bgvh2rcd13ifvqcs0","pricing_plan_id":"free"},{"bike_id":"3d93d4c6-cd69-4d9b-94ae-a3913dbd6b8e","system_id":"levelo_inurba_marseille","lat":43.302759,"lon":5.400793,"is_reserved":false,"is_disabled":false,"rental_uris":{"android":"levelo://app?vid=3d93d4c6-cd69-4d9b-94ae-a3913dbd6b8e","ios":"levelo://app?vid=3d93d4c6-cd69-4d9b-94ae-a3913dbd6b8e"},"vehicle_type_id":"4","last_reported":1703268505,"current_range_meters":16000,"station_id":"ce4bgvh2rcd13ifvqcs0","pricing_plan_id":"free"},{"bike_id":"cd92ea40-6028-45b1-932d-768cb15aa714","system_id":"levelo_inurba_marseille","lat":43.302759,"lon":5.400793,"is_reserved":false,"is_disabled":false,"rental_uris":{"android":"levelo://app?vid=cd92ea40-6028-45b1-932d-768cb15aa714","ios":"levelo://app?vid=cd92ea40-6028-45b1-932d-768cb15aa714"},"vehicle_type_id":"4","last_reported":1703268505,"current_range_meters":24400,"station_id":"ce4bgvh2rcd13ifvqcs0","pricing_plan_id":"free"},{"bike_id":"62505184-ecdd-4b6a-90e2-018ae89a5f61","system_id":"levelo_inurba_marseille","lat":43.286039,"lon":5.370679,"is_reserved":false,"is_disabled":false,"rental_uris":{"android":"levelo://app?vid=62505184-ecdd-4b6a-90e2-018ae89a5f61","ios":"levelo://app?vid=62505184-ecdd-4b6a-90e2-018ae89a5f61"},"vehicle_type_id":"4","last_reported":1703268505,"current_range_meters":18800,"station_id":"ce4bht12rcd13ifvqi60","pricing_plan_id":"free"},{"bike_id":"35626461-9086-4717-b083-e4f7c7dc682f","system_id":"levelo_inurba_marseille","lat":43.28711,"lon":5.379415,"is_reserved":false,"is_disabled":false,"rental_uris":{"android":"levelo://app?vid=35626461-9086-4717-b083-e4f7c7dc682f","ios":"levelo://app?vid=35626461-9086-4717-b083-e4f7c7dc682f"},"vehicle_type_id":"4","last_reported":1703268505,"current_range_meters":9600,"station_id":"ce4bh9p2rcd13ifvqec0","pricing_plan_id":"free"},{"bike_id":"5037cb98-daba-40f9-a96e-c29033af2df5","system_id":"levelo_inurba_marseille","lat":43.316828,"lon":5.404723,"is_reserved":false,"is_disabled":false,"rental_uris":{"android":"levelo://app?vid=5037cb98-daba-40f9-a96e-c29033af2df5","ios":"levelo://app?vid=5037cb98-daba-40f9-a96e-c29033af2df5"},"vehicle_type_id":"4","last_reported":1703268505,"current_range_meters":6400,"station_id":"ce4bh012rcd13ifvqd00","pricing_plan_id":"free"},{"bike_id":"1bd07940-904b-4872-9e69-c59366376291","system_id":"levelo_inurba_marseille","lat":43.316828,"lon":5.404723,"is_reserved":false,"is_disabled":false,"rental_uris":{"android":"levelo://app?vid=1bd07940-904b-4872-9e69-c59366376291","ios":"levelo://app?vid=1bd07940-904b-4872-9e69-c59366376291"},"vehicle_type_id":"4","last_reported":1703268505,"current_range_meters":24800,"station_id":"ce4bh012rcd13ifvqd00","pricing_plan_id":"free"},{"bike_id":"a0613d52-bd00-4e2d-b5d1-492fe8b18c49","system_id":"levelo_inurba_marseille","lat":43.316821,"lon":5.404737,"is_reserved":false,"is_disabled":false,"rental_uris":{"android":"levelo://app?vid=a0613d52-bd00-4e2d-b5d1-492fe8b18c49","ios":"levelo://app?vid=a0613d52-bd00-4e2d-b5d1-492fe8b18c49"},"vehicle_type_id":"4","last_reported":1703268505,"current_range_meters":2800,"station_id":"ce4bh012rcd13ifvqd00","pricing_plan_id":"free"},{"bike_id":"1704691f-97bf-4363-8686-d68bedd01625","system_id":"levelo_inurba_marseille","lat":43.29202,"lon":5.39318,"is_reserved":false,"is_disabled":false,"rental_uris":{"android":"levelo://app?vid=1704691f-97bf-4363-8686-d68bedd01625","ios":"levelo://app?vid=1704691f-97bf-4363-8686-d68bedd01625"},"vehicle_type_id":"4","last_reported":1703268505,"current_range_meters":0,"station_id":"ce4bh192rcd13ifvqdd0","pricing_plan_id":"free"},{"bike_id":"b7e40bc8-261a-4a40-86a2-2d4057ab3262","system_id":"levelo_inurba_marseille","lat":43.291994,"lon":5.392907,"is_reserved":false,"is_disabled":false,"rental_uris":{"android":"levelo://app?vid=b7e40bc8-261a-4a40-86a2-2d4057ab3262","ios":"levelo://app?vid=b7e40bc8-261a-4a40-86a2-2d4057ab3262"},"vehicle_type_id":"4","last_reported":1703268505,"current_range_meters":30000,"station_id":"ce4bh192rcd13ifvqdd0","pricing_plan_id":"free"},{"bike_id":"e2adfa7c-882e-48a1-9ee4-b36e6186ebbf","system_id":"levelo_inurba_marseille","lat":43.330912,"lon":5.396935,"is_reserved":false,"is_disabled":false,"rental_uris":{"android":"levelo://app?vid=e2adfa7c-882e-48a1-9ee4-b36e6186ebbf","ios":"levelo://app?vid=e2adfa7c-882e-48a1-9ee4-b36e6186ebbf"},"vehicle_type_id":"4","last_reported":1703268505,"current_range_meters":17600,"station_id":"","pricing_plan_id":"free"},{"bike_id":"6681f091-8cae-40db-82be-2afedc79afec","system_id":"levelo_inurba_marseille","lat":43.297862,"lon":5.400723,"is_reserved":false,"is_disabled":false,"rental_uris":{"android":"levelo://app?vid=6681f091-8cae-40db-82be-2afedc79afec","ios":"levelo://app?vid=6681f091-8cae-40db-82be-2afedc79afec"},"vehicle_type_id":"4","last_reported":1703268505,"current_range_meters":5200,"station_id":"","pricing_plan_id":"free"},{"bike_id":"462e3507-2c93-43e7-bb58-f171f77afc8d","system_id":"levelo_inurba_marseille","lat":43.294314,"lon":5.397498,"is_reserved":false,"is_disabled":false,"rental_uris":{"android":"levelo://app?vid=462e3507-2c93-43e7-bb58-f171f77afc8d","ios":"levelo://app?vid=462e3507-2c93-43e7-bb58-f171f77afc8d"},"vehicle_type_id":"4","last_reported":1703268505,"current_range_meters":30000,"station_id":"ce4bh3h2rcd13ifvqdo0","pricing_plan_id":"free"},{"bike_id":"c7135c5d-c16b-4785-917d-d24d5db22e01","system_id":"levelo_inurba_marseille","lat":43.284538,"lon":5.358657,"is_reserved":false,"is_disabled":false,"rental_uris":{"android":"levelo://app?vid=c7135c5d-c16b-4785-917d-d24d5db22e01","ios":"levelo://app?vid=c7135c5d-c16b-4785-917d-d24d5db22e01"},"vehicle_type_id":"4","last_reported":1703268505,"current_range_meters":26000,"station_id":"ce4bhah2rcd13ifvqei0","pricing_plan_id":"free"},{"bike_id":"4190fe00-8df6-4292-9390-5670c5ffc73a","system_id":"levelo_inurba_marseille","lat":43.286133,"lon":5.351073,"is_reserved":false,"is_disabled":false,"rental_uris":{"android":"levelo://app?vid=4190fe00-8df6-4292-9390-5670c5ffc73a","ios":"levelo://app?vid=4190fe00-8df6-4292-9390-5670c5ffc73a"},"vehicle_type_id":"4","last_reported":1703268505,"current_range_meters":29200,"station_id":"ce4bhch2rcd13ifvqeug","pricing_plan_id":"free"},{"bike_id":"53c01ec8-9fb8-459e-b868-8f4e7672d1ad","system_id":"levelo_inurba_marseille","lat":43.285856,"lon":5.350771,"is_reserved":false,"is_disabled":false,"rental_uris":{"android":"levelo://app?vid=53c01ec8-9fb8-459e-b868-8f4e7672d1ad","ios":"levelo://app?vid=53c01ec8-9fb8-459e-b868-8f4e7672d1ad"},"vehicle_type_id":"4","last_reported":1703268505,"current_range_meters":26400,"station_id":"ce4bhch2rcd13ifvqeug","pricing_plan_id":"free"},{"bike_id":"e1edc7a0-d68f-4f38-8712-cfe1291ab4b9","system_id":"levelo_inurba_marseille","lat":43.28675,"lon":5.38673,"is_reserved":false,"is_disabled":false,"rental_uris":{"android":"levelo://app?vid=e1edc7a0-d68f-4f38-8712-cfe1291ab4b9","ios":"levelo://app?vid=e1edc7a0-d68f-4f38-8712-cfe1291ab4b9"},"vehicle_type_id":"4","last_reported":1703268505,"current_range_meters":0,"station_id":"ce4bh492rcd13ifvqdug","pricing_plan_id":"free"},{"bike_id":"365351fb-9dc0-4763-85db-886ebe3b10db","system_id":"levelo_inurba_marseille","lat":43.31875,"lon":5.40732,"is_reserved":false,"is_disabled":false,"rental_uris":{"android":"levelo://app?vid=365351fb-9dc0-4763-85db-886ebe3b10db","ios":"levelo://app?vid=365351fb-9dc0-4763-85db-886ebe3b10db"},"vehicle_type_id":"4","last_reported":1703268505,"current_range_meters":9200,"station_id":"","pricing_plan_id":"free"},{"bike_id":"3b7e3ec0-988e-4aeb-bcf3-3017c628b5d3","system_id":"levelo_inurba_marseille","lat":43.33717,"lon":5.391857,"is_reserved":false,"is_disabled":false,"rental_uris":{"android":"levelo://app?vid=3b7e3ec0-988e-4aeb-bcf3-3017c628b5d3","ios":"levelo://app?vid=3b7e3ec0-988e-4aeb-bcf3-3017c628b5d3"},"vehicle_type_id":"4","last_reported":1703268505,"current_range_meters":30000,"station_id":"ce4bhr92rcd13ifvqhsg","pricing_plan_id":"free"},{"bike_id":"b7c71217-6fce-490c-9bd4-073ff8143718","system_id":"levelo_inurba_marseille","lat":43.33717,"lon":5.391857,"is_reserved":false,"is_disabled":false,"rental_uris":{"android":"levelo://app?vid=b7c71217-6fce-490c-9bd4-073ff8143718","ios":"levelo://app?vid=b7c71217-6fce-490c-9bd4-073ff8143718"},"vehicle_type_id":"4","last_reported":1703268505,"current_range_meters":19600,"station_id":"ce4bhr92rcd13ifvqhsg","pricing_plan_id":"free"},{"bike_id":"6ba61220-9ac6-4382-bdc1-7bc99eba5c0c","system_id":"levelo_inurba_marseille","lat":43.28483,"lon":5.38408,"is_reserved":false,"is_disabled":false,"rental_uris":{"android":"levelo://app?vid=6ba61220-9ac6-4382-bdc1-7bc99eba5c0c","ios":"levelo://app?vid=6ba61220-9ac6-4382-bdc1-7bc99eba5c0c"},"vehicle_type_id":"4","last_reported":1703268505,"current_range_meters":0,"station_id":"ce4bh512rcd13ifvqe3g","pricing_plan_id":"free"},{"bike_id":"da77c9d5-a008-4d49-bab4-014a8af2a999","system_id":"levelo_inurba_marseille","lat":43.2847,"lon":5.38424,"is_reserved":false,"is_disabled":false,"rental_uris":{"android":"levelo://app?vid=da77c9d5-a008-4d49-bab4-014a8af2a999","ios":"levelo://app?vid=da77c9d5-a008-4d49-bab4-014a8af2a999"},"vehicle_type_id":"4","last_reported":1703268505,"current_range_meters":0,"station_id":"ce4bh512rcd13ifvqe3g","pricing_plan_id":"free"},{"bike_id":"be8bbf5c-d83d-4a3f-b4a3-d2c596d20664","system_id":"levelo_inurba_marseille","lat":43.297946,"lon":5.404063,"is_reserved":false,"is_disabled":false,"rental_uris":{"android":"levelo://app?vid=be8bbf5c-d83d-4a3f-b4a3-d2c596d20664","ios":"levelo://app?vid=be8bbf5c-d83d-4a3f-b4a3-d2c596d20664"},"vehicle_type_id":"4","last_reported":1703268505,"current_range_meters":11600,"station_id":"ce4bh112rcd13ifvqd90","pricing_plan_id":"free"},{"bike_id":"e5145a44-688c-421a-9e99-b1d2f4d16973","system_id":"levelo_inurba_marseille","lat":43.29795,"lon":5.404086,"is_reserved":false,"is_disabled":false,"rental_uris":{"android":"levelo://app?vid=e5145a44-688c-421a-9e99-b1d2f4d16973","ios":"levelo://app?vid=e5145a44-688c-421a-9e99-b1d2f4d16973"},"vehicle_type_id":"4","last_reported":1703268505,"current_range_meters":26400,"station_id":"ce4bh112rcd13ifvqd90","pricing_plan_id":"free"},{"bike_id":"bb5652d1-a3a5-4a1d-8989-5373e5832f8f","system_id":"levelo_inurba_marseille","lat":43.283494,"lon":5.380945,"is_reserved":false,"is_disabled":false,"rental_uris":{"android":"levelo://app?vid=bb5652d1-a3a5-4a1d-8989-5373e5832f8f","ios":"levelo://app?vid=bb5652d1-a3a5-4a1d-8989-5373e5832f8f"},"vehicle_type_id":"4","last_reported":1703268505,"current_range_meters":14800,"station_id":"ce4bh412rcd13ifvqdr0","pricing_plan_id":"free"},{"bike_id":"3b37f056-f06a-4274-86e1-7653854b6034","system_id":"levelo_inurba_marseille","lat":43.283494,"lon":5.380945,"is_reserved":false,"is_disabled":false,"rental_uris":{"android":"levelo://app?vid=3b37f056-f06a-4274-86e1-7653854b6034","ios":"levelo://app?vid=3b37f056-f06a-4274-86e1-7653854b6034"},"vehicle_type_id":"4","last_reported":1703268505,"current_range_meters":15200,"station_id":"ce4bh412rcd13ifvqdr0","pricing_plan_id":"free"},{"bike_id":"70395572-77da-417a-90e6-439a8c0ee0b8","system_id":"levelo_inurba_marseille","lat":43.289363,"lon":5.396322,"is_reserved":false,"is_disabled":false,"rental_uris":{"android":"levelo://app?vid=70395572-77da-417a-90e6-439a8c0ee0b8","ios":"levelo://app?vid=70395572-77da-417a-90e6-439a8c0ee0b8"},"vehicle_type_id":"4","last_reported":1703268505,"current_range_meters":19200,"station_id":"ce4bh3h2rcd13ifvqdn0","pricing_plan_id":"free"},{"bike_id":"0c07039d-f042-4577-ad3b-2eb17b5732ec","system_id":"levelo_inurba_marseille","lat":43.282707,"lon":5.350717,"is_reserved":false,"is_disabled":false,"rental_uris":{"android":"levelo://app?vid=0c07039d-f042-4577-ad3b-2eb17b5732ec","ios":"levelo://app?vid=0c07039d-f042-4577-ad3b-2eb17b5732ec"},"vehicle_type_id":"4","last_reported":1703268505,"current_range_meters":10800,"station_id":"ce4bhbp2rcd13ifvqerg","pricing_plan_id":"free"},{"bike_id":"7054a930-e9e7-4d41-9e2b-41f0a98eceda","system_id":"levelo_inurba_marseille","lat":43.28269,"lon":5.35074,"is_reserved":false,"is_disabled":false,"rental_uris":{"android":"levelo://app?vid=7054a930-e9e7-4d41-9e2b-41f0a98eceda","ios":"levelo://app?vid=7054a930-e9e7-4d41-9e2b-41f0a98eceda"},"vehicle_type_id":"4","last_reported":1703268505,"current_range_meters":25600,"station_id":"ce4bhbp2rcd13ifvqerg","pricing_plan_id":"free"},{"bike_id":"5dfbda82-9999-48e9-9779-7781fbf040e2","system_id":"levelo_inurba_marseille","lat":43.2827,"lon":5.3507,"is_reserved":false,"is_disabled":false,"rental_uris":{"android":"levelo://app?vid=5dfbda82-9999-48e9-9779-7781fbf040e2","ios":"levelo://app?vid=5dfbda82-9999-48e9-9779-7781fbf040e2"},"vehicle_type_id":"4","last_reported":1703268505,"current_range_meters":30400,"station_id":"ce4bhbp2rcd13ifvqerg","pricing_plan_id":"free"},{"bike_id":"9055ca72-0b15-41da-abc1-0d01dd44c2f7","system_id":"levelo_inurba_marseille","lat":43.28268,"lon":5.3507,"is_reserved":false,"is_disabled":false,"rental_uris":{"android":"levelo://app?vid=9055ca72-0b15-41da-abc1-0d01dd44c2f7","ios":"levelo://app?vid=9055ca72-0b15-41da-abc1-0d01dd44c2f7"},"vehicle_type_id":"4","last_reported":1703268505,"current_range_meters":25200,"station_id":"ce4bhbp2rcd13ifvqerg","pricing_plan_id":"free"},{"bike_id":"c0688eba-7111-4fdc-afc7-94c849445123","system_id":"levelo_inurba_marseille","lat":43.282669,"lon":5.350601,"is_reserved":false,"is_disabled":false,"rental_uris":{"android":"levelo://app?vid=c0688eba-7111-4fdc-afc7-94c849445123","ios":"levelo://app?vid=c0688eba-7111-4fdc-afc7-94c849445123"},"vehicle_type_id":"4","last_reported":1703268505,"current_range_meters":29600,"station_id":"ce4bhbp2rcd13ifvqerg","pricing_plan_id":"free"},{"bike_id":"0bb11488-f524-43ac-b0ef-26d7b8df5763","system_id":"levelo_inurba_marseille","lat":43.28263,"lon":5.35067,"is_reserved":false,"is_disabled":false,"rental_uris":{"android":"levelo://app?vid=0bb11488-f524-43ac-b0ef-26d7b8df5763","ios":"levelo://app?vid=0bb11488-f524-43ac-b0ef-26d7b8df5763"},"vehicle_type_id":"4","last_reported":1703268505,"current_range_meters":12000,"station_id":"ce4bhbp2rcd13ifvqerg","pricing_plan_id":"free"},{"bike_id":"1bb9feff-3e8b-46d2-8c5c-420eb3be4d2c","system_id":"levelo_inurba_marseille","lat":43.28039,"lon":5.369297,"is_reserved":false,"is_disabled":false,"rental_uris":{"android":"levelo://app?vid=1bb9feff-3e8b-46d2-8c5c-420eb3be4d2c","ios":"levelo://app?vid=1bb9feff-3e8b-46d2-8c5c-420eb3be4d2c"},"vehicle_type_id":"4","last_reported":1703268505,"current_range_meters":22000,"station_id":"ce4bha12rcd13ifvqef0","pricing_plan_id":"free"},{"bike_id":"9164d9dd-057f-4a1a-8737-197b60c32400","system_id":"levelo_inurba_marseille","lat":43.28039,"lon":5.369297,"is_reserved":false,"is_disabled":false,"rental_uris":{"android":"levelo://app?vid=9164d9dd-057f-4a1a-8737-197b60c32400","ios":"levelo://app?vid=9164d9dd-057f-4a1a-8737-197b60c32400"},"vehicle_type_id":"4","last_reported":1703268505,"current_range_meters":14800,"station_id":"ce4bha12rcd13ifvqef0","pricing_plan_id":"free"},{"bike_id":"c9a3814b-885e-4bc7-b286-bdb7abb981a6","system_id":"levelo_inurba_marseille","lat":43.29041,"lon":5.399634,"is_reserved":false,"is_disabled":false,"rental_uris":{"android":"levelo://app?vid=c9a3814b-885e-4bc7-b286-bdb7abb981a6","ios":"levelo://app?vid=c9a3814b-885e-4bc7-b286-bdb7abb981a6"},"vehicle_type_id":"4","last_reported":1703268505,"current_range_meters":7200,"station_id":"ce4bh392rcd13ifvqdm0","pricing_plan_id":"free"},{"bike_id":"98e48ef2-398c-425e-851f-0b6ac0708f0c","system_id":"levelo_inurba_marseille","lat":43.286961,"lon":5.373785,"is_reserved":false,"is_disabled":false,"rental_uris":{"android":"levelo://app?vid=98e48ef2-398c-425e-851f-0b6ac0708f0c","ios":"levelo://app?vid=98e48ef2-398c-425e-851f-0b6ac0708f0c"},"vehicle_type_id":"4","last_reported":1703268505,"current_range_meters":7600,"station_id":"ce4bh3p2rcd13ifvqdq0","pricing_plan_id":"free"},{"bike_id":"af9c3f68-bb7b-420c-9a25-209777fafa13","system_id":"levelo_inurba_marseille","lat":43.290412,"lon":5.399633,"is_reserved":false,"is_disabled":false,"rental_uris":{"android":"levelo://app?vid=af9c3f68-bb7b-420c-9a25-209777fafa13","ios":"levelo://app?vid=af9c3f68-bb7b-420c-9a25-209777fafa13"},"vehicle_type_id":"4","last_reported":1703268505,"current_range_meters":5600,"station_id":"ce4bh392rcd13ifvqdm0","pricing_plan_id":"free"},{"bike_id":"9c9d3471-cd40-4205-932a-b03977fdcb07","system_id":"levelo_inurba_marseille","lat":43.296263,"lon":5.40601,"is_reserved":false,"is_disabled":false,"rental_uris":{"android":"levelo://app?vid=9c9d3471-cd40-4205-932a-b03977fdcb07","ios":"levelo://app?vid=9c9d3471-cd40-4205-932a-b03977fdcb07"},"vehicle_type_id":"4","last_reported":1703268505,"current_range_meters":1200,"station_id":"ce4bh0h2rcd13ifvqd60","pricing_plan_id":"free"},{"bike_id":"f34df0ad-f9f9-4537-9317-7dff74d6de8c","system_id":"levelo_inurba_marseille","lat":43.296263,"lon":5.40601,"is_reserved":false,"is_disabled":false,"rental_uris":{"android":"levelo://app?vid=f34df0ad-f9f9-4537-9317-7dff74d6de8c","ios":"levelo://app?vid=f34df0ad-f9f9-4537-9317-7dff74d6de8c"},"vehicle_type_id":"4","last_reported":1703268505,"current_range_meters":5600,"station_id":"ce4bh0h2rcd13ifvqd60","pricing_plan_id":"free"},{"bike_id":"90df83f8-1fbf-4d45-ab70-c2b0f7cdee7e","system_id":"levelo_inurba_marseille","lat":43.296263,"lon":5.40601,"is_reserved":false,"is_disabled":false,"rental_uris":{"android":"levelo://app?vid=90df83f8-1fbf-4d45-ab70-c2b0f7cdee7e","ios":"levelo://app?vid=90df83f8-1fbf-4d45-ab70-c2b0f7cdee7e"},"vehicle_type_id":"4","last_reported":1703268505,"current_range_meters":5600,"station_id":"ce4bh0h2rcd13ifvqd60","pricing_plan_id":"free"},{"bike_id":"07915d1e-dc07-4e56-afb9-9d66caf9a477","system_id":"levelo_inurba_marseille","lat":43.28573,"lon":5.394992,"is_reserved":false,"is_disabled":false,"rental_uris":{"android":"levelo://app?vid=07915d1e-dc07-4e56-afb9-9d66caf9a477","ios":"levelo://app?vid=07915d1e-dc07-4e56-afb9-9d66caf9a477"},"vehicle_type_id":"4","last_reported":1703268505,"current_range_meters":23600,"station_id":"ce4bh292rcd13ifvqdg0","pricing_plan_id":"free"},{"bike_id":"6421c02a-3797-44ae-a39a-55ccb6161218","system_id":"levelo_inurba_marseille","lat":43.28566,"lon":5.39495,"is_reserved":false,"is_disabled":false,"rental_uris":{"android":"levelo://app?vid=6421c02a-3797-44ae-a39a-55ccb6161218","ios":"levelo://app?vid=6421c02a-3797-44ae-a39a-55ccb6161218"},"vehicle_type_id":"4","last_reported":1703268505,"current_range_meters":0,"station_id":"ce4bh292rcd13ifvqdg0","pricing_plan_id":"free"},{"bike_id":"8acdcd6a-4784-4642-b33c-45bdca2b7c1a","system_id":"levelo_inurba_marseille","lat":43.28573,"lon":5.394992,"is_reserved":false,"is_disabled":false,"rental_uris":{"android":"levelo://app?vid=8acdcd6a-4784-4642-b33c-45bdca2b7c1a","ios":"levelo://app?vid=8acdcd6a-4784-4642-b33c-45bdca2b7c1a"},"vehicle_type_id":"4","last_reported":1703268505,"current_range_meters":0,"station_id":"ce4bh292rcd13ifvqdg0","pricing_plan_id":"free"},{"bike_id":"2dce41b4-f1e9-4565-979b-d206af37124f","system_id":"levelo_inurba_marseille","lat":43.326605,"lon":5.409903,"is_reserved":false,"is_disabled":false,"rental_uris":{"android":"levelo://app?vid=2dce41b4-f1e9-4565-979b-d206af37124f","ios":"levelo://app?vid=2dce41b4-f1e9-4565-979b-d206af37124f"},"vehicle_type_id":"4","last_reported":1703268505,"current_range_meters":29200,"station_id":"ce4bhpp2rcd13ifvqhgg","pricing_plan_id":"free"},{"bike_id":"7f89473b-4ee2-4ba8-86bf-bc53e18d4702","system_id":"levelo_inurba_marseille","lat":43.304188,"lon":5.412904,"is_reserved":false,"is_disabled":false,"rental_uris":{"android":"levelo://app?vid=7f89473b-4ee2-4ba8-86bf-bc53e18d4702","ios":"levelo://app?vid=7f89473b-4ee2-4ba8-86bf-bc53e18d4702"},"vehicle_type_id":"4","last_reported":1703268505,"current_range_meters":3600,"station_id":"ce4bhop2rcd13ifvqh8g","pricing_plan_id":"free"},{"bike_id":"2994219f-f282-434d-a4a5-dcac2f9151e5","system_id":"levelo_inurba_marseille","lat":43.304188,"lon":5.412904,"is_reserved":false,"is_disabled":false,"rental_uris":{"android":"levelo://app?vid=2994219f-f282-434d-a4a5-dcac2f9151e5","ios":"levelo://app?vid=2994219f-f282-434d-a4a5-dcac2f9151e5"},"vehicle_type_id":"4","last_reported":1703268505,"current_range_meters":14800,"station_id":"ce4bhop2rcd13ifvqh8g","pricing_plan_id":"free"},{"bike_id":"e2543a4e-e066-488e-bfbe-4955c2c6c028","system_id":"levelo_inurba_marseille","lat":43.304188,"lon":5.412904,"is_reserved":false,"is_disabled":false,"rental_uris":{"android":"levelo://app?vid=e2543a4e-e066-488e-bfbe-4955c2c6c028","ios":"levelo://app?vid=e2543a4e-e066-488e-bfbe-4955c2c6c028"},"vehicle_type_id":"4","last_reported":1703268505,"current_range_meters":23200,"station_id":"ce4bhop2rcd13ifvqh8g","pricing_plan_id":"free"},{"bike_id":"b17ba9b3-f810-4027-bdff-0fe66bb91b64","system_id":"levelo_inurba_marseille","lat":43.304188,"lon":5.412904,"is_reserved":false,"is_disabled":false,"rental_uris":{"android":"levelo://app?vid=b17ba9b3-f810-4027-bdff-0fe66bb91b64","ios":"levelo://app?vid=b17ba9b3-f810-4027-bdff-0fe66bb91b64"},"vehicle_type_id":"4","last_reported":1703268505,"current_range_meters":21200,"station_id":"ce4bhop2rcd13ifvqh8g","pricing_plan_id":"free"},{"bike_id":"f2a735b9-b183-4b03-acbe-8b823bd40b24","system_id":"levelo_inurba_marseille","lat":43.304188,"lon":5.412904,"is_reserved":false,"is_disabled":false,"rental_uris":{"android":"levelo://app?vid=f2a735b9-b183-4b03-acbe-8b823bd40b24","ios":"levelo://app?vid=f2a735b9-b183-4b03-acbe-8b823bd40b24"},"vehicle_type_id":"4","last_reported":1703268505,"current_range_meters":32000,"station_id":"ce4bhop2rcd13ifvqh8g","pricing_plan_id":"free"},{"bike_id":"3facbe4d-388c-40d0-82e4-59c677c06a34","system_id":"levelo_inurba_marseille","lat":43.304188,"lon":5.412904,"is_reserved":false,"is_disabled":false,"rental_uris":{"android":"levelo://app?vid=3facbe4d-388c-40d0-82e4-59c677c06a34","ios":"levelo://app?vid=3facbe4d-388c-40d0-82e4-59c677c06a34"},"vehicle_type_id":"4","last_reported":1703268505,"current_range_meters":6000,"station_id":"ce4bhop2rcd13ifvqh8g","pricing_plan_id":"free"},{"bike_id":"a550ac9f-063a-4321-a1d3-f7322f6b4d48","system_id":"levelo_inurba_marseille","lat":43.287154,"lon":5.399979,"is_reserved":false,"is_disabled":false,"rental_uris":{"android":"levelo://app?vid=a550ac9f-063a-4321-a1d3-f7322f6b4d48","ios":"levelo://app?vid=a550ac9f-063a-4321-a1d3-f7322f6b4d48"},"vehicle_type_id":"4","last_reported":1703268505,"current_range_meters":16800,"station_id":"ce4bho92rcd13ifvqh3g","pricing_plan_id":"free"},{"bike_id":"ca31e5ed-e433-4432-a6f9-c2dc3bd543cc","system_id":"levelo_inurba_marseille","lat":43.320045,"lon":5.415046,"is_reserved":false,"is_disabled":false,"rental_uris":{"android":"levelo://app?vid=ca31e5ed-e433-4432-a6f9-c2dc3bd543cc","ios":"levelo://app?vid=ca31e5ed-e433-4432-a6f9-c2dc3bd543cc"},"vehicle_type_id":"4","last_reported":1703268505,"current_range_meters":14400,"station_id":"ce4bhq92rcd13ifvqhkg","pricing_plan_id":"free"},{"bike_id":"242f5aa0-12ae-41d2-a7ac-f12ad8bfb2e0","system_id":"levelo_inurba_marseille","lat":43.2607,"lon":5.393983,"is_reserved":false,"is_disabled":false,"rental_uris":{"android":"levelo://app?vid=242f5aa0-12ae-41d2-a7ac-f12ad8bfb2e0","ios":"levelo://app?vid=242f5aa0-12ae-41d2-a7ac-f12ad8bfb2e0"},"vehicle_type_id":"4","last_reported":1703268505,"current_range_meters":13200,"station_id":"ce4bhh92rcd13ifvqfj0","pricing_plan_id":"free"},{"bike_id":"2bf8abb6-b1c9-42d9-b0bd-040b8084036e","system_id":"levelo_inurba_marseille","lat":43.292665,"lon":5.408886,"is_reserved":false,"is_disabled":false,"rental_uris":{"android":"levelo://app?vid=2bf8abb6-b1c9-42d9-b0bd-040b8084036e","ios":"levelo://app?vid=2bf8abb6-b1c9-42d9-b0bd-040b8084036e"},"vehicle_type_id":"4","last_reported":1703268505,"current_range_meters":18000,"station_id":"","pricing_plan_id":"free"},{"bike_id":"77c6c489-661f-4037-93c7-7e1935d0e0df","system_id":"levelo_inurba_marseille","lat":43.325243,"lon":5.414326,"is_reserved":false,"is_disabled":false,"rental_uris":{"android":"levelo://app?vid=77c6c489-661f-4037-93c7-7e1935d0e0df","ios":"levelo://app?vid=77c6c489-661f-4037-93c7-7e1935d0e0df"},"vehicle_type_id":"4","last_reported":1703268505,"current_range_meters":22400,"station_id":"ce4bhq12rcd13ifvqhhg","pricing_plan_id":"free"},{"bike_id":"6c4fc49e-5505-4646-a9f6-d50687341480","system_id":"levelo_inurba_marseille","lat":43.27618,"lon":5.361009,"is_reserved":false,"is_disabled":false,"rental_uris":{"android":"levelo://app?vid=6c4fc49e-5505-4646-a9f6-d50687341480","ios":"levelo://app?vid=6c4fc49e-5505-4646-a9f6-d50687341480"},"vehicle_type_id":"4","last_reported":1703268505,"current_range_meters":10400,"station_id":"ce4bgj92rcd13ifvqbe0","pricing_plan_id":"free"},{"bike_id":"48cb72d6-5769-46dd-a4f2-54dfd0bfb283","system_id":"levelo_inurba_marseille","lat":43.273613,"lon":5.362705,"is_reserved":false,"is_disabled":false,"rental_uris":{"android":"levelo://app?vid=48cb72d6-5769-46dd-a4f2-54dfd0bfb283","ios":"levelo://app?vid=48cb72d6-5769-46dd-a4f2-54dfd0bfb283"},"vehicle_type_id":"4","last_reported":1703268505,"current_range_meters":24800,"station_id":"ce4bhbh2rcd13ifvqeo0","pricing_plan_id":"free"},{"bike_id":"843de36b-095c-4afd-830d-de0e9d07ea09","system_id":"levelo_inurba_marseille","lat":43.273613,"lon":5.362705,"is_reserved":false,"is_disabled":false,"rental_uris":{"android":"levelo://app?vid=843de36b-095c-4afd-830d-de0e9d07ea09","ios":"levelo://app?vid=843de36b-095c-4afd-830d-de0e9d07ea09"},"vehicle_type_id":"4","last_reported":1703268505,"current_range_meters":21600,"station_id":"ce4bhbh2rcd13ifvqeo0","pricing_plan_id":"free"},{"bike_id":"173bda84-9c7c-4377-bd9a-2f3d840898c7","system_id":"levelo_inurba_marseille","lat":43.273613,"lon":5.362705,"is_reserved":false,"is_disabled":false,"rental_uris":{"android":"levelo://app?vid=173bda84-9c7c-4377-bd9a-2f3d840898c7","ios":"levelo://app?vid=173bda84-9c7c-4377-bd9a-2f3d840898c7"},"vehicle_type_id":"4","last_reported":1703268505,"current_range_meters":28000,"station_id":"ce4bhbh2rcd13ifvqeo0","pricing_plan_id":"free"},{"bike_id":"e09a6d18-e62b-45bc-ba72-f8db6df2fcf5","system_id":"levelo_inurba_marseille","lat":43.273609,"lon":5.362708,"is_reserved":false,"is_disabled":false,"rental_uris":{"android":"levelo://app?vid=e09a6d18-e62b-45bc-ba72-f8db6df2fcf5","ios":"levelo://app?vid=e09a6d18-e62b-45bc-ba72-f8db6df2fcf5"},"vehicle_type_id":"4","last_reported":1703268505,"current_range_meters":30400,"station_id":"ce4bhbh2rcd13ifvqeo0","pricing_plan_id":"free"},{"bike_id":"59077b53-ee57-4cdb-a673-0f69e1b4df26","system_id":"levelo_inurba_marseille","lat":43.276769,"lon":5.388787,"is_reserved":false,"is_disabled":false,"rental_uris":{"android":"levelo://app?vid=59077b53-ee57-4cdb-a673-0f69e1b4df26","ios":"levelo://app?vid=59077b53-ee57-4cdb-a673-0f69e1b4df26"},"vehicle_type_id":"4","last_reported":1703268505,"current_range_meters":4400,"station_id":"ce4bhi12rcd13ifvqfo0","pricing_plan_id":"free"},{"bike_id":"18e7d4ad-74fb-4671-a6e7-bc0c6f05ebc2","system_id":"levelo_inurba_marseille","lat":43.276769,"lon":5.388787,"is_reserved":false,"is_disabled":false,"rental_uris":{"android":"levelo://app?vid=18e7d4ad-74fb-4671-a6e7-bc0c6f05ebc2","ios":"levelo://app?vid=18e7d4ad-74fb-4671-a6e7-bc0c6f05ebc2"},"vehicle_type_id":"4","last_reported":1703268505,"current_range_meters":4800,"station_id":"ce4bhi12rcd13ifvqfo0","pricing_plan_id":"free"},{"bike_id":"dc43f6b6-85e0-45a6-8ad5-9fe78e0b395d","system_id":"levelo_inurba_marseille","lat":43.279952,"lon":5.400085,"is_reserved":false,"is_disabled":false,"rental_uris":{"android":"levelo://app?vid=dc43f6b6-85e0-45a6-8ad5-9fe78e0b395d","ios":"levelo://app?vid=dc43f6b6-85e0-45a6-8ad5-9fe78e0b395d"},"vehicle_type_id":"4","last_reported":1703268505,"current_range_meters":5200,"station_id":"ce4bho92rcd13ifvqh4g","pricing_plan_id":"free"},{"bike_id":"7c92ac06-9f8b-4771-8927-7d3efcae43ac","system_id":"levelo_inurba_marseille","lat":43.310785,"lon":5.424305,"is_reserved":false,"is_disabled":false,"rental_uris":{"android":"levelo://app?vid=7c92ac06-9f8b-4771-8927-7d3efcae43ac","ios":"levelo://app?vid=7c92ac06-9f8b-4771-8927-7d3efcae43ac"},"vehicle_type_id":"4","last_reported":1703268505,"current_range_meters":8800,"station_id":"ce4bhp92rcd13ifvqhag","pricing_plan_id":"free"},{"bike_id":"25b4ad74-9b8c-44a0-8c6a-043ba7fb2f12","system_id":"levelo_inurba_marseille","lat":43.273125,"lon":5.390731,"is_reserved":false,"is_disabled":false,"rental_uris":{"android":"levelo://app?vid=25b4ad74-9b8c-44a0-8c6a-043ba7fb2f12","ios":"levelo://app?vid=25b4ad74-9b8c-44a0-8c6a-043ba7fb2f12"},"vehicle_type_id":"4","last_reported":1703268505,"current_range_meters":15200,"station_id":"ce4bhgp2rcd13ifvqfe0","pricing_plan_id":"free"},{"bike_id":"b88b7ef1-e79f-4cb8-8cf0-577fb0b0ed23","system_id":"levelo_inurba_marseille","lat":43.274103,"lon":5.394016,"is_reserved":false,"is_disabled":false,"rental_uris":{"android":"levelo://app?vid=b88b7ef1-e79f-4cb8-8cf0-577fb0b0ed23","ios":"levelo://app?vid=b88b7ef1-e79f-4cb8-8cf0-577fb0b0ed23"},"vehicle_type_id":"4","last_reported":1703268505,"current_range_meters":29600,"station_id":"ce4bhdp2rcd13ifvqf20","pricing_plan_id":"free"},{"bike_id":"96939607-2741-4089-ba93-703e03251f9d","system_id":"levelo_inurba_marseille","lat":43.274099,"lon":5.394019,"is_reserved":false,"is_disabled":false,"rental_uris":{"android":"levelo://app?vid=96939607-2741-4089-ba93-703e03251f9d","ios":"levelo://app?vid=96939607-2741-4089-ba93-703e03251f9d"},"vehicle_type_id":"4","last_reported":1703268505,"current_range_meters":31200,"station_id":"ce4bhdp2rcd13ifvqf20","pricing_plan_id":"free"},{"bike_id":"47f13d6f-d459-408a-84e8-143c628b2a0b","system_id":"levelo_inurba_marseille","lat":43.304096,"lon":5.425385,"is_reserved":false,"is_disabled":false,"rental_uris":{"android":"levelo://app?vid=47f13d6f-d459-408a-84e8-143c628b2a0b","ios":"levelo://app?vid=47f13d6f-d459-408a-84e8-143c628b2a0b"},"vehicle_type_id":"4","last_reported":1703268505,"current_range_meters":31200,"station_id":"ce4bhoh2rcd13ifvqh6g","pricing_plan_id":"free"},{"bike_id":"778e78b2-40ba-4243-93f1-2a3ad7fa340a","system_id":"levelo_inurba_marseille","lat":43.27216,"lon":5.39179,"is_reserved":false,"is_disabled":false,"rental_uris":{"android":"levelo://app?vid=778e78b2-40ba-4243-93f1-2a3ad7fa340a","ios":"levelo://app?vid=778e78b2-40ba-4243-93f1-2a3ad7fa340a"},"vehicle_type_id":"4","last_reported":1703268505,"current_range_meters":0,"station_id":"ce4bhhp2rcd13ifvqfm0","pricing_plan_id":"free"},{"bike_id":"30310a87-16a4-45c1-a7c4-b0dee909ca2e","system_id":"levelo_inurba_marseille","lat":43.272124,"lon":5.391768,"is_reserved":false,"is_disabled":false,"rental_uris":{"android":"levelo://app?vid=30310a87-16a4-45c1-a7c4-b0dee909ca2e","ios":"levelo://app?vid=30310a87-16a4-45c1-a7c4-b0dee909ca2e"},"vehicle_type_id":"4","last_reported":1703268505,"current_range_meters":800,"station_id":"ce4bhhp2rcd13ifvqfm0","pricing_plan_id":"free"},{"bike_id":"f0f0b486-7dfb-4206-bb5a-fc09bab94556","system_id":"levelo_inurba_marseille","lat":43.279465,"lon":5.410561,"is_reserved":false,"is_disabled":false,"rental_uris":{"android":"levelo://app?vid=f0f0b486-7dfb-4206-bb5a-fc09bab94556","ios":"levelo://app?vid=f0f0b486-7dfb-4206-bb5a-fc09bab94556"},"vehicle_type_id":"4","last_reported":1703268505,"current_range_meters":8000,"station_id":"ce4bhnp2rcd13ifvqh0g","pricing_plan_id":"free"},{"bike_id":"56f32192-8989-4a15-b1b0-46bacc623be5","system_id":"levelo_inurba_marseille","lat":43.26681,"lon":5.382694,"is_reserved":false,"is_disabled":false,"rental_uris":{"android":"levelo://app?vid=56f32192-8989-4a15-b1b0-46bacc623be5","ios":"levelo://app?vid=56f32192-8989-4a15-b1b0-46bacc623be5"},"vehicle_type_id":"4","last_reported":1703268505,"current_range_meters":10400,"station_id":"ce4bhg92rcd13ifvqf90","pricing_plan_id":"free"},{"bike_id":"7c7d4b0f-5a8a-49cd-982a-1790d050d9a2","system_id":"levelo_inurba_marseille","lat":43.26681,"lon":5.382694,"is_reserved":false,"is_disabled":false,"rental_uris":{"android":"levelo://app?vid=7c7d4b0f-5a8a-49cd-982a-1790d050d9a2","ios":"levelo://app?vid=7c7d4b0f-5a8a-49cd-982a-1790d050d9a2"},"vehicle_type_id":"4","last_reported":1703268505,"current_range_meters":29600,"station_id":"ce4bhg92rcd13ifvqf90","pricing_plan_id":"free"},{"bike_id":"a9ed38af-ec2a-4a5e-a4ab-09112b618ffa","system_id":"levelo_inurba_marseille","lat":43.265714,"lon":5.372891,"is_reserved":false,"is_disabled":false,"rental_uris":{"android":"levelo://app?vid=a9ed38af-ec2a-4a5e-a4ab-09112b618ffa","ios":"levelo://app?vid=a9ed38af-ec2a-4a5e-a4ab-09112b618ffa"},"vehicle_type_id":"4","last_reported":1703268505,"current_range_meters":20400,"station_id":"ce4bhg12rcd13ifvqf70","pricing_plan_id":"free"},{"bike_id":"0e9c0f5f-3d8b-4160-a4c4-e847a0c2f4d1","system_id":"levelo_inurba_marseille","lat":43.265714,"lon":5.372891,"is_reserved":false,"is_disabled":false,"rental_uris":{"android":"levelo://app?vid=0e9c0f5f-3d8b-4160-a4c4-e847a0c2f4d1","ios":"levelo://app?vid=0e9c0f5f-3d8b-4160-a4c4-e847a0c2f4d1"},"vehicle_type_id":"4","last_reported":1703268505,"current_range_meters":21600,"station_id":"ce4bhg12rcd13ifvqf70","pricing_plan_id":"free"},{"bike_id":"5528cd67-9bfa-4577-8397-4ba50676504a","system_id":"levelo_inurba_marseille","lat":43.308051,"lon":5.43527,"is_reserved":false,"is_disabled":false,"rental_uris":{"android":"levelo://app?vid=5528cd67-9bfa-4577-8397-4ba50676504a","ios":"levelo://app?vid=5528cd67-9bfa-4577-8397-4ba50676504a"},"vehicle_type_id":"4","last_reported":1703268505,"current_range_meters":5200,"station_id":"ce4bhph2rcd13ifvqheg","pricing_plan_id":"free"},{"bike_id":"7da48e38-01dc-4d8d-845a-7c7bdf54278f","system_id":"levelo_inurba_marseille","lat":43.308051,"lon":5.43527,"is_reserved":false,"is_disabled":false,"rental_uris":{"android":"levelo://app?vid=7da48e38-01dc-4d8d-845a-7c7bdf54278f","ios":"levelo://app?vid=7da48e38-01dc-4d8d-845a-7c7bdf54278f"},"vehicle_type_id":"4","last_reported":1703268505,"current_range_meters":1600,"station_id":"ce4bhph2rcd13ifvqheg","pricing_plan_id":"free"},{"bike_id":"77a4c5c4-8289-4f91-bcaa-01ab22a435d8","system_id":"levelo_inurba_marseille","lat":43.265571,"lon":5.390032,"is_reserved":false,"is_disabled":false,"rental_uris":{"android":"levelo://app?vid=77a4c5c4-8289-4f91-bcaa-01ab22a435d8","ios":"levelo://app?vid=77a4c5c4-8289-4f91-bcaa-01ab22a435d8"},"vehicle_type_id":"4","last_reported":1703268505,"current_range_meters":18800,"station_id":"ce4bhe12rcd13ifvqf30","pricing_plan_id":"free"},{"bike_id":"04856091-6154-4709-aa6f-1b2c52cd2fe2","system_id":"levelo_inurba_marseille","lat":43.265569,"lon":5.390047,"is_reserved":false,"is_disabled":false,"rental_uris":{"android":"levelo://app?vid=04856091-6154-4709-aa6f-1b2c52cd2fe2","ios":"levelo://app?vid=04856091-6154-4709-aa6f-1b2c52cd2fe2"},"vehicle_type_id":"4","last_reported":1703268505,"current_range_meters":0,"station_id":"ce4bhe12rcd13ifvqf30","pricing_plan_id":"free"},{"bike_id":"dd11990d-9c2f-4fe1-b112-e7cb2efd367f","system_id":"levelo_inurba_marseille","lat":43.265571,"lon":5.390032,"is_reserved":false,"is_disabled":false,"rental_uris":{"android":"levelo://app?vid=dd11990d-9c2f-4fe1-b112-e7cb2efd367f","ios":"levelo://app?vid=dd11990d-9c2f-4fe1-b112-e7cb2efd367f"},"vehicle_type_id":"4","last_reported":1703268505,"current_range_meters":5200,"station_id":"ce4bhe12rcd13ifvqf30","pricing_plan_id":"free"},{"bike_id":"f54cbef6-fb29-4195-9518-08dbaa4a0d6b","system_id":"levelo_inurba_marseille","lat":43.26949,"lon":5.40262,"is_reserved":false,"is_disabled":false,"rental_uris":{"android":"levelo://app?vid=f54cbef6-fb29-4195-9518-08dbaa4a0d6b","ios":"levelo://app?vid=f54cbef6-fb29-4195-9518-08dbaa4a0d6b"},"vehicle_type_id":"4","last_reported":1703268505,"current_range_meters":22400,"station_id":"cjm6bp8fraef2m0cb0m0","pricing_plan_id":"free"},{"bike_id":"b17bd293-a43a-439c-90a3-245591ab0071","system_id":"levelo_inurba_marseille","lat":43.26949,"lon":5.40262,"is_reserved":false,"is_disabled":false,"rental_uris":{"android":"levelo://app?vid=b17bd293-a43a-439c-90a3-245591ab0071","ios":"levelo://app?vid=b17bd293-a43a-439c-90a3-245591ab0071"},"vehicle_type_id":"4","last_reported":1703268505,"current_range_meters":4400,"station_id":"cjm6bp8fraef2m0cb0m0","pricing_plan_id":"free"},{"bike_id":"d9cc77b1-d514-43d9-82d0-14d37030ffce","system_id":"levelo_inurba_marseille","lat":43.261782,"lon":5.374515,"is_reserved":false,"is_disabled":false,"rental_uris":{"android":"levelo://app?vid=d9cc77b1-d514-43d9-82d0-14d37030ffce","ios":"levelo://app?vid=d9cc77b1-d514-43d9-82d0-14d37030ffce"},"vehicle_type_id":"4","last_reported":1703268505,"current_range_meters":13600,"station_id":"ce4bhgp2rcd13ifvqfc0","pricing_plan_id":"free"},{"bike_id":"3c97a8a7-622c-4d01-a316-783cde5fc7f9","system_id":"levelo_inurba_marseille","lat":43.317104,"lon":5.436818,"is_reserved":false,"is_disabled":false,"rental_uris":{"android":"levelo://app?vid=3c97a8a7-622c-4d01-a316-783cde5fc7f9","ios":"levelo://app?vid=3c97a8a7-622c-4d01-a316-783cde5fc7f9"},"vehicle_type_id":"4","last_reported":1703268505,"current_range_meters":20000,"station_id":"ce4bhp92rcd13ifvqhcg","pricing_plan_id":"free"},{"bike_id":"7fbe02a0-b05d-40e2-885a-21861b971e54","system_id":"levelo_inurba_marseille","lat":43.317104,"lon":5.436818,"is_reserved":false,"is_disabled":false,"rental_uris":{"android":"levelo://app?vid=7fbe02a0-b05d-40e2-885a-21861b971e54","ios":"levelo://app?vid=7fbe02a0-b05d-40e2-885a-21861b971e54"},"vehicle_type_id":"4","last_reported":1703268505,"current_range_meters":11200,"station_id":"ce4bhp92rcd13ifvqhcg","pricing_plan_id":"free"},{"bike_id":"ecded0b1-26e9-4178-868a-0ff40f1e2ee0","system_id":"levelo_inurba_marseille","lat":43.271388,"lon":5.409269,"is_reserved":false,"is_disabled":false,"rental_uris":{"android":"levelo://app?vid=ecded0b1-26e9-4178-868a-0ff40f1e2ee0","ios":"levelo://app?vid=ecded0b1-26e9-4178-868a-0ff40f1e2ee0"},"vehicle_type_id":"4","last_reported":1703268505,"current_range_meters":31200,"station_id":"ce4bhl12rcd13ifvqgf0","pricing_plan_id":"free"},{"bike_id":"76090ef0-8487-40ab-93d1-ba72dd775cab","system_id":"levelo_inurba_marseille","lat":43.271368,"lon":5.40928,"is_reserved":false,"is_disabled":false,"rental_uris":{"android":"levelo://app?vid=76090ef0-8487-40ab-93d1-ba72dd775cab","ios":"levelo://app?vid=76090ef0-8487-40ab-93d1-ba72dd775cab"},"vehicle_type_id":"4","last_reported":1703268505,"current_range_meters":21600,"station_id":"ce4bhl12rcd13ifvqgf0","pricing_plan_id":"free"},{"bike_id":"ed515ca5-d8bf-4ab8-896b-6c9ca2b46c7c","system_id":"levelo_inurba_marseille","lat":43.26501,"lon":5.39543,"is_reserved":false,"is_disabled":false,"rental_uris":{"android":"levelo://app?vid=ed515ca5-d8bf-4ab8-896b-6c9ca2b46c7c","ios":"levelo://app?vid=ed515ca5-d8bf-4ab8-896b-6c9ca2b46c7c"},"vehicle_type_id":"4","last_reported":1703268505,"current_range_meters":0,"station_id":"","pricing_plan_id":"free"},{"bike_id":"56f4ef61-5398-4308-bc58-2c0a391f7f76","system_id":"levelo_inurba_marseille","lat":43.281548,"lon":5.42643,"is_reserved":false,"is_disabled":false,"rental_uris":{"android":"levelo://app?vid=56f4ef61-5398-4308-bc58-2c0a391f7f76","ios":"levelo://app?vid=56f4ef61-5398-4308-bc58-2c0a391f7f76"},"vehicle_type_id":"4","last_reported":1703268505,"current_range_meters":20400,"station_id":"ce4bhnh2rcd13ifvqgug","pricing_plan_id":"free"},{"bike_id":"7a4f22f0-00c8-4a84-9d00-c7c35af8e279","system_id":"levelo_inurba_marseille","lat":43.281548,"lon":5.42643,"is_reserved":false,"is_disabled":false,"rental_uris":{"android":"levelo://app?vid=7a4f22f0-00c8-4a84-9d00-c7c35af8e279","ios":"levelo://app?vid=7a4f22f0-00c8-4a84-9d00-c7c35af8e279"},"vehicle_type_id":"4","last_reported":1703268505,"current_range_meters":26400,"station_id":"ce4bhnh2rcd13ifvqgug","pricing_plan_id":"free"},{"bike_id":"8864833b-b6c0-471a-af8b-714ad46d59e5","system_id":"levelo_inurba_marseille","lat":43.2607,"lon":5.393983,"is_reserved":false,"is_disabled":false,"rental_uris":{"android":"levelo://app?vid=8864833b-b6c0-471a-af8b-714ad46d59e5","ios":"levelo://app?vid=8864833b-b6c0-471a-af8b-714ad46d59e5"},"vehicle_type_id":"4","last_reported":1703268505,"current_range_meters":29200,"station_id":"ce4bhh92rcd13ifvqfj0","pricing_plan_id":"free"},{"bike_id":"4bd6aaef-62c8-49cd-a2e3-bd34fe1a179e","system_id":"levelo_inurba_marseille","lat":43.2607,"lon":5.393983,"is_reserved":false,"is_disabled":false,"rental_uris":{"android":"levelo://app?vid=4bd6aaef-62c8-49cd-a2e3-bd34fe1a179e","ios":"levelo://app?vid=4bd6aaef-62c8-49cd-a2e3-bd34fe1a179e"},"vehicle_type_id":"4","last_reported":1703268505,"current_range_meters":29200,"station_id":"ce4bhh92rcd13ifvqfj0","pricing_plan_id":"free"},{"bike_id":"e8fa3cc4-24c5-46cd-837e-b47808dfd25b","system_id":"levelo_inurba_marseille","lat":43.267959,"lon":5.402685,"is_reserved":false,"is_disabled":false,"rental_uris":{"android":"levelo://app?vid=e8fa3cc4-24c5-46cd-837e-b47808dfd25b","ios":"levelo://app?vid=e8fa3cc4-24c5-46cd-837e-b47808dfd25b"},"vehicle_type_id":"4","last_reported":1703268505,"current_range_meters":12400,"station_id":"ce501612rcd8frsf0b60","pricing_plan_id":"free"},{"bike_id":"9e31705f-4f0a-4cb9-b231-21e465b6e902","system_id":"levelo_inurba_marseille","lat":43.25583,"lon":5.38233,"is_reserved":false,"is_disabled":false,"rental_uris":{"android":"levelo://app?vid=9e31705f-4f0a-4cb9-b231-21e465b6e902","ios":"levelo://app?vid=9e31705f-4f0a-4cb9-b231-21e465b6e902"},"vehicle_type_id":"4","last_reported":1703268505,"current_range_meters":21200,"station_id":"ce4bhih2rcd13ifvqfs0","pricing_plan_id":"free"},{"bike_id":"8cf99fad-2807-4e32-8919-6e0625ab5b56","system_id":"levelo_inurba_marseille","lat":43.25578,"lon":5.38234,"is_reserved":false,"is_disabled":false,"rental_uris":{"android":"levelo://app?vid=8cf99fad-2807-4e32-8919-6e0625ab5b56","ios":"levelo://app?vid=8cf99fad-2807-4e32-8919-6e0625ab5b56"},"vehicle_type_id":"4","last_reported":1703268505,"current_range_meters":31200,"station_id":"ce4bhih2rcd13ifvqfs0","pricing_plan_id":"free"},{"bike_id":"afe55259-3199-49df-9871-851f304f12a6","system_id":"levelo_inurba_marseille","lat":43.25577,"lon":5.38239,"is_reserved":false,"is_disabled":false,"rental_uris":{"android":"levelo://app?vid=afe55259-3199-49df-9871-851f304f12a6","ios":"levelo://app?vid=afe55259-3199-49df-9871-851f304f12a6"},"vehicle_type_id":"4","last_reported":1703268505,"current_range_meters":28400,"station_id":"ce4bhih2rcd13ifvqfs0","pricing_plan_id":"free"},{"bike_id":"4f3f21cc-1565-4db6-ab9f-7409b2915261","system_id":"levelo_inurba_marseille","lat":43.258224,"lon":5.394369,"is_reserved":false,"is_disabled":false,"rental_uris":{"android":"levelo://app?vid=4f3f21cc-1565-4db6-ab9f-7409b2915261","ios":"levelo://app?vid=4f3f21cc-1565-4db6-ab9f-7409b2915261"},"vehicle_type_id":"4","last_reported":1703268505,"current_range_meters":16400,"station_id":"ce4bhip2rcd13ifvqft0","pricing_plan_id":"free"},{"bike_id":"e845010e-edcd-4cbc-95ba-f5fc485bd85e","system_id":"levelo_inurba_marseille","lat":43.254947,"lon":5.376454,"is_reserved":false,"is_disabled":false,"rental_uris":{"android":"levelo://app?vid=e845010e-edcd-4cbc-95ba-f5fc485bd85e","ios":"levelo://app?vid=e845010e-edcd-4cbc-95ba-f5fc485bd85e"},"vehicle_type_id":"4","last_reported":1703268505,"current_range_meters":9200,"station_id":"ce4bhh12rcd13ifvqff0","pricing_plan_id":"free"},{"bike_id":"3d1a837e-b10f-42f5-b681-2eb8f470ac4b","system_id":"levelo_inurba_marseille","lat":43.270721,"lon":5.422764,"is_reserved":false,"is_disabled":false,"rental_uris":{"android":"levelo://app?vid=3d1a837e-b10f-42f5-b681-2eb8f470ac4b","ios":"levelo://app?vid=3d1a837e-b10f-42f5-b681-2eb8f470ac4b"},"vehicle_type_id":"4","last_reported":1703268505,"current_range_meters":26400,"station_id":"ce4bhk92rcd13ifvqgb0","pricing_plan_id":"free"},{"bike_id":"da401266-5579-465f-98b7-f4cb09d4407d","system_id":"levelo_inurba_marseille","lat":43.258658,"lon":5.398935,"is_reserved":false,"is_disabled":false,"rental_uris":{"android":"levelo://app?vid=da401266-5579-465f-98b7-f4cb09d4407d","ios":"levelo://app?vid=da401266-5579-465f-98b7-f4cb09d4407d"},"vehicle_type_id":"4","last_reported":1703268505,"current_range_meters":24400,"station_id":"ce4bhl92rcd13ifvqghg","pricing_plan_id":"free"},{"bike_id":"4d731436-bd21-4192-bc35-704ba7aa392f","system_id":"levelo_inurba_marseille","lat":43.250009,"lon":5.389195,"is_reserved":false,"is_disabled":false,"rental_uris":{"android":"levelo://app?vid=4d731436-bd21-4192-bc35-704ba7aa392f","ios":"levelo://app?vid=4d731436-bd21-4192-bc35-704ba7aa392f"},"vehicle_type_id":"4","last_reported":1703268505,"current_range_meters":27200,"station_id":"ce4bhgp2rcd13ifvqfd0","pricing_plan_id":"free"},{"bike_id":"4c09004f-2e83-41eb-9ad5-f442b6c4bf89","system_id":"levelo_inurba_marseille","lat":43.250966,"lon":5.395186,"is_reserved":false,"is_disabled":false,"rental_uris":{"android":"levelo://app?vid=4c09004f-2e83-41eb-9ad5-f442b6c4bf89","ios":"levelo://app?vid=4c09004f-2e83-41eb-9ad5-f442b6c4bf89"},"vehicle_type_id":"4","last_reported":1703268505,"current_range_meters":30800,"station_id":"ce4bhm12rcd13ifvqgkg","pricing_plan_id":"free"},{"bike_id":"fe993f93-ebcb-445f-ac0a-8bca530bddc6","system_id":"levelo_inurba_marseille","lat":43.24693,"lon":5.382096,"is_reserved":false,"is_disabled":false,"rental_uris":{"android":"levelo://app?vid=fe993f93-ebcb-445f-ac0a-8bca530bddc6","ios":"levelo://app?vid=fe993f93-ebcb-445f-ac0a-8bca530bddc6"},"vehicle_type_id":"4","last_reported":1703268505,"current_range_meters":8800,"station_id":"ce4bhih2rcd13ifvqfr0","pricing_plan_id":"free"},{"bike_id":"a380b72c-1879-474e-9983-e84e80ad675d","system_id":"levelo_inurba_marseille","lat":43.25102,"lon":5.403214,"is_reserved":false,"is_disabled":false,"rental_uris":{"android":"levelo://app?vid=a380b72c-1879-474e-9983-e84e80ad675d","ios":"levelo://app?vid=a380b72c-1879-474e-9983-e84e80ad675d"},