{"last_updated":1729116512,"ttl":60,"version":"2.2","data":{"bikes":[{"bike_id":"60882861-bf8c-4d22-964f-ecff7d884ae5","system_id":"levelo_inurba_marseille","lat":43.24999,"lon":5.38928,"is_reserved":false,"is_disabled":false,"rental_uris":{"android":"levelo://app?vid=60882861-bf8c-4d22-964f-ecff7d884ae5","ios":"levelo://app?vid=60882861-bf8c-4d22-964f-ecff7d884ae5"},"vehicle_type_id":"4","last_reported":1729116512,"current_range_meters":40000,"station_id":"ce4bhgp2rcd13ifvqfd0","pricing_plan_id":"cebpf4jnsgd1na2vs0mg"},{"bike_id":"43cd7b5a-c989-427b-b9c5-6da18d1e2981","system_id":"levelo_inurba_marseille","lat":43.31699,"lon":5.40429,"is_reserved":false,"is_disabled":false,"rental_uris":{"android":"levelo://app?vid=43cd7b5a-c989-427b-b9c5-6da18d1e2981","ios":"levelo://app?vid=43cd7b5a-c989-427b-b9c5-6da18d1e2981"},"vehicle_type_id":"4","last_reported":1729116512,"current_range_meters":38800,"station_id":"ce4bh012rcd13ifvqd00","pricing_plan_id":"cebpf4jnsgd1na2vs0mg"},{"bike_id":"7a98df95-25ce-4d1a-bfd1-b29e50bca92e","system_id":"levelo_inurba_marseille","lat":43.29258,"lon":5.40903,"is_reserved":false,"is_disabled":false,"rental_uris":{"android":"levelo://app?vid=7a98df95-25ce-4d1a-bfd1-b29e50bca92e","ios":"levelo://app?vid=7a98df95-25ce-4d1a-bfd1-b29e50bca92e"},"vehicle_type_id":"4","last_reported":1729116512,"current_range_meters":28400,"station_id":"ce4bh192rcd13ifvqdc0","pricing_plan_id":"cebpf4jnsgd1na2vs0mg"},{"bike_id":"38af802b-0dd3-4001-8bdf-786db676d355","system_id":"levelo_inurba_marseille","lat":43.30546,"lon":5.37528,"is_reserved":false,"is_disabled":false,"rental_uris":{"android":"levelo://app?vid=38af802b-0dd3-4001-8bdf-786db676d355","ios":"levelo://app?vid=38af802b-0dd3-4001-8bdf-786db676d355"},"vehicle_type_id":"4","last_reported":1729116512,"current_range_meters":33200,"station_id":"","pricing_plan_id":"cebpf4jnsgd1na2vs0mg"},{"bike_id":"a8f63e31-a061-4340-ac24-cf1c35bfad22","system_id":"levelo_inurba_marseille","lat":43.31273,"lon":5.40165,"is_reserved":false,"is_disabled":false,"rental_uris":{"android":"levelo://app?vid=a8f63e31-a061-4340-ac24-cf1c35bfad22","ios":"levelo://app?vid=a8f63e31-a061-4340-ac24-cf1c35bfad22"},"vehicle_type_id":"4","last_reported":1729116512,"current_range_meters":23200,"station_id":"ce4bh092rcd13ifvqd30","pricing_plan_id":"cebpf4jnsgd1na2vs0mg"},{"bike_id":"676ec6c4-6b42-43e0-81fe-327782965da5","system_id":"levelo_inurba_marseille","lat":43.337444,"lon":5.374475,"is_reserved":false,"is_disabled":false,"rental_uris":{"android":"levelo://app?vid=676ec6c4-6b42-43e0-81fe-327782965da5","ios":"levelo://app?vid=676ec6c4-6b42-43e0-81fe-327782965da5"},"vehicle_type_id":"4","last_reported":1729116512,"current_range_meters":19600,"station_id":"","pricing_plan_id":"cebpf4jnsgd1na2vs0mg"},{"bike_id":"9d3a04b9-e109-4532-ba3e-d100b657cd60","system_id":"levelo_inurba_marseille","lat":43.3118,"lon":5.3872,"is_reserved":false,"is_disabled":false,"rental_uris":{"android":"levelo://app?vid=9d3a04b9-e109-4532-ba3e-d100b657cd60","ios":"levelo://app?vid=9d3a04b9-e109-4532-ba3e-d100b657cd60"},"vehicle_type_id":"4","last_reported":1729116512,"current_range_meters":8000,"station_id":"ce4bgv12rcd13ifvqcp0","pricing_plan_id":"cebpf4jnsgd1na2vs0mg"},{"bike_id":"6ef86ff5-9253-428e-ad31-d3879edca395","system_id":"levelo_inurba_marseille","lat":43.25171,"lon":5.37834,"is_reserved":false,"is_disabled":false,"rental_uris":{"android":"levelo://app?vid=6ef86ff5-9253-428e-ad31-d3879edca395","ios":"levelo://app?vid=6ef86ff5-9253-428e-ad31-d3879edca395"},"vehicle_type_id":"4","last_reported":1729116512,"current_range_meters":15200,"station_id":"","pricing_plan_id":"cebpf4jnsgd1na2vs0mg"},{"bike_id":"ee22ed23-b661-4149-8d5e-d3667e92dc0b","system_id":"levelo_inurba_marseille","lat":43.27494,"lon":5.4245,"is_reserved":false,"is_disabled":false,"rental_uris":{"android":"levelo://app?vid=ee22ed23-b661-4149-8d5e-d3667e92dc0b","ios":"levelo://app?vid=ee22ed23-b661-4149-8d5e-d3667e92dc0b"},"vehicle_type_id":"4","last_reported":1729116512,"current_range_meters":32000,"station_id":"ce4bhn92rcd13ifvqgrg","pricing_plan_id":"cebpf4jnsgd1na2vs0mg"},{"bike_id":"5e3bc5d0-d299-4af6-8212-065a73233b87","system_id":"levelo_inurba_marseille","lat":43.24389,"lon":5.37066,"is_reserved":false,"is_disabled":false,"rental_uris":{"android":"levelo://app?vid=5e3bc5d0-d299-4af6-8212-065a73233b87","ios":"levelo://app?vid=5e3bc5d0-d299-4af6-8212-065a73233b87"},"vehicle_type_id":"4","last_reported":1729116512,"current_range_meters":25200,"station_id":"ce4bhhh2rcd13ifvqfk0","pricing_plan_id":"cebpf4jnsgd1na2vs0mg"},{"bike_id":"62cee784-efb2-4c4e-802e-62fd36e87dde","system_id":"levelo_inurba_marseille","lat":43.26805,"lon":5.40272,"is_reserved":false,"is_disabled":false,"rental_uris":{"android":"levelo://app?vid=62cee784-efb2-4c4e-802e-62fd36e87dde","ios":"levelo://app?vid=62cee784-efb2-4c4e-802e-62fd36e87dde"},"vehicle_type_id":"4","last_reported":1729116512,"current_range_meters":38800,"station_id":"ce501612rcd8frsf0b60","pricing_plan_id":"cebpf4jnsgd1na2vs0mg"},{"bike_id":"cfe68d4f-eb61-4ff2-b903-bf1cf8e56faf","system_id":"levelo_inurba_marseille","lat":43.28453,"lon":5.39176,"is_reserved":false,"is_disabled":false,"rental_uris":{"android":"levelo://app?vid=cfe68d4f-eb61-4ff2-b903-bf1cf8e56faf","ios":"levelo://app?vid=cfe68d4f-eb61-4ff2-b903-bf1cf8e56faf"},"vehicle_type_id":"4","last_reported":1729116512,"current_range_meters":16400,"station_id":"ce4bhoh2rcd13ifvqh5g","pricing_plan_id":"cebpf4jnsgd1na2vs0mg"},{"bike_id":"5c039dfa-844e-4370-9d10-bf097ef1eab3","system_id":"levelo_inurba_marseille","lat":43.28574,"lon":5.39495,"is_reserved":false,"is_disabled":false,"rental_uris":{"android":"levelo://app?vid=5c039dfa-844e-4370-9d10-bf097ef1eab3","ios":"levelo://app?vid=5c039dfa-844e-4370-9d10-bf097ef1eab3"},"vehicle_type_id":"4","last_reported":1729116512,"current_range_meters":16800,"station_id":"ce4bh292rcd13ifvqdg0","pricing_plan_id":"cebpf4jnsgd1na2vs0mg"},{"bike_id":"2702bce9-0dbf-43a3-a781-d01b806104bc","system_id":"levelo_inurba_marseille","lat":43.29564,"lon":5.39972,"is_reserved":false,"is_disabled":false,"rental_uris":{"android":"levelo://app?vid=2702bce9-0dbf-43a3-a781-d01b806104bc","ios":"levelo://app?vid=2702bce9-0dbf-43a3-a781-d01b806104bc"},"vehicle_type_id":"4","last_reported":1729116512,"current_range_meters":18000,"station_id":"ce4bh312rcd13ifvqdj0","pricing_plan_id":"cebpf4jnsgd1na2vs0mg"},{"bike_id":"63b06a67-c778-4433-957a-842b5bbd290a","system_id":"levelo_inurba_marseille","lat":43.27567,"lon":5.38421,"is_reserved":false,"is_disabled":false,"rental_uris":{"android":"levelo://app?vid=63b06a67-c778-4433-957a-842b5bbd290a","ios":"levelo://app?vid=63b06a67-c778-4433-957a-842b5bbd290a"},"vehicle_type_id":"4","last_reported":1729116512,"current_range_meters":27600,"station_id":"ce4bhh92rcd13ifvqfi0","pricing_plan_id":"cebpf4jnsgd1na2vs0mg"},{"bike_id":"276ac4c1-5f69-42ee-a5b7-3194e4edd7cb","system_id":"levelo_inurba_marseille","lat":43.30552,"lon":5.36704,"is_reserved":false,"is_disabled":false,"rental_uris":{"android":"levelo://app?vid=276ac4c1-5f69-42ee-a5b7-3194e4edd7cb","ios":"levelo://app?vid=276ac4c1-5f69-42ee-a5b7-3194e4edd7cb"},"vehicle_type_id":"4","last_reported":1729116512,"current_range_meters":36000,"station_id":"ce4bgrp2rcd13ifvqc9g","pricing_plan_id":"cebpf4jnsgd1na2vs0mg"},{"bike_id":"042e5b40-9e97-45f4-843e-ff54af18e3a3","system_id":"levelo_inurba_marseille","lat":43.337444,"lon":5.374475,"is_reserved":false,"is_disabled":false,"rental_uris":{"android":"levelo://app?vid=042e5b40-9e97-45f4-843e-ff54af18e3a3","ios":"levelo://app?vid=042e5b40-9e97-45f4-843e-ff54af18e3a3"},"vehicle_type_id":"4","last_reported":1729116512,"current_range_meters":34800,"station_id":"","pricing_plan_id":"cebpf4jnsgd1na2vs0mg"},{"bike_id":"d25e3192-c141-44fa-83a9-f7ae7b4adfc7","system_id":"levelo_inurba_marseille","lat":43.23185,"lon":5.3998,"is_reserved":false,"is_disabled":false,"rental_uris":{"android":"levelo://app?vid=d25e3192-c141-44fa-83a9-f7ae7b4adfc7","ios":"levelo://app?vid=d25e3192-c141-44fa-83a9-f7ae7b4adfc7"},"vehicle_type_id":"4","last_reported":1729116512,"current_range_meters":38800,"station_id":"ce4bhn12rcd13ifvqgqg","pricing_plan_id":"cebpf4jnsgd1na2vs0mg"},{"bike_id":"2fef6b38-9035-4e38-baad-47f87612527f","system_id":"levelo_inurba_marseille","lat":43.29518,"lon":5.39401,"is_reserved":false,"is_disabled":false,"rental_uris":{"android":"levelo://app?vid=2fef6b38-9035-4e38-baad-47f87612527f","ios":"levelo://app?vid=2fef6b38-9035-4e38-baad-47f87612527f"},"vehicle_type_id":"4","last_reported":1729116512,"current_range_meters":35600,"station_id":"ce4bh292rcd13ifvqdf0","pricing_plan_id":"cebpf4jnsgd1na2vs0mg"},{"bike_id":"9b57a733-ce7f-4bc3-a164-005f5b251f43","system_id":"levelo_inurba_marseille","lat":43.29003,"lon":5.35602,"is_reserved":false,"is_disabled":false,"rental_uris":{"android":"levelo://app?vid=9b57a733-ce7f-4bc3-a164-005f5b251f43","ios":"levelo://app?vid=9b57a733-ce7f-4bc3-a164-005f5b251f43"},"vehicle_type_id":"4","last_reported":1729116512,"current_range_meters":28400,"station_id":"ce4bhb92rcd13ifvqen0","pricing_plan_id":"cebpf4jnsgd1na2vs0mg"},{"bike_id":"b1b60781-1f61-4f02-bc26-c0542080d31e","system_id":"levelo_inurba_marseille","lat":43.30925,"lon":5.40142,"is_reserved":false,"is_disabled":false,"rental_uris":{"android":"levelo://app?vid=b1b60781-1f61-4f02-bc26-c0542080d31e","ios":"levelo://app?vid=b1b60781-1f61-4f02-bc26-c0542080d31e"},"vehicle_type_id":"4","last_reported":1729116512,"current_range_meters":30400,"station_id":"ce4bgvp2rcd13ifvqct0","pricing_plan_id":"cebpf4jnsgd1na2vs0mg"},{"bike_id":"a65fe6a7-86dd-4bce-b2b6-f7b122f46b65","system_id":"levelo_inurba_marseille","lat":43.28424,"lon":5.37509,"is_reserved":false,"is_disabled":false,"rental_uris":{"android":"levelo://app?vid=a65fe6a7-86dd-4bce-b2b6-f7b122f46b65","ios":"levelo://app?vid=a65fe6a7-86dd-4bce-b2b6-f7b122f46b65"},"vehicle_type_id":"4","last_reported":1729116512,"current_range_meters":35200,"station_id":"ce4bh412rcd13ifvqds0","pricing_plan_id":"cebpf4jnsgd1na2vs0mg"},{"bike_id":"d431d213-4458-42c1-99e7-f7fc65d44d06","system_id":"levelo_inurba_marseille","lat":43.28567,"lon":5.395,"is_reserved":false,"is_disabled":false,"rental_uris":{"android":"levelo://app?vid=d431d213-4458-42c1-99e7-f7fc65d44d06","ios":"levelo://app?vid=d431d213-4458-42c1-99e7-f7fc65d44d06"},"vehicle_type_id":"4","last_reported":1729116512,"current_range_meters":31200,"station_id":"ce4bh292rcd13ifvqdg0","pricing_plan_id":"cebpf4jnsgd1na2vs0mg"},{"bike_id":"e0ba7378-4139-4f45-a9e6-4d17e46e0da7","system_id":"levelo_inurba_marseille","lat":43.27987,"lon":5.40013,"is_reserved":false,"is_disabled":false,"rental_uris":{"android":"levelo://app?vid=e0ba7378-4139-4f45-a9e6-4d17e46e0da7","ios":"levelo://app?vid=e0ba7378-4139-4f45-a9e6-4d17e46e0da7"},"vehicle_type_id":"4","last_reported":1729116512,"current_range_meters":28800,"station_id":"ce4bho92rcd13ifvqh4g","pricing_plan_id":"cebpf4jnsgd1na2vs0mg"},{"bike_id":"3fa7aefb-9148-44d0-9bb7-0d9d401bd12d","system_id":"levelo_inurba_marseille","lat":43.29874,"lon":5.39736,"is_reserved":false,"is_disabled":false,"rental_uris":{"android":"levelo://app?vid=3fa7aefb-9148-44d0-9bb7-0d9d401bd12d","ios":"levelo://app?vid=3fa7aefb-9148-44d0-9bb7-0d9d401bd12d"},"vehicle_type_id":"4","last_reported":1729116512,"current_range_meters":36000,"station_id":"ce4bh0h2rcd13ifvqd50","pricing_plan_id":"cebpf4jnsgd1na2vs0mg"},{"bike_id":"3d0ee87b-66fb-488e-b5d3-c5b0d406322c","system_id":"levelo_inurba_marseille","lat":43.24516,"lon":5.428553,"is_reserved":false,"is_disabled":false,"rental_uris":{"android":"levelo://app?vid=3d0ee87b-66fb-488e-b5d3-c5b0d406322c","ios":"levelo://app?vid=3d0ee87b-66fb-488e-b5d3-c5b0d406322c"},"vehicle_type_id":"4","last_reported":1729116512,"current_range_meters":38800,"station_id":"","pricing_plan_id":"cebpf4jnsgd1na2vs0mg"},{"bike_id":"9e86bce5-0001-4db8-8193-ae63f1bd7629","system_id":"levelo_inurba_marseille","lat":43.31527,"lon":5.38035,"is_reserved":false,"is_disabled":false,"rental_uris":{"android":"levelo://app?vid=9e86bce5-0001-4db8-8193-ae63f1bd7629","ios":"levelo://app?vid=9e86bce5-0001-4db8-8193-ae63f1bd7629"},"vehicle_type_id":"4","last_reported":1729116512,"current_range_meters":9600,"station_id":"ce4bhsp2rcd13ifvqi50","pricing_plan_id":"cebpf4jnsgd1na2vs0mg"},{"bike_id":"89971878-8b61-417d-bbdd-e44868234182","system_id":"levelo_inurba_marseille","lat":43.30649,"lon":5.40105,"is_reserved":false,"is_disabled":false,"rental_uris":{"android":"levelo://app?vid=89971878-8b61-417d-bbdd-e44868234182","ios":"levelo://app?vid=89971878-8b61-417d-bbdd-e44868234182"},"vehicle_type_id":"4","last_reported":1729116512,"current_range_meters":10000,"station_id":"ce4bh112rcd13ifvqda0","pricing_plan_id":"cebpf4jnsgd1na2vs0mg"},{"bike_id":"851bada0-f0f3-427a-91b9-2220a922230e","system_id":"levelo_inurba_marseille","lat":43.31528,"lon":5.38046,"is_reserved":false,"is_disabled":false,"rental_uris":{"android":"levelo://app?vid=851bada0-f0f3-427a-91b9-2220a922230e","ios":"levelo://app?vid=851bada0-f0f3-427a-91b9-2220a922230e"},"vehicle_type_id":"4","last_reported":1729116512,"current_range_meters":28000,"station_id":"ce4bhsp2rcd13ifvqi50","pricing_plan_id":"cebpf4jnsgd1na2vs0mg"},{"bike_id":"8d8c5120-1604-4f49-9622-bd274e20d6f9","system_id":"levelo_inurba_marseille","lat":43.2991,"lon":5.37472,"is_reserved":false,"is_disabled":false,"rental_uris":{"android":"levelo://app?vid=8d8c5120-1604-4f49-9622-bd274e20d6f9","ios":"levelo://app?vid=8d8c5120-1604-4f49-9622-bd274e20d6f9"},"vehicle_type_id":"4","last_reported":1729116512,"current_range_meters":26800,"station_id":"ce4bgjh2rcd13ifvqbg0","pricing_plan_id":"cebpf4jnsgd1na2vs0mg"},{"bike_id":"6cd899d8-1f88-459f-b491-3f17e4af5020","system_id":"levelo_inurba_marseille","lat":43.24064,"lon":5.3776,"is_reserved":false,"is_disabled":false,"rental_uris":{"android":"levelo://app?vid=6cd899d8-1f88-459f-b491-3f17e4af5020","ios":"levelo://app?vid=6cd899d8-1f88-459f-b491-3f17e4af5020"},"vehicle_type_id":"4","last_reported":1729116512,"current_range_meters":26800,"station_id":"ce4bhnp2rcd13ifvqgvg","pricing_plan_id":"cebpf4jnsgd1na2vs0mg"},{"bike_id":"5bf1fbcd-3b04-4ff9-98d0-4c591b143bd0","system_id":"levelo_inurba_marseille","lat":43.25087,"lon":5.39524,"is_reserved":false,"is_disabled":false,"rental_uris":{"android":"levelo://app?vid=5bf1fbcd-3b04-4ff9-98d0-4c591b143bd0","ios":"levelo://app?vid=5bf1fbcd-3b04-4ff9-98d0-4c591b143bd0"},"vehicle_type_id":"4","last_reported":1729116512,"current_range_meters":3600,"station_id":"ce4bhm12rcd13ifvqgkg","pricing_plan_id":"cebpf4jnsgd1na2vs0mg"},{"bike_id":"786307c4-e27e-45ca-9e78-15b721f519ac","system_id":"levelo_inurba_marseille","lat":43.30101,"lon":5.39088,"is_reserved":false,"is_disabled":false,"rental_uris":{"android":"levelo://app?vid=786307c4-e27e-45ca-9e78-15b721f519ac","ios":"levelo://app?vid=786307c4-e27e-45ca-9e78-15b721f519ac"},"vehicle_type_id":"4","last_reported":1729116512,"current_range_meters":38800,"station_id":"ce4bh192rcd13ifvqdb0","pricing_plan_id":"cebpf4jnsgd1na2vs0mg"},{"bike_id":"12a0ce46-2b5b-482a-baf5-be50baa26765","system_id":"levelo_inurba_marseille","lat":43.28155,"lon":5.42638,"is_reserved":false,"is_disabled":false,"rental_uris":{"android":"levelo://app?vid=12a0ce46-2b5b-482a-baf5-be50baa26765","ios":"levelo://app?vid=12a0ce46-2b5b-482a-baf5-be50baa26765"},"vehicle_type_id":"4","last_reported":1729116512,"current_range_meters":32000,"station_id":"ce4bhnh2rcd13ifvqgug","pricing_plan_id":"cebpf4jnsgd1na2vs0mg"},{"bike_id":"572ed7b0-691c-497d-9a19-61e65acf0f2d","system_id":"levelo_inurba_marseille","lat":43.25112,"lon":5.40327,"is_reserved":false,"is_disabled":false,"rental_uris":{"android":"levelo://app?vid=572ed7b0-691c-497d-9a19-61e65acf0f2d","ios":"levelo://app?vid=572ed7b0-691c-497d-9a19-61e65acf0f2d"},"vehicle_type_id":"4","last_reported":1729116512,"current_range_meters":21600,"station_id":"ce4bhlh2rcd13ifvqgig","pricing_plan_id":"cebpf4jnsgd1na2vs0mg"},{"bike_id":"caa50f4a-17a8-4d51-8772-27afd11b3a71","system_id":"levelo_inurba_marseille","lat":43.27573,"lon":5.3843,"is_reserved":false,"is_disabled":false,"rental_uris":{"android":"levelo://app?vid=caa50f4a-17a8-4d51-8772-27afd11b3a71","ios":"levelo://app?vid=caa50f4a-17a8-4d51-8772-27afd11b3a71"},"vehicle_type_id":"4","last_reported":1729116512,"current_range_meters":26000,"station_id":"ce4bhh92rcd13ifvqfi0","pricing_plan_id":"cebpf4jnsgd1na2vs0mg"},{"bike_id":"b58afb44-3039-462c-9ec9-b4194f236606","system_id":"levelo_inurba_marseille","lat":43.30891,"lon":5.39652,"is_reserved":false,"is_disabled":false,"rental_uris":{"android":"levelo://app?vid=b58afb44-3039-462c-9ec9-b4194f236606","ios":"levelo://app?vid=b58afb44-3039-462c-9ec9-b4194f236606"},"vehicle_type_id":"4","last_reported":1729116512,"current_range_meters":34800,"station_id":"ce4bh012rcd13ifvqcv0","pricing_plan_id":"cebpf4jnsgd1na2vs0mg"},{"bike_id":"0ba50f00-06b4-4776-8acc-5c8aed29217d","system_id":"levelo_inurba_marseille","lat":43.29064,"lon":5.37163,"is_reserved":false,"is_disabled":false,"rental_uris":{"android":"levelo://app?vid=0ba50f00-06b4-4776-8acc-5c8aed29217d","ios":"levelo://app?vid=0ba50f00-06b4-4776-8acc-5c8aed29217d"},"vehicle_type_id":"4","last_reported":1729116512,"current_range_meters":33200,"station_id":"ce4bh5p2rcd13ifvqe4g","pricing_plan_id":"cebpf4jnsgd1na2vs0mg"},{"bike_id":"5e43d9b3-6d4a-407c-a9f8-e8f2e4dc0db3","system_id":"levelo_inurba_marseille","lat":43.269462,"lon":5.386549,"is_reserved":false,"is_disabled":false,"rental_uris":{"android":"levelo://app?vid=5e43d9b3-6d4a-407c-a9f8-e8f2e4dc0db3","ios":"levelo://app?vid=5e43d9b3-6d4a-407c-a9f8-e8f2e4dc0db3"},"vehicle_type_id":"4","last_reported":1729116512,"current_range_meters":26800,"station_id":"ce4bhh92rcd13ifvqfh0","pricing_plan_id":"cebpf4jnsgd1na2vs0mg"},{"bike_id":"a8dce093-4f1c-4ea0-b22a-79050193c3bf","system_id":"levelo_inurba_marseille","lat":43.30646,"lon":5.40082,"is_reserved":false,"is_disabled":false,"rental_uris":{"android":"levelo://app?vid=a8dce093-4f1c-4ea0-b22a-79050193c3bf","ios":"levelo://app?vid=a8dce093-4f1c-4ea0-b22a-79050193c3bf"},"vehicle_type_id":"4","last_reported":1729116512,"current_range_meters":10000,"station_id":"ce4bh112rcd13ifvqda0","pricing_plan_id":"cebpf4jnsgd1na2vs0mg"},{"bike_id":"05545084-0c06-4cb7-bb4b-6c510970601e","system_id":"levelo_inurba_marseille","lat":43.31119,"lon":5.37771,"is_reserved":false,"is_disabled":false,"rental_uris":{"android":"levelo://app?vid=05545084-0c06-4cb7-bb4b-6c510970601e","ios":"levelo://app?vid=05545084-0c06-4cb7-bb4b-6c510970601e"},"vehicle_type_id":"4","last_reported":1729116512,"current_range_meters":40000,"station_id":"ce4bgt92rcd13ifvqcg0","pricing_plan_id":"cebpf4jnsgd1na2vs0mg"},{"bike_id":"d3e02234-2473-432a-89ac-358e423cfef9","system_id":"levelo_inurba_marseille","lat":43.28668,"lon":5.36349,"is_reserved":false,"is_disabled":false,"rental_uris":{"android":"levelo://app?vid=d3e02234-2473-432a-89ac-358e423cfef9","ios":"levelo://app?vid=d3e02234-2473-432a-89ac-358e423cfef9"},"vehicle_type_id":"4","last_reported":1729116512,"current_range_meters":13600,"station_id":"ce4bhah2rcd13ifvqej0","pricing_plan_id":"cebpf4jnsgd1na2vs0mg"},{"bike_id":"c7a0e644-2914-45e2-b797-40e8921eaf65","system_id":"levelo_inurba_marseille","lat":43.28707,"lon":5.37397,"is_reserved":false,"is_disabled":false,"rental_uris":{"android":"levelo://app?vid=c7a0e644-2914-45e2-b797-40e8921eaf65","ios":"levelo://app?vid=c7a0e644-2914-45e2-b797-40e8921eaf65"},"vehicle_type_id":"4","last_reported":1729116512,"current_range_meters":28800,"station_id":"ce4bh3p2rcd13ifvqdq0","pricing_plan_id":"cebpf4jnsgd1na2vs0mg"},{"bike_id":"bdb4f070-8bae-407b-bc70-9ee3db878f96","system_id":"levelo_inurba_marseille","lat":43.24652,"lon":5.38167,"is_reserved":false,"is_disabled":false,"rental_uris":{"android":"levelo://app?vid=bdb4f070-8bae-407b-bc70-9ee3db878f96","ios":"levelo://app?vid=bdb4f070-8bae-407b-bc70-9ee3db878f96"},"vehicle_type_id":"4","last_reported":1729116512,"current_range_meters":22800,"station_id":"ce4bhih2rcd13ifvqfr0","pricing_plan_id":"cebpf4jnsgd1na2vs0mg"},{"bike_id":"a6b4578e-3cab-4bcb-ae84-333753b03084","system_id":"levelo_inurba_marseille","lat":43.2318,"lon":5.39989,"is_reserved":false,"is_disabled":false,"rental_uris":{"android":"levelo://app?vid=a6b4578e-3cab-4bcb-ae84-333753b03084","ios":"levelo://app?vid=a6b4578e-3cab-4bcb-ae84-333753b03084"},"vehicle_type_id":"4","last_reported":1729116512,"current_range_meters":38000,"station_id":"ce4bhn12rcd13ifvqgqg","pricing_plan_id":"cebpf4jnsgd1na2vs0mg"},{"bike_id":"a149fe7e-fad8-4a0f-bdc5-381fde4a6176","system_id":"levelo_inurba_marseille","lat":43.29868,"lon":5.39728,"is_reserved":false,"is_disabled":false,"rental_uris":{"android":"levelo://app?vid=a149fe7e-fad8-4a0f-bdc5-381fde4a6176","ios":"levelo://app?vid=a149fe7e-fad8-4a0f-bdc5-381fde4a6176"},"vehicle_type_id":"4","last_reported":1729116512,"current_range_meters":38800,"station_id":"ce4bh0h2rcd13ifvqd50","pricing_plan_id":"cebpf4jnsgd1na2vs0mg"},{"bike_id":"87542a63-8d63-491b-83e3-8a4c8019fce9","system_id":"levelo_inurba_marseille","lat":43.30893,"lon":5.39662,"is_reserved":false,"is_disabled":false,"rental_uris":{"android":"levelo://app?vid=87542a63-8d63-491b-83e3-8a4c8019fce9","ios":"levelo://app?vid=87542a63-8d63-491b-83e3-8a4c8019fce9"},"vehicle_type_id":"4","last_reported":1729116512,"current_range_meters":30800,"station_id":"ce4bh012rcd13ifvqcv0","pricing_plan_id":"cebpf4jnsgd1na2vs0mg"},{"bike_id":"8e8d46c3-6a96-480e-b7fd-bc578daaaec6","system_id":"levelo_inurba_marseille","lat":43.30925,"lon":5.40143,"is_reserved":false,"is_disabled":false,"rental_uris":{"android":"levelo://app?vid=8e8d46c3-6a96-480e-b7fd-bc578daaaec6","ios":"levelo://app?vid=8e8d46c3-6a96-480e-b7fd-bc578daaaec6"},"vehicle_type_id":"4","last_reported":1729116512,"current_range_meters":9600,"station_id":"ce4bgvp2rcd13ifvqct0","pricing_plan_id":"cebpf4jnsgd1na2vs0mg"},{"bike_id":"6c0cb852-8a6d-4147-92b5-d0bcf163ea0b","system_id":"levelo_inurba_marseille","lat":43.26199,"lon":5.37926,"is_reserved":false,"is_disabled":false,"rental_uris":{"android":"levelo://app?vid=6c0cb852-8a6d-4147-92b5-d0bcf163ea0b","ios":"levelo://app?vid=6c0cb852-8a6d-4147-92b5-d0bcf163ea0b"},"vehicle_type_id":"4","last_reported":1729116512,"current_range_meters":38000,"station_id":"ce4bhjp2rcd13ifvqg90","pricing_plan_id":"cebpf4jnsgd1na2vs0mg"},{"bike_id":"faafdf6c-f564-4ef6-b6e1-54989b90e65d","system_id":"levelo_inurba_marseille","lat":43.31173,"lon":5.38715,"is_reserved":false,"is_disabled":false,"rental_uris":{"android":"levelo://app?vid=faafdf6c-f564-4ef6-b6e1-54989b90e65d","ios":"levelo://app?vid=faafdf6c-f564-4ef6-b6e1-54989b90e65d"},"vehicle_type_id":"4","last_reported":1729116512,"current_range_meters":40000,"station_id":"ce4bgv12rcd13ifvqcp0","pricing_plan_id":"cebpf4jnsgd1na2vs0mg"},{"bike_id":"51218d5a-a4cd-42ed-8091-20b8f3a2d0ca","system_id":"levelo_inurba_marseille","lat":43.28845,"lon":5.35854,"is_reserved":false,"is_disabled":false,"rental_uris":{"android":"levelo://app?vid=51218d5a-a4cd-42ed-8091-20b8f3a2d0ca","ios":"levelo://app?vid=51218d5a-a4cd-42ed-8091-20b8f3a2d0ca"},"vehicle_type_id":"4","last_reported":1729116512,"current_range_meters":16400,"station_id":"ce4bhb12rcd13ifvqem0","pricing_plan_id":"cebpf4jnsgd1na2vs0mg"},{"bike_id":"91bae32e-eacc-4bbe-816a-469e3c21f127","system_id":"levelo_inurba_marseille","lat":43.29253,"lon":5.40903,"is_reserved":false,"is_disabled":false,"rental_uris":{"android":"levelo://app?vid=91bae32e-eacc-4bbe-816a-469e3c21f127","ios":"levelo://app?vid=91bae32e-eacc-4bbe-816a-469e3c21f127"},"vehicle_type_id":"4","last_reported":1729116512,"current_range_meters":28000,"station_id":"ce4bh192rcd13ifvqdc0","pricing_plan_id":"cebpf4jnsgd1na2vs0mg"},{"bike_id":"e33ac884-db23-43f2-a98d-070fee5c013c","system_id":"levelo_inurba_marseille","lat":43.33721,"lon":5.39172,"is_reserved":false,"is_disabled":false,"rental_uris":{"android":"levelo://app?vid=e33ac884-db23-43f2-a98d-070fee5c013c","ios":"levelo://app?vid=e33ac884-db23-43f2-a98d-070fee5c013c"},"vehicle_type_id":"4","last_reported":1729116512,"current_range_meters":40000,"station_id":"ce4bhr92rcd13ifvqhsg","pricing_plan_id":"cebpf4jnsgd1na2vs0mg"},{"bike_id":"af7f2d64-17dc-42fb-a98b-46080d1d96a1","system_id":"levelo_inurba_marseille","lat":43.25733,"lon":5.41105,"is_reserved":false,"is_disabled":false,"rental_uris":{"android":"levelo://app?vid=af7f2d64-17dc-42fb-a98b-46080d1d96a1","ios":"levelo://app?vid=af7f2d64-17dc-42fb-a98b-46080d1d96a1"},"vehicle_type_id":"4","last_reported":1729116512,"current_range_meters":20800,"station_id":"ce4bhkp2rcd13ifvqgd0","pricing_plan_id":"cebpf4jnsgd1na2vs0mg"},{"bike_id":"cf082c9e-105a-45c0-87f0-9187061a40f0","system_id":"levelo_inurba_marseille","lat":43.29242,"lon":5.40906,"is_reserved":false,"is_disabled":false,"rental_uris":{"android":"levelo://app?vid=cf082c9e-105a-45c0-87f0-9187061a40f0","ios":"levelo://app?vid=cf082c9e-105a-45c0-87f0-9187061a40f0"},"vehicle_type_id":"4","last_reported":1729116512,"current_range_meters":36800,"station_id":"ce4bh192rcd13ifvqdc0","pricing_plan_id":"cebpf4jnsgd1na2vs0mg"},{"bike_id":"eb2975e6-751f-46f3-9f1c-bba14fd6b1d4","system_id":"levelo_inurba_marseille","lat":43.31164,"lon":5.38719,"is_reserved":false,"is_disabled":false,"rental_uris":{"android":"levelo://app?vid=eb2975e6-751f-46f3-9f1c-bba14fd6b1d4","ios":"levelo://app?vid=eb2975e6-751f-46f3-9f1c-bba14fd6b1d4"},"vehicle_type_id":"4","last_reported":1729116512,"current_range_meters":15200,"station_id":"ce4bgv12rcd13ifvqcp0","pricing_plan_id":"cebpf4jnsgd1na2vs0mg"},{"bike_id":"bccffad3-9e91-4d99-a249-a6d681893e09","system_id":"levelo_inurba_marseille","lat":43.295705,"lon":5.399805,"is_reserved":false,"is_disabled":false,"rental_uris":{"android":"levelo://app?vid=bccffad3-9e91-4d99-a249-a6d681893e09","ios":"levelo://app?vid=bccffad3-9e91-4d99-a249-a6d681893e09"},"vehicle_type_id":"4","last_reported":1729116512,"current_range_meters":19200,"station_id":"ce4bh312rcd13ifvqdj0","pricing_plan_id":"cebpf4jnsgd1na2vs0mg"},{"bike_id":"90263e99-d5aa-44b8-a4c8-0353aa3b308c","system_id":"levelo_inurba_marseille","lat":43.23066,"lon":5.35492,"is_reserved":false,"is_disabled":false,"rental_uris":{"android":"levelo://app?vid=90263e99-d5aa-44b8-a4c8-0353aa3b308c","ios":"levelo://app?vid=90263e99-d5aa-44b8-a4c8-0353aa3b308c"},"vehicle_type_id":"4","last_reported":1729116512,"current_range_meters":12000,"station_id":"cpo3342slgdg3j2ifvpg","pricing_plan_id":"cebpf4jnsgd1na2vs0mg"},{"bike_id":"2871640c-a4f3-4f61-a342-156b39b491e5","system_id":"levelo_inurba_marseille","lat":43.23143,"lon":5.43725,"is_reserved":false,"is_disabled":false,"rental_uris":{"android":"levelo://app?vid=2871640c-a4f3-4f61-a342-156b39b491e5","ios":"levelo://app?vid=2871640c-a4f3-4f61-a342-156b39b491e5"},"vehicle_type_id":"4","last_reported":1729116512,"current_range_meters":21600,"station_id":"ce4bhmp2rcd13ifvqgog","pricing_plan_id":"cebpf4jnsgd1na2vs0mg"},{"bike_id":"d3457713-0e8e-4bee-ae6b-c4b8b36e8262","system_id":"levelo_inurba_marseille","lat":43.3199,"lon":5.38136,"is_reserved":false,"is_disabled":false,"rental_uris":{"android":"levelo://app?vid=d3457713-0e8e-4bee-ae6b-c4b8b36e8262","ios":"levelo://app?vid=d3457713-0e8e-4bee-ae6b-c4b8b36e8262"},"vehicle_type_id":"4","last_reported":1729116512,"current_range_meters":38800,"station_id":"ce4bhr12rcd13ifvqhpg","pricing_plan_id":"cebpf4jnsgd1na2vs0mg"},{"bike_id":"c8356f63-c63d-40f1-af3e-891940805776","system_id":"levelo_inurba_marseille","lat":43.25936,"lon":5.40903,"is_reserved":false,"is_disabled":false,"rental_uris":{"android":"levelo://app?vid=c8356f63-c63d-40f1-af3e-891940805776","ios":"levelo://app?vid=c8356f63-c63d-40f1-af3e-891940805776"},"vehicle_type_id":"4","last_reported":1729116512,"current_range_meters":30800,"station_id":"ce4bhm92rcd13ifvqglg","pricing_plan_id":"cebpf4jnsgd1na2vs0mg"},{"bike_id":"7db0ec6d-085c-4813-b3f7-84036c3560ec","system_id":"levelo_inurba_marseille","lat":43.28568,"lon":5.39505,"is_reserved":false,"is_disabled":false,"rental_uris":{"android":"levelo://app?vid=7db0ec6d-085c-4813-b3f7-84036c3560ec","ios":"levelo://app?vid=7db0ec6d-085c-4813-b3f7-84036c3560ec"},"vehicle_type_id":"4","last_reported":1729116512,"current_range_meters":20000,"station_id":"ce4bh292rcd13ifvqdg0","pricing_plan_id":"cebpf4jnsgd1na2vs0mg"},{"bike_id":"8d77eae3-f786-4047-b864-8565f1692cfc","system_id":"levelo_inurba_marseille","lat":43.27072,"lon":5.42275,"is_reserved":false,"is_disabled":false,"rental_uris":{"android":"levelo://app?vid=8d77eae3-f786-4047-b864-8565f1692cfc","ios":"levelo://app?vid=8d77eae3-f786-4047-b864-8565f1692cfc"},"vehicle_type_id":"4","last_reported":1729116512,"current_range_meters":3200,"station_id":"ce4bhk92rcd13ifvqgb0","pricing_plan_id":"cebpf4jnsgd1na2vs0mg"},{"bike_id":"c56f6937-5ef6-491d-8577-91a1972d529d","system_id":"levelo_inurba_marseille","lat":43.3168,"lon":5.40485,"is_reserved":false,"is_disabled":false,"rental_uris":{"android":"levelo://app?vid=c56f6937-5ef6-491d-8577-91a1972d529d","ios":"levelo://app?vid=c56f6937-5ef6-491d-8577-91a1972d529d"},"vehicle_type_id":"4","last_reported":1729116512,"current_range_meters":16400,"station_id":"ce4bh012rcd13ifvqd00","pricing_plan_id":"cebpf4jnsgd1na2vs0mg"},{"bike_id":"fe9c7a61-b2b0-4ebc-af65-cac17d736808","system_id":"levelo_inurba_marseille","lat":43.28705,"lon":5.39989,"is_reserved":false,"is_disabled":false,"rental_uris":{"android":"levelo://app?vid=fe9c7a61-b2b0-4ebc-af65-cac17d736808","ios":"levelo://app?vid=fe9c7a61-b2b0-4ebc-af65-cac17d736808"},"vehicle_type_id":"4","last_reported":1729116512,"current_range_meters":22800,"station_id":"ce4bho92rcd13ifvqh3g","pricing_plan_id":"cebpf4jnsgd1na2vs0mg"},{"bike_id":"ebb6577c-ea8b-4cc1-b954-f3473e85ae11","system_id":"levelo_inurba_marseille","lat":43.25499,"lon":5.37646,"is_reserved":false,"is_disabled":false,"rental_uris":{"android":"levelo://app?vid=ebb6577c-ea8b-4cc1-b954-f3473e85ae11","ios":"levelo://app?vid=ebb6577c-ea8b-4cc1-b954-f3473e85ae11"},"vehicle_type_id":"4","last_reported":1729116512,"current_range_meters":38000,"station_id":"ce4bhh12rcd13ifvqff0","pricing_plan_id":"cebpf4jnsgd1na2vs0mg"},{"bike_id":"60f230e4-d6fa-462a-9fac-965bd811cb75","system_id":"levelo_inurba_marseille","lat":43.286223,"lon":5.351312,"is_reserved":false,"is_disabled":false,"rental_uris":{"android":"levelo://app?vid=60f230e4-d6fa-462a-9fac-965bd811cb75","ios":"levelo://app?vid=60f230e4-d6fa-462a-9fac-965bd811cb75"},"vehicle_type_id":"4","last_reported":1729116512,"current_range_meters":38800,"station_id":"ce4bhch2rcd13ifvqeug","pricing_plan_id":"cebpf4jnsgd1na2vs0mg"},{"bike_id":"1ac934dc-7eba-4c90-8cce-fb3e7425e98d","system_id":"levelo_inurba_marseille","lat":43.30785,"lon":5.37656,"is_reserved":false,"is_disabled":false,"rental_uris":{"android":"levelo://app?vid=1ac934dc-7eba-4c90-8cce-fb3e7425e98d","ios":"levelo://app?vid=1ac934dc-7eba-4c90-8cce-fb3e7425e98d"},"vehicle_type_id":"4","last_reported":1729116512,"current_range_meters":25600,"station_id":"ce4bgv92rcd13ifvqcq0","pricing_plan_id":"cebpf4jnsgd1na2vs0mg"},{"bike_id":"b219a071-4953-4752-a156-a66810a00ee6","system_id":"levelo_inurba_marseille","lat":43.26554,"lon":5.37287,"is_reserved":false,"is_disabled":false,"rental_uris":{"android":"levelo://app?vid=b219a071-4953-4752-a156-a66810a00ee6","ios":"levelo://app?vid=b219a071-4953-4752-a156-a66810a00ee6"},"vehicle_type_id":"4","last_reported":1729116512,"current_range_meters":24000,"station_id":"ce4bhg12rcd13ifvqf70","pricing_plan_id":"cebpf4jnsgd1na2vs0mg"},{"bike_id":"b5b99623-414d-4eb1-b427-c0178ad49012","system_id":"levelo_inurba_marseille","lat":43.25717,"lon":5.41115,"is_reserved":false,"is_disabled":false,"rental_uris":{"android":"levelo://app?vid=b5b99623-414d-4eb1-b427-c0178ad49012","ios":"levelo://app?vid=b5b99623-414d-4eb1-b427-c0178ad49012"},"vehicle_type_id":"4","last_reported":1729116512,"current_range_meters":37600,"station_id":"ce4bhkp2rcd13ifvqgd0","pricing_plan_id":"cebpf4jnsgd1na2vs0mg"},{"bike_id":"8a2124ac-5422-4960-bd68-1bcb8591b5b6","system_id":"levelo_inurba_marseille","lat":43.24667,"lon":5.3816,"is_reserved":false,"is_disabled":false,"rental_uris":{"android":"levelo://app?vid=8a2124ac-5422-4960-bd68-1bcb8591b5b6","ios":"levelo://app?vid=8a2124ac-5422-4960-bd68-1bcb8591b5b6"},"vehicle_type_id":"4","last_reported":1729116512,"current_range_meters":31200,"station_id":"ce4bhih2rcd13ifvqfr0","pricing_plan_id":"cebpf4jnsgd1na2vs0mg"},{"bike_id":"fa7bbdc9-afbe-404d-8676-647037cc76a9","system_id":"levelo_inurba_marseille","lat":43.23183,"lon":5.35547,"is_reserved":false,"is_disabled":false,"rental_uris":{"android":"levelo://app?vid=fa7bbdc9-afbe-404d-8676-647037cc76a9","ios":"levelo://app?vid=fa7bbdc9-afbe-404d-8676-647037cc76a9"},"vehicle_type_id":"4","last_reported":1729116512,"current_range_meters":36800,"station_id":"ce4bhu92rcd13ifvqi70","pricing_plan_id":"cebpf4jnsgd1na2vs0mg"},{"bike_id":"c72a80b3-732b-4352-9c21-737d91286679","system_id":"levelo_inurba_marseille","lat":43.28566,"lon":5.39506,"is_reserved":false,"is_disabled":false,"rental_uris":{"android":"levelo://app?vid=c72a80b3-732b-4352-9c21-737d91286679","ios":"levelo://app?vid=c72a80b3-732b-4352-9c21-737d91286679"},"vehicle_type_id":"4","last_reported":1729116512,"current_range_meters":34000,"station_id":"ce4bh292rcd13ifvqdg0","pricing_plan_id":"cebpf4jnsgd1na2vs0mg"},{"bike_id":"931ad2f4-35ea-42b5-bc1a-1fdec477398a","system_id":"levelo_inurba_marseille","lat":43.337444,"lon":5.374475,"is_reserved":false,"is_disabled":false,"rental_uris":{"android":"levelo://app?vid=931ad2f4-35ea-42b5-bc1a-1fdec477398a","ios":"levelo://app?vid=931ad2f4-35ea-42b5-bc1a-1fdec477398a"},"vehicle_type_id":"4","last_reported":1729116512,"current_range_meters":36400,"station_id":"","pricing_plan_id":"cebpf4jnsgd1na2vs0mg"},{"bike_id":"7b9fe451-7a11-474c-9063-21c15b0c577b","system_id":"levelo_inurba_marseille","lat":43.30206,"lon":5.39464,"is_reserved":false,"is_disabled":false,"rental_uris":{"android":"levelo://app?vid=7b9fe451-7a11-474c-9063-21c15b0c577b","ios":"levelo://app?vid=7b9fe451-7a11-474c-9063-21c15b0c577b"},"vehicle_type_id":"4","last_reported":1729116512,"current_range_meters":38800,"station_id":"ce4bh0p2rcd13ifvqd70","pricing_plan_id":"cebpf4jnsgd1na2vs0mg"},{"bike_id":"89e45b8b-dc82-4018-a313-5f868c8711f0","system_id":"levelo_inurba_marseille","lat":43.33604,"lon":5.41022,"is_reserved":false,"is_disabled":false,"rental_uris":{"android":"levelo://app?vid=89e45b8b-dc82-4018-a313-5f868c8711f0","ios":"levelo://app?vid=89e45b8b-dc82-4018-a313-5f868c8711f0"},"vehicle_type_id":"4","last_reported":1729116512,"current_range_meters":39200,"station_id":"ce4bhqh2rcd13ifvqhmg","pricing_plan_id":"cebpf4jnsgd1na2vs0mg"},{"bike_id":"543b5141-f53c-4d1c-b6b6-b150adf52504","system_id":"levelo_inurba_marseille","lat":43.31173,"lon":5.38716,"is_reserved":false,"is_disabled":false,"rental_uris":{"android":"levelo://app?vid=543b5141-f53c-4d1c-b6b6-b150adf52504","ios":"levelo://app?vid=543b5141-f53c-4d1c-b6b6-b150adf52504"},"vehicle_type_id":"4","last_reported":1729116512,"current_range_meters":25600,"station_id":"ce4bgv12rcd13ifvqcp0","pricing_plan_id":"cebpf4jnsgd1na2vs0mg"},{"bike_id":"0a0670db-b874-441e-acee-24140b51ffca","system_id":"levelo_inurba_marseille","lat":43.28437,"lon":5.39202,"is_reserved":false,"is_disabled":false,"rental_uris":{"android":"levelo://app?vid=0a0670db-b874-441e-acee-24140b51ffca","ios":"levelo://app?vid=0a0670db-b874-441e-acee-24140b51ffca"},"vehicle_type_id":"4","last_reported":1729116512,"current_range_meters":38800,"station_id":"ce4bhoh2rcd13ifvqh5g","pricing_plan_id":"cebpf4jnsgd1na2vs0mg"},{"bike_id":"ec3f203d-12bf-484e-97fd-7a69ded416ba","system_id":"levelo_inurba_marseille","lat":43.289297,"lon":5.363819,"is_reserved":false,"is_disabled":false,"rental_uris":{"android":"levelo://app?vid=ec3f203d-12bf-484e-97fd-7a69ded416ba","ios":"levelo://app?vid=ec3f203d-12bf-484e-97fd-7a69ded416ba"},"vehicle_type_id":"4","last_reported":1729116512,"current_range_meters":36000,"station_id":"ce4bgup2rcd13ifvqcn0","pricing_plan_id":"cebpf4jnsgd1na2vs0mg"},{"bike_id":"81e32d4e-df25-4349-90c7-1831752870c9","system_id":"levelo_inurba_marseille","lat":43.27942,"lon":5.41049,"is_reserved":false,"is_disabled":false,"rental_uris":{"android":"levelo://app?vid=81e32d4e-df25-4349-90c7-1831752870c9","ios":"levelo://app?vid=81e32d4e-df25-4349-90c7-1831752870c9"},"vehicle_type_id":"4","last_reported":1729116512,"current_range_meters":32800,"station_id":"ce4bhnp2rcd13ifvqh0g","pricing_plan_id":"cebpf4jnsgd1na2vs0mg"},{"bike_id":"8c1ec6cb-2291-4814-837b-be8625c706f3","system_id":"levelo_inurba_marseille","lat":43.23189,"lon":5.35544,"is_reserved":false,"is_disabled":false,"rental_uris":{"android":"levelo://app?vid=8c1ec6cb-2291-4814-837b-be8625c706f3","ios":"levelo://app?vid=8c1ec6cb-2291-4814-837b-be8625c706f3"},"vehicle_type_id":"4","last_reported":1729116512,"current_range_meters":38800,"station_id":"ce4bhu92rcd13ifvqi70","pricing_plan_id":"cebpf4jnsgd1na2vs0mg"},{"bike_id":"ff3d9e29-1767-4d92-81c3-3a2534d4a8af","system_id":"levelo_inurba_marseille","lat":43.28101,"lon":5.37828,"is_reserved":false,"is_disabled":false,"rental_uris":{"android":"levelo://app?vid=ff3d9e29-1767-4d92-81c3-3a2534d4a8af","ios":"levelo://app?vid=ff3d9e29-1767-4d92-81c3-3a2534d4a8af"},"vehicle_type_id":"4","last_reported":1729116512,"current_range_meters":34800,"station_id":"ce4bha12rcd13ifvqee0","pricing_plan_id":"cebpf4jnsgd1na2vs0mg"},{"bike_id":"f97ed4df-1a5b-4335-8f24-cb02977ba46e","system_id":"levelo_inurba_marseille","lat":43.29274,"lon":5.4012,"is_reserved":false,"is_disabled":false,"rental_uris":{"android":"levelo://app?vid=f97ed4df-1a5b-4335-8f24-cb02977ba46e","ios":"levelo://app?vid=f97ed4df-1a5b-4335-8f24-cb02977ba46e"},"vehicle_type_id":"4","last_reported":1729116512,"current_range_meters":19600,"station_id":"ce4bh312rcd13ifvqdk0","pricing_plan_id":"cebpf4jnsgd1na2vs0mg"},{"bike_id":"8cd9a0be-5e98-4d55-a4ec-d164ab97f55f","system_id":"levelo_inurba_marseille","lat":43.31995,"lon":5.38139,"is_reserved":false,"is_disabled":false,"rental_uris":{"android":"levelo://app?vid=8cd9a0be-5e98-4d55-a4ec-d164ab97f55f","ios":"levelo://app?vid=8cd9a0be-5e98-4d55-a4ec-d164ab97f55f"},"vehicle_type_id":"4","last_reported":1729116512,"current_range_meters":16000,"station_id":"ce4bhr12rcd13ifvqhpg","pricing_plan_id":"cebpf4jnsgd1na2vs0mg"},{"bike_id":"6aad7b35-09a3-4656-912f-91689d5fb051","system_id":"levelo_inurba_marseille","lat":43.26209,"lon":5.37924,"is_reserved":false,"is_disabled":false,"rental_uris":{"android":"levelo://app?vid=6aad7b35-09a3-4656-912f-91689d5fb051","ios":"levelo://app?vid=6aad7b35-09a3-4656-912f-91689d5fb051"},"vehicle_type_id":"4","last_reported":1729116512,"current_range_meters":26000,"station_id":"ce4bhjp2rcd13ifvqg90","pricing_plan_id":"cebpf4jnsgd1na2vs0mg"},{"bike_id":"db810d77-ca6d-4491-b176-96ce95bcc9bc","system_id":"levelo_inurba_marseille","lat":43.25727,"lon":5.41103,"is_reserved":false,"is_disabled":false,"rental_uris":{"android":"levelo://app?vid=db810d77-ca6d-4491-b176-96ce95bcc9bc","ios":"levelo://app?vid=db810d77-ca6d-4491-b176-96ce95bcc9bc"},"vehicle_type_id":"4","last_reported":1729116512,"current_range_meters":38000,"station_id":"ce4bhkp2rcd13ifvqgd0","pricing_plan_id":"cebpf4jnsgd1na2vs0mg"},{"bike_id":"c02f842a-f0c7-4310-b5bd-a3d42ba74564","system_id":"levelo_inurba_marseille","lat":43.310634,"lon":5.383471,"is_reserved":false,"is_disabled":false,"rental_uris":{"android":"levelo://app?vid=c02f842a-f0c7-4310-b5bd-a3d42ba74564","ios":"levelo://app?vid=c02f842a-f0c7-4310-b5bd-a3d42ba74564"},"vehicle_type_id":"4","last_reported":1729116512,"current_range_meters":38800,"station_id":"ce4bgv92rcd13ifvqcr0","pricing_plan_id":"cebpf4jnsgd1na2vs0mg"},{"bike_id":"4dff3f2d-8f80-481e-a769-c8fed23ab2fa","system_id":"levelo_inurba_marseille","lat":43.26201,"lon":5.37929,"is_reserved":false,"is_disabled":false,"rental_uris":{"android":"levelo://app?vid=4dff3f2d-8f80-481e-a769-c8fed23ab2fa","ios":"levelo://app?vid=4dff3f2d-8f80-481e-a769-c8fed23ab2fa"},"vehicle_type_id":"4","last_reported":1729116512,"current_range_meters":22400,"station_id":"ce4bhjp2rcd13ifvqg90","pricing_plan_id":"cebpf4jnsgd1na2vs0mg"},{"bike_id":"2d3ed27a-f7ed-4429-affd-6349b92ad9ac","system_id":"levelo_inurba_marseille","lat":43.27906,"lon":5.37999,"is_reserved":false,"is_disabled":false,"rental_uris":{"android":"levelo://app?vid=2d3ed27a-f7ed-4429-affd-6349b92ad9ac","ios":"levelo://app?vid=2d3ed27a-f7ed-4429-affd-6349b92ad9ac"},"vehicle_type_id":"4","last_reported":1729116512,"current_range_meters":33200,"station_id":"ce4bhf92rcd13ifvqf50","pricing_plan_id":"cebpf4jnsgd1na2vs0mg"},{"bike_id":"09ba8262-4e38-4d25-a916-fe154f2cdd71","system_id":"levelo_inurba_marseille","lat":43.28703,"lon":5.39977,"is_reserved":false,"is_disabled":false,"rental_uris":{"android":"levelo://app?vid=09ba8262-4e38-4d25-a916-fe154f2cdd71","ios":"levelo://app?vid=09ba8262-4e38-4d25-a916-fe154f2cdd71"},"vehicle_type_id":"4","last_reported":1729116512,"current_range_meters":36800,"station_id":"ce4bho92rcd13ifvqh3g","pricing_plan_id":"cebpf4jnsgd1na2vs0mg"},{"bike_id":"4453300a-dc2b-478a-9e03-acaf397de4ec","system_id":"levelo_inurba_marseille","lat":43.30536,"lon":5.36682,"is_reserved":false,"is_disabled":false,"rental_uris":{"android":"levelo://app?vid=4453300a-dc2b-478a-9e03-acaf397de4ec","ios":"levelo://app?vid=4453300a-dc2b-478a-9e03-acaf397de4ec"},"vehicle_type_id":"4","last_reported":1729116512,"current_range_meters":32400,"station_id":"ce4bgrp2rcd13ifvqc9g","pricing_plan_id":"cebpf4jnsgd1na2vs0mg"},{"bike_id":"874494de-7452-4f47-9fec-c5ec79478035","system_id":"levelo_inurba_marseille","lat":43.23962,"lon":5.36637,"is_reserved":false,"is_disabled":false,"rental_uris":{"android":"levelo://app?vid=874494de-7452-4f47-9fec-c5ec79478035","ios":"levelo://app?vid=874494de-7452-4f47-9fec-c5ec79478035"},"vehicle_type_id":"4","last_reported":1729116512,"current_range_meters":32000,"station_id":"ce4bhi12rcd13ifvqfp0","pricing_plan_id":"cebpf4jnsgd1na2vs0mg"},{"bike_id":"4de2d667-b9ac-4079-a456-8dc49ee7c0f5","system_id":"levelo_inurba_marseille","lat":43.30139,"lon":5.3742,"is_reserved":false,"is_disabled":false,"rental_uris":{"android":"levelo://app?vid=4de2d667-b9ac-4079-a456-8dc49ee7c0f5","ios":"levelo://app?vid=4de2d667-b9ac-4079-a456-8dc49ee7c0f5"},"vehicle_type_id":"4","last_reported":1729116512,"current_range_meters":38800,"station_id":"ce4bgs92rcd13ifvqcc0","pricing_plan_id":"cebpf4jnsgd1na2vs0mg"},{"bike_id":"6df449e5-b7fd-4ef6-81cd-4a78f4d09318","system_id":"levelo_inurba_marseille","lat":43.29606,"lon":5.40004,"is_reserved":false,"is_disabled":false,"rental_uris":{"android":"levelo://app?vid=6df449e5-b7fd-4ef6-81cd-4a78f4d09318","ios":"levelo://app?vid=6df449e5-b7fd-4ef6-81cd-4a78f4d09318"},"vehicle_type_id":"4","last_reported":1729116512,"current_range_meters":38400,"station_id":"ce4bgvh2rcd13ifvqcs0","pricing_plan_id":"cebpf4jnsgd1na2vs0mg"},{"bike_id":"08ae83cb-f31d-469e-8b8d-1172d9f867d3","system_id":"levelo_inurba_marseille","lat":43.23964,"lon":5.36634,"is_reserved":false,"is_disabled":false,"rental_uris":{"android":"levelo://app?vid=08ae83cb-f31d-469e-8b8d-1172d9f867d3","ios":"levelo://app?vid=08ae83cb-f31d-469e-8b8d-1172d9f867d3"},"vehicle_type_id":"4","last_reported":1729116512,"current_range_meters":20400,"station_id":"ce4bhi12rcd13ifvqfp0","pricing_plan_id":"cebpf4jnsgd1na2vs0mg"},{"bike_id":"a9400308-7820-4b35-a30e-ac5b59ed3f3e","system_id":"levelo_inurba_marseille","lat":43.25122,"lon":5.40316,"is_reserved":false,"is_disabled":false,"rental_uris":{"android":"levelo://app?vid=a9400308-7820-4b35-a30e-ac5b59ed3f3e","ios":"levelo://app?vid=a9400308-7820-4b35-a30e-ac5b59ed3f3e"},"vehicle_type_id":"4","last_reported":1729116512,"current_range_meters":39200,"station_id":"ce4bhlh2rcd13ifvqgig","pricing_plan_id":"cebpf4jnsgd1na2vs0mg"},{"bike_id":"0994d7f0-fa2e-480f-b967-2b1e1b476b78","system_id":"levelo_inurba_marseille","lat":43.23198,"lon":5.3556,"is_reserved":false,"is_disabled":false,"rental_uris":{"android":"levelo://app?vid=0994d7f0-fa2e-480f-b967-2b1e1b476b78","ios":"levelo://app?vid=0994d7f0-fa2e-480f-b967-2b1e1b476b78"},"vehicle_type_id":"4","last_reported":1729116512,"current_range_meters":18800,"station_id":"ce4bhu92rcd13ifvqi70","pricing_plan_id":"cebpf4jnsgd1na2vs0mg"},{"bike_id":"d4621715-5d09-414c-8559-b87d264e65c2","system_id":"levelo_inurba_marseille","lat":43.28424,"lon":5.38045,"is_reserved":false,"is_disabled":false,"rental_uris":{"android":"levelo://app?vid=d4621715-5d09-414c-8559-b87d264e65c2","ios":"levelo://app?vid=d4621715-5d09-414c-8559-b87d264e65c2"},"vehicle_type_id":"4","last_reported":1729116512,"current_range_meters":22000,"station_id":"ce4bha12rcd13ifvqee0","pricing_plan_id":"cebpf4jnsgd1na2vs0mg"},{"bike_id":"dcedea5b-73c4-4888-b703-3d96c56f5318","system_id":"levelo_inurba_marseille","lat":43.30939,"lon":5.40144,"is_reserved":false,"is_disabled":false,"rental_uris":{"android":"levelo://app?vid=dcedea5b-73c4-4888-b703-3d96c56f5318","ios":"levelo://app?vid=dcedea5b-73c4-4888-b703-3d96c56f5318"},"vehicle_type_id":"4","last_reported":1729116512,"current_range_meters":20000,"station_id":"ce4bgvp2rcd13ifvqct0","pricing_plan_id":"cebpf4jnsgd1na2vs0mg"},{"bike_id":"66ccc46d-618e-4760-b09c-27382152bdab","system_id":"levelo_inurba_marseille","lat":43.23184,"lon":5.35544,"is_reserved":false,"is_disabled":false,"rental_uris":{"android":"levelo://app?vid=66ccc46d-618e-4760-b09c-27382152bdab","ios":"levelo://app?vid=66ccc46d-618e-4760-b09c-27382152bdab"},"vehicle_type_id":"4","last_reported":1729116512,"current_range_meters":36400,"station_id":"ce4bhu92rcd13ifvqi70","pricing_plan_id":"cebpf4jnsgd1na2vs0mg"},{"bike_id":"380d04ee-efe6-4f75-bce6-5f9ae34e4666","system_id":"levelo_inurba_marseille","lat":43.28364,"lon":5.38631,"is_reserved":false,"is_disabled":false,"rental_uris":{"android":"levelo://app?vid=380d04ee-efe6-4f75-bce6-5f9ae34e4666","ios":"levelo://app?vid=380d04ee-efe6-4f75-bce6-5f9ae34e4666"},"vehicle_type_id":"4","last_reported":1729116512,"current_range_meters":33600,"station_id":"ce4bh492rcd13ifvqdvg","pricing_plan_id":"cebpf4jnsgd1na2vs0mg"},{"bike_id":"1cbba2a7-2ab4-4a13-9117-f103efa98a5b","system_id":"levelo_inurba_marseille","lat":43.29031,"lon":5.37562,"is_reserved":false,"is_disabled":false,"rental_uris":{"android":"levelo://app?vid=1cbba2a7-2ab4-4a13-9117-f103efa98a5b","ios":"levelo://app?vid=1cbba2a7-2ab4-4a13-9117-f103efa98a5b"},"vehicle_type_id":"4","last_reported":1729116512,"current_range_meters":20400,"station_id":"ce4bh692rcd13ifvqe90","pricing_plan_id":"cebpf4jnsgd1na2vs0mg"},{"bike_id":"a073cbb3-1627-43ef-923a-3c793e1abf15","system_id":"levelo_inurba_marseille","lat":43.30879,"lon":5.39642,"is_reserved":false,"is_disabled":false,"rental_uris":{"android":"levelo://app?vid=a073cbb3-1627-43ef-923a-3c793e1abf15","ios":"levelo://app?vid=a073cbb3-1627-43ef-923a-3c793e1abf15"},"vehicle_type_id":"4","last_reported":1729116512,"current_range_meters":29600,"station_id":"ce4bh012rcd13ifvqcv0","pricing_plan_id":"cebpf4jnsgd1na2vs0mg"},{"bike_id":"8e2b0f48-ccb5-4260-b9f7-e017b8cb13de","system_id":"levelo_inurba_marseille","lat":43.28104,"lon":5.37838,"is_reserved":false,"is_disabled":false,"rental_uris":{"android":"levelo://app?vid=8e2b0f48-ccb5-4260-b9f7-e017b8cb13de","ios":"levelo://app?vid=8e2b0f48-ccb5-4260-b9f7-e017b8cb13de"},"vehicle_type_id":"4","last_reported":1729116512,"current_range_meters":38400,"station_id":"ce4bha12rcd13ifvqee0","pricing_plan_id":"cebpf4jnsgd1na2vs0mg"},{"bike_id":"2208eed6-92d9-4d46-88d0-e19a867b711f","system_id":"levelo_inurba_marseille","lat":43.30325,"lon":5.40447,"is_reserved":false,"is_disabled":false,"rental_uris":{"android":"levelo://app?vid=2208eed6-92d9-4d46-88d0-e19a867b711f","ios":"levelo://app?vid=2208eed6-92d9-4d46-88d0-e19a867b711f"},"vehicle_type_id":"4","last_reported":1729116512,"current_range_meters":38800,"station_id":"ce4bh012rcd13ifvqd10","pricing_plan_id":"cebpf4jnsgd1na2vs0mg"},{"bike_id":"3217dae9-794c-4d02-8696-cd25ba0d10fa","system_id":"levelo_inurba_marseille","lat":43.30424,"lon":5.41301,"is_reserved":false,"is_disabled":false,"rental_uris":{"android":"levelo://app?vid=3217dae9-794c-4d02-8696-cd25ba0d10fa","ios":"levelo://app?vid=3217dae9-794c-4d02-8696-cd25ba0d10fa"},"vehicle_type_id":"4","last_reported":1729116512,"current_range_meters":36400,"station_id":"ce4bhop2rcd13ifvqh8g","pricing_plan_id":"cebpf4jnsgd1na2vs0mg"},{"bike_id":"f35bf8c9-6a46-43c9-8d4f-2819ae217681","system_id":"levelo_inurba_marseille","lat":43.32659,"lon":5.40996,"is_reserved":false,"is_disabled":false,"rental_uris":{"android":"levelo://app?vid=f35bf8c9-6a46-43c9-8d4f-2819ae217681","ios":"levelo://app?vid=f35bf8c9-6a46-43c9-8d4f-2819ae217681"},"vehicle_type_id":"4","last_reported":1729116512,"current_range_meters":20000,"station_id":"ce4bhpp2rcd13ifvqhgg","pricing_plan_id":"cebpf4jnsgd1na2vs0mg"},{"bike_id":"f64d87dd-e9f5-40b3-9fce-ab56b783abeb","system_id":"levelo_inurba_marseille","lat":43.31178,"lon":5.38726,"is_reserved":false,"is_disabled":false,"rental_uris":{"android":"levelo://app?vid=f64d87dd-e9f5-40b3-9fce-ab56b783abeb","ios":"levelo://app?vid=f64d87dd-e9f5-40b3-9fce-ab56b783abeb"},"vehicle_type_id":"4","last_reported":1729116512,"current_range_meters":32000,"station_id":"ce4bgv12rcd13ifvqcp0","pricing_plan_id":"cebpf4jnsgd1na2vs0mg"},{"bike_id":"64300fe9-1131-424a-b9a3-638bb5781faa","system_id":"levelo_inurba_marseille","lat":43.31273,"lon":5.40166,"is_reserved":false,"is_disabled":false,"rental_uris":{"android":"levelo://app?vid=64300fe9-1131-424a-b9a3-638bb5781faa","ios":"levelo://app?vid=64300fe9-1131-424a-b9a3-638bb5781faa"},"vehicle_type_id":"4","last_reported":1729116512,"current_range_meters":11200,"station_id":"ce4bh092rcd13ifvqd30","pricing_plan_id":"cebpf4jnsgd1na2vs0mg"},{"bike_id":"6300df2c-b9fe-4275-916d-dd75e59140c9","system_id":"levelo_inurba_marseille","lat":43.2319,"lon":5.35543,"is_reserved":false,"is_disabled":false,"rental_uris":{"android":"levelo://app?vid=6300df2c-b9fe-4275-916d-dd75e59140c9","ios":"levelo://app?vid=6300df2c-b9fe-4275-916d-dd75e59140c9"},"vehicle_type_id":"4","last_reported":1729116512,"current_range_meters":36800,"station_id":"ce4bhu92rcd13ifvqi70","pricing_plan_id":"cebpf4jnsgd1na2vs0mg"},{"bike_id":"f9dcef24-46bb-48b7-adaf-938d3db7b7f1","system_id":"levelo_inurba_marseille","lat":43.30885,"lon":5.37191,"is_reserved":false,"is_disabled":false,"rental_uris":{"android":"levelo://app?vid=f9dcef24-46bb-48b7-adaf-938d3db7b7f1","ios":"levelo://app?vid=f9dcef24-46bb-48b7-adaf-938d3db7b7f1"},"vehicle_type_id":"4","last_reported":1729116512,"current_range_meters":14000,"station_id":"ce4bguh2rcd13ifvqckg","pricing_plan_id":"cebpf4jnsgd1na2vs0mg"},{"bike_id":"6d56330f-5e73-42d5-b4b2-2b0523e4e635","system_id":"levelo_inurba_marseille","lat":43.27937,"lon":5.41043,"is_reserved":false,"is_disabled":false,"rental_uris":{"android":"levelo://app?vid=6d56330f-5e73-42d5-b4b2-2b0523e4e635","ios":"levelo://app?vid=6d56330f-5e73-42d5-b4b2-2b0523e4e635"},"vehicle_type_id":"4","last_reported":1729116512,"current_range_meters":20400,"station_id":"ce4bhnp2rcd13ifvqh0g","pricing_plan_id":"cebpf4jnsgd1na2vs0mg"},{"bike_id":"613c8ae3-a799-410f-92ce-3bf349e7941d","system_id":"levelo_inurba_marseille","lat":43.25092,"lon":5.39516,"is_reserved":false,"is_disabled":false,"rental_uris":{"android":"levelo://app?vid=613c8ae3-a799-410f-92ce-3bf349e7941d","ios":"levelo://app?vid=613c8ae3-a799-410f-92ce-3bf349e7941d"},"vehicle_type_id":"4","last_reported":1729116512,"current_range_meters":40000,"station_id":"ce4bhm12rcd13ifvqgkg","pricing_plan_id":"cebpf4jnsgd1na2vs0mg"},{"bike_id":"f57a1134-2f9e-4ac3-ba09-645288304c6f","system_id":"levelo_inurba_marseille","lat":43.29898,"lon":5.43666,"is_reserved":false,"is_disabled":false,"rental_uris":{"android":"levelo://app?vid=f57a1134-2f9e-4ac3-ba09-645288304c6f","ios":"levelo://app?vid=f57a1134-2f9e-4ac3-ba09-645288304c6f"},"vehicle_type_id":"4","last_reported":1729116512,"current_range_meters":28800,"station_id":"ce4bhpp2rcd13ifvqhfg","pricing_plan_id":"cebpf4jnsgd1na2vs0mg"},{"bike_id":"cd26ba12-f665-4e80-b30d-fa818267c67a","system_id":"levelo_inurba_marseille","lat":43.25121,"lon":5.40319,"is_reserved":false,"is_disabled":false,"rental_uris":{"android":"levelo://app?vid=cd26ba12-f665-4e80-b30d-fa818267c67a","ios":"levelo://app?vid=cd26ba12-f665-4e80-b30d-fa818267c67a"},"vehicle_type_id":"4","last_reported":1729116512,"current_range_meters":24400,"station_id":"ce4bhlh2rcd13ifvqgig","pricing_plan_id":"cebpf4jnsgd1na2vs0mg"},{"bike_id":"de0b7dfc-54b2-4640-8457-3c332d3a3bf9","system_id":"levelo_inurba_marseille","lat":43.30647,"lon":5.40086,"is_reserved":false,"is_disabled":false,"rental_uris":{"android":"levelo://app?vid=de0b7dfc-54b2-4640-8457-3c332d3a3bf9","ios":"levelo://app?vid=de0b7dfc-54b2-4640-8457-3c332d3a3bf9"},"vehicle_type_id":"4","last_reported":1729116512,"current_range_meters":28000,"station_id":"ce4bh112rcd13ifvqda0","pricing_plan_id":"cebpf4jnsgd1na2vs0mg"},{"bike_id":"659dcd27-1157-4606-8947-d081c00fbdd4","system_id":"levelo_inurba_marseille","lat":43.25115,"lon":5.40319,"is_reserved":false,"is_disabled":false,"rental_uris":{"android":"levelo://app?vid=659dcd27-1157-4606-8947-d081c00fbdd4","ios":"levelo://app?vid=659dcd27-1157-4606-8947-d081c00fbdd4"},"vehicle_type_id":"4","last_reported":1729116512,"current_range_meters":7200,"station_id":"ce4bhlh2rcd13ifvqgig","pricing_plan_id":"cebpf4jnsgd1na2vs0mg"},{"bike_id":"0c2973fe-e0bf-4d3e-a5a9-913bc93310e6","system_id":"levelo_inurba_marseille","lat":43.28723,"lon":5.36084,"is_reserved":false,"is_disabled":false,"rental_uris":{"android":"levelo://app?vid=0c2973fe-e0bf-4d3e-a5a9-913bc93310e6","ios":"levelo://app?vid=0c2973fe-e0bf-4d3e-a5a9-913bc93310e6"},"vehicle_type_id":"4","last_reported":1729116512,"current_range_meters":25600,"station_id":"cki0cbj6b192h4jlfktg","pricing_plan_id":"cebpf4jnsgd1na2vs0mg"},{"bike_id":"7be05975-abf1-4cf0-b2a2-9c6e9d14775a","system_id":"levelo_inurba_marseille","lat":43.27572,"lon":5.38421,"is_reserved":false,"is_disabled":false,"rental_uris":{"android":"levelo://app?vid=7be05975-abf1-4cf0-b2a2-9c6e9d14775a","ios":"levelo://app?vid=7be05975-abf1-4cf0-b2a2-9c6e9d14775a"},"vehicle_type_id":"4","last_reported":1729116512,"current_range_meters":23200,"station_id":"ce4bhh92rcd13ifvqfi0","pricing_plan_id":"cebpf4jnsgd1na2vs0mg"},{"bike_id":"3ed97689-64de-44a4-8654-31563cd4203b","system_id":"levelo_inurba_marseille","lat":43.27941,"lon":5.4105,"is_reserved":false,"is_disabled":false,"rental_uris":{"android":"levelo://app?vid=3ed97689-64de-44a4-8654-31563cd4203b","ios":"levelo://app?vid=3ed97689-64de-44a4-8654-31563cd4203b"},"vehicle_type_id":"4","last_reported":1729116512,"current_range_meters":8800,"station_id":"ce4bhnp2rcd13ifvqh0g","pricing_plan_id":"cebpf4jnsgd1na2vs0mg"},{"bike_id":"94ee1443-2ca0-433e-88f9-bdbac5a159fe","system_id":"levelo_inurba_marseille","lat":43.31116,"lon":5.37763,"is_reserved":false,"is_disabled":false,"rental_uris":{"android":"levelo://app?vid=94ee1443-2ca0-433e-88f9-bdbac5a159fe","ios":"levelo://app?vid=94ee1443-2ca0-433e-88f9-bdbac5a159fe"},"vehicle_type_id":"4","last_reported":1729116512,"current_range_meters":27600,"station_id":"ce4bgt92rcd13ifvqcg0","pricing_plan_id":"cebpf4jnsgd1na2vs0mg"},{"bike_id":"2140b6a3-5118-4150-823e-9225aeb56201","system_id":"levelo_inurba_marseille","lat":43.231933,"lon":5.355455,"is_reserved":false,"is_disabled":false,"rental_uris":{"android":"levelo://app?vid=2140b6a3-5118-4150-823e-9225aeb56201","ios":"levelo://app?vid=2140b6a3-5118-4150-823e-9225aeb56201"},"vehicle_type_id":"4","last_reported":1729116512,"current_range_meters":38800,"station_id":"ce4bhu92rcd13ifvqi70","pricing_plan_id":"cebpf4jnsgd1na2vs0mg"},{"bike_id":"8f557e3a-e042-4d01-b362-455fe3912d45","system_id":"levelo_inurba_marseille","lat":43.33611,"lon":5.41026,"is_reserved":false,"is_disabled":false,"rental_uris":{"android":"levelo://app?vid=8f557e3a-e042-4d01-b362-455fe3912d45","ios":"levelo://app?vid=8f557e3a-e042-4d01-b362-455fe3912d45"},"vehicle_type_id":"4","last_reported":1729116512,"current_range_meters":40000,"station_id":"ce4bhqh2rcd13ifvqhmg","pricing_plan_id":"cebpf4jnsgd1na2vs0mg"},{"bike_id":"01e1edc1-1218-4d8f-ac0f-5ba9b7dc6357","system_id":"levelo_inurba_marseille","lat":43.29783,"lon":5.39335,"is_reserved":false,"is_disabled":false,"rental_uris":{"android":"levelo://app?vid=01e1edc1-1218-4d8f-ac0f-5ba9b7dc6357","ios":"levelo://app?vid=01e1edc1-1218-4d8f-ac0f-5ba9b7dc6357"},"vehicle_type_id":"4","last_reported":1729116512,"current_range_meters":28400,"station_id":"chh1huq6cuj3fo74tm60","pricing_plan_id":"cebpf4jnsgd1na2vs0mg"},{"bike_id":"6d3bf938-0787-415e-949c-c2324e1c36b9","system_id":"levelo_inurba_marseille","lat":43.31064,"lon":5.38345,"is_reserved":false,"is_disabled":false,"rental_uris":{"android":"levelo://app?vid=6d3bf938-0787-415e-949c-c2324e1c36b9","ios":"levelo://app?vid=6d3bf938-0787-415e-949c-c2324e1c36b9"},"vehicle_type_id":"4","last_reported":1729116512,"current_range_meters":32000,"station_id":"ce4bgv92rcd13ifvqcr0","pricing_plan_id":"cebpf4jnsgd1na2vs0mg"},{"bike_id":"64038440-7d16-488e-ba76-3dcaf2fc4cb0","system_id":"levelo_inurba_marseille","lat":43.31883,"lon":5.40732,"is_reserved":false,"is_disabled":false,"rental_uris":{"android":"levelo://app?vid=64038440-7d16-488e-ba76-3dcaf2fc4cb0","ios":"levelo://app?vid=64038440-7d16-488e-ba76-3dcaf2fc4cb0"},"vehicle_type_id":"4","last_reported":1729116512,"current_range_meters":39200,"station_id":"ce4bhq12rcd13ifvqhig","pricing_plan_id":"cebpf4jnsgd1na2vs0mg"},{"bike_id":"705d56a5-88a2-4cdf-99f9-21ee8c1daf09","system_id":"levelo_inurba_marseille","lat":43.29872,"lon":5.39731,"is_reserved":false,"is_disabled":false,"rental_uris":{"android":"levelo://app?vid=705d56a5-88a2-4cdf-99f9-21ee8c1daf09","ios":"levelo://app?vid=705d56a5-88a2-4cdf-99f9-21ee8c1daf09"},"vehicle_type_id":"4","last_reported":1729116512,"current_range_meters":33200,"station_id":"ce4bh0h2rcd13ifvqd50","pricing_plan_id":"cebpf4jnsgd1na2vs0mg"},{"bike_id":"ea5e655f-17be-40c7-9228-17d3eab622b7","system_id":"levelo_inurba_marseille","lat":43.23183,"lon":5.39992,"is_reserved":false,"is_disabled":false,"rental_uris":{"android":"levelo://app?vid=ea5e655f-17be-40c7-9228-17d3eab622b7","ios":"levelo://app?vid=ea5e655f-17be-40c7-9228-17d3eab622b7"},"vehicle_type_id":"4","last_reported":1729116512,"current_range_meters":38800,"station_id":"ce4bhn12rcd13ifvqgqg","pricing_plan_id":"cebpf4jnsgd1na2vs0mg"},{"bike_id":"6ebb35c2-df5b-492f-8deb-47d4baec0f74","system_id":"levelo_inurba_marseille","lat":43.25586,"lon":5.38229,"is_reserved":false,"is_disabled":false,"rental_uris":{"android":"levelo://app?vid=6ebb35c2-df5b-492f-8deb-47d4baec0f74","ios":"levelo://app?vid=6ebb35c2-df5b-492f-8deb-47d4baec0f74"},"vehicle_type_id":"4","last_reported":1729116512,"current_range_meters":38800,"station_id":"ce4bhih2rcd13ifvqfs0","pricing_plan_id":"cebpf4jnsgd1na2vs0mg"},{"bike_id":"80be08ff-304a-4329-b0df-46f6267d3ecd","system_id":"levelo_inurba_marseille","lat":43.32286,"lon":5.38272,"is_reserved":false,"is_disabled":false,"rental_uris":{"android":"levelo://app?vid=80be08ff-304a-4329-b0df-46f6267d3ecd","ios":"levelo://app?vid=80be08ff-304a-4329-b0df-46f6267d3ecd"},"vehicle_type_id":"4","last_reported":1729116512,"current_range_meters":27600,"station_id":"ce4bhr12rcd13ifvqhqg","pricing_plan_id":"cebpf4jnsgd1na2vs0mg"},{"bike_id":"640350ac-69ee-4118-a052-72396d01dfd7","system_id":"levelo_inurba_marseille","lat":43.24385,"lon":5.37055,"is_reserved":false,"is_disabled":false,"rental_uris":{"android":"levelo://app?vid=640350ac-69ee-4118-a052-72396d01dfd7","ios":"levelo://app?vid=640350ac-69ee-4118-a052-72396d01dfd7"},"vehicle_type_id":"4","last_reported":1729116512,"current_range_meters":33200,"station_id":"ce4bhhh2rcd13ifvqfk0","pricing_plan_id":"cebpf4jnsgd1na2vs0mg"},{"bike_id":"6b4015f6-e20d-4276-86e3-41cffa5ffe2a","system_id":"levelo_inurba_marseille","lat":43.24074,"lon":5.37759,"is_reserved":false,"is_disabled":false,"rental_uris":{"android":"levelo://app?vid=6b4015f6-e20d-4276-86e3-41cffa5ffe2a","ios":"levelo://app?vid=6b4015f6-e20d-4276-86e3-41cffa5ffe2a"},"vehicle_type_id":"4","last_reported":1729116512,"current_range_meters":24400,"station_id":"ce4bhnp2rcd13ifvqgvg","pricing_plan_id":"cebpf4jnsgd1na2vs0mg"},{"bike_id":"8d56d269-4b29-48f3-afa4-2d25429a351d","system_id":"levelo_inurba_marseille","lat":43.29033,"lon":5.39969,"is_reserved":false,"is_disabled":false,"rental_uris":{"android":"levelo://app?vid=8d56d269-4b29-48f3-afa4-2d25429a351d","ios":"levelo://app?vid=8d56d269-4b29-48f3-afa4-2d25429a351d"},"vehicle_type_id":"4","last_reported":1729116512,"current_range_meters":34800,"station_id":"ce4bh392rcd13ifvqdm0","pricing_plan_id":"cebpf4jnsgd1na2vs0mg"},{"bike_id":"83bcafb6-7740-4133-8b56-4bf302222f17","system_id":"levelo_inurba_marseille","lat":43.23958,"lon":5.36657,"is_reserved":false,"is_disabled":false,"rental_uris":{"android":"levelo://app?vid=83bcafb6-7740-4133-8b56-4bf302222f17","ios":"levelo://app?vid=83bcafb6-7740-4133-8b56-4bf302222f17"},"vehicle_type_id":"4","last_reported":1729116512,"current_range_meters":8000,"station_id":"ce4bhi12rcd13ifvqfp0","pricing_plan_id":"cebpf4jnsgd1na2vs0mg"},{"bike_id":"fe785414-8f42-4bcb-ade6-848bbe1c4a39","system_id":"levelo_inurba_marseille","lat":43.28439,"lon":5.39184,"is_reserved":false,"is_disabled":false,"rental_uris":{"android":"levelo://app?vid=fe785414-8f42-4bcb-ade6-848bbe1c4a39","ios":"levelo://app?vid=fe785414-8f42-4bcb-ade6-848bbe1c4a39"},"vehicle_type_id":"4","last_reported":1729116512,"current_range_meters":38800,"station_id":"ce4bhoh2rcd13ifvqh5g","pricing_plan_id":"cebpf4jnsgd1na2vs0mg"},{"bike_id":"3213665e-989c-4d22-9f5a-31c8522597dd","system_id":"levelo_inurba_marseille","lat":43.296,"lon":5.36142,"is_reserved":false,"is_disabled":false,"rental_uris":{"android":"levelo://app?vid=3213665e-989c-4d22-9f5a-31c8522597dd","ios":"levelo://app?vid=3213665e-989c-4d22-9f5a-31c8522597dd"},"vehicle_type_id":"4","last_reported":1729116512,"current_range_meters":31200,"station_id":"","pricing_plan_id":"cebpf4jnsgd1na2vs0mg"},{"bike_id":"85a43556-7d17-45ce-b0ba-e030bdf7e83d","system_id":"levelo_inurba_marseille","lat":43.2803,"lon":5.36949,"is_reserved":false,"is_disabled":false,"rental_uris":{"android":"levelo://app?vid=85a43556-7d17-45ce-b0ba-e030bdf7e83d","ios":"levelo://app?vid=85a43556-7d17-45ce-b0ba-e030bdf7e83d"},"vehicle_type_id":"4","last_reported":1729116512,"current_range_meters":39200,"station_id":"ce4bha12rcd13ifvqef0","pricing_plan_id":"cebpf4jnsgd1na2vs0mg"},{"bike_id":"652b4b19-ced0-467a-a824-4a428e7c5e3f","system_id":"levelo_inurba_marseille","lat":43.30143,"lon":5.37413,"is_reserved":false,"is_disabled":false,"rental_uris":{"android":"levelo://app?vid=652b4b19-ced0-467a-a824-4a428e7c5e3f","ios":"levelo://app?vid=652b4b19-ced0-467a-a824-4a428e7c5e3f"},"vehicle_type_id":"4","last_reported":1729116512,"current_range_meters":38000,"station_id":"ce4bgs92rcd13ifvqcc0","pricing_plan_id":"cebpf4jnsgd1na2vs0mg"},{"bike_id":"ba69c766-7b52-4df2-9a01-12b1972d425e","system_id":"levelo_inurba_marseille","lat":43.33607,"lon":5.41034,"is_reserved":false,"is_disabled":false,"rental_uris":{"android":"levelo://app?vid=ba69c766-7b52-4df2-9a01-12b1972d425e","ios":"levelo://app?vid=ba69c766-7b52-4df2-9a01-12b1972d425e"},"vehicle_type_id":"4","last_reported":1729116512,"current_range_meters":38800,"station_id":"ce4bhqh2rcd13ifvqhmg","pricing_plan_id":"cebpf4jnsgd1na2vs0mg"},{"bike_id":"ea6b55e4-b239-45dd-8e8e-09c03895e920","system_id":"levelo_inurba_marseille","lat":43.29518,"lon":5.39038,"is_reserved":false,"is_disabled":false,"rental_uris":{"android":"levelo://app?vid=ea6b55e4-b239-45dd-8e8e-09c03895e920","ios":"levelo://app?vid=ea6b55e4-b239-45dd-8e8e-09c03895e920"},"vehicle_type_id":"4","last_reported":1729116512,"current_range_meters":32000,"station_id":"ce4bh3p2rcd13ifvqdp0","pricing_plan_id":"cebpf4jnsgd1na2vs0mg"},{"bike_id":"6245334c-81d8-4c5d-a4c0-abdfb1ea8d8f","system_id":"levelo_inurba_marseille","lat":43.31088,"lon":5.42427,"is_reserved":false,"is_disabled":false,"rental_uris":{"android":"levelo://app?vid=6245334c-81d8-4c5d-a4c0-abdfb1ea8d8f","ios":"levelo://app?vid=6245334c-81d8-4c5d-a4c0-abdfb1ea8d8f"},"vehicle_type_id":"4","last_reported":1729116512,"current_range_meters":6000,"station_id":"ce4bhp92rcd13ifvqhag","pricing_plan_id":"cebpf4jnsgd1na2vs0mg"},{"bike_id":"1641b826-604a-4181-8231-dca386f637a6","system_id":"levelo_inurba_marseille","lat":43.2319,"lon":5.35554,"is_reserved":false,"is_disabled":false,"rental_uris":{"android":"levelo://app?vid=1641b826-604a-4181-8231-dca386f637a6","ios":"levelo://app?vid=1641b826-604a-4181-8231-dca386f637a6"},"vehicle_type_id":"4","last_reported":1729116512,"current_range_meters":36800,"station_id":"ce4bhu92rcd13ifvqi70","pricing_plan_id":"cebpf4jnsgd1na2vs0mg"},{"bike_id":"89211ee2-076f-4df3-92bd-cd8885f2e76d","system_id":"levelo_inurba_marseille","lat":43.23193,"lon":5.35557,"is_reserved":false,"is_disabled":false,"rental_uris":{"android":"levelo://app?vid=89211ee2-076f-4df3-92bd-cd8885f2e76d","ios":"levelo://app?vid=89211ee2-076f-4df3-92bd-cd8885f2e76d"},"vehicle_type_id":"4","last_reported":1729116512,"current_range_meters":36400,"station_id":"ce4bhu92rcd13ifvqi70","pricing_plan_id":"cebpf4jnsgd1na2vs0mg"},{"bike_id":"9f889efc-42cd-4cb1-bc9a-8eb4b981bcf1","system_id":"levelo_inurba_marseille","lat":43.2784,"lon":5.39216,"is_reserved":false,"is_disabled":false,"rental_uris":{"android":"levelo://app?vid=9f889efc-42cd-4cb1-bc9a-8eb4b981bcf1","ios":"levelo://app?vid=9f889efc-42cd-4cb1-bc9a-8eb4b981bcf1"},"vehicle_type_id":"4","last_reported":1729116512,"current_range_meters":4000,"station_id":"ce4bhjp2rcd13ifvqga0","pricing_plan_id":"cebpf4jnsgd1na2vs0mg"},{"bike_id":"dc6d4244-7d8b-476a-a645-a5e7fb7ab6b2","system_id":"levelo_inurba_marseille","lat":43.28732,"lon":5.36089,"is_reserved":false,"is_disabled":false,"rental_uris":{"android":"levelo://app?vid=dc6d4244-7d8b-476a-a645-a5e7fb7ab6b2","ios":"levelo://app?vid=dc6d4244-7d8b-476a-a645-a5e7fb7ab6b2"},"vehicle_type_id":"4","last_reported":1729116512,"current_range_meters":3600,"station_id":"cki0cbj6b192h4jlfktg","pricing_plan_id":"cebpf4jnsgd1na2vs0mg"},{"bike_id":"add25e84-d14b-417d-b8f1-58f8574a0bce","system_id":"levelo_inurba_marseille","lat":43.28413,"lon":5.37511,"is_reserved":false,"is_disabled":false,"rental_uris":{"android":"levelo://app?vid=add25e84-d14b-417d-b8f1-58f8574a0bce","ios":"levelo://app?vid=add25e84-d14b-417d-b8f1-58f8574a0bce"},"vehicle_type_id":"4","last_reported":1729116512,"current_range_meters":4800,"station_id":"ce4bh412rcd13ifvqds0","pricing_plan_id":"cebpf4jnsgd1na2vs0mg"},{"bike_id":"3858867d-c9cb-4d7b-aa7b-299254e47ece","system_id":"levelo_inurba_marseille","lat":43.30797,"lon":5.38153,"is_reserved":false,"is_disabled":false,"rental_uris":{"android":"levelo://app?vid=3858867d-c9cb-4d7b-aa7b-299254e47ece","ios":"levelo://app?vid=3858867d-c9cb-4d7b-aa7b-299254e47ece"},"vehicle_type_id":"4","last_reported":1729116512,"current_range_meters":29600,"station_id":"ce4bgt12rcd13ifvqce0","pricing_plan_id":"cebpf4jnsgd1na2vs0mg"},{"bike_id":"b0d32892-91f1-45ad-ba89-968a04f1b24c","system_id":"levelo_inurba_marseille","lat":43.32484,"lon":5.36571,"is_reserved":false,"is_disabled":false,"rental_uris":{"android":"levelo://app?vid=b0d32892-91f1-45ad-ba89-968a04f1b24c","ios":"levelo://app?vid=b0d32892-91f1-45ad-ba89-968a04f1b24c"},"vehicle_type_id":"4","last_reported":1729116512,"current_range_meters":38800,"station_id":"ce4bhs12rcd13ifvqhvg","pricing_plan_id":"cebpf4jnsgd1na2vs0mg"},{"bike_id":"c578b0df-8e72-4cf3-b064-b97180609dff","system_id":"levelo_inurba_marseille","lat":43.23188,"lon":5.39986,"is_reserved":false,"is_disabled":false,"rental_uris":{"android":"levelo://app?vid=c578b0df-8e72-4cf3-b064-b97180609dff","ios":"levelo://app?vid=c578b0df-8e72-4cf3-b064-b97180609dff"},"vehicle_type_id":"4","last_reported":1729116512,"current_range_meters":9200,"station_id":"ce4bhn12rcd13ifvqgqg","pricing_plan_id":"cebpf4jnsgd1na2vs0mg"},{"bike_id":"a1571862-610b-4b21-a251-8793933d3d40","system_id":"levelo_inurba_marseille","lat":43.29518,"lon":5.39402,"is_reserved":false,"is_disabled":false,"rental_uris":{"android":"levelo://app?vid=a1571862-610b-4b21-a251-8793933d3d40","ios":"levelo://app?vid=a1571862-610b-4b21-a251-8793933d3d40"},"vehicle_type_id":"4","last_reported":1729116512,"current_range_meters":39200,"station_id":"ce4bh292rcd13ifvqdf0","pricing_plan_id":"cebpf4jnsgd1na2vs0mg"},{"bike_id":"e1ca0435-626a-4b70-a9bf-9a1427eb9221","system_id":"levelo_inurba_marseille","lat":43.32332,"lon":5.40621,"is_reserved":false,"is_disabled":false,"rental_uris":{"android":"levelo://app?vid=e1ca0435-626a-4b70-a9bf-9a1427eb9221","ios":"levelo://app?vid=e1ca0435-626a-4b70-a9bf-9a1427eb9221"},"vehicle_type_id":"4","last_reported":1729116512,"current_range_meters":16800,"station_id":"ce4bhq92rcd13ifvqhjg","pricing_plan_id":"cebpf4jnsgd1na2vs0mg"},{"bike_id":"afcc66a1-298d-483e-93e3-62b59e7df33e","system_id":"levelo_inurba_marseille","lat":43.29049,"lon":5.39986,"is_reserved":false,"is_disabled":false,"rental_uris":{"android":"levelo://app?vid=afcc66a1-298d-483e-93e3-62b59e7df33e","ios":"levelo://app?vid=afcc66a1-298d-483e-93e3-62b59e7df33e"},"vehicle_type_id":"4","last_reported":1729116512,"current_range_meters":38800,"station_id":"ce4bh392rcd13ifvqdm0","pricing_plan_id":"cebpf4jnsgd1na2vs0mg"},{"bike_id":"65a4f7fb-68f0-47e9-ac16-e9219e58dae5","system_id":"levelo_inurba_marseille","lat":43.3112,"lon":5.37752,"is_reserved":false,"is_disabled":false,"rental_uris":{"android":"levelo://app?vid=65a4f7fb-68f0-47e9-ac16-e9219e58dae5","ios":"levelo://app?vid=65a4f7fb-68f0-47e9-ac16-e9219e58dae5"},"vehicle_type_id":"4","last_reported":1729116512,"current_range_meters":40000,"station_id":"ce4bgt92rcd13ifvqcg0","pricing_plan_id":"cebpf4jnsgd1na2vs0mg"},{"bike_id":"08cbb731-4c64-42d9-baf3-3482b2b03a1e","system_id":"levelo_inurba_marseille","lat":43.28846,"lon":5.39306,"is_reserved":false,"is_disabled":false,"rental_uris":{"android":"levelo://app?vid=08cbb731-4c64-42d9-baf3-3482b2b03a1e","ios":"levelo://app?vid=08cbb731-4c64-42d9-baf3-3482b2b03a1e"},"vehicle_type_id":"4","last_reported":1729116512,"current_range_meters":18800,"station_id":"ce4bh2p2rcd13ifvqdi0","pricing_plan_id":"cebpf4jnsgd1na2vs0mg"},{"bike_id":"448507d1-2887-4b00-b742-a809cd67ef32","system_id":"levelo_inurba_marseille","lat":43.3154,"lon":5.38026,"is_reserved":false,"is_disabled":false,"rental_uris":{"android":"levelo://app?vid=448507d1-2887-4b00-b742-a809cd67ef32","ios":"levelo://app?vid=448507d1-2887-4b00-b742-a809cd67ef32"},"vehicle_type_id":"4","last_reported":1729116512,"current_range_meters":16400,"station_id":"ce4bhsp2rcd13ifvqi50","pricing_plan_id":"cebpf4jnsgd1na2vs0mg"},{"bike_id":"87440bd7-4730-412f-b52f-03b263c3d6ba","system_id":"levelo_inurba_marseille","lat":43.2319,"lon":5.35558,"is_reserved":false,"is_disabled":false,"rental_uris":{"android":"levelo://app?vid=87440bd7-4730-412f-b52f-03b263c3d6ba","ios":"levelo://app?vid=87440bd7-4730-412f-b52f-03b263c3d6ba"},"vehicle_type_id":"4","last_reported":1729116512,"current_range_meters":23200,"station_id":"ce4bhu92rcd13ifvqi70","pricing_plan_id":"cebpf4jnsgd1na2vs0mg"},{"bike_id":"7b98e5cd-0e82-4493-9779-29528e876c23","system_id":"levelo_inurba_marseille","lat":43.3117,"lon":5.38718,"is_reserved":false,"is_disabled":false,"rental_uris":{"android":"levelo://app?vid=7b98e5cd-0e82-4493-9779-29528e876c23","ios":"levelo://app?vid=7b98e5cd-0e82-4493-9779-29528e876c23"},"vehicle_type_id":"4","last_reported":1729116512,"current_range_meters":39200,"station_id":"ce4bgv12rcd13ifvqcp0","pricing_plan_id":"cebpf4jnsgd1na2vs0mg"},{"bike_id":"921b477e-15c8-4404-9f20-1758fb7015e9","system_id":"levelo_inurba_marseille","lat":43.24185,"lon":5.39736,"is_reserved":false,"is_disabled":false,"rental_uris":{"android":"levelo://app?vid=921b477e-15c8-4404-9f20-1758fb7015e9","ios":"levelo://app?vid=921b477e-15c8-4404-9f20-1758fb7015e9"},"vehicle_type_id":"4","last_reported":1729116512,"current_range_meters":23200,"station_id":"ce4bhn12rcd13ifvqgpg","pricing_plan_id":"cebpf4jnsgd1na2vs0mg"},{"bike_id":"cbc0f41c-f406-4437-b8c7-7ccab2e9a106","system_id":"levelo_inurba_marseille","lat":43.28442,"lon":5.39188,"is_reserved":false,"is_disabled":false,"rental_uris":{"android":"levelo://app?vid=cbc0f41c-f406-4437-b8c7-7ccab2e9a106","ios":"levelo://app?vid=cbc0f41c-f406-4437-b8c7-7ccab2e9a106"},"vehicle_type_id":"4","last_reported":1729116512,"current_range_meters":9200,"station_id":"ce4bhoh2rcd13ifvqh5g","pricing_plan_id":"cebpf4jnsgd1na2vs0mg"},{"bike_id":"ff96eee3-1ac8-4888-9ae7-e4b6cc8154af","system_id":"levelo_inurba_marseille","lat":43.33739,"lon":5.3746,"is_reserved":false,"is_disabled":false,"rental_uris":{"android":"levelo://app?vid=ff96eee3-1ac8-4888-9ae7-e4b6cc8154af","ios":"levelo://app?vid=ff96eee3-1ac8-4888-9ae7-e4b6cc8154af"},"vehicle_type_id":"4","last_reported":1729116512,"current_range_meters":27600,"station_id":"","pricing_plan_id":"cebpf4jnsgd1na2vs0mg"},{"bike_id":"4ce84ed3-4a9b-46da-b53e-3703c04d1049","system_id":"levelo_inurba_marseille","lat":43.28657,"lon":5.36343,"is_reserved":false,"is_disabled":false,"rental_uris":{"android":"levelo://app?vid=4ce84ed3-4a9b-46da-b53e-3703c04d1049","ios":"levelo://app?vid=4ce84ed3-4a9b-46da-b53e-3703c04d1049"},"vehicle_type_id":"4","last_reported":1729116512,"current_range_meters":16800,"station_id":"ce4bhah2rcd13ifvqej0","pricing_plan_id":"cebpf4jnsgd1na2vs0mg"},{"bike_id":"2fdcaed5-d419-4b9a-b8e4-1008e362f75e","system_id":"levelo_inurba_marseille","lat":43.28348,"lon":5.38106,"is_reserved":false,"is_disabled":false,"rental_uris":{"android":"levelo://app?vid=2fdcaed5-d419-4b9a-b8e4-1008e362f75e","ios":"levelo://app?vid=2fdcaed5-d419-4b9a-b8e4-1008e362f75e"},"vehicle_type_id":"4","last_reported":1729116512,"current_range_meters":23200,"station_id":"ce4bh412rcd13ifvqdr0","pricing_plan_id":"cebpf4jnsgd1na2vs0mg"},{"bike_id":"929d87fb-691c-4199-8e80-94f3d7b47091","system_id":"levelo_inurba_marseille","lat":43.31678,"lon":5.40466,"is_reserved":false,"is_disabled":false,"rental_uris":{"android":"levelo://app?vid=929d87fb-691c-4199-8e80-94f3d7b47091","ios":"levelo://app?vid=929d87fb-691c-4199-8e80-94f3d7b47091"},"vehicle_type_id":"4","last_reported":1729116512,"current_range_meters":25200,"station_id":"ce4bh012rcd13ifvqd00","pricing_plan_id":"cebpf4jnsgd1na2vs0mg"},{"bike_id":"49c3db25-f66c-4541-ad54-af787a8b9e0e","system_id":"levelo_inurba_marseille","lat":43.27495,"lon":5.42452,"is_reserved":false,"is_disabled":false,"rental_uris":{"android":"levelo://app?vid=49c3db25-f66c-4541-ad54-af787a8b9e0e","ios":"levelo://app?vid=49c3db25-f66c-4541-ad54-af787a8b9e0e"},"vehicle_type_id":"4","last_reported":1729116512,"current_range_meters":9200,"station_id":"ce4bhn92rcd13ifvqgrg","pricing_plan_id":"cebpf4jnsgd1na2vs0mg"},{"bike_id":"f8bf582f-eccc-472c-8d9a-0513345453f5","system_id":"levelo_inurba_marseille","lat":43.29635,"lon":5.40595,"is_reserved":false,"is_disabled":false,"rental_uris":{"android":"levelo://app?vid=f8bf582f-eccc-472c-8d9a-0513345453f5","ios":"levelo://app?vid=f8bf582f-eccc-472c-8d9a-0513345453f5"},"vehicle_type_id":"4","last_reported":1729116512,"current_range_meters":38800,"station_id":"ce4bh0h2rcd13ifvqd60","pricing_plan_id":"cebpf4jnsgd1na2vs0mg"},{"bike_id":"f05c7789-7748-4f87-a7fd-f7d3d84a55ab","system_id":"levelo_inurba_marseille","lat":43.30609,"lon":5.37227,"is_reserved":false,"is_disabled":false,"rental_uris":{"android":"levelo://app?vid=f05c7789-7748-4f87-a7fd-f7d3d84a55ab","ios":"levelo://app?vid=f05c7789-7748-4f87-a7fd-f7d3d84a55ab"},"vehicle_type_id":"4","last_reported":1729116512,"current_range_meters":16400,"station_id":"ce4bgqh2rcd13ifvqc4g","pricing_plan_id":"cebpf4jnsgd1na2vs0mg"},{"bike_id":"3b922f0e-2823-4c39-9e27-d9836eb9e938","system_id":"levelo_inurba_marseille","lat":43.30593,"lon":5.39346,"is_reserved":false,"is_disabled":false,"rental_uris":{"android":"levelo://app?vid=3b922f0e-2823-4c39-9e27-d9836eb9e938","ios":"levelo://app?vid=3b922f0e-2823-4c39-9e27-d9836eb9e938"},"vehicle_type_id":"4","last_reported":1729116512,"current_range_meters":27200,"station_id":"ce4bh0p2rcd13ifvqd80","pricing_plan_id":"cebpf4jnsgd1na2vs0mg"},{"bike_id":"a65351e3-b47e-49e0-8cbf-c0f61530276f","system_id":"levelo_inurba_marseille","lat":43.29076,"lon":5.37169,"is_reserved":false,"is_disabled":false,"rental_uris":{"android":"levelo://app?vid=a65351e3-b47e-49e0-8cbf-c0f61530276f","ios":"levelo://app?vid=a65351e3-b47e-49e0-8cbf-c0f61530276f"},"vehicle_type_id":"4","last_reported":1729116512,"current_range_meters":6400,"station_id":"ce4bh5p2rcd13ifvqe4g","pricing_plan_id":"cebpf4jnsgd1na2vs0mg"},{"bike_id":"7eb5db70-0326-4d4a-b029-c6b7ec8001fa","system_id":"levelo_inurba_marseille","lat":43.2897,"lon":5.37831,"is_reserved":false,"is_disabled":false,"rental_uris":{"android":"levelo://app?vid=7eb5db70-0326-4d4a-b029-c6b7ec8001fa","ios":"levelo://app?vid=7eb5db70-0326-4d4a-b029-c6b7ec8001fa"},"vehicle_type_id":"4","last_reported":1729116512,"current_range_meters":39200,"station_id":"ce4bh9p2rcd13ifvqed0","pricing_plan_id":"cebpf4jnsgd1na2vs0mg"},{"bike_id":"ceb856b6-edc8-48bb-80da-dbc0c9707468","system_id":"levelo_inurba_marseille","lat":43.30547,"lon":5.38424,"is_reserved":false,"is_disabled":false,"rental_uris":{"android":"levelo://app?vid=ceb856b6-edc8-48bb-80da-dbc0c9707468","ios":"levelo://app?vid=ceb856b6-edc8-48bb-80da-dbc0c9707468"},"vehicle_type_id":"4","last_reported":1729116512,"current_range_meters":32800,"station_id":"ce4bgg92rcd13ifvqb30","pricing_plan_id":"cebpf4jnsgd1na2vs0mg"},{"bike_id":"1b20dbd5-2b2d-4144-bc9b-6356f36497ca","system_id":"levelo_inurba_marseille","lat":43.24185,"lon":5.39746,"is_reserved":false,"is_disabled":false,"rental_uris":{"android":"levelo://app?vid=1b20dbd5-2b2d-4144-bc9b-6356f36497ca","ios":"levelo://app?vid=1b20dbd5-2b2d-4144-bc9b-6356f36497ca"},"vehicle_type_id":"4","last_reported":1729116512,"current_range_meters":10000,"station_id":"ce4bhn12rcd13ifvqgpg","pricing_plan_id":"cebpf4jnsgd1na2vs0mg"},{"bike_id":"f45d0f2a-b4df-461e-85f4-434a21fab5ef","system_id":"levelo_inurba_marseille","lat":43.30955,"lon":5.39031,"is_reserved":false,"is_disabled":false,"rental_uris":{"android":"levelo://app?vid=f45d0f2a-b4df-461e-85f4-434a21fab5ef","ios":"levelo://app?vid=f45d0f2a-b4df-461e-85f4-434a21fab5ef"},"vehicle_type_id":"4","last_reported":1729116512,"current_range_meters":7200,"station_id":"ce4bgup2rcd13ifvqco0","pricing_plan_id":"cebpf4jnsgd1na2vs0mg"},{"bike_id":"cc5b7569-0a80-4efc-88b5-0cfec89540cb","system_id":"levelo_inurba_marseille","lat":43.27894,"lon":5.38021,"is_reserved":false,"is_disabled":false,"rental_uris":{"android":"levelo://app?vid=cc5b7569-0a80-4efc-88b5-0cfec89540cb","ios":"levelo://app?vid=cc5b7569-0a80-4efc-88b5-0cfec89540cb"},"vehicle_type_id":"4","last_reported":1729116512,"current_range_meters":35600,"station_id":"ce4bhf92rcd13ifvqf50","pricing_plan_id":"cebpf4jnsgd1na2vs0mg"},{"bike_id":"8031cdf0-96c0-401a-812c-b5eae6bc0857","system_id":"levelo_inurba_marseille","lat":43.28444,"lon":5.39192,"is_reserved":false,"is_disabled":false,"rental_uris":{"android":"levelo://app?vid=8031cdf0-96c0-401a-812c-b5eae6bc0857","ios":"levelo://app?vid=8031cdf0-96c0-401a-812c-b5eae6bc0857"},"vehicle_type_id":"4","last_reported":1729116512,"current_range_meters":33600,"station_id":"ce4bhoh2rcd13ifvqh5g","pricing_plan_id":"cebpf4jnsgd1na2vs0mg"},{"bike_id":"fa2640d8-7171-409c-9ddb-34b3738e688f","system_id":"levelo_inurba_marseille","lat":43.29519,"lon":5.3903,"is_reserved":false,"is_disabled":false,"rental_uris":{"android":"levelo://app?vid=fa2640d8-7171-409c-9ddb-34b3738e688f","ios":"levelo://app?vid=fa2640d8-7171-409c-9ddb-34b3738e688f"},"vehicle_type_id":"4","last_reported":1729116512,"current_range_meters":38000,"station_id":"ce4bh3p2rcd13ifvqdp0","pricing_plan_id":"cebpf4jnsgd1na2vs0mg"},{"bike_id":"292b9425-1372-40d4-bf0a-fe57aa779a41","system_id":"levelo_inurba_marseille","lat":43.23064,"lon":5.35495,"is_reserved":false,"is_disabled":false,"rental_uris":{"android":"levelo://app?vid=292b9425-1372-40d4-bf0a-fe57aa779a41","ios":"levelo://app?vid=292b9425-1372-40d4-bf0a-fe57aa779a41"},"vehicle_type_id":"4","last_reported":1729116512,"current_range_meters":27200,"station_id":"cpo3342slgdg3j2ifvpg","pricing_plan_id":"cebpf4jnsgd1na2vs0mg"},{"bike_id":"ee05f638-6df5-4391-946d-0d99cd4a4030","system_id":"levelo_inurba_marseille","lat":43.31274,"lon":5.40168,"is_reserved":false,"is_disabled":false,"rental_uris":{"android":"levelo://app?vid=ee05f638-6df5-4391-946d-0d99cd4a4030","ios":"levelo://app?vid=ee05f638-6df5-4391-946d-0d99cd4a4030"},"vehicle_type_id":"4","last_reported":1729116512,"current_range_meters":26000,"station_id":"ce4bh092rcd13ifvqd30","pricing_plan_id":"cebpf4jnsgd1na2vs0mg"},{"bike_id":"c9a612ca-09cb-4117-b5ce-1111988e5805","system_id":"levelo_inurba_marseille","lat":43.32473,"lon":5.36561,"is_reserved":false,"is_disabled":false,"rental_uris":{"android":"levelo://app?vid=c9a612ca-09cb-4117-b5ce-1111988e5805","ios":"levelo://app?vid=c9a612ca-09cb-4117-b5ce-1111988e5805"},"vehicle_type_id":"4","last_reported":1729116512,"current_range_meters":2000,"station_id":"ce4bhs12rcd13ifvqhvg","pricing_plan_id":"cebpf4jnsgd1na2vs0mg"},{"bike_id":"94eae76f-9257-483c-89a4-cf0ade9875e4","system_id":"levelo_inurba_marseille","lat":43.28443,"lon":5.39192,"is_reserved":false,"is_disabled":false,"rental_uris":{"android":"levelo://app?vid=94eae76f-9257-483c-89a4-cf0ade9875e4","ios":"levelo://app?vid=94eae76f-9257-483c-89a4-cf0ade9875e4"},"vehicle_type_id":"4","last_reported":1729116512,"current_range_meters":36000,"station_id":"ce4bhoh2rcd13ifvqh5g","pricing_plan_id":"cebpf4jnsgd1na2vs0mg"},{"bike_id":"8518d50a-def0-42c3-8f65-459244226eb7","system_id":"levelo_inurba_marseille","lat":43.3089,"lon":5.39641,"is_reserved":false,"is_disabled":false,"rental_uris":{"android":"levelo://app?vid=8518d50a-def0-42c3-8f65-459244226eb7","ios":"levelo://app?vid=8518d50a-def0-42c3-8f65-459244226eb7"},"vehicle_type_id":"4","last_reported":1729116512,"current_range_meters":9200,"station_id":"ce4bh012rcd13ifvqcv0","pricing_plan_id":"cebpf4jnsgd1na2vs0mg"},{"bike_id":"3948ef85-7a18-43d7-a301-aabc4c951faf","system_id":"levelo_inurba_marseille","lat":43.28703,"lon":5.37382,"is_reserved":false,"is_disabled":false,"rental_uris":{"android":"levelo://app?vid=3948ef85-7a18-43d7-a301-aabc4c951faf","ios":"levelo://app?vid=3948ef85-7a18-43d7-a301-aabc4c951faf"},"vehicle_type_id":"4","last_reported":1729116512,"current_range_meters":30800,"station_id":"ce4bh3p2rcd13ifvqdq0","pricing_plan_id":"cebpf4jnsgd1na2vs0mg"},{"bike_id":"32a580c4-53d6-43f4-8202-300b3057e660","system_id":"levelo_inurba_marseille","lat":43.28422,"lon":5.37514,"is_reserved":false,"is_disabled":false,"rental_uris":{"android":"levelo://app?vid=32a580c4-53d6-43f4-8202-300b3057e660","ios":"levelo://app?vid=32a580c4-53d6-43f4-8202-300b3057e660"},"vehicle_type_id":"4","last_reported":1729116512,"current_range_meters":3600,"station_id":"ce4bh412rcd13ifvqds0","pricing_plan_id":"cebpf4jnsgd1na2vs0mg"},{"bike_id":"49b75a91-d34f-4cd0-a94c-376dd7b8cab3","system_id":"levelo_inurba_marseille","lat":43.27896,"lon":5.38003,"is_reserved":false,"is_disabled":false,"rental_uris":{"android":"levelo://app?vid=49b75a91-d34f-4cd0-a94c-376dd7b8cab3","ios":"levelo://app?vid=49b75a91-d34f-4cd0-a94c-376dd7b8cab3"},"vehicle_type_id":"4","last_reported":1729116512,"current_range_meters":18000,"station_id":"ce4bhf92rcd13ifvqf50","pricing_plan_id":"cebpf4jnsgd1na2vs0mg"},{"bike_id":"9ba3e93e-4e4d-4950-920c-6e9f36a6cdd6","system_id":"levelo_inurba_marseille","lat":43.27075,"lon":5.42279,"is_reserved":false,"is_disabled":false,"rental_uris":{"android":"levelo://app?vid=9ba3e93e-4e4d-4950-920c-6e9f36a6cdd6","ios":"levelo://app?vid=9ba3e93e-4e4d-4950-920c-6e9f36a6cdd6"},"vehicle_type_id":"4","last_reported":1729116512,"current_range_meters":16000,"station_id":"ce4bhk92rcd13ifvqgb0","pricing_plan_id":"cebpf4jnsgd1na2vs0mg"},{"bike_id":"5132a48c-9e44-4c3c-8e65-011f5eaee222","system_id":"levelo_inurba_marseille","lat":43.26928,"lon":5.38916,"is_reserved":false,"is_disabled":false,"rental_uris":{"android":"levelo://app?vid=5132a48c-9e44-4c3c-8e65-011f5eaee222","ios":"levelo://app?vid=5132a48c-9e44-4c3c-8e65-011f5eaee222"},"vehicle_type_id":"4","last_reported":1729116512,"current_range_meters":30000,"station_id":"ce4bhhh2rcd13ifvqfl0","pricing_plan_id":"cebpf4jnsgd1na2vs0mg"},{"bike_id":"2438e5a3-c710-4f23-8964-6e894806fe38","system_id":"levelo_inurba_marseille","lat":43.32661,"lon":5.40984,"is_reserved":false,"is_disabled":false,"rental_uris":{"android":"levelo://app?vid=2438e5a3-c710-4f23-8964-6e894806fe38","ios":"levelo://app?vid=2438e5a3-c710-4f23-8964-6e894806fe38"},"vehicle_type_id":"4","last_reported":1729116512,"current_range_meters":3200,"station_id":"ce4bhpp2rcd13ifvqhgg","pricing_plan_id":"cebpf4jnsgd1na2vs0mg"},{"bike_id":"65406e49-8594-4cfa-8223-dde29203d51c","system_id":"levelo_inurba_marseille","lat":43.27379,"lon":5.36241,"is_reserved":false,"is_disabled":false,"rental_uris":{"android":"levelo://app?vid=65406e49-8594-4cfa-8223-dde29203d51c","ios":"levelo://app?vid=65406e49-8594-4cfa-8223-dde29203d51c"},"vehicle_type_id":"4","last_reported":1729116512,"current_range_meters":6800,"station_id":"ce4bhbh2rcd13ifvqeo0","pricing_plan_id":"cebpf4jnsgd1na2vs0mg"},{"bike_id":"062fd435-e62a-4678-9d8e-1fcfac65814f","system_id":"levelo_inurba_marseille","lat":43.31333,"lon":5.39702,"is_reserved":false,"is_disabled":false,"rental_uris":{"android":"levelo://app?vid=062fd435-e62a-4678-9d8e-1fcfac65814f","ios":"levelo://app?vid=062fd435-e62a-4678-9d8e-1fcfac65814f"},"vehicle_type_id":"4","last_reported":1729116512,"current_range_meters":38800,"station_id":"ce4bgvp2rcd13ifvqcu0","pricing_plan_id":"cebpf4jnsgd1na2vs0mg"},{"bike_id":"ae34c915-6c8c-45f4-bd71-c5975b0e71f4","system_id":"levelo_inurba_marseille","lat":43.31881,"lon":5.40734,"is_reserved":false,"is_disabled":false,"rental_uris":{"android":"levelo://app?vid=ae34c915-6c8c-45f4-bd71-c5975b0e71f4","ios":"levelo://app?vid=ae34c915-6c8c-45f4-bd71-c5975b0e71f4"},"vehicle_type_id":"4","last_reported":1729116512,"current_range_meters":38000,"station_id":"ce4bhq12rcd13ifvqhig","pricing_plan_id":"cebpf4jnsgd1na2vs0mg"},{"bike_id":"064bc3f1-4c7d-4e67-b0b0-c95b28fcb395","system_id":"levelo_inurba_marseille","lat":43.24083,"lon":5.3775,"is_reserved":false,"is_disabled":false,"rental_uris":{"android":"levelo://app?vid=064bc3f1-4c7d-4e67-b0b0-c95b28fcb395","ios":"levelo://app?vid=064bc3f1-4c7d-4e67-b0b0-c95b28fcb395"},"vehicle_type_id":"4","last_reported":1729116512,"current_range_meters":26800,"station_id":"ce4bhnp2rcd13ifvqgvg","pricing_plan_id":"cebpf4jnsgd1na2vs0mg"},{"bike_id":"7e022d50-fee0-48bd-8f68-64779ba65969","system_id":"levelo_inurba_marseille","lat":43.25729,"lon":5.41113,"is_reserved":false,"is_disabled":false,"rental_uris":{"android":"levelo://app?vid=7e022d50-fee0-48bd-8f68-64779ba65969","ios":"levelo://app?vid=7e022d50-fee0-48bd-8f68-64779ba65969"},"vehicle_type_id":"4","last_reported":1729116512,"current_range_meters":4800,"station_id":"ce4bhkp2rcd13ifvqgd0","pricing_plan_id":"cebpf4jnsgd1na2vs0mg"},{"bike_id":"e38fe455-6945-4317-999e-7341140a3fe7","system_id":"levelo_inurba_marseille","lat":43.28702,"lon":5.3998,"is_reserved":false,"is_disabled":false,"rental_uris":{"android":"levelo://app?vid=e38fe455-6945-4317-999e-7341140a3fe7","ios":"levelo://app?vid=e38fe455-6945-4317-999e-7341140a3fe7"},"vehicle_type_id":"4","last_reported":1729116512,"current_range_meters":28000,"station_id":"ce4bho92rcd13ifvqh3g","pricing_plan_id":"cebpf4jnsgd1na2vs0mg"},{"bike_id":"4b39118f-bb62-406b-9203-0b8ddf9c99cc","system_id":"levelo_inurba_marseille","lat":43.22934,"lon":5.35378,"is_reserved":false,"is_disabled":false,"rental_uris":{"android":"levelo://app?vid=4b39118f-bb62-406b-9203-0b8ddf9c99cc","ios":"levelo://app?vid=4b39118f-bb62-406b-9203-0b8ddf9c99cc"},"vehicle_type_id":"4","last_reported":1729116512,"current_range_meters":16000,"station_id":"cpo3532slgdg3j2ikp40","pricing_plan_id":"cebpf4jnsgd1na2vs0mg"},{"bike_id":"6fb38fdf-c674-42f5-b1fa-15ff9bd3a333","system_id":"levelo_inurba_marseille","lat":43.29417,"lon":5.38615,"is_reserved":false,"is_disabled":false,"rental_uris":{"android":"levelo://app?vid=6fb38fdf-c674-42f5-b1fa-15ff9bd3a333","ios":"levelo://app?vid=6fb38fdf-c674-42f5-b1fa-15ff9bd3a333"},"vehicle_type_id":"4","last_reported":1729116512,"current_range_meters":14800,"station_id":"ce4bgt12rcd13ifvqce0","pricing_plan_id":"cebpf4jnsgd1na2vs0mg"},{"bike_id":"15a0fb58-97fc-44a6-a470-84a4ce5fd498","system_id":"levelo_inurba_marseille","lat":43.30601,"lon":5.39357,"is_reserved":false,"is_disabled":false,"rental_uris":{"android":"levelo://app?vid=15a0fb58-97fc-44a6-a470-84a4ce5fd498","ios":"levelo://app?vid=15a0fb58-97fc-44a6-a470-84a4ce5fd498"},"vehicle_type_id":"4","last_reported":1729116512,"current_range_meters":28800,"station_id":"ce4bh0p2rcd13ifvqd80","pricing_plan_id":"cebpf4jnsgd1na2vs0mg"},{"bike_id":"f5fa6493-fc7c-42e4-b3f8-48e1a1dd711c","system_id":"levelo_inurba_marseille","lat":43.31325,"lon":5.39695,"is_reserved":false,"is_disabled":false,"rental_uris":{"android":"levelo://app?vid=f5fa6493-fc7c-42e4-b3f8-48e1a1dd711c","ios":"levelo://app?vid=f5fa6493-fc7c-42e4-b3f8-48e1a1dd711c"},"vehicle_type_id":"4","last_reported":1729116512,"current_range_meters":24000,"station_id":"ce4bgvp2rcd13ifvqcu0","pricing_plan_id":"cebpf4jnsgd1na2vs0mg"},{"bike_id":"a9d80141-cb04-4f88-bcc5-9763572e3517","system_id":"levelo_inurba_marseille","lat":43.23195,"lon":5.35546,"is_reserved":false,"is_disabled":false,"rental_uris":{"android":"levelo://app?vid=a9d80141-cb04-4f88-bcc5-9763572e3517","ios":"levelo://app?vid=a9d80141-cb04-4f88-bcc5-9763572e3517"},"vehicle_type_id":"4","last_reported":1729116512,"current_range_meters":36800,"station_id":"ce4bhu92rcd13ifvqi70","pricing_plan_id":"cebpf4jnsgd1na2vs0mg"},{"bike_id":"2c6e294c-f13d-4321-8a92-e25b2a5b65ea","system_id":"levelo_inurba_marseille","lat":43.28462,"lon":5.35897,"is_reserved":false,"is_disabled":false,"rental_uris":{"android":"levelo://app?vid=2c6e294c-f13d-4321-8a92-e25b2a5b65ea","ios":"levelo://app?vid=2c6e294c-f13d-4321-8a92-e25b2a5b65ea"},"vehicle_type_id":"4","last_reported":1729116512,"current_range_meters":38800,"station_id":"ce4bhah2rcd13ifvqei0","pricing_plan_id":"cebpf4jnsgd1na2vs0mg"},{"bike_id":"1a1e70ec-2d4c-43eb-ade0-2d94ccd2230b","system_id":"levelo_inurba_marseille","lat":43.24666,"lon":5.38166,"is_reserved":false,"is_disabled":false,"rental_uris":{"android":"levelo://app?vid=1a1e70ec-2d4c-43eb-ade0-2d94ccd2230b","ios":"levelo://app?vid=1a1e70ec-2d4c-43eb-ade0-2d94ccd2230b"},"vehicle_type_id":"4","last_reported":1729116512,"current_range_meters":10000,"station_id":"ce4bhih2rcd13ifvqfr0","pricing_plan_id":"cebpf4jnsgd1na2vs0mg"},{"bike_id":"58fc0300-f080-417b-95f8-1703c9f98f7e","system_id":"levelo_inurba_marseille","lat":43.29977,"lon":5.3635,"is_reserved":false,"is_disabled":false,"rental_uris":{"android":"levelo://app?vid=58fc0300-f080-417b-95f8-1703c9f98f7e","ios":"levelo://app?vid=58fc0300-f080-417b-95f8-1703c9f98f7e"},"vehicle_type_id":"4","last_reported":1729116512,"current_range_meters":17200,"station_id":"","pricing_plan_id":"cebpf4jnsgd1na2vs0mg"},{"bike_id":"8dd2e3cf-bd56-4995-8abf-09c0673583de","system_id":"levelo_inurba_marseille","lat":43.28455,"lon":5.35891,"is_reserved":false,"is_disabled":false,"rental_uris":{"android":"levelo://app?vid=8dd2e3cf-bd56-4995-8abf-09c0673583de","ios":"levelo://app?vid=8dd2e3cf-bd56-4995-8abf-09c0673583de"},"vehicle_type_id":"4","last_reported":1729116512,"current_range_meters":38800,"station_id":"ce4bhah2rcd13ifvqei0","pricing_plan_id":"cebpf4jnsgd1na2vs0mg"},{"bike_id":"4f00c2b5-5278-421c-be9b-8b7ab009d1bf","system_id":"levelo_inurba_marseille","lat":43.287933,"lon":5.378372,"is_reserved":false,"is_disabled":false,"rental_uris":{"android":"levelo://app?vid=4f00c2b5-5278-421c-be9b-8b7ab009d1bf","ios":"levelo://app?vid=4f00c2b5-5278-421c-be9b-8b7ab009d1bf"},"vehicle_type_id":"4","last_reported":1729116512,"current_range_meters":3600,"station_id":"","pricing_plan_id":"cebpf4jnsgd1na2vs0mg"},{"bike_id":"2195c9f1-4dc4-4a5d-b2b0-331d0442ad86","system_id":"levelo_inurba_marseille","lat":43.30144,"lon":5.37429,"is_reserved":false,"is_disabled":false,"rental_uris":{"android":"levelo://app?vid=2195c9f1-4dc4-4a5d-b2b0-331d0442ad86","ios":"levelo://app?vid=2195c9f1-4dc4-4a5d-b2b0-331d0442ad86"},"vehicle_type_id":"4","last_reported":1729116512,"current_range_meters":27600,"station_id":"ce4bgs92rcd13ifvqcc0","pricing_plan_id":"cebpf4jnsgd1na2vs0mg"},{"bike_id":"213e22b1-000f-42c2-afd8-74fbd1306890","system_id":"levelo_inurba_marseille","lat":43.29705,"lon":5.36605,"is_reserved":false,"is_disabled":false,"rental_uris":{"android":"levelo://app?vid=213e22b1-000f-42c2-afd8-74fbd1306890","ios":"levelo://app?vid=213e22b1-000f-42c2-afd8-74fbd1306890"},"vehicle_type_id":"4","last_reported":1729116512,"current_range_meters":38000,"station_id":"ce4bgn12rcd13ifvqbt0","pricing_plan_id":"cebpf4jnsgd1na2vs0mg"},{"bike_id":"d9a323b0-ce75-4932-8073-0726874a2cda","system_id":"levelo_inurba_marseille","lat":43.27613,"lon":5.36106,"is_reserved":false,"is_disabled":false,"rental_uris":{"android":"levelo://app?vid=d9a323b0-ce75-4932-8073-0726874a2cda","ios":"levelo://app?vid=d9a323b0-ce75-4932-8073-0726874a2cda"},"vehicle_type_id":"4","last_reported":1729116512,"current_range_meters":39200,"station_id":"ce4bgj92rcd13ifvqbe0","pricing_plan_id":"cebpf4jnsgd1na2vs0mg"},{"bike_id":"0ec05727-e2d2-42fb-a9cf-bb4e194ed6c5","system_id":"levelo_inurba_marseille","lat":43.27957,"lon":5.4104,"is_reserved":false,"is_disabled":false,"rental_uris":{"android":"levelo://app?vid=0ec05727-e2d2-42fb-a9cf-bb4e194ed6c5","ios":"levelo://app?vid=0ec05727-e2d2-42fb-a9cf-bb4e194ed6c5"},"vehicle_type_id":"4","last_reported":1729116512,"current_range_meters":34800,"station_id":"ce4bhnp2rcd13ifvqh0g","pricing_plan_id":"cebpf4jnsgd1na2vs0mg"},{"bike_id":"662f7d3e-6466-41df-9a09-8b17f6c0c918","system_id":"levelo_inurba_marseille","lat":43.30427,"lon":5.39751,"is_reserved":false,"is_disabled":false,"rental_uris":{"android":"levelo://app?vid=662f7d3e-6466-41df-9a09-8b17f6c0c918","ios":"levelo://app?vid=662f7d3e-6466-41df-9a09-8b17f6c0c918"},"vehicle_type_id":"4","last_reported":1729116512,"current_range_meters":29600,"station_id":"ce4bh092rcd13ifvqd20","pricing_plan_id":"cebpf4jnsgd1na2vs0mg"},{"bike_id":"b537f6bc-58ac-4658-9cb8-be833e19fedd","system_id":"levelo_inurba_marseille","lat":43.28439,"lon":5.39197,"is_reserved":false,"is_disabled":false,"rental_uris":{"android":"levelo://app?vid=b537f6bc-58ac-4658-9cb8-be833e19fedd","ios":"levelo://app?vid=b537f6bc-58ac-4658-9cb8-be833e19fedd"},"vehicle_type_id":"4","last_reported":1729116512,"current_range_meters":27600,"station_id":"ce4bhoh2rcd13ifvqh5g","pricing_plan_id":"cebpf4jnsgd1na2vs0mg"},{"bike_id":"7ff36f83-b374-4cdb-a5f2-89010a244830","system_id":"levelo_inurba_marseille","lat":43.2857,"lon":5.39505,"is_reserved":false,"is_disabled":false,"rental_uris":{"android":"levelo://app?vid=7ff36f83-b374-4cdb-a5f2-89010a244830","ios":"levelo://app?vid=7ff36f83-b374-4cdb-a5f2-89010a244830"},"vehicle_type_id":"4","last_reported":1729116512,"current_range_meters":38400,"station_id":"ce4bh292rcd13ifvqdg0","pricing_plan_id":"cebpf4jnsgd1na2vs0mg"},{"bike_id":"d41309ab-1a1f-4395-acaa-455483c3f8e1","system_id":"levelo_inurba_marseille","lat":43.23193,"lon":5.3556,"is_reserved":false,"is_disabled":false,"rental_uris":{"android":"levelo://app?vid=d41309ab-1a1f-4395-acaa-455483c3f8e1","ios":"levelo://app?vid=d41309ab-1a1f-4395-acaa-455483c3f8e1"},"vehicle_type_id":"4","last_reported":1729116512,"current_range_meters":38400,"station_id":"ce4bhu92rcd13ifvqi70","pricing_plan_id":"cebpf4jnsgd1na2vs0mg"},{"bike_id":"1356d4ef-9a94-4462-9c7a-c5993d9eaaa3","system_id":"levelo_inurba_marseille","lat":43.291718,"lon":5.373171,"is_reserved":false,"is_disabled":false,"rental_uris":{"android":"levelo://app?vid=1356d4ef-9a94-4462-9c7a-c5993d9eaaa3","ios":"levelo://app?vid=1356d4ef-9a94-4462-9c7a-c5993d9eaaa3"},"vehicle_type_id":"4","last_reported":1729116512,"current_range_meters":35600,"station_id":"","pricing_plan_id":"cebpf4jnsgd1na2vs0mg"},{"bike_id":"423bc40c-69fa-4410-8647-c9dc4523555a","system_id":"levelo_inurba_marseille","lat":43.25856,"lon":5.39905,"is_reserved":false,"is_disabled":false,"rental_uris":{"android":"levelo://app?vid=423bc40c-69fa-4410-8647-c9dc4523555a","ios":"levelo://app?vid=423bc40c-69fa-4410-8647-c9dc4523555a"},"vehicle_type_id":"4","last_reported":1729116512,"current_range_meters":38800,"station_id":"ce4bhl92rcd13ifvqghg","pricing_plan_id":"cebpf4jnsgd1na2vs0mg"},{"bike_id":"4a4cbc3a-1f7d-476b-ac9c-2dbba0c5a735","system_id":"levelo_inurba_marseille","lat":43.31761,"lon":5.39016,"is_reserved":false,"is_disabled":false,"rental_uris":{"android":"levelo://app?vid=4a4cbc3a-1f7d-476b-ac9c-2dbba0c5a735","ios":"levelo://app?vid=4a4cbc3a-1f7d-476b-ac9c-2dbba0c5a735"},"vehicle_type_id":"4","last_reported":1729116512,"current_range_meters":39200,"station_id":"ce4bhqp2rcd13ifvqhng","pricing_plan_id":"cebpf4jnsgd1na2vs0mg"},{"bike_id":"0cbdff9d-d656-4d6b-aae9-a049bc5605d3","system_id":"levelo_inurba_marseille","lat":43.24387,"lon":5.37054,"is_reserved":false,"is_disabled":false,"rental_uris":{"android":"levelo://app?vid=0cbdff9d-d656-4d6b-aae9-a049bc5605d3","ios":"levelo://app?vid=0cbdff9d-d656-4d6b-aae9-a049bc5605d3"},"vehicle_type_id":"4","last_reported":1729116512,"current_range_meters":29600,"station_id":"ce4bhhh2rcd13ifvqfk0","pricing_plan_id":"cebpf4jnsgd1na2vs0mg"},{"bike_id":"a572217d-c1c6-46bc-95af-7cfb429a3976","system_id":"levelo_inurba_marseille","lat":43.28456,"lon":5.35886,"is_reserved":false,"is_disabled":false,"rental_uris":{"android":"levelo://app?vid=a572217d-c1c6-46bc-95af-7cfb429a3976","ios":"levelo://app?vid=a572217d-c1c6-46bc-95af-7cfb429a3976"},"vehicle_type_id":"4","last_reported":1729116512,"current_range_meters":8800,"station_id":"ce4bhah2rcd13ifvqei0","pricing_plan_id":"cebpf4jnsgd1na2vs0mg"},{"bike_id":"c1bb4de9-51b6-438d-8bcd-ef475a163958","system_id":"levelo_inurba_marseille","lat":43.26201,"lon":5.37927,"is_reserved":false,"is_disabled":false,"rental_uris":{"android":"levelo://app?vid=c1bb4de9-51b6-438d-8bcd-ef475a163958","ios":"levelo://app?vid=c1bb4de9-51b6-438d-8bcd-ef475a163958"},"vehicle_type_id":"4","last_reported":1729116512,"current_range_meters":38800,"station_id":"ce4bhjp2rcd13ifvqg90","pricing_plan_id":"cebpf4jnsgd1na2vs0mg"},{"bike_id":"f3008e6b-9b43-4855-8bb5-32c56dd6e667","system_id":"levelo_inurba_marseille","lat":43.25003,"lon":5.3892,"is_reserved":false,"is_disabled":false,"rental_uris":{"android":"levelo://app?vid=f3008e6b-9b43-4855-8bb5-32c56dd6e667","ios":"levelo://app?vid=f3008e6b-9b43-4855-8bb5-32c56dd6e667"},"vehicle_type_id":"4","last_reported":1729116512,"current_range_meters":17200,"station_id":"ce4bhgp2rcd13ifvqfd0","pricing_plan_id":"cebpf4jnsgd1na2vs0mg"},{"bike_id":"fc08979f-ee4d-4fde-bb82-6a833765d4c6","system_id":"levelo_inurba_marseille","lat":43.27952,"lon":5.41054,"is_reserved":false,"is_disabled":false,"rental_uris":{"android":"levelo://app?vid=fc08979f-ee4d-4fde-bb82-6a833765d4c6","ios":"levelo://app?vid=fc08979f-ee4d-4fde-bb82-6a833765d4c6"},"vehicle_type_id":"4","last_reported":1729116512,"current_range_meters":28400,"station_id":"ce4bhnp2rcd13ifvqh0g","pricing_plan_id":"cebpf4jnsgd1na2vs0mg"},{"bike_id":"033a7f68-f273-426e-84a9-8a3b2c56f6f5","system_id":"levelo_inurba_marseille","lat":43.35096,"lon":5.36807,"is_reserved":false,"is_disabled":false,"rental_uris":{"android":"levelo://app?vid=033a7f68-f273-426e-84a9-8a3b2c56f6f5","ios":"levelo://app?vid=033a7f68-f273-426e-84a9-8a3b2c56f6f5"},"vehicle_type_id":"4","last_reported":1729116512,"current_range_meters":9600,"station_id":"","pricing_plan_id":"cebpf4jnsgd1na2vs0mg"},