{"last_updated":1741097372,"ttl":60,"version":"2.2","data":{"bikes":[{"bike_id":"d59007ad-37ec-49d7-af10-470cc576c8d3","system_id":"levelo_inurba_marseille","lat":43.28845,"lon":5.39328,"is_reserved":false,"is_disabled":false,"rental_uris":{"android":"levelo://app?vid=d59007ad-37ec-49d7-af10-470cc576c8d3","ios":"levelo://app?vid=d59007ad-37ec-49d7-af10-470cc576c8d3"},"vehicle_type_id":"4","last_reported":1741097372,"current_range_meters":2800,"station_id":"ce4bh2p2rcd13ifvqdi0","pricing_plan_id":"cebpf4jnsgd1na2vs0mg"},{"bike_id":"eb3477d3-e423-4bfa-8137-9e0de0b3c3a7","system_id":"levelo_inurba_marseille","lat":43.27052,"lon":5.40265,"is_reserved":false,"is_disabled":false,"rental_uris":{"android":"levelo://app?vid=eb3477d3-e423-4bfa-8137-9e0de0b3c3a7","ios":"levelo://app?vid=eb3477d3-e423-4bfa-8137-9e0de0b3c3a7"},"vehicle_type_id":"4","last_reported":1741097372,"current_range_meters":3200,"station_id":"ce4bhk92rcd13ifvqgc0","pricing_plan_id":"cebpf4jnsgd1na2vs0mg"},{"bike_id":"38178cec-d94f-410e-885a-f31f98c92e3d","system_id":"levelo_inurba_marseille","lat":43.28456,"lon":5.35886,"is_reserved":false,"is_disabled":false,"rental_uris":{"android":"levelo://app?vid=38178cec-d94f-410e-885a-f31f98c92e3d","ios":"levelo://app?vid=38178cec-d94f-410e-885a-f31f98c92e3d"},"vehicle_type_id":"4","last_reported":1741097372,"current_range_meters":3200,"station_id":"ce4bhah2rcd13ifvqei0","pricing_plan_id":"cebpf4jnsgd1na2vs0mg"},{"bike_id":"4cc02c62-6a03-433e-85d1-a46998cb476e","system_id":"levelo_inurba_marseille","lat":43.268,"lon":5.40267,"is_reserved":false,"is_disabled":false,"rental_uris":{"android":"levelo://app?vid=4cc02c62-6a03-433e-85d1-a46998cb476e","ios":"levelo://app?vid=4cc02c62-6a03-433e-85d1-a46998cb476e"},"vehicle_type_id":"4","last_reported":1741097372,"current_range_meters":3600,"station_id":"ce501612rcd8frsf0b60","pricing_plan_id":"cebpf4jnsgd1na2vs0mg"},{"bike_id":"73681137-6538-4684-87ec-aa9b29720d1e","system_id":"levelo_inurba_marseille","lat":43.23203,"lon":5.35537,"is_reserved":false,"is_disabled":true,"rental_uris":{"android":"levelo://app?vid=73681137-6538-4684-87ec-aa9b29720d1e","ios":"levelo://app?vid=73681137-6538-4684-87ec-aa9b29720d1e"},"vehicle_type_id":"4","last_reported":1741097372,"current_range_meters":3600,"station_id":"ce4bhu92rcd13ifvqi70","pricing_plan_id":"cebpf4jnsgd1na2vs0mg"},{"bike_id":"99ad0111-089e-4d45-a3ba-6142c4fe7cdc","system_id":"levelo_inurba_marseille","lat":43.29575,"lon":5.37531,"is_reserved":false,"is_disabled":false,"rental_uris":{"android":"levelo://app?vid=99ad0111-089e-4d45-a3ba-6142c4fe7cdc","ios":"levelo://app?vid=99ad0111-089e-4d45-a3ba-6142c4fe7cdc"},"vehicle_type_id":"4","last_reported":1741097372,"current_range_meters":4000,"station_id":"ce4bgh92rcd13ifvqb50","pricing_plan_id":"cebpf4jnsgd1na2vs0mg"},{"bike_id":"e33757fa-8471-433d-b8ec-f959ff3b2dd9","system_id":"levelo_inurba_marseille","lat":43.26574,"lon":5.39037,"is_reserved":false,"is_disabled":false,"rental_uris":{"android":"levelo://app?vid=e33757fa-8471-433d-b8ec-f959ff3b2dd9","ios":"levelo://app?vid=e33757fa-8471-433d-b8ec-f959ff3b2dd9"},"vehicle_type_id":"4","last_reported":1741097372,"current_range_meters":4000,"station_id":"ce4bhe12rcd13ifvqf30","pricing_plan_id":"cebpf4jnsgd1na2vs0mg"},{"bike_id":"f3bed0aa-b267-4140-bfcb-0b7418ea4742","system_id":"levelo_inurba_marseille","lat":43.26573,"lon":5.39004,"is_reserved":false,"is_disabled":false,"rental_uris":{"android":"levelo://app?vid=f3bed0aa-b267-4140-bfcb-0b7418ea4742","ios":"levelo://app?vid=f3bed0aa-b267-4140-bfcb-0b7418ea4742"},"vehicle_type_id":"4","last_reported":1741097372,"current_range_meters":4000,"station_id":"ce4bhe12rcd13ifvqf30","pricing_plan_id":"cebpf4jnsgd1na2vs0mg"},{"bike_id":"09ac88d6-8bbb-475f-af23-926ac10f1a1d","system_id":"levelo_inurba_marseille","lat":43.28087,"lon":5.37829,"is_reserved":false,"is_disabled":false,"rental_uris":{"android":"levelo://app?vid=09ac88d6-8bbb-475f-af23-926ac10f1a1d","ios":"levelo://app?vid=09ac88d6-8bbb-475f-af23-926ac10f1a1d"},"vehicle_type_id":"4","last_reported":1741097372,"current_range_meters":4400,"station_id":"ce4bha12rcd13ifvqee0","pricing_plan_id":"cebpf4jnsgd1na2vs0mg"},{"bike_id":"9db49163-1bcf-4cb4-975b-b1e9ddf4e6d9","system_id":"levelo_inurba_marseille","lat":43.27173,"lon":5.41006,"is_reserved":false,"is_disabled":false,"rental_uris":{"android":"levelo://app?vid=9db49163-1bcf-4cb4-975b-b1e9ddf4e6d9","ios":"levelo://app?vid=9db49163-1bcf-4cb4-975b-b1e9ddf4e6d9"},"vehicle_type_id":"4","last_reported":1741097372,"current_range_meters":4400,"station_id":"ce4bhl12rcd13ifvqgf0","pricing_plan_id":"cebpf4jnsgd1na2vs0mg"},{"bike_id":"f381c9bd-14fa-41ab-b589-3ecebd6dfe48","system_id":"levelo_inurba_marseille","lat":43.3237,"lon":5.36762,"is_reserved":false,"is_disabled":false,"rental_uris":{"android":"levelo://app?vid=f381c9bd-14fa-41ab-b589-3ecebd6dfe48","ios":"levelo://app?vid=f381c9bd-14fa-41ab-b589-3ecebd6dfe48"},"vehicle_type_id":"4","last_reported":1741097372,"current_range_meters":4400,"station_id":"ce4bhsh2rcd13ifvqi2g","pricing_plan_id":"cebpf4jnsgd1na2vs0mg"},{"bike_id":"1ebe9144-db88-4911-af4d-8682ee25c502","system_id":"levelo_inurba_marseille","lat":43.24172,"lon":5.36394,"is_reserved":false,"is_disabled":false,"rental_uris":{"android":"levelo://app?vid=1ebe9144-db88-4911-af4d-8682ee25c502","ios":"levelo://app?vid=1ebe9144-db88-4911-af4d-8682ee25c502"},"vehicle_type_id":"4","last_reported":1741097372,"current_range_meters":4800,"station_id":"cpo36qri1sfpv3e86is0","pricing_plan_id":"cebpf4jnsgd1na2vs0mg"},{"bike_id":"2d4e1c3e-7392-4616-b3cf-646345a17bd5","system_id":"levelo_inurba_marseille","lat":43.29546,"lon":5.4228,"is_reserved":false,"is_disabled":true,"rental_uris":{"android":"levelo://app?vid=2d4e1c3e-7392-4616-b3cf-646345a17bd5","ios":"levelo://app?vid=2d4e1c3e-7392-4616-b3cf-646345a17bd5"},"vehicle_type_id":"4","last_reported":1741097372,"current_range_meters":4800,"station_id":"ce4bhph2rcd13ifvqhdg","pricing_plan_id":"cebpf4jnsgd1na2vs0mg"},{"bike_id":"94a046a9-9f2c-45ce-b050-acd1ecac7376","system_id":"levelo_inurba_marseille","lat":43.23192,"lon":5.35554,"is_reserved":false,"is_disabled":false,"rental_uris":{"android":"levelo://app?vid=94a046a9-9f2c-45ce-b050-acd1ecac7376","ios":"levelo://app?vid=94a046a9-9f2c-45ce-b050-acd1ecac7376"},"vehicle_type_id":"4","last_reported":1741097372,"current_range_meters":4800,"station_id":"ce4bhu92rcd13ifvqi70","pricing_plan_id":"cebpf4jnsgd1na2vs0mg"},{"bike_id":"00b4c22e-0b72-426f-835e-0a5d4fbf168a","system_id":"levelo_inurba_marseille","lat":43.2866,"lon":5.38336,"is_reserved":false,"is_disabled":false,"rental_uris":{"android":"levelo://app?vid=00b4c22e-0b72-426f-835e-0a5d4fbf168a","ios":"levelo://app?vid=00b4c22e-0b72-426f-835e-0a5d4fbf168a"},"vehicle_type_id":"4","last_reported":1741097372,"current_range_meters":4800,"station_id":"ce4bhs12rcd13ifvqhvg","pricing_plan_id":"cebpf4jnsgd1na2vs0mg"},{"bike_id":"16d03f73-d4e4-4e41-940d-c993ab74c408","system_id":"levelo_inurba_marseille","lat":43.313354,"lon":5.367216,"is_reserved":false,"is_disabled":false,"rental_uris":{"android":"levelo://app?vid=16d03f73-d4e4-4e41-940d-c993ab74c408","ios":"levelo://app?vid=16d03f73-d4e4-4e41-940d-c993ab74c408"},"vehicle_type_id":"4","last_reported":1741097372,"current_range_meters":5600,"station_id":"ce4bgr92rcd13ifvqc6g","pricing_plan_id":"cebpf4jnsgd1na2vs0mg"},{"bike_id":"88aa2235-1d7e-44a7-8b05-f9b709b305e8","system_id":"levelo_inurba_marseille","lat":43.28454,"lon":5.35894,"is_reserved":false,"is_disabled":false,"rental_uris":{"android":"levelo://app?vid=88aa2235-1d7e-44a7-8b05-f9b709b305e8","ios":"levelo://app?vid=88aa2235-1d7e-44a7-8b05-f9b709b305e8"},"vehicle_type_id":"4","last_reported":1741097372,"current_range_meters":6400,"station_id":"ce4bhah2rcd13ifvqei0","pricing_plan_id":"cebpf4jnsgd1na2vs0mg"},{"bike_id":"40d83dd5-c80f-46ff-bde0-4625fef2c181","system_id":"levelo_inurba_marseille","lat":43.28848,"lon":5.39316,"is_reserved":false,"is_disabled":false,"rental_uris":{"android":"levelo://app?vid=40d83dd5-c80f-46ff-bde0-4625fef2c181","ios":"levelo://app?vid=40d83dd5-c80f-46ff-bde0-4625fef2c181"},"vehicle_type_id":"4","last_reported":1741097372,"current_range_meters":5600,"station_id":"ce4bh2p2rcd13ifvqdi0","pricing_plan_id":"cebpf4jnsgd1na2vs0mg"},{"bike_id":"22a42445-ea5f-4116-ba23-1aaadec49bb4","system_id":"levelo_inurba_marseille","lat":43.28454,"lon":5.35894,"is_reserved":false,"is_disabled":false,"rental_uris":{"android":"levelo://app?vid=22a42445-ea5f-4116-ba23-1aaadec49bb4","ios":"levelo://app?vid=22a42445-ea5f-4116-ba23-1aaadec49bb4"},"vehicle_type_id":"4","last_reported":1741097372,"current_range_meters":5600,"station_id":"ce4bhah2rcd13ifvqei0","pricing_plan_id":"cebpf4jnsgd1na2vs0mg"},{"bike_id":"0427f646-e4a0-42d1-8138-294cce7dc368","system_id":"levelo_inurba_marseille","lat":43.30777,"lon":5.37663,"is_reserved":false,"is_disabled":false,"rental_uris":{"android":"levelo://app?vid=0427f646-e4a0-42d1-8138-294cce7dc368","ios":"levelo://app?vid=0427f646-e4a0-42d1-8138-294cce7dc368"},"vehicle_type_id":"4","last_reported":1741097372,"current_range_meters":5600,"station_id":"","pricing_plan_id":"cebpf4jnsgd1na2vs0mg"},{"bike_id":"c251e6a6-8909-420a-80f2-aeb308dca784","system_id":"levelo_inurba_marseille","lat":43.29275,"lon":5.40111,"is_reserved":false,"is_disabled":false,"rental_uris":{"android":"levelo://app?vid=c251e6a6-8909-420a-80f2-aeb308dca784","ios":"levelo://app?vid=c251e6a6-8909-420a-80f2-aeb308dca784"},"vehicle_type_id":"4","last_reported":1741097372,"current_range_meters":6000,"station_id":"ce4bh312rcd13ifvqdk0","pricing_plan_id":"cebpf4jnsgd1na2vs0mg"},{"bike_id":"74d12878-9dc8-477e-8c39-4948f54dc89f","system_id":"levelo_inurba_marseille","lat":43.29257,"lon":5.38454,"is_reserved":false,"is_disabled":false,"rental_uris":{"android":"levelo://app?vid=74d12878-9dc8-477e-8c39-4948f54dc89f","ios":"levelo://app?vid=74d12878-9dc8-477e-8c39-4948f54dc89f"},"vehicle_type_id":"4","last_reported":1741097372,"current_range_meters":6000,"station_id":"ce4bh692rcd13ifvqea0","pricing_plan_id":"cebpf4jnsgd1na2vs0mg"},{"bike_id":"f40c9b99-9823-4e07-8753-3e3766094939","system_id":"levelo_inurba_marseille","lat":43.29875,"lon":5.39733,"is_reserved":false,"is_disabled":false,"rental_uris":{"android":"levelo://app?vid=f40c9b99-9823-4e07-8753-3e3766094939","ios":"levelo://app?vid=f40c9b99-9823-4e07-8753-3e3766094939"},"vehicle_type_id":"4","last_reported":1741097372,"current_range_meters":6000,"station_id":"ce4bh0h2rcd13ifvqd50","pricing_plan_id":"cebpf4jnsgd1na2vs0mg"},{"bike_id":"5e343b66-9b3f-4478-823a-bcf596cb163d","system_id":"levelo_inurba_marseille","lat":43.30415,"lon":5.41297,"is_reserved":false,"is_disabled":false,"rental_uris":{"android":"levelo://app?vid=5e343b66-9b3f-4478-823a-bcf596cb163d","ios":"levelo://app?vid=5e343b66-9b3f-4478-823a-bcf596cb163d"},"vehicle_type_id":"4","last_reported":1741097372,"current_range_meters":6000,"station_id":"ce4bhop2rcd13ifvqh8g","pricing_plan_id":"cebpf4jnsgd1na2vs0mg"},{"bike_id":"56beb6e4-d867-4dda-87d4-855cd34962a5","system_id":"levelo_inurba_marseille","lat":43.29094,"lon":5.38189,"is_reserved":false,"is_disabled":true,"rental_uris":{"android":"levelo://app?vid=56beb6e4-d867-4dda-87d4-855cd34962a5","ios":"levelo://app?vid=56beb6e4-d867-4dda-87d4-855cd34962a5"},"vehicle_type_id":"4","last_reported":1741097372,"current_range_meters":6000,"station_id":"ce4bh512rcd13ifvqe2g","pricing_plan_id":"cebpf4jnsgd1na2vs0mg"},{"bike_id":"8a6b9671-76fd-4131-bfc8-58dba74e3691","system_id":"levelo_inurba_marseille","lat":43.34161,"lon":5.40899,"is_reserved":false,"is_disabled":false,"rental_uris":{"android":"levelo://app?vid=8a6b9671-76fd-4131-bfc8-58dba74e3691","ios":"levelo://app?vid=8a6b9671-76fd-4131-bfc8-58dba74e3691"},"vehicle_type_id":"4","last_reported":1741097372,"current_range_meters":6400,"station_id":"ce4bhqh2rcd13ifvqhlg","pricing_plan_id":"cebpf4jnsgd1na2vs0mg"},{"bike_id":"f529156e-5e03-4074-aaba-cc0ac2fc4171","system_id":"levelo_inurba_marseille","lat":43.28417,"lon":5.37511,"is_reserved":false,"is_disabled":false,"rental_uris":{"android":"levelo://app?vid=f529156e-5e03-4074-aaba-cc0ac2fc4171","ios":"levelo://app?vid=f529156e-5e03-4074-aaba-cc0ac2fc4171"},"vehicle_type_id":"4","last_reported":1741097372,"current_range_meters":6400,"station_id":"ce4bh412rcd13ifvqds0","pricing_plan_id":"cebpf4jnsgd1na2vs0mg"},{"bike_id":"90a47c55-7d0c-4b6b-94e5-81e21155469e","system_id":"levelo_inurba_marseille","lat":43.23151,"lon":5.43725,"is_reserved":false,"is_disabled":false,"rental_uris":{"android":"levelo://app?vid=90a47c55-7d0c-4b6b-94e5-81e21155469e","ios":"levelo://app?vid=90a47c55-7d0c-4b6b-94e5-81e21155469e"},"vehicle_type_id":"4","last_reported":1741097372,"current_range_meters":6400,"station_id":"ce4bhmp2rcd13ifvqgog","pricing_plan_id":"cebpf4jnsgd1na2vs0mg"},{"bike_id":"0ffd8aab-92fe-4a39-9f31-f7c7bf90e861","system_id":"levelo_inurba_marseille","lat":43.3027,"lon":5.37723,"is_reserved":false,"is_disabled":false,"rental_uris":{"android":"levelo://app?vid=0ffd8aab-92fe-4a39-9f31-f7c7bf90e861","ios":"levelo://app?vid=0ffd8aab-92fe-4a39-9f31-f7c7bf90e861"},"vehicle_type_id":"4","last_reported":1741097372,"current_range_meters":6400,"station_id":"ce4bguh2rcd13ifvqcj0","pricing_plan_id":"cebpf4jnsgd1na2vs0mg"},{"bike_id":"dbc4a1af-7a48-40a6-9417-7a5efc40d46a","system_id":"levelo_inurba_marseille","lat":43.28267,"lon":5.35071,"is_reserved":false,"is_disabled":false,"rental_uris":{"android":"levelo://app?vid=dbc4a1af-7a48-40a6-9417-7a5efc40d46a","ios":"levelo://app?vid=dbc4a1af-7a48-40a6-9417-7a5efc40d46a"},"vehicle_type_id":"4","last_reported":1741097372,"current_range_meters":6400,"station_id":"ce4bhbp2rcd13ifvqerg","pricing_plan_id":"cebpf4jnsgd1na2vs0mg"},{"bike_id":"69539ccb-ca63-4555-bd43-968ddad5c3c6","system_id":"levelo_inurba_marseille","lat":43.25022,"lon":5.38923,"is_reserved":false,"is_disabled":false,"rental_uris":{"android":"levelo://app?vid=69539ccb-ca63-4555-bd43-968ddad5c3c6","ios":"levelo://app?vid=69539ccb-ca63-4555-bd43-968ddad5c3c6"},"vehicle_type_id":"4","last_reported":1741097372,"current_range_meters":6400,"station_id":"ce4bhgp2rcd13ifvqfd0","pricing_plan_id":"cebpf4jnsgd1na2vs0mg"},{"bike_id":"68f2cf00-5830-4f85-b26c-e986e321ba3b","system_id":"levelo_inurba_marseille","lat":43.25078,"lon":5.39515,"is_reserved":false,"is_disabled":false,"rental_uris":{"android":"levelo://app?vid=68f2cf00-5830-4f85-b26c-e986e321ba3b","ios":"levelo://app?vid=68f2cf00-5830-4f85-b26c-e986e321ba3b"},"vehicle_type_id":"4","last_reported":1741097372,"current_range_meters":6800,"station_id":"ce4bhm12rcd13ifvqgkg","pricing_plan_id":"cebpf4jnsgd1na2vs0mg"},{"bike_id":"2153cca3-a190-4982-9370-a46f24ffe4b0","system_id":"levelo_inurba_marseille","lat":43.27052,"lon":5.40256,"is_reserved":false,"is_disabled":false,"rental_uris":{"android":"levelo://app?vid=2153cca3-a190-4982-9370-a46f24ffe4b0","ios":"levelo://app?vid=2153cca3-a190-4982-9370-a46f24ffe4b0"},"vehicle_type_id":"4","last_reported":1741097372,"current_range_meters":6800,"station_id":"ce4bhk92rcd13ifvqgc0","pricing_plan_id":"cebpf4jnsgd1na2vs0mg"},{"bike_id":"1e55b8d1-c976-444d-9481-763ced170b7c","system_id":"levelo_inurba_marseille","lat":43.301311,"lon":5.398589,"is_reserved":false,"is_disabled":false,"rental_uris":{"android":"levelo://app?vid=1e55b8d1-c976-444d-9481-763ced170b7c","ios":"levelo://app?vid=1e55b8d1-c976-444d-9481-763ced170b7c"},"vehicle_type_id":"4","last_reported":1741097372,"current_range_meters":6800,"station_id":"ce4bh0h2rcd13ifvqd40","pricing_plan_id":"cebpf4jnsgd1na2vs0mg"},{"bike_id":"cb517f75-ae80-4466-ad7c-2981c272b80f","system_id":"levelo_inurba_marseille","lat":43.23961,"lon":5.36634,"is_reserved":false,"is_disabled":false,"rental_uris":{"android":"levelo://app?vid=cb517f75-ae80-4466-ad7c-2981c272b80f","ios":"levelo://app?vid=cb517f75-ae80-4466-ad7c-2981c272b80f"},"vehicle_type_id":"4","last_reported":1741097372,"current_range_meters":6800,"station_id":"ce4bhi12rcd13ifvqfp0","pricing_plan_id":"cebpf4jnsgd1na2vs0mg"},{"bike_id":"4e9114a6-9327-4619-b114-00e483817824","system_id":"levelo_inurba_marseille","lat":43.23978,"lon":5.36612,"is_reserved":false,"is_disabled":false,"rental_uris":{"android":"levelo://app?vid=4e9114a6-9327-4619-b114-00e483817824","ios":"levelo://app?vid=4e9114a6-9327-4619-b114-00e483817824"},"vehicle_type_id":"4","last_reported":1741097372,"current_range_meters":6800,"station_id":"","pricing_plan_id":"cebpf4jnsgd1na2vs0mg"},{"bike_id":"bc0d733a-761d-421f-a1de-1712be64d328","system_id":"levelo_inurba_marseille","lat":43.23186,"lon":5.39987,"is_reserved":false,"is_disabled":false,"rental_uris":{"android":"levelo://app?vid=bc0d733a-761d-421f-a1de-1712be64d328","ios":"levelo://app?vid=bc0d733a-761d-421f-a1de-1712be64d328"},"vehicle_type_id":"4","last_reported":1741097372,"current_range_meters":6800,"station_id":"ce4bhn12rcd13ifvqgqg","pricing_plan_id":"cebpf4jnsgd1na2vs0mg"},{"bike_id":"3fdc9a7e-2885-4db2-b302-c77e590b4771","system_id":"levelo_inurba_marseille","lat":43.31025,"lon":5.37559,"is_reserved":false,"is_disabled":false,"rental_uris":{"android":"levelo://app?vid=3fdc9a7e-2885-4db2-b302-c77e590b4771","ios":"levelo://app?vid=3fdc9a7e-2885-4db2-b302-c77e590b4771"},"vehicle_type_id":"4","last_reported":1741097372,"current_range_meters":6800,"station_id":"","pricing_plan_id":"cebpf4jnsgd1na2vs0mg"},{"bike_id":"d92ef798-9954-4145-8001-398ac411a082","system_id":"levelo_inurba_marseille","lat":43.28102,"lon":5.37841,"is_reserved":false,"is_disabled":false,"rental_uris":{"android":"levelo://app?vid=d92ef798-9954-4145-8001-398ac411a082","ios":"levelo://app?vid=d92ef798-9954-4145-8001-398ac411a082"},"vehicle_type_id":"4","last_reported":1741097372,"current_range_meters":7200,"station_id":"ce4bha12rcd13ifvqee0","pricing_plan_id":"cebpf4jnsgd1na2vs0mg"},{"bike_id":"ce8ef3d2-07e3-4512-8813-bcde53a01429","system_id":"levelo_inurba_marseille","lat":43.24188,"lon":5.36374,"is_reserved":false,"is_disabled":false,"rental_uris":{"android":"levelo://app?vid=ce8ef3d2-07e3-4512-8813-bcde53a01429","ios":"levelo://app?vid=ce8ef3d2-07e3-4512-8813-bcde53a01429"},"vehicle_type_id":"4","last_reported":1741097372,"current_range_meters":7200,"station_id":"cpo36qri1sfpv3e86is0","pricing_plan_id":"cebpf4jnsgd1na2vs0mg"},{"bike_id":"8853f3b9-20a3-4480-9c1d-81721e27d9f9","system_id":"levelo_inurba_marseille","lat":43.26083,"lon":5.39375,"is_reserved":false,"is_disabled":false,"rental_uris":{"android":"levelo://app?vid=8853f3b9-20a3-4480-9c1d-81721e27d9f9","ios":"levelo://app?vid=8853f3b9-20a3-4480-9c1d-81721e27d9f9"},"vehicle_type_id":"4","last_reported":1741097372,"current_range_meters":7200,"station_id":"ce4bhh92rcd13ifvqfj0","pricing_plan_id":"cebpf4jnsgd1na2vs0mg"},{"bike_id":"207ebb89-163d-4b35-9780-26efca1e5e05","system_id":"levelo_inurba_marseille","lat":43.30901,"lon":5.37193,"is_reserved":false,"is_disabled":false,"rental_uris":{"android":"levelo://app?vid=207ebb89-163d-4b35-9780-26efca1e5e05","ios":"levelo://app?vid=207ebb89-163d-4b35-9780-26efca1e5e05"},"vehicle_type_id":"4","last_reported":1741097372,"current_range_meters":7200,"station_id":"ce4bguh2rcd13ifvqckg","pricing_plan_id":"cebpf4jnsgd1na2vs0mg"},{"bike_id":"d20d4ac0-3e72-4d7c-b740-440a0b15f885","system_id":"levelo_inurba_marseille","lat":43.24177,"lon":5.3971,"is_reserved":false,"is_disabled":false,"rental_uris":{"android":"levelo://app?vid=d20d4ac0-3e72-4d7c-b740-440a0b15f885","ios":"levelo://app?vid=d20d4ac0-3e72-4d7c-b740-440a0b15f885"},"vehicle_type_id":"4","last_reported":1741097372,"current_range_meters":7200,"station_id":"ce4bhn12rcd13ifvqgpg","pricing_plan_id":"cebpf4jnsgd1na2vs0mg"},{"bike_id":"8a7f7dec-8ac4-4ac7-9f33-b53621825235","system_id":"levelo_inurba_marseille","lat":43.27833,"lon":5.40719,"is_reserved":false,"is_disabled":false,"rental_uris":{"android":"levelo://app?vid=8a7f7dec-8ac4-4ac7-9f33-b53621825235","ios":"levelo://app?vid=8a7f7dec-8ac4-4ac7-9f33-b53621825235"},"vehicle_type_id":"4","last_reported":1741097372,"current_range_meters":7200,"station_id":"ce4bhnh2rcd13ifvqgtg","pricing_plan_id":"cebpf4jnsgd1na2vs0mg"},{"bike_id":"814c0a46-f261-460d-aff2-4ded48aacf69","system_id":"levelo_inurba_marseille","lat":43.28612,"lon":5.37069,"is_reserved":false,"is_disabled":false,"rental_uris":{"android":"levelo://app?vid=814c0a46-f261-460d-aff2-4ded48aacf69","ios":"levelo://app?vid=814c0a46-f261-460d-aff2-4ded48aacf69"},"vehicle_type_id":"4","last_reported":1741097372,"current_range_meters":7200,"station_id":"ce4bht12rcd13ifvqi60","pricing_plan_id":"cebpf4jnsgd1na2vs0mg"},{"bike_id":"f39b30fc-9959-473d-a02f-d63e46941d96","system_id":"levelo_inurba_marseille","lat":43.29572,"lon":5.39984,"is_reserved":false,"is_disabled":false,"rental_uris":{"android":"levelo://app?vid=f39b30fc-9959-473d-a02f-d63e46941d96","ios":"levelo://app?vid=f39b30fc-9959-473d-a02f-d63e46941d96"},"vehicle_type_id":"4","last_reported":1741097372,"current_range_meters":4400,"station_id":"ce4bh312rcd13ifvqdj0","pricing_plan_id":"cebpf4jnsgd1na2vs0mg"},{"bike_id":"604a2051-4916-4a21-97fc-d1f4532cfc04","system_id":"levelo_inurba_marseille","lat":43.23964,"lon":5.36644,"is_reserved":false,"is_disabled":false,"rental_uris":{"android":"levelo://app?vid=604a2051-4916-4a21-97fc-d1f4532cfc04","ios":"levelo://app?vid=604a2051-4916-4a21-97fc-d1f4532cfc04"},"vehicle_type_id":"4","last_reported":1741097372,"current_range_meters":7200,"station_id":"ce4bhi12rcd13ifvqfp0","pricing_plan_id":"cebpf4jnsgd1na2vs0mg"},{"bike_id":"5d24c2bb-ede2-4c81-a63d-6bda6dbdd3be","system_id":"levelo_inurba_marseille","lat":43.28352,"lon":5.38119,"is_reserved":false,"is_disabled":false,"rental_uris":{"android":"levelo://app?vid=5d24c2bb-ede2-4c81-a63d-6bda6dbdd3be","ios":"levelo://app?vid=5d24c2bb-ede2-4c81-a63d-6bda6dbdd3be"},"vehicle_type_id":"4","last_reported":1741097372,"current_range_meters":8000,"station_id":"ce4bh412rcd13ifvqdr0","pricing_plan_id":"cebpf4jnsgd1na2vs0mg"},{"bike_id":"2718e268-74ea-4dae-9670-4dd113fa12c9","system_id":"levelo_inurba_marseille","lat":43.27057,"lon":5.40263,"is_reserved":false,"is_disabled":false,"rental_uris":{"android":"levelo://app?vid=2718e268-74ea-4dae-9670-4dd113fa12c9","ios":"levelo://app?vid=2718e268-74ea-4dae-9670-4dd113fa12c9"},"vehicle_type_id":"4","last_reported":1741097372,"current_range_meters":8000,"station_id":"ce4bhk92rcd13ifvqgc0","pricing_plan_id":"cebpf4jnsgd1na2vs0mg"},{"bike_id":"a6f93d1c-3e49-4d7b-bb32-154ea93e2404","system_id":"levelo_inurba_marseille","lat":43.3018,"lon":5.36592,"is_reserved":false,"is_disabled":false,"rental_uris":{"android":"levelo://app?vid=a6f93d1c-3e49-4d7b-bb32-154ea93e2404","ios":"levelo://app?vid=a6f93d1c-3e49-4d7b-bb32-154ea93e2404"},"vehicle_type_id":"4","last_reported":1741097372,"current_range_meters":8000,"station_id":"ce4bgrh2rcd13ifvqc8g","pricing_plan_id":"cebpf4jnsgd1na2vs0mg"},{"bike_id":"e599aac0-c825-4643-aeb1-c2d8b1ae00e8","system_id":"levelo_inurba_marseille","lat":43.24173,"lon":5.39708,"is_reserved":false,"is_disabled":false,"rental_uris":{"android":"levelo://app?vid=e599aac0-c825-4643-aeb1-c2d8b1ae00e8","ios":"levelo://app?vid=e599aac0-c825-4643-aeb1-c2d8b1ae00e8"},"vehicle_type_id":"4","last_reported":1741097372,"current_range_meters":8000,"station_id":"ce4bhn12rcd13ifvqgpg","pricing_plan_id":"cebpf4jnsgd1na2vs0mg"},{"bike_id":"8f62f133-d6ef-441c-bc2b-2c3e2bac375b","system_id":"levelo_inurba_marseille","lat":43.28943,"lon":5.36646,"is_reserved":false,"is_disabled":false,"rental_uris":{"android":"levelo://app?vid=8f62f133-d6ef-441c-bc2b-2c3e2bac375b","ios":"levelo://app?vid=8f62f133-d6ef-441c-bc2b-2c3e2bac375b"},"vehicle_type_id":"4","last_reported":1741097372,"current_range_meters":10800,"station_id":"ce4bhap2rcd13ifvqek0","pricing_plan_id":"cebpf4jnsgd1na2vs0mg"},{"bike_id":"10d61af2-a218-4397-b179-939c5dec9f2f","system_id":"levelo_inurba_marseille","lat":43.26494,"lon":5.39553,"is_reserved":false,"is_disabled":false,"rental_uris":{"android":"levelo://app?vid=10d61af2-a218-4397-b179-939c5dec9f2f","ios":"levelo://app?vid=10d61af2-a218-4397-b179-939c5dec9f2f"},"vehicle_type_id":"4","last_reported":1741097372,"current_range_meters":8000,"station_id":"ce4bhi12rcd13ifvqfq0","pricing_plan_id":"cebpf4jnsgd1na2vs0mg"},{"bike_id":"69cd3787-0277-4a5c-be2d-c41c86958702","system_id":"levelo_inurba_marseille","lat":43.24185,"lon":5.3974,"is_reserved":false,"is_disabled":false,"rental_uris":{"android":"levelo://app?vid=69cd3787-0277-4a5c-be2d-c41c86958702","ios":"levelo://app?vid=69cd3787-0277-4a5c-be2d-c41c86958702"},"vehicle_type_id":"4","last_reported":1741097372,"current_range_meters":8000,"station_id":"ce4bhn12rcd13ifvqgpg","pricing_plan_id":"cebpf4jnsgd1na2vs0mg"},{"bike_id":"ec9058a0-df5a-4847-b874-42509324507d","system_id":"levelo_inurba_marseille","lat":43.32484,"lon":5.36581,"is_reserved":false,"is_disabled":false,"rental_uris":{"android":"levelo://app?vid=ec9058a0-df5a-4847-b874-42509324507d","ios":"levelo://app?vid=ec9058a0-df5a-4847-b874-42509324507d"},"vehicle_type_id":"4","last_reported":1741097372,"current_range_meters":8000,"station_id":"ce4bhs12rcd13ifvqhvg","pricing_plan_id":"cebpf4jnsgd1na2vs0mg"},{"bike_id":"0b7a954d-ac37-4481-b3c1-2edb23e3d01f","system_id":"levelo_inurba_marseille","lat":43.31699,"lon":5.40467,"is_reserved":false,"is_disabled":false,"rental_uris":{"android":"levelo://app?vid=0b7a954d-ac37-4481-b3c1-2edb23e3d01f","ios":"levelo://app?vid=0b7a954d-ac37-4481-b3c1-2edb23e3d01f"},"vehicle_type_id":"4","last_reported":1741097372,"current_range_meters":8000,"station_id":"ce4bh012rcd13ifvqd00","pricing_plan_id":"cebpf4jnsgd1na2vs0mg"},{"bike_id":"5f6058f8-17d6-41f9-bf21-73aab62a2071","system_id":"levelo_inurba_marseille","lat":43.25827,"lon":5.39427,"is_reserved":false,"is_disabled":false,"rental_uris":{"android":"levelo://app?vid=5f6058f8-17d6-41f9-bf21-73aab62a2071","ios":"levelo://app?vid=5f6058f8-17d6-41f9-bf21-73aab62a2071"},"vehicle_type_id":"4","last_reported":1741097372,"current_range_meters":8400,"station_id":"ce4bhip2rcd13ifvqft0","pricing_plan_id":"cebpf4jnsgd1na2vs0mg"},{"bike_id":"853e9f93-6f18-4242-b269-d87025e7bb93","system_id":"levelo_inurba_marseille","lat":43.3075,"lon":5.37061,"is_reserved":false,"is_disabled":false,"rental_uris":{"android":"levelo://app?vid=853e9f93-6f18-4242-b269-d87025e7bb93","ios":"levelo://app?vid=853e9f93-6f18-4242-b269-d87025e7bb93"},"vehicle_type_id":"4","last_reported":1741097372,"current_range_meters":8400,"station_id":"","pricing_plan_id":"cebpf4jnsgd1na2vs0mg"},{"bike_id":"b8e7c25f-6fc2-4f70-b853-c497f91f3ec2","system_id":"levelo_inurba_marseille","lat":43.31487,"lon":5.37291,"is_reserved":false,"is_disabled":false,"rental_uris":{"android":"levelo://app?vid=b8e7c25f-6fc2-4f70-b853-c497f91f3ec2","ios":"levelo://app?vid=b8e7c25f-6fc2-4f70-b853-c497f91f3ec2"},"vehicle_type_id":"4","last_reported":1741097372,"current_range_meters":8400,"station_id":"ce4bgt12rcd13ifvqcd0","pricing_plan_id":"cebpf4jnsgd1na2vs0mg"},{"bike_id":"a0762477-ae9c-49bf-85fb-5f87d2d3e704","system_id":"levelo_inurba_marseille","lat":43.3172,"lon":5.40451,"is_reserved":false,"is_disabled":false,"rental_uris":{"android":"levelo://app?vid=a0762477-ae9c-49bf-85fb-5f87d2d3e704","ios":"levelo://app?vid=a0762477-ae9c-49bf-85fb-5f87d2d3e704"},"vehicle_type_id":"4","last_reported":1741097372,"current_range_meters":8400,"station_id":"ce4bh012rcd13ifvqd00","pricing_plan_id":"cebpf4jnsgd1na2vs0mg"},{"bike_id":"caedf473-9313-4874-87c8-230b4a1efdb8","system_id":"levelo_inurba_marseille","lat":43.32498,"lon":5.36584,"is_reserved":false,"is_disabled":false,"rental_uris":{"android":"levelo://app?vid=caedf473-9313-4874-87c8-230b4a1efdb8","ios":"levelo://app?vid=caedf473-9313-4874-87c8-230b4a1efdb8"},"vehicle_type_id":"4","last_reported":1741097372,"current_range_meters":8400,"station_id":"ce4bhs12rcd13ifvqhvg","pricing_plan_id":"cebpf4jnsgd1na2vs0mg"},{"bike_id":"424db515-7f33-43c8-a877-f351274ed959","system_id":"levelo_inurba_marseille","lat":43.30147,"lon":5.37408,"is_reserved":false,"is_disabled":false,"rental_uris":{"android":"levelo://app?vid=424db515-7f33-43c8-a877-f351274ed959","ios":"levelo://app?vid=424db515-7f33-43c8-a877-f351274ed959"},"vehicle_type_id":"4","last_reported":1741097372,"current_range_meters":8400,"station_id":"ce4bgs92rcd13ifvqcc0","pricing_plan_id":"cebpf4jnsgd1na2vs0mg"},{"bike_id":"6f0e070a-31da-4ba3-b6b5-a5841b8485e2","system_id":"levelo_inurba_marseille","lat":43.28106,"lon":5.37846,"is_reserved":false,"is_disabled":false,"rental_uris":{"android":"levelo://app?vid=6f0e070a-31da-4ba3-b6b5-a5841b8485e2","ios":"levelo://app?vid=6f0e070a-31da-4ba3-b6b5-a5841b8485e2"},"vehicle_type_id":"4","last_reported":1741097372,"current_range_meters":8400,"station_id":"ce4bha12rcd13ifvqee0","pricing_plan_id":"cebpf4jnsgd1na2vs0mg"},{"bike_id":"21b31cfb-c79e-4014-abe6-d6f4171298b2","system_id":"levelo_inurba_marseille","lat":43.23187,"lon":5.40001,"is_reserved":false,"is_disabled":false,"rental_uris":{"android":"levelo://app?vid=21b31cfb-c79e-4014-abe6-d6f4171298b2","ios":"levelo://app?vid=21b31cfb-c79e-4014-abe6-d6f4171298b2"},"vehicle_type_id":"4","last_reported":1741097372,"current_range_meters":8400,"station_id":"ce4bhn12rcd13ifvqgqg","pricing_plan_id":"cebpf4jnsgd1na2vs0mg"},{"bike_id":"346e7e1e-f5ad-4199-8951-d75428932c29","system_id":"levelo_inurba_marseille","lat":43.32492,"lon":5.36562,"is_reserved":false,"is_disabled":false,"rental_uris":{"android":"levelo://app?vid=346e7e1e-f5ad-4199-8951-d75428932c29","ios":"levelo://app?vid=346e7e1e-f5ad-4199-8951-d75428932c29"},"vehicle_type_id":"4","last_reported":1741097372,"current_range_meters":8400,"station_id":"ce4bhs12rcd13ifvqhvg","pricing_plan_id":"cebpf4jnsgd1na2vs0mg"},{"bike_id":"64953142-7637-42b4-b0d1-c449e63f1db7","system_id":"levelo_inurba_marseille","lat":43.29644,"lon":5.36041,"is_reserved":false,"is_disabled":false,"rental_uris":{"android":"levelo://app?vid=64953142-7637-42b4-b0d1-c449e63f1db7","ios":"levelo://app?vid=64953142-7637-42b4-b0d1-c449e63f1db7"},"vehicle_type_id":"4","last_reported":1741097372,"current_range_meters":8400,"station_id":"","pricing_plan_id":"cebpf4jnsgd1na2vs0mg"},{"bike_id":"6e03686a-145a-45de-8d42-7f0cfcfb94ce","system_id":"levelo_inurba_marseille","lat":43.30135,"lon":5.37402,"is_reserved":false,"is_disabled":false,"rental_uris":{"android":"levelo://app?vid=6e03686a-145a-45de-8d42-7f0cfcfb94ce","ios":"levelo://app?vid=6e03686a-145a-45de-8d42-7f0cfcfb94ce"},"vehicle_type_id":"4","last_reported":1741097372,"current_range_meters":8400,"station_id":"ce4bgs92rcd13ifvqcc0","pricing_plan_id":"cebpf4jnsgd1na2vs0mg"},{"bike_id":"a9a034a4-3a69-43bb-a20c-2b80820769b7","system_id":"levelo_inurba_marseille","lat":43.31229,"lon":5.36848,"is_reserved":false,"is_disabled":false,"rental_uris":{"android":"levelo://app?vid=a9a034a4-3a69-43bb-a20c-2b80820769b7","ios":"levelo://app?vid=a9a034a4-3a69-43bb-a20c-2b80820769b7"},"vehicle_type_id":"4","last_reported":1741097372,"current_range_meters":8400,"station_id":"ce4bgl92rcd13ifvqbq0","pricing_plan_id":"cebpf4jnsgd1na2vs0mg"},{"bike_id":"24780ffa-2f1f-42dd-9c65-060c0426d575","system_id":"levelo_inurba_marseille","lat":43.27374,"lon":5.3626,"is_reserved":false,"is_disabled":false,"rental_uris":{"android":"levelo://app?vid=24780ffa-2f1f-42dd-9c65-060c0426d575","ios":"levelo://app?vid=24780ffa-2f1f-42dd-9c65-060c0426d575"},"vehicle_type_id":"4","last_reported":1741097372,"current_range_meters":8000,"station_id":"ce4bhbh2rcd13ifvqeo0","pricing_plan_id":"cebpf4jnsgd1na2vs0mg"},{"bike_id":"7e3c8533-b16e-4a51-9ab0-b2cb16183b67","system_id":"levelo_inurba_marseille","lat":43.28932,"lon":5.3641,"is_reserved":false,"is_disabled":false,"rental_uris":{"android":"levelo://app?vid=7e3c8533-b16e-4a51-9ab0-b2cb16183b67","ios":"levelo://app?vid=7e3c8533-b16e-4a51-9ab0-b2cb16183b67"},"vehicle_type_id":"4","last_reported":1741097372,"current_range_meters":8800,"station_id":"ce4bhc92rcd13ifvqetg","pricing_plan_id":"cebpf4jnsgd1na2vs0mg"},{"bike_id":"0b818497-4d97-451b-b637-cef3d02b5c9d","system_id":"levelo_inurba_marseille","lat":43.31732,"lon":5.43691,"is_reserved":false,"is_disabled":false,"rental_uris":{"android":"levelo://app?vid=0b818497-4d97-451b-b637-cef3d02b5c9d","ios":"levelo://app?vid=0b818497-4d97-451b-b637-cef3d02b5c9d"},"vehicle_type_id":"4","last_reported":1741097372,"current_range_meters":8800,"station_id":"ce4bhp92rcd13ifvqhcg","pricing_plan_id":"cebpf4jnsgd1na2vs0mg"},{"bike_id":"ee3c9ec4-fd1e-41b3-9911-557f49971d62","system_id":"levelo_inurba_marseille","lat":43.27495,"lon":5.42451,"is_reserved":false,"is_disabled":false,"rental_uris":{"android":"levelo://app?vid=ee3c9ec4-fd1e-41b3-9911-557f49971d62","ios":"levelo://app?vid=ee3c9ec4-fd1e-41b3-9911-557f49971d62"},"vehicle_type_id":"4","last_reported":1741097372,"current_range_meters":8800,"station_id":"ce4bhn92rcd13ifvqgrg","pricing_plan_id":"cebpf4jnsgd1na2vs0mg"},{"bike_id":"dcfa2f0e-db79-4040-b546-44c992702b64","system_id":"levelo_inurba_marseille","lat":43.30572,"lon":5.38372,"is_reserved":false,"is_disabled":false,"rental_uris":{"android":"levelo://app?vid=dcfa2f0e-db79-4040-b546-44c992702b64","ios":"levelo://app?vid=dcfa2f0e-db79-4040-b546-44c992702b64"},"vehicle_type_id":"4","last_reported":1741097372,"current_range_meters":8800,"station_id":"","pricing_plan_id":"cebpf4jnsgd1na2vs0mg"},{"bike_id":"6717721c-5eb4-44e0-aad4-df31d77c8a69","system_id":"levelo_inurba_marseille","lat":43.24997,"lon":5.38837,"is_reserved":false,"is_disabled":false,"rental_uris":{"android":"levelo://app?vid=6717721c-5eb4-44e0-aad4-df31d77c8a69","ios":"levelo://app?vid=6717721c-5eb4-44e0-aad4-df31d77c8a69"},"vehicle_type_id":"4","last_reported":1741097372,"current_range_meters":8800,"station_id":"ce4bhgp2rcd13ifvqfd0","pricing_plan_id":"cebpf4jnsgd1na2vs0mg"},{"bike_id":"899106ca-482d-4482-bb8f-0b967585b2b2","system_id":"levelo_inurba_marseille","lat":43.30534,"lon":5.384291,"is_reserved":false,"is_disabled":false,"rental_uris":{"android":"levelo://app?vid=899106ca-482d-4482-bb8f-0b967585b2b2","ios":"levelo://app?vid=899106ca-482d-4482-bb8f-0b967585b2b2"},"vehicle_type_id":"4","last_reported":1741097372,"current_range_meters":8800,"station_id":"ce4bho92rcd13ifvqh3g","pricing_plan_id":"cebpf4jnsgd1na2vs0mg"},{"bike_id":"ee8883dc-9b72-4764-b763-ca62ffb9e589","system_id":"levelo_inurba_marseille","lat":43.2292,"lon":5.35391,"is_reserved":false,"is_disabled":false,"rental_uris":{"android":"levelo://app?vid=ee8883dc-9b72-4764-b763-ca62ffb9e589","ios":"levelo://app?vid=ee8883dc-9b72-4764-b763-ca62ffb9e589"},"vehicle_type_id":"4","last_reported":1741097372,"current_range_meters":9200,"station_id":"cpo3532slgdg3j2ikp40","pricing_plan_id":"cebpf4jnsgd1na2vs0mg"},{"bike_id":"7d57eed4-7af7-4012-8c20-4723a24b8de6","system_id":"levelo_inurba_marseille","lat":43.23156,"lon":5.4372,"is_reserved":false,"is_disabled":false,"rental_uris":{"android":"levelo://app?vid=7d57eed4-7af7-4012-8c20-4723a24b8de6","ios":"levelo://app?vid=7d57eed4-7af7-4012-8c20-4723a24b8de6"},"vehicle_type_id":"4","last_reported":1741097372,"current_range_meters":9200,"station_id":"ce4bhmp2rcd13ifvqgog","pricing_plan_id":"cebpf4jnsgd1na2vs0mg"},{"bike_id":"02984c24-f543-4d24-8c9e-3afa9d92984f","system_id":"levelo_inurba_marseille","lat":43.25596,"lon":5.38218,"is_reserved":false,"is_disabled":false,"rental_uris":{"android":"levelo://app?vid=02984c24-f543-4d24-8c9e-3afa9d92984f","ios":"levelo://app?vid=02984c24-f543-4d24-8c9e-3afa9d92984f"},"vehicle_type_id":"4","last_reported":1741097372,"current_range_meters":9200,"station_id":"ce4bhih2rcd13ifvqfs0","pricing_plan_id":"cebpf4jnsgd1na2vs0mg"},{"bike_id":"b1ac49be-b33f-4f69-b362-4775c4ca5949","system_id":"levelo_inurba_marseille","lat":43.23163,"lon":5.43734,"is_reserved":false,"is_disabled":false,"rental_uris":{"android":"levelo://app?vid=b1ac49be-b33f-4f69-b362-4775c4ca5949","ios":"levelo://app?vid=b1ac49be-b33f-4f69-b362-4775c4ca5949"},"vehicle_type_id":"4","last_reported":1741097372,"current_range_meters":9200,"station_id":"ce4bhmp2rcd13ifvqgog","pricing_plan_id":"cebpf4jnsgd1na2vs0mg"},{"bike_id":"1093c63c-75cd-4d7d-8540-78e4958851a9","system_id":"levelo_inurba_marseille","lat":43.30547,"lon":5.36525,"is_reserved":false,"is_disabled":false,"rental_uris":{"android":"levelo://app?vid=1093c63c-75cd-4d7d-8540-78e4958851a9","ios":"levelo://app?vid=1093c63c-75cd-4d7d-8540-78e4958851a9"},"vehicle_type_id":"4","last_reported":1741097372,"current_range_meters":9600,"station_id":"ce4bgs12rcd13ifvqcag","pricing_plan_id":"cebpf4jnsgd1na2vs0mg"},{"bike_id":"b59cb226-698e-406e-b327-85d4cc16eef5","system_id":"levelo_inurba_marseille","lat":43.30538,"lon":5.36544,"is_reserved":false,"is_disabled":false,"rental_uris":{"android":"levelo://app?vid=b59cb226-698e-406e-b327-85d4cc16eef5","ios":"levelo://app?vid=b59cb226-698e-406e-b327-85d4cc16eef5"},"vehicle_type_id":"4","last_reported":1741097372,"current_range_meters":9200,"station_id":"ce4bgs12rcd13ifvqcag","pricing_plan_id":"cebpf4jnsgd1na2vs0mg"},{"bike_id":"3b73d8d4-923a-4308-81e5-52ed233d2804","system_id":"levelo_inurba_marseille","lat":43.23152,"lon":5.43706,"is_reserved":false,"is_disabled":false,"rental_uris":{"android":"levelo://app?vid=3b73d8d4-923a-4308-81e5-52ed233d2804","ios":"levelo://app?vid=3b73d8d4-923a-4308-81e5-52ed233d2804"},"vehicle_type_id":"4","last_reported":1741097372,"current_range_meters":9600,"station_id":"ce4bhmp2rcd13ifvqgog","pricing_plan_id":"cebpf4jnsgd1na2vs0mg"},{"bike_id":"4aeb8d54-ca9f-42d1-962c-f4d94620b833","system_id":"levelo_inurba_marseille","lat":43.28706,"lon":5.37415,"is_reserved":false,"is_disabled":false,"rental_uris":{"android":"levelo://app?vid=4aeb8d54-ca9f-42d1-962c-f4d94620b833","ios":"levelo://app?vid=4aeb8d54-ca9f-42d1-962c-f4d94620b833"},"vehicle_type_id":"4","last_reported":1741097372,"current_range_meters":10000,"station_id":"ce4bh3p2rcd13ifvqdq0","pricing_plan_id":"cebpf4jnsgd1na2vs0mg"},{"bike_id":"e7ec1ac1-2323-47bd-a2b5-7cd3afb282cf","system_id":"levelo_inurba_marseille","lat":43.26565,"lon":5.37276,"is_reserved":false,"is_disabled":false,"rental_uris":{"android":"levelo://app?vid=e7ec1ac1-2323-47bd-a2b5-7cd3afb282cf","ios":"levelo://app?vid=e7ec1ac1-2323-47bd-a2b5-7cd3afb282cf"},"vehicle_type_id":"4","last_reported":1741097372,"current_range_meters":10000,"station_id":"ce4bhg12rcd13ifvqf70","pricing_plan_id":"cebpf4jnsgd1na2vs0mg"},{"bike_id":"74fec73c-7683-435b-9a8b-493c866ea7b7","system_id":"levelo_inurba_marseille","lat":43.289291,"lon":5.383969,"is_reserved":false,"is_disabled":false,"rental_uris":{"android":"levelo://app?vid=74fec73c-7683-435b-9a8b-493c866ea7b7","ios":"levelo://app?vid=74fec73c-7683-435b-9a8b-493c866ea7b7"},"vehicle_type_id":"4","last_reported":1741097372,"current_range_meters":11600,"station_id":"ce4bh4p2rcd13ifvqe1g","pricing_plan_id":"cebpf4jnsgd1na2vs0mg"},{"bike_id":"53370df7-9791-4141-8ab6-479eee9f8d86","system_id":"levelo_inurba_marseille","lat":43.29891,"lon":5.4365,"is_reserved":false,"is_disabled":false,"rental_uris":{"android":"levelo://app?vid=53370df7-9791-4141-8ab6-479eee9f8d86","ios":"levelo://app?vid=53370df7-9791-4141-8ab6-479eee9f8d86"},"vehicle_type_id":"4","last_reported":1741097372,"current_range_meters":10000,"station_id":"ce4bhpp2rcd13ifvqhfg","pricing_plan_id":"cebpf4jnsgd1na2vs0mg"},{"bike_id":"8d87db73-830b-4a1a-b357-2fa35f25b1f5","system_id":"levelo_inurba_marseille","lat":43.23145,"lon":5.43712,"is_reserved":false,"is_disabled":false,"rental_uris":{"android":"levelo://app?vid=8d87db73-830b-4a1a-b357-2fa35f25b1f5","ios":"levelo://app?vid=8d87db73-830b-4a1a-b357-2fa35f25b1f5"},"vehicle_type_id":"4","last_reported":1741097372,"current_range_meters":10800,"station_id":"ce4bhmp2rcd13ifvqgog","pricing_plan_id":"cebpf4jnsgd1na2vs0mg"},{"bike_id":"ee1d2ad1-36ca-49dd-a328-f2a9a9994ecb","system_id":"levelo_inurba_marseille","lat":43.31079,"lon":5.38148,"is_reserved":false,"is_disabled":false,"rental_uris":{"android":"levelo://app?vid=ee1d2ad1-36ca-49dd-a328-f2a9a9994ecb","ios":"levelo://app?vid=ee1d2ad1-36ca-49dd-a328-f2a9a9994ecb"},"vehicle_type_id":"4","last_reported":1741097372,"current_range_meters":10800,"station_id":"","pricing_plan_id":"cebpf4jnsgd1na2vs0mg"},{"bike_id":"38147c67-1322-4638-8496-e2754d299035","system_id":"levelo_inurba_marseille","lat":43.29535,"lon":5.39391,"is_reserved":false,"is_disabled":false,"rental_uris":{"android":"levelo://app?vid=38147c67-1322-4638-8496-e2754d299035","ios":"levelo://app?vid=38147c67-1322-4638-8496-e2754d299035"},"vehicle_type_id":"4","last_reported":1741097372,"current_range_meters":9600,"station_id":"ce4bh292rcd13ifvqdf0","pricing_plan_id":"cebpf4jnsgd1na2vs0mg"},{"bike_id":"3330bd0a-31d3-4b9b-ab05-58ce2c5a78c1","system_id":"levelo_inurba_marseille","lat":43.22923,"lon":5.3538,"is_reserved":false,"is_disabled":false,"rental_uris":{"android":"levelo://app?vid=3330bd0a-31d3-4b9b-ab05-58ce2c5a78c1","ios":"levelo://app?vid=3330bd0a-31d3-4b9b-ab05-58ce2c5a78c1"},"vehicle_type_id":"4","last_reported":1741097372,"current_range_meters":10000,"station_id":"cpo3532slgdg3j2ikp40","pricing_plan_id":"cebpf4jnsgd1na2vs0mg"},{"bike_id":"ebdd20df-967d-4d62-9608-54006cfcb6fa","system_id":"levelo_inurba_marseille","lat":43.26479,"lon":5.3956,"is_reserved":false,"is_disabled":false,"rental_uris":{"android":"levelo://app?vid=ebdd20df-967d-4d62-9608-54006cfcb6fa","ios":"levelo://app?vid=ebdd20df-967d-4d62-9608-54006cfcb6fa"},"vehicle_type_id":"4","last_reported":1741097372,"current_range_meters":10800,"station_id":"ce4bhi12rcd13ifvqfq0","pricing_plan_id":"cebpf4jnsgd1na2vs0mg"},{"bike_id":"1ffa52b0-9787-44c2-8725-5c325da9f582","system_id":"levelo_inurba_marseille","lat":43.309333,"lon":5.401412,"is_reserved":false,"is_disabled":false,"rental_uris":{"android":"levelo://app?vid=1ffa52b0-9787-44c2-8725-5c325da9f582","ios":"levelo://app?vid=1ffa52b0-9787-44c2-8725-5c325da9f582"},"vehicle_type_id":"4","last_reported":1741097372,"current_range_meters":11200,"station_id":"ce4bh2h2rcd13ifvqdh0","pricing_plan_id":"cebpf4jnsgd1na2vs0mg"},{"bike_id":"d397688b-ab73-448f-92b9-a2a9588b40a4","system_id":"levelo_inurba_marseille","lat":43.2404,"lon":5.39725,"is_reserved":false,"is_disabled":false,"rental_uris":{"android":"levelo://app?vid=d397688b-ab73-448f-92b9-a2a9588b40a4","ios":"levelo://app?vid=d397688b-ab73-448f-92b9-a2a9588b40a4"},"vehicle_type_id":"4","last_reported":1741097372,"current_range_meters":10800,"station_id":"","pricing_plan_id":"cebpf4jnsgd1na2vs0mg"},{"bike_id":"2610b871-a791-4d04-83fe-be196b568f43","system_id":"levelo_inurba_marseille","lat":43.29709,"lon":5.3662,"is_reserved":false,"is_disabled":false,"rental_uris":{"android":"levelo://app?vid=2610b871-a791-4d04-83fe-be196b568f43","ios":"levelo://app?vid=2610b871-a791-4d04-83fe-be196b568f43"},"vehicle_type_id":"4","last_reported":1741097372,"current_range_meters":10800,"station_id":"ce4bgn12rcd13ifvqbt0","pricing_plan_id":"cebpf4jnsgd1na2vs0mg"},{"bike_id":"44a7153b-0fd7-4509-836b-676bbf84fb06","system_id":"levelo_inurba_marseille","lat":43.23199,"lon":5.35542,"is_reserved":false,"is_disabled":false,"rental_uris":{"android":"levelo://app?vid=44a7153b-0fd7-4509-836b-676bbf84fb06","ios":"levelo://app?vid=44a7153b-0fd7-4509-836b-676bbf84fb06"},"vehicle_type_id":"4","last_reported":1741097372,"current_range_meters":10800,"station_id":"ce4bhu92rcd13ifvqi70","pricing_plan_id":"cebpf4jnsgd1na2vs0mg"},{"bike_id":"5e7dbad2-5335-42c0-9c13-7d041987bc6c","system_id":"levelo_inurba_marseille","lat":43.30799,"lon":5.38166,"is_reserved":false,"is_disabled":false,"rental_uris":{"android":"levelo://app?vid=5e7dbad2-5335-42c0-9c13-7d041987bc6c","ios":"levelo://app?vid=5e7dbad2-5335-42c0-9c13-7d041987bc6c"},"vehicle_type_id":"4","last_reported":1741097372,"current_range_meters":11200,"station_id":"ce4bgt12rcd13ifvqce0","pricing_plan_id":"cebpf4jnsgd1na2vs0mg"},{"bike_id":"e7accf6d-1bb3-4ef5-938d-3be4aa01137f","system_id":"levelo_inurba_marseille","lat":43.2814,"lon":5.4266,"is_reserved":false,"is_disabled":false,"rental_uris":{"android":"levelo://app?vid=e7accf6d-1bb3-4ef5-938d-3be4aa01137f","ios":"levelo://app?vid=e7accf6d-1bb3-4ef5-938d-3be4aa01137f"},"vehicle_type_id":"4","last_reported":1741097372,"current_range_meters":11200,"station_id":"ce4bhnh2rcd13ifvqgug","pricing_plan_id":"cebpf4jnsgd1na2vs0mg"},{"bike_id":"7858ba22-393d-47be-9185-1cd032c74098","system_id":"levelo_inurba_marseille","lat":43.30419,"lon":5.41279,"is_reserved":false,"is_disabled":false,"rental_uris":{"android":"levelo://app?vid=7858ba22-393d-47be-9185-1cd032c74098","ios":"levelo://app?vid=7858ba22-393d-47be-9185-1cd032c74098"},"vehicle_type_id":"4","last_reported":1741097372,"current_range_meters":11200,"station_id":"ce4bhop2rcd13ifvqh8g","pricing_plan_id":"cebpf4jnsgd1na2vs0mg"},{"bike_id":"13c44e5e-5463-4505-ba1b-c0544af7d8ca","system_id":"levelo_inurba_marseille","lat":43.23195,"lon":5.35562,"is_reserved":false,"is_disabled":false,"rental_uris":{"android":"levelo://app?vid=13c44e5e-5463-4505-ba1b-c0544af7d8ca","ios":"levelo://app?vid=13c44e5e-5463-4505-ba1b-c0544af7d8ca"},"vehicle_type_id":"4","last_reported":1741097372,"current_range_meters":11200,"station_id":"ce4bhu92rcd13ifvqi70","pricing_plan_id":"cebpf4jnsgd1na2vs0mg"},{"bike_id":"35482dac-1312-4f0e-90ed-4aea1d786cf7","system_id":"levelo_inurba_marseille","lat":43.23159,"lon":5.43716,"is_reserved":false,"is_disabled":false,"rental_uris":{"android":"levelo://app?vid=35482dac-1312-4f0e-90ed-4aea1d786cf7","ios":"levelo://app?vid=35482dac-1312-4f0e-90ed-4aea1d786cf7"},"vehicle_type_id":"4","last_reported":1741097372,"current_range_meters":11200,"station_id":"ce4bhmp2rcd13ifvqgog","pricing_plan_id":"cebpf4jnsgd1na2vs0mg"},{"bike_id":"e36f30c3-3fdf-4624-8046-214faf335221","system_id":"levelo_inurba_marseille","lat":43.30525,"lon":5.36529,"is_reserved":false,"is_disabled":false,"rental_uris":{"android":"levelo://app?vid=e36f30c3-3fdf-4624-8046-214faf335221","ios":"levelo://app?vid=e36f30c3-3fdf-4624-8046-214faf335221"},"vehicle_type_id":"4","last_reported":1741097372,"current_range_meters":11200,"station_id":"ce4bgs12rcd13ifvqcag","pricing_plan_id":"cebpf4jnsgd1na2vs0mg"},{"bike_id":"dac97f69-1070-4c57-afb5-cdd7f870551d","system_id":"levelo_inurba_marseille","lat":43.30548,"lon":5.36545,"is_reserved":false,"is_disabled":false,"rental_uris":{"android":"levelo://app?vid=dac97f69-1070-4c57-afb5-cdd7f870551d","ios":"levelo://app?vid=dac97f69-1070-4c57-afb5-cdd7f870551d"},"vehicle_type_id":"4","last_reported":1741097372,"current_range_meters":11600,"station_id":"ce4bgs12rcd13ifvqcag","pricing_plan_id":"cebpf4jnsgd1na2vs0mg"},{"bike_id":"a2e9312b-d692-42a0-9823-fe0aab56075b","system_id":"levelo_inurba_marseille","lat":43.23162,"lon":5.43705,"is_reserved":false,"is_disabled":true,"rental_uris":{"android":"levelo://app?vid=a2e9312b-d692-42a0-9823-fe0aab56075b","ios":"levelo://app?vid=a2e9312b-d692-42a0-9823-fe0aab56075b"},"vehicle_type_id":"4","last_reported":1741097372,"current_range_meters":11600,"station_id":"ce4bhmp2rcd13ifvqgog","pricing_plan_id":"cebpf4jnsgd1na2vs0mg"},{"bike_id":"16334236-b8f3-4d60-b356-5e8e18688072","system_id":"levelo_inurba_marseille","lat":43.23148,"lon":5.43702,"is_reserved":false,"is_disabled":false,"rental_uris":{"android":"levelo://app?vid=16334236-b8f3-4d60-b356-5e8e18688072","ios":"levelo://app?vid=16334236-b8f3-4d60-b356-5e8e18688072"},"vehicle_type_id":"4","last_reported":1741097372,"current_range_meters":13600,"station_id":"ce4bhmp2rcd13ifvqgog","pricing_plan_id":"cebpf4jnsgd1na2vs0mg"},{"bike_id":"17301441-7a43-4e96-849d-d05b5a8d5a8e","system_id":"levelo_inurba_marseille","lat":43.29305,"lon":5.37461,"is_reserved":false,"is_disabled":false,"rental_uris":{"android":"levelo://app?vid=17301441-7a43-4e96-849d-d05b5a8d5a8e","ios":"levelo://app?vid=17301441-7a43-4e96-849d-d05b5a8d5a8e"},"vehicle_type_id":"4","last_reported":1741097372,"current_range_meters":11600,"station_id":"ce4bgi12rcd13ifvqb70","pricing_plan_id":"cebpf4jnsgd1na2vs0mg"},{"bike_id":"21b19842-9ad9-4db0-bc46-3d2827c0069e","system_id":"levelo_inurba_marseille","lat":43.23199,"lon":5.3555,"is_reserved":false,"is_disabled":false,"rental_uris":{"android":"levelo://app?vid=21b19842-9ad9-4db0-bc46-3d2827c0069e","ios":"levelo://app?vid=21b19842-9ad9-4db0-bc46-3d2827c0069e"},"vehicle_type_id":"4","last_reported":1741097372,"current_range_meters":11600,"station_id":"ce4bhu92rcd13ifvqi70","pricing_plan_id":"cebpf4jnsgd1na2vs0mg"},{"bike_id":"9f4d1ef0-9332-4a70-8e69-c2fa3a555aed","system_id":"levelo_inurba_marseille","lat":43.26946,"lon":5.38639,"is_reserved":false,"is_disabled":false,"rental_uris":{"android":"levelo://app?vid=9f4d1ef0-9332-4a70-8e69-c2fa3a555aed","ios":"levelo://app?vid=9f4d1ef0-9332-4a70-8e69-c2fa3a555aed"},"vehicle_type_id":"4","last_reported":1741097372,"current_range_meters":12000,"station_id":"ce4bhh92rcd13ifvqfh0","pricing_plan_id":"cebpf4jnsgd1na2vs0mg"},{"bike_id":"fc890f05-5811-465b-af51-46eb46e95a90","system_id":"levelo_inurba_marseille","lat":43.25009,"lon":5.38923,"is_reserved":false,"is_disabled":false,"rental_uris":{"android":"levelo://app?vid=fc890f05-5811-465b-af51-46eb46e95a90","ios":"levelo://app?vid=fc890f05-5811-465b-af51-46eb46e95a90"},"vehicle_type_id":"4","last_reported":1741097372,"current_range_meters":12000,"station_id":"ce4bhgp2rcd13ifvqfd0","pricing_plan_id":"cebpf4jnsgd1na2vs0mg"},{"bike_id":"96534ab7-4f6f-4c1c-9eeb-a2113adfd031","system_id":"levelo_inurba_marseille","lat":43.27174,"lon":5.40962,"is_reserved":false,"is_disabled":false,"rental_uris":{"android":"levelo://app?vid=96534ab7-4f6f-4c1c-9eeb-a2113adfd031","ios":"levelo://app?vid=96534ab7-4f6f-4c1c-9eeb-a2113adfd031"},"vehicle_type_id":"4","last_reported":1741097372,"current_range_meters":12000,"station_id":"ce4bhl12rcd13ifvqgf0","pricing_plan_id":"cebpf4jnsgd1na2vs0mg"},{"bike_id":"bcf6da8d-c59a-4bfd-8e70-31f062b9e36f","system_id":"levelo_inurba_marseille","lat":43.27566,"lon":5.38431,"is_reserved":false,"is_disabled":false,"rental_uris":{"android":"levelo://app?vid=bcf6da8d-c59a-4bfd-8e70-31f062b9e36f","ios":"levelo://app?vid=bcf6da8d-c59a-4bfd-8e70-31f062b9e36f"},"vehicle_type_id":"4","last_reported":1741097372,"current_range_meters":12000,"station_id":"ce4bhh92rcd13ifvqfi0","pricing_plan_id":"cebpf4jnsgd1na2vs0mg"},{"bike_id":"7887c079-fea1-489a-9ecd-f12c209c6f74","system_id":"levelo_inurba_marseille","lat":43.24653,"lon":5.38894,"is_reserved":false,"is_disabled":false,"rental_uris":{"android":"levelo://app?vid=7887c079-fea1-489a-9ecd-f12c209c6f74","ios":"levelo://app?vid=7887c079-fea1-489a-9ecd-f12c209c6f74"},"vehicle_type_id":"4","last_reported":1741097372,"current_range_meters":11200,"station_id":"ce4bhg12rcd13ifvqf60","pricing_plan_id":"cebpf4jnsgd1na2vs0mg"},{"bike_id":"3337f8d3-294f-4174-abe7-8175587d9446","system_id":"levelo_inurba_marseille","lat":43.27063,"lon":5.40238,"is_reserved":false,"is_disabled":false,"rental_uris":{"android":"levelo://app?vid=3337f8d3-294f-4174-abe7-8175587d9446","ios":"levelo://app?vid=3337f8d3-294f-4174-abe7-8175587d9446"},"vehicle_type_id":"4","last_reported":1741097372,"current_range_meters":12000,"station_id":"ce4bhk92rcd13ifvqgc0","pricing_plan_id":"cebpf4jnsgd1na2vs0mg"},{"bike_id":"220fb6bc-bee9-4bd3-814d-c36622a0556a","system_id":"levelo_inurba_marseille","lat":43.29944,"lon":5.36524,"is_reserved":false,"is_disabled":false,"rental_uris":{"android":"levelo://app?vid=220fb6bc-bee9-4bd3-814d-c36622a0556a","ios":"levelo://app?vid=220fb6bc-bee9-4bd3-814d-c36622a0556a"},"vehicle_type_id":"4","last_reported":1741097372,"current_range_meters":12000,"station_id":"ce4bgm92rcd13ifvqbr0","pricing_plan_id":"cebpf4jnsgd1na2vs0mg"},{"bike_id":"212be3cc-09ae-4063-9d09-83b8b6c708f5","system_id":"levelo_inurba_marseille","lat":43.27065,"lon":5.4025,"is_reserved":false,"is_disabled":false,"rental_uris":{"android":"levelo://app?vid=212be3cc-09ae-4063-9d09-83b8b6c708f5","ios":"levelo://app?vid=212be3cc-09ae-4063-9d09-83b8b6c708f5"},"vehicle_type_id":"4","last_reported":1741097372,"current_range_meters":12000,"station_id":"ce4bhk92rcd13ifvqgc0","pricing_plan_id":"cebpf4jnsgd1na2vs0mg"},{"bike_id":"9158c83d-aae6-4f40-adf3-15d2d242233b","system_id":"levelo_inurba_marseille","lat":43.27065,"lon":5.40259,"is_reserved":false,"is_disabled":false,"rental_uris":{"android":"levelo://app?vid=9158c83d-aae6-4f40-adf3-15d2d242233b","ios":"levelo://app?vid=9158c83d-aae6-4f40-adf3-15d2d242233b"},"vehicle_type_id":"4","last_reported":1741097372,"current_range_meters":12000,"station_id":"ce4bhk92rcd13ifvqgc0","pricing_plan_id":"cebpf4jnsgd1na2vs0mg"},{"bike_id":"6aedba2b-cb94-4a7b-a620-6e8ee215138e","system_id":"levelo_inurba_marseille","lat":43.27894,"lon":5.38012,"is_reserved":false,"is_disabled":false,"rental_uris":{"android":"levelo://app?vid=6aedba2b-cb94-4a7b-a620-6e8ee215138e","ios":"levelo://app?vid=6aedba2b-cb94-4a7b-a620-6e8ee215138e"},"vehicle_type_id":"4","last_reported":1741097372,"current_range_meters":12000,"station_id":"ce4bhf92rcd13ifvqf50","pricing_plan_id":"cebpf4jnsgd1na2vs0mg"},{"bike_id":"14cabdbb-2c98-45af-b121-e9635f64dba0","system_id":"levelo_inurba_marseille","lat":43.2593,"lon":5.40913,"is_reserved":false,"is_disabled":false,"rental_uris":{"android":"levelo://app?vid=14cabdbb-2c98-45af-b121-e9635f64dba0","ios":"levelo://app?vid=14cabdbb-2c98-45af-b121-e9635f64dba0"},"vehicle_type_id":"4","last_reported":1741097372,"current_range_meters":12000,"station_id":"ce4bhm92rcd13ifvqglg","pricing_plan_id":"cebpf4jnsgd1na2vs0mg"},{"bike_id":"43b805e7-0cc2-4eca-966a-8c9cdff2d731","system_id":"levelo_inurba_marseille","lat":43.285726,"lon":5.394999,"is_reserved":false,"is_disabled":false,"rental_uris":{"android":"levelo://app?vid=43b805e7-0cc2-4eca-966a-8c9cdff2d731","ios":"levelo://app?vid=43b805e7-0cc2-4eca-966a-8c9cdff2d731"},"vehicle_type_id":"4","last_reported":1741097372,"current_range_meters":12000,"station_id":"ce4bh292rcd13ifvqdg0","pricing_plan_id":"cebpf4jnsgd1na2vs0mg"},{"bike_id":"70c67526-b44b-46cf-a39f-e475c176b07d","system_id":"levelo_inurba_marseille","lat":43.2894,"lon":5.36629,"is_reserved":false,"is_disabled":false,"rental_uris":{"android":"levelo://app?vid=70c67526-b44b-46cf-a39f-e475c176b07d","ios":"levelo://app?vid=70c67526-b44b-46cf-a39f-e475c176b07d"},"vehicle_type_id":"4","last_reported":1741097372,"current_range_meters":12400,"station_id":"ce4bhap2rcd13ifvqek0","pricing_plan_id":"cebpf4jnsgd1na2vs0mg"},{"bike_id":"472c55de-b1fa-4df3-a098-5b60f2fad41a","system_id":"levelo_inurba_marseille","lat":43.29959,"lon":5.38501,"is_reserved":false,"is_disabled":false,"rental_uris":{"android":"levelo://app?vid=472c55de-b1fa-4df3-a098-5b60f2fad41a","ios":"levelo://app?vid=472c55de-b1fa-4df3-a098-5b60f2fad41a"},"vehicle_type_id":"4","last_reported":1741097372,"current_range_meters":12400,"station_id":"ce4bgj92rcd13ifvqbd0","pricing_plan_id":"cebpf4jnsgd1na2vs0mg"},{"bike_id":"18ffc8ee-572f-4f9f-aea0-f99d011c795b","system_id":"levelo_inurba_marseille","lat":43.27056,"lon":5.40259,"is_reserved":false,"is_disabled":false,"rental_uris":{"android":"levelo://app?vid=18ffc8ee-572f-4f9f-aea0-f99d011c795b","ios":"levelo://app?vid=18ffc8ee-572f-4f9f-aea0-f99d011c795b"},"vehicle_type_id":"4","last_reported":1741097372,"current_range_meters":12400,"station_id":"ce4bhk92rcd13ifvqgc0","pricing_plan_id":"cebpf4jnsgd1na2vs0mg"},{"bike_id":"5e8b46a3-f56e-4c74-99c6-8907371b416a","system_id":"levelo_inurba_marseille","lat":43.23183,"lon":5.39997,"is_reserved":false,"is_disabled":false,"rental_uris":{"android":"levelo://app?vid=5e8b46a3-f56e-4c74-99c6-8907371b416a","ios":"levelo://app?vid=5e8b46a3-f56e-4c74-99c6-8907371b416a"},"vehicle_type_id":"4","last_reported":1741097372,"current_range_meters":12800,"station_id":"ce4bhn12rcd13ifvqgqg","pricing_plan_id":"cebpf4jnsgd1na2vs0mg"},{"bike_id":"72bf1ce5-6735-489f-9d0c-45dcac641c19","system_id":"levelo_inurba_marseille","lat":43.301788,"lon":5.393518,"is_reserved":false,"is_disabled":false,"rental_uris":{"android":"levelo://app?vid=72bf1ce5-6735-489f-9d0c-45dcac641c19","ios":"levelo://app?vid=72bf1ce5-6735-489f-9d0c-45dcac641c19"},"vehicle_type_id":"4","last_reported":1741097372,"current_range_meters":11200,"station_id":"ce4bhbh2rcd13ifvqeo0","pricing_plan_id":"cebpf4jnsgd1na2vs0mg"},{"bike_id":"c106d5f6-08a9-4ee0-a951-2bc2a0253afd","system_id":"levelo_inurba_marseille","lat":43.2997,"lon":5.37174,"is_reserved":false,"is_disabled":false,"rental_uris":{"android":"levelo://app?vid=c106d5f6-08a9-4ee0-a951-2bc2a0253afd","ios":"levelo://app?vid=c106d5f6-08a9-4ee0-a951-2bc2a0253afd"},"vehicle_type_id":"4","last_reported":1741097372,"current_range_meters":12800,"station_id":"ce4bgr92rcd13ifvqc7g","pricing_plan_id":"cebpf4jnsgd1na2vs0mg"},{"bike_id":"2d820158-cdc9-4926-8289-9dabc8812ca3","system_id":"levelo_inurba_marseille","lat":43.23162,"lon":5.43717,"is_reserved":false,"is_disabled":false,"rental_uris":{"android":"levelo://app?vid=2d820158-cdc9-4926-8289-9dabc8812ca3","ios":"levelo://app?vid=2d820158-cdc9-4926-8289-9dabc8812ca3"},"vehicle_type_id":"4","last_reported":1741097372,"current_range_meters":12800,"station_id":"ce4bhmp2rcd13ifvqgog","pricing_plan_id":"cebpf4jnsgd1na2vs0mg"},{"bike_id":"c68ff3d4-d75b-4f90-8a75-7218228ed30f","system_id":"levelo_inurba_marseille","lat":43.25821,"lon":5.39437,"is_reserved":false,"is_disabled":false,"rental_uris":{"android":"levelo://app?vid=c68ff3d4-d75b-4f90-8a75-7218228ed30f","ios":"levelo://app?vid=c68ff3d4-d75b-4f90-8a75-7218228ed30f"},"vehicle_type_id":"4","last_reported":1741097372,"current_range_meters":12800,"station_id":"ce4bhip2rcd13ifvqft0","pricing_plan_id":"cebpf4jnsgd1na2vs0mg"},{"bike_id":"95e78016-f0c4-493e-a34d-250e6be396b3","system_id":"levelo_inurba_marseille","lat":43.231941,"lon":5.355481,"is_reserved":false,"is_disabled":false,"rental_uris":{"android":"levelo://app?vid=95e78016-f0c4-493e-a34d-250e6be396b3","ios":"levelo://app?vid=95e78016-f0c4-493e-a34d-250e6be396b3"},"vehicle_type_id":"4","last_reported":1741097372,"current_range_meters":12800,"station_id":"ce4bhu92rcd13ifvqi70","pricing_plan_id":"cebpf4jnsgd1na2vs0mg"},{"bike_id":"2c5a92f4-a231-41f0-933a-ac5f26be730a","system_id":"levelo_inurba_marseille","lat":43.30128,"lon":5.37436,"is_reserved":false,"is_disabled":false,"rental_uris":{"android":"levelo://app?vid=2c5a92f4-a231-41f0-933a-ac5f26be730a","ios":"levelo://app?vid=2c5a92f4-a231-41f0-933a-ac5f26be730a"},"vehicle_type_id":"4","last_reported":1741097372,"current_range_meters":13600,"station_id":"ce4bgs92rcd13ifvqcc0","pricing_plan_id":"cebpf4jnsgd1na2vs0mg"},{"bike_id":"d9cf9890-acc3-44b6-8072-79fa090cedb5","system_id":"levelo_inurba_marseille","lat":43.30318,"lon":5.36888,"is_reserved":false,"is_disabled":false,"rental_uris":{"android":"levelo://app?vid=d9cf9890-acc3-44b6-8072-79fa090cedb5","ios":"levelo://app?vid=d9cf9890-acc3-44b6-8072-79fa090cedb5"},"vehicle_type_id":"4","last_reported":1741097372,"current_range_meters":13600,"station_id":"ce4bgqh2rcd13ifvqc5g","pricing_plan_id":"cebpf4jnsgd1na2vs0mg"},{"bike_id":"9bc0fac6-307b-4cd2-8432-c06957d0b0d3","system_id":"levelo_inurba_marseille","lat":43.28847,"lon":5.3931,"is_reserved":false,"is_disabled":false,"rental_uris":{"android":"levelo://app?vid=9bc0fac6-307b-4cd2-8432-c06957d0b0d3","ios":"levelo://app?vid=9bc0fac6-307b-4cd2-8432-c06957d0b0d3"},"vehicle_type_id":"4","last_reported":1741097372,"current_range_meters":14000,"station_id":"ce4bh2p2rcd13ifvqdi0","pricing_plan_id":"cebpf4jnsgd1na2vs0mg"},{"bike_id":"51f6f578-8898-487a-9da7-ff3d6d379d1b","system_id":"levelo_inurba_marseille","lat":43.32097,"lon":5.3679,"is_reserved":false,"is_disabled":false,"rental_uris":{"android":"levelo://app?vid=51f6f578-8898-487a-9da7-ff3d6d379d1b","ios":"levelo://app?vid=51f6f578-8898-487a-9da7-ff3d6d379d1b"},"vehicle_type_id":"4","last_reported":1741097372,"current_range_meters":13600,"station_id":"ce4bhrh2rcd13ifvqhug","pricing_plan_id":"cebpf4jnsgd1na2vs0mg"},{"bike_id":"69f1d854-fe58-43e1-96c7-9bfe722dfe7e","system_id":"levelo_inurba_marseille","lat":43.32547,"lon":5.41455,"is_reserved":false,"is_disabled":false,"rental_uris":{"android":"levelo://app?vid=69f1d854-fe58-43e1-96c7-9bfe722dfe7e","ios":"levelo://app?vid=69f1d854-fe58-43e1-96c7-9bfe722dfe7e"},"vehicle_type_id":"4","last_reported":1741097372,"current_range_meters":13600,"station_id":"ce4bhq12rcd13ifvqhhg","pricing_plan_id":"cebpf4jnsgd1na2vs0mg"},{"bike_id":"53b35001-fee4-4ffd-9b8c-e9c7a76700c3","system_id":"levelo_inurba_marseille","lat":43.23142,"lon":5.43705,"is_reserved":false,"is_disabled":false,"rental_uris":{"android":"levelo://app?vid=53b35001-fee4-4ffd-9b8c-e9c7a76700c3","ios":"levelo://app?vid=53b35001-fee4-4ffd-9b8c-e9c7a76700c3"},"vehicle_type_id":"4","last_reported":1741097372,"current_range_meters":14000,"station_id":"ce4bhmp2rcd13ifvqgog","pricing_plan_id":"cebpf4jnsgd1na2vs0mg"},{"bike_id":"a081abee-15b9-4d1c-b901-2475b2904c21","system_id":"levelo_inurba_marseille","lat":43.25584,"lon":5.38233,"is_reserved":false,"is_disabled":false,"rental_uris":{"android":"levelo://app?vid=a081abee-15b9-4d1c-b901-2475b2904c21","ios":"levelo://app?vid=a081abee-15b9-4d1c-b901-2475b2904c21"},"vehicle_type_id":"4","last_reported":1741097372,"current_range_meters":13600,"station_id":"ce4bhih2rcd13ifvqfs0","pricing_plan_id":"cebpf4jnsgd1na2vs0mg"},{"bike_id":"a2b9d686-216a-4f50-ae4b-e7710a444cd6","system_id":"levelo_inurba_marseille","lat":43.2501,"lon":5.38903,"is_reserved":false,"is_disabled":false,"rental_uris":{"android":"levelo://app?vid=a2b9d686-216a-4f50-ae4b-e7710a444cd6","ios":"levelo://app?vid=a2b9d686-216a-4f50-ae4b-e7710a444cd6"},"vehicle_type_id":"4","last_reported":1741097372,"current_range_meters":14000,"station_id":"ce4bhgp2rcd13ifvqfd0","pricing_plan_id":"cebpf4jnsgd1na2vs0mg"},{"bike_id":"73a9fa73-bee4-47f8-b6f1-3e5e08058fa1","system_id":"levelo_inurba_marseille","lat":43.29869,"lon":5.39739,"is_reserved":false,"is_disabled":false,"rental_uris":{"android":"levelo://app?vid=73a9fa73-bee4-47f8-b6f1-3e5e08058fa1","ios":"levelo://app?vid=73a9fa73-bee4-47f8-b6f1-3e5e08058fa1"},"vehicle_type_id":"4","last_reported":1741097372,"current_range_meters":9600,"station_id":"ce4bh292rcd13ifvqdf0","pricing_plan_id":"cebpf4jnsgd1na2vs0mg"},{"bike_id":"eb017b8f-3af5-4ac8-a48a-db029d6a5993","system_id":"levelo_inurba_marseille","lat":43.31689,"lon":5.40461,"is_reserved":false,"is_disabled":false,"rental_uris":{"android":"levelo://app?vid=eb017b8f-3af5-4ac8-a48a-db029d6a5993","ios":"levelo://app?vid=eb017b8f-3af5-4ac8-a48a-db029d6a5993"},"vehicle_type_id":"4","last_reported":1741097372,"current_range_meters":14400,"station_id":"ce4bh012rcd13ifvqd00","pricing_plan_id":"cebpf4jnsgd1na2vs0mg"},{"bike_id":"e25be92b-5823-4c40-a333-518c81e1dda2","system_id":"levelo_inurba_marseille","lat":43.29264,"lon":5.37621,"is_reserved":false,"is_disabled":false,"rental_uris":{"android":"levelo://app?vid=e25be92b-5823-4c40-a333-518c81e1dda2","ios":"levelo://app?vid=e25be92b-5823-4c40-a333-518c81e1dda2"},"vehicle_type_id":"4","last_reported":1741097372,"current_range_meters":14400,"station_id":"ce4bgi12rcd13ifvqb80","pricing_plan_id":"cebpf4jnsgd1na2vs0mg"},{"bike_id":"ab26feeb-f480-440e-b93f-4ba78d100304","system_id":"levelo_inurba_marseille","lat":43.31239,"lon":5.36861,"is_reserved":false,"is_disabled":false,"rental_uris":{"android":"levelo://app?vid=ab26feeb-f480-440e-b93f-4ba78d100304","ios":"levelo://app?vid=ab26feeb-f480-440e-b93f-4ba78d100304"},"vehicle_type_id":"4","last_reported":1741097372,"current_range_meters":14400,"station_id":"ce4bgl92rcd13ifvqbq0","pricing_plan_id":"cebpf4jnsgd1na2vs0mg"},{"bike_id":"4167f6bd-40b7-45c1-950d-68f467926bd6","system_id":"levelo_inurba_marseille","lat":43.28984,"lon":5.37848,"is_reserved":false,"is_disabled":true,"rental_uris":{"android":"levelo://app?vid=4167f6bd-40b7-45c1-950d-68f467926bd6","ios":"levelo://app?vid=4167f6bd-40b7-45c1-950d-68f467926bd6"},"vehicle_type_id":"4","last_reported":1741097372,"current_range_meters":14400,"station_id":"ce4bh9p2rcd13ifvqed0","pricing_plan_id":"cebpf4jnsgd1na2vs0mg"},{"bike_id":"8ce98dda-f735-4c4f-b968-cb091a44a68c","system_id":"levelo_inurba_marseille","lat":43.28096,"lon":5.37876,"is_reserved":false,"is_disabled":false,"rental_uris":{"android":"levelo://app?vid=8ce98dda-f735-4c4f-b968-cb091a44a68c","ios":"levelo://app?vid=8ce98dda-f735-4c4f-b968-cb091a44a68c"},"vehicle_type_id":"4","last_reported":1741097372,"current_range_meters":14800,"station_id":"ce4bha12rcd13ifvqee0","pricing_plan_id":"cebpf4jnsgd1na2vs0mg"},{"bike_id":"8ef12c96-4a02-4ab6-af53-ca8fd7864c6a","system_id":"levelo_inurba_marseille","lat":43.30953,"lon":5.38986,"is_reserved":false,"is_disabled":false,"rental_uris":{"android":"levelo://app?vid=8ef12c96-4a02-4ab6-af53-ca8fd7864c6a","ios":"levelo://app?vid=8ef12c96-4a02-4ab6-af53-ca8fd7864c6a"},"vehicle_type_id":"4","last_reported":1741097372,"current_range_meters":14800,"station_id":"ce4bgup2rcd13ifvqco0","pricing_plan_id":"cebpf4jnsgd1na2vs0mg"},{"bike_id":"4fc6e71c-d012-4f69-b598-c961f4c7820c","system_id":"levelo_inurba_marseille","lat":43.26493,"lon":5.39551,"is_reserved":false,"is_disabled":false,"rental_uris":{"android":"levelo://app?vid=4fc6e71c-d012-4f69-b598-c961f4c7820c","ios":"levelo://app?vid=4fc6e71c-d012-4f69-b598-c961f4c7820c"},"vehicle_type_id":"4","last_reported":1741097372,"current_range_meters":14800,"station_id":"ce4bhi12rcd13ifvqfq0","pricing_plan_id":"cebpf4jnsgd1na2vs0mg"},{"bike_id":"cb496853-36b1-44cf-ae52-f62222f24638","system_id":"levelo_inurba_marseille","lat":43.31497,"lon":5.37266,"is_reserved":false,"is_disabled":false,"rental_uris":{"android":"levelo://app?vid=cb496853-36b1-44cf-ae52-f62222f24638","ios":"levelo://app?vid=cb496853-36b1-44cf-ae52-f62222f24638"},"vehicle_type_id":"4","last_reported":1741097372,"current_range_meters":14800,"station_id":"ce4bgt12rcd13ifvqcd0","pricing_plan_id":"cebpf4jnsgd1na2vs0mg"},{"bike_id":"c840bf67-8766-42fa-a793-52a0ccbd5077","system_id":"levelo_inurba_marseille","lat":43.31363,"lon":5.36716,"is_reserved":false,"is_disabled":false,"rental_uris":{"android":"levelo://app?vid=c840bf67-8766-42fa-a793-52a0ccbd5077","ios":"levelo://app?vid=c840bf67-8766-42fa-a793-52a0ccbd5077"},"vehicle_type_id":"4","last_reported":1741097372,"current_range_meters":14800,"station_id":"ce4bgr92rcd13ifvqc6g","pricing_plan_id":"cebpf4jnsgd1na2vs0mg"},{"bike_id":"ba450fcb-5763-4d13-b3f8-0009e286b961","system_id":"levelo_inurba_marseille","lat":43.29621,"lon":5.38128,"is_reserved":false,"is_disabled":false,"rental_uris":{"android":"levelo://app?vid=ba450fcb-5763-4d13-b3f8-0009e286b961","ios":"levelo://app?vid=ba450fcb-5763-4d13-b3f8-0009e286b961"},"vehicle_type_id":"4","last_reported":1741097372,"current_range_meters":14800,"station_id":"ce4bgl12rcd13ifvqbo0","pricing_plan_id":"cebpf4jnsgd1na2vs0mg"},{"bike_id":"3e7808f3-0c04-4991-9bad-c2eb66a1ffd3","system_id":"levelo_inurba_marseille","lat":43.23152,"lon":5.43715,"is_reserved":false,"is_disabled":false,"rental_uris":{"android":"levelo://app?vid=3e7808f3-0c04-4991-9bad-c2eb66a1ffd3","ios":"levelo://app?vid=3e7808f3-0c04-4991-9bad-c2eb66a1ffd3"},"vehicle_type_id":"4","last_reported":1741097372,"current_range_meters":14800,"station_id":"ce4bhmp2rcd13ifvqgog","pricing_plan_id":"cebpf4jnsgd1na2vs0mg"},{"bike_id":"ca8e9d8b-d589-42cd-ae39-06c8b21057b4","system_id":"levelo_inurba_marseille","lat":43.29783,"lon":5.39351,"is_reserved":false,"is_disabled":false,"rental_uris":{"android":"levelo://app?vid=ca8e9d8b-d589-42cd-ae39-06c8b21057b4","ios":"levelo://app?vid=ca8e9d8b-d589-42cd-ae39-06c8b21057b4"},"vehicle_type_id":"4","last_reported":1741097372,"current_range_meters":14800,"station_id":"chh1huq6cuj3fo74tm60","pricing_plan_id":"cebpf4jnsgd1na2vs0mg"},{"bike_id":"f8b34b05-3ce8-4023-b46a-493d367bd4f6","system_id":"levelo_inurba_marseille","lat":43.27178,"lon":5.40973,"is_reserved":false,"is_disabled":false,"rental_uris":{"android":"levelo://app?vid=f8b34b05-3ce8-4023-b46a-493d367bd4f6","ios":"levelo://app?vid=f8b34b05-3ce8-4023-b46a-493d367bd4f6"},"vehicle_type_id":"4","last_reported":1741097372,"current_range_meters":14800,"station_id":"ce4bhl12rcd13ifvqgf0","pricing_plan_id":"cebpf4jnsgd1na2vs0mg"},{"bike_id":"33648b80-a52a-4d19-a9e0-1b3468f993fd","system_id":"levelo_inurba_marseille","lat":43.29191,"lon":5.35807,"is_reserved":false,"is_disabled":false,"rental_uris":{"android":"levelo://app?vid=33648b80-a52a-4d19-a9e0-1b3468f993fd","ios":"levelo://app?vid=33648b80-a52a-4d19-a9e0-1b3468f993fd"},"vehicle_type_id":"4","last_reported":1741097372,"current_range_meters":14800,"station_id":"ce4bhb12rcd13ifvqel0","pricing_plan_id":"cebpf4jnsgd1na2vs0mg"},{"bike_id":"45136663-88bc-48fe-a0f2-fa7005751618","system_id":"levelo_inurba_marseille","lat":43.2828,"lon":5.35082,"is_reserved":false,"is_disabled":false,"rental_uris":{"android":"levelo://app?vid=45136663-88bc-48fe-a0f2-fa7005751618","ios":"levelo://app?vid=45136663-88bc-48fe-a0f2-fa7005751618"},"vehicle_type_id":"4","last_reported":1741097372,"current_range_meters":15200,"station_id":"ce4bhbp2rcd13ifvqerg","pricing_plan_id":"cebpf4jnsgd1na2vs0mg"},{"bike_id":"0eb9fef3-83c8-47c8-ad9e-cfe2998c47d1","system_id":"levelo_inurba_marseille","lat":43.31061,"lon":5.37539,"is_reserved":false,"is_disabled":false,"rental_uris":{"android":"levelo://app?vid=0eb9fef3-83c8-47c8-ad9e-cfe2998c47d1","ios":"levelo://app?vid=0eb9fef3-83c8-47c8-ad9e-cfe2998c47d1"},"vehicle_type_id":"4","last_reported":1741097372,"current_range_meters":15200,"station_id":"","pricing_plan_id":"cebpf4jnsgd1na2vs0mg"},{"bike_id":"bd4113bf-d541-4208-b1e8-cfd85ac31ede","system_id":"levelo_inurba_marseille","lat":43.30099,"lon":5.39077,"is_reserved":false,"is_disabled":false,"rental_uris":{"android":"levelo://app?vid=bd4113bf-d541-4208-b1e8-cfd85ac31ede","ios":"levelo://app?vid=bd4113bf-d541-4208-b1e8-cfd85ac31ede"},"vehicle_type_id":"4","last_reported":1741097372,"current_range_meters":15200,"station_id":"ce4bh192rcd13ifvqdb0","pricing_plan_id":"cebpf4jnsgd1na2vs0mg"},{"bike_id":"48a285ca-186e-4702-b73d-eff66aa5f54d","system_id":"levelo_inurba_marseille","lat":43.27065,"lon":5.40253,"is_reserved":false,"is_disabled":false,"rental_uris":{"android":"levelo://app?vid=48a285ca-186e-4702-b73d-eff66aa5f54d","ios":"levelo://app?vid=48a285ca-186e-4702-b73d-eff66aa5f54d"},"vehicle_type_id":"4","last_reported":1741097372,"current_range_meters":15200,"station_id":"ce4bhk92rcd13ifvqgc0","pricing_plan_id":"cebpf4jnsgd1na2vs0mg"},{"bike_id":"6dcbfb2b-4676-4562-8867-6903e4380b81","system_id":"levelo_inurba_marseille","lat":43.29879,"lon":5.39745,"is_reserved":false,"is_disabled":false,"rental_uris":{"android":"levelo://app?vid=6dcbfb2b-4676-4562-8867-6903e4380b81","ios":"levelo://app?vid=6dcbfb2b-4676-4562-8867-6903e4380b81"},"vehicle_type_id":"4","last_reported":1741097372,"current_range_meters":15200,"station_id":"ce4bh0h2rcd13ifvqd50","pricing_plan_id":"cebpf4jnsgd1na2vs0mg"},{"bike_id":"7cd5e07c-ad2a-4af8-99d9-77c41335ce79","system_id":"levelo_inurba_marseille","lat":43.24168,"lon":5.36391,"is_reserved":false,"is_disabled":false,"rental_uris":{"android":"levelo://app?vid=7cd5e07c-ad2a-4af8-99d9-77c41335ce79","ios":"levelo://app?vid=7cd5e07c-ad2a-4af8-99d9-77c41335ce79"},"vehicle_type_id":"4","last_reported":1741097372,"current_range_meters":15200,"station_id":"cpo36qri1sfpv3e86is0","pricing_plan_id":"cebpf4jnsgd1na2vs0mg"},{"bike_id":"e2561f86-c403-4b29-a057-bfc8bac05a51","system_id":"levelo_inurba_marseille","lat":43.301414,"lon":5.374101,"is_reserved":false,"is_disabled":false,"rental_uris":{"android":"levelo://app?vid=e2561f86-c403-4b29-a057-bfc8bac05a51","ios":"levelo://app?vid=e2561f86-c403-4b29-a057-bfc8bac05a51"},"vehicle_type_id":"4","last_reported":1741097372,"current_range_meters":15200,"station_id":"ce4bgs92rcd13ifvqcc0","pricing_plan_id":"cebpf4jnsgd1na2vs0mg"},{"bike_id":"c83b9a8d-e6d8-42e4-8a71-e580005542ea","system_id":"levelo_inurba_marseille","lat":43.29618,"lon":5.37741,"is_reserved":false,"is_disabled":false,"rental_uris":{"android":"levelo://app?vid=c83b9a8d-e6d8-42e4-8a71-e580005542ea","ios":"levelo://app?vid=c83b9a8d-e6d8-42e4-8a71-e580005542ea"},"vehicle_type_id":"4","last_reported":1741097372,"current_range_meters":14800,"station_id":"ce4bgi92rcd13ifvqb90","pricing_plan_id":"cebpf4jnsgd1na2vs0mg"},{"bike_id":"d571166c-77a4-4a91-b051-9cc34ad31336","system_id":"levelo_inurba_marseille","lat":43.302,"lon":5.39328,"is_reserved":false,"is_disabled":false,"rental_uris":{"android":"levelo://app?vid=d571166c-77a4-4a91-b051-9cc34ad31336","ios":"levelo://app?vid=d571166c-77a4-4a91-b051-9cc34ad31336"},"vehicle_type_id":"4","last_reported":1741097372,"current_range_meters":15200,"station_id":"","pricing_plan_id":"cebpf4jnsgd1na2vs0mg"},{"bike_id":"6a2b0cf1-e808-40be-ae07-ac62a48d5b1b","system_id":"levelo_inurba_marseille","lat":43.2822,"lon":5.40266,"is_reserved":false,"is_disabled":false,"rental_uris":{"android":"levelo://app?vid=6a2b0cf1-e808-40be-ae07-ac62a48d5b1b","ios":"levelo://app?vid=6a2b0cf1-e808-40be-ae07-ac62a48d5b1b"},"vehicle_type_id":"4","last_reported":1741097372,"current_range_meters":15200,"station_id":"","pricing_plan_id":"cebpf4jnsgd1na2vs0mg"},{"bike_id":"6b388295-ffaf-4ff0-9937-a4efb230d3e2","system_id":"levelo_inurba_marseille","lat":43.24168,"lon":5.36399,"is_reserved":false,"is_disabled":false,"rental_uris":{"android":"levelo://app?vid=6b388295-ffaf-4ff0-9937-a4efb230d3e2","ios":"levelo://app?vid=6b388295-ffaf-4ff0-9937-a4efb230d3e2"},"vehicle_type_id":"4","last_reported":1741097372,"current_range_meters":16000,"station_id":"cpo36qri1sfpv3e86is0","pricing_plan_id":"cebpf4jnsgd1na2vs0mg"},{"bike_id":"08e28076-e4cc-4bb3-b2d6-53a65e282a52","system_id":"levelo_inurba_marseille","lat":43.23161,"lon":5.43685,"is_reserved":false,"is_disabled":false,"rental_uris":{"android":"levelo://app?vid=08e28076-e4cc-4bb3-b2d6-53a65e282a52","ios":"levelo://app?vid=08e28076-e4cc-4bb3-b2d6-53a65e282a52"},"vehicle_type_id":"4","last_reported":1741097372,"current_range_meters":16000,"station_id":"ce4bhmp2rcd13ifvqgog","pricing_plan_id":"cebpf4jnsgd1na2vs0mg"},{"bike_id":"a51c2e8f-cfb0-4670-9209-838f10f083d2","system_id":"levelo_inurba_marseille","lat":43.32038,"lon":5.41555,"is_reserved":false,"is_disabled":false,"rental_uris":{"android":"levelo://app?vid=a51c2e8f-cfb0-4670-9209-838f10f083d2","ios":"levelo://app?vid=a51c2e8f-cfb0-4670-9209-838f10f083d2"},"vehicle_type_id":"4","last_reported":1741097372,"current_range_meters":10000,"station_id":"ce4bhq92rcd13ifvqhkg","pricing_plan_id":"cebpf4jnsgd1na2vs0mg"},{"bike_id":"9a6b1dcb-3594-4bb4-ab0b-6b30c24a905b","system_id":"levelo_inurba_marseille","lat":43.2316,"lon":5.43713,"is_reserved":false,"is_disabled":false,"rental_uris":{"android":"levelo://app?vid=9a6b1dcb-3594-4bb4-ab0b-6b30c24a905b","ios":"levelo://app?vid=9a6b1dcb-3594-4bb4-ab0b-6b30c24a905b"},"vehicle_type_id":"4","last_reported":1741097372,"current_range_meters":16000,"station_id":"ce4bhmp2rcd13ifvqgog","pricing_plan_id":"cebpf4jnsgd1na2vs0mg"},{"bike_id":"03d5bd23-db2c-4a3d-9573-a1403447f741","system_id":"levelo_inurba_marseille","lat":43.2781,"lon":5.40718,"is_reserved":false,"is_disabled":false,"rental_uris":{"android":"levelo://app?vid=03d5bd23-db2c-4a3d-9573-a1403447f741","ios":"levelo://app?vid=03d5bd23-db2c-4a3d-9573-a1403447f741"},"vehicle_type_id":"4","last_reported":1741097372,"current_range_meters":16000,"station_id":"ce4bhnh2rcd13ifvqgtg","pricing_plan_id":"cebpf4jnsgd1na2vs0mg"},{"bike_id":"4136c3a3-e2c9-40d6-88ac-a5d6131f349a","system_id":"levelo_inurba_marseille","lat":43.29822,"lon":5.38112,"is_reserved":false,"is_disabled":false,"rental_uris":{"android":"levelo://app?vid=4136c3a3-e2c9-40d6-88ac-a5d6131f349a","ios":"levelo://app?vid=4136c3a3-e2c9-40d6-88ac-a5d6131f349a"},"vehicle_type_id":"4","last_reported":1741097372,"current_range_meters":16000,"station_id":"ce4bgip2rcd13ifvqbb0","pricing_plan_id":"cebpf4jnsgd1na2vs0mg"},{"bike_id":"2ce061b9-e530-464d-b6bc-965d4a9c7be8","system_id":"levelo_inurba_marseille","lat":43.33423,"lon":5.40086,"is_reserved":false,"is_disabled":false,"rental_uris":{"android":"levelo://app?vid=2ce061b9-e530-464d-b6bc-965d4a9c7be8","ios":"levelo://app?vid=2ce061b9-e530-464d-b6bc-965d4a9c7be8"},"vehicle_type_id":"4","last_reported":1741097372,"current_range_meters":16000,"station_id":"","pricing_plan_id":"cebpf4jnsgd1na2vs0mg"},{"bike_id":"e96e0c5f-d0e5-478b-b4aa-43a39d7ff26e","system_id":"levelo_inurba_marseille","lat":43.3236,"lon":5.3676,"is_reserved":false,"is_disabled":false,"rental_uris":{"android":"levelo://app?vid=e96e0c5f-d0e5-478b-b4aa-43a39d7ff26e","ios":"levelo://app?vid=e96e0c5f-d0e5-478b-b4aa-43a39d7ff26e"},"vehicle_type_id":"4","last_reported":1741097372,"current_range_meters":16000,"station_id":"ce4bhsh2rcd13ifvqi2g","pricing_plan_id":"cebpf4jnsgd1na2vs0mg"},{"bike_id":"d1dfb0b4-7760-400b-b437-85c24c17b5f7","system_id":"levelo_inurba_marseille","lat":43.23959,"lon":5.36628,"is_reserved":false,"is_disabled":false,"rental_uris":{"android":"levelo://app?vid=d1dfb0b4-7760-400b-b437-85c24c17b5f7","ios":"levelo://app?vid=d1dfb0b4-7760-400b-b437-85c24c17b5f7"},"vehicle_type_id":"4","last_reported":1741097372,"current_range_meters":16000,"station_id":"ce4bhi12rcd13ifvqfp0","pricing_plan_id":"cebpf4jnsgd1na2vs0mg"},{"bike_id":"29438565-7e4a-4542-a6ac-627d82c7d9e6","system_id":"levelo_inurba_marseille","lat":43.28929,"lon":5.38413,"is_reserved":false,"is_disabled":false,"rental_uris":{"android":"levelo://app?vid=29438565-7e4a-4542-a6ac-627d82c7d9e6","ios":"levelo://app?vid=29438565-7e4a-4542-a6ac-627d82c7d9e6"},"vehicle_type_id":"4","last_reported":1741097372,"current_range_meters":14400,"station_id":"ce4bh612rcd13ifvqe6g","pricing_plan_id":"cebpf4jnsgd1na2vs0mg"},{"bike_id":"ea3c2dc0-fe91-4fbb-923e-9169463e3b2d","system_id":"levelo_inurba_marseille","lat":43.29967,"lon":5.38493,"is_reserved":false,"is_disabled":false,"rental_uris":{"android":"levelo://app?vid=ea3c2dc0-fe91-4fbb-923e-9169463e3b2d","ios":"levelo://app?vid=ea3c2dc0-fe91-4fbb-923e-9169463e3b2d"},"vehicle_type_id":"4","last_reported":1741097372,"current_range_meters":16400,"station_id":"ce4bgj92rcd13ifvqbd0","pricing_plan_id":"cebpf4jnsgd1na2vs0mg"},{"bike_id":"56f807c6-3a2a-48f0-b6b7-8d1081332169","system_id":"levelo_inurba_marseille","lat":43.31359,"lon":5.36686,"is_reserved":false,"is_disabled":false,"rental_uris":{"android":"levelo://app?vid=56f807c6-3a2a-48f0-b6b7-8d1081332169","ios":"levelo://app?vid=56f807c6-3a2a-48f0-b6b7-8d1081332169"},"vehicle_type_id":"4","last_reported":1741097372,"current_range_meters":16400,"station_id":"ce4bgr92rcd13ifvqc6g","pricing_plan_id":"cebpf4jnsgd1na2vs0mg"},{"bike_id":"28096b7f-96ae-4ea2-8ceb-2396385a6306","system_id":"levelo_inurba_marseille","lat":43.24642,"lon":5.38892,"is_reserved":false,"is_disabled":true,"rental_uris":{"android":"levelo://app?vid=28096b7f-96ae-4ea2-8ceb-2396385a6306","ios":"levelo://app?vid=28096b7f-96ae-4ea2-8ceb-2396385a6306"},"vehicle_type_id":"4","last_reported":1741097372,"current_range_meters":16400,"station_id":"ce4bhg12rcd13ifvqf60","pricing_plan_id":"cebpf4jnsgd1na2vs0mg"},{"bike_id":"b5a63338-f618-4b53-a664-a410946bcddd","system_id":"levelo_inurba_marseille","lat":43.31346,"lon":5.3672,"is_reserved":false,"is_disabled":false,"rental_uris":{"android":"levelo://app?vid=b5a63338-f618-4b53-a664-a410946bcddd","ios":"levelo://app?vid=b5a63338-f618-4b53-a664-a410946bcddd"},"vehicle_type_id":"4","last_reported":1741097372,"current_range_meters":16400,"station_id":"ce4bgr92rcd13ifvqc6g","pricing_plan_id":"cebpf4jnsgd1na2vs0mg"},{"bike_id":"ac61ea36-5dcf-4d48-85ee-6225492533a6","system_id":"levelo_inurba_marseille","lat":43.22932,"lon":5.35386,"is_reserved":false,"is_disabled":false,"rental_uris":{"android":"levelo://app?vid=ac61ea36-5dcf-4d48-85ee-6225492533a6","ios":"levelo://app?vid=ac61ea36-5dcf-4d48-85ee-6225492533a6"},"vehicle_type_id":"4","last_reported":1741097372,"current_range_meters":14800,"station_id":"cpo3532slgdg3j2ikp40","pricing_plan_id":"cebpf4jnsgd1na2vs0mg"},{"bike_id":"4ceaa790-16a8-40b7-aeaf-562ae0d7e4ee","system_id":"levelo_inurba_marseille","lat":43.29278,"lon":5.40112,"is_reserved":false,"is_disabled":false,"rental_uris":{"android":"levelo://app?vid=4ceaa790-16a8-40b7-aeaf-562ae0d7e4ee","ios":"levelo://app?vid=4ceaa790-16a8-40b7-aeaf-562ae0d7e4ee"},"vehicle_type_id":"4","last_reported":1741097372,"current_range_meters":16400,"station_id":"ce4bh312rcd13ifvqdk0","pricing_plan_id":"cebpf4jnsgd1na2vs0mg"},{"bike_id":"8b7b3e92-fc3d-4aa6-9b62-d67a99ca8207","system_id":"levelo_inurba_marseille","lat":43.27498,"lon":5.42457,"is_reserved":false,"is_disabled":false,"rental_uris":{"android":"levelo://app?vid=8b7b3e92-fc3d-4aa6-9b62-d67a99ca8207","ios":"levelo://app?vid=8b7b3e92-fc3d-4aa6-9b62-d67a99ca8207"},"vehicle_type_id":"4","last_reported":1741097372,"current_range_meters":16400,"station_id":"ce4bhn92rcd13ifvqgrg","pricing_plan_id":"cebpf4jnsgd1na2vs0mg"},{"bike_id":"ff11dcc6-b344-48aa-8b6d-4714bc82603d","system_id":"levelo_inurba_marseille","lat":43.29706,"lon":5.3662,"is_reserved":false,"is_disabled":false,"rental_uris":{"android":"levelo://app?vid=ff11dcc6-b344-48aa-8b6d-4714bc82603d","ios":"levelo://app?vid=ff11dcc6-b344-48aa-8b6d-4714bc82603d"},"vehicle_type_id":"4","last_reported":1741097372,"current_range_meters":15200,"station_id":"ce4bgn12rcd13ifvqbt0","pricing_plan_id":"cebpf4jnsgd1na2vs0mg"},{"bike_id":"47c864c0-d281-4491-94bc-a766b53224b7","system_id":"levelo_inurba_marseille","lat":43.27062,"lon":5.40254,"is_reserved":false,"is_disabled":false,"rental_uris":{"android":"levelo://app?vid=47c864c0-d281-4491-94bc-a766b53224b7","ios":"levelo://app?vid=47c864c0-d281-4491-94bc-a766b53224b7"},"vehicle_type_id":"4","last_reported":1741097372,"current_range_meters":16400,"station_id":"ce4bhk92rcd13ifvqgc0","pricing_plan_id":"cebpf4jnsgd1na2vs0mg"},{"bike_id":"244a0391-5408-4833-968e-5819f71ec582","system_id":"levelo_inurba_marseille","lat":43.2758,"lon":5.38433,"is_reserved":false,"is_disabled":false,"rental_uris":{"android":"levelo://app?vid=244a0391-5408-4833-968e-5819f71ec582","ios":"levelo://app?vid=244a0391-5408-4833-968e-5819f71ec582"},"vehicle_type_id":"4","last_reported":1741097372,"current_range_meters":16400,"station_id":"ce4bhh92rcd13ifvqfi0","pricing_plan_id":"cebpf4jnsgd1na2vs0mg"},{"bike_id":"40dcd6c7-e5a9-4913-9523-0e5a2547edae","system_id":"levelo_inurba_marseille","lat":43.27424,"lon":5.39424,"is_reserved":false,"is_disabled":false,"rental_uris":{"android":"levelo://app?vid=40dcd6c7-e5a9-4913-9523-0e5a2547edae","ios":"levelo://app?vid=40dcd6c7-e5a9-4913-9523-0e5a2547edae"},"vehicle_type_id":"4","last_reported":1741097372,"current_range_meters":16400,"station_id":"ce4bhdp2rcd13ifvqf20","pricing_plan_id":"cebpf4jnsgd1na2vs0mg"},{"bike_id":"6406426b-271e-4c15-9a38-01416d8ce390","system_id":"levelo_inurba_marseille","lat":43.28639,"lon":5.3507,"is_reserved":false,"is_disabled":false,"rental_uris":{"android":"levelo://app?vid=6406426b-271e-4c15-9a38-01416d8ce390","ios":"levelo://app?vid=6406426b-271e-4c15-9a38-01416d8ce390"},"vehicle_type_id":"4","last_reported":1741097372,"current_range_meters":16400,"station_id":"ce4bhch2rcd13ifvqeug","pricing_plan_id":"cebpf4jnsgd1na2vs0mg"},{"bike_id":"41bb4011-4eea-4b12-9424-5c0dba1044c4","system_id":"levelo_inurba_marseille","lat":43.29079,"lon":5.37169,"is_reserved":false,"is_disabled":false,"rental_uris":{"android":"levelo://app?vid=41bb4011-4eea-4b12-9424-5c0dba1044c4","ios":"levelo://app?vid=41bb4011-4eea-4b12-9424-5c0dba1044c4"},"vehicle_type_id":"4","last_reported":1741097372,"current_range_meters":16400,"station_id":"ce4bh5p2rcd13ifvqe4g","pricing_plan_id":"cebpf4jnsgd1na2vs0mg"},{"bike_id":"4d4e5c64-3576-46f5-a6ab-213eaa69e385","system_id":"levelo_inurba_marseille","lat":43.2584,"lon":5.39432,"is_reserved":false,"is_disabled":false,"rental_uris":{"android":"levelo://app?vid=4d4e5c64-3576-46f5-a6ab-213eaa69e385","ios":"levelo://app?vid=4d4e5c64-3576-46f5-a6ab-213eaa69e385"},"vehicle_type_id":"4","last_reported":1741097372,"current_range_meters":16800,"station_id":"ce4bhip2rcd13ifvqft0","pricing_plan_id":"cebpf4jnsgd1na2vs0mg"},{"bike_id":"22b507dc-75c6-49d7-b84b-513dedaad7cf","system_id":"levelo_inurba_marseille","lat":43.23162,"lon":5.43703,"is_reserved":false,"is_disabled":false,"rental_uris":{"android":"levelo://app?vid=22b507dc-75c6-49d7-b84b-513dedaad7cf","ios":"levelo://app?vid=22b507dc-75c6-49d7-b84b-513dedaad7cf"},"vehicle_type_id":"4","last_reported":1741097372,"current_range_meters":16800,"station_id":"ce4bhmp2rcd13ifvqgog","pricing_plan_id":"cebpf4jnsgd1na2vs0mg"},{"bike_id":"fbb9cdba-3d8a-4177-a8a9-5f1ba0c60f87","system_id":"levelo_inurba_marseille","lat":43.30599,"lon":5.37231,"is_reserved":false,"is_disabled":false,"rental_uris":{"android":"levelo://app?vid=fbb9cdba-3d8a-4177-a8a9-5f1ba0c60f87","ios":"levelo://app?vid=fbb9cdba-3d8a-4177-a8a9-5f1ba0c60f87"},"vehicle_type_id":"4","last_reported":1741097372,"current_range_meters":15200,"station_id":"ce4bgqh2rcd13ifvqc4g","pricing_plan_id":"cebpf4jnsgd1na2vs0mg"},{"bike_id":"a989fb79-d03a-4afe-8903-fc44a33454a4","system_id":"levelo_inurba_marseille","lat":43.28004,"lon":5.41663,"is_reserved":false,"is_disabled":false,"rental_uris":{"android":"levelo://app?vid=a989fb79-d03a-4afe-8903-fc44a33454a4","ios":"levelo://app?vid=a989fb79-d03a-4afe-8903-fc44a33454a4"},"vehicle_type_id":"4","last_reported":1741097372,"current_range_meters":16800,"station_id":"ce4bho12rcd13ifvqh1g","pricing_plan_id":"cebpf4jnsgd1na2vs0mg"},{"bike_id":"2aa42611-b92d-451f-9264-4ee7f9248f4e","system_id":"levelo_inurba_marseille","lat":43.30537,"lon":5.36538,"is_reserved":false,"is_disabled":false,"rental_uris":{"android":"levelo://app?vid=2aa42611-b92d-451f-9264-4ee7f9248f4e","ios":"levelo://app?vid=2aa42611-b92d-451f-9264-4ee7f9248f4e"},"vehicle_type_id":"4","last_reported":1741097372,"current_range_meters":16800,"station_id":"ce4bgs12rcd13ifvqcag","pricing_plan_id":"cebpf4jnsgd1na2vs0mg"},{"bike_id":"0887995a-7163-48cf-a17f-e3237da9ea00","system_id":"levelo_inurba_marseille","lat":43.23189,"lon":5.40003,"is_reserved":false,"is_disabled":false,"rental_uris":{"android":"levelo://app?vid=0887995a-7163-48cf-a17f-e3237da9ea00","ios":"levelo://app?vid=0887995a-7163-48cf-a17f-e3237da9ea00"},"vehicle_type_id":"4","last_reported":1741097372,"current_range_meters":16800,"station_id":"ce4bhn12rcd13ifvqgqg","pricing_plan_id":"cebpf4jnsgd1na2vs0mg"},{"bike_id":"264cfc58-e8d1-4127-98ee-90cc1da4063c","system_id":"levelo_inurba_marseille","lat":43.31328,"lon":5.39692,"is_reserved":false,"is_disabled":false,"rental_uris":{"android":"levelo://app?vid=264cfc58-e8d1-4127-98ee-90cc1da4063c","ios":"levelo://app?vid=264cfc58-e8d1-4127-98ee-90cc1da4063c"},"vehicle_type_id":"4","last_reported":1741097372,"current_range_meters":17200,"station_id":"ce4bgvp2rcd13ifvqcu0","pricing_plan_id":"cebpf4jnsgd1na2vs0mg"},{"bike_id":"95d8c6ea-8218-42b5-9b44-53fb2f252037","system_id":"levelo_inurba_marseille","lat":43.24652,"lon":5.38902,"is_reserved":false,"is_disabled":false,"rental_uris":{"android":"levelo://app?vid=95d8c6ea-8218-42b5-9b44-53fb2f252037","ios":"levelo://app?vid=95d8c6ea-8218-42b5-9b44-53fb2f252037"},"vehicle_type_id":"4","last_reported":1741097372,"current_range_meters":17200,"station_id":"ce4bhg12rcd13ifvqf60","pricing_plan_id":"cebpf4jnsgd1na2vs0mg"},{"bike_id":"9f20310a-b1cd-41c7-9836-f34f4f924ab7","system_id":"levelo_inurba_marseille","lat":43.3089,"lon":5.36861,"is_reserved":false,"is_disabled":false,"rental_uris":{"android":"levelo://app?vid=9f20310a-b1cd-41c7-9836-f34f4f924ab7","ios":"levelo://app?vid=9f20310a-b1cd-41c7-9836-f34f4f924ab7"},"vehicle_type_id":"4","last_reported":1741097372,"current_range_meters":17200,"station_id":"ce4bgn92rcd13ifvqbvg","pricing_plan_id":"cebpf4jnsgd1na2vs0mg"},{"bike_id":"c9aedfbd-ed4f-4da5-9011-bb295af4e39f","system_id":"levelo_inurba_marseille","lat":43.25925,"lon":5.40913,"is_reserved":false,"is_disabled":false,"rental_uris":{"android":"levelo://app?vid=c9aedfbd-ed4f-4da5-9011-bb295af4e39f","ios":"levelo://app?vid=c9aedfbd-ed4f-4da5-9011-bb295af4e39f"},"vehicle_type_id":"4","last_reported":1741097372,"current_range_meters":17200,"station_id":"ce4bhm92rcd13ifvqglg","pricing_plan_id":"cebpf4jnsgd1na2vs0mg"},{"bike_id":"5cb000cb-94ab-45df-b896-d83a8e702c78","system_id":"levelo_inurba_marseille","lat":43.27369,"lon":5.36259,"is_reserved":false,"is_disabled":false,"rental_uris":{"android":"levelo://app?vid=5cb000cb-94ab-45df-b896-d83a8e702c78","ios":"levelo://app?vid=5cb000cb-94ab-45df-b896-d83a8e702c78"},"vehicle_type_id":"4","last_reported":1741097372,"current_range_meters":16800,"station_id":"ce4bhbh2rcd13ifvqeo0","pricing_plan_id":"cebpf4jnsgd1na2vs0mg"},{"bike_id":"59913f31-a035-4f89-97de-5554ff6a5b2e","system_id":"levelo_inurba_marseille","lat":43.26677,"lon":5.38274,"is_reserved":false,"is_disabled":false,"rental_uris":{"android":"levelo://app?vid=59913f31-a035-4f89-97de-5554ff6a5b2e","ios":"levelo://app?vid=59913f31-a035-4f89-97de-5554ff6a5b2e"},"vehicle_type_id":"4","last_reported":1741097372,"current_range_meters":17200,"station_id":"ce4bhg92rcd13ifvqf90","pricing_plan_id":"cebpf4jnsgd1na2vs0mg"},{"bike_id":"330426bc-0af9-4c3e-8e4c-6ec10833df11","system_id":"levelo_inurba_marseille","lat":43.29898,"lon":5.43674,"is_reserved":false,"is_disabled":false,"rental_uris":{"android":"levelo://app?vid=330426bc-0af9-4c3e-8e4c-6ec10833df11","ios":"levelo://app?vid=330426bc-0af9-4c3e-8e4c-6ec10833df11"},"vehicle_type_id":"4","last_reported":1741097372,"current_range_meters":17200,"station_id":"ce4bhpp2rcd13ifvqhfg","pricing_plan_id":"cebpf4jnsgd1na2vs0mg"},{"bike_id":"b172a1af-b71c-4a2c-8d00-490eb5f19552","system_id":"levelo_inurba_marseille","lat":43.27192,"lon":5.39201,"is_reserved":false,"is_disabled":false,"rental_uris":{"android":"levelo://app?vid=b172a1af-b71c-4a2c-8d00-490eb5f19552","ios":"levelo://app?vid=b172a1af-b71c-4a2c-8d00-490eb5f19552"},"vehicle_type_id":"4","last_reported":1741097372,"current_range_meters":17200,"station_id":"ce4bhhp2rcd13ifvqfm0","pricing_plan_id":"cebpf4jnsgd1na2vs0mg"},{"bike_id":"0a0ab8bb-f0f3-4d57-9ced-52a3f67440c0","system_id":"levelo_inurba_marseille","lat":43.28462,"lon":5.35908,"is_reserved":false,"is_disabled":false,"rental_uris":{"android":"levelo://app?vid=0a0ab8bb-f0f3-4d57-9ced-52a3f67440c0","ios":"levelo://app?vid=0a0ab8bb-f0f3-4d57-9ced-52a3f67440c0"},"vehicle_type_id":"4","last_reported":1741097372,"current_range_meters":16400,"station_id":"ce4bhah2rcd13ifvqei0","pricing_plan_id":"cebpf4jnsgd1na2vs0mg"},{"bike_id":"e4e5d1a4-789e-46b7-9a02-765532b66adb","system_id":"levelo_inurba_marseille","lat":43.29128,"lon":5.38297,"is_reserved":false,"is_disabled":false,"rental_uris":{"android":"levelo://app?vid=e4e5d1a4-789e-46b7-9a02-765532b66adb","ios":"levelo://app?vid=e4e5d1a4-789e-46b7-9a02-765532b66adb"},"vehicle_type_id":"4","last_reported":1741097372,"current_range_meters":17200,"station_id":"","pricing_plan_id":"cebpf4jnsgd1na2vs0mg"},{"bike_id":"c6762606-6123-4176-98c0-430a38ac0378","system_id":"levelo_inurba_marseille","lat":43.24799,"lon":5.41177,"is_reserved":false,"is_disabled":false,"rental_uris":{"android":"levelo://app?vid=c6762606-6123-4176-98c0-430a38ac0378","ios":"levelo://app?vid=c6762606-6123-4176-98c0-430a38ac0378"},"vehicle_type_id":"4","last_reported":1741097372,"current_range_meters":17200,"station_id":"","pricing_plan_id":"cebpf4jnsgd1na2vs0mg"},{"bike_id":"611ff647-ebcd-4349-9541-a9a7cafe7b0a","system_id":"levelo_inurba_marseille","lat":43.29569,"lon":5.37526,"is_reserved":false,"is_disabled":false,"rental_uris":{"android":"levelo://app?vid=611ff647-ebcd-4349-9541-a9a7cafe7b0a","ios":"levelo://app?vid=611ff647-ebcd-4349-9541-a9a7cafe7b0a"},"vehicle_type_id":"4","last_reported":1741097372,"current_range_meters":18800,"station_id":"ce4bgh92rcd13ifvqb50","pricing_plan_id":"cebpf4jnsgd1na2vs0mg"},{"bike_id":"f6b8e3ef-8327-4bfe-82d9-17fd528df4d1","system_id":"levelo_inurba_marseille","lat":43.28708,"lon":5.37959,"is_reserved":false,"is_disabled":false,"rental_uris":{"android":"levelo://app?vid=f6b8e3ef-8327-4bfe-82d9-17fd528df4d1","ios":"levelo://app?vid=f6b8e3ef-8327-4bfe-82d9-17fd528df4d1"},"vehicle_type_id":"4","last_reported":1741097372,"current_range_meters":17600,"station_id":"ce4bh9p2rcd13ifvqec0","pricing_plan_id":"cebpf4jnsgd1na2vs0mg"},{"bike_id":"e7c3ccf1-ec12-4eca-9659-bb633cd20e53","system_id":"levelo_inurba_marseille","lat":43.31323,"lon":5.39694,"is_reserved":false,"is_disabled":false,"rental_uris":{"android":"levelo://app?vid=e7c3ccf1-ec12-4eca-9659-bb633cd20e53","ios":"levelo://app?vid=e7c3ccf1-ec12-4eca-9659-bb633cd20e53"},"vehicle_type_id":"4","last_reported":1741097372,"current_range_meters":17600,"station_id":"ce4bgvp2rcd13ifvqcu0","pricing_plan_id":"cebpf4jnsgd1na2vs0mg"},{"bike_id":"c41af804-f6e0-42e0-aab3-91ed38e0e8d8","system_id":"levelo_inurba_marseille","lat":43.29974,"lon":5.37178,"is_reserved":false,"is_disabled":false,"rental_uris":{"android":"levelo://app?vid=c41af804-f6e0-42e0-aab3-91ed38e0e8d8","ios":"levelo://app?vid=c41af804-f6e0-42e0-aab3-91ed38e0e8d8"},"vehicle_type_id":"4","last_reported":1741097372,"current_range_meters":17600,"station_id":"ce4bgr92rcd13ifvqc7g","pricing_plan_id":"cebpf4jnsgd1na2vs0mg"},{"bike_id":"5783df4c-8f6f-4053-8b54-1fe35947b765","system_id":"levelo_inurba_marseille","lat":43.28715,"lon":5.3794,"is_reserved":false,"is_disabled":false,"rental_uris":{"android":"levelo://app?vid=5783df4c-8f6f-4053-8b54-1fe35947b765","ios":"levelo://app?vid=5783df4c-8f6f-4053-8b54-1fe35947b765"},"vehicle_type_id":"4","last_reported":1741097372,"current_range_meters":17600,"station_id":"ce4bh9p2rcd13ifvqec0","pricing_plan_id":"cebpf4jnsgd1na2vs0mg"},{"bike_id":"e1eaefa0-1b27-429c-8106-1b58c97f5e91","system_id":"levelo_inurba_marseille","lat":43.27059,"lon":5.42272,"is_reserved":false,"is_disabled":false,"rental_uris":{"android":"levelo://app?vid=e1eaefa0-1b27-429c-8106-1b58c97f5e91","ios":"levelo://app?vid=e1eaefa0-1b27-429c-8106-1b58c97f5e91"},"vehicle_type_id":"4","last_reported":1741097372,"current_range_meters":17600,"station_id":"ce4bhk92rcd13ifvqgb0","pricing_plan_id":"cebpf4jnsgd1na2vs0mg"},{"bike_id":"628f8358-db3c-45cd-81d1-44f86a63e568","system_id":"levelo_inurba_marseille","lat":43.23213,"lon":5.35553,"is_reserved":false,"is_disabled":false,"rental_uris":{"android":"levelo://app?vid=628f8358-db3c-45cd-81d1-44f86a63e568","ios":"levelo://app?vid=628f8358-db3c-45cd-81d1-44f86a63e568"},"vehicle_type_id":"4","last_reported":1741097372,"current_range_meters":18000,"station_id":"ce4bhu92rcd13ifvqi70","pricing_plan_id":"cebpf4jnsgd1na2vs0mg"},{"bike_id":"c90977ce-d08d-4d7f-92cb-dbdf4c9290ae","system_id":"levelo_inurba_marseille","lat":43.32652,"lon":5.40984,"is_reserved":false,"is_disabled":false,"rental_uris":{"android":"levelo://app?vid=c90977ce-d08d-4d7f-92cb-dbdf4c9290ae","ios":"levelo://app?vid=c90977ce-d08d-4d7f-92cb-dbdf4c9290ae"},"vehicle_type_id":"4","last_reported":1741097372,"current_range_meters":18000,"station_id":"ce4bhpp2rcd13ifvqhgg","pricing_plan_id":"cebpf4jnsgd1na2vs0mg"},{"bike_id":"ee59b3a3-0f87-489f-91b5-15c91569f1b2","system_id":"levelo_inurba_marseille","lat":43.24171,"lon":5.36386,"is_reserved":false,"is_disabled":false,"rental_uris":{"android":"levelo://app?vid=ee59b3a3-0f87-489f-91b5-15c91569f1b2","ios":"levelo://app?vid=ee59b3a3-0f87-489f-91b5-15c91569f1b2"},"vehicle_type_id":"4","last_reported":1741097372,"current_range_meters":18000,"station_id":"cpo36qri1sfpv3e86is0","pricing_plan_id":"cebpf4jnsgd1na2vs0mg"},{"bike_id":"beeeba03-62d7-4364-8aaf-6455bd8c87e4","system_id":"levelo_inurba_marseille","lat":43.27999,"lon":5.41665,"is_reserved":false,"is_disabled":false,"rental_uris":{"android":"levelo://app?vid=beeeba03-62d7-4364-8aaf-6455bd8c87e4","ios":"levelo://app?vid=beeeba03-62d7-4364-8aaf-6455bd8c87e4"},"vehicle_type_id":"4","last_reported":1741097372,"current_range_meters":18000,"station_id":"ce4bho12rcd13ifvqh1g","pricing_plan_id":"cebpf4jnsgd1na2vs0mg"},{"bike_id":"faba34a5-5170-484c-a414-f6b11608f3d5","system_id":"levelo_inurba_marseille","lat":43.27829,"lon":5.40698,"is_reserved":false,"is_disabled":false,"rental_uris":{"android":"levelo://app?vid=faba34a5-5170-484c-a414-f6b11608f3d5","ios":"levelo://app?vid=faba34a5-5170-484c-a414-f6b11608f3d5"},"vehicle_type_id":"4","last_reported":1741097372,"current_range_meters":18000,"station_id":"ce4bhnh2rcd13ifvqgtg","pricing_plan_id":"cebpf4jnsgd1na2vs0mg"},{"bike_id":"55cd6d13-18d5-43a8-b57a-8591fe8c85d7","system_id":"levelo_inurba_marseille","lat":43.29718,"lon":5.37699,"is_reserved":false,"is_disabled":false,"rental_uris":{"android":"levelo://app?vid=55cd6d13-18d5-43a8-b57a-8591fe8c85d7","ios":"levelo://app?vid=55cd6d13-18d5-43a8-b57a-8591fe8c85d7"},"vehicle_type_id":"4","last_reported":1741097372,"current_range_meters":18000,"station_id":"ce4bgkh2rcd13ifvqbl0","pricing_plan_id":"cebpf4jnsgd1na2vs0mg"},{"bike_id":"57cc304b-570e-47e0-b58a-584691de5475","system_id":"levelo_inurba_marseille","lat":43.27998,"lon":5.39987,"is_reserved":false,"is_disabled":false,"rental_uris":{"android":"levelo://app?vid=57cc304b-570e-47e0-b58a-584691de5475","ios":"levelo://app?vid=57cc304b-570e-47e0-b58a-584691de5475"},"vehicle_type_id":"4","last_reported":1741097372,"current_range_meters":18000,"station_id":"ce4bho92rcd13ifvqh4g","pricing_plan_id":"cebpf4jnsgd1na2vs0mg"},{"bike_id":"90f98096-1ee6-466b-a2f6-06b3b33fb9cd","system_id":"levelo_inurba_marseille","lat":43.23188,"lon":5.39973,"is_reserved":false,"is_disabled":false,"rental_uris":{"android":"levelo://app?vid=90f98096-1ee6-466b-a2f6-06b3b33fb9cd","ios":"levelo://app?vid=90f98096-1ee6-466b-a2f6-06b3b33fb9cd"},"vehicle_type_id":"4","last_reported":1741097372,"current_range_meters":18000,"station_id":"ce4bhn12rcd13ifvqgqg","pricing_plan_id":"cebpf4jnsgd1na2vs0mg"},{"bike_id":"37481f92-6845-4b72-af9d-db26cc38fe12","system_id":"levelo_inurba_marseille","lat":43.23155,"lon":5.4372,"is_reserved":false,"is_disabled":false,"rental_uris":{"android":"levelo://app?vid=37481f92-6845-4b72-af9d-db26cc38fe12","ios":"levelo://app?vid=37481f92-6845-4b72-af9d-db26cc38fe12"},"vehicle_type_id":"4","last_reported":1741097372,"current_range_meters":18000,"station_id":"ce4bhmp2rcd13ifvqgog","pricing_plan_id":"cebpf4jnsgd1na2vs0mg"},{"bike_id":"b57da217-a193-4433-a94a-4682bd722c32","system_id":"levelo_inurba_marseille","lat":43.28938,"lon":5.36631,"is_reserved":false,"is_disabled":false,"rental_uris":{"android":"levelo://app?vid=b57da217-a193-4433-a94a-4682bd722c32","ios":"levelo://app?vid=b57da217-a193-4433-a94a-4682bd722c32"},"vehicle_type_id":"4","last_reported":1741097372,"current_range_meters":18000,"station_id":"ce4bhap2rcd13ifvqek0","pricing_plan_id":"cebpf4jnsgd1na2vs0mg"},{"bike_id":"d3cefe54-8a09-4695-9024-b168b3118482","system_id":"levelo_inurba_marseille","lat":43.29802,"lon":5.38095,"is_reserved":false,"is_disabled":false,"rental_uris":{"android":"levelo://app?vid=d3cefe54-8a09-4695-9024-b168b3118482","ios":"levelo://app?vid=d3cefe54-8a09-4695-9024-b168b3118482"},"vehicle_type_id":"4","last_reported":1741097372,"current_range_meters":18800,"station_id":"ce4bgip2rcd13ifvqbb0","pricing_plan_id":"cebpf4jnsgd1na2vs0mg"},{"bike_id":"d80ecf34-d102-4b6e-91bb-ec13418740d4","system_id":"levelo_inurba_marseille","lat":43.28864,"lon":5.35839,"is_reserved":false,"is_disabled":false,"rental_uris":{"android":"levelo://app?vid=d80ecf34-d102-4b6e-91bb-ec13418740d4","ios":"levelo://app?vid=d80ecf34-d102-4b6e-91bb-ec13418740d4"},"vehicle_type_id":"4","last_reported":1741097372,"current_range_meters":18800,"station_id":"ce4bhb12rcd13ifvqem0","pricing_plan_id":"cebpf4jnsgd1na2vs0mg"},{"bike_id":"398e8d45-10ef-4087-8c0d-13d92611c497","system_id":"levelo_inurba_marseille","lat":43.28735,"lon":5.37942,"is_reserved":false,"is_disabled":true,"rental_uris":{"android":"levelo://app?vid=398e8d45-10ef-4087-8c0d-13d92611c497","ios":"levelo://app?vid=398e8d45-10ef-4087-8c0d-13d92611c497"},"vehicle_type_id":"4","last_reported":1741097372,"current_range_meters":18800,"station_id":"ce4bh9p2rcd13ifvqec0","pricing_plan_id":"cebpf4jnsgd1na2vs0mg"},