{"last_updated":1732738288,"ttl":60,"version":"2.2","data":{"bikes":[{"bike_id":"e75a9082-7454-4d85-a7d1-e0c885f7f25c","system_id":"levelo_inurba_marseille","lat":43.28708,"lon":5.37384,"is_reserved":false,"is_disabled":false,"rental_uris":{"android":"levelo://app?vid=e75a9082-7454-4d85-a7d1-e0c885f7f25c","ios":"levelo://app?vid=e75a9082-7454-4d85-a7d1-e0c885f7f25c"},"vehicle_type_id":"4","last_reported":1732738288,"current_range_meters":28400,"station_id":"ce4bh3p2rcd13ifvqdq0","pricing_plan_id":"cebpf4jnsgd1na2vs0mg"},{"bike_id":"37050f38-c03f-4643-9421-1b64ea5489ae","system_id":"levelo_inurba_marseille","lat":43.27809,"lon":5.40716,"is_reserved":false,"is_disabled":false,"rental_uris":{"android":"levelo://app?vid=37050f38-c03f-4643-9421-1b64ea5489ae","ios":"levelo://app?vid=37050f38-c03f-4643-9421-1b64ea5489ae"},"vehicle_type_id":"4","last_reported":1732738288,"current_range_meters":16000,"station_id":"ce4bhnh2rcd13ifvqgtg","pricing_plan_id":"cebpf4jnsgd1na2vs0mg"},{"bike_id":"b856c8b4-412d-4c25-bdd4-e6b29aed04cb","system_id":"levelo_inurba_marseille","lat":43.22932,"lon":5.35384,"is_reserved":false,"is_disabled":false,"rental_uris":{"android":"levelo://app?vid=b856c8b4-412d-4c25-bdd4-e6b29aed04cb","ios":"levelo://app?vid=b856c8b4-412d-4c25-bdd4-e6b29aed04cb"},"vehicle_type_id":"4","last_reported":1732738288,"current_range_meters":38800,"station_id":"cpo3532slgdg3j2ikp40","pricing_plan_id":"cebpf4jnsgd1na2vs0mg"},{"bike_id":"dea3a423-b5cd-4518-8c14-557dd912bebc","system_id":"levelo_inurba_marseille","lat":43.31756,"lon":5.39023,"is_reserved":false,"is_disabled":false,"rental_uris":{"android":"levelo://app?vid=dea3a423-b5cd-4518-8c14-557dd912bebc","ios":"levelo://app?vid=dea3a423-b5cd-4518-8c14-557dd912bebc"},"vehicle_type_id":"4","last_reported":1732738288,"current_range_meters":6000,"station_id":"ce4bhqp2rcd13ifvqhng","pricing_plan_id":"cebpf4jnsgd1na2vs0mg"},{"bike_id":"476918a2-f002-4da3-873c-93d452a6dbff","system_id":"levelo_inurba_marseille","lat":43.23973,"lon":5.36622,"is_reserved":false,"is_disabled":false,"rental_uris":{"android":"levelo://app?vid=476918a2-f002-4da3-873c-93d452a6dbff","ios":"levelo://app?vid=476918a2-f002-4da3-873c-93d452a6dbff"},"vehicle_type_id":"4","last_reported":1732738288,"current_range_meters":38800,"station_id":"ce4bhi12rcd13ifvqfp0","pricing_plan_id":"cebpf4jnsgd1na2vs0mg"},{"bike_id":"1375f2a3-ec68-426b-a53e-6a666ff8f86c","system_id":"levelo_inurba_marseille","lat":43.23153,"lon":5.43709,"is_reserved":false,"is_disabled":false,"rental_uris":{"android":"levelo://app?vid=1375f2a3-ec68-426b-a53e-6a666ff8f86c","ios":"levelo://app?vid=1375f2a3-ec68-426b-a53e-6a666ff8f86c"},"vehicle_type_id":"4","last_reported":1732738288,"current_range_meters":14800,"station_id":"ce4bhmp2rcd13ifvqgog","pricing_plan_id":"cebpf4jnsgd1na2vs0mg"},{"bike_id":"d15faee4-61f5-4b8f-b74b-4dbf5a31a4d1","system_id":"levelo_inurba_marseille","lat":43.27993,"lon":5.41651,"is_reserved":false,"is_disabled":false,"rental_uris":{"android":"levelo://app?vid=d15faee4-61f5-4b8f-b74b-4dbf5a31a4d1","ios":"levelo://app?vid=d15faee4-61f5-4b8f-b74b-4dbf5a31a4d1"},"vehicle_type_id":"4","last_reported":1732738288,"current_range_meters":32800,"station_id":"ce4bho12rcd13ifvqh1g","pricing_plan_id":"cebpf4jnsgd1na2vs0mg"},{"bike_id":"f1320447-654c-46ad-b50f-62d35a1810b5","system_id":"levelo_inurba_marseille","lat":43.28712,"lon":5.37372,"is_reserved":false,"is_disabled":true,"rental_uris":{"android":"levelo://app?vid=f1320447-654c-46ad-b50f-62d35a1810b5","ios":"levelo://app?vid=f1320447-654c-46ad-b50f-62d35a1810b5"},"vehicle_type_id":"4","last_reported":1732738288,"current_range_meters":3600,"station_id":"ce4bh3p2rcd13ifvqdq0","pricing_plan_id":"cebpf4jnsgd1na2vs0mg"},{"bike_id":"0dadad50-e680-4e1d-8313-a2307b79a113","system_id":"levelo_inurba_marseille","lat":43.29416,"lon":5.38624,"is_reserved":false,"is_disabled":false,"rental_uris":{"android":"levelo://app?vid=0dadad50-e680-4e1d-8313-a2307b79a113","ios":"levelo://app?vid=0dadad50-e680-4e1d-8313-a2307b79a113"},"vehicle_type_id":"4","last_reported":1732738288,"current_range_meters":36400,"station_id":"ce4bh2h2rcd13ifvqdh0","pricing_plan_id":"cebpf4jnsgd1na2vs0mg"},{"bike_id":"41e53bad-9423-47c3-8583-825ffc9e72cd","system_id":"levelo_inurba_marseille","lat":43.27958,"lon":5.38708,"is_reserved":false,"is_disabled":true,"rental_uris":{"android":"levelo://app?vid=41e53bad-9423-47c3-8583-825ffc9e72cd","ios":"levelo://app?vid=41e53bad-9423-47c3-8583-825ffc9e72cd"},"vehicle_type_id":"4","last_reported":1732738288,"current_range_meters":36800,"station_id":"ce4bhg12rcd13ifvqf80","pricing_plan_id":"cebpf4jnsgd1na2vs0mg"},{"bike_id":"e2fcd88a-5b50-4059-b110-891c7847ea5f","system_id":"levelo_inurba_marseille","lat":43.30669,"lon":5.36858,"is_reserved":false,"is_disabled":true,"rental_uris":{"android":"levelo://app?vid=e2fcd88a-5b50-4059-b110-891c7847ea5f","ios":"levelo://app?vid=e2fcd88a-5b50-4059-b110-891c7847ea5f"},"vehicle_type_id":"4","last_reported":1732738288,"current_range_meters":0,"station_id":"","pricing_plan_id":"cebpf4jnsgd1na2vs0mg"},{"bike_id":"c133deff-fddd-4a89-97a2-c2177babbaa7","system_id":"levelo_inurba_marseille","lat":43.28724,"lon":5.36094,"is_reserved":false,"is_disabled":false,"rental_uris":{"android":"levelo://app?vid=c133deff-fddd-4a89-97a2-c2177babbaa7","ios":"levelo://app?vid=c133deff-fddd-4a89-97a2-c2177babbaa7"},"vehicle_type_id":"4","last_reported":1732738288,"current_range_meters":16000,"station_id":"cki0cbj6b192h4jlfktg","pricing_plan_id":"cebpf4jnsgd1na2vs0mg"},{"bike_id":"ce15a521-8a1d-47b7-92c8-091ca367d00e","system_id":"levelo_inurba_marseille","lat":43.33762,"lon":5.37458,"is_reserved":false,"is_disabled":false,"rental_uris":{"android":"levelo://app?vid=ce15a521-8a1d-47b7-92c8-091ca367d00e","ios":"levelo://app?vid=ce15a521-8a1d-47b7-92c8-091ca367d00e"},"vehicle_type_id":"4","last_reported":1732738288,"current_range_meters":38800,"station_id":"","pricing_plan_id":"cebpf4jnsgd1na2vs0mg"},{"bike_id":"1916fa6d-d3b8-4a76-b3e9-3bd347c23b60","system_id":"levelo_inurba_marseille","lat":43.25821,"lon":5.39432,"is_reserved":false,"is_disabled":false,"rental_uris":{"android":"levelo://app?vid=1916fa6d-d3b8-4a76-b3e9-3bd347c23b60","ios":"levelo://app?vid=1916fa6d-d3b8-4a76-b3e9-3bd347c23b60"},"vehicle_type_id":"4","last_reported":1732738288,"current_range_meters":5600,"station_id":"ce4bhip2rcd13ifvqft0","pricing_plan_id":"cebpf4jnsgd1na2vs0mg"},{"bike_id":"ec09b0cc-3621-4afa-bff4-debce0b2cc37","system_id":"levelo_inurba_marseille","lat":43.27184,"lon":5.40993,"is_reserved":false,"is_disabled":true,"rental_uris":{"android":"levelo://app?vid=ec09b0cc-3621-4afa-bff4-debce0b2cc37","ios":"levelo://app?vid=ec09b0cc-3621-4afa-bff4-debce0b2cc37"},"vehicle_type_id":"4","last_reported":1732738288,"current_range_meters":24400,"station_id":"ce4bhl12rcd13ifvqgf0","pricing_plan_id":"cebpf4jnsgd1na2vs0mg"},{"bike_id":"1d746077-5610-4b94-96f4-2b8617602ffc","system_id":"levelo_inurba_marseille","lat":43.25001,"lon":5.38925,"is_reserved":false,"is_disabled":false,"rental_uris":{"android":"levelo://app?vid=1d746077-5610-4b94-96f4-2b8617602ffc","ios":"levelo://app?vid=1d746077-5610-4b94-96f4-2b8617602ffc"},"vehicle_type_id":"4","last_reported":1732738288,"current_range_meters":4800,"station_id":"ce4bhgp2rcd13ifvqfd0","pricing_plan_id":"cebpf4jnsgd1na2vs0mg"},{"bike_id":"30712da3-4109-4d0c-bd34-526232671f62","system_id":"levelo_inurba_marseille","lat":43.29912,"lon":5.37468,"is_reserved":false,"is_disabled":true,"rental_uris":{"android":"levelo://app?vid=30712da3-4109-4d0c-bd34-526232671f62","ios":"levelo://app?vid=30712da3-4109-4d0c-bd34-526232671f62"},"vehicle_type_id":"4","last_reported":1732738288,"current_range_meters":38000,"station_id":"ce4bgjh2rcd13ifvqbg0","pricing_plan_id":"cebpf4jnsgd1na2vs0mg"},{"bike_id":"159bac19-9cba-45ce-a9ad-1f0b29b7ead8","system_id":"levelo_inurba_marseille","lat":43.27986,"lon":5.41654,"is_reserved":false,"is_disabled":false,"rental_uris":{"android":"levelo://app?vid=159bac19-9cba-45ce-a9ad-1f0b29b7ead8","ios":"levelo://app?vid=159bac19-9cba-45ce-a9ad-1f0b29b7ead8"},"vehicle_type_id":"4","last_reported":1732738288,"current_range_meters":33200,"station_id":"ce4bho12rcd13ifvqh1g","pricing_plan_id":"cebpf4jnsgd1na2vs0mg"},{"bike_id":"b8473380-2e78-4243-944b-872bb30cd1c9","system_id":"levelo_inurba_marseille","lat":43.2718,"lon":5.40989,"is_reserved":false,"is_disabled":false,"rental_uris":{"android":"levelo://app?vid=b8473380-2e78-4243-944b-872bb30cd1c9","ios":"levelo://app?vid=b8473380-2e78-4243-944b-872bb30cd1c9"},"vehicle_type_id":"4","last_reported":1732738288,"current_range_meters":16800,"station_id":"ce4bhl12rcd13ifvqgf0","pricing_plan_id":"cebpf4jnsgd1na2vs0mg"},{"bike_id":"dd4d37fd-527d-4c39-afdd-3d019c17cebf","system_id":"levelo_inurba_marseille","lat":43.28607,"lon":5.37069,"is_reserved":false,"is_disabled":false,"rental_uris":{"android":"levelo://app?vid=dd4d37fd-527d-4c39-afdd-3d019c17cebf","ios":"levelo://app?vid=dd4d37fd-527d-4c39-afdd-3d019c17cebf"},"vehicle_type_id":"4","last_reported":1732738288,"current_range_meters":38800,"station_id":"ce4bht12rcd13ifvqi60","pricing_plan_id":"cebpf4jnsgd1na2vs0mg"},{"bike_id":"b2749660-123f-4f25-b003-5416ccab5d80","system_id":"levelo_inurba_marseille","lat":43.27479,"lon":5.40909,"is_reserved":false,"is_disabled":false,"rental_uris":{"android":"levelo://app?vid=b2749660-123f-4f25-b003-5416ccab5d80","ios":"levelo://app?vid=b2749660-123f-4f25-b003-5416ccab5d80"},"vehicle_type_id":"4","last_reported":1732738288,"current_range_meters":14400,"station_id":"","pricing_plan_id":"cebpf4jnsgd1na2vs0mg"},{"bike_id":"6f7949e1-de87-4a49-8620-fec27e04447f","system_id":"levelo_inurba_marseille","lat":43.3373,"lon":5.39184,"is_reserved":false,"is_disabled":false,"rental_uris":{"android":"levelo://app?vid=6f7949e1-de87-4a49-8620-fec27e04447f","ios":"levelo://app?vid=6f7949e1-de87-4a49-8620-fec27e04447f"},"vehicle_type_id":"4","last_reported":1732738288,"current_range_meters":37600,"station_id":"ce4bhr92rcd13ifvqhsg","pricing_plan_id":"cebpf4jnsgd1na2vs0mg"},{"bike_id":"85b1167d-e291-462b-a52d-b3433edf3ebd","system_id":"levelo_inurba_marseille","lat":43.3031,"lon":5.36902,"is_reserved":false,"is_disabled":false,"rental_uris":{"android":"levelo://app?vid=85b1167d-e291-462b-a52d-b3433edf3ebd","ios":"levelo://app?vid=85b1167d-e291-462b-a52d-b3433edf3ebd"},"vehicle_type_id":"4","last_reported":1732738288,"current_range_meters":18000,"station_id":"ce4bgqh2rcd13ifvqc5g","pricing_plan_id":"cebpf4jnsgd1na2vs0mg"},{"bike_id":"6ef7b914-06d8-4efe-b917-ab7598fca32d","system_id":"levelo_inurba_marseille","lat":43.30789,"lon":5.37648,"is_reserved":false,"is_disabled":false,"rental_uris":{"android":"levelo://app?vid=6ef7b914-06d8-4efe-b917-ab7598fca32d","ios":"levelo://app?vid=6ef7b914-06d8-4efe-b917-ab7598fca32d"},"vehicle_type_id":"4","last_reported":1732738288,"current_range_meters":28800,"station_id":"ce4bgv92rcd13ifvqcq0","pricing_plan_id":"cebpf4jnsgd1na2vs0mg"},{"bike_id":"039260f0-bdc9-4e17-b46d-052ac2d4ff17","system_id":"levelo_inurba_marseille","lat":43.30465,"lon":5.37909,"is_reserved":false,"is_disabled":false,"rental_uris":{"android":"levelo://app?vid=039260f0-bdc9-4e17-b46d-052ac2d4ff17","ios":"levelo://app?vid=039260f0-bdc9-4e17-b46d-052ac2d4ff17"},"vehicle_type_id":"4","last_reported":1732738288,"current_range_meters":38000,"station_id":"ce4bgup2rcd13ifvqcn0","pricing_plan_id":"cebpf4jnsgd1na2vs0mg"},{"bike_id":"88c0a23c-decf-469d-95fc-e70f9cd8eb3b","system_id":"levelo_inurba_marseille","lat":43.33753,"lon":5.3744,"is_reserved":false,"is_disabled":false,"rental_uris":{"android":"levelo://app?vid=88c0a23c-decf-469d-95fc-e70f9cd8eb3b","ios":"levelo://app?vid=88c0a23c-decf-469d-95fc-e70f9cd8eb3b"},"vehicle_type_id":"4","last_reported":1732738288,"current_range_meters":34800,"station_id":"","pricing_plan_id":"cebpf4jnsgd1na2vs0mg"},{"bike_id":"ce2f759d-6b70-4d5f-9c27-ff12128abca6","system_id":"levelo_inurba_marseille","lat":43.30324,"lon":5.40434,"is_reserved":false,"is_disabled":false,"rental_uris":{"android":"levelo://app?vid=ce2f759d-6b70-4d5f-9c27-ff12128abca6","ios":"levelo://app?vid=ce2f759d-6b70-4d5f-9c27-ff12128abca6"},"vehicle_type_id":"4","last_reported":1732738288,"current_range_meters":28400,"station_id":"ce4bh012rcd13ifvqd10","pricing_plan_id":"cebpf4jnsgd1na2vs0mg"},{"bike_id":"d93067c3-4848-4450-992d-7925dfe41b1d","system_id":"levelo_inurba_marseille","lat":43.25575,"lon":5.38227,"is_reserved":false,"is_disabled":false,"rental_uris":{"android":"levelo://app?vid=d93067c3-4848-4450-992d-7925dfe41b1d","ios":"levelo://app?vid=d93067c3-4848-4450-992d-7925dfe41b1d"},"vehicle_type_id":"4","last_reported":1732738288,"current_range_meters":38800,"station_id":"ce4bhih2rcd13ifvqfs0","pricing_plan_id":"cebpf4jnsgd1na2vs0mg"},{"bike_id":"318a6aa4-78ed-474d-abd7-4e3dfa07adf2","system_id":"levelo_inurba_marseille","lat":43.28409,"lon":5.37513,"is_reserved":false,"is_disabled":false,"rental_uris":{"android":"levelo://app?vid=318a6aa4-78ed-474d-abd7-4e3dfa07adf2","ios":"levelo://app?vid=318a6aa4-78ed-474d-abd7-4e3dfa07adf2"},"vehicle_type_id":"4","last_reported":1732738288,"current_range_meters":10800,"station_id":"ce4bh412rcd13ifvqds0","pricing_plan_id":"cebpf4jnsgd1na2vs0mg"},{"bike_id":"1805a0ab-6a6d-46bc-bfcf-763d2e06b1ff","system_id":"levelo_inurba_marseille","lat":43.29191,"lon":5.39313,"is_reserved":false,"is_disabled":false,"rental_uris":{"android":"levelo://app?vid=1805a0ab-6a6d-46bc-bfcf-763d2e06b1ff","ios":"levelo://app?vid=1805a0ab-6a6d-46bc-bfcf-763d2e06b1ff"},"vehicle_type_id":"4","last_reported":1732738288,"current_range_meters":32800,"station_id":"ce4bh192rcd13ifvqdd0","pricing_plan_id":"cebpf4jnsgd1na2vs0mg"},{"bike_id":"d208b70b-cfeb-47de-81b0-222dbd574cb7","system_id":"levelo_inurba_marseille","lat":43.2307,"lon":5.35496,"is_reserved":false,"is_disabled":false,"rental_uris":{"android":"levelo://app?vid=d208b70b-cfeb-47de-81b0-222dbd574cb7","ios":"levelo://app?vid=d208b70b-cfeb-47de-81b0-222dbd574cb7"},"vehicle_type_id":"4","last_reported":1732738288,"current_range_meters":38800,"station_id":"cpo3342slgdg3j2ifvpg","pricing_plan_id":"cebpf4jnsgd1na2vs0mg"},{"bike_id":"f5a64cac-4ce3-4b66-b159-ca9ca0e9d1fe","system_id":"levelo_inurba_marseille","lat":43.30307,"lon":5.36882,"is_reserved":false,"is_disabled":false,"rental_uris":{"android":"levelo://app?vid=f5a64cac-4ce3-4b66-b159-ca9ca0e9d1fe","ios":"levelo://app?vid=f5a64cac-4ce3-4b66-b159-ca9ca0e9d1fe"},"vehicle_type_id":"4","last_reported":1732738288,"current_range_meters":36800,"station_id":"ce4bgqh2rcd13ifvqc5g","pricing_plan_id":"cebpf4jnsgd1na2vs0mg"},{"bike_id":"5249c720-4ecf-407f-95ee-f4da1041dcb5","system_id":"levelo_inurba_marseille","lat":43.2669,"lon":5.38274,"is_reserved":false,"is_disabled":true,"rental_uris":{"android":"levelo://app?vid=5249c720-4ecf-407f-95ee-f4da1041dcb5","ios":"levelo://app?vid=5249c720-4ecf-407f-95ee-f4da1041dcb5"},"vehicle_type_id":"4","last_reported":1732738288,"current_range_meters":33200,"station_id":"ce4bhg92rcd13ifvqf90","pricing_plan_id":"cebpf4jnsgd1na2vs0mg"},{"bike_id":"4a76d143-6b22-4633-96fa-c3a97ae49df5","system_id":"levelo_inurba_marseille","lat":43.29595,"lon":5.38152,"is_reserved":false,"is_disabled":false,"rental_uris":{"android":"levelo://app?vid=4a76d143-6b22-4633-96fa-c3a97ae49df5","ios":"levelo://app?vid=4a76d143-6b22-4633-96fa-c3a97ae49df5"},"vehicle_type_id":"4","last_reported":1732738288,"current_range_meters":38000,"station_id":"ce4bh612rcd13ifvqe6g","pricing_plan_id":"cebpf4jnsgd1na2vs0mg"},{"bike_id":"4709c438-f4af-415a-a919-d27302b75dca","system_id":"levelo_inurba_marseille","lat":43.23196,"lon":5.35555,"is_reserved":false,"is_disabled":false,"rental_uris":{"android":"levelo://app?vid=4709c438-f4af-415a-a919-d27302b75dca","ios":"levelo://app?vid=4709c438-f4af-415a-a919-d27302b75dca"},"vehicle_type_id":"4","last_reported":1732738288,"current_range_meters":38800,"station_id":"ce4bhu92rcd13ifvqi70","pricing_plan_id":"cebpf4jnsgd1na2vs0mg"},{"bike_id":"2b921899-1359-49b6-a793-ffb9ef50e656","system_id":"levelo_inurba_marseille","lat":43.29619,"lon":5.37718,"is_reserved":false,"is_disabled":true,"rental_uris":{"android":"levelo://app?vid=2b921899-1359-49b6-a793-ffb9ef50e656","ios":"levelo://app?vid=2b921899-1359-49b6-a793-ffb9ef50e656"},"vehicle_type_id":"4","last_reported":1732738288,"current_range_meters":38800,"station_id":"ce4bgi92rcd13ifvqb90","pricing_plan_id":"cebpf4jnsgd1na2vs0mg"},{"bike_id":"06e2d97c-2751-4d5a-bf66-fdeb621ef302","system_id":"levelo_inurba_marseille","lat":43.27988,"lon":5.40011,"is_reserved":false,"is_disabled":false,"rental_uris":{"android":"levelo://app?vid=06e2d97c-2751-4d5a-bf66-fdeb621ef302","ios":"levelo://app?vid=06e2d97c-2751-4d5a-bf66-fdeb621ef302"},"vehicle_type_id":"4","last_reported":1732738288,"current_range_meters":36400,"station_id":"ce4bho92rcd13ifvqh4g","pricing_plan_id":"cebpf4jnsgd1na2vs0mg"},{"bike_id":"181851fb-d5fd-4b64-a671-8ea8285234d7","system_id":"levelo_inurba_marseille","lat":43.32368,"lon":5.38881,"is_reserved":false,"is_disabled":false,"rental_uris":{"android":"levelo://app?vid=181851fb-d5fd-4b64-a671-8ea8285234d7","ios":"levelo://app?vid=181851fb-d5fd-4b64-a671-8ea8285234d7"},"vehicle_type_id":"4","last_reported":1732738288,"current_range_meters":16000,"station_id":"ce4bhqp2rcd13ifvqhog","pricing_plan_id":"cebpf4jnsgd1na2vs0mg"},{"bike_id":"b4a4ef82-6c86-4b8a-9be3-39e60974a203","system_id":"levelo_inurba_marseille","lat":43.24801,"lon":5.37455,"is_reserved":false,"is_disabled":false,"rental_uris":{"android":"levelo://app?vid=b4a4ef82-6c86-4b8a-9be3-39e60974a203","ios":"levelo://app?vid=b4a4ef82-6c86-4b8a-9be3-39e60974a203"},"vehicle_type_id":"4","last_reported":1732738288,"current_range_meters":28400,"station_id":"ce4bhgh2rcd13ifvqfb0","pricing_plan_id":"cebpf4jnsgd1na2vs0mg"},{"bike_id":"a833b1a9-9114-4797-905e-009322efb201","system_id":"levelo_inurba_marseille","lat":43.31714,"lon":5.37761,"is_reserved":false,"is_disabled":false,"rental_uris":{"android":"levelo://app?vid=a833b1a9-9114-4797-905e-009322efb201","ios":"levelo://app?vid=a833b1a9-9114-4797-905e-009322efb201"},"vehicle_type_id":"4","last_reported":1732738288,"current_range_meters":25600,"station_id":"ce4bgth2rcd13ifvqch0","pricing_plan_id":"cebpf4jnsgd1na2vs0mg"},{"bike_id":"869146c7-107f-4a8d-a9de-076457eea766","system_id":"levelo_inurba_marseille","lat":43.21672,"lon":5.34638,"is_reserved":false,"is_disabled":false,"rental_uris":{"android":"levelo://app?vid=869146c7-107f-4a8d-a9de-076457eea766","ios":"levelo://app?vid=869146c7-107f-4a8d-a9de-076457eea766"},"vehicle_type_id":"4","last_reported":1732738288,"current_range_meters":14800,"station_id":"","pricing_plan_id":"cebpf4jnsgd1na2vs0mg"},{"bike_id":"8b53c6cd-9f6a-4960-8a00-178f9f03d8f4","system_id":"levelo_inurba_marseille","lat":43.28851,"lon":5.35869,"is_reserved":false,"is_disabled":false,"rental_uris":{"android":"levelo://app?vid=8b53c6cd-9f6a-4960-8a00-178f9f03d8f4","ios":"levelo://app?vid=8b53c6cd-9f6a-4960-8a00-178f9f03d8f4"},"vehicle_type_id":"4","last_reported":1732738288,"current_range_meters":39200,"station_id":"ce4bhb12rcd13ifvqem0","pricing_plan_id":"cebpf4jnsgd1na2vs0mg"},{"bike_id":"795261f2-b1b3-4815-8621-b05e15272009","system_id":"levelo_inurba_marseille","lat":43.2872,"lon":5.37939,"is_reserved":false,"is_disabled":false,"rental_uris":{"android":"levelo://app?vid=795261f2-b1b3-4815-8621-b05e15272009","ios":"levelo://app?vid=795261f2-b1b3-4815-8621-b05e15272009"},"vehicle_type_id":"4","last_reported":1732738288,"current_range_meters":13600,"station_id":"ce4bh9p2rcd13ifvqec0","pricing_plan_id":"cebpf4jnsgd1na2vs0mg"},{"bike_id":"fc473c74-e319-4c30-9c0b-949d06ff9b62","system_id":"levelo_inurba_marseille","lat":43.29278,"lon":5.40116,"is_reserved":false,"is_disabled":false,"rental_uris":{"android":"levelo://app?vid=fc473c74-e319-4c30-9c0b-949d06ff9b62","ios":"levelo://app?vid=fc473c74-e319-4c30-9c0b-949d06ff9b62"},"vehicle_type_id":"4","last_reported":1732738288,"current_range_meters":26800,"station_id":"ce4bh312rcd13ifvqdk0","pricing_plan_id":"cebpf4jnsgd1na2vs0mg"},{"bike_id":"b84e56b8-be65-4017-a4f1-0b10778c3b5b","system_id":"levelo_inurba_marseille","lat":43.28573,"lon":5.395,"is_reserved":false,"is_disabled":false,"rental_uris":{"android":"levelo://app?vid=b84e56b8-be65-4017-a4f1-0b10778c3b5b","ios":"levelo://app?vid=b84e56b8-be65-4017-a4f1-0b10778c3b5b"},"vehicle_type_id":"4","last_reported":1732738288,"current_range_meters":26800,"station_id":"ce4bh292rcd13ifvqdg0","pricing_plan_id":"cebpf4jnsgd1na2vs0mg"},{"bike_id":"de1ca9e9-b954-4a0a-bf98-44af75deb117","system_id":"levelo_inurba_marseille","lat":43.31164,"lon":5.38725,"is_reserved":false,"is_disabled":false,"rental_uris":{"android":"levelo://app?vid=de1ca9e9-b954-4a0a-bf98-44af75deb117","ios":"levelo://app?vid=de1ca9e9-b954-4a0a-bf98-44af75deb117"},"vehicle_type_id":"4","last_reported":1732738288,"current_range_meters":27600,"station_id":"ce4bgv12rcd13ifvqcp0","pricing_plan_id":"cebpf4jnsgd1na2vs0mg"},{"bike_id":"4376f175-aac9-493d-bfa1-e081a99b5db3","system_id":"levelo_inurba_marseille","lat":43.28154,"lon":5.42644,"is_reserved":false,"is_disabled":false,"rental_uris":{"android":"levelo://app?vid=4376f175-aac9-493d-bfa1-e081a99b5db3","ios":"levelo://app?vid=4376f175-aac9-493d-bfa1-e081a99b5db3"},"vehicle_type_id":"4","last_reported":1732738288,"current_range_meters":38000,"station_id":"ce4bhnh2rcd13ifvqgug","pricing_plan_id":"cebpf4jnsgd1na2vs0mg"},{"bike_id":"029fadc3-0a47-4854-9081-421a1c761db5","system_id":"levelo_inurba_marseille","lat":43.25863,"lon":5.39901,"is_reserved":false,"is_disabled":false,"rental_uris":{"android":"levelo://app?vid=029fadc3-0a47-4854-9081-421a1c761db5","ios":"levelo://app?vid=029fadc3-0a47-4854-9081-421a1c761db5"},"vehicle_type_id":"4","last_reported":1732738288,"current_range_meters":38000,"station_id":"ce4bhl92rcd13ifvqghg","pricing_plan_id":"cebpf4jnsgd1na2vs0mg"},{"bike_id":"775aba22-baf5-4ce5-b645-5941a20cb104","system_id":"levelo_inurba_marseille","lat":43.27379,"lon":5.36252,"is_reserved":false,"is_disabled":true,"rental_uris":{"android":"levelo://app?vid=775aba22-baf5-4ce5-b645-5941a20cb104","ios":"levelo://app?vid=775aba22-baf5-4ce5-b645-5941a20cb104"},"vehicle_type_id":"4","last_reported":1732738288,"current_range_meters":38800,"station_id":"ce4bhbh2rcd13ifvqeo0","pricing_plan_id":"cebpf4jnsgd1na2vs0mg"},{"bike_id":"fa3c8ea2-ec55-46d7-b1f1-4c7f08bc04bb","system_id":"levelo_inurba_marseille","lat":43.29259,"lon":5.40908,"is_reserved":false,"is_disabled":false,"rental_uris":{"android":"levelo://app?vid=fa3c8ea2-ec55-46d7-b1f1-4c7f08bc04bb","ios":"levelo://app?vid=fa3c8ea2-ec55-46d7-b1f1-4c7f08bc04bb"},"vehicle_type_id":"4","last_reported":1732738288,"current_range_meters":28000,"station_id":"ce4bh192rcd13ifvqdc0","pricing_plan_id":"cebpf4jnsgd1na2vs0mg"},{"bike_id":"118fa243-bbd5-4b6c-a03c-8b96ccf179f3","system_id":"levelo_inurba_marseille","lat":43.29578,"lon":5.3674,"is_reserved":false,"is_disabled":false,"rental_uris":{"android":"levelo://app?vid=118fa243-bbd5-4b6c-a03c-8b96ccf179f3","ios":"levelo://app?vid=118fa243-bbd5-4b6c-a03c-8b96ccf179f3"},"vehicle_type_id":"4","last_reported":1732738288,"current_range_meters":28400,"station_id":"ce4bgph2rcd13ifvqc2g","pricing_plan_id":"cebpf4jnsgd1na2vs0mg"},{"bike_id":"10515226-3d19-49b0-b8c2-7bbf5cbf72e4","system_id":"levelo_inurba_marseille","lat":43.29001,"lon":5.35619,"is_reserved":false,"is_disabled":true,"rental_uris":{"android":"levelo://app?vid=10515226-3d19-49b0-b8c2-7bbf5cbf72e4","ios":"levelo://app?vid=10515226-3d19-49b0-b8c2-7bbf5cbf72e4"},"vehicle_type_id":"4","last_reported":1732738288,"current_range_meters":4000,"station_id":"ce4bhb92rcd13ifvqen0","pricing_plan_id":"cebpf4jnsgd1na2vs0mg"},{"bike_id":"fc70d070-9e1b-4a8a-9f31-13bbd3826235","system_id":"levelo_inurba_marseille","lat":43.29262,"lon":5.38445,"is_reserved":false,"is_disabled":false,"rental_uris":{"android":"levelo://app?vid=fc70d070-9e1b-4a8a-9f31-13bbd3826235","ios":"levelo://app?vid=fc70d070-9e1b-4a8a-9f31-13bbd3826235"},"vehicle_type_id":"4","last_reported":1732738288,"current_range_meters":11200,"station_id":"ce4bh692rcd13ifvqea0","pricing_plan_id":"cebpf4jnsgd1na2vs0mg"},{"bike_id":"b027cfe8-9e8b-4c51-a5b4-dde30773800e","system_id":"levelo_inurba_marseille","lat":43.30421,"lon":5.39754,"is_reserved":false,"is_disabled":false,"rental_uris":{"android":"levelo://app?vid=b027cfe8-9e8b-4c51-a5b4-dde30773800e","ios":"levelo://app?vid=b027cfe8-9e8b-4c51-a5b4-dde30773800e"},"vehicle_type_id":"4","last_reported":1732738288,"current_range_meters":6800,"station_id":"ce4bh092rcd13ifvqd20","pricing_plan_id":"cebpf4jnsgd1na2vs0mg"},{"bike_id":"4d4c884f-6933-49c0-8899-f9856d90f44d","system_id":"levelo_inurba_marseille","lat":43.29748,"lon":5.37971,"is_reserved":false,"is_disabled":true,"rental_uris":{"android":"levelo://app?vid=4d4c884f-6933-49c0-8899-f9856d90f44d","ios":"levelo://app?vid=4d4c884f-6933-49c0-8899-f9856d90f44d"},"vehicle_type_id":"4","last_reported":1732738288,"current_range_meters":0,"station_id":"","pricing_plan_id":"cebpf4jnsgd1na2vs0mg"},{"bike_id":"6721ede4-63a9-4703-86ea-67c96afd4588","system_id":"levelo_inurba_marseille","lat":43.28415,"lon":5.37512,"is_reserved":false,"is_disabled":true,"rental_uris":{"android":"levelo://app?vid=6721ede4-63a9-4703-86ea-67c96afd4588","ios":"levelo://app?vid=6721ede4-63a9-4703-86ea-67c96afd4588"},"vehicle_type_id":"4","last_reported":1732738288,"current_range_meters":0,"station_id":"ce4bh412rcd13ifvqds0","pricing_plan_id":"cebpf4jnsgd1na2vs0mg"},{"bike_id":"bd120508-d679-451c-bffc-3cdef63b4b0d","system_id":"levelo_inurba_marseille","lat":43.28699,"lon":5.3739,"is_reserved":false,"is_disabled":false,"rental_uris":{"android":"levelo://app?vid=bd120508-d679-451c-bffc-3cdef63b4b0d","ios":"levelo://app?vid=bd120508-d679-451c-bffc-3cdef63b4b0d"},"vehicle_type_id":"4","last_reported":1732738288,"current_range_meters":6800,"station_id":"ce4bh3p2rcd13ifvqdq0","pricing_plan_id":"cebpf4jnsgd1na2vs0mg"},{"bike_id":"9009be37-c6b1-406b-b0a8-fbab355f715e","system_id":"levelo_inurba_marseille","lat":43.33761,"lon":5.37497,"is_reserved":false,"is_disabled":false,"rental_uris":{"android":"levelo://app?vid=9009be37-c6b1-406b-b0a8-fbab355f715e","ios":"levelo://app?vid=9009be37-c6b1-406b-b0a8-fbab355f715e"},"vehicle_type_id":"4","last_reported":1732738288,"current_range_meters":38000,"station_id":"","pricing_plan_id":"cebpf4jnsgd1na2vs0mg"},{"bike_id":"b7786aae-59fe-4f05-aaca-2afeb9de6eea","system_id":"levelo_inurba_marseille","lat":43.29193,"lon":5.39319,"is_reserved":false,"is_disabled":false,"rental_uris":{"android":"levelo://app?vid=b7786aae-59fe-4f05-aaca-2afeb9de6eea","ios":"levelo://app?vid=b7786aae-59fe-4f05-aaca-2afeb9de6eea"},"vehicle_type_id":"4","last_reported":1732738288,"current_range_meters":21600,"station_id":"ce4bh192rcd13ifvqdd0","pricing_plan_id":"cebpf4jnsgd1na2vs0mg"},{"bike_id":"79e0b48c-a0ec-44c8-b7cc-20d7d7adc530","system_id":"levelo_inurba_marseille","lat":43.31997,"lon":5.3815,"is_reserved":false,"is_disabled":false,"rental_uris":{"android":"levelo://app?vid=79e0b48c-a0ec-44c8-b7cc-20d7d7adc530","ios":"levelo://app?vid=79e0b48c-a0ec-44c8-b7cc-20d7d7adc530"},"vehicle_type_id":"4","last_reported":1732738288,"current_range_meters":39200,"station_id":"ce4bhr12rcd13ifvqhpg","pricing_plan_id":"cebpf4jnsgd1na2vs0mg"},{"bike_id":"787da3e5-5eaa-466d-a942-f9510f3bbd6d","system_id":"levelo_inurba_marseille","lat":43.27903,"lon":5.39594,"is_reserved":false,"is_disabled":false,"rental_uris":{"android":"levelo://app?vid=787da3e5-5eaa-466d-a942-f9510f3bbd6d","ios":"levelo://app?vid=787da3e5-5eaa-466d-a942-f9510f3bbd6d"},"vehicle_type_id":"4","last_reported":1732738288,"current_range_meters":38800,"station_id":"ce4bhf92rcd13ifvqf40","pricing_plan_id":"cebpf4jnsgd1na2vs0mg"},{"bike_id":"f5aeebee-1370-4856-bfc8-b8ee01ad0dbc","system_id":"levelo_inurba_marseille","lat":43.28852,"lon":5.39317,"is_reserved":false,"is_disabled":true,"rental_uris":{"android":"levelo://app?vid=f5aeebee-1370-4856-bfc8-b8ee01ad0dbc","ios":"levelo://app?vid=f5aeebee-1370-4856-bfc8-b8ee01ad0dbc"},"vehicle_type_id":"4","last_reported":1732738288,"current_range_meters":1600,"station_id":"ce4bh2p2rcd13ifvqdi0","pricing_plan_id":"cebpf4jnsgd1na2vs0mg"},{"bike_id":"cc39417c-9fe6-4314-b916-d5d5360bfdd4","system_id":"levelo_inurba_marseille","lat":43.3254,"lon":5.41421,"is_reserved":false,"is_disabled":false,"rental_uris":{"android":"levelo://app?vid=cc39417c-9fe6-4314-b916-d5d5360bfdd4","ios":"levelo://app?vid=cc39417c-9fe6-4314-b916-d5d5360bfdd4"},"vehicle_type_id":"4","last_reported":1732738288,"current_range_meters":37600,"station_id":"ce4bhq12rcd13ifvqhhg","pricing_plan_id":"cebpf4jnsgd1na2vs0mg"},{"bike_id":"299f58fd-6e29-4e06-a65a-1ba6949f2bdc","system_id":"levelo_inurba_marseille","lat":43.33786,"lon":5.37392,"is_reserved":false,"is_disabled":false,"rental_uris":{"android":"levelo://app?vid=299f58fd-6e29-4e06-a65a-1ba6949f2bdc","ios":"levelo://app?vid=299f58fd-6e29-4e06-a65a-1ba6949f2bdc"},"vehicle_type_id":"4","last_reported":1732738288,"current_range_meters":35200,"station_id":"","pricing_plan_id":"cebpf4jnsgd1na2vs0mg"},{"bike_id":"4d809776-4d2b-4bf5-8aa6-666b5b1fd18f","system_id":"levelo_inurba_marseille","lat":43.33725,"lon":5.39182,"is_reserved":false,"is_disabled":false,"rental_uris":{"android":"levelo://app?vid=4d809776-4d2b-4bf5-8aa6-666b5b1fd18f","ios":"levelo://app?vid=4d809776-4d2b-4bf5-8aa6-666b5b1fd18f"},"vehicle_type_id":"4","last_reported":1732738288,"current_range_meters":36800,"station_id":"ce4bhr92rcd13ifvqhsg","pricing_plan_id":"cebpf4jnsgd1na2vs0mg"},{"bike_id":"a951ec7e-dc5f-4522-b098-eca58f362ce9","system_id":"levelo_inurba_marseille","lat":43.28701,"lon":5.37383,"is_reserved":false,"is_disabled":false,"rental_uris":{"android":"levelo://app?vid=a951ec7e-dc5f-4522-b098-eca58f362ce9","ios":"levelo://app?vid=a951ec7e-dc5f-4522-b098-eca58f362ce9"},"vehicle_type_id":"4","last_reported":1732738288,"current_range_meters":8400,"station_id":"ce4bh3p2rcd13ifvqdq0","pricing_plan_id":"cebpf4jnsgd1na2vs0mg"},{"bike_id":"24b2d706-14f2-4a05-a5fd-2a7358cbae81","system_id":"levelo_inurba_marseille","lat":43.24644,"lon":5.38887,"is_reserved":false,"is_disabled":true,"rental_uris":{"android":"levelo://app?vid=24b2d706-14f2-4a05-a5fd-2a7358cbae81","ios":"levelo://app?vid=24b2d706-14f2-4a05-a5fd-2a7358cbae81"},"vehicle_type_id":"4","last_reported":1732738288,"current_range_meters":1600,"station_id":"ce4bhg12rcd13ifvqf60","pricing_plan_id":"cebpf4jnsgd1na2vs0mg"},{"bike_id":"7dccca16-9c81-46ba-8ec7-8ac114550316","system_id":"levelo_inurba_marseille","lat":43.337444,"lon":5.374475,"is_reserved":false,"is_disabled":false,"rental_uris":{"android":"levelo://app?vid=7dccca16-9c81-46ba-8ec7-8ac114550316","ios":"levelo://app?vid=7dccca16-9c81-46ba-8ec7-8ac114550316"},"vehicle_type_id":"4","last_reported":1732738288,"current_range_meters":36400,"station_id":"","pricing_plan_id":"cebpf4jnsgd1na2vs0mg"},{"bike_id":"2baabd87-8573-4055-84c7-779671c90da0","system_id":"levelo_inurba_marseille","lat":43.29021,"lon":5.38131,"is_reserved":false,"is_disabled":false,"rental_uris":{"android":"levelo://app?vid=2baabd87-8573-4055-84c7-779671c90da0","ios":"levelo://app?vid=2baabd87-8573-4055-84c7-779671c90da0"},"vehicle_type_id":"4","last_reported":1732738288,"current_range_meters":39200,"station_id":"ce4bh4p2rcd13ifvqe1g","pricing_plan_id":"cebpf4jnsgd1na2vs0mg"},{"bike_id":"bd885ca6-2ea7-4fe9-b7ee-87d92f1da228","system_id":"levelo_inurba_marseille","lat":43.27495,"lon":5.42447,"is_reserved":false,"is_disabled":false,"rental_uris":{"android":"levelo://app?vid=bd885ca6-2ea7-4fe9-b7ee-87d92f1da228","ios":"levelo://app?vid=bd885ca6-2ea7-4fe9-b7ee-87d92f1da228"},"vehicle_type_id":"4","last_reported":1732738288,"current_range_meters":23200,"station_id":"ce4bhn92rcd13ifvqgrg","pricing_plan_id":"cebpf4jnsgd1na2vs0mg"},{"bike_id":"95c39abd-631b-4674-8877-bb71fdbca347","system_id":"levelo_inurba_marseille","lat":43.29614,"lon":5.37708,"is_reserved":false,"is_disabled":true,"rental_uris":{"android":"levelo://app?vid=95c39abd-631b-4674-8877-bb71fdbca347","ios":"levelo://app?vid=95c39abd-631b-4674-8877-bb71fdbca347"},"vehicle_type_id":"4","last_reported":1732738288,"current_range_meters":12000,"station_id":"ce4bgi92rcd13ifvqb90","pricing_plan_id":"cebpf4jnsgd1na2vs0mg"},{"bike_id":"7b45e0d0-86a8-47b5-8420-74a05761af04","system_id":"levelo_inurba_marseille","lat":43.27926,"lon":5.39569,"is_reserved":false,"is_disabled":false,"rental_uris":{"android":"levelo://app?vid=7b45e0d0-86a8-47b5-8420-74a05761af04","ios":"levelo://app?vid=7b45e0d0-86a8-47b5-8420-74a05761af04"},"vehicle_type_id":"4","last_reported":1732738288,"current_range_meters":38800,"station_id":"ce4bhf92rcd13ifvqf40","pricing_plan_id":"cebpf4jnsgd1na2vs0mg"},{"bike_id":"8461a6e3-8659-4323-aa9a-efb294c5aa91","system_id":"levelo_inurba_marseille","lat":43.29774,"lon":5.39336,"is_reserved":false,"is_disabled":false,"rental_uris":{"android":"levelo://app?vid=8461a6e3-8659-4323-aa9a-efb294c5aa91","ios":"levelo://app?vid=8461a6e3-8659-4323-aa9a-efb294c5aa91"},"vehicle_type_id":"4","last_reported":1732738288,"current_range_meters":27200,"station_id":"chh1huq6cuj3fo74tm60","pricing_plan_id":"cebpf4jnsgd1na2vs0mg"},{"bike_id":"8429aac6-e205-4db7-b830-738d1a402a04","system_id":"levelo_inurba_marseille","lat":43.31449,"lon":5.37386,"is_reserved":false,"is_disabled":false,"rental_uris":{"android":"levelo://app?vid=8429aac6-e205-4db7-b830-738d1a402a04","ios":"levelo://app?vid=8429aac6-e205-4db7-b830-738d1a402a04"},"vehicle_type_id":"4","last_reported":1732738288,"current_range_meters":17600,"station_id":"","pricing_plan_id":"cebpf4jnsgd1na2vs0mg"},{"bike_id":"1dee5398-ece1-4217-b5b9-984f22c2ff59","system_id":"levelo_inurba_marseille","lat":43.2926,"lon":5.38444,"is_reserved":false,"is_disabled":true,"rental_uris":{"android":"levelo://app?vid=1dee5398-ece1-4217-b5b9-984f22c2ff59","ios":"levelo://app?vid=1dee5398-ece1-4217-b5b9-984f22c2ff59"},"vehicle_type_id":"4","last_reported":1732738288,"current_range_meters":0,"station_id":"ce4bh692rcd13ifvqea0","pricing_plan_id":"cebpf4jnsgd1na2vs0mg"},{"bike_id":"06282a1e-693c-4687-b5aa-64885f185c77","system_id":"levelo_inurba_marseille","lat":43.28431,"lon":5.39186,"is_reserved":false,"is_disabled":false,"rental_uris":{"android":"levelo://app?vid=06282a1e-693c-4687-b5aa-64885f185c77","ios":"levelo://app?vid=06282a1e-693c-4687-b5aa-64885f185c77"},"vehicle_type_id":"4","last_reported":1732738288,"current_range_meters":10800,"station_id":"ce4bhoh2rcd13ifvqh5g","pricing_plan_id":"cebpf4jnsgd1na2vs0mg"},{"bike_id":"d6d4a08a-0920-4b9c-a7c2-1058437044b9","system_id":"levelo_inurba_marseille","lat":43.28466,"lon":5.35884,"is_reserved":false,"is_disabled":false,"rental_uris":{"android":"levelo://app?vid=d6d4a08a-0920-4b9c-a7c2-1058437044b9","ios":"levelo://app?vid=d6d4a08a-0920-4b9c-a7c2-1058437044b9"},"vehicle_type_id":"4","last_reported":1732738288,"current_range_meters":14400,"station_id":"ce4bhah2rcd13ifvqei0","pricing_plan_id":"cebpf4jnsgd1na2vs0mg"},{"bike_id":"ae27d36e-a736-4bd0-9e1e-8d7ee12e2e51","system_id":"levelo_inurba_marseille","lat":43.29603,"lon":5.37697,"is_reserved":false,"is_disabled":true,"rental_uris":{"android":"levelo://app?vid=ae27d36e-a736-4bd0-9e1e-8d7ee12e2e51","ios":"levelo://app?vid=ae27d36e-a736-4bd0-9e1e-8d7ee12e2e51"},"vehicle_type_id":"4","last_reported":1732738288,"current_range_meters":0,"station_id":"ce4bgi92rcd13ifvqb90","pricing_plan_id":"cebpf4jnsgd1na2vs0mg"},{"bike_id":"6721231f-5058-4cb1-906f-ddc83c473e32","system_id":"levelo_inurba_marseille","lat":43.26499,"lon":5.39539,"is_reserved":false,"is_disabled":false,"rental_uris":{"android":"levelo://app?vid=6721231f-5058-4cb1-906f-ddc83c473e32","ios":"levelo://app?vid=6721231f-5058-4cb1-906f-ddc83c473e32"},"vehicle_type_id":"4","last_reported":1732738288,"current_range_meters":30400,"station_id":"ce4bhi12rcd13ifvqfq0","pricing_plan_id":"cebpf4jnsgd1na2vs0mg"},{"bike_id":"6c6a93bf-e171-448f-8ea9-1241abd089a1","system_id":"levelo_inurba_marseille","lat":43.27814,"lon":5.40705,"is_reserved":false,"is_disabled":false,"rental_uris":{"android":"levelo://app?vid=6c6a93bf-e171-448f-8ea9-1241abd089a1","ios":"levelo://app?vid=6c6a93bf-e171-448f-8ea9-1241abd089a1"},"vehicle_type_id":"4","last_reported":1732738288,"current_range_meters":38000,"station_id":"ce4bhnh2rcd13ifvqgtg","pricing_plan_id":"cebpf4jnsgd1na2vs0mg"},{"bike_id":"9cb6c74b-b2fa-4509-948e-c5b932aa2dcd","system_id":"levelo_inurba_marseille","lat":43.31762,"lon":5.39014,"is_reserved":false,"is_disabled":true,"rental_uris":{"android":"levelo://app?vid=9cb6c74b-b2fa-4509-948e-c5b932aa2dcd","ios":"levelo://app?vid=9cb6c74b-b2fa-4509-948e-c5b932aa2dcd"},"vehicle_type_id":"4","last_reported":1732738288,"current_range_meters":0,"station_id":"ce4bhqp2rcd13ifvqhng","pricing_plan_id":"cebpf4jnsgd1na2vs0mg"},{"bike_id":"c95c4693-c5ad-466c-80f7-0ba7fd5234d5","system_id":"levelo_inurba_marseille","lat":43.30781,"lon":5.3764,"is_reserved":false,"is_disabled":false,"rental_uris":{"android":"levelo://app?vid=c95c4693-c5ad-466c-80f7-0ba7fd5234d5","ios":"levelo://app?vid=c95c4693-c5ad-466c-80f7-0ba7fd5234d5"},"vehicle_type_id":"4","last_reported":1732738288,"current_range_meters":19600,"station_id":"ce4bgv92rcd13ifvqcq0","pricing_plan_id":"cebpf4jnsgd1na2vs0mg"},{"bike_id":"39b04c21-6a6a-40a7-a489-741c2b67c9bd","system_id":"levelo_inurba_marseille","lat":43.3372,"lon":5.39192,"is_reserved":false,"is_disabled":false,"rental_uris":{"android":"levelo://app?vid=39b04c21-6a6a-40a7-a489-741c2b67c9bd","ios":"levelo://app?vid=39b04c21-6a6a-40a7-a489-741c2b67c9bd"},"vehicle_type_id":"4","last_reported":1732738288,"current_range_meters":8800,"station_id":"ce4bhr92rcd13ifvqhsg","pricing_plan_id":"cebpf4jnsgd1na2vs0mg"},{"bike_id":"573f1a32-0100-4632-81f0-9f78c4587cd4","system_id":"levelo_inurba_marseille","lat":43.28407,"lon":5.37526,"is_reserved":false,"is_disabled":true,"rental_uris":{"android":"levelo://app?vid=573f1a32-0100-4632-81f0-9f78c4587cd4","ios":"levelo://app?vid=573f1a32-0100-4632-81f0-9f78c4587cd4"},"vehicle_type_id":"4","last_reported":1732738288,"current_range_meters":0,"station_id":"ce4bh412rcd13ifvqds0","pricing_plan_id":"cebpf4jnsgd1na2vs0mg"},{"bike_id":"792fdbf5-23f6-43fa-bef0-cbc93d0216d2","system_id":"levelo_inurba_marseille","lat":43.27815,"lon":5.40712,"is_reserved":false,"is_disabled":false,"rental_uris":{"android":"levelo://app?vid=792fdbf5-23f6-43fa-bef0-cbc93d0216d2","ios":"levelo://app?vid=792fdbf5-23f6-43fa-bef0-cbc93d0216d2"},"vehicle_type_id":"4","last_reported":1732738288,"current_range_meters":39200,"station_id":"ce4bhnh2rcd13ifvqgtg","pricing_plan_id":"cebpf4jnsgd1na2vs0mg"},{"bike_id":"59310c24-aada-47db-9c55-db87d9c8f60e","system_id":"levelo_inurba_marseille","lat":43.28978,"lon":5.37834,"is_reserved":false,"is_disabled":true,"rental_uris":{"android":"levelo://app?vid=59310c24-aada-47db-9c55-db87d9c8f60e","ios":"levelo://app?vid=59310c24-aada-47db-9c55-db87d9c8f60e"},"vehicle_type_id":"4","last_reported":1732738288,"current_range_meters":7200,"station_id":"ce4bh9p2rcd13ifvqed0","pricing_plan_id":"cebpf4jnsgd1na2vs0mg"},{"bike_id":"6ce9857f-154a-4827-8f47-31036535fe73","system_id":"levelo_inurba_marseille","lat":43.31886,"lon":5.40728,"is_reserved":false,"is_disabled":false,"rental_uris":{"android":"levelo://app?vid=6ce9857f-154a-4827-8f47-31036535fe73","ios":"levelo://app?vid=6ce9857f-154a-4827-8f47-31036535fe73"},"vehicle_type_id":"4","last_reported":1732738288,"current_range_meters":35200,"station_id":"ce4bhq12rcd13ifvqhig","pricing_plan_id":"cebpf4jnsgd1na2vs0mg"},{"bike_id":"d00201b4-3045-42a6-baab-97b71694fceb","system_id":"levelo_inurba_marseille","lat":43.24083,"lon":5.37746,"is_reserved":false,"is_disabled":true,"rental_uris":{"android":"levelo://app?vid=d00201b4-3045-42a6-baab-97b71694fceb","ios":"levelo://app?vid=d00201b4-3045-42a6-baab-97b71694fceb"},"vehicle_type_id":"4","last_reported":1732738288,"current_range_meters":38800,"station_id":"ce4bhnp2rcd13ifvqgvg","pricing_plan_id":"cebpf4jnsgd1na2vs0mg"},{"bike_id":"4b81cf97-3c16-40dc-8c70-d1b6abb82e3a","system_id":"levelo_inurba_marseille","lat":43.33023,"lon":5.3904,"is_reserved":false,"is_disabled":true,"rental_uris":{"android":"levelo://app?vid=4b81cf97-3c16-40dc-8c70-d1b6abb82e3a","ios":"levelo://app?vid=4b81cf97-3c16-40dc-8c70-d1b6abb82e3a"},"vehicle_type_id":"4","last_reported":1732738288,"current_range_meters":0,"station_id":"ce4bhr92rcd13ifvqhrg","pricing_plan_id":"cebpf4jnsgd1na2vs0mg"},{"bike_id":"6b4b8fe7-5b4f-485b-93bd-dbec0a3ccc42","system_id":"levelo_inurba_marseille","lat":43.28999,"lon":5.35603,"is_reserved":false,"is_disabled":true,"rental_uris":{"android":"levelo://app?vid=6b4b8fe7-5b4f-485b-93bd-dbec0a3ccc42","ios":"levelo://app?vid=6b4b8fe7-5b4f-485b-93bd-dbec0a3ccc42"},"vehicle_type_id":"4","last_reported":1732738288,"current_range_meters":0,"station_id":"ce4bhb92rcd13ifvqen0","pricing_plan_id":"cebpf4jnsgd1na2vs0mg"},{"bike_id":"c4f87794-5476-4f6c-95a9-bd07b8ec0bd1","system_id":"levelo_inurba_marseille","lat":43.278259,"lon":5.406972,"is_reserved":false,"is_disabled":false,"rental_uris":{"android":"levelo://app?vid=c4f87794-5476-4f6c-95a9-bd07b8ec0bd1","ios":"levelo://app?vid=c4f87794-5476-4f6c-95a9-bd07b8ec0bd1"},"vehicle_type_id":"4","last_reported":1732738288,"current_range_meters":16800,"station_id":"ce4bhnh2rcd13ifvqgtg","pricing_plan_id":"cebpf4jnsgd1na2vs0mg"},{"bike_id":"95c2af00-0797-44a0-b21a-dc89c659b75f","system_id":"levelo_inurba_marseille","lat":43.308,"lon":5.43523,"is_reserved":false,"is_disabled":false,"rental_uris":{"android":"levelo://app?vid=95c2af00-0797-44a0-b21a-dc89c659b75f","ios":"levelo://app?vid=95c2af00-0797-44a0-b21a-dc89c659b75f"},"vehicle_type_id":"4","last_reported":1732738288,"current_range_meters":29600,"station_id":"ce4bhph2rcd13ifvqheg","pricing_plan_id":"cebpf4jnsgd1na2vs0mg"},{"bike_id":"3d374c6a-271a-428d-93a4-556c7af698a0","system_id":"levelo_inurba_marseille","lat":43.28162,"lon":5.42641,"is_reserved":false,"is_disabled":false,"rental_uris":{"android":"levelo://app?vid=3d374c6a-271a-428d-93a4-556c7af698a0","ios":"levelo://app?vid=3d374c6a-271a-428d-93a4-556c7af698a0"},"vehicle_type_id":"4","last_reported":1732738288,"current_range_meters":16400,"station_id":"ce4bhnh2rcd13ifvqgug","pricing_plan_id":"cebpf4jnsgd1na2vs0mg"},{"bike_id":"220ce8bf-6055-439a-932f-70112f24c52b","system_id":"levelo_inurba_marseille","lat":43.32105,"lon":5.3678,"is_reserved":false,"is_disabled":false,"rental_uris":{"android":"levelo://app?vid=220ce8bf-6055-439a-932f-70112f24c52b","ios":"levelo://app?vid=220ce8bf-6055-439a-932f-70112f24c52b"},"vehicle_type_id":"4","last_reported":1732738288,"current_range_meters":14400,"station_id":"ce4bhrh2rcd13ifvqhug","pricing_plan_id":"cebpf4jnsgd1na2vs0mg"},{"bike_id":"bef0b090-d41a-4bec-bcc6-3159ccf77002","system_id":"levelo_inurba_marseille","lat":43.278085,"lon":5.407146,"is_reserved":false,"is_disabled":false,"rental_uris":{"android":"levelo://app?vid=bef0b090-d41a-4bec-bcc6-3159ccf77002","ios":"levelo://app?vid=bef0b090-d41a-4bec-bcc6-3159ccf77002"},"vehicle_type_id":"4","last_reported":1732738288,"current_range_meters":38800,"station_id":"ce4bhnh2rcd13ifvqgtg","pricing_plan_id":"cebpf4jnsgd1na2vs0mg"},{"bike_id":"450cf204-89c4-4b4a-962d-d6555e77218a","system_id":"levelo_inurba_marseille","lat":43.33019,"lon":5.39033,"is_reserved":false,"is_disabled":false,"rental_uris":{"android":"levelo://app?vid=450cf204-89c4-4b4a-962d-d6555e77218a","ios":"levelo://app?vid=450cf204-89c4-4b4a-962d-d6555e77218a"},"vehicle_type_id":"4","last_reported":1732738288,"current_range_meters":22800,"station_id":"ce4bhr92rcd13ifvqhrg","pricing_plan_id":"cebpf4jnsgd1na2vs0mg"},{"bike_id":"db508db4-5989-4d56-8ff3-52352e57ed7c","system_id":"levelo_inurba_marseille","lat":43.31885,"lon":5.40738,"is_reserved":false,"is_disabled":false,"rental_uris":{"android":"levelo://app?vid=db508db4-5989-4d56-8ff3-52352e57ed7c","ios":"levelo://app?vid=db508db4-5989-4d56-8ff3-52352e57ed7c"},"vehicle_type_id":"4","last_reported":1732738288,"current_range_meters":17200,"station_id":"ce4bhq12rcd13ifvqhig","pricing_plan_id":"cebpf4jnsgd1na2vs0mg"},{"bike_id":"67a2b4a4-e8ce-4108-b66f-1aeb96c47b41","system_id":"levelo_inurba_marseille","lat":43.27998,"lon":5.40001,"is_reserved":false,"is_disabled":false,"rental_uris":{"android":"levelo://app?vid=67a2b4a4-e8ce-4108-b66f-1aeb96c47b41","ios":"levelo://app?vid=67a2b4a4-e8ce-4108-b66f-1aeb96c47b41"},"vehicle_type_id":"4","last_reported":1732738288,"current_range_meters":32400,"station_id":"ce4bho92rcd13ifvqh4g","pricing_plan_id":"cebpf4jnsgd1na2vs0mg"},{"bike_id":"21ae76de-be9c-4551-b1ab-7e8db56e1b14","system_id":"levelo_inurba_marseille","lat":43.31533,"lon":5.38035,"is_reserved":false,"is_disabled":false,"rental_uris":{"android":"levelo://app?vid=21ae76de-be9c-4551-b1ab-7e8db56e1b14","ios":"levelo://app?vid=21ae76de-be9c-4551-b1ab-7e8db56e1b14"},"vehicle_type_id":"4","last_reported":1732738288,"current_range_meters":38000,"station_id":"ce4bhsp2rcd13ifvqi50","pricing_plan_id":"cebpf4jnsgd1na2vs0mg"},{"bike_id":"befd70af-0170-4a22-9cf7-bc67e949484d","system_id":"levelo_inurba_marseille","lat":43.25824,"lon":5.39429,"is_reserved":false,"is_disabled":false,"rental_uris":{"android":"levelo://app?vid=befd70af-0170-4a22-9cf7-bc67e949484d","ios":"levelo://app?vid=befd70af-0170-4a22-9cf7-bc67e949484d"},"vehicle_type_id":"4","last_reported":1732738288,"current_range_meters":6800,"station_id":"ce4bhip2rcd13ifvqft0","pricing_plan_id":"cebpf4jnsgd1na2vs0mg"},{"bike_id":"d4f2b80e-deb0-4225-9b05-088e4ed4dd4b","system_id":"levelo_inurba_marseille","lat":43.29259,"lon":5.38429,"is_reserved":false,"is_disabled":true,"rental_uris":{"android":"levelo://app?vid=d4f2b80e-deb0-4225-9b05-088e4ed4dd4b","ios":"levelo://app?vid=d4f2b80e-deb0-4225-9b05-088e4ed4dd4b"},"vehicle_type_id":"4","last_reported":1732738288,"current_range_meters":3200,"station_id":"ce4bh692rcd13ifvqea0","pricing_plan_id":"cebpf4jnsgd1na2vs0mg"},{"bike_id":"d06aaab7-4a56-4e9c-b023-2a6fced4e218","system_id":"levelo_inurba_marseille","lat":43.23153,"lon":5.43699,"is_reserved":false,"is_disabled":true,"rental_uris":{"android":"levelo://app?vid=d06aaab7-4a56-4e9c-b023-2a6fced4e218","ios":"levelo://app?vid=d06aaab7-4a56-4e9c-b023-2a6fced4e218"},"vehicle_type_id":"4","last_reported":1732738288,"current_range_meters":0,"station_id":"ce4bhmp2rcd13ifvqgog","pricing_plan_id":"cebpf4jnsgd1na2vs0mg"},{"bike_id":"394222ca-330d-4796-8c52-f534acf24f05","system_id":"levelo_inurba_marseille","lat":43.27671,"lon":5.38907,"is_reserved":false,"is_disabled":true,"rental_uris":{"android":"levelo://app?vid=394222ca-330d-4796-8c52-f534acf24f05","ios":"levelo://app?vid=394222ca-330d-4796-8c52-f534acf24f05"},"vehicle_type_id":"4","last_reported":1732738288,"current_range_meters":38800,"station_id":"ce4bhi12rcd13ifvqfo0","pricing_plan_id":"cebpf4jnsgd1na2vs0mg"},{"bike_id":"25e96b83-fdff-47fa-b02c-3b2cc5500bcb","system_id":"levelo_inurba_marseille","lat":43.30585,"lon":5.39351,"is_reserved":false,"is_disabled":false,"rental_uris":{"android":"levelo://app?vid=25e96b83-fdff-47fa-b02c-3b2cc5500bcb","ios":"levelo://app?vid=25e96b83-fdff-47fa-b02c-3b2cc5500bcb"},"vehicle_type_id":"4","last_reported":1732738288,"current_range_meters":26800,"station_id":"ce4bh0p2rcd13ifvqd80","pricing_plan_id":"cebpf4jnsgd1na2vs0mg"},{"bike_id":"1cd78e3c-eca2-430e-a00b-3450b52eb373","system_id":"levelo_inurba_marseille","lat":43.22928,"lon":5.3538,"is_reserved":false,"is_disabled":false,"rental_uris":{"android":"levelo://app?vid=1cd78e3c-eca2-430e-a00b-3450b52eb373","ios":"levelo://app?vid=1cd78e3c-eca2-430e-a00b-3450b52eb373"},"vehicle_type_id":"4","last_reported":1732738288,"current_range_meters":36800,"station_id":"cpo3532slgdg3j2ikp40","pricing_plan_id":"cebpf4jnsgd1na2vs0mg"},{"bike_id":"e880ec50-a13a-4284-90b8-6f79648e0ca2","system_id":"levelo_inurba_marseille","lat":43.27565,"lon":5.3842,"is_reserved":false,"is_disabled":false,"rental_uris":{"android":"levelo://app?vid=e880ec50-a13a-4284-90b8-6f79648e0ca2","ios":"levelo://app?vid=e880ec50-a13a-4284-90b8-6f79648e0ca2"},"vehicle_type_id":"4","last_reported":1732738288,"current_range_meters":38800,"station_id":"ce4bhh92rcd13ifvqfi0","pricing_plan_id":"cebpf4jnsgd1na2vs0mg"},{"bike_id":"681460a9-806c-471b-88e8-ce403c82f10b","system_id":"levelo_inurba_marseille","lat":43.30655,"lon":5.36844,"is_reserved":false,"is_disabled":true,"rental_uris":{"android":"levelo://app?vid=681460a9-806c-471b-88e8-ce403c82f10b","ios":"levelo://app?vid=681460a9-806c-471b-88e8-ce403c82f10b"},"vehicle_type_id":"4","last_reported":1732738288,"current_range_meters":0,"station_id":"","pricing_plan_id":"cebpf4jnsgd1na2vs0mg"},{"bike_id":"9a1bbd12-c6a3-41be-a3c7-02e6e258a308","system_id":"levelo_inurba_marseille","lat":43.23183,"lon":5.39998,"is_reserved":false,"is_disabled":false,"rental_uris":{"android":"levelo://app?vid=9a1bbd12-c6a3-41be-a3c7-02e6e258a308","ios":"levelo://app?vid=9a1bbd12-c6a3-41be-a3c7-02e6e258a308"},"vehicle_type_id":"4","last_reported":1732738288,"current_range_meters":21600,"station_id":"ce4bhn12rcd13ifvqgqg","pricing_plan_id":"cebpf4jnsgd1na2vs0mg"},{"bike_id":"871b1643-a2c2-4938-8362-9aaf2516618d","system_id":"levelo_inurba_marseille","lat":43.27813,"lon":5.40709,"is_reserved":false,"is_disabled":false,"rental_uris":{"android":"levelo://app?vid=871b1643-a2c2-4938-8362-9aaf2516618d","ios":"levelo://app?vid=871b1643-a2c2-4938-8362-9aaf2516618d"},"vehicle_type_id":"4","last_reported":1732738288,"current_range_meters":38800,"station_id":"ce4bhnh2rcd13ifvqgtg","pricing_plan_id":"cebpf4jnsgd1na2vs0mg"},{"bike_id":"6c2d0f77-b857-4f72-b724-888f95026400","system_id":"levelo_inurba_marseille","lat":43.2885,"lon":5.35844,"is_reserved":false,"is_disabled":false,"rental_uris":{"android":"levelo://app?vid=6c2d0f77-b857-4f72-b724-888f95026400","ios":"levelo://app?vid=6c2d0f77-b857-4f72-b724-888f95026400"},"vehicle_type_id":"4","last_reported":1732738288,"current_range_meters":9600,"station_id":"ce4bhb12rcd13ifvqem0","pricing_plan_id":"cebpf4jnsgd1na2vs0mg"},{"bike_id":"fcd0433b-e713-4a9c-b314-3959b3c118ed","system_id":"levelo_inurba_marseille","lat":43.30878,"lon":5.372,"is_reserved":false,"is_disabled":false,"rental_uris":{"android":"levelo://app?vid=fcd0433b-e713-4a9c-b314-3959b3c118ed","ios":"levelo://app?vid=fcd0433b-e713-4a9c-b314-3959b3c118ed"},"vehicle_type_id":"4","last_reported":1732738288,"current_range_meters":24400,"station_id":"ce4bguh2rcd13ifvqckg","pricing_plan_id":"cebpf4jnsgd1na2vs0mg"},{"bike_id":"d5bbaa74-54be-46a7-8237-adfae0e0982e","system_id":"levelo_inurba_marseille","lat":43.27211,"lon":5.39181,"is_reserved":false,"is_disabled":false,"rental_uris":{"android":"levelo://app?vid=d5bbaa74-54be-46a7-8237-adfae0e0982e","ios":"levelo://app?vid=d5bbaa74-54be-46a7-8237-adfae0e0982e"},"vehicle_type_id":"4","last_reported":1732738288,"current_range_meters":14400,"station_id":"ce4bhhp2rcd13ifvqfm0","pricing_plan_id":"cebpf4jnsgd1na2vs0mg"},{"bike_id":"146859be-050c-4fa7-9473-10d8176aeefd","system_id":"levelo_inurba_marseille","lat":43.25935,"lon":5.40906,"is_reserved":false,"is_disabled":true,"rental_uris":{"android":"levelo://app?vid=146859be-050c-4fa7-9473-10d8176aeefd","ios":"levelo://app?vid=146859be-050c-4fa7-9473-10d8176aeefd"},"vehicle_type_id":"4","last_reported":1732738288,"current_range_meters":0,"station_id":"ce4bhm92rcd13ifvqglg","pricing_plan_id":"cebpf4jnsgd1na2vs0mg"},{"bike_id":"45f037f9-2db3-4695-b7dd-2ccb334aaff7","system_id":"levelo_inurba_marseille","lat":43.2827,"lon":5.35061,"is_reserved":false,"is_disabled":false,"rental_uris":{"android":"levelo://app?vid=45f037f9-2db3-4695-b7dd-2ccb334aaff7","ios":"levelo://app?vid=45f037f9-2db3-4695-b7dd-2ccb334aaff7"},"vehicle_type_id":"4","last_reported":1732738288,"current_range_meters":38800,"station_id":"ce4bhbp2rcd13ifvqerg","pricing_plan_id":"cebpf4jnsgd1na2vs0mg"},{"bike_id":"b8373e43-814f-4b19-b3d7-26382ec139ff","system_id":"levelo_inurba_marseille","lat":43.29801,"lon":5.38102,"is_reserved":false,"is_disabled":false,"rental_uris":{"android":"levelo://app?vid=b8373e43-814f-4b19-b3d7-26382ec139ff","ios":"levelo://app?vid=b8373e43-814f-4b19-b3d7-26382ec139ff"},"vehicle_type_id":"4","last_reported":1732738288,"current_range_meters":18800,"station_id":"ce4bgip2rcd13ifvqbb0","pricing_plan_id":"cebpf4jnsgd1na2vs0mg"},{"bike_id":"a4a44eea-7afa-4c63-a662-beba7965732a","system_id":"levelo_inurba_marseille","lat":43.29619,"lon":5.37155,"is_reserved":false,"is_disabled":true,"rental_uris":{"android":"levelo://app?vid=a4a44eea-7afa-4c63-a662-beba7965732a","ios":"levelo://app?vid=a4a44eea-7afa-4c63-a662-beba7965732a"},"vehicle_type_id":"4","last_reported":1732738288,"current_range_meters":3600,"station_id":"ce4bgnh2rcd13ifvqc0g","pricing_plan_id":"cebpf4jnsgd1na2vs0mg"},{"bike_id":"4bf42b43-8c5d-4df6-a459-4684515cc560","system_id":"levelo_inurba_marseille","lat":43.29532,"lon":5.38537,"is_reserved":false,"is_disabled":false,"rental_uris":{"android":"levelo://app?vid=4bf42b43-8c5d-4df6-a459-4684515cc560","ios":"levelo://app?vid=4bf42b43-8c5d-4df6-a459-4684515cc560"},"vehicle_type_id":"4","last_reported":1732738288,"current_range_meters":18800,"station_id":"ce4bgih2rcd13ifvqba0","pricing_plan_id":"cebpf4jnsgd1na2vs0mg"},{"bike_id":"7acf64e6-102c-4b24-bfca-4cd2f2ab9f83","system_id":"levelo_inurba_marseille","lat":43.30552,"lon":5.36543,"is_reserved":false,"is_disabled":true,"rental_uris":{"android":"levelo://app?vid=7acf64e6-102c-4b24-bfca-4cd2f2ab9f83","ios":"levelo://app?vid=7acf64e6-102c-4b24-bfca-4cd2f2ab9f83"},"vehicle_type_id":"4","last_reported":1732738288,"current_range_meters":0,"station_id":"ce4bgs12rcd13ifvqcag","pricing_plan_id":"cebpf4jnsgd1na2vs0mg"},{"bike_id":"2e95a691-d7d8-426b-8dba-47b6b56c6a41","system_id":"levelo_inurba_marseille","lat":43.28158,"lon":5.42629,"is_reserved":false,"is_disabled":true,"rental_uris":{"android":"levelo://app?vid=2e95a691-d7d8-426b-8dba-47b6b56c6a41","ios":"levelo://app?vid=2e95a691-d7d8-426b-8dba-47b6b56c6a41"},"vehicle_type_id":"4","last_reported":1732738288,"current_range_meters":400,"station_id":"ce4bhnh2rcd13ifvqgug","pricing_plan_id":"cebpf4jnsgd1na2vs0mg"},{"bike_id":"560cab59-408d-4efc-9f21-18478b0efad3","system_id":"levelo_inurba_marseille","lat":43.31992,"lon":5.38148,"is_reserved":false,"is_disabled":false,"rental_uris":{"android":"levelo://app?vid=560cab59-408d-4efc-9f21-18478b0efad3","ios":"levelo://app?vid=560cab59-408d-4efc-9f21-18478b0efad3"},"vehicle_type_id":"4","last_reported":1732738288,"current_range_meters":16800,"station_id":"ce4bhr12rcd13ifvqhpg","pricing_plan_id":"cebpf4jnsgd1na2vs0mg"},{"bike_id":"29371ec1-6e47-4b48-bb6b-d76779c51dab","system_id":"levelo_inurba_marseille","lat":43.30946,"lon":5.39035,"is_reserved":false,"is_disabled":false,"rental_uris":{"android":"levelo://app?vid=29371ec1-6e47-4b48-bb6b-d76779c51dab","ios":"levelo://app?vid=29371ec1-6e47-4b48-bb6b-d76779c51dab"},"vehicle_type_id":"4","last_reported":1732738288,"current_range_meters":38000,"station_id":"ce4bgup2rcd13ifvqco0","pricing_plan_id":"cebpf4jnsgd1na2vs0mg"},{"bike_id":"48a97e07-bd1e-4284-a0a9-41ce086ce527","system_id":"levelo_inurba_marseille","lat":43.23179,"lon":5.39983,"is_reserved":false,"is_disabled":false,"rental_uris":{"android":"levelo://app?vid=48a97e07-bd1e-4284-a0a9-41ce086ce527","ios":"levelo://app?vid=48a97e07-bd1e-4284-a0a9-41ce086ce527"},"vehicle_type_id":"4","last_reported":1732738288,"current_range_meters":39200,"station_id":"ce4bhn12rcd13ifvqgqg","pricing_plan_id":"cebpf4jnsgd1na2vs0mg"},{"bike_id":"5e3b0a85-88ba-4899-8090-39bcc8e21d38","system_id":"levelo_inurba_marseille","lat":43.25828,"lon":5.39436,"is_reserved":false,"is_disabled":false,"rental_uris":{"android":"levelo://app?vid=5e3b0a85-88ba-4899-8090-39bcc8e21d38","ios":"levelo://app?vid=5e3b0a85-88ba-4899-8090-39bcc8e21d38"},"vehicle_type_id":"4","last_reported":1732738288,"current_range_meters":12800,"station_id":"ce4bhip2rcd13ifvqft0","pricing_plan_id":"cebpf4jnsgd1na2vs0mg"},{"bike_id":"d3cb82ba-23b2-48c9-9ee7-8ccf0544ff45","system_id":"levelo_inurba_marseille","lat":43.27939,"lon":5.41046,"is_reserved":false,"is_disabled":false,"rental_uris":{"android":"levelo://app?vid=d3cb82ba-23b2-48c9-9ee7-8ccf0544ff45","ios":"levelo://app?vid=d3cb82ba-23b2-48c9-9ee7-8ccf0544ff45"},"vehicle_type_id":"4","last_reported":1732738288,"current_range_meters":37600,"station_id":"ce4bhnp2rcd13ifvqh0g","pricing_plan_id":"cebpf4jnsgd1na2vs0mg"},{"bike_id":"858b65e1-94fc-4151-a71e-8b168cb19dcb","system_id":"levelo_inurba_marseille","lat":43.32249,"lon":5.39241,"is_reserved":false,"is_disabled":true,"rental_uris":{"android":"levelo://app?vid=858b65e1-94fc-4151-a71e-8b168cb19dcb","ios":"levelo://app?vid=858b65e1-94fc-4151-a71e-8b168cb19dcb"},"vehicle_type_id":"4","last_reported":1732738288,"current_range_meters":0,"station_id":"","pricing_plan_id":"cebpf4jnsgd1na2vs0mg"},{"bike_id":"01b93923-340e-49e1-bd86-d2463565502f","system_id":"levelo_inurba_marseille","lat":43.29311,"lon":5.38571,"is_reserved":false,"is_disabled":true,"rental_uris":{"android":"levelo://app?vid=01b93923-340e-49e1-bd86-d2463565502f","ios":"levelo://app?vid=01b93923-340e-49e1-bd86-d2463565502f"},"vehicle_type_id":"4","last_reported":1732738288,"current_range_meters":0,"station_id":"","pricing_plan_id":"cebpf4jnsgd1na2vs0mg"},{"bike_id":"e51b2acb-d883-446b-9ce9-347608453ece","system_id":"levelo_inurba_marseille","lat":43.22922,"lon":5.35378,"is_reserved":false,"is_disabled":false,"rental_uris":{"android":"levelo://app?vid=e51b2acb-d883-446b-9ce9-347608453ece","ios":"levelo://app?vid=e51b2acb-d883-446b-9ce9-347608453ece"},"vehicle_type_id":"4","last_reported":1732738288,"current_range_meters":36400,"station_id":"cpo3532slgdg3j2ikp40","pricing_plan_id":"cebpf4jnsgd1na2vs0mg"},{"bike_id":"844ec8e9-1291-4e83-a299-880eb52e8b86","system_id":"levelo_inurba_marseille","lat":43.28082,"lon":5.39648,"is_reserved":false,"is_disabled":false,"rental_uris":{"android":"levelo://app?vid=844ec8e9-1291-4e83-a299-880eb52e8b86","ios":"levelo://app?vid=844ec8e9-1291-4e83-a299-880eb52e8b86"},"vehicle_type_id":"4","last_reported":1732738288,"current_range_meters":15200,"station_id":"ce4bho12rcd13ifvqh2g","pricing_plan_id":"cebpf4jnsgd1na2vs0mg"},{"bike_id":"700619cc-63a2-433f-a096-e6e5b086e373","system_id":"levelo_inurba_marseille","lat":43.25125,"lon":5.40317,"is_reserved":false,"is_disabled":false,"rental_uris":{"android":"levelo://app?vid=700619cc-63a2-433f-a096-e6e5b086e373","ios":"levelo://app?vid=700619cc-63a2-433f-a096-e6e5b086e373"},"vehicle_type_id":"4","last_reported":1732738288,"current_range_meters":38800,"station_id":"ce4bhlh2rcd13ifvqgig","pricing_plan_id":"cebpf4jnsgd1na2vs0mg"},{"bike_id":"07e999cf-40a8-4a01-b969-68cbfc768052","system_id":"levelo_inurba_marseille","lat":43.28158,"lon":5.42644,"is_reserved":false,"is_disabled":false,"rental_uris":{"android":"levelo://app?vid=07e999cf-40a8-4a01-b969-68cbfc768052","ios":"levelo://app?vid=07e999cf-40a8-4a01-b969-68cbfc768052"},"vehicle_type_id":"4","last_reported":1732738288,"current_range_meters":38000,"station_id":"ce4bhnh2rcd13ifvqgug","pricing_plan_id":"cebpf4jnsgd1na2vs0mg"},{"bike_id":"59414a91-51f3-4330-9a14-7f294df2bd55","system_id":"levelo_inurba_marseille","lat":43.31229,"lon":5.36855,"is_reserved":false,"is_disabled":false,"rental_uris":{"android":"levelo://app?vid=59414a91-51f3-4330-9a14-7f294df2bd55","ios":"levelo://app?vid=59414a91-51f3-4330-9a14-7f294df2bd55"},"vehicle_type_id":"4","last_reported":1732738288,"current_range_meters":32400,"station_id":"ce4bgl92rcd13ifvqbq0","pricing_plan_id":"cebpf4jnsgd1na2vs0mg"},{"bike_id":"6a4001d6-d444-4013-81f0-795a143d0522","system_id":"levelo_inurba_marseille","lat":43.30146,"lon":5.38786,"is_reserved":false,"is_disabled":true,"rental_uris":{"android":"levelo://app?vid=6a4001d6-d444-4013-81f0-795a143d0522","ios":"levelo://app?vid=6a4001d6-d444-4013-81f0-795a143d0522"},"vehicle_type_id":"4","last_reported":1732738288,"current_range_meters":31200,"station_id":"ce4bghh2rcd13ifvqb60","pricing_plan_id":"cebpf4jnsgd1na2vs0mg"},{"bike_id":"83fa7535-6733-43a3-a1d9-176841423102","system_id":"levelo_inurba_marseille","lat":43.27998,"lon":5.41662,"is_reserved":false,"is_disabled":false,"rental_uris":{"android":"levelo://app?vid=83fa7535-6733-43a3-a1d9-176841423102","ios":"levelo://app?vid=83fa7535-6733-43a3-a1d9-176841423102"},"vehicle_type_id":"4","last_reported":1732738288,"current_range_meters":5600,"station_id":"ce4bho12rcd13ifvqh1g","pricing_plan_id":"cebpf4jnsgd1na2vs0mg"},{"bike_id":"432e1d43-5d8a-4b04-a51e-e9a2066ccbb5","system_id":"levelo_inurba_marseille","lat":43.31309,"lon":5.39684,"is_reserved":false,"is_disabled":false,"rental_uris":{"android":"levelo://app?vid=432e1d43-5d8a-4b04-a51e-e9a2066ccbb5","ios":"levelo://app?vid=432e1d43-5d8a-4b04-a51e-e9a2066ccbb5"},"vehicle_type_id":"4","last_reported":1732738288,"current_range_meters":20800,"station_id":"ce4bgvp2rcd13ifvqcu0","pricing_plan_id":"cebpf4jnsgd1na2vs0mg"},{"bike_id":"a2db4d62-6b58-46e1-8f7f-2dceae750c0d","system_id":"levelo_inurba_marseille","lat":43.280859,"lon":5.396315,"is_reserved":false,"is_disabled":false,"rental_uris":{"android":"levelo://app?vid=a2db4d62-6b58-46e1-8f7f-2dceae750c0d","ios":"levelo://app?vid=a2db4d62-6b58-46e1-8f7f-2dceae750c0d"},"vehicle_type_id":"4","last_reported":1732738288,"current_range_meters":38400,"station_id":"ce4bho12rcd13ifvqh2g","pricing_plan_id":"cebpf4jnsgd1na2vs0mg"},{"bike_id":"f7f3756c-1ec7-4782-9c87-6273f87b6774","system_id":"levelo_inurba_marseille","lat":43.337444,"lon":5.374475,"is_reserved":false,"is_disabled":true,"rental_uris":{"android":"levelo://app?vid=f7f3756c-1ec7-4782-9c87-6273f87b6774","ios":"levelo://app?vid=f7f3756c-1ec7-4782-9c87-6273f87b6774"},"vehicle_type_id":"4","last_reported":1732738288,"current_range_meters":13600,"station_id":"","pricing_plan_id":"cebpf4jnsgd1na2vs0mg"},{"bike_id":"0dd274c1-70cc-43b0-a473-5c1b6ca105cf","system_id":"levelo_inurba_marseille","lat":43.26771,"lon":5.37176,"is_reserved":false,"is_disabled":false,"rental_uris":{"android":"levelo://app?vid=0dd274c1-70cc-43b0-a473-5c1b6ca105cf","ios":"levelo://app?vid=0dd274c1-70cc-43b0-a473-5c1b6ca105cf"},"vehicle_type_id":"4","last_reported":1732738288,"current_range_meters":38400,"station_id":"ce4bhbp2rcd13ifvqerg","pricing_plan_id":"cebpf4jnsgd1na2vs0mg"},{"bike_id":"703e8aa1-dcfb-4cea-8282-43c583c4255c","system_id":"levelo_inurba_marseille","lat":43.24546,"lon":5.395258,"is_reserved":false,"is_disabled":false,"rental_uris":{"android":"levelo://app?vid=703e8aa1-dcfb-4cea-8282-43c583c4255c","ios":"levelo://app?vid=703e8aa1-dcfb-4cea-8282-43c583c4255c"},"vehicle_type_id":"4","last_reported":1732738288,"current_range_meters":38800,"station_id":"ce4bhlp2rcd13ifvqgjg","pricing_plan_id":"cebpf4jnsgd1na2vs0mg"},{"bike_id":"36e71be3-591e-41df-b393-dafcab23c079","system_id":"levelo_inurba_marseille","lat":43.31089,"lon":5.42436,"is_reserved":false,"is_disabled":false,"rental_uris":{"android":"levelo://app?vid=36e71be3-591e-41df-b393-dafcab23c079","ios":"levelo://app?vid=36e71be3-591e-41df-b393-dafcab23c079"},"vehicle_type_id":"4","last_reported":1732738288,"current_range_meters":36800,"station_id":"ce4bhp92rcd13ifvqhag","pricing_plan_id":"cebpf4jnsgd1na2vs0mg"},{"bike_id":"7f39e402-e277-4500-a2c0-b0f371dadd6c","system_id":"levelo_inurba_marseille","lat":43.31069,"lon":5.38342,"is_reserved":false,"is_disabled":false,"rental_uris":{"android":"levelo://app?vid=7f39e402-e277-4500-a2c0-b0f371dadd6c","ios":"levelo://app?vid=7f39e402-e277-4500-a2c0-b0f371dadd6c"},"vehicle_type_id":"4","last_reported":1732738288,"current_range_meters":21600,"station_id":"ce4bgv92rcd13ifvqcr0","pricing_plan_id":"cebpf4jnsgd1na2vs0mg"},{"bike_id":"791bec6d-3c3b-4d18-8591-b9f656448fbd","system_id":"levelo_inurba_marseille","lat":43.32363,"lon":5.38883,"is_reserved":false,"is_disabled":false,"rental_uris":{"android":"levelo://app?vid=791bec6d-3c3b-4d18-8591-b9f656448fbd","ios":"levelo://app?vid=791bec6d-3c3b-4d18-8591-b9f656448fbd"},"vehicle_type_id":"4","last_reported":1732738288,"current_range_meters":25200,"station_id":"ce4bhqp2rcd13ifvqhog","pricing_plan_id":"cebpf4jnsgd1na2vs0mg"},{"bike_id":"8a457629-ab34-402a-bfd6-c26d85244407","system_id":"levelo_inurba_marseille","lat":43.31324,"lon":5.39692,"is_reserved":false,"is_disabled":false,"rental_uris":{"android":"levelo://app?vid=8a457629-ab34-402a-bfd6-c26d85244407","ios":"levelo://app?vid=8a457629-ab34-402a-bfd6-c26d85244407"},"vehicle_type_id":"4","last_reported":1732738288,"current_range_meters":25200,"station_id":"ce4bgvp2rcd13ifvqcu0","pricing_plan_id":"cebpf4jnsgd1na2vs0mg"},{"bike_id":"04964094-ee9d-4a15-9bdf-edfb5fb1a2f4","system_id":"levelo_inurba_marseille","lat":43.28662,"lon":5.36362,"is_reserved":false,"is_disabled":false,"rental_uris":{"android":"levelo://app?vid=04964094-ee9d-4a15-9bdf-edfb5fb1a2f4","ios":"levelo://app?vid=04964094-ee9d-4a15-9bdf-edfb5fb1a2f4"},"vehicle_type_id":"4","last_reported":1732738288,"current_range_meters":6400,"station_id":"ce4bhah2rcd13ifvqej0","pricing_plan_id":"cebpf4jnsgd1na2vs0mg"},{"bike_id":"73817fd5-eb67-4e9b-aa4f-ab7ce88111ba","system_id":"levelo_inurba_marseille","lat":43.25725,"lon":5.41122,"is_reserved":false,"is_disabled":false,"rental_uris":{"android":"levelo://app?vid=73817fd5-eb67-4e9b-aa4f-ab7ce88111ba","ios":"levelo://app?vid=73817fd5-eb67-4e9b-aa4f-ab7ce88111ba"},"vehicle_type_id":"4","last_reported":1732738288,"current_range_meters":19600,"station_id":"ce4bhkp2rcd13ifvqgd0","pricing_plan_id":"cebpf4jnsgd1na2vs0mg"},{"bike_id":"dc65d38a-6822-4f34-b22f-40093f5ca5fa","system_id":"levelo_inurba_marseille","lat":43.28411,"lon":5.37516,"is_reserved":false,"is_disabled":false,"rental_uris":{"android":"levelo://app?vid=dc65d38a-6822-4f34-b22f-40093f5ca5fa","ios":"levelo://app?vid=dc65d38a-6822-4f34-b22f-40093f5ca5fa"},"vehicle_type_id":"4","last_reported":1732738288,"current_range_meters":37600,"station_id":"ce4bh412rcd13ifvqds0","pricing_plan_id":"cebpf4jnsgd1na2vs0mg"},{"bike_id":"67dfe3d7-e290-4b1e-9f5e-90cca73a4f4a","system_id":"levelo_inurba_marseille","lat":43.2738,"lon":5.3625,"is_reserved":false,"is_disabled":false,"rental_uris":{"android":"levelo://app?vid=67dfe3d7-e290-4b1e-9f5e-90cca73a4f4a","ios":"levelo://app?vid=67dfe3d7-e290-4b1e-9f5e-90cca73a4f4a"},"vehicle_type_id":"4","last_reported":1732738288,"current_range_meters":34000,"station_id":"ce4bhbh2rcd13ifvqeo0","pricing_plan_id":"cebpf4jnsgd1na2vs0mg"},{"bike_id":"e1fedfe2-94df-46e3-a5ad-521fab008bc9","system_id":"levelo_inurba_marseille","lat":43.29041,"lon":5.35903,"is_reserved":false,"is_disabled":false,"rental_uris":{"android":"levelo://app?vid=e1fedfe2-94df-46e3-a5ad-521fab008bc9","ios":"levelo://app?vid=e1fedfe2-94df-46e3-a5ad-521fab008bc9"},"vehicle_type_id":"4","last_reported":1732738288,"current_range_meters":31200,"station_id":"ce4bha92rcd13ifvqeg0","pricing_plan_id":"cebpf4jnsgd1na2vs0mg"},{"bike_id":"a7d21e0b-9544-42dc-a0c6-5e884f578af9","system_id":"levelo_inurba_marseille","lat":43.24642,"lon":5.43499,"is_reserved":false,"is_disabled":true,"rental_uris":{"android":"levelo://app?vid=a7d21e0b-9544-42dc-a0c6-5e884f578af9","ios":"levelo://app?vid=a7d21e0b-9544-42dc-a0c6-5e884f578af9"},"vehicle_type_id":"4","last_reported":1732738288,"current_range_meters":0,"station_id":"","pricing_plan_id":"cebpf4jnsgd1na2vs0mg"},{"bike_id":"c1350596-c129-49e7-897e-0d0932369655","system_id":"levelo_inurba_marseille","lat":43.31158,"lon":5.37854,"is_reserved":false,"is_disabled":false,"rental_uris":{"android":"levelo://app?vid=c1350596-c129-49e7-897e-0d0932369655","ios":"levelo://app?vid=c1350596-c129-49e7-897e-0d0932369655"},"vehicle_type_id":"4","last_reported":1732738288,"current_range_meters":38800,"station_id":"","pricing_plan_id":"cebpf4jnsgd1na2vs0mg"},{"bike_id":"a5909545-3e09-4859-9fda-9ffe4e6e4883","system_id":"levelo_inurba_marseille","lat":43.23065,"lon":5.35491,"is_reserved":false,"is_disabled":false,"rental_uris":{"android":"levelo://app?vid=a5909545-3e09-4859-9fda-9ffe4e6e4883","ios":"levelo://app?vid=a5909545-3e09-4859-9fda-9ffe4e6e4883"},"vehicle_type_id":"4","last_reported":1732738288,"current_range_meters":26000,"station_id":"cpo3342slgdg3j2ifvpg","pricing_plan_id":"cebpf4jnsgd1na2vs0mg"},{"bike_id":"0adc1c20-926a-4db7-b93d-54cc70d28ec3","system_id":"levelo_inurba_marseille","lat":43.25125,"lon":5.40304,"is_reserved":false,"is_disabled":false,"rental_uris":{"android":"levelo://app?vid=0adc1c20-926a-4db7-b93d-54cc70d28ec3","ios":"levelo://app?vid=0adc1c20-926a-4db7-b93d-54cc70d28ec3"},"vehicle_type_id":"4","last_reported":1732738288,"current_range_meters":5600,"station_id":"ce4bhlh2rcd13ifvqgig","pricing_plan_id":"cebpf4jnsgd1na2vs0mg"},{"bike_id":"636c38c7-b57f-44ef-879f-37f296bc8e0a","system_id":"levelo_inurba_marseille","lat":43.32107,"lon":5.36759,"is_reserved":false,"is_disabled":false,"rental_uris":{"android":"levelo://app?vid=636c38c7-b57f-44ef-879f-37f296bc8e0a","ios":"levelo://app?vid=636c38c7-b57f-44ef-879f-37f296bc8e0a"},"vehicle_type_id":"4","last_reported":1732738288,"current_range_meters":22400,"station_id":"ce4bhrh2rcd13ifvqhug","pricing_plan_id":"cebpf4jnsgd1na2vs0mg"},{"bike_id":"58103486-a2c4-40b4-b044-607cae144e5c","system_id":"levelo_inurba_marseille","lat":43.28539,"lon":5.38408,"is_reserved":false,"is_disabled":false,"rental_uris":{"android":"levelo://app?vid=58103486-a2c4-40b4-b044-607cae144e5c","ios":"levelo://app?vid=58103486-a2c4-40b4-b044-607cae144e5c"},"vehicle_type_id":"4","last_reported":1732738288,"current_range_meters":23200,"station_id":"","pricing_plan_id":"cebpf4jnsgd1na2vs0mg"},{"bike_id":"180fc64f-9e71-41d9-8429-bb3416744e00","system_id":"levelo_inurba_marseille","lat":43.23186,"lon":5.39974,"is_reserved":false,"is_disabled":false,"rental_uris":{"android":"levelo://app?vid=180fc64f-9e71-41d9-8429-bb3416744e00","ios":"levelo://app?vid=180fc64f-9e71-41d9-8429-bb3416744e00"},"vehicle_type_id":"4","last_reported":1732738288,"current_range_meters":11600,"station_id":"ce4bhn12rcd13ifvqgqg","pricing_plan_id":"cebpf4jnsgd1na2vs0mg"},{"bike_id":"2f0697db-b29c-4ccf-b0df-3ed97e480eaa","system_id":"levelo_inurba_marseille","lat":43.24994,"lon":5.38942,"is_reserved":false,"is_disabled":false,"rental_uris":{"android":"levelo://app?vid=2f0697db-b29c-4ccf-b0df-3ed97e480eaa","ios":"levelo://app?vid=2f0697db-b29c-4ccf-b0df-3ed97e480eaa"},"vehicle_type_id":"4","last_reported":1732738288,"current_range_meters":12400,"station_id":"ce4bhgp2rcd13ifvqfd0","pricing_plan_id":"cebpf4jnsgd1na2vs0mg"},{"bike_id":"e5951ee3-4a5a-4ebb-b469-096c5188dfa3","system_id":"levelo_inurba_marseille","lat":43.23172,"lon":5.35575,"is_reserved":false,"is_disabled":false,"rental_uris":{"android":"levelo://app?vid=e5951ee3-4a5a-4ebb-b469-096c5188dfa3","ios":"levelo://app?vid=e5951ee3-4a5a-4ebb-b469-096c5188dfa3"},"vehicle_type_id":"4","last_reported":1732738288,"current_range_meters":30400,"station_id":"ce4bhu92rcd13ifvqi70","pricing_plan_id":"cebpf4jnsgd1na2vs0mg"},{"bike_id":"3eb4f862-e5b0-455f-9ee7-34c6c9b1c7c6","system_id":"levelo_inurba_marseille","lat":43.27976,"lon":5.38764,"is_reserved":false,"is_disabled":false,"rental_uris":{"android":"levelo://app?vid=3eb4f862-e5b0-455f-9ee7-34c6c9b1c7c6","ios":"levelo://app?vid=3eb4f862-e5b0-455f-9ee7-34c6c9b1c7c6"},"vehicle_type_id":"4","last_reported":1732738288,"current_range_meters":32000,"station_id":"ce4bhg12rcd13ifvqf80","pricing_plan_id":"cebpf4jnsgd1na2vs0mg"},{"bike_id":"551079ac-62f6-4029-9579-63ffc464325f","system_id":"levelo_inurba_marseille","lat":43.2319,"lon":5.35529,"is_reserved":false,"is_disabled":false,"rental_uris":{"android":"levelo://app?vid=551079ac-62f6-4029-9579-63ffc464325f","ios":"levelo://app?vid=551079ac-62f6-4029-9579-63ffc464325f"},"vehicle_type_id":"4","last_reported":1732738288,"current_range_meters":40000,"station_id":"ce4bhu92rcd13ifvqi70","pricing_plan_id":"cebpf4jnsgd1na2vs0mg"},{"bike_id":"624e6175-be5f-4045-8e88-380633336063","system_id":"levelo_inurba_marseille","lat":43.29043,"lon":5.35908,"is_reserved":false,"is_disabled":false,"rental_uris":{"android":"levelo://app?vid=624e6175-be5f-4045-8e88-380633336063","ios":"levelo://app?vid=624e6175-be5f-4045-8e88-380633336063"},"vehicle_type_id":"4","last_reported":1732738288,"current_range_meters":22000,"station_id":"ce4bha92rcd13ifvqeg0","pricing_plan_id":"cebpf4jnsgd1na2vs0mg"},{"bike_id":"6c948e9c-d5b3-4fe5-a918-1bd2f7c83b02","system_id":"levelo_inurba_marseille","lat":43.32112,"lon":5.36772,"is_reserved":false,"is_disabled":false,"rental_uris":{"android":"levelo://app?vid=6c948e9c-d5b3-4fe5-a918-1bd2f7c83b02","ios":"levelo://app?vid=6c948e9c-d5b3-4fe5-a918-1bd2f7c83b02"},"vehicle_type_id":"4","last_reported":1732738288,"current_range_meters":10800,"station_id":"ce4bhrh2rcd13ifvqhug","pricing_plan_id":"cebpf4jnsgd1na2vs0mg"},{"bike_id":"f95883eb-c03f-4153-92d0-af79d358d40b","system_id":"levelo_inurba_marseille","lat":43.30127,"lon":5.398622,"is_reserved":false,"is_disabled":false,"rental_uris":{"android":"levelo://app?vid=f95883eb-c03f-4153-92d0-af79d358d40b","ios":"levelo://app?vid=f95883eb-c03f-4153-92d0-af79d358d40b"},"vehicle_type_id":"4","last_reported":1732738288,"current_range_meters":39200,"station_id":"ce4bh192rcd13ifvqdd0","pricing_plan_id":"cebpf4jnsgd1na2vs0mg"},{"bike_id":"4bff08b5-6585-4816-a326-72bc8d656668","system_id":"levelo_inurba_marseille","lat":43.299377,"lon":5.385167,"is_reserved":false,"is_disabled":false,"rental_uris":{"android":"levelo://app?vid=4bff08b5-6585-4816-a326-72bc8d656668","ios":"levelo://app?vid=4bff08b5-6585-4816-a326-72bc8d656668"},"vehicle_type_id":"4","last_reported":1732738288,"current_range_meters":25200,"station_id":"","pricing_plan_id":"cebpf4jnsgd1na2vs0mg"},{"bike_id":"eb6d1fc3-1e4c-45f6-8da3-b997e84ded88","system_id":"levelo_inurba_marseille","lat":43.3137,"lon":5.38534,"is_reserved":false,"is_disabled":false,"rental_uris":{"android":"levelo://app?vid=eb6d1fc3-1e4c-45f6-8da3-b997e84ded88","ios":"levelo://app?vid=eb6d1fc3-1e4c-45f6-8da3-b997e84ded88"},"vehicle_type_id":"4","last_reported":1732738288,"current_range_meters":38800,"station_id":"ce4bgt92rcd13ifvqcf0","pricing_plan_id":"cebpf4jnsgd1na2vs0mg"},{"bike_id":"5223c0ed-30f2-4d39-8861-97d82a11b366","system_id":"levelo_inurba_marseille","lat":43.29016,"lon":5.38133,"is_reserved":false,"is_disabled":false,"rental_uris":{"android":"levelo://app?vid=5223c0ed-30f2-4d39-8861-97d82a11b366","ios":"levelo://app?vid=5223c0ed-30f2-4d39-8861-97d82a11b366"},"vehicle_type_id":"4","last_reported":1732738288,"current_range_meters":38000,"station_id":"ce4bh4p2rcd13ifvqe1g","pricing_plan_id":"cebpf4jnsgd1na2vs0mg"},{"bike_id":"5c53cfbd-2547-413a-b79a-f8cc3b1ca992","system_id":"levelo_inurba_marseille","lat":43.32105,"lon":5.36773,"is_reserved":false,"is_disabled":false,"rental_uris":{"android":"levelo://app?vid=5c53cfbd-2547-413a-b79a-f8cc3b1ca992","ios":"levelo://app?vid=5c53cfbd-2547-413a-b79a-f8cc3b1ca992"},"vehicle_type_id":"4","last_reported":1732738288,"current_range_meters":26800,"station_id":"ce4bhrh2rcd13ifvqhug","pricing_plan_id":"cebpf4jnsgd1na2vs0mg"},{"bike_id":"e5a2aa86-a214-44f1-a6db-bab7850d4c65","system_id":"levelo_inurba_marseille","lat":43.26056,"lon":5.39396,"is_reserved":false,"is_disabled":true,"rental_uris":{"android":"levelo://app?vid=e5a2aa86-a214-44f1-a6db-bab7850d4c65","ios":"levelo://app?vid=e5a2aa86-a214-44f1-a6db-bab7850d4c65"},"vehicle_type_id":"4","last_reported":1732738288,"current_range_meters":0,"station_id":"ce4bhh92rcd13ifvqfj0","pricing_plan_id":"cebpf4jnsgd1na2vs0mg"},{"bike_id":"0ad92f8d-31a8-48c6-a808-ce219134585e","system_id":"levelo_inurba_marseille","lat":43.29268,"lon":5.38446,"is_reserved":false,"is_disabled":false,"rental_uris":{"android":"levelo://app?vid=0ad92f8d-31a8-48c6-a808-ce219134585e","ios":"levelo://app?vid=0ad92f8d-31a8-48c6-a808-ce219134585e"},"vehicle_type_id":"4","last_reported":1732738288,"current_range_meters":33200,"station_id":"ce4bh692rcd13ifvqea0","pricing_plan_id":"cebpf4jnsgd1na2vs0mg"},{"bike_id":"1b5d7164-7019-4f8c-9dd6-e73c0a02afbe","system_id":"levelo_inurba_marseille","lat":43.287,"lon":5.37393,"is_reserved":false,"is_disabled":false,"rental_uris":{"android":"levelo://app?vid=1b5d7164-7019-4f8c-9dd6-e73c0a02afbe","ios":"levelo://app?vid=1b5d7164-7019-4f8c-9dd6-e73c0a02afbe"},"vehicle_type_id":"4","last_reported":1732738288,"current_range_meters":12800,"station_id":"ce4bh3p2rcd13ifvqdq0","pricing_plan_id":"cebpf4jnsgd1na2vs0mg"},{"bike_id":"c32aafd8-8905-4559-a1d0-f74aa7efcf0e","system_id":"levelo_inurba_marseille","lat":43.338,"lon":5.37474,"is_reserved":false,"is_disabled":false,"rental_uris":{"android":"levelo://app?vid=c32aafd8-8905-4559-a1d0-f74aa7efcf0e","ios":"levelo://app?vid=c32aafd8-8905-4559-a1d0-f74aa7efcf0e"},"vehicle_type_id":"4","last_reported":1732738288,"current_range_meters":36400,"station_id":"","pricing_plan_id":"cebpf4jnsgd1na2vs0mg"},{"bike_id":"18d8bd5b-c9b0-4cff-b1de-dd186bbca058","system_id":"levelo_inurba_marseille","lat":43.27814,"lon":5.4071,"is_reserved":false,"is_disabled":true,"rental_uris":{"android":"levelo://app?vid=18d8bd5b-c9b0-4cff-b1de-dd186bbca058","ios":"levelo://app?vid=18d8bd5b-c9b0-4cff-b1de-dd186bbca058"},"vehicle_type_id":"4","last_reported":1732738288,"current_range_meters":0,"station_id":"ce4bhnh2rcd13ifvqgtg","pricing_plan_id":"cebpf4jnsgd1na2vs0mg"},{"bike_id":"30574cd6-0dda-49f7-a5b0-a6c315b45fdf","system_id":"levelo_inurba_marseille","lat":43.30889,"lon":5.37199,"is_reserved":false,"is_disabled":false,"rental_uris":{"android":"levelo://app?vid=30574cd6-0dda-49f7-a5b0-a6c315b45fdf","ios":"levelo://app?vid=30574cd6-0dda-49f7-a5b0-a6c315b45fdf"},"vehicle_type_id":"4","last_reported":1732738288,"current_range_meters":9600,"station_id":"ce4bguh2rcd13ifvqckg","pricing_plan_id":"cebpf4jnsgd1na2vs0mg"},{"bike_id":"110511e7-d418-46d7-a5e9-c916da14f3dc","system_id":"levelo_inurba_marseille","lat":43.30871,"lon":5.37791,"is_reserved":false,"is_disabled":false,"rental_uris":{"android":"levelo://app?vid=110511e7-d418-46d7-a5e9-c916da14f3dc","ios":"levelo://app?vid=110511e7-d418-46d7-a5e9-c916da14f3dc"},"vehicle_type_id":"4","last_reported":1732738288,"current_range_meters":24000,"station_id":"","pricing_plan_id":"cebpf4jnsgd1na2vs0mg"},{"bike_id":"f1d4a92f-1be8-4b1d-9eae-4dd0769cd87e","system_id":"levelo_inurba_marseille","lat":43.28858,"lon":5.35841,"is_reserved":false,"is_disabled":false,"rental_uris":{"android":"levelo://app?vid=f1d4a92f-1be8-4b1d-9eae-4dd0769cd87e","ios":"levelo://app?vid=f1d4a92f-1be8-4b1d-9eae-4dd0769cd87e"},"vehicle_type_id":"4","last_reported":1732738288,"current_range_meters":39200,"station_id":"ce4bhb12rcd13ifvqem0","pricing_plan_id":"cebpf4jnsgd1na2vs0mg"},{"bike_id":"b0532d77-a652-43de-8ae1-079cd29bfc13","system_id":"levelo_inurba_marseille","lat":43.32362,"lon":5.38883,"is_reserved":false,"is_disabled":false,"rental_uris":{"android":"levelo://app?vid=b0532d77-a652-43de-8ae1-079cd29bfc13","ios":"levelo://app?vid=b0532d77-a652-43de-8ae1-079cd29bfc13"},"vehicle_type_id":"4","last_reported":1732738288,"current_range_meters":18000,"station_id":"ce4bhqp2rcd13ifvqhog","pricing_plan_id":"cebpf4jnsgd1na2vs0mg"},{"bike_id":"43746d86-8a13-4845-9faf-ae69b548d714","system_id":"levelo_inurba_marseille","lat":43.29459,"lon":5.37917,"is_reserved":false,"is_disabled":true,"rental_uris":{"android":"levelo://app?vid=43746d86-8a13-4845-9faf-ae69b548d714","ios":"levelo://app?vid=43746d86-8a13-4845-9faf-ae69b548d714"},"vehicle_type_id":"4","last_reported":1732738288,"current_range_meters":0,"station_id":"","pricing_plan_id":"cebpf4jnsgd1na2vs0mg"},{"bike_id":"4dcea4f4-b683-4660-bd8a-05a793545124","system_id":"levelo_inurba_marseille","lat":43.30139,"lon":5.37424,"is_reserved":false,"is_disabled":false,"rental_uris":{"android":"levelo://app?vid=4dcea4f4-b683-4660-bd8a-05a793545124","ios":"levelo://app?vid=4dcea4f4-b683-4660-bd8a-05a793545124"},"vehicle_type_id":"4","last_reported":1732738288,"current_range_meters":11200,"station_id":"ce4bgs92rcd13ifvqcc0","pricing_plan_id":"cebpf4jnsgd1na2vs0mg"},{"bike_id":"c4a7e894-f878-4bab-a8aa-1db498e677c5","system_id":"levelo_inurba_marseille","lat":43.26802,"lon":5.40265,"is_reserved":false,"is_disabled":true,"rental_uris":{"android":"levelo://app?vid=c4a7e894-f878-4bab-a8aa-1db498e677c5","ios":"levelo://app?vid=c4a7e894-f878-4bab-a8aa-1db498e677c5"},"vehicle_type_id":"4","last_reported":1732738288,"current_range_meters":0,"station_id":"ce501612rcd8frsf0b60","pricing_plan_id":"cebpf4jnsgd1na2vs0mg"},{"bike_id":"df76b7bf-b879-4e94-9796-439ee296ef0a","system_id":"levelo_inurba_marseille","lat":43.22927,"lon":5.35374,"is_reserved":false,"is_disabled":false,"rental_uris":{"android":"levelo://app?vid=df76b7bf-b879-4e94-9796-439ee296ef0a","ios":"levelo://app?vid=df76b7bf-b879-4e94-9796-439ee296ef0a"},"vehicle_type_id":"4","last_reported":1732738288,"current_range_meters":36000,"station_id":"cpo3532slgdg3j2ikp40","pricing_plan_id":"cebpf4jnsgd1na2vs0mg"},{"bike_id":"e3e3dd84-48d5-4bc3-8d9d-ddbea19e968b","system_id":"levelo_inurba_marseille","lat":43.30793,"lon":5.37638,"is_reserved":false,"is_disabled":false,"rental_uris":{"android":"levelo://app?vid=e3e3dd84-48d5-4bc3-8d9d-ddbea19e968b","ios":"levelo://app?vid=e3e3dd84-48d5-4bc3-8d9d-ddbea19e968b"},"vehicle_type_id":"4","last_reported":1732738288,"current_range_meters":28400,"station_id":"ce4bgv92rcd13ifvqcq0","pricing_plan_id":"cebpf4jnsgd1na2vs0mg"},{"bike_id":"6f16db76-99c4-484c-8c9e-f2c53aaa5422","system_id":"levelo_inurba_marseille","lat":43.2971,"lon":5.36595,"is_reserved":false,"is_disabled":false,"rental_uris":{"android":"levelo://app?vid=6f16db76-99c4-484c-8c9e-f2c53aaa5422","ios":"levelo://app?vid=6f16db76-99c4-484c-8c9e-f2c53aaa5422"},"vehicle_type_id":"4","last_reported":1732738288,"current_range_meters":38800,"station_id":"ce4bgn12rcd13ifvqbt0","pricing_plan_id":"cebpf4jnsgd1na2vs0mg"},{"bike_id":"0cba8518-6523-4050-8593-0edec2b255ec","system_id":"levelo_inurba_marseille","lat":43.26492,"lon":5.39542,"is_reserved":false,"is_disabled":false,"rental_uris":{"android":"levelo://app?vid=0cba8518-6523-4050-8593-0edec2b255ec","ios":"levelo://app?vid=0cba8518-6523-4050-8593-0edec2b255ec"},"vehicle_type_id":"4","last_reported":1732738288,"current_range_meters":18000,"station_id":"ce4bhi12rcd13ifvqfq0","pricing_plan_id":"cebpf4jnsgd1na2vs0mg"},{"bike_id":"a18f9ea9-5461-4b1b-b899-12c04cd50e66","system_id":"levelo_inurba_marseille","lat":43.27997,"lon":5.40001,"is_reserved":false,"is_disabled":false,"rental_uris":{"android":"levelo://app?vid=a18f9ea9-5461-4b1b-b899-12c04cd50e66","ios":"levelo://app?vid=a18f9ea9-5461-4b1b-b899-12c04cd50e66"},"vehicle_type_id":"4","last_reported":1732738288,"current_range_meters":32000,"station_id":"ce4bho92rcd13ifvqh4g","pricing_plan_id":"cebpf4jnsgd1na2vs0mg"},{"bike_id":"ab23c5de-ac23-4b3f-8459-64b4cc367420","system_id":"levelo_inurba_marseille","lat":43.27372,"lon":5.36247,"is_reserved":false,"is_disabled":true,"rental_uris":{"android":"levelo://app?vid=ab23c5de-ac23-4b3f-8459-64b4cc367420","ios":"levelo://app?vid=ab23c5de-ac23-4b3f-8459-64b4cc367420"},"vehicle_type_id":"4","last_reported":1732738288,"current_range_meters":0,"station_id":"ce4bhbh2rcd13ifvqeo0","pricing_plan_id":"cebpf4jnsgd1na2vs0mg"},{"bike_id":"7850b5a3-047b-4ac7-ba36-9800297e2ebc","system_id":"levelo_inurba_marseille","lat":43.27381,"lon":5.36243,"is_reserved":false,"is_disabled":false,"rental_uris":{"android":"levelo://app?vid=7850b5a3-047b-4ac7-ba36-9800297e2ebc","ios":"levelo://app?vid=7850b5a3-047b-4ac7-ba36-9800297e2ebc"},"vehicle_type_id":"4","last_reported":1732738288,"current_range_meters":28800,"station_id":"ce4bhbh2rcd13ifvqeo0","pricing_plan_id":"cebpf4jnsgd1na2vs0mg"},{"bike_id":"87f9d193-48c9-44b5-adb9-c4879e953ef9","system_id":"levelo_inurba_marseille","lat":43.28151,"lon":5.42637,"is_reserved":false,"is_disabled":false,"rental_uris":{"android":"levelo://app?vid=87f9d193-48c9-44b5-adb9-c4879e953ef9","ios":"levelo://app?vid=87f9d193-48c9-44b5-adb9-c4879e953ef9"},"vehicle_type_id":"4","last_reported":1732738288,"current_range_meters":16800,"station_id":"ce4bhnh2rcd13ifvqgug","pricing_plan_id":"cebpf4jnsgd1na2vs0mg"},{"bike_id":"25ceaf0e-9468-412a-9142-0d65d55c8161","system_id":"levelo_inurba_marseille","lat":43.3123,"lon":5.36849,"is_reserved":false,"is_disabled":false,"rental_uris":{"android":"levelo://app?vid=25ceaf0e-9468-412a-9142-0d65d55c8161","ios":"levelo://app?vid=25ceaf0e-9468-412a-9142-0d65d55c8161"},"vehicle_type_id":"4","last_reported":1732738288,"current_range_meters":22800,"station_id":"ce4bgl92rcd13ifvqbq0","pricing_plan_id":"cebpf4jnsgd1na2vs0mg"},{"bike_id":"c7c8eb9f-a72f-46cc-a7d7-36fb49eb8a83","system_id":"levelo_inurba_marseille","lat":43.337444,"lon":5.374475,"is_reserved":false,"is_disabled":true,"rental_uris":{"android":"levelo://app?vid=c7c8eb9f-a72f-46cc-a7d7-36fb49eb8a83","ios":"levelo://app?vid=c7c8eb9f-a72f-46cc-a7d7-36fb49eb8a83"},"vehicle_type_id":"4","last_reported":1732738288,"current_range_meters":0,"station_id":"","pricing_plan_id":"cebpf4jnsgd1na2vs0mg"},{"bike_id":"00f68461-149c-43bf-8a1a-fd11f8dbd691","system_id":"levelo_inurba_marseille","lat":43.24546,"lon":5.39522,"is_reserved":false,"is_disabled":false,"rental_uris":{"android":"levelo://app?vid=00f68461-149c-43bf-8a1a-fd11f8dbd691","ios":"levelo://app?vid=00f68461-149c-43bf-8a1a-fd11f8dbd691"},"vehicle_type_id":"4","last_reported":1732738288,"current_range_meters":37600,"station_id":"ce4bhlp2rcd13ifvqgjg","pricing_plan_id":"cebpf4jnsgd1na2vs0mg"},{"bike_id":"e5294d0b-291f-4ad8-90c4-9ca75ceb4c23","system_id":"levelo_inurba_marseille","lat":43.3149,"lon":5.37307,"is_reserved":false,"is_disabled":false,"rental_uris":{"android":"levelo://app?vid=e5294d0b-291f-4ad8-90c4-9ca75ceb4c23","ios":"levelo://app?vid=e5294d0b-291f-4ad8-90c4-9ca75ceb4c23"},"vehicle_type_id":"4","last_reported":1732738288,"current_range_meters":33200,"station_id":"ce4bgt12rcd13ifvqcd0","pricing_plan_id":"cebpf4jnsgd1na2vs0mg"},{"bike_id":"991f9a33-5fa3-457c-b846-712300fba475","system_id":"levelo_inurba_marseille","lat":43.26497,"lon":5.39539,"is_reserved":false,"is_disabled":false,"rental_uris":{"android":"levelo://app?vid=991f9a33-5fa3-457c-b846-712300fba475","ios":"levelo://app?vid=991f9a33-5fa3-457c-b846-712300fba475"},"vehicle_type_id":"4","last_reported":1732738288,"current_range_meters":22000,"station_id":"ce4bhi12rcd13ifvqfq0","pricing_plan_id":"cebpf4jnsgd1na2vs0mg"},{"bike_id":"85874c6c-3a4d-49b7-a03b-d454290a88fc","system_id":"levelo_inurba_marseille","lat":43.23177,"lon":5.39993,"is_reserved":false,"is_disabled":false,"rental_uris":{"android":"levelo://app?vid=85874c6c-3a4d-49b7-a03b-d454290a88fc","ios":"levelo://app?vid=85874c6c-3a4d-49b7-a03b-d454290a88fc"},"vehicle_type_id":"4","last_reported":1732738288,"current_range_meters":22400,"station_id":"ce4bhn12rcd13ifvqgqg","pricing_plan_id":"cebpf4jnsgd1na2vs0mg"},{"bike_id":"f63adcdc-7762-465d-90eb-d1a63676c13e","system_id":"levelo_inurba_marseille","lat":43.24075,"lon":5.37763,"is_reserved":false,"is_disabled":false,"rental_uris":{"android":"levelo://app?vid=f63adcdc-7762-465d-90eb-d1a63676c13e","ios":"levelo://app?vid=f63adcdc-7762-465d-90eb-d1a63676c13e"},"vehicle_type_id":"4","last_reported":1732738288,"current_range_meters":38800,"station_id":"ce4bhnp2rcd13ifvqgvg","pricing_plan_id":"cebpf4jnsgd1na2vs0mg"},{"bike_id":"3bda0192-441f-448b-a44b-62afdb2df3e6","system_id":"levelo_inurba_marseille","lat":43.27811,"lon":5.40707,"is_reserved":false,"is_disabled":true,"rental_uris":{"android":"levelo://app?vid=3bda0192-441f-448b-a44b-62afdb2df3e6","ios":"levelo://app?vid=3bda0192-441f-448b-a44b-62afdb2df3e6"},"vehicle_type_id":"4","last_reported":1732738288,"current_range_meters":38800,"station_id":"ce4bhnh2rcd13ifvqgtg","pricing_plan_id":"cebpf4jnsgd1na2vs0mg"},{"bike_id":"c88f8730-1176-4717-97e2-17c27b15274f","system_id":"levelo_inurba_marseille","lat":43.23188,"lon":5.35546,"is_reserved":false,"is_disabled":true,"rental_uris":{"android":"levelo://app?vid=c88f8730-1176-4717-97e2-17c27b15274f","ios":"levelo://app?vid=c88f8730-1176-4717-97e2-17c27b15274f"},"vehicle_type_id":"4","last_reported":1732738288,"current_range_meters":0,"station_id":"ce4bhu92rcd13ifvqi70","pricing_plan_id":"cebpf4jnsgd1na2vs0mg"},{"bike_id":"78a2bcf0-2687-4099-8ea8-7df9e90e87d9","system_id":"levelo_inurba_marseille","lat":43.3107,"lon":5.38355,"is_reserved":false,"is_disabled":false,"rental_uris":{"android":"levelo://app?vid=78a2bcf0-2687-4099-8ea8-7df9e90e87d9","ios":"levelo://app?vid=78a2bcf0-2687-4099-8ea8-7df9e90e87d9"},"vehicle_type_id":"4","last_reported":1732738288,"current_range_meters":14000,"station_id":"ce4bgv92rcd13ifvqcr0","pricing_plan_id":"cebpf4jnsgd1na2vs0mg"},{"bike_id":"3f378e89-ea76-4918-b123-b0cfdc38cb77","system_id":"levelo_inurba_marseille","lat":43.29956,"lon":5.41322,"is_reserved":false,"is_disabled":false,"rental_uris":{"android":"levelo://app?vid=3f378e89-ea76-4918-b123-b0cfdc38cb77","ios":"levelo://app?vid=3f378e89-ea76-4918-b123-b0cfdc38cb77"},"vehicle_type_id":"4","last_reported":1732738288,"current_range_meters":25600,"station_id":"ce4bhp12rcd13ifvqh9g","pricing_plan_id":"cebpf4jnsgd1na2vs0mg"},{"bike_id":"d1f94dd4-9601-4826-9123-429c805265c9","system_id":"levelo_inurba_marseille","lat":43.32286,"lon":5.38269,"is_reserved":false,"is_disabled":false,"rental_uris":{"android":"levelo://app?vid=d1f94dd4-9601-4826-9123-429c805265c9","ios":"levelo://app?vid=d1f94dd4-9601-4826-9123-429c805265c9"},"vehicle_type_id":"4","last_reported":1732738288,"current_range_meters":24400,"station_id":"ce4bhr12rcd13ifvqhqg","pricing_plan_id":"cebpf4jnsgd1na2vs0mg"},{"bike_id":"394c58f2-a871-46c0-abd0-4b645b6015e3","system_id":"levelo_inurba_marseille","lat":43.31327,"lon":5.3969,"is_reserved":false,"is_disabled":false,"rental_uris":{"android":"levelo://app?vid=394c58f2-a871-46c0-abd0-4b645b6015e3","ios":"levelo://app?vid=394c58f2-a871-46c0-abd0-4b645b6015e3"},"vehicle_type_id":"4","last_reported":1732738288,"current_range_meters":16400,"station_id":"ce4bgvp2rcd13ifvqcu0","pricing_plan_id":"cebpf4jnsgd1na2vs0mg"},{"bike_id":"f8227e8b-c036-47dc-b2bb-1f8ce8d936f6","system_id":"levelo_inurba_marseille","lat":43.28151,"lon":5.42638,"is_reserved":false,"is_disabled":false,"rental_uris":{"android":"levelo://app?vid=f8227e8b-c036-47dc-b2bb-1f8ce8d936f6","ios":"levelo://app?vid=f8227e8b-c036-47dc-b2bb-1f8ce8d936f6"},"vehicle_type_id":"4","last_reported":1732738288,"current_range_meters":33600,"station_id":"ce4bhnh2rcd13ifvqgug","pricing_plan_id":"cebpf4jnsgd1na2vs0mg"},{"bike_id":"574fe830-0081-4a08-930a-d520f5f2c27e","system_id":"levelo_inurba_marseille","lat":43.2318,"lon":5.39987,"is_reserved":false,"is_disabled":false,"rental_uris":{"android":"levelo://app?vid=574fe830-0081-4a08-930a-d520f5f2c27e","ios":"levelo://app?vid=574fe830-0081-4a08-930a-d520f5f2c27e"},"vehicle_type_id":"4","last_reported":1732738288,"current_range_meters":31200,"station_id":"ce4bhn12rcd13ifvqgqg","pricing_plan_id":"cebpf4jnsgd1na2vs0mg"},{"bike_id":"92f68095-e990-45cd-8e0a-5779a27edf58","system_id":"levelo_inurba_marseille","lat":43.29375,"lon":5.37864,"is_reserved":false,"is_disabled":false,"rental_uris":{"android":"levelo://app?vid=92f68095-e990-45cd-8e0a-5779a27edf58","ios":"levelo://app?vid=92f68095-e990-45cd-8e0a-5779a27edf58"},"vehicle_type_id":"4","last_reported":1732738288,"current_range_meters":38800,"station_id":"ce4bgjh2rcd13ifvqbf0","pricing_plan_id":"cebpf4jnsgd1na2vs0mg"},{"bike_id":"c05c1c6d-a827-405f-9cd9-5ebfead7cd76","system_id":"levelo_inurba_marseille","lat":43.29195,"lon":5.39329,"is_reserved":false,"is_disabled":false,"rental_uris":{"android":"levelo://app?vid=c05c1c6d-a827-405f-9cd9-5ebfead7cd76","ios":"levelo://app?vid=c05c1c6d-a827-405f-9cd9-5ebfead7cd76"},"vehicle_type_id":"4","last_reported":1732738288,"current_range_meters":8800,"station_id":"ce4bh192rcd13ifvqdd0","pricing_plan_id":"cebpf4jnsgd1na2vs0mg"},{"bike_id":"c25e8970-badd-4e89-91d5-4b07e79f2ae0","system_id":"levelo_inurba_marseille","lat":43.27809,"lon":5.4071,"is_reserved":false,"is_disabled":false,"rental_uris":{"android":"levelo://app?vid=c25e8970-badd-4e89-91d5-4b07e79f2ae0","ios":"levelo://app?vid=c25e8970-badd-4e89-91d5-4b07e79f2ae0"},"vehicle_type_id":"4","last_reported":1732738288,"current_range_meters":28000,"station_id":"ce4bhnh2rcd13ifvqgtg","pricing_plan_id":"cebpf4jnsgd1na2vs0mg"},{"bike_id":"ff9a459e-e517-41ab-9a69-684d87f67a8d","system_id":"levelo_inurba_marseille","lat":43.23183,"lon":5.39981,"is_reserved":false,"is_disabled":false,"rental_uris":{"android":"levelo://app?vid=ff9a459e-e517-41ab-9a69-684d87f67a8d","ios":"levelo://app?vid=ff9a459e-e517-41ab-9a69-684d87f67a8d"},"vehicle_type_id":"4","last_reported":1732738288,"current_range_meters":20000,"station_id":"ce4bhn12rcd13ifvqgqg","pricing_plan_id":"cebpf4jnsgd1na2vs0mg"},{"bike_id":"e54f0174-c7bd-4711-b39d-83487d0a1cd5","system_id":"levelo_inurba_marseille","lat":43.29564,"lon":5.42291,"is_reserved":false,"is_disabled":false,"rental_uris":{"android":"levelo://app?vid=e54f0174-c7bd-4711-b39d-83487d0a1cd5","ios":"levelo://app?vid=e54f0174-c7bd-4711-b39d-83487d0a1cd5"},"vehicle_type_id":"4","last_reported":1732738288,"current_range_meters":37600,"station_id":"ce4bhph2rcd13ifvqhdg","pricing_plan_id":"cebpf4jnsgd1na2vs0mg"},{"bike_id":"4c79d9a9-6ff6-41c5-baad-233d4aa061ac","system_id":"levelo_inurba_marseille","lat":43.3361,"lon":5.41018,"is_reserved":false,"is_disabled":true,"rental_uris":{"android":"levelo://app?vid=4c79d9a9-6ff6-41c5-baad-233d4aa061ac","ios":"levelo://app?vid=4c79d9a9-6ff6-41c5-baad-233d4aa061ac"},"vehicle_type_id":"4","last_reported":1732738288,"current_range_meters":24800,"station_id":"ce4bhqh2rcd13ifvqhmg","pricing_plan_id":"cebpf4jnsgd1na2vs0mg"},{"bike_id":"3d4db1bd-67f5-4f64-8185-d8f7cb1c2231","system_id":"levelo_inurba_marseille","lat":43.24997,"lon":5.38922,"is_reserved":false,"is_disabled":true,"rental_uris":{"android":"levelo://app?vid=3d4db1bd-67f5-4f64-8185-d8f7cb1c2231","ios":"levelo://app?vid=3d4db1bd-67f5-4f64-8185-d8f7cb1c2231"},"vehicle_type_id":"4","last_reported":1732738288,"current_range_meters":0,"station_id":"ce4bhgp2rcd13ifvqfd0","pricing_plan_id":"cebpf4jnsgd1na2vs0mg"},{"bike_id":"7f69bd67-9ddd-47df-b517-4d6308372fb1","system_id":"levelo_inurba_marseille","lat":43.29799,"lon":5.38089,"is_reserved":false,"is_disabled":false,"rental_uris":{"android":"levelo://app?vid=7f69bd67-9ddd-47df-b517-4d6308372fb1","ios":"levelo://app?vid=7f69bd67-9ddd-47df-b517-4d6308372fb1"},"vehicle_type_id":"4","last_reported":1732738288,"current_range_meters":38000,"station_id":"ce4bgip2rcd13ifvqbb0","pricing_plan_id":"cebpf4jnsgd1na2vs0mg"},{"bike_id":"97fe0f38-53f3-416b-a627-a69988dfdc04","system_id":"levelo_inurba_marseille","lat":43.24071,"lon":5.37759,"is_reserved":false,"is_disabled":false,"rental_uris":{"android":"levelo://app?vid=97fe0f38-53f3-416b-a627-a69988dfdc04","ios":"levelo://app?vid=97fe0f38-53f3-416b-a627-a69988dfdc04"},"vehicle_type_id":"4","last_reported":1732738288,"current_range_meters":7200,"station_id":"ce4bhnp2rcd13ifvqgvg","pricing_plan_id":"cebpf4jnsgd1na2vs0mg"},{"bike_id":"c9900f23-5ad1-484e-a0e7-2f06aa8a2c8b","system_id":"levelo_inurba_marseille","lat":43.29016,"lon":5.38133,"is_reserved":false,"is_disabled":false,"rental_uris":{"android":"levelo://app?vid=c9900f23-5ad1-484e-a0e7-2f06aa8a2c8b","ios":"levelo://app?vid=c9900f23-5ad1-484e-a0e7-2f06aa8a2c8b"},"vehicle_type_id":"4","last_reported":1732738288,"current_range_meters":36000,"station_id":"ce4bh4p2rcd13ifvqe1g","pricing_plan_id":"cebpf4jnsgd1na2vs0mg"},{"bike_id":"0609c1c7-6141-43e8-8067-bb101e95eab6","system_id":"levelo_inurba_marseille","lat":43.28437,"lon":5.39186,"is_reserved":false,"is_disabled":false,"rental_uris":{"android":"levelo://app?vid=0609c1c7-6141-43e8-8067-bb101e95eab6","ios":"levelo://app?vid=0609c1c7-6141-43e8-8067-bb101e95eab6"},"vehicle_type_id":"4","last_reported":1732738288,"current_range_meters":28400,"station_id":"ce4bhoh2rcd13ifvqh5g","pricing_plan_id":"cebpf4jnsgd1na2vs0mg"},{"bike_id":"65c5b7a0-2741-4674-9e62-324f44553665","system_id":"levelo_inurba_marseille","lat":43.27958,"lon":5.38707,"is_reserved":false,"is_disabled":false,"rental_uris":{"android":"levelo://app?vid=65c5b7a0-2741-4674-9e62-324f44553665","ios":"levelo://app?vid=65c5b7a0-2741-4674-9e62-324f44553665"},"vehicle_type_id":"4","last_reported":1732738288,"current_range_meters":38800,"station_id":"ce4bhg12rcd13ifvqf80","pricing_plan_id":"cebpf4jnsgd1na2vs0mg"},{"bike_id":"a6ce90f5-0ec8-4fd9-8e71-ace96803ec3f","system_id":"levelo_inurba_marseille","lat":43.24809,"lon":5.3746,"is_reserved":false,"is_disabled":false,"rental_uris":{"android":"levelo://app?vid=a6ce90f5-0ec8-4fd9-8e71-ace96803ec3f","ios":"levelo://app?vid=a6ce90f5-0ec8-4fd9-8e71-ace96803ec3f"},"vehicle_type_id":"4","last_reported":1732738288,"current_range_meters":28400,"station_id":"ce4bhgh2rcd13ifvqfb0","pricing_plan_id":"cebpf4jnsgd1na2vs0mg"},{"bike_id":"ce1cb1a8-e151-4ca6-81d5-fc0391e50e3e","system_id":"levelo_inurba_marseille","lat":43.28152,"lon":5.42644,"is_reserved":false,"is_disabled":false,"rental_uris":{"android":"levelo://app?vid=ce1cb1a8-e151-4ca6-81d5-fc0391e50e3e","ios":"levelo://app?vid=ce1cb1a8-e151-4ca6-81d5-fc0391e50e3e"},"vehicle_type_id":"4","last_reported":1732738288,"current_range_meters":20000,"station_id":"ce4bhnh2rcd13ifvqgug","pricing_plan_id":"cebpf4jnsgd1na2vs0mg"},{"bike_id":"e409d212-c715-4fcf-8c58-c13748ed22e7","system_id":"levelo_inurba_marseille","lat":43.28271,"lon":5.35085,"is_reserved":false,"is_disabled":false,"rental_uris":{"android":"levelo://app?vid=e409d212-c715-4fcf-8c58-c13748ed22e7","ios":"levelo://app?vid=e409d212-c715-4fcf-8c58-c13748ed22e7"},"vehicle_type_id":"4","last_reported":1732738288,"current_range_meters":36000,"station_id":"ce4bhbp2rcd13ifvqerg","pricing_plan_id":"cebpf4jnsgd1na2vs0mg"},{"bike_id":"e6778bce-db8b-4907-892f-55dcf59560cc","system_id":"levelo_inurba_marseille","lat":43.29417,"lon":5.38628,"is_reserved":false,"is_disabled":false,"rental_uris":{"android":"levelo://app?vid=e6778bce-db8b-4907-892f-55dcf59560cc","ios":"levelo://app?vid=e6778bce-db8b-4907-892f-55dcf59560cc"},"vehicle_type_id":"4","last_reported":1732738288,"current_range_meters":19200,"station_id":"ce4bh2h2rcd13ifvqdh0","pricing_plan_id":"cebpf4jnsgd1na2vs0mg"},{"bike_id":"562a76b4-6ab9-4ff0-9faf-2020d86f5e9a","system_id":"levelo_inurba_marseille","lat":43.24176,"lon":5.39702,"is_reserved":false,"is_disabled":false,"rental_uris":{"android":"levelo://app?vid=562a76b4-6ab9-4ff0-9faf-2020d86f5e9a","ios":"levelo://app?vid=562a76b4-6ab9-4ff0-9faf-2020d86f5e9a"},"vehicle_type_id":"4","last_reported":1732738288,"current_range_meters":38800,"station_id":"ce4bhn12rcd13ifvqgpg","pricing_plan_id":"cebpf4jnsgd1na2vs0mg"},{"bike_id":"12c00bc4-f901-4f15-89c0-9ac872d9ba7e","system_id":"levelo_inurba_marseille","lat":43.27439,"lon":5.39404,"is_reserved":false,"is_disabled":false,"rental_uris":{"android":"levelo://app?vid=12c00bc4-f901-4f15-89c0-9ac872d9ba7e","ios":"levelo://app?vid=12c00bc4-f901-4f15-89c0-9ac872d9ba7e"},"vehicle_type_id":"4","last_reported":1732738288,"current_range_meters":30800,"station_id":"ce4bhdp2rcd13ifvqf20","pricing_plan_id":"cebpf4jnsgd1na2vs0mg"},{"bike_id":"8831458c-bbd6-4692-84c4-531474636899","system_id":"levelo_inurba_marseille","lat":43.30797,"lon":5.43513,"is_reserved":false,"is_disabled":false,"rental_uris":{"android":"levelo://app?vid=8831458c-bbd6-4692-84c4-531474636899","ios":"levelo://app?vid=8831458c-bbd6-4692-84c4-531474636899"},"vehicle_type_id":"4","last_reported":1732738288,"current_range_meters":8400,"station_id":"ce4bhph2rcd13ifvqheg","pricing_plan_id":"cebpf4jnsgd1na2vs0mg"},{"bike_id":"102b5da0-afb0-4814-8be4-8718dd7c8b3d","system_id":"levelo_inurba_marseille","lat":43.29893,"lon":5.38899,"is_reserved":false,"is_disabled":false,"rental_uris":{"android":"levelo://app?vid=102b5da0-afb0-4814-8be4-8718dd7c8b3d","ios":"levelo://app?vid=102b5da0-afb0-4814-8be4-8718dd7c8b3d"},"vehicle_type_id":"4","last_reported":1732738288,"current_range_meters":10000,"station_id":"ce4bh392rcd13ifvqdl0","pricing_plan_id":"cebpf4jnsgd1na2vs0mg"},