{"last_updated":1691586691,"ttl":30,"version":"2.2","data":{"bikes":[{"bike_id":"2f631430-6cfd-4fa8-8cde-155892af507b","system_id":"levelo_inurba_marseille","lat":43.31341,"lon":5.367098,"is_reserved":false,"is_disabled":false,"rental_uris":{"android":"levelo://app?vid=2f631430-6cfd-4fa8-8cde-155892af507b","ios":"levelo://app?vid=2f631430-6cfd-4fa8-8cde-155892af507b"},"vehicle_type_id":"4","last_reported":1691586691,"current_range_meters":18800,"station_id":"ce4bgr92rcd13ifvqc6g","pricing_plan_id":"free"},{"bike_id":"b6830e92-fa79-4920-8776-90b25d9f0c0e","system_id":"levelo_inurba_marseille","lat":43.31341,"lon":5.367098,"is_reserved":false,"is_disabled":false,"rental_uris":{"android":"levelo://app?vid=b6830e92-fa79-4920-8776-90b25d9f0c0e","ios":"levelo://app?vid=b6830e92-fa79-4920-8776-90b25d9f0c0e"},"vehicle_type_id":"4","last_reported":1691586691,"current_range_meters":22400,"station_id":"ce4bgr92rcd13ifvqc6g","pricing_plan_id":"free"},{"bike_id":"3cd8374d-4366-4c4a-833e-d87217864c4d","system_id":"levelo_inurba_marseille","lat":43.313391,"lon":5.36706,"is_reserved":false,"is_disabled":false,"rental_uris":{"android":"levelo://app?vid=3cd8374d-4366-4c4a-833e-d87217864c4d","ios":"levelo://app?vid=3cd8374d-4366-4c4a-833e-d87217864c4d"},"vehicle_type_id":"4","last_reported":1691586691,"current_range_meters":25600,"station_id":"ce4bgr92rcd13ifvqc6g","pricing_plan_id":"free"},{"bike_id":"04381479-df53-4f78-a8e8-70eb84bf8c24","system_id":"levelo_inurba_marseille","lat":43.313391,"lon":5.36706,"is_reserved":false,"is_disabled":false,"rental_uris":{"android":"levelo://app?vid=04381479-df53-4f78-a8e8-70eb84bf8c24","ios":"levelo://app?vid=04381479-df53-4f78-a8e8-70eb84bf8c24"},"vehicle_type_id":"4","last_reported":1691586691,"current_range_meters":12000,"station_id":"ce4bgr92rcd13ifvqc6g","pricing_plan_id":"free"},{"bike_id":"cbaae489-09a7-4a36-93af-53e335cfa7bc","system_id":"levelo_inurba_marseille","lat":43.31341,"lon":5.367098,"is_reserved":false,"is_disabled":false,"rental_uris":{"android":"levelo://app?vid=cbaae489-09a7-4a36-93af-53e335cfa7bc","ios":"levelo://app?vid=cbaae489-09a7-4a36-93af-53e335cfa7bc"},"vehicle_type_id":"4","last_reported":1691586691,"current_range_meters":31200,"station_id":"ce4bgr92rcd13ifvqc6g","pricing_plan_id":"free"},{"bike_id":"a0df643c-f5f0-45e5-8579-755401df5e60","system_id":"levelo_inurba_marseille","lat":43.313391,"lon":5.36706,"is_reserved":false,"is_disabled":false,"rental_uris":{"android":"levelo://app?vid=a0df643c-f5f0-45e5-8579-755401df5e60","ios":"levelo://app?vid=a0df643c-f5f0-45e5-8579-755401df5e60"},"vehicle_type_id":"4","last_reported":1691586691,"current_range_meters":31200,"station_id":"ce4bgr92rcd13ifvqc6g","pricing_plan_id":"free"},{"bike_id":"8c722ad0-51d8-4d61-a6f9-2798da6ba753","system_id":"levelo_inurba_marseille","lat":43.31341,"lon":5.367098,"is_reserved":false,"is_disabled":false,"rental_uris":{"android":"levelo://app?vid=8c722ad0-51d8-4d61-a6f9-2798da6ba753","ios":"levelo://app?vid=8c722ad0-51d8-4d61-a6f9-2798da6ba753"},"vehicle_type_id":"4","last_reported":1691586691,"current_range_meters":28800,"station_id":"ce4bgr92rcd13ifvqc6g","pricing_plan_id":"free"},{"bike_id":"ef471e9f-56d6-407c-82b0-ecd24473caa7","system_id":"levelo_inurba_marseille","lat":43.31341,"lon":5.367098,"is_reserved":false,"is_disabled":false,"rental_uris":{"android":"levelo://app?vid=ef471e9f-56d6-407c-82b0-ecd24473caa7","ios":"levelo://app?vid=ef471e9f-56d6-407c-82b0-ecd24473caa7"},"vehicle_type_id":"4","last_reported":1691586691,"current_range_meters":20000,"station_id":"ce4bgr92rcd13ifvqc6g","pricing_plan_id":"free"},{"bike_id":"11b7fb48-93b0-43e5-866c-75b324473888","system_id":"levelo_inurba_marseille","lat":43.313391,"lon":5.36706,"is_reserved":false,"is_disabled":false,"rental_uris":{"android":"levelo://app?vid=11b7fb48-93b0-43e5-866c-75b324473888","ios":"levelo://app?vid=11b7fb48-93b0-43e5-866c-75b324473888"},"vehicle_type_id":"4","last_reported":1691586691,"current_range_meters":28000,"station_id":"ce4bgr92rcd13ifvqc6g","pricing_plan_id":"free"},{"bike_id":"d868dd62-326e-4cc2-827f-7b45ed54e27e","system_id":"levelo_inurba_marseille","lat":43.31341,"lon":5.367098,"is_reserved":false,"is_disabled":false,"rental_uris":{"android":"levelo://app?vid=d868dd62-326e-4cc2-827f-7b45ed54e27e","ios":"levelo://app?vid=d868dd62-326e-4cc2-827f-7b45ed54e27e"},"vehicle_type_id":"4","last_reported":1691586691,"current_range_meters":31600,"station_id":"ce4bgr92rcd13ifvqc6g","pricing_plan_id":"free"},{"bike_id":"12fc2eb2-808e-4112-9fe1-bf7b265d0f5d","system_id":"levelo_inurba_marseille","lat":43.31341,"lon":5.367098,"is_reserved":false,"is_disabled":false,"rental_uris":{"android":"levelo://app?vid=12fc2eb2-808e-4112-9fe1-bf7b265d0f5d","ios":"levelo://app?vid=12fc2eb2-808e-4112-9fe1-bf7b265d0f5d"},"vehicle_type_id":"4","last_reported":1691586691,"current_range_meters":28000,"station_id":"ce4bgr92rcd13ifvqc6g","pricing_plan_id":"free"},{"bike_id":"b392bfe2-2366-47ba-9c59-27109ac3fe3b","system_id":"levelo_inurba_marseille","lat":43.31341,"lon":5.367098,"is_reserved":false,"is_disabled":false,"rental_uris":{"android":"levelo://app?vid=b392bfe2-2366-47ba-9c59-27109ac3fe3b","ios":"levelo://app?vid=b392bfe2-2366-47ba-9c59-27109ac3fe3b"},"vehicle_type_id":"4","last_reported":1691586691,"current_range_meters":22800,"station_id":"ce4bgr92rcd13ifvqc6g","pricing_plan_id":"free"},{"bike_id":"2b7415f7-c45f-4653-94a0-c58085581f75","system_id":"levelo_inurba_marseille","lat":43.313391,"lon":5.36706,"is_reserved":false,"is_disabled":false,"rental_uris":{"android":"levelo://app?vid=2b7415f7-c45f-4653-94a0-c58085581f75","ios":"levelo://app?vid=2b7415f7-c45f-4653-94a0-c58085581f75"},"vehicle_type_id":"4","last_reported":1691586691,"current_range_meters":20800,"station_id":"ce4bgr92rcd13ifvqc6g","pricing_plan_id":"free"},{"bike_id":"b77b5319-cd84-42eb-bced-aff9ff6dafa8","system_id":"levelo_inurba_marseille","lat":43.31341,"lon":5.367098,"is_reserved":false,"is_disabled":false,"rental_uris":{"android":"levelo://app?vid=b77b5319-cd84-42eb-bced-aff9ff6dafa8","ios":"levelo://app?vid=b77b5319-cd84-42eb-bced-aff9ff6dafa8"},"vehicle_type_id":"4","last_reported":1691586691,"current_range_meters":18000,"station_id":"ce4bgr92rcd13ifvqc6g","pricing_plan_id":"free"},{"bike_id":"03348f95-094b-4f0d-9a61-719d2fdedb64","system_id":"levelo_inurba_marseille","lat":43.313391,"lon":5.36706,"is_reserved":false,"is_disabled":false,"rental_uris":{"android":"levelo://app?vid=03348f95-094b-4f0d-9a61-719d2fdedb64","ios":"levelo://app?vid=03348f95-094b-4f0d-9a61-719d2fdedb64"},"vehicle_type_id":"4","last_reported":1691586691,"current_range_meters":22800,"station_id":"ce4bgr92rcd13ifvqc6g","pricing_plan_id":"free"},{"bike_id":"3af50383-0d2b-468e-bb50-ea19e0d7b7ba","system_id":"levelo_inurba_marseille","lat":43.313391,"lon":5.36706,"is_reserved":false,"is_disabled":false,"rental_uris":{"android":"levelo://app?vid=3af50383-0d2b-468e-bb50-ea19e0d7b7ba","ios":"levelo://app?vid=3af50383-0d2b-468e-bb50-ea19e0d7b7ba"},"vehicle_type_id":"4","last_reported":1691586691,"current_range_meters":16800,"station_id":"ce4bgr92rcd13ifvqc6g","pricing_plan_id":"free"},{"bike_id":"53ee2073-1ac1-49cd-8634-eda60b87cace","system_id":"levelo_inurba_marseille","lat":43.313391,"lon":5.36706,"is_reserved":false,"is_disabled":false,"rental_uris":{"android":"levelo://app?vid=53ee2073-1ac1-49cd-8634-eda60b87cace","ios":"levelo://app?vid=53ee2073-1ac1-49cd-8634-eda60b87cace"},"vehicle_type_id":"4","last_reported":1691586691,"current_range_meters":30400,"station_id":"ce4bgr92rcd13ifvqc6g","pricing_plan_id":"free"},{"bike_id":"92c52dda-a519-48bb-a6d9-cdef3b5d39dc","system_id":"levelo_inurba_marseille","lat":43.31341,"lon":5.367098,"is_reserved":false,"is_disabled":false,"rental_uris":{"android":"levelo://app?vid=92c52dda-a519-48bb-a6d9-cdef3b5d39dc","ios":"levelo://app?vid=92c52dda-a519-48bb-a6d9-cdef3b5d39dc"},"vehicle_type_id":"4","last_reported":1691586691,"current_range_meters":29600,"station_id":"ce4bgr92rcd13ifvqc6g","pricing_plan_id":"free"},{"bike_id":"0cc6e118-b2c7-4825-b79b-a49ec2017c13","system_id":"levelo_inurba_marseille","lat":43.312239,"lon":5.368562,"is_reserved":false,"is_disabled":false,"rental_uris":{"android":"levelo://app?vid=0cc6e118-b2c7-4825-b79b-a49ec2017c13","ios":"levelo://app?vid=0cc6e118-b2c7-4825-b79b-a49ec2017c13"},"vehicle_type_id":"4","last_reported":1691586691,"current_range_meters":30000,"station_id":"ce4bgl92rcd13ifvqbq0","pricing_plan_id":"free"},{"bike_id":"6c0bade0-438f-4e4e-8c65-08b9b00e0b11","system_id":"levelo_inurba_marseille","lat":43.312239,"lon":5.368562,"is_reserved":false,"is_disabled":false,"rental_uris":{"android":"levelo://app?vid=6c0bade0-438f-4e4e-8c65-08b9b00e0b11","ios":"levelo://app?vid=6c0bade0-438f-4e4e-8c65-08b9b00e0b11"},"vehicle_type_id":"4","last_reported":1691586691,"current_range_meters":27200,"station_id":"ce4bgl92rcd13ifvqbq0","pricing_plan_id":"free"},{"bike_id":"ae73783a-68cb-4dfb-9555-d313f458c011","system_id":"levelo_inurba_marseille","lat":43.312239,"lon":5.368562,"is_reserved":false,"is_disabled":false,"rental_uris":{"android":"levelo://app?vid=ae73783a-68cb-4dfb-9555-d313f458c011","ios":"levelo://app?vid=ae73783a-68cb-4dfb-9555-d313f458c011"},"vehicle_type_id":"4","last_reported":1691586691,"current_range_meters":30800,"station_id":"ce4bgl92rcd13ifvqbq0","pricing_plan_id":"free"},{"bike_id":"4a5d1f2d-33e7-49f9-b9e6-b2b85267e96e","system_id":"levelo_inurba_marseille","lat":43.312239,"lon":5.368562,"is_reserved":false,"is_disabled":false,"rental_uris":{"android":"levelo://app?vid=4a5d1f2d-33e7-49f9-b9e6-b2b85267e96e","ios":"levelo://app?vid=4a5d1f2d-33e7-49f9-b9e6-b2b85267e96e"},"vehicle_type_id":"4","last_reported":1691586691,"current_range_meters":31600,"station_id":"ce4bgl92rcd13ifvqbq0","pricing_plan_id":"free"},{"bike_id":"ad9c59bf-901f-41e9-a882-104d3f2d12a0","system_id":"levelo_inurba_marseille","lat":43.312239,"lon":5.368562,"is_reserved":false,"is_disabled":false,"rental_uris":{"android":"levelo://app?vid=ad9c59bf-901f-41e9-a882-104d3f2d12a0","ios":"levelo://app?vid=ad9c59bf-901f-41e9-a882-104d3f2d12a0"},"vehicle_type_id":"4","last_reported":1691586691,"current_range_meters":20800,"station_id":"ce4bgl92rcd13ifvqbq0","pricing_plan_id":"free"},{"bike_id":"cb47e838-e765-4a38-8180-e97be87cbc97","system_id":"levelo_inurba_marseille","lat":43.312239,"lon":5.368562,"is_reserved":false,"is_disabled":false,"rental_uris":{"android":"levelo://app?vid=cb47e838-e765-4a38-8180-e97be87cbc97","ios":"levelo://app?vid=cb47e838-e765-4a38-8180-e97be87cbc97"},"vehicle_type_id":"4","last_reported":1691586691,"current_range_meters":18400,"station_id":"ce4bgl92rcd13ifvqbq0","pricing_plan_id":"free"},{"bike_id":"88a24a3a-bdb7-480c-95bb-303afc934803","system_id":"levelo_inurba_marseille","lat":43.312239,"lon":5.368562,"is_reserved":false,"is_disabled":false,"rental_uris":{"android":"levelo://app?vid=88a24a3a-bdb7-480c-95bb-303afc934803","ios":"levelo://app?vid=88a24a3a-bdb7-480c-95bb-303afc934803"},"vehicle_type_id":"4","last_reported":1691586691,"current_range_meters":31600,"station_id":"ce4bgl92rcd13ifvqbq0","pricing_plan_id":"free"},{"bike_id":"1f5acead-3833-4f4d-bf1d-f7aeaade1692","system_id":"levelo_inurba_marseille","lat":43.312239,"lon":5.368562,"is_reserved":false,"is_disabled":false,"rental_uris":{"android":"levelo://app?vid=1f5acead-3833-4f4d-bf1d-f7aeaade1692","ios":"levelo://app?vid=1f5acead-3833-4f4d-bf1d-f7aeaade1692"},"vehicle_type_id":"4","last_reported":1691586691,"current_range_meters":31200,"station_id":"ce4bgl92rcd13ifvqbq0","pricing_plan_id":"free"},{"bike_id":"d8ee1607-9150-4484-9479-3c07c1be8908","system_id":"levelo_inurba_marseille","lat":43.312239,"lon":5.368562,"is_reserved":false,"is_disabled":false,"rental_uris":{"android":"levelo://app?vid=d8ee1607-9150-4484-9479-3c07c1be8908","ios":"levelo://app?vid=d8ee1607-9150-4484-9479-3c07c1be8908"},"vehicle_type_id":"4","last_reported":1691586691,"current_range_meters":31200,"station_id":"ce4bgl92rcd13ifvqbq0","pricing_plan_id":"free"},{"bike_id":"4f66e1b7-3d96-426e-bb08-f47e7fbcca53","system_id":"levelo_inurba_marseille","lat":43.312239,"lon":5.368562,"is_reserved":false,"is_disabled":false,"rental_uris":{"android":"levelo://app?vid=4f66e1b7-3d96-426e-bb08-f47e7fbcca53","ios":"levelo://app?vid=4f66e1b7-3d96-426e-bb08-f47e7fbcca53"},"vehicle_type_id":"4","last_reported":1691586691,"current_range_meters":24400,"station_id":"ce4bgl92rcd13ifvqbq0","pricing_plan_id":"free"},{"bike_id":"eee972f2-589d-466e-8fbd-1b2ec18e22ab","system_id":"levelo_inurba_marseille","lat":43.312239,"lon":5.368562,"is_reserved":false,"is_disabled":false,"rental_uris":{"android":"levelo://app?vid=eee972f2-589d-466e-8fbd-1b2ec18e22ab","ios":"levelo://app?vid=eee972f2-589d-466e-8fbd-1b2ec18e22ab"},"vehicle_type_id":"4","last_reported":1691586691,"current_range_meters":17200,"station_id":"ce4bgl92rcd13ifvqbq0","pricing_plan_id":"free"},{"bike_id":"8d25639b-14c0-49b5-a12e-0d4301b58bc2","system_id":"levelo_inurba_marseille","lat":43.312239,"lon":5.368562,"is_reserved":false,"is_disabled":false,"rental_uris":{"android":"levelo://app?vid=8d25639b-14c0-49b5-a12e-0d4301b58bc2","ios":"levelo://app?vid=8d25639b-14c0-49b5-a12e-0d4301b58bc2"},"vehicle_type_id":"4","last_reported":1691586691,"current_range_meters":31200,"station_id":"ce4bgl92rcd13ifvqbq0","pricing_plan_id":"free"},{"bike_id":"746337e7-4bd4-4212-abf0-6c47d02aa9a2","system_id":"levelo_inurba_marseille","lat":43.312239,"lon":5.368562,"is_reserved":false,"is_disabled":false,"rental_uris":{"android":"levelo://app?vid=746337e7-4bd4-4212-abf0-6c47d02aa9a2","ios":"levelo://app?vid=746337e7-4bd4-4212-abf0-6c47d02aa9a2"},"vehicle_type_id":"4","last_reported":1691586691,"current_range_meters":16400,"station_id":"ce4bgl92rcd13ifvqbq0","pricing_plan_id":"free"},{"bike_id":"d70dab7d-7960-4244-8d33-7cab883f4b9b","system_id":"levelo_inurba_marseille","lat":43.312239,"lon":5.368562,"is_reserved":false,"is_disabled":false,"rental_uris":{"android":"levelo://app?vid=d70dab7d-7960-4244-8d33-7cab883f4b9b","ios":"levelo://app?vid=d70dab7d-7960-4244-8d33-7cab883f4b9b"},"vehicle_type_id":"4","last_reported":1691586691,"current_range_meters":31600,"station_id":"ce4bgl92rcd13ifvqbq0","pricing_plan_id":"free"},{"bike_id":"cf76ceea-0ede-44a5-9e72-5332e1639bb1","system_id":"levelo_inurba_marseille","lat":43.312239,"lon":5.368562,"is_reserved":false,"is_disabled":false,"rental_uris":{"android":"levelo://app?vid=cf76ceea-0ede-44a5-9e72-5332e1639bb1","ios":"levelo://app?vid=cf76ceea-0ede-44a5-9e72-5332e1639bb1"},"vehicle_type_id":"4","last_reported":1691586691,"current_range_meters":7600,"station_id":"ce4bgl92rcd13ifvqbq0","pricing_plan_id":"free"},{"bike_id":"dd7f8397-ee9c-40da-b41a-34509a44180c","system_id":"levelo_inurba_marseille","lat":43.312239,"lon":5.368562,"is_reserved":false,"is_disabled":false,"rental_uris":{"android":"levelo://app?vid=dd7f8397-ee9c-40da-b41a-34509a44180c","ios":"levelo://app?vid=dd7f8397-ee9c-40da-b41a-34509a44180c"},"vehicle_type_id":"4","last_reported":1691586691,"current_range_meters":19600,"station_id":"ce4bgl92rcd13ifvqbq0","pricing_plan_id":"free"},{"bike_id":"4dbfead8-9274-44df-a397-222741afe8a2","system_id":"levelo_inurba_marseille","lat":43.312239,"lon":5.368562,"is_reserved":false,"is_disabled":false,"rental_uris":{"android":"levelo://app?vid=4dbfead8-9274-44df-a397-222741afe8a2","ios":"levelo://app?vid=4dbfead8-9274-44df-a397-222741afe8a2"},"vehicle_type_id":"4","last_reported":1691586691,"current_range_meters":18000,"station_id":"ce4bgl92rcd13ifvqbq0","pricing_plan_id":"free"},{"bike_id":"77b50398-9505-4878-bfe3-7c58359d8ffe","system_id":"levelo_inurba_marseille","lat":43.309076,"lon":5.368465,"is_reserved":false,"is_disabled":false,"rental_uris":{"android":"levelo://app?vid=77b50398-9505-4878-bfe3-7c58359d8ffe","ios":"levelo://app?vid=77b50398-9505-4878-bfe3-7c58359d8ffe"},"vehicle_type_id":"4","last_reported":1691586691,"current_range_meters":31200,"station_id":"ce4bgn92rcd13ifvqbvg","pricing_plan_id":"free"},{"bike_id":"d7eaa90b-95ee-4dc0-aad4-d522f38b135a","system_id":"levelo_inurba_marseille","lat":43.309076,"lon":5.368465,"is_reserved":false,"is_disabled":false,"rental_uris":{"android":"levelo://app?vid=d7eaa90b-95ee-4dc0-aad4-d522f38b135a","ios":"levelo://app?vid=d7eaa90b-95ee-4dc0-aad4-d522f38b135a"},"vehicle_type_id":"4","last_reported":1691586691,"current_range_meters":9200,"station_id":"ce4bgn92rcd13ifvqbvg","pricing_plan_id":"free"},{"bike_id":"96bb4c43-ce04-4f22-9e7b-222243305b57","system_id":"levelo_inurba_marseille","lat":43.309076,"lon":5.368465,"is_reserved":false,"is_disabled":false,"rental_uris":{"android":"levelo://app?vid=96bb4c43-ce04-4f22-9e7b-222243305b57","ios":"levelo://app?vid=96bb4c43-ce04-4f22-9e7b-222243305b57"},"vehicle_type_id":"4","last_reported":1691586691,"current_range_meters":31200,"station_id":"ce4bgn92rcd13ifvqbvg","pricing_plan_id":"free"},{"bike_id":"a5b897a3-bcd0-435a-9320-e12bcfb87cc5","system_id":"levelo_inurba_marseille","lat":43.314811,"lon":5.373103,"is_reserved":false,"is_disabled":false,"rental_uris":{"android":"levelo://app?vid=a5b897a3-bcd0-435a-9320-e12bcfb87cc5","ios":"levelo://app?vid=a5b897a3-bcd0-435a-9320-e12bcfb87cc5"},"vehicle_type_id":"4","last_reported":1691586691,"current_range_meters":31200,"station_id":"ce4bgt12rcd13ifvqcd0","pricing_plan_id":"free"},{"bike_id":"0a299271-5bc8-40e5-ab4b-fba47662252a","system_id":"levelo_inurba_marseille","lat":43.31502,"lon":5.37296,"is_reserved":false,"is_disabled":false,"rental_uris":{"android":"levelo://app?vid=0a299271-5bc8-40e5-ab4b-fba47662252a","ios":"levelo://app?vid=0a299271-5bc8-40e5-ab4b-fba47662252a"},"vehicle_type_id":"4","last_reported":1691586691,"current_range_meters":31200,"station_id":"ce4bgt12rcd13ifvqcd0","pricing_plan_id":"free"},{"bike_id":"95fbec98-718c-4965-b8aa-22dec9b7d216","system_id":"levelo_inurba_marseille","lat":43.31493,"lon":5.37304,"is_reserved":false,"is_disabled":false,"rental_uris":{"android":"levelo://app?vid=95fbec98-718c-4965-b8aa-22dec9b7d216","ios":"levelo://app?vid=95fbec98-718c-4965-b8aa-22dec9b7d216"},"vehicle_type_id":"4","last_reported":1691586691,"current_range_meters":800,"station_id":"ce4bgt12rcd13ifvqcd0","pricing_plan_id":"free"},{"bike_id":"33644194-9860-4dbe-9d72-1a1b01cf5ebf","system_id":"levelo_inurba_marseille","lat":43.309039,"lon":5.371797,"is_reserved":false,"is_disabled":false,"rental_uris":{"android":"levelo://app?vid=33644194-9860-4dbe-9d72-1a1b01cf5ebf","ios":"levelo://app?vid=33644194-9860-4dbe-9d72-1a1b01cf5ebf"},"vehicle_type_id":"4","last_reported":1691586691,"current_range_meters":6400,"station_id":"ce4bguh2rcd13ifvqckg","pricing_plan_id":"free"},{"bike_id":"cf985caa-6db5-47a6-9c94-091d4fd93dba","system_id":"levelo_inurba_marseille","lat":43.309039,"lon":5.371797,"is_reserved":false,"is_disabled":false,"rental_uris":{"android":"levelo://app?vid=cf985caa-6db5-47a6-9c94-091d4fd93dba","ios":"levelo://app?vid=cf985caa-6db5-47a6-9c94-091d4fd93dba"},"vehicle_type_id":"4","last_reported":1691586691,"current_range_meters":30800,"station_id":"ce4bguh2rcd13ifvqckg","pricing_plan_id":"free"},{"bike_id":"37fea3ac-a177-49c0-879a-349057f25c32","system_id":"levelo_inurba_marseille","lat":43.305368,"lon":5.367343,"is_reserved":false,"is_disabled":false,"rental_uris":{"android":"levelo://app?vid=37fea3ac-a177-49c0-879a-349057f25c32","ios":"levelo://app?vid=37fea3ac-a177-49c0-879a-349057f25c32"},"vehicle_type_id":"4","last_reported":1691586691,"current_range_meters":5200,"station_id":"ce4bgrp2rcd13ifvqc9g","pricing_plan_id":"free"},{"bike_id":"75c144f9-aee3-4447-91e6-f543a25955e1","system_id":"levelo_inurba_marseille","lat":43.30539,"lon":5.36702,"is_reserved":false,"is_disabled":false,"rental_uris":{"android":"levelo://app?vid=75c144f9-aee3-4447-91e6-f543a25955e1","ios":"levelo://app?vid=75c144f9-aee3-4447-91e6-f543a25955e1"},"vehicle_type_id":"4","last_reported":1691586691,"current_range_meters":29200,"station_id":"ce4bgrp2rcd13ifvqc9g","pricing_plan_id":"free"},{"bike_id":"5724d920-c688-4f2f-9a6c-e6bc87474d17","system_id":"levelo_inurba_marseille","lat":43.30533,"lon":5.36718,"is_reserved":false,"is_disabled":false,"rental_uris":{"android":"levelo://app?vid=5724d920-c688-4f2f-9a6c-e6bc87474d17","ios":"levelo://app?vid=5724d920-c688-4f2f-9a6c-e6bc87474d17"},"vehicle_type_id":"4","last_reported":1691586691,"current_range_meters":26000,"station_id":"ce4bgrp2rcd13ifvqc9g","pricing_plan_id":"free"},{"bike_id":"5f3183fe-ea37-46e3-b5ce-0e32ef8383d1","system_id":"levelo_inurba_marseille","lat":43.305706,"lon":5.365654,"is_reserved":false,"is_disabled":false,"rental_uris":{"android":"levelo://app?vid=5f3183fe-ea37-46e3-b5ce-0e32ef8383d1","ios":"levelo://app?vid=5f3183fe-ea37-46e3-b5ce-0e32ef8383d1"},"vehicle_type_id":"4","last_reported":1691586691,"current_range_meters":30800,"station_id":"ce4bgs12rcd13ifvqcag","pricing_plan_id":"free"},{"bike_id":"3fd91775-e533-4f69-ad83-fa2d1bae6000","system_id":"levelo_inurba_marseille","lat":43.305989,"lon":5.37225,"is_reserved":false,"is_disabled":false,"rental_uris":{"android":"levelo://app?vid=3fd91775-e533-4f69-ad83-fa2d1bae6000","ios":"levelo://app?vid=3fd91775-e533-4f69-ad83-fa2d1bae6000"},"vehicle_type_id":"4","last_reported":1691586691,"current_range_meters":24800,"station_id":"ce4bgqh2rcd13ifvqc4g","pricing_plan_id":"free"},{"bike_id":"87de90af-c249-4cf8-a0c5-12a4f6e9a3c0","system_id":"levelo_inurba_marseille","lat":43.31119,"lon":5.37775,"is_reserved":false,"is_disabled":false,"rental_uris":{"android":"levelo://app?vid=87de90af-c249-4cf8-a0c5-12a4f6e9a3c0","ios":"levelo://app?vid=87de90af-c249-4cf8-a0c5-12a4f6e9a3c0"},"vehicle_type_id":"4","last_reported":1691586691,"current_range_meters":25600,"station_id":"ce4bgt92rcd13ifvqcg0","pricing_plan_id":"free"},{"bike_id":"4f717866-d364-4e9a-b3c1-01d819498732","system_id":"levelo_inurba_marseille","lat":43.30815,"lon":5.37658,"is_reserved":false,"is_disabled":false,"rental_uris":{"android":"levelo://app?vid=4f717866-d364-4e9a-b3c1-01d819498732","ios":"levelo://app?vid=4f717866-d364-4e9a-b3c1-01d819498732"},"vehicle_type_id":"4","last_reported":1691586691,"current_range_meters":31200,"station_id":"ce4bgv92rcd13ifvqcq0","pricing_plan_id":"free"},{"bike_id":"f97d00a3-1a23-410b-b45b-05d1960be2f4","system_id":"levelo_inurba_marseille","lat":43.30784,"lon":5.37647,"is_reserved":false,"is_disabled":false,"rental_uris":{"android":"levelo://app?vid=f97d00a3-1a23-410b-b45b-05d1960be2f4","ios":"levelo://app?vid=f97d00a3-1a23-410b-b45b-05d1960be2f4"},"vehicle_type_id":"4","last_reported":1691586691,"current_range_meters":6800,"station_id":"ce4bgv92rcd13ifvqcq0","pricing_plan_id":"free"},{"bike_id":"5057ece2-f01e-4728-8b3f-11203107a956","system_id":"levelo_inurba_marseille","lat":43.30782,"lon":5.37655,"is_reserved":false,"is_disabled":false,"rental_uris":{"android":"levelo://app?vid=5057ece2-f01e-4728-8b3f-11203107a956","ios":"levelo://app?vid=5057ece2-f01e-4728-8b3f-11203107a956"},"vehicle_type_id":"4","last_reported":1691586691,"current_range_meters":23600,"station_id":"ce4bgv92rcd13ifvqcq0","pricing_plan_id":"free"},{"bike_id":"20b5ce43-c7f1-4b3b-b3b7-a6912248472f","system_id":"levelo_inurba_marseille","lat":43.317075,"lon":5.377367,"is_reserved":false,"is_disabled":false,"rental_uris":{"android":"levelo://app?vid=20b5ce43-c7f1-4b3b-b3b7-a6912248472f","ios":"levelo://app?vid=20b5ce43-c7f1-4b3b-b3b7-a6912248472f"},"vehicle_type_id":"4","last_reported":1691586691,"current_range_meters":30000,"station_id":"ce4bgth2rcd13ifvqch0","pricing_plan_id":"free"},{"bike_id":"65affa8a-9878-4fb2-aeeb-5e00e608d8f2","system_id":"levelo_inurba_marseille","lat":43.317075,"lon":5.377367,"is_reserved":false,"is_disabled":false,"rental_uris":{"android":"levelo://app?vid=65affa8a-9878-4fb2-aeeb-5e00e608d8f2","ios":"levelo://app?vid=65affa8a-9878-4fb2-aeeb-5e00e608d8f2"},"vehicle_type_id":"4","last_reported":1691586691,"current_range_meters":31600,"station_id":"ce4bgth2rcd13ifvqch0","pricing_plan_id":"free"},{"bike_id":"e0e8d77b-b700-487c-801e-5ba8956e72a0","system_id":"levelo_inurba_marseille","lat":43.317075,"lon":5.377367,"is_reserved":false,"is_disabled":false,"rental_uris":{"android":"levelo://app?vid=e0e8d77b-b700-487c-801e-5ba8956e72a0","ios":"levelo://app?vid=e0e8d77b-b700-487c-801e-5ba8956e72a0"},"vehicle_type_id":"4","last_reported":1691586691,"current_range_meters":28400,"station_id":"ce4bgth2rcd13ifvqch0","pricing_plan_id":"free"},{"bike_id":"b1c47f7f-d58d-4b23-afc7-5d3872c88590","system_id":"levelo_inurba_marseille","lat":43.317075,"lon":5.377367,"is_reserved":false,"is_disabled":false,"rental_uris":{"android":"levelo://app?vid=b1c47f7f-d58d-4b23-afc7-5d3872c88590","ios":"levelo://app?vid=b1c47f7f-d58d-4b23-afc7-5d3872c88590"},"vehicle_type_id":"4","last_reported":1691586691,"current_range_meters":27600,"station_id":"ce4bgth2rcd13ifvqch0","pricing_plan_id":"free"},{"bike_id":"c0fea9aa-658c-496e-8538-4a5ed2925bb9","system_id":"levelo_inurba_marseille","lat":43.317075,"lon":5.377367,"is_reserved":false,"is_disabled":false,"rental_uris":{"android":"levelo://app?vid=c0fea9aa-658c-496e-8538-4a5ed2925bb9","ios":"levelo://app?vid=c0fea9aa-658c-496e-8538-4a5ed2925bb9"},"vehicle_type_id":"4","last_reported":1691586691,"current_range_meters":31600,"station_id":"ce4bgth2rcd13ifvqch0","pricing_plan_id":"free"},{"bike_id":"dbadef06-daaa-4454-a704-981a09e77f2d","system_id":"levelo_inurba_marseille","lat":43.317075,"lon":5.377367,"is_reserved":false,"is_disabled":false,"rental_uris":{"android":"levelo://app?vid=dbadef06-daaa-4454-a704-981a09e77f2d","ios":"levelo://app?vid=dbadef06-daaa-4454-a704-981a09e77f2d"},"vehicle_type_id":"4","last_reported":1691586691,"current_range_meters":30400,"station_id":"ce4bgth2rcd13ifvqch0","pricing_plan_id":"free"},{"bike_id":"1ff32b16-90c7-4292-8f9f-988c738f96e1","system_id":"levelo_inurba_marseille","lat":43.303046,"lon":5.368981,"is_reserved":false,"is_disabled":false,"rental_uris":{"android":"levelo://app?vid=1ff32b16-90c7-4292-8f9f-988c738f96e1","ios":"levelo://app?vid=1ff32b16-90c7-4292-8f9f-988c738f96e1"},"vehicle_type_id":"4","last_reported":1691586691,"current_range_meters":26800,"station_id":"ce4bgqh2rcd13ifvqc5g","pricing_plan_id":"free"},{"bike_id":"feb50198-b2bf-4f1f-9306-3e8d7ccad0ba","system_id":"levelo_inurba_marseille","lat":43.30306,"lon":5.36901,"is_reserved":false,"is_disabled":false,"rental_uris":{"android":"levelo://app?vid=feb50198-b2bf-4f1f-9306-3e8d7ccad0ba","ios":"levelo://app?vid=feb50198-b2bf-4f1f-9306-3e8d7ccad0ba"},"vehicle_type_id":"4","last_reported":1691586691,"current_range_meters":4800,"station_id":"ce4bgqh2rcd13ifvqc5g","pricing_plan_id":"free"},{"bike_id":"e2eeb3c0-a12a-4085-8d10-eabb17bc6f6b","system_id":"levelo_inurba_marseille","lat":43.303046,"lon":5.368981,"is_reserved":false,"is_disabled":false,"rental_uris":{"android":"levelo://app?vid=e2eeb3c0-a12a-4085-8d10-eabb17bc6f6b","ios":"levelo://app?vid=e2eeb3c0-a12a-4085-8d10-eabb17bc6f6b"},"vehicle_type_id":"4","last_reported":1691586691,"current_range_meters":0,"station_id":"ce4bgqh2rcd13ifvqc5g","pricing_plan_id":"free"},{"bike_id":"02766dc0-2a49-4f0f-9e52-6b8745f4d67c","system_id":"levelo_inurba_marseille","lat":43.31526,"lon":5.38032,"is_reserved":false,"is_disabled":false,"rental_uris":{"android":"levelo://app?vid=02766dc0-2a49-4f0f-9e52-6b8745f4d67c","ios":"levelo://app?vid=02766dc0-2a49-4f0f-9e52-6b8745f4d67c"},"vehicle_type_id":"4","last_reported":1691586691,"current_range_meters":19200,"station_id":"ce4bhsp2rcd13ifvqi50","pricing_plan_id":"free"},{"bike_id":"ea088d60-ead8-422e-91c5-543251b495bd","system_id":"levelo_inurba_marseille","lat":43.30187,"lon":5.36613,"is_reserved":false,"is_disabled":false,"rental_uris":{"android":"levelo://app?vid=ea088d60-ead8-422e-91c5-543251b495bd","ios":"levelo://app?vid=ea088d60-ead8-422e-91c5-543251b495bd"},"vehicle_type_id":"4","last_reported":1691586691,"current_range_meters":19200,"station_id":"ce4bgrh2rcd13ifvqc8g","pricing_plan_id":"free"},{"bike_id":"09a2975b-c8d2-4caf-873b-ca5c22e67a8a","system_id":"levelo_inurba_marseille","lat":43.301939,"lon":5.366286,"is_reserved":false,"is_disabled":false,"rental_uris":{"android":"levelo://app?vid=09a2975b-c8d2-4caf-873b-ca5c22e67a8a","ios":"levelo://app?vid=09a2975b-c8d2-4caf-873b-ca5c22e67a8a"},"vehicle_type_id":"4","last_reported":1691586691,"current_range_meters":14800,"station_id":"ce4bgrh2rcd13ifvqc8g","pricing_plan_id":"free"},{"bike_id":"34007753-ee45-43dc-964c-cbd3cdbae00e","system_id":"levelo_inurba_marseille","lat":43.301939,"lon":5.366286,"is_reserved":false,"is_disabled":false,"rental_uris":{"android":"levelo://app?vid=34007753-ee45-43dc-964c-cbd3cdbae00e","ios":"levelo://app?vid=34007753-ee45-43dc-964c-cbd3cdbae00e"},"vehicle_type_id":"4","last_reported":1691586691,"current_range_meters":11200,"station_id":"ce4bgrh2rcd13ifvqc8g","pricing_plan_id":"free"},{"bike_id":"379280da-78a7-4929-b80b-826c529cd980","system_id":"levelo_inurba_marseille","lat":43.301939,"lon":5.366286,"is_reserved":false,"is_disabled":false,"rental_uris":{"android":"levelo://app?vid=379280da-78a7-4929-b80b-826c529cd980","ios":"levelo://app?vid=379280da-78a7-4929-b80b-826c529cd980"},"vehicle_type_id":"4","last_reported":1691586691,"current_range_meters":26800,"station_id":"ce4bgrh2rcd13ifvqc8g","pricing_plan_id":"free"},{"bike_id":"98f41160-005c-4b89-9b02-3bf98918c7f7","system_id":"levelo_inurba_marseille","lat":43.308012,"lon":5.381511,"is_reserved":false,"is_disabled":false,"rental_uris":{"android":"levelo://app?vid=98f41160-005c-4b89-9b02-3bf98918c7f7","ios":"levelo://app?vid=98f41160-005c-4b89-9b02-3bf98918c7f7"},"vehicle_type_id":"4","last_reported":1691586691,"current_range_meters":29600,"station_id":"ce4bgt12rcd13ifvqce0","pricing_plan_id":"free"},{"bike_id":"6597076d-71d0-413d-8cff-272a436931af","system_id":"levelo_inurba_marseille","lat":43.30799,"lon":5.38156,"is_reserved":false,"is_disabled":false,"rental_uris":{"android":"levelo://app?vid=6597076d-71d0-413d-8cff-272a436931af","ios":"levelo://app?vid=6597076d-71d0-413d-8cff-272a436931af"},"vehicle_type_id":"4","last_reported":1691586691,"current_range_meters":20800,"station_id":"ce4bgt12rcd13ifvqce0","pricing_plan_id":"free"},{"bike_id":"ef3427fb-82c6-42fe-89f5-9094b19c7dc4","system_id":"levelo_inurba_marseille","lat":43.308012,"lon":5.381511,"is_reserved":false,"is_disabled":false,"rental_uris":{"android":"levelo://app?vid=ef3427fb-82c6-42fe-89f5-9094b19c7dc4","ios":"levelo://app?vid=ef3427fb-82c6-42fe-89f5-9094b19c7dc4"},"vehicle_type_id":"4","last_reported":1691586691,"current_range_meters":25600,"station_id":"ce4bgt12rcd13ifvqce0","pricing_plan_id":"free"},{"bike_id":"fb842567-52cd-4d21-a4f3-6b02dbff230f","system_id":"levelo_inurba_marseille","lat":43.304606,"lon":5.379026,"is_reserved":false,"is_disabled":false,"rental_uris":{"android":"levelo://app?vid=fb842567-52cd-4d21-a4f3-6b02dbff230f","ios":"levelo://app?vid=fb842567-52cd-4d21-a4f3-6b02dbff230f"},"vehicle_type_id":"4","last_reported":1691586691,"current_range_meters":31200,"station_id":"ce4bgup2rcd13ifvqcn0","pricing_plan_id":"free"},{"bike_id":"f1561c2f-4fa6-4c82-89c4-e4d47f9365c8","system_id":"levelo_inurba_marseille","lat":43.304606,"lon":5.379026,"is_reserved":false,"is_disabled":false,"rental_uris":{"android":"levelo://app?vid=f1561c2f-4fa6-4c82-89c4-e4d47f9365c8","ios":"levelo://app?vid=f1561c2f-4fa6-4c82-89c4-e4d47f9365c8"},"vehicle_type_id":"4","last_reported":1691586691,"current_range_meters":28400,"station_id":"ce4bgup2rcd13ifvqcn0","pricing_plan_id":"free"},{"bike_id":"a1ee251c-17a7-496a-bdae-5b42e5768dc4","system_id":"levelo_inurba_marseille","lat":43.30459,"lon":5.37891,"is_reserved":false,"is_disabled":false,"rental_uris":{"android":"levelo://app?vid=a1ee251c-17a7-496a-bdae-5b42e5768dc4","ios":"levelo://app?vid=a1ee251c-17a7-496a-bdae-5b42e5768dc4"},"vehicle_type_id":"4","last_reported":1691586691,"current_range_meters":31200,"station_id":"ce4bgup2rcd13ifvqcn0","pricing_plan_id":"free"},{"bike_id":"bb04e85c-babf-496f-bfd5-3ea8a1e1fc30","system_id":"levelo_inurba_marseille","lat":43.304606,"lon":5.379026,"is_reserved":false,"is_disabled":false,"rental_uris":{"android":"levelo://app?vid=bb04e85c-babf-496f-bfd5-3ea8a1e1fc30","ios":"levelo://app?vid=bb04e85c-babf-496f-bfd5-3ea8a1e1fc30"},"vehicle_type_id":"4","last_reported":1691586691,"current_range_meters":18800,"station_id":"ce4bgup2rcd13ifvqcn0","pricing_plan_id":"free"},{"bike_id":"ec15fba9-b5c7-453a-b6b6-05280dd0a6cb","system_id":"levelo_inurba_marseille","lat":43.304606,"lon":5.379026,"is_reserved":false,"is_disabled":false,"rental_uris":{"android":"levelo://app?vid=ec15fba9-b5c7-453a-b6b6-05280dd0a6cb","ios":"levelo://app?vid=ec15fba9-b5c7-453a-b6b6-05280dd0a6cb"},"vehicle_type_id":"4","last_reported":1691586691,"current_range_meters":13600,"station_id":"ce4bgup2rcd13ifvqcn0","pricing_plan_id":"free"},{"bike_id":"095f8a22-0ca3-4fb1-b666-b342844f7216","system_id":"levelo_inurba_marseille","lat":43.304606,"lon":5.379026,"is_reserved":false,"is_disabled":false,"rental_uris":{"android":"levelo://app?vid=095f8a22-0ca3-4fb1-b666-b342844f7216","ios":"levelo://app?vid=095f8a22-0ca3-4fb1-b666-b342844f7216"},"vehicle_type_id":"4","last_reported":1691586691,"current_range_meters":30400,"station_id":"ce4bgup2rcd13ifvqcn0","pricing_plan_id":"free"},{"bike_id":"6a1eb205-dc24-447c-b160-2b1b46cff3d2","system_id":"levelo_inurba_marseille","lat":43.304606,"lon":5.379026,"is_reserved":false,"is_disabled":false,"rental_uris":{"android":"levelo://app?vid=6a1eb205-dc24-447c-b160-2b1b46cff3d2","ios":"levelo://app?vid=6a1eb205-dc24-447c-b160-2b1b46cff3d2"},"vehicle_type_id":"4","last_reported":1691586691,"current_range_meters":31600,"station_id":"ce4bgup2rcd13ifvqcn0","pricing_plan_id":"free"},{"bike_id":"817b3bbe-9e2b-4b5b-bf95-027037f84751","system_id":"levelo_inurba_marseille","lat":43.304606,"lon":5.379026,"is_reserved":false,"is_disabled":false,"rental_uris":{"android":"levelo://app?vid=817b3bbe-9e2b-4b5b-bf95-027037f84751","ios":"levelo://app?vid=817b3bbe-9e2b-4b5b-bf95-027037f84751"},"vehicle_type_id":"4","last_reported":1691586691,"current_range_meters":30400,"station_id":"ce4bgup2rcd13ifvqcn0","pricing_plan_id":"free"},{"bike_id":"45f62f80-ee9e-4106-88d9-b1354f42bf45","system_id":"levelo_inurba_marseille","lat":43.30459,"lon":5.379,"is_reserved":false,"is_disabled":false,"rental_uris":{"android":"levelo://app?vid=45f62f80-ee9e-4106-88d9-b1354f42bf45","ios":"levelo://app?vid=45f62f80-ee9e-4106-88d9-b1354f42bf45"},"vehicle_type_id":"4","last_reported":1691586691,"current_range_meters":22400,"station_id":"ce4bgup2rcd13ifvqcn0","pricing_plan_id":"free"},{"bike_id":"67e85a27-bf9a-457a-ab20-8fd63ae4ea84","system_id":"levelo_inurba_marseille","lat":43.304606,"lon":5.379026,"is_reserved":false,"is_disabled":false,"rental_uris":{"android":"levelo://app?vid=67e85a27-bf9a-457a-ab20-8fd63ae4ea84","ios":"levelo://app?vid=67e85a27-bf9a-457a-ab20-8fd63ae4ea84"},"vehicle_type_id":"4","last_reported":1691586691,"current_range_meters":21600,"station_id":"ce4bgup2rcd13ifvqcn0","pricing_plan_id":"free"},{"bike_id":"94126101-ae9c-4634-92ab-a2dd74292049","system_id":"levelo_inurba_marseille","lat":43.302784,"lon":5.377158,"is_reserved":false,"is_disabled":false,"rental_uris":{"android":"levelo://app?vid=94126101-ae9c-4634-92ab-a2dd74292049","ios":"levelo://app?vid=94126101-ae9c-4634-92ab-a2dd74292049"},"vehicle_type_id":"4","last_reported":1691586691,"current_range_meters":29600,"station_id":"ce4bguh2rcd13ifvqcj0","pricing_plan_id":"free"},{"bike_id":"84b1699d-d8ab-4b51-a56c-9a23d6b12356","system_id":"levelo_inurba_marseille","lat":43.302784,"lon":5.377158,"is_reserved":false,"is_disabled":false,"rental_uris":{"android":"levelo://app?vid=84b1699d-d8ab-4b51-a56c-9a23d6b12356","ios":"levelo://app?vid=84b1699d-d8ab-4b51-a56c-9a23d6b12356"},"vehicle_type_id":"4","last_reported":1691586691,"current_range_meters":31200,"station_id":"ce4bguh2rcd13ifvqcj0","pricing_plan_id":"free"},{"bike_id":"ccd676cc-ca45-49c7-8c1f-8efe2939ee5f","system_id":"levelo_inurba_marseille","lat":43.302784,"lon":5.377158,"is_reserved":false,"is_disabled":false,"rental_uris":{"android":"levelo://app?vid=ccd676cc-ca45-49c7-8c1f-8efe2939ee5f","ios":"levelo://app?vid=ccd676cc-ca45-49c7-8c1f-8efe2939ee5f"},"vehicle_type_id":"4","last_reported":1691586691,"current_range_meters":31600,"station_id":"ce4bguh2rcd13ifvqcj0","pricing_plan_id":"free"},{"bike_id":"f72bd0b3-541e-43cb-a07a-883a39a7bbb4","system_id":"levelo_inurba_marseille","lat":43.302784,"lon":5.377158,"is_reserved":false,"is_disabled":false,"rental_uris":{"android":"levelo://app?vid=f72bd0b3-541e-43cb-a07a-883a39a7bbb4","ios":"levelo://app?vid=f72bd0b3-541e-43cb-a07a-883a39a7bbb4"},"vehicle_type_id":"4","last_reported":1691586691,"current_range_meters":29600,"station_id":"ce4bguh2rcd13ifvqcj0","pricing_plan_id":"free"},{"bike_id":"2c90a451-2071-4f15-9bd7-ac5c9fbc652f","system_id":"levelo_inurba_marseille","lat":43.30141,"lon":5.37422,"is_reserved":false,"is_disabled":false,"rental_uris":{"android":"levelo://app?vid=2c90a451-2071-4f15-9bd7-ac5c9fbc652f","ios":"levelo://app?vid=2c90a451-2071-4f15-9bd7-ac5c9fbc652f"},"vehicle_type_id":"4","last_reported":1691586691,"current_range_meters":23200,"station_id":"ce4bgs92rcd13ifvqcc0","pricing_plan_id":"free"},{"bike_id":"1389ffde-7c88-4af1-a42d-788d4343b17c","system_id":"levelo_inurba_marseille","lat":43.30136,"lon":5.37426,"is_reserved":false,"is_disabled":false,"rental_uris":{"android":"levelo://app?vid=1389ffde-7c88-4af1-a42d-788d4343b17c","ios":"levelo://app?vid=1389ffde-7c88-4af1-a42d-788d4343b17c"},"vehicle_type_id":"4","last_reported":1691586691,"current_range_meters":31600,"station_id":"ce4bgs92rcd13ifvqcc0","pricing_plan_id":"free"},{"bike_id":"2e9cf206-dc44-4b5a-b9af-bf2dd97b525f","system_id":"levelo_inurba_marseille","lat":43.30136,"lon":5.37427,"is_reserved":false,"is_disabled":false,"rental_uris":{"android":"levelo://app?vid=2e9cf206-dc44-4b5a-b9af-bf2dd97b525f","ios":"levelo://app?vid=2e9cf206-dc44-4b5a-b9af-bf2dd97b525f"},"vehicle_type_id":"4","last_reported":1691586691,"current_range_meters":31200,"station_id":"ce4bgs92rcd13ifvqcc0","pricing_plan_id":"free"},{"bike_id":"7b419518-ea7f-4da5-b99a-931cff3ce7fb","system_id":"levelo_inurba_marseille","lat":43.319935,"lon":5.381699,"is_reserved":false,"is_disabled":false,"rental_uris":{"android":"levelo://app?vid=7b419518-ea7f-4da5-b99a-931cff3ce7fb","ios":"levelo://app?vid=7b419518-ea7f-4da5-b99a-931cff3ce7fb"},"vehicle_type_id":"4","last_reported":1691586691,"current_range_meters":31200,"station_id":"ce4bhr12rcd13ifvqhpg","pricing_plan_id":"free"},{"bike_id":"fa752c94-3612-4517-9c36-806301a8992a","system_id":"levelo_inurba_marseille","lat":43.319935,"lon":5.381699,"is_reserved":false,"is_disabled":false,"rental_uris":{"android":"levelo://app?vid=fa752c94-3612-4517-9c36-806301a8992a","ios":"levelo://app?vid=fa752c94-3612-4517-9c36-806301a8992a"},"vehicle_type_id":"4","last_reported":1691586691,"current_range_meters":31200,"station_id":"ce4bhr12rcd13ifvqhpg","pricing_plan_id":"free"},{"bike_id":"34d34957-3a05-48d3-a56a-489b167561fb","system_id":"levelo_inurba_marseille","lat":43.31995,"lon":5.38148,"is_reserved":false,"is_disabled":false,"rental_uris":{"android":"levelo://app?vid=34d34957-3a05-48d3-a56a-489b167561fb","ios":"levelo://app?vid=34d34957-3a05-48d3-a56a-489b167561fb"},"vehicle_type_id":"4","last_reported":1691586691,"current_range_meters":31200,"station_id":"ce4bhr12rcd13ifvqhpg","pricing_plan_id":"free"},{"bike_id":"e30c3070-4fe5-4573-8f13-8513cb601b4d","system_id":"levelo_inurba_marseille","lat":43.31351,"lon":5.38491,"is_reserved":false,"is_disabled":false,"rental_uris":{"android":"levelo://app?vid=e30c3070-4fe5-4573-8f13-8513cb601b4d","ios":"levelo://app?vid=e30c3070-4fe5-4573-8f13-8513cb601b4d"},"vehicle_type_id":"4","last_reported":1691586691,"current_range_meters":17600,"station_id":"","pricing_plan_id":"free"},{"bike_id":"e434f99c-f55c-4799-9363-a6ee69680c62","system_id":"levelo_inurba_marseille","lat":43.29941,"lon":5.36554,"is_reserved":false,"is_disabled":false,"rental_uris":{"android":"levelo://app?vid=e434f99c-f55c-4799-9363-a6ee69680c62","ios":"levelo://app?vid=e434f99c-f55c-4799-9363-a6ee69680c62"},"vehicle_type_id":"4","last_reported":1691586691,"current_range_meters":10400,"station_id":"ce4bgm92rcd13ifvqbr0","pricing_plan_id":"free"},{"bike_id":"7f310282-a620-4341-80fb-7a3f16d5f344","system_id":"levelo_inurba_marseille","lat":43.29981,"lon":5.37187,"is_reserved":false,"is_disabled":false,"rental_uris":{"android":"levelo://app?vid=7f310282-a620-4341-80fb-7a3f16d5f344","ios":"levelo://app?vid=7f310282-a620-4341-80fb-7a3f16d5f344"},"vehicle_type_id":"4","last_reported":1691586691,"current_range_meters":31200,"station_id":"ce4bgr92rcd13ifvqc7g","pricing_plan_id":"free"},{"bike_id":"15b2f289-e8da-4c30-a721-2cf15799ace1","system_id":"levelo_inurba_marseille","lat":43.31976,"lon":5.38269,"is_reserved":false,"is_disabled":false,"rental_uris":{"android":"levelo://app?vid=15b2f289-e8da-4c30-a721-2cf15799ace1","ios":"levelo://app?vid=15b2f289-e8da-4c30-a721-2cf15799ace1"},"vehicle_type_id":"4","last_reported":1691586691,"current_range_meters":5200,"station_id":"","pricing_plan_id":"free"},{"bike_id":"e12b4729-a1d9-4909-9759-e5b8690101b0","system_id":"levelo_inurba_marseille","lat":43.30074,"lon":5.37825,"is_reserved":false,"is_disabled":false,"rental_uris":{"android":"levelo://app?vid=e12b4729-a1d9-4909-9759-e5b8690101b0","ios":"levelo://app?vid=e12b4729-a1d9-4909-9759-e5b8690101b0"},"vehicle_type_id":"4","last_reported":1691586691,"current_range_meters":14800,"station_id":"","pricing_plan_id":"free"},{"bike_id":"1c904d24-bed7-41f6-8449-cb123dd27000","system_id":"levelo_inurba_marseille","lat":43.298433,"lon":5.362774,"is_reserved":false,"is_disabled":false,"rental_uris":{"android":"levelo://app?vid=1c904d24-bed7-41f6-8449-cb123dd27000","ios":"levelo://app?vid=1c904d24-bed7-41f6-8449-cb123dd27000"},"vehicle_type_id":"4","last_reported":1691586691,"current_range_meters":31200,"station_id":"ce4bgpp2rcd13ifvqc3g","pricing_plan_id":"free"},{"bike_id":"30537d43-af02-4a10-b928-7b9b8cf633d2","system_id":"levelo_inurba_marseille","lat":43.305265,"lon":5.384239,"is_reserved":false,"is_disabled":false,"rental_uris":{"android":"levelo://app?vid=30537d43-af02-4a10-b928-7b9b8cf633d2","ios":"levelo://app?vid=30537d43-af02-4a10-b928-7b9b8cf633d2"},"vehicle_type_id":"4","last_reported":1691586691,"current_range_meters":20000,"station_id":"ce4bgg92rcd13ifvqb30","pricing_plan_id":"free"},{"bike_id":"199725de-4bac-4619-804b-55c94afdbc88","system_id":"levelo_inurba_marseille","lat":43.298433,"lon":5.362774,"is_reserved":false,"is_disabled":false,"rental_uris":{"android":"levelo://app?vid=199725de-4bac-4619-804b-55c94afdbc88","ios":"levelo://app?vid=199725de-4bac-4619-804b-55c94afdbc88"},"vehicle_type_id":"4","last_reported":1691586691,"current_range_meters":30000,"station_id":"ce4bgpp2rcd13ifvqc3g","pricing_plan_id":"free"},{"bike_id":"784dbd29-f911-45a2-b1c3-45838cf3da3c","system_id":"levelo_inurba_marseille","lat":43.298433,"lon":5.362774,"is_reserved":false,"is_disabled":false,"rental_uris":{"android":"levelo://app?vid=784dbd29-f911-45a2-b1c3-45838cf3da3c","ios":"levelo://app?vid=784dbd29-f911-45a2-b1c3-45838cf3da3c"},"vehicle_type_id":"4","last_reported":1691586691,"current_range_meters":27600,"station_id":"ce4bgpp2rcd13ifvqc3g","pricing_plan_id":"free"},{"bike_id":"f2ba73aa-6797-48c1-a5ad-7066bcdcb295","system_id":"levelo_inurba_marseille","lat":43.298433,"lon":5.362774,"is_reserved":false,"is_disabled":false,"rental_uris":{"android":"levelo://app?vid=f2ba73aa-6797-48c1-a5ad-7066bcdcb295","ios":"levelo://app?vid=f2ba73aa-6797-48c1-a5ad-7066bcdcb295"},"vehicle_type_id":"4","last_reported":1691586691,"current_range_meters":30400,"station_id":"ce4bgpp2rcd13ifvqc3g","pricing_plan_id":"free"},{"bike_id":"0adf9f92-b558-4319-b1c7-82642d9b154a","system_id":"levelo_inurba_marseille","lat":43.298433,"lon":5.362774,"is_reserved":false,"is_disabled":false,"rental_uris":{"android":"levelo://app?vid=0adf9f92-b558-4319-b1c7-82642d9b154a","ios":"levelo://app?vid=0adf9f92-b558-4319-b1c7-82642d9b154a"},"vehicle_type_id":"4","last_reported":1691586691,"current_range_meters":31600,"station_id":"ce4bgpp2rcd13ifvqc3g","pricing_plan_id":"free"},{"bike_id":"2c3b5047-5033-4ba5-99c4-80ce4bd67dbb","system_id":"levelo_inurba_marseille","lat":43.298433,"lon":5.362774,"is_reserved":false,"is_disabled":false,"rental_uris":{"android":"levelo://app?vid=2c3b5047-5033-4ba5-99c4-80ce4bd67dbb","ios":"levelo://app?vid=2c3b5047-5033-4ba5-99c4-80ce4bd67dbb"},"vehicle_type_id":"4","last_reported":1691586691,"current_range_meters":31200,"station_id":"ce4bgpp2rcd13ifvqc3g","pricing_plan_id":"free"},{"bike_id":"bc83b061-009f-4420-a073-7b5b9d08389d","system_id":"levelo_inurba_marseille","lat":43.298433,"lon":5.362774,"is_reserved":false,"is_disabled":false,"rental_uris":{"android":"levelo://app?vid=bc83b061-009f-4420-a073-7b5b9d08389d","ios":"levelo://app?vid=bc83b061-009f-4420-a073-7b5b9d08389d"},"vehicle_type_id":"4","last_reported":1691586691,"current_range_meters":28400,"station_id":"ce4bgpp2rcd13ifvqc3g","pricing_plan_id":"free"},{"bike_id":"ca5d040c-3a79-419f-9fcb-3658f5ece189","system_id":"levelo_inurba_marseille","lat":43.298433,"lon":5.362774,"is_reserved":false,"is_disabled":false,"rental_uris":{"android":"levelo://app?vid=ca5d040c-3a79-419f-9fcb-3658f5ece189","ios":"levelo://app?vid=ca5d040c-3a79-419f-9fcb-3658f5ece189"},"vehicle_type_id":"4","last_reported":1691586691,"current_range_meters":31200,"station_id":"ce4bgpp2rcd13ifvqc3g","pricing_plan_id":"free"},{"bike_id":"db0f0ee8-3624-4f5f-a13d-2021c530ccf2","system_id":"levelo_inurba_marseille","lat":43.299243,"lon":5.374807,"is_reserved":false,"is_disabled":false,"rental_uris":{"android":"levelo://app?vid=db0f0ee8-3624-4f5f-a13d-2021c530ccf2","ios":"levelo://app?vid=db0f0ee8-3624-4f5f-a13d-2021c530ccf2"},"vehicle_type_id":"4","last_reported":1691586691,"current_range_meters":21600,"station_id":"ce4bgjh2rcd13ifvqbg0","pricing_plan_id":"free"},{"bike_id":"64455a94-3ae2-4e5b-8fc8-c91fc749d2a7","system_id":"levelo_inurba_marseille","lat":43.298433,"lon":5.362774,"is_reserved":false,"is_disabled":false,"rental_uris":{"android":"levelo://app?vid=64455a94-3ae2-4e5b-8fc8-c91fc749d2a7","ios":"levelo://app?vid=64455a94-3ae2-4e5b-8fc8-c91fc749d2a7"},"vehicle_type_id":"4","last_reported":1691586691,"current_range_meters":26000,"station_id":"ce4bgpp2rcd13ifvqc3g","pricing_plan_id":"free"},{"bike_id":"f777e66b-8586-4cda-8925-7aeaa8b7afb4","system_id":"levelo_inurba_marseille","lat":43.299243,"lon":5.374807,"is_reserved":false,"is_disabled":false,"rental_uris":{"android":"levelo://app?vid=f777e66b-8586-4cda-8925-7aeaa8b7afb4","ios":"levelo://app?vid=f777e66b-8586-4cda-8925-7aeaa8b7afb4"},"vehicle_type_id":"4","last_reported":1691586691,"current_range_meters":20400,"station_id":"ce4bgjh2rcd13ifvqbg0","pricing_plan_id":"free"},{"bike_id":"372616b8-02de-4047-bdce-81f673505005","system_id":"levelo_inurba_marseille","lat":43.299243,"lon":5.37481,"is_reserved":false,"is_disabled":false,"rental_uris":{"android":"levelo://app?vid=372616b8-02de-4047-bdce-81f673505005","ios":"levelo://app?vid=372616b8-02de-4047-bdce-81f673505005"},"vehicle_type_id":"4","last_reported":1691586691,"current_range_meters":20000,"station_id":"ce4bgjh2rcd13ifvqbg0","pricing_plan_id":"free"},{"bike_id":"1f3cb71a-af51-492d-8082-71ce230393f4","system_id":"levelo_inurba_marseille","lat":43.298433,"lon":5.362774,"is_reserved":false,"is_disabled":false,"rental_uris":{"android":"levelo://app?vid=1f3cb71a-af51-492d-8082-71ce230393f4","ios":"levelo://app?vid=1f3cb71a-af51-492d-8082-71ce230393f4"},"vehicle_type_id":"4","last_reported":1691586691,"current_range_meters":31200,"station_id":"ce4bgpp2rcd13ifvqc3g","pricing_plan_id":"free"},{"bike_id":"eeceba83-0214-406d-a047-c8c4764bc463","system_id":"levelo_inurba_marseille","lat":43.299243,"lon":5.37481,"is_reserved":false,"is_disabled":false,"rental_uris":{"android":"levelo://app?vid=eeceba83-0214-406d-a047-c8c4764bc463","ios":"levelo://app?vid=eeceba83-0214-406d-a047-c8c4764bc463"},"vehicle_type_id":"4","last_reported":1691586691,"current_range_meters":12000,"station_id":"ce4bgjh2rcd13ifvqbg0","pricing_plan_id":"free"},{"bike_id":"3a574de3-b31f-4b53-9fcf-1545808be757","system_id":"levelo_inurba_marseille","lat":43.32287,"lon":5.38274,"is_reserved":false,"is_disabled":false,"rental_uris":{"android":"levelo://app?vid=3a574de3-b31f-4b53-9fcf-1545808be757","ios":"levelo://app?vid=3a574de3-b31f-4b53-9fcf-1545808be757"},"vehicle_type_id":"4","last_reported":1691586691,"current_range_meters":26000,"station_id":"ce4bhr12rcd13ifvqhqg","pricing_plan_id":"free"},{"bike_id":"96a24695-afe7-4738-b13e-7bd48d93c2cd","system_id":"levelo_inurba_marseille","lat":43.32819,"lon":5.36662,"is_reserved":false,"is_disabled":false,"rental_uris":{"android":"levelo://app?vid=96a24695-afe7-4738-b13e-7bd48d93c2cd","ios":"levelo://app?vid=96a24695-afe7-4738-b13e-7bd48d93c2cd"},"vehicle_type_id":"4","last_reported":1691586691,"current_range_meters":25200,"station_id":"ce4bhs92rcd13ifvqi0g","pricing_plan_id":"free"},{"bike_id":"2fdf06f0-8fe8-4a94-ae1f-c98849da9368","system_id":"levelo_inurba_marseille","lat":43.328371,"lon":5.366909,"is_reserved":false,"is_disabled":false,"rental_uris":{"android":"levelo://app?vid=2fdf06f0-8fe8-4a94-ae1f-c98849da9368","ios":"levelo://app?vid=2fdf06f0-8fe8-4a94-ae1f-c98849da9368"},"vehicle_type_id":"4","last_reported":1691586691,"current_range_meters":30000,"station_id":"ce4bhs92rcd13ifvqi0g","pricing_plan_id":"free"},{"bike_id":"1aa045b9-3de3-4cf3-bcc9-d7e40ca37fd7","system_id":"levelo_inurba_marseille","lat":43.32822,"lon":5.36679,"is_reserved":false,"is_disabled":false,"rental_uris":{"android":"levelo://app?vid=1aa045b9-3de3-4cf3-bcc9-d7e40ca37fd7","ios":"levelo://app?vid=1aa045b9-3de3-4cf3-bcc9-d7e40ca37fd7"},"vehicle_type_id":"4","last_reported":1691586691,"current_range_meters":25600,"station_id":"ce4bhs92rcd13ifvqi0g","pricing_plan_id":"free"},{"bike_id":"b3e59944-51c6-41f6-a617-bc9454b48e90","system_id":"levelo_inurba_marseille","lat":43.328371,"lon":5.366909,"is_reserved":false,"is_disabled":false,"rental_uris":{"android":"levelo://app?vid=b3e59944-51c6-41f6-a617-bc9454b48e90","ios":"levelo://app?vid=b3e59944-51c6-41f6-a617-bc9454b48e90"},"vehicle_type_id":"4","last_reported":1691586691,"current_range_meters":31200,"station_id":"ce4bhs92rcd13ifvqi0g","pricing_plan_id":"free"},{"bike_id":"3dee33b0-1dbd-4d86-9b6b-12fca67c3ee9","system_id":"levelo_inurba_marseille","lat":43.32823,"lon":5.36675,"is_reserved":false,"is_disabled":false,"rental_uris":{"android":"levelo://app?vid=3dee33b0-1dbd-4d86-9b6b-12fca67c3ee9","ios":"levelo://app?vid=3dee33b0-1dbd-4d86-9b6b-12fca67c3ee9"},"vehicle_type_id":"4","last_reported":1691586691,"current_range_meters":23600,"station_id":"ce4bhs92rcd13ifvqi0g","pricing_plan_id":"free"},{"bike_id":"69208cf7-0ad1-487d-a460-18606486926b","system_id":"levelo_inurba_marseille","lat":43.328371,"lon":5.366909,"is_reserved":false,"is_disabled":false,"rental_uris":{"android":"levelo://app?vid=69208cf7-0ad1-487d-a460-18606486926b","ios":"levelo://app?vid=69208cf7-0ad1-487d-a460-18606486926b"},"vehicle_type_id":"4","last_reported":1691586691,"current_range_meters":9600,"station_id":"ce4bhs92rcd13ifvqi0g","pricing_plan_id":"free"},{"bike_id":"22ab1de9-259f-4ba8-9b1b-8a48368f1118","system_id":"levelo_inurba_marseille","lat":43.32832,"lon":5.36684,"is_reserved":false,"is_disabled":false,"rental_uris":{"android":"levelo://app?vid=22ab1de9-259f-4ba8-9b1b-8a48368f1118","ios":"levelo://app?vid=22ab1de9-259f-4ba8-9b1b-8a48368f1118"},"vehicle_type_id":"4","last_reported":1691586691,"current_range_meters":30400,"station_id":"ce4bhs92rcd13ifvqi0g","pricing_plan_id":"free"},{"bike_id":"7455d1ec-0412-41e7-8728-a43009b14238","system_id":"levelo_inurba_marseille","lat":43.328371,"lon":5.366909,"is_reserved":false,"is_disabled":false,"rental_uris":{"android":"levelo://app?vid=7455d1ec-0412-41e7-8728-a43009b14238","ios":"levelo://app?vid=7455d1ec-0412-41e7-8728-a43009b14238"},"vehicle_type_id":"4","last_reported":1691586691,"current_range_meters":19200,"station_id":"ce4bhs92rcd13ifvqi0g","pricing_plan_id":"free"},{"bike_id":"10f23ad1-e1aa-4008-9c63-c7a6d320f816","system_id":"levelo_inurba_marseille","lat":43.297163,"lon":5.365866,"is_reserved":false,"is_disabled":false,"rental_uris":{"android":"levelo://app?vid=10f23ad1-e1aa-4008-9c63-c7a6d320f816","ios":"levelo://app?vid=10f23ad1-e1aa-4008-9c63-c7a6d320f816"},"vehicle_type_id":"4","last_reported":1691586691,"current_range_meters":31200,"station_id":"ce4bgn12rcd13ifvqbt0","pricing_plan_id":"free"},{"bike_id":"c2524aeb-f0da-45a5-8f35-a232bcac693d","system_id":"levelo_inurba_marseille","lat":43.297163,"lon":5.365866,"is_reserved":false,"is_disabled":false,"rental_uris":{"android":"levelo://app?vid=c2524aeb-f0da-45a5-8f35-a232bcac693d","ios":"levelo://app?vid=c2524aeb-f0da-45a5-8f35-a232bcac693d"},"vehicle_type_id":"4","last_reported":1691586691,"current_range_meters":2400,"station_id":"ce4bgn12rcd13ifvqbt0","pricing_plan_id":"free"},{"bike_id":"3fb7b1fd-72a9-4c27-9b68-8e5e78ec3743","system_id":"levelo_inurba_marseille","lat":43.297163,"lon":5.365866,"is_reserved":false,"is_disabled":false,"rental_uris":{"android":"levelo://app?vid=3fb7b1fd-72a9-4c27-9b68-8e5e78ec3743","ios":"levelo://app?vid=3fb7b1fd-72a9-4c27-9b68-8e5e78ec3743"},"vehicle_type_id":"4","last_reported":1691586691,"current_range_meters":24800,"station_id":"ce4bgn12rcd13ifvqbt0","pricing_plan_id":"free"},{"bike_id":"dd789220-e7b5-42c1-b9dc-dc4243148021","system_id":"levelo_inurba_marseille","lat":43.297163,"lon":5.365866,"is_reserved":false,"is_disabled":false,"rental_uris":{"android":"levelo://app?vid=dd789220-e7b5-42c1-b9dc-dc4243148021","ios":"levelo://app?vid=dd789220-e7b5-42c1-b9dc-dc4243148021"},"vehicle_type_id":"4","last_reported":1691586691,"current_range_meters":31200,"station_id":"ce4bgn12rcd13ifvqbt0","pricing_plan_id":"free"},{"bike_id":"f498ebcd-a9e3-4f40-9de5-d7ce7fa7dfb2","system_id":"levelo_inurba_marseille","lat":43.297163,"lon":5.365866,"is_reserved":false,"is_disabled":false,"rental_uris":{"android":"levelo://app?vid=f498ebcd-a9e3-4f40-9de5-d7ce7fa7dfb2","ios":"levelo://app?vid=f498ebcd-a9e3-4f40-9de5-d7ce7fa7dfb2"},"vehicle_type_id":"4","last_reported":1691586691,"current_range_meters":14400,"station_id":"ce4bgn12rcd13ifvqbt0","pricing_plan_id":"free"},{"bike_id":"69651c95-0a78-4cc6-9e87-bb51520b9ab3","system_id":"levelo_inurba_marseille","lat":43.297163,"lon":5.365866,"is_reserved":false,"is_disabled":false,"rental_uris":{"android":"levelo://app?vid=69651c95-0a78-4cc6-9e87-bb51520b9ab3","ios":"levelo://app?vid=69651c95-0a78-4cc6-9e87-bb51520b9ab3"},"vehicle_type_id":"4","last_reported":1691586691,"current_range_meters":19200,"station_id":"ce4bgn12rcd13ifvqbt0","pricing_plan_id":"free"},{"bike_id":"7ac97622-a144-480e-83e2-d71aa6f0bc02","system_id":"levelo_inurba_marseille","lat":43.296131,"lon":5.370791,"is_reserved":false,"is_disabled":false,"rental_uris":{"android":"levelo://app?vid=7ac97622-a144-480e-83e2-d71aa6f0bc02","ios":"levelo://app?vid=7ac97622-a144-480e-83e2-d71aa6f0bc02"},"vehicle_type_id":"4","last_reported":1691586691,"current_range_meters":30000,"station_id":"ce4bgnh2rcd13ifvqc0g","pricing_plan_id":"free"},{"bike_id":"4eac4b85-2a6b-40a8-afe0-5647636f27e1","system_id":"levelo_inurba_marseille","lat":43.296131,"lon":5.370773,"is_reserved":false,"is_disabled":false,"rental_uris":{"android":"levelo://app?vid=4eac4b85-2a6b-40a8-afe0-5647636f27e1","ios":"levelo://app?vid=4eac4b85-2a6b-40a8-afe0-5647636f27e1"},"vehicle_type_id":"4","last_reported":1691586691,"current_range_meters":18400,"station_id":"ce4bgnh2rcd13ifvqc0g","pricing_plan_id":"free"},{"bike_id":"41f6afe9-a506-415b-b144-874d11b57be5","system_id":"levelo_inurba_marseille","lat":43.29586,"lon":5.36748,"is_reserved":false,"is_disabled":false,"rental_uris":{"android":"levelo://app?vid=41f6afe9-a506-415b-b144-874d11b57be5","ios":"levelo://app?vid=41f6afe9-a506-415b-b144-874d11b57be5"},"vehicle_type_id":"4","last_reported":1691586691,"current_range_meters":22000,"station_id":"ce4bgph2rcd13ifvqc2g","pricing_plan_id":"free"},{"bike_id":"e3e10437-36ab-48de-9d1f-2d561f25a9b2","system_id":"levelo_inurba_marseille","lat":43.29619,"lon":5.37163,"is_reserved":false,"is_disabled":false,"rental_uris":{"android":"levelo://app?vid=e3e10437-36ab-48de-9d1f-2d561f25a9b2","ios":"levelo://app?vid=e3e10437-36ab-48de-9d1f-2d561f25a9b2"},"vehicle_type_id":"4","last_reported":1691586691,"current_range_meters":27200,"station_id":"","pricing_plan_id":"free"},{"bike_id":"a617e37f-0a67-45eb-8455-d9358e004c0f","system_id":"levelo_inurba_marseille","lat":43.29573,"lon":5.367355,"is_reserved":false,"is_disabled":false,"rental_uris":{"android":"levelo://app?vid=a617e37f-0a67-45eb-8455-d9358e004c0f","ios":"levelo://app?vid=a617e37f-0a67-45eb-8455-d9358e004c0f"},"vehicle_type_id":"4","last_reported":1691586691,"current_range_meters":28800,"station_id":"ce4bgph2rcd13ifvqc2g","pricing_plan_id":"free"},{"bike_id":"00115edb-3065-44ee-aa0d-b0f3e38d35ed","system_id":"levelo_inurba_marseille","lat":43.30976,"lon":5.39005,"is_reserved":false,"is_disabled":false,"rental_uris":{"android":"levelo://app?vid=00115edb-3065-44ee-aa0d-b0f3e38d35ed","ios":"levelo://app?vid=00115edb-3065-44ee-aa0d-b0f3e38d35ed"},"vehicle_type_id":"4","last_reported":1691586691,"current_range_meters":30000,"station_id":"ce4bgup2rcd13ifvqco0","pricing_plan_id":"free"},{"bike_id":"bcf64b80-8dd5-4c35-9618-2091c7b15d6c","system_id":"levelo_inurba_marseille","lat":43.296921,"lon":5.376579,"is_reserved":false,"is_disabled":false,"rental_uris":{"android":"levelo://app?vid=bcf64b80-8dd5-4c35-9618-2091c7b15d6c","ios":"levelo://app?vid=bcf64b80-8dd5-4c35-9618-2091c7b15d6c"},"vehicle_type_id":"4","last_reported":1691586691,"current_range_meters":22800,"station_id":"ce4bgkh2rcd13ifvqbl0","pricing_plan_id":"free"},{"bike_id":"dd296881-e700-4c23-ab11-b5dc96461e37","system_id":"levelo_inurba_marseille","lat":43.309589,"lon":5.390258,"is_reserved":false,"is_disabled":false,"rental_uris":{"android":"levelo://app?vid=dd296881-e700-4c23-ab11-b5dc96461e37","ios":"levelo://app?vid=dd296881-e700-4c23-ab11-b5dc96461e37"},"vehicle_type_id":"4","last_reported":1691586691,"current_range_meters":30000,"station_id":"ce4bgup2rcd13ifvqco0","pricing_plan_id":"free"},{"bike_id":"3bb8b248-7e03-4f2c-8d3c-e9c854b5ab5f","system_id":"levelo_inurba_marseille","lat":43.30948,"lon":5.39031,"is_reserved":false,"is_disabled":false,"rental_uris":{"android":"levelo://app?vid=3bb8b248-7e03-4f2c-8d3c-e9c854b5ab5f","ios":"levelo://app?vid=3bb8b248-7e03-4f2c-8d3c-e9c854b5ab5f"},"vehicle_type_id":"4","last_reported":1691586691,"current_range_meters":30800,"station_id":"ce4bgup2rcd13ifvqco0","pricing_plan_id":"free"},{"bike_id":"68aacebf-a7aa-41bc-a62c-3930a4e4b9c9","system_id":"levelo_inurba_marseille","lat":43.309589,"lon":5.390258,"is_reserved":false,"is_disabled":false,"rental_uris":{"android":"levelo://app?vid=68aacebf-a7aa-41bc-a62c-3930a4e4b9c9","ios":"levelo://app?vid=68aacebf-a7aa-41bc-a62c-3930a4e4b9c9"},"vehicle_type_id":"4","last_reported":1691586691,"current_range_meters":8800,"station_id":"ce4bgup2rcd13ifvqco0","pricing_plan_id":"free"},{"bike_id":"f66787c7-5f17-43e2-b944-2f681c97e2f8","system_id":"levelo_inurba_marseille","lat":43.309589,"lon":5.390258,"is_reserved":false,"is_disabled":false,"rental_uris":{"android":"levelo://app?vid=f66787c7-5f17-43e2-b944-2f681c97e2f8","ios":"levelo://app?vid=f66787c7-5f17-43e2-b944-2f681c97e2f8"},"vehicle_type_id":"4","last_reported":1691586691,"current_range_meters":22400,"station_id":"ce4bgup2rcd13ifvqco0","pricing_plan_id":"free"},{"bike_id":"b8c368a8-9a06-45e0-8a20-3c1477ce4ccf","system_id":"levelo_inurba_marseille","lat":43.30951,"lon":5.39052,"is_reserved":false,"is_disabled":false,"rental_uris":{"android":"levelo://app?vid=b8c368a8-9a06-45e0-8a20-3c1477ce4ccf","ios":"levelo://app?vid=b8c368a8-9a06-45e0-8a20-3c1477ce4ccf"},"vehicle_type_id":"4","last_reported":1691586691,"current_range_meters":24400,"station_id":"ce4bgup2rcd13ifvqco0","pricing_plan_id":"free"},{"bike_id":"bbdf66e1-433b-4a72-929b-a9f7a519bdb2","system_id":"levelo_inurba_marseille","lat":43.317557,"lon":5.390173,"is_reserved":false,"is_disabled":false,"rental_uris":{"android":"levelo://app?vid=bbdf66e1-433b-4a72-929b-a9f7a519bdb2","ios":"levelo://app?vid=bbdf66e1-433b-4a72-929b-a9f7a519bdb2"},"vehicle_type_id":"4","last_reported":1691586691,"current_range_meters":31200,"station_id":"ce4bhqp2rcd13ifvqhng","pricing_plan_id":"free"},{"bike_id":"67bf6f54-0066-4632-bd5e-6c18d78f8763","system_id":"levelo_inurba_marseille","lat":43.317557,"lon":5.390173,"is_reserved":false,"is_disabled":false,"rental_uris":{"android":"levelo://app?vid=67bf6f54-0066-4632-bd5e-6c18d78f8763","ios":"levelo://app?vid=67bf6f54-0066-4632-bd5e-6c18d78f8763"},"vehicle_type_id":"4","last_reported":1691586691,"current_range_meters":30400,"station_id":"ce4bhqp2rcd13ifvqhng","pricing_plan_id":"free"},{"bike_id":"e77b3d0f-7a57-4c82-b455-52a093522c55","system_id":"levelo_inurba_marseille","lat":43.317557,"lon":5.390173,"is_reserved":false,"is_disabled":false,"rental_uris":{"android":"levelo://app?vid=e77b3d0f-7a57-4c82-b455-52a093522c55","ios":"levelo://app?vid=e77b3d0f-7a57-4c82-b455-52a093522c55"},"vehicle_type_id":"4","last_reported":1691586691,"current_range_meters":28400,"station_id":"ce4bhqp2rcd13ifvqhng","pricing_plan_id":"free"},{"bike_id":"4ac2e1cb-ccbf-4b9a-b24d-70e9e0a66a09","system_id":"levelo_inurba_marseille","lat":43.317557,"lon":5.390173,"is_reserved":false,"is_disabled":false,"rental_uris":{"android":"levelo://app?vid=4ac2e1cb-ccbf-4b9a-b24d-70e9e0a66a09","ios":"levelo://app?vid=4ac2e1cb-ccbf-4b9a-b24d-70e9e0a66a09"},"vehicle_type_id":"4","last_reported":1691586691,"current_range_meters":30000,"station_id":"ce4bhqp2rcd13ifvqhng","pricing_plan_id":"free"},{"bike_id":"f0d506b5-1334-4bf3-b008-61812ced1ee1","system_id":"levelo_inurba_marseille","lat":43.317557,"lon":5.390173,"is_reserved":false,"is_disabled":false,"rental_uris":{"android":"levelo://app?vid=f0d506b5-1334-4bf3-b008-61812ced1ee1","ios":"levelo://app?vid=f0d506b5-1334-4bf3-b008-61812ced1ee1"},"vehicle_type_id":"4","last_reported":1691586691,"current_range_meters":24800,"station_id":"ce4bhqp2rcd13ifvqhng","pricing_plan_id":"free"},{"bike_id":"5c960f21-4fa0-4fac-81c2-ff0397396ba7","system_id":"levelo_inurba_marseille","lat":43.317557,"lon":5.390173,"is_reserved":false,"is_disabled":false,"rental_uris":{"android":"levelo://app?vid=5c960f21-4fa0-4fac-81c2-ff0397396ba7","ios":"levelo://app?vid=5c960f21-4fa0-4fac-81c2-ff0397396ba7"},"vehicle_type_id":"4","last_reported":1691586691,"current_range_meters":28800,"station_id":"ce4bhqp2rcd13ifvqhng","pricing_plan_id":"free"},{"bike_id":"ed901507-86b1-4677-9221-d44d5cbc6625","system_id":"levelo_inurba_marseille","lat":43.298037,"lon":5.381066,"is_reserved":false,"is_disabled":false,"rental_uris":{"android":"levelo://app?vid=ed901507-86b1-4677-9221-d44d5cbc6625","ios":"levelo://app?vid=ed901507-86b1-4677-9221-d44d5cbc6625"},"vehicle_type_id":"4","last_reported":1691586691,"current_range_meters":20000,"station_id":"ce4bgip2rcd13ifvqbb0","pricing_plan_id":"free"},{"bike_id":"685ddfe7-3893-4c39-804a-1f3ce4733e68","system_id":"levelo_inurba_marseille","lat":43.304274,"lon":5.388873,"is_reserved":false,"is_disabled":false,"rental_uris":{"android":"levelo://app?vid=685ddfe7-3893-4c39-804a-1f3ce4733e68","ios":"levelo://app?vid=685ddfe7-3893-4c39-804a-1f3ce4733e68"},"vehicle_type_id":"4","last_reported":1691586691,"current_range_meters":18000,"station_id":"ce4bgk12rcd13ifvqbi0","pricing_plan_id":"free"},{"bike_id":"0df00f89-4fdf-4759-9848-754c45873db5","system_id":"levelo_inurba_marseille","lat":43.29568,"lon":5.37517,"is_reserved":false,"is_disabled":false,"rental_uris":{"android":"levelo://app?vid=0df00f89-4fdf-4759-9848-754c45873db5","ios":"levelo://app?vid=0df00f89-4fdf-4759-9848-754c45873db5"},"vehicle_type_id":"4","last_reported":1691586691,"current_range_meters":22400,"station_id":"ce4bgh92rcd13ifvqb50","pricing_plan_id":"free"},{"bike_id":"a4df99ce-0488-49dd-a888-94686f562e88","system_id":"levelo_inurba_marseille","lat":43.295748,"lon":5.37522,"is_reserved":false,"is_disabled":false,"rental_uris":{"android":"levelo://app?vid=a4df99ce-0488-49dd-a888-94686f562e88","ios":"levelo://app?vid=a4df99ce-0488-49dd-a888-94686f562e88"},"vehicle_type_id":"4","last_reported":1691586691,"current_range_meters":30000,"station_id":"ce4bgh92rcd13ifvqb50","pricing_plan_id":"free"},{"bike_id":"6cd1e8ea-eed6-4917-b0e6-7010ea61964e","system_id":"levelo_inurba_marseille","lat":43.304274,"lon":5.388873,"is_reserved":false,"is_disabled":false,"rental_uris":{"android":"levelo://app?vid=6cd1e8ea-eed6-4917-b0e6-7010ea61964e","ios":"levelo://app?vid=6cd1e8ea-eed6-4917-b0e6-7010ea61964e"},"vehicle_type_id":"4","last_reported":1691586691,"current_range_meters":15600,"station_id":"ce4bgk12rcd13ifvqbi0","pricing_plan_id":"free"},{"bike_id":"d707a3fd-4e6e-42d1-9d50-7670fde1f3a8","system_id":"levelo_inurba_marseille","lat":43.295748,"lon":5.37522,"is_reserved":false,"is_disabled":false,"rental_uris":{"android":"levelo://app?vid=d707a3fd-4e6e-42d1-9d50-7670fde1f3a8","ios":"levelo://app?vid=d707a3fd-4e6e-42d1-9d50-7670fde1f3a8"},"vehicle_type_id":"4","last_reported":1691586691,"current_range_meters":22000,"station_id":"ce4bgh92rcd13ifvqb50","pricing_plan_id":"free"},{"bike_id":"a8b01227-f553-49cb-9f4c-d14538063018","system_id":"levelo_inurba_marseille","lat":43.299717,"lon":5.384845,"is_reserved":false,"is_disabled":false,"rental_uris":{"android":"levelo://app?vid=a8b01227-f553-49cb-9f4c-d14538063018","ios":"levelo://app?vid=a8b01227-f553-49cb-9f4c-d14538063018"},"vehicle_type_id":"4","last_reported":1691586691,"current_range_meters":11200,"station_id":"ce4bgj92rcd13ifvqbd0","pricing_plan_id":"free"},{"bike_id":"278ac312-83d7-485f-be6c-e160838f3c35","system_id":"levelo_inurba_marseille","lat":43.299717,"lon":5.384845,"is_reserved":false,"is_disabled":false,"rental_uris":{"android":"levelo://app?vid=278ac312-83d7-485f-be6c-e160838f3c35","ios":"levelo://app?vid=278ac312-83d7-485f-be6c-e160838f3c35"},"vehicle_type_id":"4","last_reported":1691586691,"current_range_meters":19200,"station_id":"ce4bgj92rcd13ifvqbd0","pricing_plan_id":"free"},{"bike_id":"89167c46-19fb-4428-be8d-a2f6f1964079","system_id":"levelo_inurba_marseille","lat":43.3236,"lon":5.3888,"is_reserved":false,"is_disabled":false,"rental_uris":{"android":"levelo://app?vid=89167c46-19fb-4428-be8d-a2f6f1964079","ios":"levelo://app?vid=89167c46-19fb-4428-be8d-a2f6f1964079"},"vehicle_type_id":"4","last_reported":1691586691,"current_range_meters":12400,"station_id":"ce4bhqp2rcd13ifvqhog","pricing_plan_id":"free"},{"bike_id":"706b5370-7eed-4a42-a1a9-b4cf78d1d029","system_id":"levelo_inurba_marseille","lat":43.32358,"lon":5.38889,"is_reserved":false,"is_disabled":false,"rental_uris":{"android":"levelo://app?vid=706b5370-7eed-4a42-a1a9-b4cf78d1d029","ios":"levelo://app?vid=706b5370-7eed-4a42-a1a9-b4cf78d1d029"},"vehicle_type_id":"4","last_reported":1691586691,"current_range_meters":31200,"station_id":"ce4bhqp2rcd13ifvqhog","pricing_plan_id":"free"},{"bike_id":"09bdcea8-f003-494e-acb1-85fbb290a0e2","system_id":"levelo_inurba_marseille","lat":43.32357,"lon":5.38893,"is_reserved":false,"is_disabled":false,"rental_uris":{"android":"levelo://app?vid=09bdcea8-f003-494e-acb1-85fbb290a0e2","ios":"levelo://app?vid=09bdcea8-f003-494e-acb1-85fbb290a0e2"},"vehicle_type_id":"4","last_reported":1691586691,"current_range_meters":31200,"station_id":"ce4bhqp2rcd13ifvqhog","pricing_plan_id":"free"},{"bike_id":"eaad0f71-f290-4338-9e3a-b85deb3d9357","system_id":"levelo_inurba_marseille","lat":43.32367,"lon":5.38887,"is_reserved":false,"is_disabled":false,"rental_uris":{"android":"levelo://app?vid=eaad0f71-f290-4338-9e3a-b85deb3d9357","ios":"levelo://app?vid=eaad0f71-f290-4338-9e3a-b85deb3d9357"},"vehicle_type_id":"4","last_reported":1691586691,"current_range_meters":31600,"station_id":"ce4bhqp2rcd13ifvqhog","pricing_plan_id":"free"},{"bike_id":"adb0a5f0-71cc-4571-ab97-1a721cd82ebc","system_id":"levelo_inurba_marseille","lat":43.293249,"lon":5.371578,"is_reserved":false,"is_disabled":false,"rental_uris":{"android":"levelo://app?vid=adb0a5f0-71cc-4571-ab97-1a721cd82ebc","ios":"levelo://app?vid=adb0a5f0-71cc-4571-ab97-1a721cd82ebc"},"vehicle_type_id":"4","last_reported":1691586691,"current_range_meters":3200,"station_id":"ce4bgh92rcd13ifvqb40","pricing_plan_id":"free"},{"bike_id":"dbe406a0-e31d-4174-932b-0d8d584d17c2","system_id":"levelo_inurba_marseille","lat":43.292749,"lon":5.368398,"is_reserved":false,"is_disabled":false,"rental_uris":{"android":"levelo://app?vid=dbe406a0-e31d-4174-932b-0d8d584d17c2","ios":"levelo://app?vid=dbe406a0-e31d-4174-932b-0d8d584d17c2"},"vehicle_type_id":"4","last_reported":1691586691,"current_range_meters":31200,"station_id":"ce4bhbp2rcd13ifvqesg","pricing_plan_id":"free"},{"bike_id":"1e8734f1-2f18-42ac-8127-647398b2769e","system_id":"levelo_inurba_marseille","lat":43.29375,"lon":5.37834,"is_reserved":false,"is_disabled":false,"rental_uris":{"android":"levelo://app?vid=1e8734f1-2f18-42ac-8127-647398b2769e","ios":"levelo://app?vid=1e8734f1-2f18-42ac-8127-647398b2769e"},"vehicle_type_id":"4","last_reported":1691586691,"current_range_meters":14800,"station_id":"ce4bgjh2rcd13ifvqbf0","pricing_plan_id":"free"},{"bike_id":"f5662d2e-ad45-4236-87a1-cf04c4c37e3b","system_id":"levelo_inurba_marseille","lat":43.29199,"lon":5.3585,"is_reserved":false,"is_disabled":false,"rental_uris":{"android":"levelo://app?vid=f5662d2e-ad45-4236-87a1-cf04c4c37e3b","ios":"levelo://app?vid=f5662d2e-ad45-4236-87a1-cf04c4c37e3b"},"vehicle_type_id":"4","last_reported":1691586691,"current_range_meters":10400,"station_id":"ce4bhb12rcd13ifvqel0","pricing_plan_id":"free"},{"bike_id":"8ef397ee-3542-443f-a858-8ea31d79ab22","system_id":"levelo_inurba_marseille","lat":43.30885,"lon":5.3965,"is_reserved":false,"is_disabled":false,"rental_uris":{"android":"levelo://app?vid=8ef397ee-3542-443f-a858-8ea31d79ab22","ios":"levelo://app?vid=8ef397ee-3542-443f-a858-8ea31d79ab22"},"vehicle_type_id":"4","last_reported":1691586691,"current_range_meters":2800,"station_id":"ce4bh012rcd13ifvqcv0","pricing_plan_id":"free"},{"bike_id":"b400aaec-3afd-4fca-90a2-799e8b46accc","system_id":"levelo_inurba_marseille","lat":43.30889,"lon":5.39659,"is_reserved":false,"is_disabled":false,"rental_uris":{"android":"levelo://app?vid=b400aaec-3afd-4fca-90a2-799e8b46accc","ios":"levelo://app?vid=b400aaec-3afd-4fca-90a2-799e8b46accc"},"vehicle_type_id":"4","last_reported":1691586691,"current_range_meters":26800,"station_id":"ce4bh012rcd13ifvqcv0","pricing_plan_id":"free"},{"bike_id":"3887d7ce-c38f-4ec9-bb12-5cc5f65c083d","system_id":"levelo_inurba_marseille","lat":43.290779,"lon":5.371482,"is_reserved":false,"is_disabled":false,"rental_uris":{"android":"levelo://app?vid=3887d7ce-c38f-4ec9-bb12-5cc5f65c083d","ios":"levelo://app?vid=3887d7ce-c38f-4ec9-bb12-5cc5f65c083d"},"vehicle_type_id":"4","last_reported":1691586691,"current_range_meters":17200,"station_id":"ce4bh5p2rcd13ifvqe4g","pricing_plan_id":"free"},{"bike_id":"4db0c069-a9dc-41e1-8cbd-615db5977a94","system_id":"levelo_inurba_marseille","lat":43.294162,"lon":5.386292,"is_reserved":false,"is_disabled":false,"rental_uris":{"android":"levelo://app?vid=4db0c069-a9dc-41e1-8cbd-615db5977a94","ios":"levelo://app?vid=4db0c069-a9dc-41e1-8cbd-615db5977a94"},"vehicle_type_id":"4","last_reported":1691586691,"current_range_meters":23200,"station_id":"ce4bh2h2rcd13ifvqdh0","pricing_plan_id":"free"},{"bike_id":"5cea11f2-7922-4ea6-93e1-52706bca2918","system_id":"levelo_inurba_marseille","lat":43.294162,"lon":5.386292,"is_reserved":false,"is_disabled":false,"rental_uris":{"android":"levelo://app?vid=5cea11f2-7922-4ea6-93e1-52706bca2918","ios":"levelo://app?vid=5cea11f2-7922-4ea6-93e1-52706bca2918"},"vehicle_type_id":"4","last_reported":1691586691,"current_range_meters":17600,"station_id":"ce4bh2h2rcd13ifvqdh0","pricing_plan_id":"free"},{"bike_id":"9d0a0bb9-9b03-4d30-9a7e-c987e0370759","system_id":"levelo_inurba_marseille","lat":43.289184,"lon":5.366408,"is_reserved":false,"is_disabled":false,"rental_uris":{"android":"levelo://app?vid=9d0a0bb9-9b03-4d30-9a7e-c987e0370759","ios":"levelo://app?vid=9d0a0bb9-9b03-4d30-9a7e-c987e0370759"},"vehicle_type_id":"4","last_reported":1691586691,"current_range_meters":0,"station_id":"ce4bhap2rcd13ifvqek0","pricing_plan_id":"free"},{"bike_id":"80c49ed2-4ec7-4fe1-8a8b-673210fc1467","system_id":"levelo_inurba_marseille","lat":43.289184,"lon":5.366408,"is_reserved":false,"is_disabled":false,"rental_uris":{"android":"levelo://app?vid=80c49ed2-4ec7-4fe1-8a8b-673210fc1467","ios":"levelo://app?vid=80c49ed2-4ec7-4fe1-8a8b-673210fc1467"},"vehicle_type_id":"4","last_reported":1691586691,"current_range_meters":22400,"station_id":"ce4bhap2rcd13ifvqek0","pricing_plan_id":"free"},{"bike_id":"6e0fbf3b-1b3c-424e-bd7d-3b3d2c7ebd6c","system_id":"levelo_inurba_marseille","lat":43.29235,"lon":5.38355,"is_reserved":false,"is_disabled":false,"rental_uris":{"android":"levelo://app?vid=6e0fbf3b-1b3c-424e-bd7d-3b3d2c7ebd6c","ios":"levelo://app?vid=6e0fbf3b-1b3c-424e-bd7d-3b3d2c7ebd6c"},"vehicle_type_id":"4","last_reported":1691586691,"current_range_meters":0,"station_id":"","pricing_plan_id":"free"},{"bike_id":"52ad5f9f-815a-4f9f-aa0a-a5097d1b5c69","system_id":"levelo_inurba_marseille","lat":43.29041,"lon":5.399634,"is_reserved":false,"is_disabled":false,"rental_uris":{"android":"levelo://app?vid=52ad5f9f-815a-4f9f-aa0a-a5097d1b5c69","ios":"levelo://app?vid=52ad5f9f-815a-4f9f-aa0a-a5097d1b5c69"},"vehicle_type_id":"4","last_reported":1691586691,"current_range_meters":10400,"station_id":"ce4bh392rcd13ifvqdm0","pricing_plan_id":"free"},{"bike_id":"4134a781-cf6e-4b88-804a-88dae89d7443","system_id":"levelo_inurba_marseille","lat":43.30481,"lon":5.39776,"is_reserved":false,"is_disabled":false,"rental_uris":{"android":"levelo://app?vid=4134a781-cf6e-4b88-804a-88dae89d7443","ios":"levelo://app?vid=4134a781-cf6e-4b88-804a-88dae89d7443"},"vehicle_type_id":"4","last_reported":1691586691,"current_range_meters":18800,"station_id":"ce4bh092rcd13ifvqd20","pricing_plan_id":"free"},{"bike_id":"f5cfbe80-9b77-4d71-98dc-f5b22f75ac99","system_id":"levelo_inurba_marseille","lat":43.2926,"lon":5.38435,"is_reserved":false,"is_disabled":false,"rental_uris":{"android":"levelo://app?vid=f5cfbe80-9b77-4d71-98dc-f5b22f75ac99","ios":"levelo://app?vid=f5cfbe80-9b77-4d71-98dc-f5b22f75ac99"},"vehicle_type_id":"4","last_reported":1691586691,"current_range_meters":19600,"station_id":"ce4bh692rcd13ifvqea0","pricing_plan_id":"free"},{"bike_id":"a21e80ce-b26a-4c92-acf9-50add4868139","system_id":"levelo_inurba_marseille","lat":43.285856,"lon":5.350771,"is_reserved":false,"is_disabled":false,"rental_uris":{"android":"levelo://app?vid=a21e80ce-b26a-4c92-acf9-50add4868139","ios":"levelo://app?vid=a21e80ce-b26a-4c92-acf9-50add4868139"},"vehicle_type_id":"4","last_reported":1691586691,"current_range_meters":27200,"station_id":"ce4bhch2rcd13ifvqeug","pricing_plan_id":"free"},{"bike_id":"3287fb30-ec66-4dda-b599-a65f0dc59abf","system_id":"levelo_inurba_marseille","lat":43.33042,"lon":5.38909,"is_reserved":false,"is_disabled":false,"rental_uris":{"android":"levelo://app?vid=3287fb30-ec66-4dda-b599-a65f0dc59abf","ios":"levelo://app?vid=3287fb30-ec66-4dda-b599-a65f0dc59abf"},"vehicle_type_id":"4","last_reported":1691586691,"current_range_meters":25200,"station_id":"ce4bhr92rcd13ifvqhrg","pricing_plan_id":"free"},{"bike_id":"f8bf6a9c-58da-4368-a1c1-f966be94a14b","system_id":"levelo_inurba_marseille","lat":43.33045,"lon":5.38907,"is_reserved":false,"is_disabled":false,"rental_uris":{"android":"levelo://app?vid=f8bf6a9c-58da-4368-a1c1-f966be94a14b","ios":"levelo://app?vid=f8bf6a9c-58da-4368-a1c1-f966be94a14b"},"vehicle_type_id":"4","last_reported":1691586691,"current_range_meters":31200,"station_id":"ce4bhr92rcd13ifvqhrg","pricing_plan_id":"free"},{"bike_id":"1d39cb6b-9879-4e3f-8a27-1c570603366e","system_id":"levelo_inurba_marseille","lat":43.33046,"lon":5.38906,"is_reserved":false,"is_disabled":false,"rental_uris":{"android":"levelo://app?vid=1d39cb6b-9879-4e3f-8a27-1c570603366e","ios":"levelo://app?vid=1d39cb6b-9879-4e3f-8a27-1c570603366e"},"vehicle_type_id":"4","last_reported":1691586691,"current_range_meters":31200,"station_id":"ce4bhr92rcd13ifvqhrg","pricing_plan_id":"free"},{"bike_id":"f71aed5b-352a-4d4c-967b-b7e0283ec3d5","system_id":"levelo_inurba_marseille","lat":43.33046,"lon":5.38913,"is_reserved":false,"is_disabled":false,"rental_uris":{"android":"levelo://app?vid=f71aed5b-352a-4d4c-967b-b7e0283ec3d5","ios":"levelo://app?vid=f71aed5b-352a-4d4c-967b-b7e0283ec3d5"},"vehicle_type_id":"4","last_reported":1691586691,"current_range_meters":30000,"station_id":"ce4bhr92rcd13ifvqhrg","pricing_plan_id":"free"},{"bike_id":"979de499-9e12-4ff2-9460-38757b5c7b57","system_id":"levelo_inurba_marseille","lat":43.33047,"lon":5.38916,"is_reserved":false,"is_disabled":false,"rental_uris":{"android":"levelo://app?vid=979de499-9e12-4ff2-9460-38757b5c7b57","ios":"levelo://app?vid=979de499-9e12-4ff2-9460-38757b5c7b57"},"vehicle_type_id":"4","last_reported":1691586691,"current_range_meters":26400,"station_id":"ce4bhr92rcd13ifvqhrg","pricing_plan_id":"free"},{"bike_id":"7b78d55e-e99c-4fa7-968a-c672d6912f00","system_id":"levelo_inurba_marseille","lat":43.290104,"lon":5.356111,"is_reserved":false,"is_disabled":false,"rental_uris":{"android":"levelo://app?vid=7b78d55e-e99c-4fa7-968a-c672d6912f00","ios":"levelo://app?vid=7b78d55e-e99c-4fa7-968a-c672d6912f00"},"vehicle_type_id":"4","last_reported":1691586691,"current_range_meters":31200,"station_id":"ce4bhb92rcd13ifvqen0","pricing_plan_id":"free"},{"bike_id":"1bab63a0-d01f-480c-8759-3ad02b404269","system_id":"levelo_inurba_marseille","lat":43.29101,"lon":5.38119,"is_reserved":false,"is_disabled":false,"rental_uris":{"android":"levelo://app?vid=1bab63a0-d01f-480c-8759-3ad02b404269","ios":"levelo://app?vid=1bab63a0-d01f-480c-8759-3ad02b404269"},"vehicle_type_id":"4","last_reported":1691586691,"current_range_meters":21200,"station_id":"","pricing_plan_id":"free"},{"bike_id":"d92191b5-3897-428d-989c-4b986c7a7e64","system_id":"levelo_inurba_marseille","lat":43.28999,"lon":5.35601,"is_reserved":false,"is_disabled":false,"rental_uris":{"android":"levelo://app?vid=d92191b5-3897-428d-989c-4b986c7a7e64","ios":"levelo://app?vid=d92191b5-3897-428d-989c-4b986c7a7e64"},"vehicle_type_id":"4","last_reported":1691586691,"current_range_meters":31200,"station_id":"ce4bhb92rcd13ifvqen0","pricing_plan_id":"free"},{"bike_id":"c62f2ea5-f8bf-476d-831b-d9e2521ba0e7","system_id":"levelo_inurba_marseille","lat":43.295169,"lon":5.390426,"is_reserved":false,"is_disabled":false,"rental_uris":{"android":"levelo://app?vid=c62f2ea5-f8bf-476d-831b-d9e2521ba0e7","ios":"levelo://app?vid=c62f2ea5-f8bf-476d-831b-d9e2521ba0e7"},"vehicle_type_id":"4","last_reported":1691586691,"current_range_meters":22800,"station_id":"ce4bh3p2rcd13ifvqdp0","pricing_plan_id":"free"},{"bike_id":"ef006bb5-503b-4219-b58d-4fa906136c9b","system_id":"levelo_inurba_marseille","lat":43.28856,"lon":5.358371,"is_reserved":false,"is_disabled":false,"rental_uris":{"android":"levelo://app?vid=ef006bb5-503b-4219-b58d-4fa906136c9b","ios":"levelo://app?vid=ef006bb5-503b-4219-b58d-4fa906136c9b"},"vehicle_type_id":"4","last_reported":1691586691,"current_range_meters":23600,"station_id":"ce4bhb12rcd13ifvqem0","pricing_plan_id":"free"},{"bike_id":"71683d70-05e4-41db-b428-fc29aa5e935e","system_id":"levelo_inurba_marseille","lat":43.28856,"lon":5.358371,"is_reserved":false,"is_disabled":false,"rental_uris":{"android":"levelo://app?vid=71683d70-05e4-41db-b428-fc29aa5e935e","ios":"levelo://app?vid=71683d70-05e4-41db-b428-fc29aa5e935e"},"vehicle_type_id":"4","last_reported":1691586691,"current_range_meters":17600,"station_id":"ce4bhb12rcd13ifvqem0","pricing_plan_id":"free"},{"bike_id":"587f2a5e-97aa-4562-ad3a-7a9ad8b5b318","system_id":"levelo_inurba_marseille","lat":43.33752,"lon":5.37472,"is_reserved":false,"is_disabled":false,"rental_uris":{"android":"levelo://app?vid=587f2a5e-97aa-4562-ad3a-7a9ad8b5b318","ios":"levelo://app?vid=587f2a5e-97aa-4562-ad3a-7a9ad8b5b318"},"vehicle_type_id":"4","last_reported":1691586691,"current_range_meters":30400,"station_id":"","pricing_plan_id":"free"},{"bike_id":"3585088c-1fad-4eca-b223-780202197d91","system_id":"levelo_inurba_marseille","lat":43.33017,"lon":5.3925,"is_reserved":false,"is_disabled":false,"rental_uris":{"android":"levelo://app?vid=3585088c-1fad-4eca-b223-780202197d91","ios":"levelo://app?vid=3585088c-1fad-4eca-b223-780202197d91"},"vehicle_type_id":"4","last_reported":1691586691,"current_range_meters":8400,"station_id":"","pricing_plan_id":"free"},{"bike_id":"b03f3285-9094-4bcb-9933-208ed207792c","system_id":"levelo_inurba_marseille","lat":43.30136,"lon":5.3985,"is_reserved":false,"is_disabled":false,"rental_uris":{"android":"levelo://app?vid=b03f3285-9094-4bcb-9933-208ed207792c","ios":"levelo://app?vid=b03f3285-9094-4bcb-9933-208ed207792c"},"vehicle_type_id":"4","last_reported":1691586691,"current_range_meters":21600,"station_id":"","pricing_plan_id":"free"},{"bike_id":"15ef9004-30dc-4b43-824b-9a44249668e8","system_id":"levelo_inurba_marseille","lat":43.30132,"lon":5.3988,"is_reserved":false,"is_disabled":false,"rental_uris":{"android":"levelo://app?vid=15ef9004-30dc-4b43-824b-9a44249668e8","ios":"levelo://app?vid=15ef9004-30dc-4b43-824b-9a44249668e8"},"vehicle_type_id":"4","last_reported":1691586691,"current_range_meters":23200,"station_id":"ce4bh0h2rcd13ifvqd40","pricing_plan_id":"free"},{"bike_id":"75199276-b705-4ad7-b6a9-49aeaa84628a","system_id":"levelo_inurba_marseille","lat":43.286591,"lon":5.363346,"is_reserved":false,"is_disabled":false,"rental_uris":{"android":"levelo://app?vid=75199276-b705-4ad7-b6a9-49aeaa84628a","ios":"levelo://app?vid=75199276-b705-4ad7-b6a9-49aeaa84628a"},"vehicle_type_id":"4","last_reported":1691586691,"current_range_meters":31200,"station_id":"ce4bhah2rcd13ifvqej0","pricing_plan_id":"free"},{"bike_id":"f1bb99fb-989e-490d-ad5a-645b0adacf06","system_id":"levelo_inurba_marseille","lat":43.286961,"lon":5.373785,"is_reserved":false,"is_disabled":false,"rental_uris":{"android":"levelo://app?vid=f1bb99fb-989e-490d-ad5a-645b0adacf06","ios":"levelo://app?vid=f1bb99fb-989e-490d-ad5a-645b0adacf06"},"vehicle_type_id":"4","last_reported":1691586691,"current_range_meters":24800,"station_id":"ce4bh3p2rcd13ifvqdq0","pricing_plan_id":"free"},{"bike_id":"0eedbe34-33bc-419b-909b-f4cb98416e16","system_id":"levelo_inurba_marseille","lat":43.286593,"lon":5.363346,"is_reserved":false,"is_disabled":false,"rental_uris":{"android":"levelo://app?vid=0eedbe34-33bc-419b-909b-f4cb98416e16","ios":"levelo://app?vid=0eedbe34-33bc-419b-909b-f4cb98416e16"},"vehicle_type_id":"4","last_reported":1691586691,"current_range_meters":18000,"station_id":"ce4bhah2rcd13ifvqej0","pricing_plan_id":"free"},{"bike_id":"2c3df343-bc1c-4eb8-b5f5-75a560bc4a09","system_id":"levelo_inurba_marseille","lat":43.298681,"lon":5.397225,"is_reserved":false,"is_disabled":false,"rental_uris":{"android":"levelo://app?vid=2c3df343-bc1c-4eb8-b5f5-75a560bc4a09","ios":"levelo://app?vid=2c3df343-bc1c-4eb8-b5f5-75a560bc4a09"},"vehicle_type_id":"4","last_reported":1691586691,"current_range_meters":29600,"station_id":"ce4bh0h2rcd13ifvqd50","pricing_plan_id":"free"},{"bike_id":"7b9e2d57-7c2f-4652-8ec0-ee4d147afe24","system_id":"levelo_inurba_marseille","lat":43.302548,"lon":5.400568,"is_reserved":false,"is_disabled":false,"rental_uris":{"android":"levelo://app?vid=7b9e2d57-7c2f-4652-8ec0-ee4d147afe24","ios":"levelo://app?vid=7b9e2d57-7c2f-4652-8ec0-ee4d147afe24"},"vehicle_type_id":"4","last_reported":1691586691,"current_range_meters":0,"station_id":"","pricing_plan_id":"free"},{"bike_id":"cb999f47-a5d1-466f-a7fd-af70dbc31071","system_id":"levelo_inurba_marseille","lat":43.290336,"lon":5.386425,"is_reserved":false,"is_disabled":false,"rental_uris":{"android":"levelo://app?vid=cb999f47-a5d1-466f-a7fd-af70dbc31071","ios":"levelo://app?vid=cb999f47-a5d1-466f-a7fd-af70dbc31071"},"vehicle_type_id":"4","last_reported":1691586691,"current_range_meters":22800,"station_id":"ce4bh4p2rcd13ifvqe0g","pricing_plan_id":"free"},{"bike_id":"56f6e266-745e-433b-8df1-a9d44d7e5236","system_id":"levelo_inurba_marseille","lat":43.286039,"lon":5.370679,"is_reserved":false,"is_disabled":false,"rental_uris":{"android":"levelo://app?vid=56f6e266-745e-433b-8df1-a9d44d7e5236","ios":"levelo://app?vid=56f6e266-745e-433b-8df1-a9d44d7e5236"},"vehicle_type_id":"4","last_reported":1691586691,"current_range_meters":24000,"station_id":"ce4bht12rcd13ifvqi60","pricing_plan_id":"free"},{"bike_id":"dcd0217f-076f-4f27-ac4f-5a708864686e","system_id":"levelo_inurba_marseille","lat":43.286039,"lon":5.370679,"is_reserved":false,"is_disabled":false,"rental_uris":{"android":"levelo://app?vid=dcd0217f-076f-4f27-ac4f-5a708864686e","ios":"levelo://app?vid=dcd0217f-076f-4f27-ac4f-5a708864686e"},"vehicle_type_id":"4","last_reported":1691586691,"current_range_meters":24800,"station_id":"ce4bht12rcd13ifvqi60","pricing_plan_id":"free"},{"bike_id":"615b8250-4c90-417a-a9cf-aaf3e8bd45eb","system_id":"levelo_inurba_marseille","lat":43.286039,"lon":5.370679,"is_reserved":false,"is_disabled":false,"rental_uris":{"android":"levelo://app?vid=615b8250-4c90-417a-a9cf-aaf3e8bd45eb","ios":"levelo://app?vid=615b8250-4c90-417a-a9cf-aaf3e8bd45eb"},"vehicle_type_id":"4","last_reported":1691586691,"current_range_meters":26000,"station_id":"ce4bht12rcd13ifvqi60","pricing_plan_id":"free"},{"bike_id":"253895c9-7c50-418f-bfe1-435e87535b30","system_id":"levelo_inurba_marseille","lat":43.286039,"lon":5.370679,"is_reserved":false,"is_disabled":false,"rental_uris":{"android":"levelo://app?vid=253895c9-7c50-418f-bfe1-435e87535b30","ios":"levelo://app?vid=253895c9-7c50-418f-bfe1-435e87535b30"},"vehicle_type_id":"4","last_reported":1691586691,"current_range_meters":23600,"station_id":"ce4bht12rcd13ifvqi60","pricing_plan_id":"free"},{"bike_id":"6bf2cf96-a288-4b2d-a08e-f0553356b329","system_id":"levelo_inurba_marseille","lat":43.286039,"lon":5.370681,"is_reserved":false,"is_disabled":false,"rental_uris":{"android":"levelo://app?vid=6bf2cf96-a288-4b2d-a08e-f0553356b329","ios":"levelo://app?vid=6bf2cf96-a288-4b2d-a08e-f0553356b329"},"vehicle_type_id":"4","last_reported":1691586691,"current_range_meters":800,"station_id":"ce4bht12rcd13ifvqi60","pricing_plan_id":"free"},{"bike_id":"57ebeb50-3048-43bb-860c-c6cb55c76f19","system_id":"levelo_inurba_marseille","lat":43.286039,"lon":5.370681,"is_reserved":false,"is_disabled":false,"rental_uris":{"android":"levelo://app?vid=57ebeb50-3048-43bb-860c-c6cb55c76f19","ios":"levelo://app?vid=57ebeb50-3048-43bb-860c-c6cb55c76f19"},"vehicle_type_id":"4","last_reported":1691586691,"current_range_meters":13600,"station_id":"ce4bht12rcd13ifvqi60","pricing_plan_id":"free"},{"bike_id":"dc2ee93d-7f0f-405b-ad4b-ac7e029ea1e7","system_id":"levelo_inurba_marseille","lat":43.287184,"lon":5.37937,"is_reserved":false,"is_disabled":false,"rental_uris":{"android":"levelo://app?vid=dc2ee93d-7f0f-405b-ad4b-ac7e029ea1e7","ios":"levelo://app?vid=dc2ee93d-7f0f-405b-ad4b-ac7e029ea1e7"},"vehicle_type_id":"4","last_reported":1691586691,"current_range_meters":13600,"station_id":"ce4bh9p2rcd13ifvqec0","pricing_plan_id":"free"},{"bike_id":"e5180f2b-4472-4811-bc00-f43b13c60728","system_id":"levelo_inurba_marseille","lat":43.3164,"lon":5.4043,"is_reserved":false,"is_disabled":false,"rental_uris":{"android":"levelo://app?vid=e5180f2b-4472-4811-bc00-f43b13c60728","ios":"levelo://app?vid=e5180f2b-4472-4811-bc00-f43b13c60728"},"vehicle_type_id":"4","last_reported":1691586691,"current_range_meters":29600,"station_id":"ce4bh012rcd13ifvqd00","pricing_plan_id":"free"},{"bike_id":"f8e953be-ade0-4e19-927d-25b0d2f20672","system_id":"levelo_inurba_marseille","lat":43.31644,"lon":5.40437,"is_reserved":false,"is_disabled":false,"rental_uris":{"android":"levelo://app?vid=f8e953be-ade0-4e19-927d-25b0d2f20672","ios":"levelo://app?vid=f8e953be-ade0-4e19-927d-25b0d2f20672"},"vehicle_type_id":"4","last_reported":1691586691,"current_range_meters":15200,"station_id":"ce4bh012rcd13ifvqd00","pricing_plan_id":"free"},{"bike_id":"411dba10-6fd1-42f8-adbb-e611a03a9104","system_id":"levelo_inurba_marseille","lat":43.284534,"lon":5.358662,"is_reserved":false,"is_disabled":false,"rental_uris":{"android":"levelo://app?vid=411dba10-6fd1-42f8-adbb-e611a03a9104","ios":"levelo://app?vid=411dba10-6fd1-42f8-adbb-e611a03a9104"},"vehicle_type_id":"4","last_reported":1691586691,"current_range_meters":26400,"station_id":"ce4bhah2rcd13ifvqei0","pricing_plan_id":"free"},{"bike_id":"ec84e330-b1e2-4822-8e6d-3a6a32af77a4","system_id":"levelo_inurba_marseille","lat":43.284538,"lon":5.358657,"is_reserved":false,"is_disabled":false,"rental_uris":{"android":"levelo://app?vid=ec84e330-b1e2-4822-8e6d-3a6a32af77a4","ios":"levelo://app?vid=ec84e330-b1e2-4822-8e6d-3a6a32af77a4"},"vehicle_type_id":"4","last_reported":1691586691,"current_range_meters":14400,"station_id":"ce4bhah2rcd13ifvqei0","pricing_plan_id":"free"},{"bike_id":"efb0bd66-6fa1-4975-aebb-b3f8072b7a9f","system_id":"levelo_inurba_marseille","lat":43.284538,"lon":5.358657,"is_reserved":false,"is_disabled":false,"rental_uris":{"android":"levelo://app?vid=efb0bd66-6fa1-4975-aebb-b3f8072b7a9f","ios":"levelo://app?vid=efb0bd66-6fa1-4975-aebb-b3f8072b7a9f"},"vehicle_type_id":"4","last_reported":1691586691,"current_range_meters":21200,"station_id":"ce4bhah2rcd13ifvqei0","pricing_plan_id":"free"},{"bike_id":"d849ed16-9085-4532-9c53-73956fbb8d88","system_id":"levelo_inurba_marseille","lat":43.286188,"lon":5.351068,"is_reserved":false,"is_disabled":false,"rental_uris":{"android":"levelo://app?vid=d849ed16-9085-4532-9c53-73956fbb8d88","ios":"levelo://app?vid=d849ed16-9085-4532-9c53-73956fbb8d88"},"vehicle_type_id":"4","last_reported":1691586691,"current_range_meters":25600,"station_id":"ce4bhch2rcd13ifvqeug","pricing_plan_id":"free"},{"bike_id":"eeb5c25c-fd68-44da-bb13-72693465b5ba","system_id":"levelo_inurba_marseille","lat":43.28617,"lon":5.35107,"is_reserved":false,"is_disabled":false,"rental_uris":{"android":"levelo://app?vid=eeb5c25c-fd68-44da-bb13-72693465b5ba","ios":"levelo://app?vid=eeb5c25c-fd68-44da-bb13-72693465b5ba"},"vehicle_type_id":"4","last_reported":1691586691,"current_range_meters":21200,"station_id":"ce4bhch2rcd13ifvqeug","pricing_plan_id":"free"},{"bike_id":"02e3b75c-d4bb-46cf-862f-a7369d9f37ac","system_id":"levelo_inurba_marseille","lat":43.28616,"lon":5.35109,"is_reserved":false,"is_disabled":false,"rental_uris":{"android":"levelo://app?vid=02e3b75c-d4bb-46cf-862f-a7369d9f37ac","ios":"levelo://app?vid=02e3b75c-d4bb-46cf-862f-a7369d9f37ac"},"vehicle_type_id":"4","last_reported":1691586691,"current_range_meters":1200,"station_id":"ce4bhch2rcd13ifvqeug","pricing_plan_id":"free"},{"bike_id":"2762d156-46af-46c9-8b0b-d1311b38bbd7","system_id":"levelo_inurba_marseille","lat":43.28617,"lon":5.35102,"is_reserved":false,"is_disabled":false,"rental_uris":{"android":"levelo://app?vid=2762d156-46af-46c9-8b0b-d1311b38bbd7","ios":"levelo://app?vid=2762d156-46af-46c9-8b0b-d1311b38bbd7"},"vehicle_type_id":"4","last_reported":1691586691,"current_range_meters":23200,"station_id":"ce4bhch2rcd13ifvqeug","pricing_plan_id":"free"},{"bike_id":"7bfaf776-a589-4b0a-b881-9816c974f233","system_id":"levelo_inurba_marseille","lat":43.285856,"lon":5.350771,"is_reserved":false,"is_disabled":false,"rental_uris":{"android":"levelo://app?vid=7bfaf776-a589-4b0a-b881-9816c974f233","ios":"levelo://app?vid=7bfaf776-a589-4b0a-b881-9816c974f233"},"vehicle_type_id":"4","last_reported":1691586691,"current_range_meters":31200,"station_id":"ce4bhch2rcd13ifvqeug","pricing_plan_id":"free"},{"bike_id":"f6533de5-cd03-46aa-9ae4-29a04feb6794","system_id":"levelo_inurba_marseille","lat":43.28616,"lon":5.35103,"is_reserved":false,"is_disabled":false,"rental_uris":{"android":"levelo://app?vid=f6533de5-cd03-46aa-9ae4-29a04feb6794","ios":"levelo://app?vid=f6533de5-cd03-46aa-9ae4-29a04feb6794"},"vehicle_type_id":"4","last_reported":1691586691,"current_range_meters":21600,"station_id":"ce4bhch2rcd13ifvqeug","pricing_plan_id":"free"},{"bike_id":"f61c35de-6685-4dcc-b333-be272111181b","system_id":"levelo_inurba_marseille","lat":43.28615,"lon":5.35106,"is_reserved":false,"is_disabled":false,"rental_uris":{"android":"levelo://app?vid=f61c35de-6685-4dcc-b333-be272111181b","ios":"levelo://app?vid=f61c35de-6685-4dcc-b333-be272111181b"},"vehicle_type_id":"4","last_reported":1691586691,"current_range_meters":29600,"station_id":"ce4bhch2rcd13ifvqeug","pricing_plan_id":"free"},{"bike_id":"9698d41d-d8a1-4f23-80c3-4d09b4a60f83","system_id":"levelo_inurba_marseille","lat":43.28615,"lon":5.35101,"is_reserved":false,"is_disabled":false,"rental_uris":{"android":"levelo://app?vid=9698d41d-d8a1-4f23-80c3-4d09b4a60f83","ios":"levelo://app?vid=9698d41d-d8a1-4f23-80c3-4d09b4a60f83"},"vehicle_type_id":"4","last_reported":1691586691,"current_range_meters":18000,"station_id":"ce4bhch2rcd13ifvqeug","pricing_plan_id":"free"},{"bike_id":"9b9d427b-74d3-49d4-9bb6-5d7b7399e76c","system_id":"levelo_inurba_marseille","lat":43.28614,"lon":5.35104,"is_reserved":false,"is_disabled":false,"rental_uris":{"android":"levelo://app?vid=9b9d427b-74d3-49d4-9bb6-5d7b7399e76c","ios":"levelo://app?vid=9b9d427b-74d3-49d4-9bb6-5d7b7399e76c"},"vehicle_type_id":"4","last_reported":1691586691,"current_range_meters":2800,"station_id":"ce4bhch2rcd13ifvqeug","pricing_plan_id":"free"},{"bike_id":"c4b48f77-c0b9-421a-8d21-fd3c0be5a2a4","system_id":"levelo_inurba_marseille","lat":43.28613,"lon":5.35105,"is_reserved":false,"is_disabled":false,"rental_uris":{"android":"levelo://app?vid=c4b48f77-c0b9-421a-8d21-fd3c0be5a2a4","ios":"levelo://app?vid=c4b48f77-c0b9-421a-8d21-fd3c0be5a2a4"},"vehicle_type_id":"4","last_reported":1691586691,"current_range_meters":24800,"station_id":"ce4bhch2rcd13ifvqeug","pricing_plan_id":"free"},{"bike_id":"67498063-3cd7-4878-ac44-f040ea232298","system_id":"levelo_inurba_marseille","lat":43.286102,"lon":5.351133,"is_reserved":false,"is_disabled":false,"rental_uris":{"android":"levelo://app?vid=67498063-3cd7-4878-ac44-f040ea232298","ios":"levelo://app?vid=67498063-3cd7-4878-ac44-f040ea232298"},"vehicle_type_id":"4","last_reported":1691586691,"current_range_meters":5600,"station_id":"","pricing_plan_id":"free"},{"bike_id":"cc6b7855-79f7-4023-ada3-b33f095d8200","system_id":"levelo_inurba_marseille","lat":43.28612,"lon":5.35096,"is_reserved":false,"is_disabled":false,"rental_uris":{"android":"levelo://app?vid=cc6b7855-79f7-4023-ada3-b33f095d8200","ios":"levelo://app?vid=cc6b7855-79f7-4023-ada3-b33f095d8200"},"vehicle_type_id":"4","last_reported":1691586691,"current_range_meters":20800,"station_id":"ce4bhch2rcd13ifvqeug","pricing_plan_id":"free"},{"bike_id":"6eaf5140-63f9-4533-bcbf-82b35e341718","system_id":"levelo_inurba_marseille","lat":43.28608,"lon":5.351,"is_reserved":false,"is_disabled":false,"rental_uris":{"android":"levelo://app?vid=6eaf5140-63f9-4533-bcbf-82b35e341718","ios":"levelo://app?vid=6eaf5140-63f9-4533-bcbf-82b35e341718"},"vehicle_type_id":"4","last_reported":1691586691,"current_range_meters":23200,"station_id":"ce4bhch2rcd13ifvqeug","pricing_plan_id":"free"},{"bike_id":"e3faf6c6-5cda-44c6-a542-999e9cfaf8a6","system_id":"levelo_inurba_marseille","lat":43.31799,"lon":5.40647,"is_reserved":false,"is_disabled":false,"rental_uris":{"android":"levelo://app?vid=e3faf6c6-5cda-44c6-a542-999e9cfaf8a6","ios":"levelo://app?vid=e3faf6c6-5cda-44c6-a542-999e9cfaf8a6"},"vehicle_type_id":"4","last_reported":1691586691,"current_range_meters":30400,"station_id":"","pricing_plan_id":"free"},{"bike_id":"2015c5d5-c5d2-474d-bdde-c054f4dc79a2","system_id":"levelo_inurba_marseille","lat":43.283998,"lon":5.375062,"is_reserved":false,"is_disabled":false,"rental_uris":{"android":"levelo://app?vid=2015c5d5-c5d2-474d-bdde-c054f4dc79a2","ios":"levelo://app?vid=2015c5d5-c5d2-474d-bdde-c054f4dc79a2"},"vehicle_type_id":"4","last_reported":1691586691,"current_range_meters":11600,"station_id":"ce4bh412rcd13ifvqds0","pricing_plan_id":"free"},{"bike_id":"6ea81b86-df8b-43f3-9278-b3787ad1c2ab","system_id":"levelo_inurba_marseille","lat":43.283998,"lon":5.375062,"is_reserved":false,"is_disabled":false,"rental_uris":{"android":"levelo://app?vid=6ea81b86-df8b-43f3-9278-b3787ad1c2ab","ios":"levelo://app?vid=6ea81b86-df8b-43f3-9278-b3787ad1c2ab"},"vehicle_type_id":"4","last_reported":1691586691,"current_range_meters":27200,"station_id":"ce4bh412rcd13ifvqds0","pricing_plan_id":"free"},{"bike_id":"9a0f9c52-3eb7-4700-9da6-62acc6126ac0","system_id":"levelo_inurba_marseille","lat":43.29569,"lon":5.39982,"is_reserved":false,"is_disabled":false,"rental_uris":{"android":"levelo://app?vid=9a0f9c52-3eb7-4700-9da6-62acc6126ac0","ios":"levelo://app?vid=9a0f9c52-3eb7-4700-9da6-62acc6126ac0"},"vehicle_type_id":"4","last_reported":1691586691,"current_range_meters":400,"station_id":"","pricing_plan_id":"free"},{"bike_id":"e335f635-6bde-48e3-b05a-147b7652e5e9","system_id":"levelo_inurba_marseille","lat":43.31876,"lon":5.40732,"is_reserved":false,"is_disabled":false,"rental_uris":{"android":"levelo://app?vid=e335f635-6bde-48e3-b05a-147b7652e5e9","ios":"levelo://app?vid=e335f635-6bde-48e3-b05a-147b7652e5e9"},"vehicle_type_id":"4","last_reported":1691586691,"current_range_meters":20400,"station_id":"","pricing_plan_id":"free"},{"bike_id":"5e74bf3b-ac1a-484f-bccf-94c36227143a","system_id":"levelo_inurba_marseille","lat":43.337168,"lon":5.391825,"is_reserved":false,"is_disabled":false,"rental_uris":{"android":"levelo://app?vid=5e74bf3b-ac1a-484f-bccf-94c36227143a","ios":"levelo://app?vid=5e74bf3b-ac1a-484f-bccf-94c36227143a"},"vehicle_type_id":"4","last_reported":1691586691,"current_range_meters":26000,"station_id":"ce4bhr92rcd13ifvqhsg","pricing_plan_id":"free"},{"bike_id":"c1c36742-594e-4942-8b1b-16f98a15fa5e","system_id":"levelo_inurba_marseille","lat":43.32333,"lon":5.40621,"is_reserved":false,"is_disabled":false,"rental_uris":{"android":"levelo://app?vid=c1c36742-594e-4942-8b1b-16f98a15fa5e","ios":"levelo://app?vid=c1c36742-594e-4942-8b1b-16f98a15fa5e"},"vehicle_type_id":"4","last_reported":1691586691,"current_range_meters":31600,"station_id":"ce4bhq92rcd13ifvqhjg","pricing_plan_id":"free"},{"bike_id":"a0174767-6c98-4641-a7e3-f7cc6590d419","system_id":"levelo_inurba_marseille","lat":43.288497,"lon":5.393089,"is_reserved":false,"is_disabled":false,"rental_uris":{"android":"levelo://app?vid=a0174767-6c98-4641-a7e3-f7cc6590d419","ios":"levelo://app?vid=a0174767-6c98-4641-a7e3-f7cc6590d419"},"vehicle_type_id":"4","last_reported":1691586691,"current_range_meters":16800,"station_id":"ce4bh2p2rcd13ifvqdi0","pricing_plan_id":"free"},{"bike_id":"b5078720-6eb5-4e44-af0f-558ab8f42ba0","system_id":"levelo_inurba_marseille","lat":43.29798,"lon":5.40406,"is_reserved":false,"is_disabled":false,"rental_uris":{"android":"levelo://app?vid=b5078720-6eb5-4e44-af0f-558ab8f42ba0","ios":"levelo://app?vid=b5078720-6eb5-4e44-af0f-558ab8f42ba0"},"vehicle_type_id":"4","last_reported":1691586691,"current_range_meters":0,"station_id":"","pricing_plan_id":"free"},{"bike_id":"d2e96043-3c86-4c10-b312-5db2e80e63e6","system_id":"levelo_inurba_marseille","lat":43.283498,"lon":5.380948,"is_reserved":false,"is_disabled":false,"rental_uris":{"android":"levelo://app?vid=d2e96043-3c86-4c10-b312-5db2e80e63e6","ios":"levelo://app?vid=d2e96043-3c86-4c10-b312-5db2e80e63e6"},"vehicle_type_id":"4","last_reported":1691586691,"current_range_meters":24400,"station_id":"ce4bh412rcd13ifvqdr0","pricing_plan_id":"free"},{"bike_id":"a102e4ae-d495-46ca-8f5e-811d816f4ef9","system_id":"levelo_inurba_marseille","lat":43.283498,"lon":5.380948,"is_reserved":false,"is_disabled":false,"rental_uris":{"android":"levelo://app?vid=a102e4ae-d495-46ca-8f5e-811d816f4ef9","ios":"levelo://app?vid=a102e4ae-d495-46ca-8f5e-811d816f4ef9"},