{"last_updated":1703779736,"ttl":30,"version":"2.2","data":{"bikes":[{"bike_id":"08e6c456-d68e-44b7-8971-a4415c10061d","system_id":"levelo_inurba_marseille","lat":43.312239,"lon":5.368562,"is_reserved":false,"is_disabled":false,"rental_uris":{"android":"levelo://app?vid=08e6c456-d68e-44b7-8971-a4415c10061d","ios":"levelo://app?vid=08e6c456-d68e-44b7-8971-a4415c10061d"},"vehicle_type_id":"4","last_reported":1703779736,"current_range_meters":16000,"station_id":"ce4bgl92rcd13ifvqbq0","pricing_plan_id":"free"},{"bike_id":"71413311-6ad0-4f44-a6ac-a2b6c7e1916c","system_id":"levelo_inurba_marseille","lat":43.30907,"lon":5.36846,"is_reserved":false,"is_disabled":false,"rental_uris":{"android":"levelo://app?vid=71413311-6ad0-4f44-a6ac-a2b6c7e1916c","ios":"levelo://app?vid=71413311-6ad0-4f44-a6ac-a2b6c7e1916c"},"vehicle_type_id":"4","last_reported":1703779736,"current_range_meters":30000,"station_id":"ce4bgn92rcd13ifvqbvg","pricing_plan_id":"free"},{"bike_id":"64849f54-6f0b-4cfa-8bf0-417bc79e28ed","system_id":"levelo_inurba_marseille","lat":43.314811,"lon":5.373103,"is_reserved":false,"is_disabled":false,"rental_uris":{"android":"levelo://app?vid=64849f54-6f0b-4cfa-8bf0-417bc79e28ed","ios":"levelo://app?vid=64849f54-6f0b-4cfa-8bf0-417bc79e28ed"},"vehicle_type_id":"4","last_reported":1703779736,"current_range_meters":8800,"station_id":"ce4bgt12rcd13ifvqcd0","pricing_plan_id":"free"},{"bike_id":"669554d7-40cf-4a14-b8bc-d31ccdfdacce","system_id":"levelo_inurba_marseille","lat":43.314811,"lon":5.373103,"is_reserved":false,"is_disabled":false,"rental_uris":{"android":"levelo://app?vid=669554d7-40cf-4a14-b8bc-d31ccdfdacce","ios":"levelo://app?vid=669554d7-40cf-4a14-b8bc-d31ccdfdacce"},"vehicle_type_id":"4","last_reported":1703779736,"current_range_meters":28800,"station_id":"ce4bgt12rcd13ifvqcd0","pricing_plan_id":"free"},{"bike_id":"273e323b-87d3-4855-8516-098a56ef2842","system_id":"levelo_inurba_marseille","lat":43.314811,"lon":5.373104,"is_reserved":false,"is_disabled":false,"rental_uris":{"android":"levelo://app?vid=273e323b-87d3-4855-8516-098a56ef2842","ios":"levelo://app?vid=273e323b-87d3-4855-8516-098a56ef2842"},"vehicle_type_id":"4","last_reported":1703779736,"current_range_meters":26000,"station_id":"ce4bgt12rcd13ifvqcd0","pricing_plan_id":"free"},{"bike_id":"f4a145b7-8afd-41f9-a6aa-b5c89cd3c1f6","system_id":"levelo_inurba_marseille","lat":43.314811,"lon":5.373103,"is_reserved":false,"is_disabled":false,"rental_uris":{"android":"levelo://app?vid=f4a145b7-8afd-41f9-a6aa-b5c89cd3c1f6","ios":"levelo://app?vid=f4a145b7-8afd-41f9-a6aa-b5c89cd3c1f6"},"vehicle_type_id":"4","last_reported":1703779736,"current_range_meters":21600,"station_id":"ce4bgt12rcd13ifvqcd0","pricing_plan_id":"free"},{"bike_id":"fec9e70f-e662-44fc-b1a7-55ce805d9e26","system_id":"levelo_inurba_marseille","lat":43.314811,"lon":5.373103,"is_reserved":false,"is_disabled":false,"rental_uris":{"android":"levelo://app?vid=fec9e70f-e662-44fc-b1a7-55ce805d9e26","ios":"levelo://app?vid=fec9e70f-e662-44fc-b1a7-55ce805d9e26"},"vehicle_type_id":"4","last_reported":1703779736,"current_range_meters":8000,"station_id":"ce4bgt12rcd13ifvqcd0","pricing_plan_id":"free"},{"bike_id":"244483fa-90cf-4f53-8a78-9d20715bf1a9","system_id":"levelo_inurba_marseille","lat":43.309039,"lon":5.371797,"is_reserved":false,"is_disabled":false,"rental_uris":{"android":"levelo://app?vid=244483fa-90cf-4f53-8a78-9d20715bf1a9","ios":"levelo://app?vid=244483fa-90cf-4f53-8a78-9d20715bf1a9"},"vehicle_type_id":"4","last_reported":1703779736,"current_range_meters":20000,"station_id":"ce4bguh2rcd13ifvqckg","pricing_plan_id":"free"},{"bike_id":"0501c5b4-cd76-48a6-90ee-ca6a51833e68","system_id":"levelo_inurba_marseille","lat":43.30676,"lon":5.36598,"is_reserved":false,"is_disabled":false,"rental_uris":{"android":"levelo://app?vid=0501c5b4-cd76-48a6-90ee-ca6a51833e68","ios":"levelo://app?vid=0501c5b4-cd76-48a6-90ee-ca6a51833e68"},"vehicle_type_id":"4","last_reported":1703779736,"current_range_meters":10400,"station_id":"","pricing_plan_id":"free"},{"bike_id":"e53a9163-4e5b-47fe-9556-01a0a159d6b4","system_id":"levelo_inurba_marseille","lat":43.318964,"lon":5.36877,"is_reserved":false,"is_disabled":false,"rental_uris":{"android":"levelo://app?vid=e53a9163-4e5b-47fe-9556-01a0a159d6b4","ios":"levelo://app?vid=e53a9163-4e5b-47fe-9556-01a0a159d6b4"},"vehicle_type_id":"4","last_reported":1703779736,"current_range_meters":4000,"station_id":"","pricing_plan_id":"free"},{"bike_id":"2bf1159c-4b34-4bc3-a8b5-156be571c011","system_id":"levelo_inurba_marseille","lat":43.308263,"lon":5.374041,"is_reserved":false,"is_disabled":false,"rental_uris":{"android":"levelo://app?vid=2bf1159c-4b34-4bc3-a8b5-156be571c011","ios":"levelo://app?vid=2bf1159c-4b34-4bc3-a8b5-156be571c011"},"vehicle_type_id":"4","last_reported":1703779736,"current_range_meters":28000,"station_id":"","pricing_plan_id":"free"},{"bike_id":"e129382e-f77a-454a-b839-382604ca70e0","system_id":"levelo_inurba_marseille","lat":43.305714,"lon":5.365633,"is_reserved":false,"is_disabled":false,"rental_uris":{"android":"levelo://app?vid=e129382e-f77a-454a-b839-382604ca70e0","ios":"levelo://app?vid=e129382e-f77a-454a-b839-382604ca70e0"},"vehicle_type_id":"4","last_reported":1703779736,"current_range_meters":15600,"station_id":"ce4bgs12rcd13ifvqcag","pricing_plan_id":"free"},{"bike_id":"ae142779-b131-49b2-bd89-4923944822d2","system_id":"levelo_inurba_marseille","lat":43.305368,"lon":5.367343,"is_reserved":false,"is_disabled":false,"rental_uris":{"android":"levelo://app?vid=ae142779-b131-49b2-bd89-4923944822d2","ios":"levelo://app?vid=ae142779-b131-49b2-bd89-4923944822d2"},"vehicle_type_id":"4","last_reported":1703779736,"current_range_meters":23200,"station_id":"ce4bgrp2rcd13ifvqc9g","pricing_plan_id":"free"},{"bike_id":"308d0558-b681-41f4-b2ee-2c437a3bff85","system_id":"levelo_inurba_marseille","lat":43.305712,"lon":5.365641,"is_reserved":false,"is_disabled":false,"rental_uris":{"android":"levelo://app?vid=308d0558-b681-41f4-b2ee-2c437a3bff85","ios":"levelo://app?vid=308d0558-b681-41f4-b2ee-2c437a3bff85"},"vehicle_type_id":"4","last_reported":1703779736,"current_range_meters":4400,"station_id":"ce4bgs12rcd13ifvqcag","pricing_plan_id":"free"},{"bike_id":"294daea1-dfb7-429d-8796-4bb97a5afdbf","system_id":"levelo_inurba_marseille","lat":43.30537,"lon":5.367345,"is_reserved":false,"is_disabled":false,"rental_uris":{"android":"levelo://app?vid=294daea1-dfb7-429d-8796-4bb97a5afdbf","ios":"levelo://app?vid=294daea1-dfb7-429d-8796-4bb97a5afdbf"},"vehicle_type_id":"4","last_reported":1703779736,"current_range_meters":13600,"station_id":"ce4bgrp2rcd13ifvqc9g","pricing_plan_id":"free"},{"bike_id":"294d9ba5-5d3c-4ce3-ae99-479709cd2dbd","system_id":"levelo_inurba_marseille","lat":43.305436,"lon":5.365422,"is_reserved":false,"is_disabled":false,"rental_uris":{"android":"levelo://app?vid=294d9ba5-5d3c-4ce3-ae99-479709cd2dbd","ios":"levelo://app?vid=294d9ba5-5d3c-4ce3-ae99-479709cd2dbd"},"vehicle_type_id":"4","last_reported":1703779736,"current_range_meters":17200,"station_id":"ce4bgs12rcd13ifvqcag","pricing_plan_id":"free"},{"bike_id":"78aeb04f-6766-4b62-a4d4-38f2e83cd3b8","system_id":"levelo_inurba_marseille","lat":43.305338,"lon":5.365438,"is_reserved":false,"is_disabled":false,"rental_uris":{"android":"levelo://app?vid=78aeb04f-6766-4b62-a4d4-38f2e83cd3b8","ios":"levelo://app?vid=78aeb04f-6766-4b62-a4d4-38f2e83cd3b8"},"vehicle_type_id":"4","last_reported":1703779736,"current_range_meters":22000,"station_id":"ce4bgs12rcd13ifvqcag","pricing_plan_id":"free"},{"bike_id":"f091cfb4-64dc-4f72-9c3a-1240c5ac5145","system_id":"levelo_inurba_marseille","lat":43.317075,"lon":5.377367,"is_reserved":false,"is_disabled":false,"rental_uris":{"android":"levelo://app?vid=f091cfb4-64dc-4f72-9c3a-1240c5ac5145","ios":"levelo://app?vid=f091cfb4-64dc-4f72-9c3a-1240c5ac5145"},"vehicle_type_id":"4","last_reported":1703779736,"current_range_meters":23600,"station_id":"ce4bgth2rcd13ifvqch0","pricing_plan_id":"free"},{"bike_id":"5282058b-823e-487d-a5dd-2ce48056bb83","system_id":"levelo_inurba_marseille","lat":43.303046,"lon":5.368981,"is_reserved":false,"is_disabled":false,"rental_uris":{"android":"levelo://app?vid=5282058b-823e-487d-a5dd-2ce48056bb83","ios":"levelo://app?vid=5282058b-823e-487d-a5dd-2ce48056bb83"},"vehicle_type_id":"4","last_reported":1703779736,"current_range_meters":22400,"station_id":"ce4bgqh2rcd13ifvqc5g","pricing_plan_id":"free"},{"bike_id":"e165ae47-252c-449a-a12b-17dfbff0f375","system_id":"levelo_inurba_marseille","lat":43.301939,"lon":5.366286,"is_reserved":false,"is_disabled":false,"rental_uris":{"android":"levelo://app?vid=e165ae47-252c-449a-a12b-17dfbff0f375","ios":"levelo://app?vid=e165ae47-252c-449a-a12b-17dfbff0f375"},"vehicle_type_id":"4","last_reported":1703779736,"current_range_meters":30000,"station_id":"ce4bgrh2rcd13ifvqc8g","pricing_plan_id":"free"},{"bike_id":"c67fe3ff-8aca-445b-aed0-aaf66b380210","system_id":"levelo_inurba_marseille","lat":43.308012,"lon":5.381511,"is_reserved":false,"is_disabled":false,"rental_uris":{"android":"levelo://app?vid=c67fe3ff-8aca-445b-aed0-aaf66b380210","ios":"levelo://app?vid=c67fe3ff-8aca-445b-aed0-aaf66b380210"},"vehicle_type_id":"4","last_reported":1703779736,"current_range_meters":18400,"station_id":"ce4bgt12rcd13ifvqce0","pricing_plan_id":"free"},{"bike_id":"e1963bac-f7eb-4aff-a2e7-3744181cb271","system_id":"levelo_inurba_marseille","lat":43.304606,"lon":5.379026,"is_reserved":false,"is_disabled":false,"rental_uris":{"android":"levelo://app?vid=e1963bac-f7eb-4aff-a2e7-3744181cb271","ios":"levelo://app?vid=e1963bac-f7eb-4aff-a2e7-3744181cb271"},"vehicle_type_id":"4","last_reported":1703779736,"current_range_meters":1600,"station_id":"ce4bgup2rcd13ifvqcn0","pricing_plan_id":"free"},{"bike_id":"30131806-024e-4b53-9bdf-2fc58657722a","system_id":"levelo_inurba_marseille","lat":43.304606,"lon":5.379026,"is_reserved":false,"is_disabled":false,"rental_uris":{"android":"levelo://app?vid=30131806-024e-4b53-9bdf-2fc58657722a","ios":"levelo://app?vid=30131806-024e-4b53-9bdf-2fc58657722a"},"vehicle_type_id":"4","last_reported":1703779736,"current_range_meters":24000,"station_id":"ce4bgup2rcd13ifvqcn0","pricing_plan_id":"free"},{"bike_id":"65a5bc48-fdb7-4909-98ac-a83f0d971e40","system_id":"levelo_inurba_marseille","lat":43.324843,"lon":5.36556,"is_reserved":false,"is_disabled":false,"rental_uris":{"android":"levelo://app?vid=65a5bc48-fdb7-4909-98ac-a83f0d971e40","ios":"levelo://app?vid=65a5bc48-fdb7-4909-98ac-a83f0d971e40"},"vehicle_type_id":"4","last_reported":1703779736,"current_range_meters":15200,"station_id":"ce4bhs12rcd13ifvqhvg","pricing_plan_id":"free"},{"bike_id":"37145305-676f-4333-a81e-968c239d1147","system_id":"levelo_inurba_marseille","lat":43.302784,"lon":5.377158,"is_reserved":false,"is_disabled":false,"rental_uris":{"android":"levelo://app?vid=37145305-676f-4333-a81e-968c239d1147","ios":"levelo://app?vid=37145305-676f-4333-a81e-968c239d1147"},"vehicle_type_id":"4","last_reported":1703779736,"current_range_meters":12000,"station_id":"ce4bguh2rcd13ifvqcj0","pricing_plan_id":"free"},{"bike_id":"eb75f652-373e-4726-9e33-c05a085e4a2d","system_id":"levelo_inurba_marseille","lat":43.301453,"lon":5.37416,"is_reserved":false,"is_disabled":false,"rental_uris":{"android":"levelo://app?vid=eb75f652-373e-4726-9e33-c05a085e4a2d","ios":"levelo://app?vid=eb75f652-373e-4726-9e33-c05a085e4a2d"},"vehicle_type_id":"4","last_reported":1703779736,"current_range_meters":5200,"station_id":"","pricing_plan_id":"free"},{"bike_id":"8b2415c6-fbb4-4507-b756-5044ee1ffa8f","system_id":"levelo_inurba_marseille","lat":43.302784,"lon":5.377158,"is_reserved":false,"is_disabled":false,"rental_uris":{"android":"levelo://app?vid=8b2415c6-fbb4-4507-b756-5044ee1ffa8f","ios":"levelo://app?vid=8b2415c6-fbb4-4507-b756-5044ee1ffa8f"},"vehicle_type_id":"4","last_reported":1703779736,"current_range_meters":20000,"station_id":"ce4bguh2rcd13ifvqcj0","pricing_plan_id":"free"},{"bike_id":"9f56e768-708e-4f3b-9665-77b378da46d8","system_id":"levelo_inurba_marseille","lat":43.319935,"lon":5.381699,"is_reserved":false,"is_disabled":false,"rental_uris":{"android":"levelo://app?vid=9f56e768-708e-4f3b-9665-77b378da46d8","ios":"levelo://app?vid=9f56e768-708e-4f3b-9665-77b378da46d8"},"vehicle_type_id":"4","last_reported":1703779736,"current_range_meters":17200,"station_id":"ce4bhr12rcd13ifvqhpg","pricing_plan_id":"free"},{"bike_id":"489efb97-6469-4c5c-b718-7660c1202bfd","system_id":"levelo_inurba_marseille","lat":43.319935,"lon":5.381699,"is_reserved":false,"is_disabled":false,"rental_uris":{"android":"levelo://app?vid=489efb97-6469-4c5c-b718-7660c1202bfd","ios":"levelo://app?vid=489efb97-6469-4c5c-b718-7660c1202bfd"},"vehicle_type_id":"4","last_reported":1703779736,"current_range_meters":12000,"station_id":"ce4bhr12rcd13ifvqhpg","pricing_plan_id":"free"},{"bike_id":"5e56827d-c152-4ecd-a38a-84eba3dbf8c2","system_id":"levelo_inurba_marseille","lat":43.319935,"lon":5.381699,"is_reserved":false,"is_disabled":false,"rental_uris":{"android":"levelo://app?vid=5e56827d-c152-4ecd-a38a-84eba3dbf8c2","ios":"levelo://app?vid=5e56827d-c152-4ecd-a38a-84eba3dbf8c2"},"vehicle_type_id":"4","last_reported":1703779736,"current_range_meters":29200,"station_id":"ce4bhr12rcd13ifvqhpg","pricing_plan_id":"free"},{"bike_id":"d798eee3-c9cd-4e09-a137-162e27e1625e","system_id":"levelo_inurba_marseille","lat":43.319935,"lon":5.381699,"is_reserved":false,"is_disabled":false,"rental_uris":{"android":"levelo://app?vid=d798eee3-c9cd-4e09-a137-162e27e1625e","ios":"levelo://app?vid=d798eee3-c9cd-4e09-a137-162e27e1625e"},"vehicle_type_id":"4","last_reported":1703779736,"current_range_meters":25600,"station_id":"ce4bhr12rcd13ifvqhpg","pricing_plan_id":"free"},{"bike_id":"b79e661b-2b8f-4a12-89fc-f09207e68213","system_id":"levelo_inurba_marseille","lat":43.313571,"lon":5.384829,"is_reserved":false,"is_disabled":false,"rental_uris":{"android":"levelo://app?vid=b79e661b-2b8f-4a12-89fc-f09207e68213","ios":"levelo://app?vid=b79e661b-2b8f-4a12-89fc-f09207e68213"},"vehicle_type_id":"4","last_reported":1703779736,"current_range_meters":25200,"station_id":"ce4bgt92rcd13ifvqcf0","pricing_plan_id":"free"},{"bike_id":"2bafabbe-ecb7-41e3-853f-f9a51c683dd3","system_id":"levelo_inurba_marseille","lat":43.32621,"lon":5.36114,"is_reserved":false,"is_disabled":false,"rental_uris":{"android":"levelo://app?vid=2bafabbe-ecb7-41e3-853f-f9a51c683dd3","ios":"levelo://app?vid=2bafabbe-ecb7-41e3-853f-f9a51c683dd3"},"vehicle_type_id":"4","last_reported":1703779736,"current_range_meters":18000,"station_id":"","pricing_plan_id":"free"},{"bike_id":"c39fe576-53fd-4bb6-b3e5-b176bc89908c","system_id":"levelo_inurba_marseille","lat":43.311722,"lon":5.387247,"is_reserved":false,"is_disabled":false,"rental_uris":{"android":"levelo://app?vid=c39fe576-53fd-4bb6-b3e5-b176bc89908c","ios":"levelo://app?vid=c39fe576-53fd-4bb6-b3e5-b176bc89908c"},"vehicle_type_id":"4","last_reported":1703779736,"current_range_meters":18000,"station_id":"ce4bgv12rcd13ifvqcp0","pricing_plan_id":"free"},{"bike_id":"5810a51d-900e-4f21-b011-504985336ccb","system_id":"levelo_inurba_marseille","lat":43.324771,"lon":5.36557,"is_reserved":false,"is_disabled":false,"rental_uris":{"android":"levelo://app?vid=5810a51d-900e-4f21-b011-504985336ccb","ios":"levelo://app?vid=5810a51d-900e-4f21-b011-504985336ccb"},"vehicle_type_id":"4","last_reported":1703779736,"current_range_meters":17200,"station_id":"ce4bhs12rcd13ifvqhvg","pricing_plan_id":"free"},{"bike_id":"3270f28d-7b09-46cb-ba43-f40752fc3385","system_id":"levelo_inurba_marseille","lat":43.322872,"lon":5.382756,"is_reserved":false,"is_disabled":false,"rental_uris":{"android":"levelo://app?vid=3270f28d-7b09-46cb-ba43-f40752fc3385","ios":"levelo://app?vid=3270f28d-7b09-46cb-ba43-f40752fc3385"},"vehicle_type_id":"4","last_reported":1703779736,"current_range_meters":31200,"station_id":"ce4bhr12rcd13ifvqhqg","pricing_plan_id":"free"},{"bike_id":"5c89eee7-6e83-42b4-bd81-efdcf68f6666","system_id":"levelo_inurba_marseille","lat":43.32824,"lon":5.36683,"is_reserved":false,"is_disabled":false,"rental_uris":{"android":"levelo://app?vid=5c89eee7-6e83-42b4-bd81-efdcf68f6666","ios":"levelo://app?vid=5c89eee7-6e83-42b4-bd81-efdcf68f6666"},"vehicle_type_id":"4","last_reported":1703779736,"current_range_meters":27600,"station_id":"ce4bhs92rcd13ifvqi0g","pricing_plan_id":"free"},{"bike_id":"639980c6-9f73-401a-b944-961e7482aee9","system_id":"levelo_inurba_marseille","lat":43.32826,"lon":5.36682,"is_reserved":false,"is_disabled":false,"rental_uris":{"android":"levelo://app?vid=639980c6-9f73-401a-b944-961e7482aee9","ios":"levelo://app?vid=639980c6-9f73-401a-b944-961e7482aee9"},"vehicle_type_id":"4","last_reported":1703779736,"current_range_meters":6400,"station_id":"ce4bhs92rcd13ifvqi0g","pricing_plan_id":"free"},{"bike_id":"1ea82e61-37ea-4b15-a6ef-01d29683b9fd","system_id":"levelo_inurba_marseille","lat":43.32827,"lon":5.36674,"is_reserved":false,"is_disabled":false,"rental_uris":{"android":"levelo://app?vid=1ea82e61-37ea-4b15-a6ef-01d29683b9fd","ios":"levelo://app?vid=1ea82e61-37ea-4b15-a6ef-01d29683b9fd"},"vehicle_type_id":"4","last_reported":1703779736,"current_range_meters":20400,"station_id":"ce4bhs92rcd13ifvqi0g","pricing_plan_id":"free"},{"bike_id":"ddee1e46-a8ad-4997-9dc5-136753741280","system_id":"levelo_inurba_marseille","lat":43.32828,"lon":5.36684,"is_reserved":false,"is_disabled":false,"rental_uris":{"android":"levelo://app?vid=ddee1e46-a8ad-4997-9dc5-136753741280","ios":"levelo://app?vid=ddee1e46-a8ad-4997-9dc5-136753741280"},"vehicle_type_id":"4","last_reported":1703779736,"current_range_meters":25600,"station_id":"ce4bhs92rcd13ifvqi0g","pricing_plan_id":"free"},{"bike_id":"a677cd10-a09b-4b2e-bffd-45b05d2c9229","system_id":"levelo_inurba_marseille","lat":43.32828,"lon":5.36679,"is_reserved":false,"is_disabled":false,"rental_uris":{"android":"levelo://app?vid=a677cd10-a09b-4b2e-bffd-45b05d2c9229","ios":"levelo://app?vid=a677cd10-a09b-4b2e-bffd-45b05d2c9229"},"vehicle_type_id":"4","last_reported":1703779736,"current_range_meters":24800,"station_id":"ce4bhs92rcd13ifvqi0g","pricing_plan_id":"free"},{"bike_id":"51714c4a-3132-4951-88ec-80e85fa125e8","system_id":"levelo_inurba_marseille","lat":43.328284,"lon":5.366849,"is_reserved":false,"is_disabled":false,"rental_uris":{"android":"levelo://app?vid=51714c4a-3132-4951-88ec-80e85fa125e8","ios":"levelo://app?vid=51714c4a-3132-4951-88ec-80e85fa125e8"},"vehicle_type_id":"4","last_reported":1703779736,"current_range_meters":18400,"station_id":"ce4bhs92rcd13ifvqi0g","pricing_plan_id":"free"},{"bike_id":"b30b3d1b-ef61-4776-bd7b-61c34fd8cc81","system_id":"levelo_inurba_marseille","lat":43.328288,"lon":5.366851,"is_reserved":false,"is_disabled":false,"rental_uris":{"android":"levelo://app?vid=b30b3d1b-ef61-4776-bd7b-61c34fd8cc81","ios":"levelo://app?vid=b30b3d1b-ef61-4776-bd7b-61c34fd8cc81"},"vehicle_type_id":"4","last_reported":1703779736,"current_range_meters":18000,"station_id":"ce4bhs92rcd13ifvqi0g","pricing_plan_id":"free"},{"bike_id":"de708f00-7118-4d7c-9021-d7dcbd798473","system_id":"levelo_inurba_marseille","lat":43.328371,"lon":5.366909,"is_reserved":false,"is_disabled":false,"rental_uris":{"android":"levelo://app?vid=de708f00-7118-4d7c-9021-d7dcbd798473","ios":"levelo://app?vid=de708f00-7118-4d7c-9021-d7dcbd798473"},"vehicle_type_id":"4","last_reported":1703779736,"current_range_meters":15200,"station_id":"ce4bhs92rcd13ifvqi0g","pricing_plan_id":"free"},{"bike_id":"904f83aa-e9ab-401d-84c1-9edfed82b884","system_id":"levelo_inurba_marseille","lat":43.328371,"lon":5.366912,"is_reserved":false,"is_disabled":false,"rental_uris":{"android":"levelo://app?vid=904f83aa-e9ab-401d-84c1-9edfed82b884","ios":"levelo://app?vid=904f83aa-e9ab-401d-84c1-9edfed82b884"},"vehicle_type_id":"4","last_reported":1703779736,"current_range_meters":9200,"station_id":"ce4bhs92rcd13ifvqi0g","pricing_plan_id":"free"},{"bike_id":"ea7074d7-b7c9-4941-82c2-dff391bae9cb","system_id":"levelo_inurba_marseille","lat":43.32831,"lon":5.36675,"is_reserved":false,"is_disabled":false,"rental_uris":{"android":"levelo://app?vid=ea7074d7-b7c9-4941-82c2-dff391bae9cb","ios":"levelo://app?vid=ea7074d7-b7c9-4941-82c2-dff391bae9cb"},"vehicle_type_id":"4","last_reported":1703779736,"current_range_meters":14800,"station_id":"ce4bhs92rcd13ifvqi0g","pricing_plan_id":"free"},{"bike_id":"b33e79d7-85bd-413c-801b-bcd1df69d847","system_id":"levelo_inurba_marseille","lat":43.328313,"lon":5.36678,"is_reserved":false,"is_disabled":false,"rental_uris":{"android":"levelo://app?vid=b33e79d7-85bd-413c-801b-bcd1df69d847","ios":"levelo://app?vid=b33e79d7-85bd-413c-801b-bcd1df69d847"},"vehicle_type_id":"4","last_reported":1703779736,"current_range_meters":16000,"station_id":"ce4bhs92rcd13ifvqi0g","pricing_plan_id":"free"},{"bike_id":"6f67326a-1664-406f-9978-902e013e2357","system_id":"levelo_inurba_marseille","lat":43.32832,"lon":5.36679,"is_reserved":false,"is_disabled":false,"rental_uris":{"android":"levelo://app?vid=6f67326a-1664-406f-9978-902e013e2357","ios":"levelo://app?vid=6f67326a-1664-406f-9978-902e013e2357"},"vehicle_type_id":"4","last_reported":1703779736,"current_range_meters":22800,"station_id":"ce4bhs92rcd13ifvqi0g","pricing_plan_id":"free"},{"bike_id":"a448ca86-2b35-41e1-89c4-32a99bab0563","system_id":"levelo_inurba_marseille","lat":43.328371,"lon":5.366912,"is_reserved":false,"is_disabled":false,"rental_uris":{"android":"levelo://app?vid=a448ca86-2b35-41e1-89c4-32a99bab0563","ios":"levelo://app?vid=a448ca86-2b35-41e1-89c4-32a99bab0563"},"vehicle_type_id":"4","last_reported":1703779736,"current_range_meters":23200,"station_id":"ce4bhs92rcd13ifvqi0g","pricing_plan_id":"free"},{"bike_id":"405c3b1b-8d57-4d95-b2bd-e8031557b97e","system_id":"levelo_inurba_marseille","lat":43.297163,"lon":5.365866,"is_reserved":false,"is_disabled":false,"rental_uris":{"android":"levelo://app?vid=405c3b1b-8d57-4d95-b2bd-e8031557b97e","ios":"levelo://app?vid=405c3b1b-8d57-4d95-b2bd-e8031557b97e"},"vehicle_type_id":"4","last_reported":1703779736,"current_range_meters":27200,"station_id":"ce4bgn12rcd13ifvqbt0","pricing_plan_id":"free"},{"bike_id":"dd355086-8d20-46d7-b661-7d3a69b012e3","system_id":"levelo_inurba_marseille","lat":43.297163,"lon":5.365866,"is_reserved":false,"is_disabled":false,"rental_uris":{"android":"levelo://app?vid=dd355086-8d20-46d7-b661-7d3a69b012e3","ios":"levelo://app?vid=dd355086-8d20-46d7-b661-7d3a69b012e3"},"vehicle_type_id":"4","last_reported":1703779736,"current_range_meters":20400,"station_id":"ce4bgn12rcd13ifvqbt0","pricing_plan_id":"free"},{"bike_id":"370cccf7-c9ba-46c2-819b-c8e8cacc4c21","system_id":"levelo_inurba_marseille","lat":43.3277,"lon":5.37458,"is_reserved":false,"is_disabled":false,"rental_uris":{"android":"levelo://app?vid=370cccf7-c9ba-46c2-819b-c8e8cacc4c21","ios":"levelo://app?vid=370cccf7-c9ba-46c2-819b-c8e8cacc4c21"},"vehicle_type_id":"4","last_reported":1703779736,"current_range_meters":18000,"station_id":"","pricing_plan_id":"free"},{"bike_id":"aa50bdd4-bc8d-4f49-a1c4-0dfbba481fda","system_id":"levelo_inurba_marseille","lat":43.2968,"lon":5.37291,"is_reserved":false,"is_disabled":false,"rental_uris":{"android":"levelo://app?vid=aa50bdd4-bc8d-4f49-a1c4-0dfbba481fda","ios":"levelo://app?vid=aa50bdd4-bc8d-4f49-a1c4-0dfbba481fda"},"vehicle_type_id":"4","last_reported":1703779736,"current_range_meters":14800,"station_id":"ce4bgk12rcd13ifvqbj0","pricing_plan_id":"free"},{"bike_id":"921b424d-ad0d-4c7a-9d74-66e3a49bfa19","system_id":"levelo_inurba_marseille","lat":43.32934,"lon":5.36612,"is_reserved":false,"is_disabled":false,"rental_uris":{"android":"levelo://app?vid=921b424d-ad0d-4c7a-9d74-66e3a49bfa19","ios":"levelo://app?vid=921b424d-ad0d-4c7a-9d74-66e3a49bfa19"},"vehicle_type_id":"4","last_reported":1703779736,"current_range_meters":12800,"station_id":"","pricing_plan_id":"free"},{"bike_id":"9c7f3eef-df2d-498f-8f69-bcce29206d22","system_id":"levelo_inurba_marseille","lat":43.29573,"lon":5.367355,"is_reserved":false,"is_disabled":false,"rental_uris":{"android":"levelo://app?vid=9c7f3eef-df2d-498f-8f69-bcce29206d22","ios":"levelo://app?vid=9c7f3eef-df2d-498f-8f69-bcce29206d22"},"vehicle_type_id":"4","last_reported":1703779736,"current_range_meters":5200,"station_id":"ce4bgph2rcd13ifvqc2g","pricing_plan_id":"free"},{"bike_id":"fe12131b-9d89-49e1-9fa8-e2d8b60cd247","system_id":"levelo_inurba_marseille","lat":43.29621,"lon":5.371808,"is_reserved":false,"is_disabled":false,"rental_uris":{"android":"levelo://app?vid=fe12131b-9d89-49e1-9fa8-e2d8b60cd247","ios":"levelo://app?vid=fe12131b-9d89-49e1-9fa8-e2d8b60cd247"},"vehicle_type_id":"4","last_reported":1703779736,"current_range_meters":17600,"station_id":"ce4bgnh2rcd13ifvqc0g","pricing_plan_id":"free"},{"bike_id":"c5bc0c77-a3f4-4402-a453-65ba7edd34b2","system_id":"levelo_inurba_marseille","lat":43.296935,"lon":5.376544,"is_reserved":false,"is_disabled":false,"rental_uris":{"android":"levelo://app?vid=c5bc0c77-a3f4-4402-a453-65ba7edd34b2","ios":"levelo://app?vid=c5bc0c77-a3f4-4402-a453-65ba7edd34b2"},"vehicle_type_id":"4","last_reported":1703779736,"current_range_meters":18000,"station_id":"ce4bgkh2rcd13ifvqbl0","pricing_plan_id":"free"},{"bike_id":"5812a5d6-c251-4ad3-896e-e14ebcd94d12","system_id":"levelo_inurba_marseille","lat":43.304278,"lon":5.388868,"is_reserved":false,"is_disabled":false,"rental_uris":{"android":"levelo://app?vid=5812a5d6-c251-4ad3-896e-e14ebcd94d12","ios":"levelo://app?vid=5812a5d6-c251-4ad3-896e-e14ebcd94d12"},"vehicle_type_id":"4","last_reported":1703779736,"current_range_meters":1200,"station_id":"ce4bgk12rcd13ifvqbi0","pricing_plan_id":"free"},{"bike_id":"2494a912-c3fb-415e-9e74-1bdd7b06f9b8","system_id":"levelo_inurba_marseille","lat":43.304278,"lon":5.388868,"is_reserved":false,"is_disabled":false,"rental_uris":{"android":"levelo://app?vid=2494a912-c3fb-415e-9e74-1bdd7b06f9b8","ios":"levelo://app?vid=2494a912-c3fb-415e-9e74-1bdd7b06f9b8"},"vehicle_type_id":"4","last_reported":1703779736,"current_range_meters":31200,"station_id":"ce4bgk12rcd13ifvqbi0","pricing_plan_id":"free"},{"bike_id":"2f18b94b-1789-438e-b3f0-f678e0134494","system_id":"levelo_inurba_marseille","lat":43.296263,"lon":5.377094,"is_reserved":false,"is_disabled":false,"rental_uris":{"android":"levelo://app?vid=2f18b94b-1789-438e-b3f0-f678e0134494","ios":"levelo://app?vid=2f18b94b-1789-438e-b3f0-f678e0134494"},"vehicle_type_id":"4","last_reported":1703779736,"current_range_meters":26000,"station_id":"ce4bgi92rcd13ifvqb90","pricing_plan_id":"free"},{"bike_id":"7a675c99-c5b4-43ff-a96d-be799f615319","system_id":"levelo_inurba_marseille","lat":43.296263,"lon":5.377094,"is_reserved":false,"is_disabled":false,"rental_uris":{"android":"levelo://app?vid=7a675c99-c5b4-43ff-a96d-be799f615319","ios":"levelo://app?vid=7a675c99-c5b4-43ff-a96d-be799f615319"},"vehicle_type_id":"4","last_reported":1703779736,"current_range_meters":24800,"station_id":"ce4bgi92rcd13ifvqb90","pricing_plan_id":"free"},{"bike_id":"7119845d-00aa-4d9f-be8c-fc97d41f1380","system_id":"levelo_inurba_marseille","lat":43.297594,"lon":5.381134,"is_reserved":false,"is_disabled":false,"rental_uris":{"android":"levelo://app?vid=7119845d-00aa-4d9f-be8c-fc97d41f1380","ios":"levelo://app?vid=7119845d-00aa-4d9f-be8c-fc97d41f1380"},"vehicle_type_id":"4","last_reported":1703779736,"current_range_meters":22800,"station_id":"ce4bgip2rcd13ifvqbb0","pricing_plan_id":"free"},{"bike_id":"2082ba13-6428-4b84-b848-912db428ebdc","system_id":"levelo_inurba_marseille","lat":43.295279,"lon":5.375048,"is_reserved":false,"is_disabled":false,"rental_uris":{"android":"levelo://app?vid=2082ba13-6428-4b84-b848-912db428ebdc","ios":"levelo://app?vid=2082ba13-6428-4b84-b848-912db428ebdc"},"vehicle_type_id":"4","last_reported":1703779736,"current_range_meters":22000,"station_id":"ce4bgkp2rcd13ifvqbmg","pricing_plan_id":"free"},{"bike_id":"1034e849-3377-40d0-8afb-7f15ae7bf543","system_id":"levelo_inurba_marseille","lat":43.295249,"lon":5.375001,"is_reserved":false,"is_disabled":false,"rental_uris":{"android":"levelo://app?vid=1034e849-3377-40d0-8afb-7f15ae7bf543","ios":"levelo://app?vid=1034e849-3377-40d0-8afb-7f15ae7bf543"},"vehicle_type_id":"4","last_reported":1703779736,"current_range_meters":24800,"station_id":"ce4bgkp2rcd13ifvqbmg","pricing_plan_id":"free"},{"bike_id":"9dcc1422-b58a-41e9-b2a2-fdd774146e86","system_id":"levelo_inurba_marseille","lat":43.29965,"lon":5.38496,"is_reserved":false,"is_disabled":false,"rental_uris":{"android":"levelo://app?vid=9dcc1422-b58a-41e9-b2a2-fdd774146e86","ios":"levelo://app?vid=9dcc1422-b58a-41e9-b2a2-fdd774146e86"},"vehicle_type_id":"4","last_reported":1703779736,"current_range_meters":2000,"station_id":"ce4bgj92rcd13ifvqbd0","pricing_plan_id":"free"},{"bike_id":"9842af2c-d961-4f8b-bb6e-e69d8719754e","system_id":"levelo_inurba_marseille","lat":43.32367,"lon":5.388836,"is_reserved":false,"is_disabled":false,"rental_uris":{"android":"levelo://app?vid=9842af2c-d961-4f8b-bb6e-e69d8719754e","ios":"levelo://app?vid=9842af2c-d961-4f8b-bb6e-e69d8719754e"},"vehicle_type_id":"4","last_reported":1703779736,"current_range_meters":14000,"station_id":"ce4bhqp2rcd13ifvqhog","pricing_plan_id":"free"},{"bike_id":"2bbaee49-efa7-4ddf-8f5a-328883c25138","system_id":"levelo_inurba_marseille","lat":43.29601,"lon":5.381084,"is_reserved":false,"is_disabled":false,"rental_uris":{"android":"levelo://app?vid=2bbaee49-efa7-4ddf-8f5a-328883c25138","ios":"levelo://app?vid=2bbaee49-efa7-4ddf-8f5a-328883c25138"},"vehicle_type_id":"4","last_reported":1703779736,"current_range_meters":18400,"station_id":"ce4bgl12rcd13ifvqbo0","pricing_plan_id":"free"},{"bike_id":"69985dda-ef71-41fd-9bf0-375961578448","system_id":"levelo_inurba_marseille","lat":43.29311,"lon":5.37173,"is_reserved":false,"is_disabled":false,"rental_uris":{"android":"levelo://app?vid=69985dda-ef71-41fd-9bf0-375961578448","ios":"levelo://app?vid=69985dda-ef71-41fd-9bf0-375961578448"},"vehicle_type_id":"4","last_reported":1703779736,"current_range_meters":11200,"station_id":"ce4bgh92rcd13ifvqb40","pricing_plan_id":"free"},{"bike_id":"9948b784-b1b8-4a00-8735-ddf431ad6f8a","system_id":"levelo_inurba_marseille","lat":43.293249,"lon":5.371578,"is_reserved":false,"is_disabled":false,"rental_uris":{"android":"levelo://app?vid=9948b784-b1b8-4a00-8735-ddf431ad6f8a","ios":"levelo://app?vid=9948b784-b1b8-4a00-8735-ddf431ad6f8a"},"vehicle_type_id":"4","last_reported":1703779736,"current_range_meters":16000,"station_id":"ce4bgh92rcd13ifvqb40","pricing_plan_id":"free"},{"bike_id":"64f3fb52-664e-4a2c-ad5d-cdf51442a1a2","system_id":"levelo_inurba_marseille","lat":43.29272,"lon":5.36846,"is_reserved":false,"is_disabled":false,"rental_uris":{"android":"levelo://app?vid=64f3fb52-664e-4a2c-ad5d-cdf51442a1a2","ios":"levelo://app?vid=64f3fb52-664e-4a2c-ad5d-cdf51442a1a2"},"vehicle_type_id":"4","last_reported":1703779736,"current_range_meters":17600,"station_id":"ce4bhbp2rcd13ifvqesg","pricing_plan_id":"free"},{"bike_id":"0e2291a8-7b37-4527-9ea1-293405695969","system_id":"levelo_inurba_marseille","lat":43.305994,"lon":5.393687,"is_reserved":false,"is_disabled":false,"rental_uris":{"android":"levelo://app?vid=0e2291a8-7b37-4527-9ea1-293405695969","ios":"levelo://app?vid=0e2291a8-7b37-4527-9ea1-293405695969"},"vehicle_type_id":"4","last_reported":1703779736,"current_range_meters":2800,"station_id":"ce4bh0p2rcd13ifvqd80","pricing_plan_id":"free"},{"bike_id":"b02fb399-3837-401a-a78e-5aacce99e09b","system_id":"levelo_inurba_marseille","lat":43.293009,"lon":5.374584,"is_reserved":false,"is_disabled":false,"rental_uris":{"android":"levelo://app?vid=b02fb399-3837-401a-a78e-5aacce99e09b","ios":"levelo://app?vid=b02fb399-3837-401a-a78e-5aacce99e09b"},"vehicle_type_id":"4","last_reported":1703779736,"current_range_meters":2000,"station_id":"ce4bgi12rcd13ifvqb70","pricing_plan_id":"free"},{"bike_id":"badc7fbe-f462-4452-9779-47b6a9f839e0","system_id":"levelo_inurba_marseille","lat":43.293009,"lon":5.374584,"is_reserved":false,"is_disabled":false,"rental_uris":{"android":"levelo://app?vid=badc7fbe-f462-4452-9779-47b6a9f839e0","ios":"levelo://app?vid=badc7fbe-f462-4452-9779-47b6a9f839e0"},"vehicle_type_id":"4","last_reported":1703779736,"current_range_meters":26400,"station_id":"ce4bgi12rcd13ifvqb70","pricing_plan_id":"free"},{"bike_id":"6fcabab7-4f10-4128-a8ca-ffbe3f392680","system_id":"levelo_inurba_marseille","lat":43.303002,"lon":5.392142,"is_reserved":false,"is_disabled":false,"rental_uris":{"android":"levelo://app?vid=6fcabab7-4f10-4128-a8ca-ffbe3f392680","ios":"levelo://app?vid=6fcabab7-4f10-4128-a8ca-ffbe3f392680"},"vehicle_type_id":"4","last_reported":1703779736,"current_range_meters":20400,"station_id":"ce4bgkh2rcd13ifvqbk0","pricing_plan_id":"free"},{"bike_id":"89c40eef-9a0f-4574-9157-1d5eecdf2dc5","system_id":"levelo_inurba_marseille","lat":43.291671,"lon":5.371575,"is_reserved":false,"is_disabled":false,"rental_uris":{"android":"levelo://app?vid=89c40eef-9a0f-4574-9157-1d5eecdf2dc5","ios":"levelo://app?vid=89c40eef-9a0f-4574-9157-1d5eecdf2dc5"},"vehicle_type_id":"4","last_reported":1703779736,"current_range_meters":22400,"station_id":"ce4bha92rcd13ifvqeh0","pricing_plan_id":"free"},{"bike_id":"b2873774-7dd7-470a-ae93-07a4d51c90db","system_id":"levelo_inurba_marseille","lat":43.298817,"lon":5.388987,"is_reserved":false,"is_disabled":false,"rental_uris":{"android":"levelo://app?vid=b2873774-7dd7-470a-ae93-07a4d51c90db","ios":"levelo://app?vid=b2873774-7dd7-470a-ae93-07a4d51c90db"},"vehicle_type_id":"4","last_reported":1703779736,"current_range_meters":24000,"station_id":"","pricing_plan_id":"free"},{"bike_id":"da0eed94-9481-425f-983b-d7dcd05e44d7","system_id":"levelo_inurba_marseille","lat":43.29867,"lon":5.38918,"is_reserved":false,"is_disabled":false,"rental_uris":{"android":"levelo://app?vid=da0eed94-9481-425f-983b-d7dcd05e44d7","ios":"levelo://app?vid=da0eed94-9481-425f-983b-d7dcd05e44d7"},"vehicle_type_id":"4","last_reported":1703779736,"current_range_meters":12400,"station_id":"","pricing_plan_id":"free"},{"bike_id":"c6712266-f422-4a48-baf1-2c0ea88edfb8","system_id":"levelo_inurba_marseille","lat":43.313291,"lon":5.396838,"is_reserved":false,"is_disabled":false,"rental_uris":{"android":"levelo://app?vid=c6712266-f422-4a48-baf1-2c0ea88edfb8","ios":"levelo://app?vid=c6712266-f422-4a48-baf1-2c0ea88edfb8"},"vehicle_type_id":"4","last_reported":1703779736,"current_range_meters":1200,"station_id":"ce4bgvp2rcd13ifvqcu0","pricing_plan_id":"free"},{"bike_id":"38631bbe-9cfc-46ac-85ab-fd09a93e2301","system_id":"levelo_inurba_marseille","lat":43.309038,"lon":5.396546,"is_reserved":false,"is_disabled":false,"rental_uris":{"android":"levelo://app?vid=38631bbe-9cfc-46ac-85ab-fd09a93e2301","ios":"levelo://app?vid=38631bbe-9cfc-46ac-85ab-fd09a93e2301"},"vehicle_type_id":"4","last_reported":1703779736,"current_range_meters":7200,"station_id":"ce4bh012rcd13ifvqcv0","pricing_plan_id":"free"},{"bike_id":"692759b8-3e85-437c-8a64-83d4e312a6ba","system_id":"levelo_inurba_marseille","lat":43.309047,"lon":5.396551,"is_reserved":false,"is_disabled":false,"rental_uris":{"android":"levelo://app?vid=692759b8-3e85-437c-8a64-83d4e312a6ba","ios":"levelo://app?vid=692759b8-3e85-437c-8a64-83d4e312a6ba"},"vehicle_type_id":"4","last_reported":1703779736,"current_range_meters":28400,"station_id":"ce4bh012rcd13ifvqcv0","pricing_plan_id":"free"},{"bike_id":"b8f99e3d-5e83-4005-8697-c8771bf0eee8","system_id":"levelo_inurba_marseille","lat":43.313291,"lon":5.396838,"is_reserved":false,"is_disabled":false,"rental_uris":{"android":"levelo://app?vid=b8f99e3d-5e83-4005-8697-c8771bf0eee8","ios":"levelo://app?vid=b8f99e3d-5e83-4005-8697-c8771bf0eee8"},"vehicle_type_id":"4","last_reported":1703779736,"current_range_meters":10000,"station_id":"ce4bgvp2rcd13ifvqcu0","pricing_plan_id":"free"},{"bike_id":"b1f7e76f-fbcd-4afe-aea0-ade72a84dcca","system_id":"levelo_inurba_marseille","lat":43.29529,"lon":5.385581,"is_reserved":false,"is_disabled":false,"rental_uris":{"android":"levelo://app?vid=b1f7e76f-fbcd-4afe-aea0-ade72a84dcca","ios":"levelo://app?vid=b1f7e76f-fbcd-4afe-aea0-ade72a84dcca"},"vehicle_type_id":"4","last_reported":1703779736,"current_range_meters":19600,"station_id":"ce4bgih2rcd13ifvqba0","pricing_plan_id":"free"},{"bike_id":"67982e55-80fd-4bb7-bc39-3e2f68ec7ec3","system_id":"levelo_inurba_marseille","lat":43.29529,"lon":5.385581,"is_reserved":false,"is_disabled":false,"rental_uris":{"android":"levelo://app?vid=67982e55-80fd-4bb7-bc39-3e2f68ec7ec3","ios":"levelo://app?vid=67982e55-80fd-4bb7-bc39-3e2f68ec7ec3"},"vehicle_type_id":"4","last_reported":1703779736,"current_range_meters":21600,"station_id":"ce4bgih2rcd13ifvqba0","pricing_plan_id":"free"},{"bike_id":"c823f097-0b92-4353-81d0-b8611eb29a1c","system_id":"levelo_inurba_marseille","lat":43.290779,"lon":5.371482,"is_reserved":false,"is_disabled":false,"rental_uris":{"android":"levelo://app?vid=c823f097-0b92-4353-81d0-b8611eb29a1c","ios":"levelo://app?vid=c823f097-0b92-4353-81d0-b8611eb29a1c"},"vehicle_type_id":"4","last_reported":1703779736,"current_range_meters":24400,"station_id":"ce4bh5p2rcd13ifvqe4g","pricing_plan_id":"free"},{"bike_id":"8db8fb56-35b8-4910-86cd-00d2454da5d3","system_id":"levelo_inurba_marseille","lat":43.294153,"lon":5.386305,"is_reserved":false,"is_disabled":false,"rental_uris":{"android":"levelo://app?vid=8db8fb56-35b8-4910-86cd-00d2454da5d3","ios":"levelo://app?vid=8db8fb56-35b8-4910-86cd-00d2454da5d3"},"vehicle_type_id":"4","last_reported":1703779736,"current_range_meters":4000,"station_id":"ce4bh2h2rcd13ifvqdh0","pricing_plan_id":"free"},{"bike_id":"f695f7a1-e2c3-4c38-8ded-f3bf872c4d1f","system_id":"levelo_inurba_marseille","lat":43.292642,"lon":5.384254,"is_reserved":false,"is_disabled":false,"rental_uris":{"android":"levelo://app?vid=f695f7a1-e2c3-4c38-8ded-f3bf872c4d1f","ios":"levelo://app?vid=f695f7a1-e2c3-4c38-8ded-f3bf872c4d1f"},"vehicle_type_id":"4","last_reported":1703779736,"current_range_meters":5200,"station_id":"ce4bh692rcd13ifvqea0","pricing_plan_id":"free"},{"bike_id":"495faf64-a935-4c6e-b77f-2b296d14493a","system_id":"levelo_inurba_marseille","lat":43.331017,"lon":5.389194,"is_reserved":false,"is_disabled":false,"rental_uris":{"android":"levelo://app?vid=495faf64-a935-4c6e-b77f-2b296d14493a","ios":"levelo://app?vid=495faf64-a935-4c6e-b77f-2b296d14493a"},"vehicle_type_id":"4","last_reported":1703779736,"current_range_meters":11200,"station_id":"","pricing_plan_id":"free"},{"bike_id":"2506bc51-8360-4e64-a2ec-ddae1073c1a7","system_id":"levelo_inurba_marseille","lat":43.2897,"lon":5.37822,"is_reserved":false,"is_disabled":false,"rental_uris":{"android":"levelo://app?vid=2506bc51-8360-4e64-a2ec-ddae1073c1a7","ios":"levelo://app?vid=2506bc51-8360-4e64-a2ec-ddae1073c1a7"},"vehicle_type_id":"4","last_reported":1703779736,"current_range_meters":30400,"station_id":"ce4bh9p2rcd13ifvqed0","pricing_plan_id":"free"},{"bike_id":"db7d3e11-bb36-45a9-84b2-5af81072e73e","system_id":"levelo_inurba_marseille","lat":43.330442,"lon":5.389148,"is_reserved":false,"is_disabled":false,"rental_uris":{"android":"levelo://app?vid=db7d3e11-bb36-45a9-84b2-5af81072e73e","ios":"levelo://app?vid=db7d3e11-bb36-45a9-84b2-5af81072e73e"},"vehicle_type_id":"4","last_reported":1703779736,"current_range_meters":17200,"station_id":"ce4bhr92rcd13ifvqhrg","pricing_plan_id":"free"},{"bike_id":"a21ed9ea-d972-4d76-a894-e150789f2a0c","system_id":"levelo_inurba_marseille","lat":43.295169,"lon":5.390426,"is_reserved":false,"is_disabled":false,"rental_uris":{"android":"levelo://app?vid=a21ed9ea-d972-4d76-a894-e150789f2a0c","ios":"levelo://app?vid=a21ed9ea-d972-4d76-a894-e150789f2a0c"},"vehicle_type_id":"4","last_reported":1703779736,"current_range_meters":28000,"station_id":"ce4bh3p2rcd13ifvqdp0","pricing_plan_id":"free"},{"bike_id":"e7e5b367-b928-4b3e-b05f-87b6b3716e8c","system_id":"levelo_inurba_marseille","lat":43.330615,"lon":5.390263,"is_reserved":false,"is_disabled":false,"rental_uris":{"android":"levelo://app?vid=e7e5b367-b928-4b3e-b05f-87b6b3716e8c","ios":"levelo://app?vid=e7e5b367-b928-4b3e-b05f-87b6b3716e8c"},"vehicle_type_id":"4","last_reported":1703779736,"current_range_meters":28000,"station_id":"","pricing_plan_id":"free"},{"bike_id":"8f7b4057-091a-42b7-9424-35e528488473","system_id":"levelo_inurba_marseille","lat":43.28856,"lon":5.358371,"is_reserved":false,"is_disabled":false,"rental_uris":{"android":"levelo://app?vid=8f7b4057-091a-42b7-9424-35e528488473","ios":"levelo://app?vid=8f7b4057-091a-42b7-9424-35e528488473"},"vehicle_type_id":"4","last_reported":1703779736,"current_range_meters":25600,"station_id":"ce4bhb12rcd13ifvqem0","pricing_plan_id":"free"},{"bike_id":"2bb16bff-891e-4861-b20e-f4073029b2f7","system_id":"levelo_inurba_marseille","lat":43.337414,"lon":5.374509,"is_reserved":false,"is_disabled":false,"rental_uris":{"android":"levelo://app?vid=2bb16bff-891e-4861-b20e-f4073029b2f7","ios":"levelo://app?vid=2bb16bff-891e-4861-b20e-f4073029b2f7"},"vehicle_type_id":"4","last_reported":1703779736,"current_range_meters":27600,"station_id":"","pricing_plan_id":"free"},{"bike_id":"3714f51a-efb2-4988-a9b9-167c8d23b4d6","system_id":"levelo_inurba_marseille","lat":43.337444,"lon":5.374475,"is_reserved":false,"is_disabled":false,"rental_uris":{"android":"levelo://app?vid=3714f51a-efb2-4988-a9b9-167c8d23b4d6","ios":"levelo://app?vid=3714f51a-efb2-4988-a9b9-167c8d23b4d6"},"vehicle_type_id":"4","last_reported":1703779736,"current_range_meters":28000,"station_id":"","pricing_plan_id":"free"},{"bike_id":"5423f3ce-53b4-4936-98a7-69b3cb9b1929","system_id":"levelo_inurba_marseille","lat":43.312609,"lon":5.401662,"is_reserved":false,"is_disabled":false,"rental_uris":{"android":"levelo://app?vid=5423f3ce-53b4-4936-98a7-69b3cb9b1929","ios":"levelo://app?vid=5423f3ce-53b4-4936-98a7-69b3cb9b1929"},"vehicle_type_id":"4","last_reported":1703779736,"current_range_meters":18400,"station_id":"ce4bh092rcd13ifvqd30","pricing_plan_id":"free"},{"bike_id":"7abcbf24-3a33-42f7-83ff-33b36936a38c","system_id":"levelo_inurba_marseille","lat":43.31275,"lon":5.40174,"is_reserved":false,"is_disabled":false,"rental_uris":{"android":"levelo://app?vid=7abcbf24-3a33-42f7-83ff-33b36936a38c","ios":"levelo://app?vid=7abcbf24-3a33-42f7-83ff-33b36936a38c"},"vehicle_type_id":"4","last_reported":1703779736,"current_range_meters":0,"station_id":"ce4bh092rcd13ifvqd30","pricing_plan_id":"free"},{"bike_id":"45e9d267-5c57-452e-993a-c6c7fa826b87","system_id":"levelo_inurba_marseille","lat":43.33752,"lon":5.37443,"is_reserved":false,"is_disabled":false,"rental_uris":{"android":"levelo://app?vid=45e9d267-5c57-452e-993a-c6c7fa826b87","ios":"levelo://app?vid=45e9d267-5c57-452e-993a-c6c7fa826b87"},"vehicle_type_id":"4","last_reported":1703779736,"current_range_meters":22800,"station_id":"","pricing_plan_id":"free"},{"bike_id":"107d1d6e-bc6b-4a1f-8a8a-71ac52fd488f","system_id":"levelo_inurba_marseille","lat":43.337529,"lon":5.374646,"is_reserved":false,"is_disabled":false,"rental_uris":{"android":"levelo://app?vid=107d1d6e-bc6b-4a1f-8a8a-71ac52fd488f","ios":"levelo://app?vid=107d1d6e-bc6b-4a1f-8a8a-71ac52fd488f"},"vehicle_type_id":"4","last_reported":1703779736,"current_range_meters":24800,"station_id":"","pricing_plan_id":"free"},{"bike_id":"6eb442ad-0b63-4ae4-9d63-3882104d3e25","system_id":"levelo_inurba_marseille","lat":43.33757,"lon":5.3745,"is_reserved":false,"is_disabled":false,"rental_uris":{"android":"levelo://app?vid=6eb442ad-0b63-4ae4-9d63-3882104d3e25","ios":"levelo://app?vid=6eb442ad-0b63-4ae4-9d63-3882104d3e25"},"vehicle_type_id":"4","last_reported":1703779736,"current_range_meters":24000,"station_id":"","pricing_plan_id":"free"},{"bike_id":"38a8720a-3482-45e9-8b05-47a0bef75ca6","system_id":"levelo_inurba_marseille","lat":43.337642,"lon":5.374488,"is_reserved":false,"is_disabled":false,"rental_uris":{"android":"levelo://app?vid=38a8720a-3482-45e9-8b05-47a0bef75ca6","ios":"levelo://app?vid=38a8720a-3482-45e9-8b05-47a0bef75ca6"},"vehicle_type_id":"4","last_reported":1703779736,"current_range_meters":14800,"station_id":"","pricing_plan_id":"free"},{"bike_id":"612bc1b5-7068-4057-9b9d-4fbfc4e21417","system_id":"levelo_inurba_marseille","lat":43.337732,"lon":5.374129,"is_reserved":false,"is_disabled":false,"rental_uris":{"android":"levelo://app?vid=612bc1b5-7068-4057-9b9d-4fbfc4e21417","ios":"levelo://app?vid=612bc1b5-7068-4057-9b9d-4fbfc4e21417"},"vehicle_type_id":"4","last_reported":1703779736,"current_range_meters":28400,"station_id":"ce4rr2p2rcd13i802rgg","pricing_plan_id":"free"},{"bike_id":"981f9dbf-5820-453e-beb6-8bbddd90c1d2","system_id":"levelo_inurba_marseille","lat":43.337715,"lon":5.374464,"is_reserved":false,"is_disabled":false,"rental_uris":{"android":"levelo://app?vid=981f9dbf-5820-453e-beb6-8bbddd90c1d2","ios":"levelo://app?vid=981f9dbf-5820-453e-beb6-8bbddd90c1d2"},"vehicle_type_id":"4","last_reported":1703779736,"current_range_meters":24400,"station_id":"","pricing_plan_id":"free"},{"bike_id":"a2829586-b00b-4e4c-aa15-01bf3f26082a","system_id":"levelo_inurba_marseille","lat":43.306412,"lon":5.401035,"is_reserved":false,"is_disabled":false,"rental_uris":{"android":"levelo://app?vid=a2829586-b00b-4e4c-aa15-01bf3f26082a","ios":"levelo://app?vid=a2829586-b00b-4e4c-aa15-01bf3f26082a"},"vehicle_type_id":"4","last_reported":1703779736,"current_range_meters":26400,"station_id":"ce4bh112rcd13ifvqda0","pricing_plan_id":"free"},{"bike_id":"8158be8b-5091-423d-a211-a87c7cdb3fe9","system_id":"levelo_inurba_marseille","lat":43.301117,"lon":5.398795,"is_reserved":false,"is_disabled":false,"rental_uris":{"android":"levelo://app?vid=8158be8b-5091-423d-a211-a87c7cdb3fe9","ios":"levelo://app?vid=8158be8b-5091-423d-a211-a87c7cdb3fe9"},"vehicle_type_id":"4","last_reported":1703779736,"current_range_meters":29600,"station_id":"ce4bh0h2rcd13ifvqd40","pricing_plan_id":"free"},{"bike_id":"75e210a8-9fed-450d-8719-85be3927da72","system_id":"levelo_inurba_marseille","lat":43.295196,"lon":5.39397,"is_reserved":false,"is_disabled":false,"rental_uris":{"android":"levelo://app?vid=75e210a8-9fed-450d-8719-85be3927da72","ios":"levelo://app?vid=75e210a8-9fed-450d-8719-85be3927da72"},"vehicle_type_id":"4","last_reported":1703779736,"current_range_meters":7200,"station_id":"ce4bh292rcd13ifvqdf0","pricing_plan_id":"free"},{"bike_id":"e5992557-a42b-43db-b8f5-7276c68ddc8b","system_id":"levelo_inurba_marseille","lat":43.28778,"lon":5.37889,"is_reserved":false,"is_disabled":false,"rental_uris":{"android":"levelo://app?vid=e5992557-a42b-43db-b8f5-7276c68ddc8b","ios":"levelo://app?vid=e5992557-a42b-43db-b8f5-7276c68ddc8b"},"vehicle_type_id":"4","last_reported":1703779736,"current_range_meters":20400,"station_id":"","pricing_plan_id":"free"},{"bike_id":"e45f7475-3792-42dd-ae96-828e0ce6fed3","system_id":"levelo_inurba_marseille","lat":43.289307,"lon":5.38406,"is_reserved":false,"is_disabled":false,"rental_uris":{"android":"levelo://app?vid=e45f7475-3792-42dd-ae96-828e0ce6fed3","ios":"levelo://app?vid=e45f7475-3792-42dd-ae96-828e0ce6fed3"},"vehicle_type_id":"4","last_reported":1703779736,"current_range_meters":30000,"station_id":"ce4bh612rcd13ifvqe6g","pricing_plan_id":"free"},{"bike_id":"0395182d-3613-4a82-bab1-34f24a9429de","system_id":"levelo_inurba_marseille","lat":43.289307,"lon":5.38406,"is_reserved":false,"is_disabled":false,"rental_uris":{"android":"levelo://app?vid=0395182d-3613-4a82-bab1-34f24a9429de","ios":"levelo://app?vid=0395182d-3613-4a82-bab1-34f24a9429de"},"vehicle_type_id":"4","last_reported":1703779736,"current_range_meters":7600,"station_id":"ce4bh612rcd13ifvqe6g","pricing_plan_id":"free"},{"bike_id":"36f78bca-d05e-464b-98c2-de064984711d","system_id":"levelo_inurba_marseille","lat":43.28612,"lon":5.37071,"is_reserved":false,"is_disabled":false,"rental_uris":{"android":"levelo://app?vid=36f78bca-d05e-464b-98c2-de064984711d","ios":"levelo://app?vid=36f78bca-d05e-464b-98c2-de064984711d"},"vehicle_type_id":"4","last_reported":1703779736,"current_range_meters":20400,"station_id":"","pricing_plan_id":"free"},{"bike_id":"92a9e10e-0ced-44f3-809c-31da9c9dac91","system_id":"levelo_inurba_marseille","lat":43.287184,"lon":5.37937,"is_reserved":false,"is_disabled":false,"rental_uris":{"android":"levelo://app?vid=92a9e10e-0ced-44f3-809c-31da9c9dac91","ios":"levelo://app?vid=92a9e10e-0ced-44f3-809c-31da9c9dac91"},"vehicle_type_id":"4","last_reported":1703779736,"current_range_meters":16000,"station_id":"ce4bh9p2rcd13ifvqec0","pricing_plan_id":"free"},{"bike_id":"aac00441-5e5c-4474-92e6-e699a3867bae","system_id":"levelo_inurba_marseille","lat":43.285754,"lon":5.360249,"is_reserved":false,"is_disabled":false,"rental_uris":{"android":"levelo://app?vid=aac00441-5e5c-4474-92e6-e699a3867bae","ios":"levelo://app?vid=aac00441-5e5c-4474-92e6-e699a3867bae"},"vehicle_type_id":"4","last_reported":1703779736,"current_range_meters":30000,"station_id":"","pricing_plan_id":"free"},{"bike_id":"5f7d2461-aea2-4049-84d4-1faa0f3c6ab6","system_id":"levelo_inurba_marseille","lat":43.285856,"lon":5.350771,"is_reserved":false,"is_disabled":false,"rental_uris":{"android":"levelo://app?vid=5f7d2461-aea2-4049-84d4-1faa0f3c6ab6","ios":"levelo://app?vid=5f7d2461-aea2-4049-84d4-1faa0f3c6ab6"},"vehicle_type_id":"4","last_reported":1703779736,"current_range_meters":22800,"station_id":"ce4bhch2rcd13ifvqeug","pricing_plan_id":"free"},{"bike_id":"5b30995e-d258-4ad0-b1b6-71de1f63c18b","system_id":"levelo_inurba_marseille","lat":43.295713,"lon":5.399639,"is_reserved":false,"is_disabled":false,"rental_uris":{"android":"levelo://app?vid=5b30995e-d258-4ad0-b1b6-71de1f63c18b","ios":"levelo://app?vid=5b30995e-d258-4ad0-b1b6-71de1f63c18b"},"vehicle_type_id":"4","last_reported":1703779736,"current_range_meters":10000,"station_id":"ce4bh312rcd13ifvqdj0","pricing_plan_id":"free"},{"bike_id":"7510080d-af49-4281-80b0-457720854c57","system_id":"levelo_inurba_marseille","lat":43.28741,"lon":5.38986,"is_reserved":false,"is_disabled":false,"rental_uris":{"android":"levelo://app?vid=7510080d-af49-4281-80b0-457720854c57","ios":"levelo://app?vid=7510080d-af49-4281-80b0-457720854c57"},"vehicle_type_id":"4","last_reported":1703779736,"current_range_meters":0,"station_id":"","pricing_plan_id":"free"},{"bike_id":"88a90eb6-df1d-4c20-8e42-f03f5a6f3a0d","system_id":"levelo_inurba_marseille","lat":43.33725,"lon":5.391808,"is_reserved":false,"is_disabled":false,"rental_uris":{"android":"levelo://app?vid=88a90eb6-df1d-4c20-8e42-f03f5a6f3a0d","ios":"levelo://app?vid=88a90eb6-df1d-4c20-8e42-f03f5a6f3a0d"},"vehicle_type_id":"4","last_reported":1703779736,"current_range_meters":11200,"station_id":"ce4bhr92rcd13ifvqhsg","pricing_plan_id":"free"},{"bike_id":"36ee44ba-0749-4dbe-8ded-ef6d8c09803e","system_id":"levelo_inurba_marseille","lat":43.284793,"lon":5.384113,"is_reserved":false,"is_disabled":false,"rental_uris":{"android":"levelo://app?vid=36ee44ba-0749-4dbe-8ded-ef6d8c09803e","ios":"levelo://app?vid=36ee44ba-0749-4dbe-8ded-ef6d8c09803e"},"vehicle_type_id":"4","last_reported":1703779736,"current_range_meters":18800,"station_id":"ce4bh512rcd13ifvqe3g","pricing_plan_id":"free"},{"bike_id":"7f505524-5424-4d2d-98ec-c2c5207fab98","system_id":"levelo_inurba_marseille","lat":43.284787,"lon":5.384116,"is_reserved":false,"is_disabled":false,"rental_uris":{"android":"levelo://app?vid=7f505524-5424-4d2d-98ec-c2c5207fab98","ios":"levelo://app?vid=7f505524-5424-4d2d-98ec-c2c5207fab98"},"vehicle_type_id":"4","last_reported":1703779736,"current_range_meters":18400,"station_id":"ce4bh512rcd13ifvqe3g","pricing_plan_id":"free"},{"bike_id":"a31f92b7-8ebf-4351-ba1e-84c31edd71d9","system_id":"levelo_inurba_marseille","lat":43.29795,"lon":5.404086,"is_reserved":false,"is_disabled":false,"rental_uris":{"android":"levelo://app?vid=a31f92b7-8ebf-4351-ba1e-84c31edd71d9","ios":"levelo://app?vid=a31f92b7-8ebf-4351-ba1e-84c31edd71d9"},"vehicle_type_id":"4","last_reported":1703779736,"current_range_meters":9600,"station_id":"ce4bh112rcd13ifvqd90","pricing_plan_id":"free"},{"bike_id":"e01ba3ab-0fc8-4255-a4c5-2fe23c143144","system_id":"levelo_inurba_marseille","lat":43.297946,"lon":5.404063,"is_reserved":false,"is_disabled":false,"rental_uris":{"android":"levelo://app?vid=e01ba3ab-0fc8-4255-a4c5-2fe23c143144","ios":"levelo://app?vid=e01ba3ab-0fc8-4255-a4c5-2fe23c143144"},"vehicle_type_id":"4","last_reported":1703779736,"current_range_meters":25600,"station_id":"ce4bh112rcd13ifvqd90","pricing_plan_id":"free"},{"bike_id":"91b881b1-acf0-4894-8cb2-b50d5ffba98f","system_id":"levelo_inurba_marseille","lat":43.283494,"lon":5.380945,"is_reserved":false,"is_disabled":false,"rental_uris":{"android":"levelo://app?vid=91b881b1-acf0-4894-8cb2-b50d5ffba98f","ios":"levelo://app?vid=91b881b1-acf0-4894-8cb2-b50d5ffba98f"},"vehicle_type_id":"4","last_reported":1703779736,"current_range_meters":28800,"station_id":"ce4bh412rcd13ifvqdr0","pricing_plan_id":"free"},{"bike_id":"e485450b-2736-4f4c-b94b-0da5a69b88aa","system_id":"levelo_inurba_marseille","lat":43.33385,"lon":5.39822,"is_reserved":false,"is_disabled":false,"rental_uris":{"android":"levelo://app?vid=e485450b-2736-4f4c-b94b-0da5a69b88aa","ios":"levelo://app?vid=e485450b-2736-4f4c-b94b-0da5a69b88aa"},"vehicle_type_id":"4","last_reported":1703779736,"current_range_meters":14400,"station_id":"","pricing_plan_id":"free"},{"bike_id":"fd806734-020d-49ee-bc45-e6b7119917ff","system_id":"levelo_inurba_marseille","lat":43.284219,"lon":5.3497,"is_reserved":false,"is_disabled":false,"rental_uris":{"android":"levelo://app?vid=fd806734-020d-49ee-bc45-e6b7119917ff","ios":"levelo://app?vid=fd806734-020d-49ee-bc45-e6b7119917ff"},"vehicle_type_id":"4","last_reported":1703779736,"current_range_meters":27600,"station_id":"ce4bhbh2rcd13ifvqepg","pricing_plan_id":"free"},{"bike_id":"d60802d6-4f47-444a-b234-883690eec05b","system_id":"levelo_inurba_marseille","lat":43.33421,"lon":5.39786,"is_reserved":false,"is_disabled":false,"rental_uris":{"android":"levelo://app?vid=d60802d6-4f47-444a-b234-883690eec05b","ios":"levelo://app?vid=d60802d6-4f47-444a-b234-883690eec05b"},"vehicle_type_id":"4","last_reported":1703779736,"current_range_meters":29200,"station_id":"","pricing_plan_id":"free"},{"bike_id":"ecda46e4-3f16-4fda-b2dc-2b2f0c151d40","system_id":"levelo_inurba_marseille","lat":43.289363,"lon":5.396322,"is_reserved":false,"is_disabled":false,"rental_uris":{"android":"levelo://app?vid=ecda46e4-3f16-4fda-b2dc-2b2f0c151d40","ios":"levelo://app?vid=ecda46e4-3f16-4fda-b2dc-2b2f0c151d40"},"vehicle_type_id":"4","last_reported":1703779736,"current_range_meters":13600,"station_id":"ce4bh3h2rcd13ifvqdn0","pricing_plan_id":"free"},{"bike_id":"355f40af-3874-497e-8258-9139f2cf3796","system_id":"levelo_inurba_marseille","lat":43.292569,"lon":5.409107,"is_reserved":false,"is_disabled":false,"rental_uris":{"android":"levelo://app?vid=355f40af-3874-497e-8258-9139f2cf3796","ios":"levelo://app?vid=355f40af-3874-497e-8258-9139f2cf3796"},"vehicle_type_id":"4","last_reported":1703779736,"current_range_meters":24800,"station_id":"ce4bh192rcd13ifvqdc0","pricing_plan_id":"free"},{"bike_id":"a8021269-03e6-40a6-be35-4b2d3d6c1987","system_id":"levelo_inurba_marseille","lat":43.292724,"lon":5.401131,"is_reserved":false,"is_disabled":false,"rental_uris":{"android":"levelo://app?vid=a8021269-03e6-40a6-be35-4b2d3d6c1987","ios":"levelo://app?vid=a8021269-03e6-40a6-be35-4b2d3d6c1987"},"vehicle_type_id":"4","last_reported":1703779736,"current_range_meters":15200,"station_id":"ce4bh312rcd13ifvqdk0","pricing_plan_id":"free"},{"bike_id":"a9228b4b-f1fb-4bbf-9194-3f17631031c6","system_id":"levelo_inurba_marseille","lat":43.292724,"lon":5.401131,"is_reserved":false,"is_disabled":false,"rental_uris":{"android":"levelo://app?vid=a9228b4b-f1fb-4bbf-9194-3f17631031c6","ios":"levelo://app?vid=a9228b4b-f1fb-4bbf-9194-3f17631031c6"},"vehicle_type_id":"4","last_reported":1703779736,"current_range_meters":24400,"station_id":"ce4bh312rcd13ifvqdk0","pricing_plan_id":"free"},{"bike_id":"674e6c45-e3fa-46b2-95ea-6cbc59ce31db","system_id":"levelo_inurba_marseille","lat":43.283502,"lon":5.386471,"is_reserved":false,"is_disabled":false,"rental_uris":{"android":"levelo://app?vid=674e6c45-e3fa-46b2-95ea-6cbc59ce31db","ios":"levelo://app?vid=674e6c45-e3fa-46b2-95ea-6cbc59ce31db"},"vehicle_type_id":"4","last_reported":1703779736,"current_range_meters":1200,"station_id":"ce4bh492rcd13ifvqdvg","pricing_plan_id":"free"},{"bike_id":"3a55048b-b221-4797-b2c4-03777f171bb4","system_id":"levelo_inurba_marseille","lat":43.282744,"lon":5.350533,"is_reserved":false,"is_disabled":false,"rental_uris":{"android":"levelo://app?vid=3a55048b-b221-4797-b2c4-03777f171bb4","ios":"levelo://app?vid=3a55048b-b221-4797-b2c4-03777f171bb4"},"vehicle_type_id":"4","last_reported":1703779736,"current_range_meters":6400,"station_id":"ce4bhbp2rcd13ifvqerg","pricing_plan_id":"free"},{"bike_id":"7da277c9-6e33-4f64-ab45-8f334901ba9e","system_id":"levelo_inurba_marseille","lat":43.282744,"lon":5.350533,"is_reserved":false,"is_disabled":false,"rental_uris":{"android":"levelo://app?vid=7da277c9-6e33-4f64-ab45-8f334901ba9e","ios":"levelo://app?vid=7da277c9-6e33-4f64-ab45-8f334901ba9e"},"vehicle_type_id":"4","last_reported":1703779736,"current_range_meters":5200,"station_id":"ce4bhbp2rcd13ifvqerg","pricing_plan_id":"free"},{"bike_id":"7cd8f231-3f75-4f64-bfe2-67894fe5a09d","system_id":"levelo_inurba_marseille","lat":43.282744,"lon":5.350533,"is_reserved":false,"is_disabled":false,"rental_uris":{"android":"levelo://app?vid=7cd8f231-3f75-4f64-bfe2-67894fe5a09d","ios":"levelo://app?vid=7cd8f231-3f75-4f64-bfe2-67894fe5a09d"},"vehicle_type_id":"4","last_reported":1703779736,"current_range_meters":22000,"station_id":"ce4bhbp2rcd13ifvqerg","pricing_plan_id":"free"},{"bike_id":"6aac56f7-cc81-4df4-829e-0ec79265d0a4","system_id":"levelo_inurba_marseille","lat":43.282754,"lon":5.350519,"is_reserved":false,"is_disabled":false,"rental_uris":{"android":"levelo://app?vid=6aac56f7-cc81-4df4-829e-0ec79265d0a4","ios":"levelo://app?vid=6aac56f7-cc81-4df4-829e-0ec79265d0a4"},"vehicle_type_id":"4","last_reported":1703779736,"current_range_meters":24000,"station_id":"ce4bhbp2rcd13ifvqerg","pricing_plan_id":"free"},{"bike_id":"d2b5ac91-8f6a-401e-bf58-e283899f8762","system_id":"levelo_inurba_marseille","lat":43.281044,"lon":5.378308,"is_reserved":false,"is_disabled":false,"rental_uris":{"android":"levelo://app?vid=d2b5ac91-8f6a-401e-bf58-e283899f8762","ios":"levelo://app?vid=d2b5ac91-8f6a-401e-bf58-e283899f8762"},"vehicle_type_id":"4","last_reported":1703779736,"current_range_meters":24000,"station_id":"ce4bha12rcd13ifvqee0","pricing_plan_id":"free"},{"bike_id":"ee21ad73-789c-4d74-89a5-3c8ebf07d520","system_id":"levelo_inurba_marseille","lat":43.281044,"lon":5.378308,"is_reserved":false,"is_disabled":false,"rental_uris":{"android":"levelo://app?vid=ee21ad73-789c-4d74-89a5-3c8ebf07d520","ios":"levelo://app?vid=ee21ad73-789c-4d74-89a5-3c8ebf07d520"},"vehicle_type_id":"4","last_reported":1703779736,"current_range_meters":23200,"station_id":"ce4bha12rcd13ifvqee0","pricing_plan_id":"free"},{"bike_id":"6e5a96e7-864c-4dd9-9b18-c703477660cd","system_id":"levelo_inurba_marseille","lat":43.28432,"lon":5.39197,"is_reserved":false,"is_disabled":false,"rental_uris":{"android":"levelo://app?vid=6e5a96e7-864c-4dd9-9b18-c703477660cd","ios":"levelo://app?vid=6e5a96e7-864c-4dd9-9b18-c703477660cd"},"vehicle_type_id":"4","last_reported":1703779736,"current_range_meters":28800,"station_id":"ce4bhoh2rcd13ifvqh5g","pricing_plan_id":"free"},{"bike_id":"777836ce-9a56-4dd7-a8c1-66514411e254","system_id":"levelo_inurba_marseille","lat":43.285742,"lon":5.395004,"is_reserved":false,"is_disabled":false,"rental_uris":{"android":"levelo://app?vid=777836ce-9a56-4dd7-a8c1-66514411e254","ios":"levelo://app?vid=777836ce-9a56-4dd7-a8c1-66514411e254"},"vehicle_type_id":"4","last_reported":1703779736,"current_range_meters":22000,"station_id":"ce4bh292rcd13ifvqdg0","pricing_plan_id":"free"},{"bike_id":"4ca2ba97-2d8b-4432-97ee-e39bda04cd5a","system_id":"levelo_inurba_marseille","lat":43.28573,"lon":5.394992,"is_reserved":false,"is_disabled":false,"rental_uris":{"android":"levelo://app?vid=4ca2ba97-2d8b-4432-97ee-e39bda04cd5a","ios":"levelo://app?vid=4ca2ba97-2d8b-4432-97ee-e39bda04cd5a"},"vehicle_type_id":"4","last_reported":1703779736,"current_range_meters":24400,"station_id":"ce4bh292rcd13ifvqdg0","pricing_plan_id":"free"},{"bike_id":"1c3044bb-08e0-4fea-b7be-9514d6994572","system_id":"levelo_inurba_marseille","lat":43.304188,"lon":5.412904,"is_reserved":false,"is_disabled":false,"rental_uris":{"android":"levelo://app?vid=1c3044bb-08e0-4fea-b7be-9514d6994572","ios":"levelo://app?vid=1c3044bb-08e0-4fea-b7be-9514d6994572"},"vehicle_type_id":"4","last_reported":1703779736,"current_range_meters":13600,"station_id":"ce4bhop2rcd13ifvqh8g","pricing_plan_id":"free"},{"bike_id":"6657e306-e522-48fc-aa18-f90c22002c6e","system_id":"levelo_inurba_marseille","lat":43.304188,"lon":5.412904,"is_reserved":false,"is_disabled":false,"rental_uris":{"android":"levelo://app?vid=6657e306-e522-48fc-aa18-f90c22002c6e","ios":"levelo://app?vid=6657e306-e522-48fc-aa18-f90c22002c6e"},"vehicle_type_id":"4","last_reported":1703779736,"current_range_meters":25200,"station_id":"ce4bhop2rcd13ifvqh8g","pricing_plan_id":"free"},{"bike_id":"da6049ec-8673-4273-b2fc-20efaa880ee2","system_id":"levelo_inurba_marseille","lat":43.30413,"lon":5.41282,"is_reserved":false,"is_disabled":false,"rental_uris":{"android":"levelo://app?vid=da6049ec-8673-4273-b2fc-20efaa880ee2","ios":"levelo://app?vid=da6049ec-8673-4273-b2fc-20efaa880ee2"},"vehicle_type_id":"4","last_reported":1703779736,"current_range_meters":29600,"station_id":"ce4bhop2rcd13ifvqh8g","pricing_plan_id":"free"},{"bike_id":"694ad407-7238-4062-89a8-4125ccd97cc0","system_id":"levelo_inurba_marseille","lat":43.30411,"lon":5.41283,"is_reserved":false,"is_disabled":false,"rental_uris":{"android":"levelo://app?vid=694ad407-7238-4062-89a8-4125ccd97cc0","ios":"levelo://app?vid=694ad407-7238-4062-89a8-4125ccd97cc0"},"vehicle_type_id":"4","last_reported":1703779736,"current_range_meters":29600,"station_id":"ce4bhop2rcd13ifvqh8g","pricing_plan_id":"free"},{"bike_id":"73fa0cec-fa80-4b54-ae6c-f1dbc0956dda","system_id":"levelo_inurba_marseille","lat":43.304188,"lon":5.412904,"is_reserved":false,"is_disabled":false,"rental_uris":{"android":"levelo://app?vid=73fa0cec-fa80-4b54-ae6c-f1dbc0956dda","ios":"levelo://app?vid=73fa0cec-fa80-4b54-ae6c-f1dbc0956dda"},"vehicle_type_id":"4","last_reported":1703779736,"current_range_meters":2000,"station_id":"ce4bhop2rcd13ifvqh8g","pricing_plan_id":"free"},{"bike_id":"19035fd2-4552-46c6-b932-e107c071d9fb","system_id":"levelo_inurba_marseille","lat":43.304188,"lon":5.412904,"is_reserved":false,"is_disabled":false,"rental_uris":{"android":"levelo://app?vid=19035fd2-4552-46c6-b932-e107c071d9fb","ios":"levelo://app?vid=19035fd2-4552-46c6-b932-e107c071d9fb"},"vehicle_type_id":"4","last_reported":1703779736,"current_range_meters":31600,"station_id":"ce4bhop2rcd13ifvqh8g","pricing_plan_id":"free"},{"bike_id":"36717ee8-8302-458e-8d9b-f5c1f176c36c","system_id":"levelo_inurba_marseille","lat":43.279087,"lon":5.380114,"is_reserved":false,"is_disabled":false,"rental_uris":{"android":"levelo://app?vid=36717ee8-8302-458e-8d9b-f5c1f176c36c","ios":"levelo://app?vid=36717ee8-8302-458e-8d9b-f5c1f176c36c"},"vehicle_type_id":"4","last_reported":1703779736,"current_range_meters":6000,"station_id":"ce4bhf92rcd13ifvqf50","pricing_plan_id":"free"},{"bike_id":"09222df7-2e18-4112-9629-9c9ac4c316fc","system_id":"levelo_inurba_marseille","lat":43.279087,"lon":5.380114,"is_reserved":false,"is_disabled":false,"rental_uris":{"android":"levelo://app?vid=09222df7-2e18-4112-9629-9c9ac4c316fc","ios":"levelo://app?vid=09222df7-2e18-4112-9629-9c9ac4c316fc"},"vehicle_type_id":"4","last_reported":1703779736,"current_range_meters":22400,"station_id":"ce4bhf92rcd13ifvqf50","pricing_plan_id":"free"},{"bike_id":"7d10327b-e69a-45c3-9481-2029314bfce9","system_id":"levelo_inurba_marseille","lat":43.287154,"lon":5.399979,"is_reserved":false,"is_disabled":false,"rental_uris":{"android":"levelo://app?vid=7d10327b-e69a-45c3-9481-2029314bfce9","ios":"levelo://app?vid=7d10327b-e69a-45c3-9481-2029314bfce9"},"vehicle_type_id":"4","last_reported":1703779736,"current_range_meters":27200,"station_id":"ce4bho92rcd13ifvqh3g","pricing_plan_id":"free"},{"bike_id":"2dd30fdb-8fd7-45aa-9996-b7b3dea73e05","system_id":"levelo_inurba_marseille","lat":43.287154,"lon":5.399979,"is_reserved":false,"is_disabled":false,"rental_uris":{"android":"levelo://app?vid=2dd30fdb-8fd7-45aa-9996-b7b3dea73e05","ios":"levelo://app?vid=2dd30fdb-8fd7-45aa-9996-b7b3dea73e05"},"vehicle_type_id":"4","last_reported":1703779736,"current_range_meters":30800,"station_id":"ce4bho92rcd13ifvqh3g","pricing_plan_id":"free"},{"bike_id":"6e252401-6e17-4dcc-8393-37eb584ea9fe","system_id":"levelo_inurba_marseille","lat":43.320045,"lon":5.415046,"is_reserved":false,"is_disabled":false,"rental_uris":{"android":"levelo://app?vid=6e252401-6e17-4dcc-8393-37eb584ea9fe","ios":"levelo://app?vid=6e252401-6e17-4dcc-8393-37eb584ea9fe"},"vehicle_type_id":"4","last_reported":1703779736,"current_range_meters":25600,"station_id":"ce4bhq92rcd13ifvqhkg","pricing_plan_id":"free"},{"bike_id":"9df8bd2b-15b3-4221-899a-e948f01c1737","system_id":"levelo_inurba_marseille","lat":43.299579,"lon":5.413255,"is_reserved":false,"is_disabled":false,"rental_uris":{"android":"levelo://app?vid=9df8bd2b-15b3-4221-899a-e948f01c1737","ios":"levelo://app?vid=9df8bd2b-15b3-4221-899a-e948f01c1737"},"vehicle_type_id":"4","last_reported":1703779736,"current_range_meters":26800,"station_id":"ce4bhp12rcd13ifvqh9g","pricing_plan_id":"free"},{"bike_id":"01812779-389b-4d24-9d58-8e3c62cea9ce","system_id":"levelo_inurba_marseille","lat":43.320045,"lon":5.415048,"is_reserved":false,"is_disabled":false,"rental_uris":{"android":"levelo://app?vid=01812779-389b-4d24-9d58-8e3c62cea9ce","ios":"levelo://app?vid=01812779-389b-4d24-9d58-8e3c62cea9ce"},"vehicle_type_id":"4","last_reported":1703779736,"current_range_meters":30000,"station_id":"ce4bhq92rcd13ifvqhkg","pricing_plan_id":"free"},{"bike_id":"c9902aa4-ba6a-4ff9-98ae-06761a7022c8","system_id":"levelo_inurba_marseille","lat":43.279742,"lon":5.38744,"is_reserved":false,"is_disabled":false,"rental_uris":{"android":"levelo://app?vid=c9902aa4-ba6a-4ff9-98ae-06761a7022c8","ios":"levelo://app?vid=c9902aa4-ba6a-4ff9-98ae-06761a7022c8"},"vehicle_type_id":"4","last_reported":1703779736,"current_range_meters":26800,"station_id":"ce4bhg12rcd13ifvqf80","pricing_plan_id":"free"},{"bike_id":"b1c1a574-fe35-433f-bfa8-17120bfd174c","system_id":"levelo_inurba_marseille","lat":43.292569,"lon":5.409107,"is_reserved":false,"is_disabled":false,"rental_uris":{"android":"levelo://app?vid=b1c1a574-fe35-433f-bfa8-17120bfd174c","ios":"levelo://app?vid=b1c1a574-fe35-433f-bfa8-17120bfd174c"},"vehicle_type_id":"4","last_reported":1703779736,"current_range_meters":22400,"station_id":"ce4bh192rcd13ifvqdc0","pricing_plan_id":"free"},{"bike_id":"bf16c117-d788-449d-9785-2d9427c4588b","system_id":"levelo_inurba_marseille","lat":43.292571,"lon":5.409107,"is_reserved":false,"is_disabled":false,"rental_uris":{"android":"levelo://app?vid=bf16c117-d788-449d-9785-2d9427c4588b","ios":"levelo://app?vid=bf16c117-d788-449d-9785-2d9427c4588b"},"vehicle_type_id":"4","last_reported":1703779736,"current_range_meters":31200,"station_id":"ce4bh192rcd13ifvqdc0","pricing_plan_id":"free"},{"bike_id":"f6d2733f-927d-48a7-9410-abcd90fe0907","system_id":"levelo_inurba_marseille","lat":43.292571,"lon":5.409107,"is_reserved":false,"is_disabled":false,"rental_uris":{"android":"levelo://app?vid=f6d2733f-927d-48a7-9410-abcd90fe0907","ios":"levelo://app?vid=f6d2733f-927d-48a7-9410-abcd90fe0907"},"vehicle_type_id":"4","last_reported":1703779736,"current_range_meters":22800,"station_id":"ce4bh192rcd13ifvqdc0","pricing_plan_id":"free"},{"bike_id":"1fdc6a10-704b-4ed0-be00-0e390602a4b1","system_id":"levelo_inurba_marseille","lat":43.292569,"lon":5.409107,"is_reserved":false,"is_disabled":false,"rental_uris":{"android":"levelo://app?vid=1fdc6a10-704b-4ed0-be00-0e390602a4b1","ios":"levelo://app?vid=1fdc6a10-704b-4ed0-be00-0e390602a4b1"},"vehicle_type_id":"4","last_reported":1703779736,"current_range_meters":18800,"station_id":"ce4bh192rcd13ifvqdc0","pricing_plan_id":"free"},{"bike_id":"9531cf7b-d04d-46cc-8306-2bab2dcd0c13","system_id":"levelo_inurba_marseille","lat":43.292569,"lon":5.409107,"is_reserved":false,"is_disabled":false,"rental_uris":{"android":"levelo://app?vid=9531cf7b-d04d-46cc-8306-2bab2dcd0c13","ios":"levelo://app?vid=9531cf7b-d04d-46cc-8306-2bab2dcd0c13"},"vehicle_type_id":"4","last_reported":1703779736,"current_range_meters":28000,"station_id":"ce4bh192rcd13ifvqdc0","pricing_plan_id":"free"},{"bike_id":"8ba09cbb-1efd-427f-a73e-31ab066797da","system_id":"levelo_inurba_marseille","lat":43.292569,"lon":5.409107,"is_reserved":false,"is_disabled":false,"rental_uris":{"android":"levelo://app?vid=8ba09cbb-1efd-427f-a73e-31ab066797da","ios":"levelo://app?vid=8ba09cbb-1efd-427f-a73e-31ab066797da"},"vehicle_type_id":"4","last_reported":1703779736,"current_range_meters":7600,"station_id":"ce4bh192rcd13ifvqdc0","pricing_plan_id":"free"},{"bike_id":"deb7a2f7-023b-4f4e-898a-6d4e7d154086","system_id":"levelo_inurba_marseille","lat":43.27618,"lon":5.361009,"is_reserved":false,"is_disabled":false,"rental_uris":{"android":"levelo://app?vid=deb7a2f7-023b-4f4e-898a-6d4e7d154086","ios":"levelo://app?vid=deb7a2f7-023b-4f4e-898a-6d4e7d154086"},"vehicle_type_id":"4","last_reported":1703779736,"current_range_meters":23600,"station_id":"ce4bgj92rcd13ifvqbe0","pricing_plan_id":"free"},{"bike_id":"42e5430f-8479-4142-b194-858b0fce4c0d","system_id":"levelo_inurba_marseille","lat":43.27618,"lon":5.361009,"is_reserved":false,"is_disabled":false,"rental_uris":{"android":"levelo://app?vid=42e5430f-8479-4142-b194-858b0fce4c0d","ios":"levelo://app?vid=42e5430f-8479-4142-b194-858b0fce4c0d"},"vehicle_type_id":"4","last_reported":1703779736,"current_range_meters":25200,"station_id":"ce4bgj92rcd13ifvqbe0","pricing_plan_id":"free"},{"bike_id":"1d841ab4-c3ec-493f-b4ae-3bcb6d78c244","system_id":"levelo_inurba_marseille","lat":43.27618,"lon":5.361009,"is_reserved":false,"is_disabled":false,"rental_uris":{"android":"levelo://app?vid=1d841ab4-c3ec-493f-b4ae-3bcb6d78c244","ios":"levelo://app?vid=1d841ab4-c3ec-493f-b4ae-3bcb6d78c244"},"vehicle_type_id":"4","last_reported":1703779736,"current_range_meters":21600,"station_id":"ce4bgj92rcd13ifvqbe0","pricing_plan_id":"free"},{"bike_id":"9649b61c-1ade-4a84-bb83-7d27d768e947","system_id":"levelo_inurba_marseille","lat":43.276179,"lon":5.361009,"is_reserved":false,"is_disabled":false,"rental_uris":{"android":"levelo://app?vid=9649b61c-1ade-4a84-bb83-7d27d768e947","ios":"levelo://app?vid=9649b61c-1ade-4a84-bb83-7d27d768e947"},"vehicle_type_id":"4","last_reported":1703779736,"current_range_meters":26800,"station_id":"ce4bgj92rcd13ifvqbe0","pricing_plan_id":"free"},{"bike_id":"1cfa2c67-3cf0-434b-b356-1136962b5a22","system_id":"levelo_inurba_marseille","lat":43.280784,"lon":5.396622,"is_reserved":false,"is_disabled":false,"rental_uris":{"android":"levelo://app?vid=1cfa2c67-3cf0-434b-b356-1136962b5a22","ios":"levelo://app?vid=1cfa2c67-3cf0-434b-b356-1136962b5a22"},"vehicle_type_id":"4","last_reported":1703779736,"current_range_meters":10400,"station_id":"ce4bho12rcd13ifvqh2g","pricing_plan_id":"free"},{"bike_id":"4f67ad0e-7db1-4bec-bb16-61b0b652efc6","system_id":"levelo_inurba_marseille","lat":43.278401,"lon":5.392152,"is_reserved":false,"is_disabled":false,"rental_uris":{"android":"levelo://app?vid=4f67ad0e-7db1-4bec-bb16-61b0b652efc6","ios":"levelo://app?vid=4f67ad0e-7db1-4bec-bb16-61b0b652efc6"},"vehicle_type_id":"4","last_reported":1703779736,"current_range_meters":23200,"station_id":"ce4bhjp2rcd13ifvqga0","pricing_plan_id":"free"},{"bike_id":"6de7b3bb-1d8e-45bf-8b6c-6ebbb2c949de","system_id":"levelo_inurba_marseille","lat":43.273613,"lon":5.362705,"is_reserved":false,"is_disabled":false,"rental_uris":{"android":"levelo://app?vid=6de7b3bb-1d8e-45bf-8b6c-6ebbb2c949de","ios":"levelo://app?vid=6de7b3bb-1d8e-45bf-8b6c-6ebbb2c949de"},"vehicle_type_id":"4","last_reported":1703779736,"current_range_meters":23200,"station_id":"ce4bhbh2rcd13ifvqeo0","pricing_plan_id":"free"},{"bike_id":"adfee354-d807-44de-99fe-302f6c5652db","system_id":"levelo_inurba_marseille","lat":43.273609,"lon":5.362708,"is_reserved":false,"is_disabled":false,"rental_uris":{"android":"levelo://app?vid=adfee354-d807-44de-99fe-302f6c5652db","ios":"levelo://app?vid=adfee354-d807-44de-99fe-302f6c5652db"},"vehicle_type_id":"4","last_reported":1703779736,"current_range_meters":29200,"station_id":"ce4bhbh2rcd13ifvqeo0","pricing_plan_id":"free"},{"bike_id":"0626e3ce-4320-4fc6-956a-d14400548933","system_id":"levelo_inurba_marseille","lat":43.336148,"lon":5.410349,"is_reserved":false,"is_disabled":false,"rental_uris":{"android":"levelo://app?vid=0626e3ce-4320-4fc6-956a-d14400548933","ios":"levelo://app?vid=0626e3ce-4320-4fc6-956a-d14400548933"},"vehicle_type_id":"4","last_reported":1703779736,"current_range_meters":29200,"station_id":"ce4bhqh2rcd13ifvqhmg","pricing_plan_id":"free"},{"bike_id":"e40cbb8c-9528-4a91-bdd6-b0d31f75578d","system_id":"levelo_inurba_marseille","lat":43.28,"lon":5.40024,"is_reserved":false,"is_disabled":false,"rental_uris":{"android":"levelo://app?vid=e40cbb8c-9528-4a91-bdd6-b0d31f75578d","ios":"levelo://app?vid=e40cbb8c-9528-4a91-bdd6-b0d31f75578d"},"vehicle_type_id":"4","last_reported":1703779736,"current_range_meters":11600,"station_id":"ce4bho92rcd13ifvqh4g","pricing_plan_id":"free"},{"bike_id":"435e7663-3215-44bd-964a-af8fd614c522","system_id":"levelo_inurba_marseille","lat":43.310785,"lon":5.424305,"is_reserved":false,"is_disabled":false,"rental_uris":{"android":"levelo://app?vid=435e7663-3215-44bd-964a-af8fd614c522","ios":"levelo://app?vid=435e7663-3215-44bd-964a-af8fd614c522"},"vehicle_type_id":"4","last_reported":1703779736,"current_range_meters":400,"station_id":"ce4bhp92rcd13ifvqhag","pricing_plan_id":"free"},{"bike_id":"f51aa522-9d4f-4c86-9331-e0a83afe8a30","system_id":"levelo_inurba_marseille","lat":43.340804,"lon":5.410219,"is_reserved":false,"is_disabled":false,"rental_uris":{"android":"levelo://app?vid=f51aa522-9d4f-4c86-9331-e0a83afe8a30","ios":"levelo://app?vid=f51aa522-9d4f-4c86-9331-e0a83afe8a30"},"vehicle_type_id":"4","last_reported":1703779736,"current_range_meters":11200,"station_id":"ce4bhqh2rcd13ifvqhlg","pricing_plan_id":"free"},{"bike_id":"c7e47cc7-448f-4b53-a41e-61ee34c43961","system_id":"levelo_inurba_marseille","lat":43.273125,"lon":5.390731,"is_reserved":false,"is_disabled":false,"rental_uris":{"android":"levelo://app?vid=c7e47cc7-448f-4b53-a41e-61ee34c43961","ios":"levelo://app?vid=c7e47cc7-448f-4b53-a41e-61ee34c43961"},"vehicle_type_id":"4","last_reported":1703779736,"current_range_meters":17600,"station_id":"ce4bhgp2rcd13ifvqfe0","pricing_plan_id":"free"},{"bike_id":"6a48db3f-9fc3-4404-b973-f4cc675c01c7","system_id":"levelo_inurba_marseille","lat":43.295523,"lon":5.422926,"is_reserved":false,"is_disabled":false,"rental_uris":{"android":"levelo://app?vid=6a48db3f-9fc3-4404-b973-f4cc675c01c7","ios":"levelo://app?vid=6a48db3f-9fc3-4404-b973-f4cc675c01c7"},"vehicle_type_id":"4","last_reported":1703779736,"current_range_meters":28400,"station_id":"ce4bhph2rcd13ifvqhdg","pricing_plan_id":"free"},{"bike_id":"bc660e5c-f7cd-4460-935e-226ad1eba4eb","system_id":"levelo_inurba_marseille","lat":43.295523,"lon":5.422926,"is_reserved":false,"is_disabled":false,"rental_uris":{"android":"levelo://app?vid=bc660e5c-f7cd-4460-935e-226ad1eba4eb","ios":"levelo://app?vid=bc660e5c-f7cd-4460-935e-226ad1eba4eb"},"vehicle_type_id":"4","last_reported":1703779736,"current_range_meters":29600,"station_id":"ce4bhph2rcd13ifvqhdg","pricing_plan_id":"free"},{"bike_id":"623e5527-a121-4ec1-8cc0-17b5fddea11b","system_id":"levelo_inurba_marseille","lat":43.295523,"lon":5.422926,"is_reserved":false,"is_disabled":false,"rental_uris":{"android":"levelo://app?vid=623e5527-a121-4ec1-8cc0-17b5fddea11b","ios":"levelo://app?vid=623e5527-a121-4ec1-8cc0-17b5fddea11b"},"vehicle_type_id":"4","last_reported":1703779736,"current_range_meters":26400,"station_id":"ce4bhph2rcd13ifvqhdg","pricing_plan_id":"free"},{"bike_id":"acec87c8-498e-46a9-a572-8de891a24d3a","system_id":"levelo_inurba_marseille","lat":43.295523,"lon":5.422926,"is_reserved":false,"is_disabled":false,"rental_uris":{"android":"levelo://app?vid=acec87c8-498e-46a9-a572-8de891a24d3a","ios":"levelo://app?vid=acec87c8-498e-46a9-a572-8de891a24d3a"},"vehicle_type_id":"4","last_reported":1703779736,"current_range_meters":24400,"station_id":"ce4bhph2rcd13ifvqhdg","pricing_plan_id":"free"},{"bike_id":"6d735bdc-6834-49ef-ad58-2a1b73a15a49","system_id":"levelo_inurba_marseille","lat":43.295523,"lon":5.422926,"is_reserved":false,"is_disabled":false,"rental_uris":{"android":"levelo://app?vid=6d735bdc-6834-49ef-ad58-2a1b73a15a49","ios":"levelo://app?vid=6d735bdc-6834-49ef-ad58-2a1b73a15a49"},"vehicle_type_id":"4","last_reported":1703779736,"current_range_meters":31200,"station_id":"ce4bhph2rcd13ifvqhdg","pricing_plan_id":"free"},{"bike_id":"23dbbee6-d4a1-4819-8d81-04184524b313","system_id":"levelo_inurba_marseille","lat":43.295511,"lon":5.422926,"is_reserved":false,"is_disabled":false,"rental_uris":{"android":"levelo://app?vid=23dbbee6-d4a1-4819-8d81-04184524b313","ios":"levelo://app?vid=23dbbee6-d4a1-4819-8d81-04184524b313"},"vehicle_type_id":"4","last_reported":1703779736,"current_range_meters":28000,"station_id":"ce4bhph2rcd13ifvqhdg","pricing_plan_id":"free"},{"bike_id":"e192df68-2c2b-482d-b6fd-3b8920434290","system_id":"levelo_inurba_marseille","lat":43.29547,"lon":5.42285,"is_reserved":false,"is_disabled":false,"rental_uris":{"android":"levelo://app?vid=e192df68-2c2b-482d-b6fd-3b8920434290","ios":"levelo://app?vid=e192df68-2c2b-482d-b6fd-3b8920434290"},"vehicle_type_id":"4","last_reported":1703779736,"current_range_meters":22400,"station_id":"ce4bhph2rcd13ifvqhdg","pricing_plan_id":"free"},{"bike_id":"94bf3c53-34b9-4dae-9f37-d7e0cb7bac27","system_id":"levelo_inurba_marseille","lat":43.272118,"lon":5.391758,"is_reserved":false,"is_disabled":false,"rental_uris":{"android":"levelo://app?vid=94bf3c53-34b9-4dae-9f37-d7e0cb7bac27","ios":"levelo://app?vid=94bf3c53-34b9-4dae-9f37-d7e0cb7bac27"},"vehicle_type_id":"4","last_reported":1703779736,"current_range_meters":14400,"station_id":"ce4bhhp2rcd13ifvqfm0","pricing_plan_id":"free"},{"bike_id":"f93920b1-e9ec-421c-88e4-4978185cf869","system_id":"levelo_inurba_marseille","lat":43.272118,"lon":5.391758,"is_reserved":false,"is_disabled":false,"rental_uris":{"android":"levelo://app?vid=f93920b1-e9ec-421c-88e4-4978185cf869","ios":"levelo://app?vid=f93920b1-e9ec-421c-88e4-4978185cf869"},"vehicle_type_id":"4","last_reported":1703779736,"current_range_meters":20400,"station_id":"ce4bhhp2rcd13ifvqfm0","pricing_plan_id":"free"},{"bike_id":"a3aeafea-916d-4aad-b918-1f214d97af8b","system_id":"levelo_inurba_marseille","lat":43.272116,"lon":5.391747,"is_reserved":false,"is_disabled":false,"rental_uris":{"android":"levelo://app?vid=a3aeafea-916d-4aad-b918-1f214d97af8b","ios":"levelo://app?vid=a3aeafea-916d-4aad-b918-1f214d97af8b"},"vehicle_type_id":"4","last_reported":1703779736,"current_range_meters":12000,"station_id":"ce4bhhp2rcd13ifvqfm0","pricing_plan_id":"free"},{"bike_id":"dcb34f7e-4bb0-4f50-a0bd-5ae8e961c5f1","system_id":"levelo_inurba_marseille","lat":43.27212,"lon":5.3925,"is_reserved":false,"is_disabled":false,"rental_uris":{"android":"levelo://app?vid=dcb34f7e-4bb0-4f50-a0bd-5ae8e961c5f1","ios":"levelo://app?vid=dcb34f7e-4bb0-4f50-a0bd-5ae8e961c5f1"},"vehicle_type_id":"4","last_reported":1703779736,"current_range_meters":1200,"station_id":"","pricing_plan_id":"free"},{"bike_id":"b8faa698-9a5c-4ea2-aaa2-d358d6bf9038","system_id":"levelo_inurba_marseille","lat":43.278128,"lon":5.407195,"is_reserved":false,"is_disabled":false,"rental_uris":{"android":"levelo://app?vid=b8faa698-9a5c-4ea2-aaa2-d358d6bf9038","ios":"levelo://app?vid=b8faa698-9a5c-4ea2-aaa2-d358d6bf9038"},"vehicle_type_id":"4","last_reported":1703779736,"current_range_meters":26800,"station_id":"ce4bhnh2rcd13ifvqgtg","pricing_plan_id":"free"},{"bike_id":"9a4f98b0-7c0a-4ea7-a251-35c8c0ddab30","system_id":"levelo_inurba_marseille","lat":43.278128,"lon":5.407195,"is_reserved":false,"is_disabled":false,"rental_uris":{"android":"levelo://app?vid=9a4f98b0-7c0a-4ea7-a251-35c8c0ddab30","ios":"levelo://app?vid=9a4f98b0-7c0a-4ea7-a251-35c8c0ddab30"},"vehicle_type_id":"4","last_reported":1703779736,"current_range_meters":23600,"station_id":"ce4bhnh2rcd13ifvqgtg","pricing_plan_id":"free"},{"bike_id":"3478ecf5-8976-43fc-b6c5-b685d6a727aa","system_id":"levelo_inurba_marseille","lat":43.269467,"lon":5.386439,"is_reserved":false,"is_disabled":false,"rental_uris":{"android":"levelo://app?vid=3478ecf5-8976-43fc-b6c5-b685d6a727aa","ios":"levelo://app?vid=3478ecf5-8976-43fc-b6c5-b685d6a727aa"},"vehicle_type_id":"4","last_reported":1703779736,"current_range_meters":16800,"station_id":"ce4bhh92rcd13ifvqfh0","pricing_plan_id":"free"},{"bike_id":"d0c0220c-f119-45c5-9964-4ebfa425e174","system_id":"levelo_inurba_marseille","lat":43.269467,"lon":5.386439,"is_reserved":false,"is_disabled":false,"rental_uris":{"android":"levelo://app?vid=d0c0220c-f119-45c5-9964-4ebfa425e174","ios":"levelo://app?vid=d0c0220c-f119-45c5-9964-4ebfa425e174"},"vehicle_type_id":"4","last_reported":1703779736,"current_range_meters":25600,"station_id":"ce4bhh92rcd13ifvqfh0","pricing_plan_id":"free"},{"bike_id":"25027da1-9cc0-44ef-a2da-0f7e36fa0493","system_id":"levelo_inurba_marseille","lat":43.269467,"lon":5.386439,"is_reserved":false,"is_disabled":false,"rental_uris":{"android":"levelo://app?vid=25027da1-9cc0-44ef-a2da-0f7e36fa0493","ios":"levelo://app?vid=25027da1-9cc0-44ef-a2da-0f7e36fa0493"},"vehicle_type_id":"4","last_reported":1703779736,"current_range_meters":13600,"station_id":"ce4bhh92rcd13ifvqfh0","pricing_plan_id":"free"},{"bike_id":"629f2282-ce63-4cb8-9247-f6bab8a0910c","system_id":"levelo_inurba_marseille","lat":43.269319,"lon":5.389397,"is_reserved":false,"is_disabled":false,"rental_uris":{"android":"levelo://app?vid=629f2282-ce63-4cb8-9247-f6bab8a0910c","ios":"levelo://app?vid=629f2282-ce63-4cb8-9247-f6bab8a0910c"},"vehicle_type_id":"4","last_reported":1703779736,"current_range_meters":30000,"station_id":"ce4bhhh2rcd13ifvqfl0","pricing_plan_id":"free"},{"bike_id":"4946c754-0ba2-4a5e-81a7-2262aea99a81","system_id":"levelo_inurba_marseille","lat":43.279175,"lon":5.412228,"is_reserved":false,"is_disabled":false,"rental_uris":{"android":"levelo://app?vid=4946c754-0ba2-4a5e-81a7-2262aea99a81","ios":"levelo://app?vid=4946c754-0ba2-4a5e-81a7-2262aea99a81"},"vehicle_type_id":"4","last_reported":1703779736,"current_range_meters":13600,"station_id":"","pricing_plan_id":"free"},{"bike_id":"cec88c0d-d659-4908-9061-71042166eefe","system_id":"levelo_inurba_marseille","lat":43.26686,"lon":5.38272,"is_reserved":false,"is_disabled":false,"rental_uris":{"android":"levelo://app?vid=cec88c0d-d659-4908-9061-71042166eefe","ios":"levelo://app?vid=cec88c0d-d659-4908-9061-71042166eefe"},"vehicle_type_id":"4","last_reported":1703779736,"current_range_meters":25600,"station_id":"ce4bhg92rcd13ifvqf90","pricing_plan_id":"free"},{"bike_id":"af72a888-8dee-4423-8d69-acb3523563c7","system_id":"levelo_inurba_marseille","lat":43.26681,"lon":5.382694,"is_reserved":false,"is_disabled":false,"rental_uris":{"android":"levelo://app?vid=af72a888-8dee-4423-8d69-acb3523563c7","ios":"levelo://app?vid=af72a888-8dee-4423-8d69-acb3523563c7"},"vehicle_type_id":"4","last_reported":1703779736,"current_range_meters":27600,"station_id":"ce4bhg92rcd13ifvqf90","pricing_plan_id":"free"},{"bike_id":"64e44c37-02fa-410b-8031-3722018edfc4","system_id":"levelo_inurba_marseille","lat":43.266819,"lon":5.382821,"is_reserved":false,"is_disabled":false,"rental_uris":{"android":"levelo://app?vid=64e44c37-02fa-410b-8031-3722018edfc4","ios":"levelo://app?vid=64e44c37-02fa-410b-8031-3722018edfc4"},"vehicle_type_id":"4","last_reported":1703779736,"current_range_meters":23200,"station_id":"ce4bhg92rcd13ifvqf90","pricing_plan_id":"free"},{"bike_id":"7e47fab8-375d-4ff4-a16f-eee49479deb7","system_id":"levelo_inurba_marseille","lat":43.265714,"lon":5.372891,"is_reserved":false,"is_disabled":false,"rental_uris":{"android":"levelo://app?vid=7e47fab8-375d-4ff4-a16f-eee49479deb7","ios":"levelo://app?vid=7e47fab8-375d-4ff4-a16f-eee49479deb7"},"vehicle_type_id":"4","last_reported":1703779736,"current_range_meters":23600,"station_id":"ce4bhg12rcd13ifvqf70","pricing_plan_id":"free"},{"bike_id":"a35c83d3-d409-444e-84f5-0a8921a197cd","system_id":"levelo_inurba_marseille","lat":43.265714,"lon":5.372891,"is_reserved":false,"is_disabled":false,"rental_uris":{"android":"levelo://app?vid=a35c83d3-d409-444e-84f5-0a8921a197cd","ios":"levelo://app?vid=a35c83d3-d409-444e-84f5-0a8921a197cd"},"vehicle_type_id":"4","last_reported":1703779736,"current_range_meters":15600,"station_id":"ce4bhg12rcd13ifvqf70","pricing_plan_id":"free"},{"bike_id":"984a4412-1893-4560-85dd-0cb5b502a3e6","system_id":"levelo_inurba_marseille","lat":43.265714,"lon":5.372891,"is_reserved":false,"is_disabled":false,"rental_uris":{"android":"levelo://app?vid=984a4412-1893-4560-85dd-0cb5b502a3e6","ios":"levelo://app?vid=984a4412-1893-4560-85dd-0cb5b502a3e6"},"vehicle_type_id":"4","last_reported":1703779736,"current_range_meters":0,"station_id":"ce4bhg12rcd13ifvqf70","pricing_plan_id":"free"},{"bike_id":"b00bf69e-8be6-4868-92e2-74511fafb87e","system_id":"levelo_inurba_marseille","lat":43.27996,"lon":5.416624,"is_reserved":false,"is_disabled":false,"rental_uris":{"android":"levelo://app?vid=b00bf69e-8be6-4868-92e2-74511fafb87e","ios":"levelo://app?vid=b00bf69e-8be6-4868-92e2-74511fafb87e"},"vehicle_type_id":"4","last_reported":1703779736,"current_range_meters":4800,"station_id":"ce4bho12rcd13ifvqh1g","pricing_plan_id":"free"},{"bike_id":"7e52f9fe-170c-460b-84a9-62969e911261","system_id":"levelo_inurba_marseille","lat":43.27991,"lon":5.41662,"is_reserved":false,"is_disabled":false,"rental_uris":{"android":"levelo://app?vid=7e52f9fe-170c-460b-84a9-62969e911261","ios":"levelo://app?vid=7e52f9fe-170c-460b-84a9-62969e911261"},"vehicle_type_id":"4","last_reported":1703779736,"current_range_meters":12000,"station_id":"ce4bho12rcd13ifvqh1g","pricing_plan_id":"free"},{"bike_id":"0c42e786-e8bd-4caa-9265-8e63ddc2fe7d","system_id":"levelo_inurba_marseille","lat":43.27996,"lon":5.416624,"is_reserved":false,"is_disabled":false,"rental_uris":{"android":"levelo://app?vid=0c42e786-e8bd-4caa-9265-8e63ddc2fe7d","ios":"levelo://app?vid=0c42e786-e8bd-4caa-9265-8e63ddc2fe7d"},"vehicle_type_id":"4","last_reported":1703779736,"current_range_meters":13600,"station_id":"ce4bho12rcd13ifvqh1g","pricing_plan_id":"free"},{"bike_id":"fcca1b20-77a2-47cb-a25d-7cda227d84d5","system_id":"levelo_inurba_marseille","lat":43.267966,"lon":5.393976,"is_reserved":false,"is_disabled":false,"rental_uris":{"android":"levelo://app?vid=fcca1b20-77a2-47cb-a25d-7cda227d84d5","ios":"levelo://app?vid=fcca1b20-77a2-47cb-a25d-7cda227d84d5"},"vehicle_type_id":"4","last_reported":1703779736,"current_range_meters":20400,"station_id":"ce4bhh12rcd13ifvqfg0","pricing_plan_id":"free"},{"bike_id":"2dbb0153-afe7-45d0-9afd-a6052c182410","system_id":"levelo_inurba_marseille","lat":43.265571,"lon":5.390032,"is_reserved":false,"is_disabled":false,"rental_uris":{"android":"levelo://app?vid=2dbb0153-afe7-45d0-9afd-a6052c182410","ios":"levelo://app?vid=2dbb0153-afe7-45d0-9afd-a6052c182410"},"vehicle_type_id":"4","last_reported":1703779736,"current_range_meters":31200,"station_id":"ce4bhe12rcd13ifvqf30","pricing_plan_id":"free"},{"bike_id":"4c2e833d-3c53-4ae1-8673-503785445601","system_id":"levelo_inurba_marseille","lat":43.265569,"lon":5.390047,"is_reserved":false,"is_disabled":false,"rental_uris":{"android":"levelo://app?vid=4c2e833d-3c53-4ae1-8673-503785445601","ios":"levelo://app?vid=4c2e833d-3c53-4ae1-8673-503785445601"},"vehicle_type_id":"4","last_reported":1703779736,"current_range_meters":17200,"station_id":"ce4bhe12rcd13ifvqf30","pricing_plan_id":"free"},{"bike_id":"5020d136-4dcb-45cd-955b-b84ceda2d154","system_id":"levelo_inurba_marseille","lat":43.26949,"lon":5.40262,"is_reserved":false,"is_disabled":false,"rental_uris":{"android":"levelo://app?vid=5020d136-4dcb-45cd-955b-b84ceda2d154","ios":"levelo://app?vid=5020d136-4dcb-45cd-955b-b84ceda2d154"},"vehicle_type_id":"4","last_reported":1703779736,"current_range_meters":16800,"station_id":"cjm6bp8fraef2m0cb0m0","pricing_plan_id":"free"},{"bike_id":"1bebf580-6a15-423c-b158-009b0d83bae3","system_id":"levelo_inurba_marseille","lat":43.26949,"lon":5.40262,"is_reserved":false,"is_disabled":false,"rental_uris":{"android":"levelo://app?vid=1bebf580-6a15-423c-b158-009b0d83bae3","ios":"levelo://app?vid=1bebf580-6a15-423c-b158-009b0d83bae3"},"vehicle_type_id":"4","last_reported":1703779736,"current_range_meters":30000,"station_id":"cjm6bp8fraef2m0cb0m0","pricing_plan_id":"free"},{"bike_id":"dac5ea74-92f7-462e-b536-31f322bb01c0","system_id":"levelo_inurba_marseille","lat":43.331893,"lon":5.431791,"is_reserved":false,"is_disabled":false,"rental_uris":{"android":"levelo://app?vid=dac5ea74-92f7-462e-b536-31f322bb01c0","ios":"levelo://app?vid=dac5ea74-92f7-462e-b536-31f322bb01c0"},"vehicle_type_id":"4","last_reported":1703779736,"current_range_meters":22400,"station_id":"","pricing_plan_id":"free"},{"bike_id":"ecbb2877-eab4-4d14-84dc-32aafcd484a0","system_id":"levelo_inurba_marseille","lat":43.261782,"lon":5.374515,"is_reserved":false,"is_disabled":false,"rental_uris":{"android":"levelo://app?vid=ecbb2877-eab4-4d14-84dc-32aafcd484a0","ios":"levelo://app?vid=ecbb2877-eab4-4d14-84dc-32aafcd484a0"},"vehicle_type_id":"4","last_reported":1703779736,"current_range_meters":12000,"station_id":"ce4bhgp2rcd13ifvqfc0","pricing_plan_id":"free"},{"bike_id":"2f583c21-5a19-478f-be23-95f5ad76a7b1","system_id":"levelo_inurba_marseille","lat":43.261782,"lon":5.374515,"is_reserved":false,"is_disabled":false,"rental_uris":{"android":"levelo://app?vid=2f583c21-5a19-478f-be23-95f5ad76a7b1","ios":"levelo://app?vid=2f583c21-5a19-478f-be23-95f5ad76a7b1"},"vehicle_type_id":"4","last_reported":1703779736,"current_range_meters":14400,"station_id":"ce4bhgp2rcd13ifvqfc0","pricing_plan_id":"free"},{"bike_id":"558bf061-805b-4919-94d5-d4d8d6aa999f","system_id":"levelo_inurba_marseille","lat":43.261782,"lon":5.374515,"is_reserved":false,"is_disabled":false,"rental_uris":{"android":"levelo://app?vid=558bf061-805b-4919-94d5-d4d8d6aa999f","ios":"levelo://app?vid=558bf061-805b-4919-94d5-d4d8d6aa999f"},"vehicle_type_id":"4","last_reported":1703779736,"current_range_meters":20400,"station_id":"ce4bhgp2rcd13ifvqfc0","pricing_plan_id":"free"},{"bike_id":"9ad4af22-dd5a-49c5-90d4-e530c8e3b0f9","system_id":"levelo_inurba_marseille","lat":43.261782,"lon":5.374515,"is_reserved":false,"is_disabled":false,"rental_uris":{"android":"levelo://app?vid=9ad4af22-dd5a-49c5-90d4-e530c8e3b0f9","ios":"levelo://app?vid=9ad4af22-dd5a-49c5-90d4-e530c8e3b0f9"},"vehicle_type_id":"4","last_reported":1703779736,"current_range_meters":22800,"station_id":"ce4bhgp2rcd13ifvqfc0","pricing_plan_id":"free"},{"bike_id":"36e080e8-3f56-43e1-8093-87e55b038183","system_id":"levelo_inurba_marseille","lat":43.261782,"lon":5.374515,"is_reserved":false,"is_disabled":false,"rental_uris":{"android":"levelo://app?vid=36e080e8-3f56-43e1-8093-87e55b038183","ios":"levelo://app?vid=36e080e8-3f56-43e1-8093-87e55b038183"},"vehicle_type_id":"4","last_reported":1703779736,"current_range_meters":22000,"station_id":"ce4bhgp2rcd13ifvqfc0","pricing_plan_id":"free"},{"bike_id":"57db5078-b6a4-4946-ad6f-2e67b14378fc","system_id":"levelo_inurba_marseille","lat":43.261782,"lon":5.374515,"is_reserved":false,"is_disabled":false,"rental_uris":{"android":"levelo://app?vid=57db5078-b6a4-4946-ad6f-2e67b14378fc","ios":"levelo://app?vid=57db5078-b6a4-4946-ad6f-2e67b14378fc"},"vehicle_type_id":"4","last_reported":1703779736,"current_range_meters":30400,"station_id":"ce4bhgp2rcd13ifvqfc0","pricing_plan_id":"free"},{"bike_id":"2adabb8f-b21b-4aed-997c-18597c2da1cd","system_id":"levelo_inurba_marseille","lat":43.317104,"lon":5.436818,"is_reserved":false,"is_disabled":false,"rental_uris":{"android":"levelo://app?vid=2adabb8f-b21b-4aed-997c-18597c2da1cd","ios":"levelo://app?vid=2adabb8f-b21b-4aed-997c-18597c2da1cd"},"vehicle_type_id":"4","last_reported":1703779736,"current_range_meters":23600,"station_id":"ce4bhp92rcd13ifvqhcg","pricing_plan_id":"free"},{"bike_id":"b40b564e-ab5e-4ed2-82e4-384253b5874b","system_id":"levelo_inurba_marseille","lat":43.317104,"lon":5.436818,"is_reserved":false,"is_disabled":false,"rental_uris":{"android":"levelo://app?vid=b40b564e-ab5e-4ed2-82e4-384253b5874b","ios":"levelo://app?vid=b40b564e-ab5e-4ed2-82e4-384253b5874b"},"vehicle_type_id":"4","last_reported":1703779736,"current_range_meters":4800,"station_id":"ce4bhp92rcd13ifvqhcg","pricing_plan_id":"free"},{"bike_id":"05f1ce85-4d1e-4390-8e89-ec8c632d2922","system_id":"levelo_inurba_marseille","lat":43.271388,"lon":5.409269,"is_reserved":false,"is_disabled":false,"rental_uris":{"android":"levelo://app?vid=05f1ce85-4d1e-4390-8e89-ec8c632d2922","ios":"levelo://app?vid=05f1ce85-4d1e-4390-8e89-ec8c632d2922"},"vehicle_type_id":"4","last_reported":1703779736,"current_range_meters":17600,"station_id":"ce4bhl12rcd13ifvqgf0","pricing_plan_id":"free"},{"bike_id":"0387d27c-29e5-4ca2-9961-ff2b457f2830","system_id":"levelo_inurba_marseille","lat":43.271368,"lon":5.40928,"is_reserved":false,"is_disabled":false,"rental_uris":{"android":"levelo://app?vid=0387d27c-29e5-4ca2-9961-ff2b457f2830","ios":"levelo://app?vid=0387d27c-29e5-4ca2-9961-ff2b457f2830"},"vehicle_type_id":"4","last_reported":1703779736,"current_range_meters":0,"station_id":"ce4bhl12rcd13ifvqgf0","pricing_plan_id":"free"},{"bike_id":"92f4db0f-629a-4a98-88ff-7bda84e6a7cb","system_id":"levelo_inurba_marseille","lat":43.267959,"lon":5.402687,"is_reserved":false,"is_disabled":false,"rental_uris":{"android":"levelo://app?vid=92f4db0f-629a-4a98-88ff-7bda84e6a7cb","ios":"levelo://app?vid=92f4db0f-629a-4a98-88ff-7bda84e6a7cb"},"vehicle_type_id":"4","last_reported":1703779736,"current_range_meters":31200,"station_id":"ce501612rcd8frsf0b60","pricing_plan_id":"free"},{"bike_id":"b80e3160-06ea-44c6-8c3d-699e93d0b9d0","system_id":"levelo_inurba_marseille","lat":43.298768,"lon":5.43643,"is_reserved":false,"is_disabled":false,"rental_uris":{"android":"levelo://app?vid=b80e3160-06ea-44c6-8c3d-699e93d0b9d0","ios":"levelo://app?vid=b80e3160-06ea-44c6-8c3d-699e93d0b9d0"},"vehicle_type_id":"4","last_reported":1703779736,"current_range_meters":6800,"station_id":"ce4bhpp2rcd13ifvqhfg","pricing_plan_id":"free"},{"bike_id":"5e7f9bc9-cc55-432e-98cb-72e2d27cf873","system_id":"levelo_inurba_marseille","lat":43.298768,"lon":5.43643,"is_reserved":false,"is_disabled":false,"rental_uris":{"android":"levelo://app?vid=5e7f9bc9-cc55-432e-98cb-72e2d27cf873","ios":"levelo://app?vid=5e7f9bc9-cc55-432e-98cb-72e2d27cf873"},"vehicle_type_id":"4","last_reported":1703779736,"current_range_meters":3200,"station_id":"ce4bhpp2rcd13ifvqhfg","pricing_plan_id":"free"},{"bike_id":"54d9622f-c013-4f1c-9476-30ef8b856de8","system_id":"levelo_inurba_marseille","lat":43.298768,"lon":5.43643,"is_reserved":false,"is_disabled":false,"rental_uris":{"android":"levelo://app?vid=54d9622f-c013-4f1c-9476-30ef8b856de8","ios":"levelo://app?vid=54d9622f-c013-4f1c-9476-30ef8b856de8"},"vehicle_type_id":"4","last_reported":1703779736,"current_range_meters":10000,"station_id":"ce4bhpp2rcd13ifvqhfg","pricing_plan_id":"free"},{"bike_id":"f4950428-ac59-4968-9116-c7d484154074","system_id":"levelo_inurba_marseille","lat":43.298768,"lon":5.43643,"is_reserved":false,"is_disabled":false,"rental_uris":{"android":"levelo://app?vid=f4950428-ac59-4968-9116-c7d484154074","ios":"levelo://app?vid=f4950428-ac59-4968-9116-c7d484154074"},"vehicle_type_id":"4","last_reported":1703779736,"current_range_meters":20000,"station_id":"ce4bhpp2rcd13ifvqhfg","pricing_plan_id":"free"},{"bike_id":"6d36e874-060f-4802-9482-78275b3909b0","system_id":"levelo_inurba_marseille","lat":43.260219,"lon":5.37546,"is_reserved":false,"is_disabled":false,"rental_uris":{"android":"levelo://app?vid=6d36e874-060f-4802-9482-78275b3909b0","ios":"levelo://app?vid=6d36e874-060f-4802-9482-78275b3909b0"},"vehicle_type_id":"4","last_reported":1703779736,"current_range_meters":27600,"station_id":"ce4bhgh2rcd13ifvqfa0","pricing_plan_id":"free"},{"bike_id":"24127b98-da2e-430f-88da-9afc65038c94","system_id":"levelo_inurba_marseille","lat":43.260219,"lon":5.37546,"is_reserved":false,"is_disabled":false,"rental_uris":{"android":"levelo://app?vid=24127b98-da2e-430f-88da-9afc65038c94","ios":"levelo://app?vid=24127b98-da2e-430f-88da-9afc65038c94"},"vehicle_type_id":"4","last_reported":1703779736,"current_range_meters":20400,"station_id":"ce4bhgh2rcd13ifvqfa0","pricing_plan_id":"free"},{"bike_id":"b4979d92-c53b-498b-a684-e9affb78fc44","system_id":"levelo_inurba_marseille","lat":43.260219,"lon":5.37546,"is_reserved":false,"is_disabled":false,"rental_uris":{"android":"levelo://app?vid=b4979d92-c53b-498b-a684-e9affb78fc44","ios":"levelo://app?vid=b4979d92-c53b-498b-a684-e9affb78fc44"},"vehicle_type_id":"4","last_reported":1703779736,"current_range_meters":20800,"station_id":"ce4bhgh2rcd13ifvqfa0","pricing_plan_id":"free"},{"bike_id":"b686f043-25a4-4bbd-890a-64e9b42e11de","system_id":"levelo_inurba_marseille","lat":43.281548,"lon":5.42643,"is_reserved":false,"is_disabled":false,"rental_uris":{"android":"levelo://app?vid=b686f043-25a4-4bbd-890a-64e9b42e11de","ios":"levelo://app?vid=b686f043-25a4-4bbd-890a-64e9b42e11de"},"vehicle_type_id":"4","last_reported":1703779736,"current_range_meters":20000,"station_id":"ce4bhnh2rcd13ifvqgug","pricing_plan_id":"free"},{"bike_id":"f7a1977b-535c-4883-979c-c6f936322413","system_id":"levelo_inurba_marseille","lat":43.281548,"lon":5.42643,"is_reserved":false,"is_disabled":false,"rental_uris":{"android":"levelo://app?vid=f7a1977b-535c-4883-979c-c6f936322413","ios":"levelo://app?vid=f7a1977b-535c-4883-979c-c6f936322413"},"vehicle_type_id":"4","last_reported":1703779736,"current_range_meters":26800,"station_id":"ce4bhnh2rcd13ifvqgug","pricing_plan_id":"free"},{"bike_id":"ec8458b6-1fb5-4614-9241-fb8ba40a0abd","system_id":"levelo_inurba_marseille","lat":43.281548,"lon":5.42643,"is_reserved":false,"is_disabled":false,"rental_uris":{"android":"levelo://app?vid=ec8458b6-1fb5-4614-9241-fb8ba40a0abd","ios":"levelo://app?vid=ec8458b6-1fb5-4614-9241-fb8ba40a0abd"},"vehicle_type_id":"4","last_reported":1703779736,"current_range_meters":21600,"station_id":"ce4bhnh2rcd13ifvqgug","pricing_plan_id":"free"},{"bike_id":"61a727f4-aa45-443c-8bb9-1c4f347fe71d","system_id":"levelo_inurba_marseille","lat":43.28153,"lon":5.42645,"is_reserved":false,"is_disabled":false,"rental_uris":{"android":"levelo://app?vid=61a727f4-aa45-443c-8bb9-1c4f347fe71d","ios":"levelo://app?vid=61a727f4-aa45-443c-8bb9-1c4f347fe71d"},"vehicle_type_id":"4","last_reported":1703779736,"current_range_meters":10000,"station_id":"ce4bhnh2rcd13ifvqgug","pricing_plan_id":"free"},{"bike_id":"79331c75-b8ee-41be-8cef-4216b755c436","system_id":"levelo_inurba_marseille","lat":43.281548,"lon":5.42643,"is_reserved":false,"is_disabled":false,"rental_uris":{"android":"levelo://app?vid=79331c75-b8ee-41be-8cef-4216b755c436","ios":"levelo://app?vid=79331c75-b8ee-41be-8cef-4216b755c436"},"vehicle_type_id":"4","last_reported":1703779736,"current_range_meters":31200,"station_id":"ce4bhnh2rcd13ifvqgug","pricing_plan_id":"free"},{"bike_id":"174ffb7e-6ed2-46ad-a74e-4134a9f3426e","system_id":"levelo_inurba_marseille","lat":43.2815,"lon":5.426531,"is_reserved":false,"is_disabled":false,"rental_uris":{"android":"levelo://app?vid=174ffb7e-6ed2-46ad-a74e-4134a9f3426e","ios":"levelo://app?vid=174ffb7e-6ed2-46ad-a74e-4134a9f3426e"},"vehicle_type_id":"4","last_reported":1703779736,"current_range_meters":8400,"station_id":"ce4bhnh2rcd13ifvqgug","pricing_plan_id":"free"},