{"last_updated":1725566979,"ttl":30,"version":"2.2","data":{"bikes":[{"bike_id":"fcf747b5-bb4f-4f6d-baa4-84948d05685f","system_id":"levelo_inurba_marseille","lat":43.31341,"lon":5.367098,"is_reserved":false,"is_disabled":false,"rental_uris":{"android":"levelo://app?vid=fcf747b5-bb4f-4f6d-baa4-84948d05685f","ios":"levelo://app?vid=fcf747b5-bb4f-4f6d-baa4-84948d05685f"},"vehicle_type_id":"4","last_reported":1725566979,"current_range_meters":19200,"station_id":"ce4bgr92rcd13ifvqc6g","pricing_plan_id":"cebpf4jnsgd1na2vs0mg"},{"bike_id":"66792374-a25e-4ff5-983c-7e6ce7c718d2","system_id":"levelo_inurba_marseille","lat":43.312239,"lon":5.368562,"is_reserved":false,"is_disabled":false,"rental_uris":{"android":"levelo://app?vid=66792374-a25e-4ff5-983c-7e6ce7c718d2","ios":"levelo://app?vid=66792374-a25e-4ff5-983c-7e6ce7c718d2"},"vehicle_type_id":"4","last_reported":1725566979,"current_range_meters":24800,"station_id":"ce4bgl92rcd13ifvqbq0","pricing_plan_id":"cebpf4jnsgd1na2vs0mg"},{"bike_id":"f85b7caf-3289-4371-a16a-c462d018ff38","system_id":"levelo_inurba_marseille","lat":43.312239,"lon":5.368562,"is_reserved":false,"is_disabled":false,"rental_uris":{"android":"levelo://app?vid=f85b7caf-3289-4371-a16a-c462d018ff38","ios":"levelo://app?vid=f85b7caf-3289-4371-a16a-c462d018ff38"},"vehicle_type_id":"4","last_reported":1725566979,"current_range_meters":7600,"station_id":"ce4bgl92rcd13ifvqbq0","pricing_plan_id":"cebpf4jnsgd1na2vs0mg"},{"bike_id":"7ea29462-f5ab-4692-b90a-326164f5da9b","system_id":"levelo_inurba_marseille","lat":43.309076,"lon":5.368465,"is_reserved":false,"is_disabled":false,"rental_uris":{"android":"levelo://app?vid=7ea29462-f5ab-4692-b90a-326164f5da9b","ios":"levelo://app?vid=7ea29462-f5ab-4692-b90a-326164f5da9b"},"vehicle_type_id":"4","last_reported":1725566979,"current_range_meters":4000,"station_id":"ce4bgn92rcd13ifvqbvg","pricing_plan_id":"cebpf4jnsgd1na2vs0mg"},{"bike_id":"6a03bd6d-dac6-4449-8a9c-b4d67a116449","system_id":"levelo_inurba_marseille","lat":43.314884,"lon":5.372866,"is_reserved":false,"is_disabled":false,"rental_uris":{"android":"levelo://app?vid=6a03bd6d-dac6-4449-8a9c-b4d67a116449","ios":"levelo://app?vid=6a03bd6d-dac6-4449-8a9c-b4d67a116449"},"vehicle_type_id":"4","last_reported":1725566979,"current_range_meters":25600,"station_id":"ce4bgt12rcd13ifvqcd0","pricing_plan_id":"cebpf4jnsgd1na2vs0mg"},{"bike_id":"a2e38771-2b28-4ff6-ae14-763499422f70","system_id":"levelo_inurba_marseille","lat":43.311528,"lon":5.373346,"is_reserved":false,"is_disabled":false,"rental_uris":{"android":"levelo://app?vid=a2e38771-2b28-4ff6-ae14-763499422f70","ios":"levelo://app?vid=a2e38771-2b28-4ff6-ae14-763499422f70"},"vehicle_type_id":"4","last_reported":1725566979,"current_range_meters":14800,"station_id":"","pricing_plan_id":"cebpf4jnsgd1na2vs0mg"},{"bike_id":"ee42f87e-dacd-4eae-9820-363d949dbedb","system_id":"levelo_inurba_marseille","lat":43.314939,"lon":5.372996,"is_reserved":false,"is_disabled":false,"rental_uris":{"android":"levelo://app?vid=ee42f87e-dacd-4eae-9820-363d949dbedb","ios":"levelo://app?vid=ee42f87e-dacd-4eae-9820-363d949dbedb"},"vehicle_type_id":"4","last_reported":1725566979,"current_range_meters":10000,"station_id":"ce4bgt12rcd13ifvqcd0","pricing_plan_id":"cebpf4jnsgd1na2vs0mg"},{"bike_id":"0babb30d-4c7a-4b82-86f7-1c94d3d9cdf7","system_id":"levelo_inurba_marseille","lat":43.31489,"lon":5.37315,"is_reserved":false,"is_disabled":false,"rental_uris":{"android":"levelo://app?vid=0babb30d-4c7a-4b82-86f7-1c94d3d9cdf7","ios":"levelo://app?vid=0babb30d-4c7a-4b82-86f7-1c94d3d9cdf7"},"vehicle_type_id":"4","last_reported":1725566979,"current_range_meters":15600,"station_id":"ce4bgt12rcd13ifvqcd0","pricing_plan_id":"cebpf4jnsgd1na2vs0mg"},{"bike_id":"abc5c9f5-862c-4c6b-be9f-f5823ed12a6b","system_id":"levelo_inurba_marseille","lat":43.309039,"lon":5.371797,"is_reserved":false,"is_disabled":false,"rental_uris":{"android":"levelo://app?vid=abc5c9f5-862c-4c6b-be9f-f5823ed12a6b","ios":"levelo://app?vid=abc5c9f5-862c-4c6b-be9f-f5823ed12a6b"},"vehicle_type_id":"4","last_reported":1725566979,"current_range_meters":29200,"station_id":"ce4bguh2rcd13ifvqckg","pricing_plan_id":"cebpf4jnsgd1na2vs0mg"},{"bike_id":"fc90d98f-4a52-4d5b-8608-d2e9c79bf5e9","system_id":"levelo_inurba_marseille","lat":43.309034,"lon":5.371783,"is_reserved":false,"is_disabled":false,"rental_uris":{"android":"levelo://app?vid=fc90d98f-4a52-4d5b-8608-d2e9c79bf5e9","ios":"levelo://app?vid=fc90d98f-4a52-4d5b-8608-d2e9c79bf5e9"},"vehicle_type_id":"4","last_reported":1725566979,"current_range_meters":2800,"station_id":"ce4bguh2rcd13ifvqckg","pricing_plan_id":"cebpf4jnsgd1na2vs0mg"},{"bike_id":"2c3134ee-4ebc-4ffe-b572-7d0b09809437","system_id":"levelo_inurba_marseille","lat":43.309034,"lon":5.371783,"is_reserved":false,"is_disabled":false,"rental_uris":{"android":"levelo://app?vid=2c3134ee-4ebc-4ffe-b572-7d0b09809437","ios":"levelo://app?vid=2c3134ee-4ebc-4ffe-b572-7d0b09809437"},"vehicle_type_id":"4","last_reported":1725566979,"current_range_meters":20800,"station_id":"ce4bguh2rcd13ifvqckg","pricing_plan_id":"cebpf4jnsgd1na2vs0mg"},{"bike_id":"b656590f-602c-4397-9d77-c4707a4dd76a","system_id":"levelo_inurba_marseille","lat":43.309034,"lon":5.371783,"is_reserved":false,"is_disabled":false,"rental_uris":{"android":"levelo://app?vid=b656590f-602c-4397-9d77-c4707a4dd76a","ios":"levelo://app?vid=b656590f-602c-4397-9d77-c4707a4dd76a"},"vehicle_type_id":"4","last_reported":1725566979,"current_range_meters":14800,"station_id":"ce4bguh2rcd13ifvqckg","pricing_plan_id":"cebpf4jnsgd1na2vs0mg"},{"bike_id":"456b9bd8-d113-43dd-b8ce-028c3c01249b","system_id":"levelo_inurba_marseille","lat":43.308963,"lon":5.372017,"is_reserved":false,"is_disabled":false,"rental_uris":{"android":"levelo://app?vid=456b9bd8-d113-43dd-b8ce-028c3c01249b","ios":"levelo://app?vid=456b9bd8-d113-43dd-b8ce-028c3c01249b"},"vehicle_type_id":"4","last_reported":1725566979,"current_range_meters":0,"station_id":"ce4bguh2rcd13ifvqckg","pricing_plan_id":"cebpf4jnsgd1na2vs0mg"},{"bike_id":"ebc14089-2949-46ef-9600-021cefca6266","system_id":"levelo_inurba_marseille","lat":43.31448,"lon":5.3741,"is_reserved":false,"is_disabled":false,"rental_uris":{"android":"levelo://app?vid=ebc14089-2949-46ef-9600-021cefca6266","ios":"levelo://app?vid=ebc14089-2949-46ef-9600-021cefca6266"},"vehicle_type_id":"4","last_reported":1725566979,"current_range_meters":27600,"station_id":"","pricing_plan_id":"cebpf4jnsgd1na2vs0mg"},{"bike_id":"5f09eaec-6baf-4b64-a42c-150ba3841cb9","system_id":"levelo_inurba_marseille","lat":43.305712,"lon":5.365641,"is_reserved":false,"is_disabled":false,"rental_uris":{"android":"levelo://app?vid=5f09eaec-6baf-4b64-a42c-150ba3841cb9","ios":"levelo://app?vid=5f09eaec-6baf-4b64-a42c-150ba3841cb9"},"vehicle_type_id":"4","last_reported":1725566979,"current_range_meters":30400,"station_id":"ce4bgs12rcd13ifvqcag","pricing_plan_id":"cebpf4jnsgd1na2vs0mg"},{"bike_id":"0e2308a7-868f-45fc-8b0a-a1da3c3b5379","system_id":"levelo_inurba_marseille","lat":43.305712,"lon":5.365641,"is_reserved":false,"is_disabled":false,"rental_uris":{"android":"levelo://app?vid=0e2308a7-868f-45fc-8b0a-a1da3c3b5379","ios":"levelo://app?vid=0e2308a7-868f-45fc-8b0a-a1da3c3b5379"},"vehicle_type_id":"4","last_reported":1725566979,"current_range_meters":31200,"station_id":"ce4bgs12rcd13ifvqcag","pricing_plan_id":"cebpf4jnsgd1na2vs0mg"},{"bike_id":"c4c5405c-aee9-484a-ae2f-b592e9666a4e","system_id":"levelo_inurba_marseille","lat":43.305368,"lon":5.367343,"is_reserved":false,"is_disabled":false,"rental_uris":{"android":"levelo://app?vid=c4c5405c-aee9-484a-ae2f-b592e9666a4e","ios":"levelo://app?vid=c4c5405c-aee9-484a-ae2f-b592e9666a4e"},"vehicle_type_id":"4","last_reported":1725566979,"current_range_meters":23200,"station_id":"ce4bgrp2rcd13ifvqc9g","pricing_plan_id":"cebpf4jnsgd1na2vs0mg"},{"bike_id":"31e998a9-f767-4eae-b52f-61a0cf9d27fd","system_id":"levelo_inurba_marseille","lat":43.30537,"lon":5.367345,"is_reserved":false,"is_disabled":false,"rental_uris":{"android":"levelo://app?vid=31e998a9-f767-4eae-b52f-61a0cf9d27fd","ios":"levelo://app?vid=31e998a9-f767-4eae-b52f-61a0cf9d27fd"},"vehicle_type_id":"4","last_reported":1725566979,"current_range_meters":26000,"station_id":"ce4bgrp2rcd13ifvqc9g","pricing_plan_id":"cebpf4jnsgd1na2vs0mg"},{"bike_id":"612bffa5-377c-4483-a15e-5e213df6d810","system_id":"levelo_inurba_marseille","lat":43.30522,"lon":5.3659,"is_reserved":false,"is_disabled":false,"rental_uris":{"android":"levelo://app?vid=612bffa5-377c-4483-a15e-5e213df6d810","ios":"levelo://app?vid=612bffa5-377c-4483-a15e-5e213df6d810"},"vehicle_type_id":"4","last_reported":1725566979,"current_range_meters":16000,"station_id":"","pricing_plan_id":"cebpf4jnsgd1na2vs0mg"},{"bike_id":"291d923e-1b91-4446-9eaa-41a7b9325ebb","system_id":"levelo_inurba_marseille","lat":43.305989,"lon":5.37225,"is_reserved":false,"is_disabled":false,"rental_uris":{"android":"levelo://app?vid=291d923e-1b91-4446-9eaa-41a7b9325ebb","ios":"levelo://app?vid=291d923e-1b91-4446-9eaa-41a7b9325ebb"},"vehicle_type_id":"4","last_reported":1725566979,"current_range_meters":14000,"station_id":"ce4bgqh2rcd13ifvqc4g","pricing_plan_id":"cebpf4jnsgd1na2vs0mg"},{"bike_id":"bc77c15e-86a1-46f7-be5a-b11e7769b354","system_id":"levelo_inurba_marseille","lat":43.3128,"lon":5.37766,"is_reserved":false,"is_disabled":false,"rental_uris":{"android":"levelo://app?vid=bc77c15e-86a1-46f7-be5a-b11e7769b354","ios":"levelo://app?vid=bc77c15e-86a1-46f7-be5a-b11e7769b354"},"vehicle_type_id":"4","last_reported":1725566979,"current_range_meters":5600,"station_id":"","pricing_plan_id":"cebpf4jnsgd1na2vs0mg"},{"bike_id":"ca0fa509-18be-49e3-9486-5d8f759bd4c6","system_id":"levelo_inurba_marseille","lat":43.30591,"lon":5.37217,"is_reserved":false,"is_disabled":false,"rental_uris":{"android":"levelo://app?vid=ca0fa509-18be-49e3-9486-5d8f759bd4c6","ios":"levelo://app?vid=ca0fa509-18be-49e3-9486-5d8f759bd4c6"},"vehicle_type_id":"4","last_reported":1725566979,"current_range_meters":0,"station_id":"ce4bgqh2rcd13ifvqc4g","pricing_plan_id":"cebpf4jnsgd1na2vs0mg"},{"bike_id":"dfeefdd6-d3b8-41cf-9c47-8b746a9d4c5a","system_id":"levelo_inurba_marseille","lat":43.311125,"lon":5.377624,"is_reserved":false,"is_disabled":false,"rental_uris":{"android":"levelo://app?vid=dfeefdd6-d3b8-41cf-9c47-8b746a9d4c5a","ios":"levelo://app?vid=dfeefdd6-d3b8-41cf-9c47-8b746a9d4c5a"},"vehicle_type_id":"4","last_reported":1725566979,"current_range_meters":18000,"station_id":"ce4bgt92rcd13ifvqcg0","pricing_plan_id":"cebpf4jnsgd1na2vs0mg"},{"bike_id":"df7f512f-c273-4d5b-8e8d-09cf9df65382","system_id":"levelo_inurba_marseille","lat":43.307945,"lon":5.376487,"is_reserved":false,"is_disabled":false,"rental_uris":{"android":"levelo://app?vid=df7f512f-c273-4d5b-8e8d-09cf9df65382","ios":"levelo://app?vid=df7f512f-c273-4d5b-8e8d-09cf9df65382"},"vehicle_type_id":"4","last_reported":1725566979,"current_range_meters":18000,"station_id":"ce4bgv92rcd13ifvqcq0","pricing_plan_id":"cebpf4jnsgd1na2vs0mg"},{"bike_id":"a5206a72-8252-41b4-ae1d-dd9a44ab3d6f","system_id":"levelo_inurba_marseille","lat":43.317075,"lon":5.377367,"is_reserved":false,"is_disabled":false,"rental_uris":{"android":"levelo://app?vid=a5206a72-8252-41b4-ae1d-dd9a44ab3d6f","ios":"levelo://app?vid=a5206a72-8252-41b4-ae1d-dd9a44ab3d6f"},"vehicle_type_id":"4","last_reported":1725566979,"current_range_meters":2400,"station_id":"ce4bgth2rcd13ifvqch0","pricing_plan_id":"cebpf4jnsgd1na2vs0mg"},{"bike_id":"9c327a20-65e6-4cf7-8165-169bb977067e","system_id":"levelo_inurba_marseille","lat":43.301396,"lon":5.387812,"is_reserved":false,"is_disabled":false,"rental_uris":{"android":"levelo://app?vid=9c327a20-65e6-4cf7-8165-169bb977067e","ios":"levelo://app?vid=9c327a20-65e6-4cf7-8165-169bb977067e"},"vehicle_type_id":"4","last_reported":1725566979,"current_range_meters":1200,"station_id":"ce4bghh2rcd13ifvqb60","pricing_plan_id":"cebpf4jnsgd1na2vs0mg"},{"bike_id":"b3729d11-4c4c-450c-8d92-7fe4bb08d079","system_id":"levelo_inurba_marseille","lat":43.317075,"lon":5.377367,"is_reserved":false,"is_disabled":false,"rental_uris":{"android":"levelo://app?vid=b3729d11-4c4c-450c-8d92-7fe4bb08d079","ios":"levelo://app?vid=b3729d11-4c4c-450c-8d92-7fe4bb08d079"},"vehicle_type_id":"4","last_reported":1725566979,"current_range_meters":21600,"station_id":"ce4bgth2rcd13ifvqch0","pricing_plan_id":"cebpf4jnsgd1na2vs0mg"},{"bike_id":"2aa6f1c4-9fb6-4e47-84b2-322f33aa6146","system_id":"levelo_inurba_marseille","lat":43.31733,"lon":5.37798,"is_reserved":false,"is_disabled":false,"rental_uris":{"android":"levelo://app?vid=2aa6f1c4-9fb6-4e47-84b2-322f33aa6146","ios":"levelo://app?vid=2aa6f1c4-9fb6-4e47-84b2-322f33aa6146"},"vehicle_type_id":"4","last_reported":1725566979,"current_range_meters":19200,"station_id":"","pricing_plan_id":"cebpf4jnsgd1na2vs0mg"},{"bike_id":"83581d8e-3dce-4c11-9397-9e95ab85a5f3","system_id":"levelo_inurba_marseille","lat":43.311354,"lon":5.37988,"is_reserved":false,"is_disabled":false,"rental_uris":{"android":"levelo://app?vid=83581d8e-3dce-4c11-9397-9e95ab85a5f3","ios":"levelo://app?vid=83581d8e-3dce-4c11-9397-9e95ab85a5f3"},"vehicle_type_id":"4","last_reported":1725566979,"current_range_meters":10800,"station_id":"","pricing_plan_id":"cebpf4jnsgd1na2vs0mg"},{"bike_id":"ff2af42a-edd9-4fa9-9abe-69a403020991","system_id":"levelo_inurba_marseille","lat":43.30308,"lon":5.36887,"is_reserved":false,"is_disabled":false,"rental_uris":{"android":"levelo://app?vid=ff2af42a-edd9-4fa9-9abe-69a403020991","ios":"levelo://app?vid=ff2af42a-edd9-4fa9-9abe-69a403020991"},"vehicle_type_id":"4","last_reported":1725566979,"current_range_meters":4400,"station_id":"ce4bgqh2rcd13ifvqc5g","pricing_plan_id":"cebpf4jnsgd1na2vs0mg"},{"bike_id":"93d5722f-3a61-439c-a829-f03fc6dd5d4a","system_id":"levelo_inurba_marseille","lat":43.303046,"lon":5.368981,"is_reserved":false,"is_disabled":false,"rental_uris":{"android":"levelo://app?vid=93d5722f-3a61-439c-a829-f03fc6dd5d4a","ios":"levelo://app?vid=93d5722f-3a61-439c-a829-f03fc6dd5d4a"},"vehicle_type_id":"4","last_reported":1725566979,"current_range_meters":28000,"station_id":"ce4bgqh2rcd13ifvqc5g","pricing_plan_id":"cebpf4jnsgd1na2vs0mg"},{"bike_id":"6277ba14-9cc0-4d24-807c-0fc60bb52748","system_id":"levelo_inurba_marseille","lat":43.303947,"lon":5.37353,"is_reserved":false,"is_disabled":false,"rental_uris":{"android":"levelo://app?vid=6277ba14-9cc0-4d24-807c-0fc60bb52748","ios":"levelo://app?vid=6277ba14-9cc0-4d24-807c-0fc60bb52748"},"vehicle_type_id":"4","last_reported":1725566979,"current_range_meters":13200,"station_id":"","pricing_plan_id":"cebpf4jnsgd1na2vs0mg"},{"bike_id":"f85a9ce4-e2b5-4193-81ed-9a882dfdaadf","system_id":"levelo_inurba_marseille","lat":43.315289,"lon":5.380349,"is_reserved":false,"is_disabled":false,"rental_uris":{"android":"levelo://app?vid=f85a9ce4-e2b5-4193-81ed-9a882dfdaadf","ios":"levelo://app?vid=f85a9ce4-e2b5-4193-81ed-9a882dfdaadf"},"vehicle_type_id":"4","last_reported":1725566979,"current_range_meters":3600,"station_id":"ce4bhsp2rcd13ifvqi50","pricing_plan_id":"cebpf4jnsgd1na2vs0mg"},{"bike_id":"d94123c0-7eee-4c96-886d-8169ea2a4012","system_id":"levelo_inurba_marseille","lat":43.315289,"lon":5.380349,"is_reserved":false,"is_disabled":false,"rental_uris":{"android":"levelo://app?vid=d94123c0-7eee-4c96-886d-8169ea2a4012","ios":"levelo://app?vid=d94123c0-7eee-4c96-886d-8169ea2a4012"},"vehicle_type_id":"4","last_reported":1725566979,"current_range_meters":30800,"station_id":"ce4bhsp2rcd13ifvqi50","pricing_plan_id":"cebpf4jnsgd1na2vs0mg"},{"bike_id":"7989ef98-2242-45e7-92eb-92d8f54210f6","system_id":"levelo_inurba_marseille","lat":43.301939,"lon":5.366286,"is_reserved":false,"is_disabled":false,"rental_uris":{"android":"levelo://app?vid=7989ef98-2242-45e7-92eb-92d8f54210f6","ios":"levelo://app?vid=7989ef98-2242-45e7-92eb-92d8f54210f6"},"vehicle_type_id":"4","last_reported":1725566979,"current_range_meters":0,"station_id":"ce4bgrh2rcd13ifvqc8g","pricing_plan_id":"cebpf4jnsgd1na2vs0mg"},{"bike_id":"f93d5fba-dbf6-4d55-9a59-a3f3d549577d","system_id":"levelo_inurba_marseille","lat":43.301874,"lon":5.369423,"is_reserved":false,"is_disabled":false,"rental_uris":{"android":"levelo://app?vid=f93d5fba-dbf6-4d55-9a59-a3f3d549577d","ios":"levelo://app?vid=f93d5fba-dbf6-4d55-9a59-a3f3d549577d"},"vehicle_type_id":"4","last_reported":1725566979,"current_range_meters":0,"station_id":"","pricing_plan_id":"cebpf4jnsgd1na2vs0mg"},{"bike_id":"82e546a7-f08b-40a7-81a0-35cf01d5ac0d","system_id":"levelo_inurba_marseille","lat":43.308012,"lon":5.381511,"is_reserved":false,"is_disabled":false,"rental_uris":{"android":"levelo://app?vid=82e546a7-f08b-40a7-81a0-35cf01d5ac0d","ios":"levelo://app?vid=82e546a7-f08b-40a7-81a0-35cf01d5ac0d"},"vehicle_type_id":"4","last_reported":1725566979,"current_range_meters":24400,"station_id":"ce4bgt12rcd13ifvqce0","pricing_plan_id":"cebpf4jnsgd1na2vs0mg"},{"bike_id":"e898ebd5-df61-4734-88b6-8d51e5f15de9","system_id":"levelo_inurba_marseille","lat":43.308012,"lon":5.381511,"is_reserved":false,"is_disabled":false,"rental_uris":{"android":"levelo://app?vid=e898ebd5-df61-4734-88b6-8d51e5f15de9","ios":"levelo://app?vid=e898ebd5-df61-4734-88b6-8d51e5f15de9"},"vehicle_type_id":"4","last_reported":1725566979,"current_range_meters":24000,"station_id":"ce4bgt12rcd13ifvqce0","pricing_plan_id":"cebpf4jnsgd1na2vs0mg"},{"bike_id":"69ec441a-3327-4912-a3da-2182de162d2a","system_id":"levelo_inurba_marseille","lat":43.324771,"lon":5.36557,"is_reserved":false,"is_disabled":false,"rental_uris":{"android":"levelo://app?vid=69ec441a-3327-4912-a3da-2182de162d2a","ios":"levelo://app?vid=69ec441a-3327-4912-a3da-2182de162d2a"},"vehicle_type_id":"4","last_reported":1725566979,"current_range_meters":18000,"station_id":"ce4bhs12rcd13ifvqhvg","pricing_plan_id":"cebpf4jnsgd1na2vs0mg"},{"bike_id":"44bc3cf4-a447-4359-9d7f-d7c3681c66f1","system_id":"levelo_inurba_marseille","lat":43.324771,"lon":5.36557,"is_reserved":false,"is_disabled":false,"rental_uris":{"android":"levelo://app?vid=44bc3cf4-a447-4359-9d7f-d7c3681c66f1","ios":"levelo://app?vid=44bc3cf4-a447-4359-9d7f-d7c3681c66f1"},"vehicle_type_id":"4","last_reported":1725566979,"current_range_meters":400,"station_id":"ce4bhs12rcd13ifvqhvg","pricing_plan_id":"cebpf4jnsgd1na2vs0mg"},{"bike_id":"06e622cd-6202-4363-8842-071ba28a1627","system_id":"levelo_inurba_marseille","lat":43.302784,"lon":5.377158,"is_reserved":false,"is_disabled":false,"rental_uris":{"android":"levelo://app?vid=06e622cd-6202-4363-8842-071ba28a1627","ios":"levelo://app?vid=06e622cd-6202-4363-8842-071ba28a1627"},"vehicle_type_id":"4","last_reported":1725566979,"current_range_meters":10000,"station_id":"ce4bguh2rcd13ifvqcj0","pricing_plan_id":"cebpf4jnsgd1na2vs0mg"},{"bike_id":"8c268217-9049-41c9-9cfd-591a10ef6766","system_id":"levelo_inurba_marseille","lat":43.310757,"lon":5.383475,"is_reserved":false,"is_disabled":false,"rental_uris":{"android":"levelo://app?vid=8c268217-9049-41c9-9cfd-591a10ef6766","ios":"levelo://app?vid=8c268217-9049-41c9-9cfd-591a10ef6766"},"vehicle_type_id":"4","last_reported":1725566979,"current_range_meters":31200,"station_id":"ce4bgv92rcd13ifvqcr0","pricing_plan_id":"cebpf4jnsgd1na2vs0mg"},{"bike_id":"9f35ccfa-b8c5-4ebf-b27f-9cf0780d6927","system_id":"levelo_inurba_marseille","lat":43.310804,"lon":5.38359,"is_reserved":false,"is_disabled":false,"rental_uris":{"android":"levelo://app?vid=9f35ccfa-b8c5-4ebf-b27f-9cf0780d6927","ios":"levelo://app?vid=9f35ccfa-b8c5-4ebf-b27f-9cf0780d6927"},"vehicle_type_id":"4","last_reported":1725566979,"current_range_meters":15600,"station_id":"ce4bgv92rcd13ifvqcr0","pricing_plan_id":"cebpf4jnsgd1na2vs0mg"},{"bike_id":"43f37576-95dd-42cf-b312-b61e820c23e0","system_id":"levelo_inurba_marseille","lat":43.30144,"lon":5.37424,"is_reserved":false,"is_disabled":false,"rental_uris":{"android":"levelo://app?vid=43f37576-95dd-42cf-b312-b61e820c23e0","ios":"levelo://app?vid=43f37576-95dd-42cf-b312-b61e820c23e0"},"vehicle_type_id":"4","last_reported":1725566979,"current_range_meters":9600,"station_id":"ce4bgs92rcd13ifvqcc0","pricing_plan_id":"cebpf4jnsgd1na2vs0mg"},{"bike_id":"61386dc9-7da3-4656-b4f4-e8677f76fe29","system_id":"levelo_inurba_marseille","lat":43.301429,"lon":5.37413,"is_reserved":false,"is_disabled":false,"rental_uris":{"android":"levelo://app?vid=61386dc9-7da3-4656-b4f4-e8677f76fe29","ios":"levelo://app?vid=61386dc9-7da3-4656-b4f4-e8677f76fe29"},"vehicle_type_id":"4","last_reported":1725566979,"current_range_meters":18000,"station_id":"ce4bgs92rcd13ifvqcc0","pricing_plan_id":"cebpf4jnsgd1na2vs0mg"},{"bike_id":"b35479d5-2b38-420a-8d62-268ab9360bda","system_id":"levelo_inurba_marseille","lat":43.319935,"lon":5.381699,"is_reserved":false,"is_disabled":false,"rental_uris":{"android":"levelo://app?vid=b35479d5-2b38-420a-8d62-268ab9360bda","ios":"levelo://app?vid=b35479d5-2b38-420a-8d62-268ab9360bda"},"vehicle_type_id":"4","last_reported":1725566979,"current_range_meters":16800,"station_id":"ce4bhr12rcd13ifvqhpg","pricing_plan_id":"cebpf4jnsgd1na2vs0mg"},{"bike_id":"16e71d91-855d-4b7c-b199-83a75fe29149","system_id":"levelo_inurba_marseille","lat":43.319935,"lon":5.381699,"is_reserved":false,"is_disabled":false,"rental_uris":{"android":"levelo://app?vid=16e71d91-855d-4b7c-b199-83a75fe29149","ios":"levelo://app?vid=16e71d91-855d-4b7c-b199-83a75fe29149"},"vehicle_type_id":"4","last_reported":1725566979,"current_range_meters":800,"station_id":"ce4bhr12rcd13ifvqhpg","pricing_plan_id":"cebpf4jnsgd1na2vs0mg"},{"bike_id":"fb53a75e-de10-4bef-ba75-9a23fe4a4754","system_id":"levelo_inurba_marseille","lat":43.319935,"lon":5.381699,"is_reserved":false,"is_disabled":false,"rental_uris":{"android":"levelo://app?vid=fb53a75e-de10-4bef-ba75-9a23fe4a4754","ios":"levelo://app?vid=fb53a75e-de10-4bef-ba75-9a23fe4a4754"},"vehicle_type_id":"4","last_reported":1725566979,"current_range_meters":21200,"station_id":"ce4bhr12rcd13ifvqhpg","pricing_plan_id":"cebpf4jnsgd1na2vs0mg"},{"bike_id":"929ea1c6-0090-443e-9596-34c3e2d9fcb1","system_id":"levelo_inurba_marseille","lat":43.319935,"lon":5.381699,"is_reserved":false,"is_disabled":false,"rental_uris":{"android":"levelo://app?vid=929ea1c6-0090-443e-9596-34c3e2d9fcb1","ios":"levelo://app?vid=929ea1c6-0090-443e-9596-34c3e2d9fcb1"},"vehicle_type_id":"4","last_reported":1725566979,"current_range_meters":5200,"station_id":"ce4bhr12rcd13ifvqhpg","pricing_plan_id":"cebpf4jnsgd1na2vs0mg"},{"bike_id":"92a97b6a-e538-4de4-a87c-ae8d31fac080","system_id":"levelo_inurba_marseille","lat":43.319935,"lon":5.381699,"is_reserved":false,"is_disabled":false,"rental_uris":{"android":"levelo://app?vid=92a97b6a-e538-4de4-a87c-ae8d31fac080","ios":"levelo://app?vid=92a97b6a-e538-4de4-a87c-ae8d31fac080"},"vehicle_type_id":"4","last_reported":1725566979,"current_range_meters":16000,"station_id":"ce4bhr12rcd13ifvqhpg","pricing_plan_id":"cebpf4jnsgd1na2vs0mg"},{"bike_id":"8938212a-57c1-4a95-87ca-828c2722ee6b","system_id":"levelo_inurba_marseille","lat":43.319935,"lon":5.381699,"is_reserved":false,"is_disabled":false,"rental_uris":{"android":"levelo://app?vid=8938212a-57c1-4a95-87ca-828c2722ee6b","ios":"levelo://app?vid=8938212a-57c1-4a95-87ca-828c2722ee6b"},"vehicle_type_id":"4","last_reported":1725566979,"current_range_meters":29600,"station_id":"ce4bhr12rcd13ifvqhpg","pricing_plan_id":"cebpf4jnsgd1na2vs0mg"},{"bike_id":"674ca80f-4d88-4305-90a2-50a09fe47b9a","system_id":"levelo_inurba_marseille","lat":43.313571,"lon":5.384829,"is_reserved":false,"is_disabled":false,"rental_uris":{"android":"levelo://app?vid=674ca80f-4d88-4305-90a2-50a09fe47b9a","ios":"levelo://app?vid=674ca80f-4d88-4305-90a2-50a09fe47b9a"},"vehicle_type_id":"4","last_reported":1725566979,"current_range_meters":31200,"station_id":"ce4bgt92rcd13ifvqcf0","pricing_plan_id":"cebpf4jnsgd1na2vs0mg"},{"bike_id":"382e43f4-9c2c-468b-9717-7bfa7e1882ac","system_id":"levelo_inurba_marseille","lat":43.313571,"lon":5.384829,"is_reserved":false,"is_disabled":false,"rental_uris":{"android":"levelo://app?vid=382e43f4-9c2c-468b-9717-7bfa7e1882ac","ios":"levelo://app?vid=382e43f4-9c2c-468b-9717-7bfa7e1882ac"},"vehicle_type_id":"4","last_reported":1725566979,"current_range_meters":14400,"station_id":"ce4bgt92rcd13ifvqcf0","pricing_plan_id":"cebpf4jnsgd1na2vs0mg"},{"bike_id":"aea014cf-57b6-4930-9bdb-c04031a995d3","system_id":"levelo_inurba_marseille","lat":43.313571,"lon":5.384829,"is_reserved":false,"is_disabled":false,"rental_uris":{"android":"levelo://app?vid=aea014cf-57b6-4930-9bdb-c04031a995d3","ios":"levelo://app?vid=aea014cf-57b6-4930-9bdb-c04031a995d3"},"vehicle_type_id":"4","last_reported":1725566979,"current_range_meters":20400,"station_id":"ce4bgt92rcd13ifvqcf0","pricing_plan_id":"cebpf4jnsgd1na2vs0mg"},{"bike_id":"60f47d54-362a-4de8-bd86-e1bf3dca2c4a","system_id":"levelo_inurba_marseille","lat":43.313571,"lon":5.384829,"is_reserved":false,"is_disabled":false,"rental_uris":{"android":"levelo://app?vid=60f47d54-362a-4de8-bd86-e1bf3dca2c4a","ios":"levelo://app?vid=60f47d54-362a-4de8-bd86-e1bf3dca2c4a"},"vehicle_type_id":"4","last_reported":1725566979,"current_range_meters":7600,"station_id":"ce4bgt92rcd13ifvqcf0","pricing_plan_id":"cebpf4jnsgd1na2vs0mg"},{"bike_id":"4ce7e0da-722a-4530-afa1-7e0b61215887","system_id":"levelo_inurba_marseille","lat":43.313571,"lon":5.384829,"is_reserved":false,"is_disabled":false,"rental_uris":{"android":"levelo://app?vid=4ce7e0da-722a-4530-afa1-7e0b61215887","ios":"levelo://app?vid=4ce7e0da-722a-4530-afa1-7e0b61215887"},"vehicle_type_id":"4","last_reported":1725566979,"current_range_meters":26800,"station_id":"ce4bgt92rcd13ifvqcf0","pricing_plan_id":"cebpf4jnsgd1na2vs0mg"},{"bike_id":"12268dfb-29c1-4ff0-88da-41ec6bde6b2a","system_id":"levelo_inurba_marseille","lat":43.313571,"lon":5.384829,"is_reserved":false,"is_disabled":false,"rental_uris":{"android":"levelo://app?vid=12268dfb-29c1-4ff0-88da-41ec6bde6b2a","ios":"levelo://app?vid=12268dfb-29c1-4ff0-88da-41ec6bde6b2a"},"vehicle_type_id":"4","last_reported":1725566979,"current_range_meters":13200,"station_id":"ce4bgt92rcd13ifvqcf0","pricing_plan_id":"cebpf4jnsgd1na2vs0mg"},{"bike_id":"0ae22448-8d1e-4ed1-9619-e0e759c0d7e5","system_id":"levelo_inurba_marseille","lat":43.313571,"lon":5.384829,"is_reserved":false,"is_disabled":false,"rental_uris":{"android":"levelo://app?vid=0ae22448-8d1e-4ed1-9619-e0e759c0d7e5","ios":"levelo://app?vid=0ae22448-8d1e-4ed1-9619-e0e759c0d7e5"},"vehicle_type_id":"4","last_reported":1725566979,"current_range_meters":16400,"station_id":"ce4bgt92rcd13ifvqcf0","pricing_plan_id":"cebpf4jnsgd1na2vs0mg"},{"bike_id":"c5e7cf0b-1e78-44cc-b61f-256280e18123","system_id":"levelo_inurba_marseille","lat":43.313571,"lon":5.384829,"is_reserved":false,"is_disabled":false,"rental_uris":{"android":"levelo://app?vid=c5e7cf0b-1e78-44cc-b61f-256280e18123","ios":"levelo://app?vid=c5e7cf0b-1e78-44cc-b61f-256280e18123"},"vehicle_type_id":"4","last_reported":1725566979,"current_range_meters":18400,"station_id":"ce4bgt92rcd13ifvqcf0","pricing_plan_id":"cebpf4jnsgd1na2vs0mg"},{"bike_id":"b5065969-25df-4ef5-a5b7-880c135c99be","system_id":"levelo_inurba_marseille","lat":43.313571,"lon":5.384829,"is_reserved":false,"is_disabled":false,"rental_uris":{"android":"levelo://app?vid=b5065969-25df-4ef5-a5b7-880c135c99be","ios":"levelo://app?vid=b5065969-25df-4ef5-a5b7-880c135c99be"},"vehicle_type_id":"4","last_reported":1725566979,"current_range_meters":17600,"station_id":"ce4bgt92rcd13ifvqcf0","pricing_plan_id":"cebpf4jnsgd1na2vs0mg"},{"bike_id":"7cb528b3-e04f-45a8-b979-6a8692f33a02","system_id":"levelo_inurba_marseille","lat":43.3136,"lon":5.38501,"is_reserved":false,"is_disabled":false,"rental_uris":{"android":"levelo://app?vid=7cb528b3-e04f-45a8-b979-6a8692f33a02","ios":"levelo://app?vid=7cb528b3-e04f-45a8-b979-6a8692f33a02"},"vehicle_type_id":"4","last_reported":1725566979,"current_range_meters":31200,"station_id":"ce4bgt92rcd13ifvqcf0","pricing_plan_id":"cebpf4jnsgd1na2vs0mg"},{"bike_id":"aa33061a-c9c6-4a0a-a742-209227c02caa","system_id":"levelo_inurba_marseille","lat":43.313595,"lon":5.385021,"is_reserved":false,"is_disabled":false,"rental_uris":{"android":"levelo://app?vid=aa33061a-c9c6-4a0a-a742-209227c02caa","ios":"levelo://app?vid=aa33061a-c9c6-4a0a-a742-209227c02caa"},"vehicle_type_id":"4","last_reported":1725566979,"current_range_meters":18800,"station_id":"ce4bgt92rcd13ifvqcf0","pricing_plan_id":"cebpf4jnsgd1na2vs0mg"},{"bike_id":"48b36ce5-f8ab-4e4e-89e9-d26f8b6901b7","system_id":"levelo_inurba_marseille","lat":43.3136,"lon":5.38503,"is_reserved":false,"is_disabled":false,"rental_uris":{"android":"levelo://app?vid=48b36ce5-f8ab-4e4e-89e9-d26f8b6901b7","ios":"levelo://app?vid=48b36ce5-f8ab-4e4e-89e9-d26f8b6901b7"},"vehicle_type_id":"4","last_reported":1725566979,"current_range_meters":31200,"station_id":"ce4bgt92rcd13ifvqcf0","pricing_plan_id":"cebpf4jnsgd1na2vs0mg"},{"bike_id":"fd366771-a9c2-42aa-ac6a-a1e637615208","system_id":"levelo_inurba_marseille","lat":43.2995,"lon":5.36531,"is_reserved":false,"is_disabled":false,"rental_uris":{"android":"levelo://app?vid=fd366771-a9c2-42aa-ac6a-a1e637615208","ios":"levelo://app?vid=fd366771-a9c2-42aa-ac6a-a1e637615208"},"vehicle_type_id":"4","last_reported":1725566979,"current_range_meters":10400,"station_id":"ce4bgm92rcd13ifvqbr0","pricing_plan_id":"cebpf4jnsgd1na2vs0mg"},{"bike_id":"a9c21ce2-cb20-478d-8437-c6e3da7ad773","system_id":"levelo_inurba_marseille","lat":43.299222,"lon":5.365554,"is_reserved":false,"is_disabled":false,"rental_uris":{"android":"levelo://app?vid=a9c21ce2-cb20-478d-8437-c6e3da7ad773","ios":"levelo://app?vid=a9c21ce2-cb20-478d-8437-c6e3da7ad773"},"vehicle_type_id":"4","last_reported":1725566979,"current_range_meters":8800,"station_id":"ce4bgm92rcd13ifvqbr0","pricing_plan_id":"cebpf4jnsgd1na2vs0mg"},{"bike_id":"8e23dffd-1c63-43c6-a2c9-62eff574d2bb","system_id":"levelo_inurba_marseille","lat":43.305364,"lon":5.384119,"is_reserved":false,"is_disabled":false,"rental_uris":{"android":"levelo://app?vid=8e23dffd-1c63-43c6-a2c9-62eff574d2bb","ios":"levelo://app?vid=8e23dffd-1c63-43c6-a2c9-62eff574d2bb"},"vehicle_type_id":"4","last_reported":1725566979,"current_range_meters":0,"station_id":"ce4bgg92rcd13ifvqb30","pricing_plan_id":"cebpf4jnsgd1na2vs0mg"},{"bike_id":"b7de77d6-a1c3-4bab-9737-8b05033f95fc","system_id":"levelo_inurba_marseille","lat":43.298433,"lon":5.362774,"is_reserved":false,"is_disabled":false,"rental_uris":{"android":"levelo://app?vid=b7de77d6-a1c3-4bab-9737-8b05033f95fc","ios":"levelo://app?vid=b7de77d6-a1c3-4bab-9737-8b05033f95fc"},"vehicle_type_id":"4","last_reported":1725566979,"current_range_meters":25600,"station_id":"ce4bgpp2rcd13ifvqc3g","pricing_plan_id":"cebpf4jnsgd1na2vs0mg"},{"bike_id":"51cc7ae2-76a1-4143-afe4-1a5e222e9ba5","system_id":"levelo_inurba_marseille","lat":43.32617,"lon":5.37511,"is_reserved":false,"is_disabled":false,"rental_uris":{"android":"levelo://app?vid=51cc7ae2-76a1-4143-afe4-1a5e222e9ba5","ios":"levelo://app?vid=51cc7ae2-76a1-4143-afe4-1a5e222e9ba5"},"vehicle_type_id":"4","last_reported":1725566979,"current_range_meters":28400,"station_id":"","pricing_plan_id":"cebpf4jnsgd1na2vs0mg"},{"bike_id":"b3ca412f-d8c3-4f2c-9cca-55497374d9cd","system_id":"levelo_inurba_marseille","lat":43.311722,"lon":5.387247,"is_reserved":false,"is_disabled":false,"rental_uris":{"android":"levelo://app?vid=b3ca412f-d8c3-4f2c-9cca-55497374d9cd","ios":"levelo://app?vid=b3ca412f-d8c3-4f2c-9cca-55497374d9cd"},"vehicle_type_id":"4","last_reported":1725566979,"current_range_meters":24000,"station_id":"ce4bgv12rcd13ifvqcp0","pricing_plan_id":"cebpf4jnsgd1na2vs0mg"},{"bike_id":"d3461a6a-3fc8-4f0e-8549-a2b029ee8913","system_id":"levelo_inurba_marseille","lat":43.311722,"lon":5.387247,"is_reserved":false,"is_disabled":false,"rental_uris":{"android":"levelo://app?vid=d3461a6a-3fc8-4f0e-8549-a2b029ee8913","ios":"levelo://app?vid=d3461a6a-3fc8-4f0e-8549-a2b029ee8913"},"vehicle_type_id":"4","last_reported":1725566979,"current_range_meters":7600,"station_id":"ce4bgv12rcd13ifvqcp0","pricing_plan_id":"cebpf4jnsgd1na2vs0mg"},{"bike_id":"87fa8cbc-2272-4220-857a-0aa2b3e78dd4","system_id":"levelo_inurba_marseille","lat":43.311722,"lon":5.387247,"is_reserved":false,"is_disabled":false,"rental_uris":{"android":"levelo://app?vid=87fa8cbc-2272-4220-857a-0aa2b3e78dd4","ios":"levelo://app?vid=87fa8cbc-2272-4220-857a-0aa2b3e78dd4"},"vehicle_type_id":"4","last_reported":1725566979,"current_range_meters":8400,"station_id":"ce4bgv12rcd13ifvqcp0","pricing_plan_id":"cebpf4jnsgd1na2vs0mg"},{"bike_id":"4277596c-d52b-4261-9e0b-fbce4104b0f6","system_id":"levelo_inurba_marseille","lat":43.311722,"lon":5.387247,"is_reserved":false,"is_disabled":false,"rental_uris":{"android":"levelo://app?vid=4277596c-d52b-4261-9e0b-fbce4104b0f6","ios":"levelo://app?vid=4277596c-d52b-4261-9e0b-fbce4104b0f6"},"vehicle_type_id":"4","last_reported":1725566979,"current_range_meters":0,"station_id":"ce4bgv12rcd13ifvqcp0","pricing_plan_id":"cebpf4jnsgd1na2vs0mg"},{"bike_id":"30658183-1100-49a1-b13e-02eace17e50f","system_id":"levelo_inurba_marseille","lat":43.30149,"lon":5.38077,"is_reserved":false,"is_disabled":false,"rental_uris":{"android":"levelo://app?vid=30658183-1100-49a1-b13e-02eace17e50f","ios":"levelo://app?vid=30658183-1100-49a1-b13e-02eace17e50f"},"vehicle_type_id":"4","last_reported":1725566979,"current_range_meters":0,"station_id":"ce4bgjp2rcd13ifvqbh0","pricing_plan_id":"cebpf4jnsgd1na2vs0mg"},{"bike_id":"0c12a139-6aae-4294-8381-89d665d90a05","system_id":"levelo_inurba_marseille","lat":43.29783,"lon":5.37092,"is_reserved":false,"is_disabled":false,"rental_uris":{"android":"levelo://app?vid=0c12a139-6aae-4294-8381-89d665d90a05","ios":"levelo://app?vid=0c12a139-6aae-4294-8381-89d665d90a05"},"vehicle_type_id":"4","last_reported":1725566979,"current_range_meters":8000,"station_id":"ce4bgop2rcd13ifvqc1g","pricing_plan_id":"cebpf4jnsgd1na2vs0mg"},{"bike_id":"1e7f2808-75a6-491a-adde-f6c2a4d6032d","system_id":"levelo_inurba_marseille","lat":43.297774,"lon":5.370875,"is_reserved":false,"is_disabled":false,"rental_uris":{"android":"levelo://app?vid=1e7f2808-75a6-491a-adde-f6c2a4d6032d","ios":"levelo://app?vid=1e7f2808-75a6-491a-adde-f6c2a4d6032d"},"vehicle_type_id":"4","last_reported":1725566979,"current_range_meters":26800,"station_id":"ce4bgop2rcd13ifvqc1g","pricing_plan_id":"cebpf4jnsgd1na2vs0mg"},{"bike_id":"738a9119-88e9-4a93-acd0-26460ccaa111","system_id":"levelo_inurba_marseille","lat":43.322872,"lon":5.382756,"is_reserved":false,"is_disabled":false,"rental_uris":{"android":"levelo://app?vid=738a9119-88e9-4a93-acd0-26460ccaa111","ios":"levelo://app?vid=738a9119-88e9-4a93-acd0-26460ccaa111"},"vehicle_type_id":"4","last_reported":1725566979,"current_range_meters":31600,"station_id":"ce4bhr12rcd13ifvqhqg","pricing_plan_id":"cebpf4jnsgd1na2vs0mg"},{"bike_id":"9d4d4ad3-9fa4-4394-8995-8a5887e80cc8","system_id":"levelo_inurba_marseille","lat":43.322872,"lon":5.382756,"is_reserved":false,"is_disabled":false,"rental_uris":{"android":"levelo://app?vid=9d4d4ad3-9fa4-4394-8995-8a5887e80cc8","ios":"levelo://app?vid=9d4d4ad3-9fa4-4394-8995-8a5887e80cc8"},"vehicle_type_id":"4","last_reported":1725566979,"current_range_meters":20000,"station_id":"ce4bhr12rcd13ifvqhqg","pricing_plan_id":"cebpf4jnsgd1na2vs0mg"},{"bike_id":"704d9680-cc53-4cd1-8f9d-7a4dde239d3f","system_id":"levelo_inurba_marseille","lat":43.322879,"lon":5.38279,"is_reserved":false,"is_disabled":false,"rental_uris":{"android":"levelo://app?vid=704d9680-cc53-4cd1-8f9d-7a4dde239d3f","ios":"levelo://app?vid=704d9680-cc53-4cd1-8f9d-7a4dde239d3f"},"vehicle_type_id":"4","last_reported":1725566979,"current_range_meters":17600,"station_id":"ce4bhr12rcd13ifvqhqg","pricing_plan_id":"cebpf4jnsgd1na2vs0mg"},{"bike_id":"71a00331-0444-4dc6-9b9a-8be26ebdcaa8","system_id":"levelo_inurba_marseille","lat":43.322896,"lon":5.382786,"is_reserved":false,"is_disabled":false,"rental_uris":{"android":"levelo://app?vid=71a00331-0444-4dc6-9b9a-8be26ebdcaa8","ios":"levelo://app?vid=71a00331-0444-4dc6-9b9a-8be26ebdcaa8"},"vehicle_type_id":"4","last_reported":1725566979,"current_range_meters":6000,"station_id":"ce4bhr12rcd13ifvqhqg","pricing_plan_id":"cebpf4jnsgd1na2vs0mg"},{"bike_id":"8720a550-f2c6-4762-967e-79b5151a6f6b","system_id":"levelo_inurba_marseille","lat":43.322872,"lon":5.382756,"is_reserved":false,"is_disabled":false,"rental_uris":{"android":"levelo://app?vid=8720a550-f2c6-4762-967e-79b5151a6f6b","ios":"levelo://app?vid=8720a550-f2c6-4762-967e-79b5151a6f6b"},"vehicle_type_id":"4","last_reported":1725566979,"current_range_meters":27600,"station_id":"ce4bhr12rcd13ifvqhqg","pricing_plan_id":"cebpf4jnsgd1na2vs0mg"},{"bike_id":"50cf8570-20e9-449c-bd3a-1363ce5dc6fd","system_id":"levelo_inurba_marseille","lat":43.297774,"lon":5.370875,"is_reserved":false,"is_disabled":false,"rental_uris":{"android":"levelo://app?vid=50cf8570-20e9-449c-bd3a-1363ce5dc6fd","ios":"levelo://app?vid=50cf8570-20e9-449c-bd3a-1363ce5dc6fd"},"vehicle_type_id":"4","last_reported":1725566979,"current_range_meters":21200,"station_id":"ce4bgop2rcd13ifvqc1g","pricing_plan_id":"cebpf4jnsgd1na2vs0mg"},{"bike_id":"5dcd933d-776b-40d8-bcef-33e8115978a6","system_id":"levelo_inurba_marseille","lat":43.322872,"lon":5.382756,"is_reserved":false,"is_disabled":false,"rental_uris":{"android":"levelo://app?vid=5dcd933d-776b-40d8-bcef-33e8115978a6","ios":"levelo://app?vid=5dcd933d-776b-40d8-bcef-33e8115978a6"},"vehicle_type_id":"4","last_reported":1725566979,"current_range_meters":20000,"station_id":"ce4bhr12rcd13ifvqhqg","pricing_plan_id":"cebpf4jnsgd1na2vs0mg"},{"bike_id":"baad5688-8c57-40e1-829a-381fb423753e","system_id":"levelo_inurba_marseille","lat":43.322872,"lon":5.382756,"is_reserved":false,"is_disabled":false,"rental_uris":{"android":"levelo://app?vid=baad5688-8c57-40e1-829a-381fb423753e","ios":"levelo://app?vid=baad5688-8c57-40e1-829a-381fb423753e"},"vehicle_type_id":"4","last_reported":1725566979,"current_range_meters":31200,"station_id":"ce4bhr12rcd13ifvqhqg","pricing_plan_id":"cebpf4jnsgd1na2vs0mg"},{"bike_id":"a9b962ba-226c-466c-9b09-89e48831ffd5","system_id":"levelo_inurba_marseille","lat":43.322872,"lon":5.382756,"is_reserved":false,"is_disabled":false,"rental_uris":{"android":"levelo://app?vid=a9b962ba-226c-466c-9b09-89e48831ffd5","ios":"levelo://app?vid=a9b962ba-226c-466c-9b09-89e48831ffd5"},"vehicle_type_id":"4","last_reported":1725566979,"current_range_meters":31200,"station_id":"ce4bhr12rcd13ifvqhqg","pricing_plan_id":"cebpf4jnsgd1na2vs0mg"},{"bike_id":"d28e36b9-6d10-4aaf-b4de-1bd92b48383d","system_id":"levelo_inurba_marseille","lat":43.322872,"lon":5.382756,"is_reserved":false,"is_disabled":false,"rental_uris":{"android":"levelo://app?vid=d28e36b9-6d10-4aaf-b4de-1bd92b48383d","ios":"levelo://app?vid=d28e36b9-6d10-4aaf-b4de-1bd92b48383d"},"vehicle_type_id":"4","last_reported":1725566979,"current_range_meters":30400,"station_id":"ce4bhr12rcd13ifvqhqg","pricing_plan_id":"cebpf4jnsgd1na2vs0mg"},{"bike_id":"b7fb226a-cada-4b80-8f1b-74f54adecbc1","system_id":"levelo_inurba_marseille","lat":43.322872,"lon":5.382756,"is_reserved":false,"is_disabled":false,"rental_uris":{"android":"levelo://app?vid=b7fb226a-cada-4b80-8f1b-74f54adecbc1","ios":"levelo://app?vid=b7fb226a-cada-4b80-8f1b-74f54adecbc1"},"vehicle_type_id":"4","last_reported":1725566979,"current_range_meters":4800,"station_id":"ce4bhr12rcd13ifvqhqg","pricing_plan_id":"cebpf4jnsgd1na2vs0mg"},{"bike_id":"78abea18-5143-470f-8ced-84a677316546","system_id":"levelo_inurba_marseille","lat":43.32287,"lon":5.38292,"is_reserved":false,"is_disabled":false,"rental_uris":{"android":"levelo://app?vid=78abea18-5143-470f-8ced-84a677316546","ios":"levelo://app?vid=78abea18-5143-470f-8ced-84a677316546"},"vehicle_type_id":"4","last_reported":1725566979,"current_range_meters":4800,"station_id":"ce4bhr12rcd13ifvqhqg","pricing_plan_id":"cebpf4jnsgd1na2vs0mg"},{"bike_id":"9d2ea8f0-6e5b-4989-90a6-7c9b9550f4df","system_id":"levelo_inurba_marseille","lat":43.297163,"lon":5.365866,"is_reserved":false,"is_disabled":false,"rental_uris":{"android":"levelo://app?vid=9d2ea8f0-6e5b-4989-90a6-7c9b9550f4df","ios":"levelo://app?vid=9d2ea8f0-6e5b-4989-90a6-7c9b9550f4df"},"vehicle_type_id":"4","last_reported":1725566979,"current_range_meters":21200,"station_id":"ce4bgn12rcd13ifvqbt0","pricing_plan_id":"cebpf4jnsgd1na2vs0mg"},{"bike_id":"2bc6f447-1427-4ac8-8efe-15db4f531200","system_id":"levelo_inurba_marseille","lat":43.297163,"lon":5.365866,"is_reserved":false,"is_disabled":false,"rental_uris":{"android":"levelo://app?vid=2bc6f447-1427-4ac8-8efe-15db4f531200","ios":"levelo://app?vid=2bc6f447-1427-4ac8-8efe-15db4f531200"},"vehicle_type_id":"4","last_reported":1725566979,"current_range_meters":16000,"station_id":"ce4bgn12rcd13ifvqbt0","pricing_plan_id":"cebpf4jnsgd1na2vs0mg"},{"bike_id":"b06b6764-22fc-491f-a380-cb956626401f","system_id":"levelo_inurba_marseille","lat":43.297163,"lon":5.365866,"is_reserved":false,"is_disabled":false,"rental_uris":{"android":"levelo://app?vid=b06b6764-22fc-491f-a380-cb956626401f","ios":"levelo://app?vid=b06b6764-22fc-491f-a380-cb956626401f"},"vehicle_type_id":"4","last_reported":1725566979,"current_range_meters":31200,"station_id":"ce4bgn12rcd13ifvqbt0","pricing_plan_id":"cebpf4jnsgd1na2vs0mg"},{"bike_id":"b1da9de1-1d4a-49b7-82ec-4a965fc108f3","system_id":"levelo_inurba_marseille","lat":43.297163,"lon":5.365866,"is_reserved":false,"is_disabled":false,"rental_uris":{"android":"levelo://app?vid=b1da9de1-1d4a-49b7-82ec-4a965fc108f3","ios":"levelo://app?vid=b1da9de1-1d4a-49b7-82ec-4a965fc108f3"},"vehicle_type_id":"4","last_reported":1725566979,"current_range_meters":4800,"station_id":"ce4bgn12rcd13ifvqbt0","pricing_plan_id":"cebpf4jnsgd1na2vs0mg"},{"bike_id":"8cb94381-dda3-4827-a9fd-3fa06c00f47b","system_id":"levelo_inurba_marseille","lat":43.297163,"lon":5.365866,"is_reserved":false,"is_disabled":false,"rental_uris":{"android":"levelo://app?vid=8cb94381-dda3-4827-a9fd-3fa06c00f47b","ios":"levelo://app?vid=8cb94381-dda3-4827-a9fd-3fa06c00f47b"},"vehicle_type_id":"4","last_reported":1725566979,"current_range_meters":30000,"station_id":"ce4bgn12rcd13ifvqbt0","pricing_plan_id":"cebpf4jnsgd1na2vs0mg"},{"bike_id":"8a8887de-5c7d-4b1c-91b2-78e9c920b48d","system_id":"levelo_inurba_marseille","lat":43.2968,"lon":5.37291,"is_reserved":false,"is_disabled":false,"rental_uris":{"android":"levelo://app?vid=8a8887de-5c7d-4b1c-91b2-78e9c920b48d","ios":"levelo://app?vid=8a8887de-5c7d-4b1c-91b2-78e9c920b48d"},"vehicle_type_id":"4","last_reported":1725566979,"current_range_meters":29200,"station_id":"ce4bgk12rcd13ifvqbj0","pricing_plan_id":"cebpf4jnsgd1na2vs0mg"},{"bike_id":"699cd0c7-f2d1-4085-b122-507111259897","system_id":"levelo_inurba_marseille","lat":43.2958,"lon":5.36741,"is_reserved":false,"is_disabled":false,"rental_uris":{"android":"levelo://app?vid=699cd0c7-f2d1-4085-b122-507111259897","ios":"levelo://app?vid=699cd0c7-f2d1-4085-b122-507111259897"},"vehicle_type_id":"4","last_reported":1725566979,"current_range_meters":29200,"station_id":"ce4bgph2rcd13ifvqc2g","pricing_plan_id":"cebpf4jnsgd1na2vs0mg"},{"bike_id":"c4c95f8c-bfa1-4007-a2ea-48f6584ba611","system_id":"levelo_inurba_marseille","lat":43.29911,"lon":5.3814,"is_reserved":false,"is_disabled":false,"rental_uris":{"android":"levelo://app?vid=c4c95f8c-bfa1-4007-a2ea-48f6584ba611","ios":"levelo://app?vid=c4c95f8c-bfa1-4007-a2ea-48f6584ba611"},"vehicle_type_id":"4","last_reported":1725566979,"current_range_meters":0,"station_id":"ce4bgj12rcd13ifvqbc0","pricing_plan_id":"cebpf4jnsgd1na2vs0mg"},{"bike_id":"18f0f31c-3bef-4047-a1c6-a8dd6d19a570","system_id":"levelo_inurba_marseille","lat":43.309589,"lon":5.390258,"is_reserved":false,"is_disabled":false,"rental_uris":{"android":"levelo://app?vid=18f0f31c-3bef-4047-a1c6-a8dd6d19a570","ios":"levelo://app?vid=18f0f31c-3bef-4047-a1c6-a8dd6d19a570"},"vehicle_type_id":"4","last_reported":1725566979,"current_range_meters":9200,"station_id":"ce4bgup2rcd13ifvqco0","pricing_plan_id":"cebpf4jnsgd1na2vs0mg"},{"bike_id":"dd076b7e-08ab-4daf-9d5e-c0a419b1b8dc","system_id":"levelo_inurba_marseille","lat":43.30949,"lon":5.39027,"is_reserved":false,"is_disabled":false,"rental_uris":{"android":"levelo://app?vid=dd076b7e-08ab-4daf-9d5e-c0a419b1b8dc","ios":"levelo://app?vid=dd076b7e-08ab-4daf-9d5e-c0a419b1b8dc"},"vehicle_type_id":"4","last_reported":1725566979,"current_range_meters":0,"station_id":"ce4bgup2rcd13ifvqco0","pricing_plan_id":"cebpf4jnsgd1na2vs0mg"},{"bike_id":"8498c389-c842-4bd8-b433-68f5608144f4","system_id":"levelo_inurba_marseille","lat":43.309589,"lon":5.390258,"is_reserved":false,"is_disabled":false,"rental_uris":{"android":"levelo://app?vid=8498c389-c842-4bd8-b433-68f5608144f4","ios":"levelo://app?vid=8498c389-c842-4bd8-b433-68f5608144f4"},"vehicle_type_id":"4","last_reported":1725566979,"current_range_meters":15200,"station_id":"ce4bgup2rcd13ifvqco0","pricing_plan_id":"cebpf4jnsgd1na2vs0mg"},{"bike_id":"4dbc3197-f3fe-4f2e-b389-d410e3e7f191","system_id":"levelo_inurba_marseille","lat":43.309525,"lon":5.3905,"is_reserved":false,"is_disabled":false,"rental_uris":{"android":"levelo://app?vid=4dbc3197-f3fe-4f2e-b389-d410e3e7f191","ios":"levelo://app?vid=4dbc3197-f3fe-4f2e-b389-d410e3e7f191"},"vehicle_type_id":"4","last_reported":1725566979,"current_range_meters":21600,"station_id":"ce4bgup2rcd13ifvqco0","pricing_plan_id":"cebpf4jnsgd1na2vs0mg"},{"bike_id":"071af8fa-9aeb-4b3e-85d0-f868e0d52a9c","system_id":"levelo_inurba_marseille","lat":43.317557,"lon":5.390173,"is_reserved":false,"is_disabled":false,"rental_uris":{"android":"levelo://app?vid=071af8fa-9aeb-4b3e-85d0-f868e0d52a9c","ios":"levelo://app?vid=071af8fa-9aeb-4b3e-85d0-f868e0d52a9c"},"vehicle_type_id":"4","last_reported":1725566979,"current_range_meters":6400,"station_id":"ce4bhqp2rcd13ifvqhng","pricing_plan_id":"cebpf4jnsgd1na2vs0mg"},{"bike_id":"f1b8f819-2097-4748-ae6d-698cc976bc5d","system_id":"levelo_inurba_marseille","lat":43.317557,"lon":5.390173,"is_reserved":false,"is_disabled":false,"rental_uris":{"android":"levelo://app?vid=f1b8f819-2097-4748-ae6d-698cc976bc5d","ios":"levelo://app?vid=f1b8f819-2097-4748-ae6d-698cc976bc5d"},"vehicle_type_id":"4","last_reported":1725566979,"current_range_meters":0,"station_id":"ce4bhqp2rcd13ifvqhng","pricing_plan_id":"cebpf4jnsgd1na2vs0mg"},{"bike_id":"10f69fe8-7773-460f-8cbc-84d5043d302b","system_id":"levelo_inurba_marseille","lat":43.322566,"lon":5.387067,"is_reserved":false,"is_disabled":false,"rental_uris":{"android":"levelo://app?vid=10f69fe8-7773-460f-8cbc-84d5043d302b","ios":"levelo://app?vid=10f69fe8-7773-460f-8cbc-84d5043d302b"},"vehicle_type_id":"4","last_reported":1725566979,"current_range_meters":28000,"station_id":"","pricing_plan_id":"cebpf4jnsgd1na2vs0mg"},{"bike_id":"cc184375-6b56-424e-b233-af560fd6d5c8","system_id":"levelo_inurba_marseille","lat":43.317557,"lon":5.390173,"is_reserved":false,"is_disabled":false,"rental_uris":{"android":"levelo://app?vid=cc184375-6b56-424e-b233-af560fd6d5c8","ios":"levelo://app?vid=cc184375-6b56-424e-b233-af560fd6d5c8"},"vehicle_type_id":"4","last_reported":1725566979,"current_range_meters":23600,"station_id":"ce4bhqp2rcd13ifvqhng","pricing_plan_id":"cebpf4jnsgd1na2vs0mg"},{"bike_id":"a2c0d4f4-7469-4917-80e5-3298e8f27959","system_id":"levelo_inurba_marseille","lat":43.31452,"lon":5.39117,"is_reserved":false,"is_disabled":false,"rental_uris":{"android":"levelo://app?vid=a2c0d4f4-7469-4917-80e5-3298e8f27959","ios":"levelo://app?vid=a2c0d4f4-7469-4917-80e5-3298e8f27959"},"vehicle_type_id":"4","last_reported":1725566979,"current_range_meters":6800,"station_id":"","pricing_plan_id":"cebpf4jnsgd1na2vs0mg"},{"bike_id":"f1ecd64b-714e-4eb7-8e96-8487f3e0299f","system_id":"levelo_inurba_marseille","lat":43.298037,"lon":5.381066,"is_reserved":false,"is_disabled":false,"rental_uris":{"android":"levelo://app?vid=f1ecd64b-714e-4eb7-8e96-8487f3e0299f","ios":"levelo://app?vid=f1ecd64b-714e-4eb7-8e96-8487f3e0299f"},"vehicle_type_id":"4","last_reported":1725566979,"current_range_meters":18800,"station_id":"ce4bgip2rcd13ifvqbb0","pricing_plan_id":"cebpf4jnsgd1na2vs0mg"},{"bike_id":"1a71560c-182f-4417-a325-75b9d1aa8b61","system_id":"levelo_inurba_marseille","lat":43.304274,"lon":5.388873,"is_reserved":false,"is_disabled":false,"rental_uris":{"android":"levelo://app?vid=1a71560c-182f-4417-a325-75b9d1aa8b61","ios":"levelo://app?vid=1a71560c-182f-4417-a325-75b9d1aa8b61"},"vehicle_type_id":"4","last_reported":1725566979,"current_range_meters":24400,"station_id":"ce4bgk12rcd13ifvqbi0","pricing_plan_id":"cebpf4jnsgd1na2vs0mg"},{"bike_id":"dde97a71-7664-4296-8cb4-92c3e44c0ee8","system_id":"levelo_inurba_marseille","lat":43.304278,"lon":5.388868,"is_reserved":false,"is_disabled":false,"rental_uris":{"android":"levelo://app?vid=dde97a71-7664-4296-8cb4-92c3e44c0ee8","ios":"levelo://app?vid=dde97a71-7664-4296-8cb4-92c3e44c0ee8"},"vehicle_type_id":"4","last_reported":1725566979,"current_range_meters":28800,"station_id":"ce4bgk12rcd13ifvqbi0","pricing_plan_id":"cebpf4jnsgd1na2vs0mg"},{"bike_id":"b10ffb89-142f-4455-8961-b6cd5f462e69","system_id":"levelo_inurba_marseille","lat":43.304278,"lon":5.388868,"is_reserved":false,"is_disabled":false,"rental_uris":{"android":"levelo://app?vid=b10ffb89-142f-4455-8961-b6cd5f462e69","ios":"levelo://app?vid=b10ffb89-142f-4455-8961-b6cd5f462e69"},"vehicle_type_id":"4","last_reported":1725566979,"current_range_meters":2400,"station_id":"ce4bgk12rcd13ifvqbi0","pricing_plan_id":"cebpf4jnsgd1na2vs0mg"},{"bike_id":"bce6b796-c834-4a52-bb15-a49c025ecd8d","system_id":"levelo_inurba_marseille","lat":43.304278,"lon":5.388868,"is_reserved":false,"is_disabled":false,"rental_uris":{"android":"levelo://app?vid=bce6b796-c834-4a52-bb15-a49c025ecd8d","ios":"levelo://app?vid=bce6b796-c834-4a52-bb15-a49c025ecd8d"},"vehicle_type_id":"4","last_reported":1725566979,"current_range_meters":11200,"station_id":"ce4bgk12rcd13ifvqbi0","pricing_plan_id":"cebpf4jnsgd1na2vs0mg"},{"bike_id":"5eab22ec-982b-4138-af33-6441de2717a4","system_id":"levelo_inurba_marseille","lat":43.304278,"lon":5.388868,"is_reserved":false,"is_disabled":false,"rental_uris":{"android":"levelo://app?vid=5eab22ec-982b-4138-af33-6441de2717a4","ios":"levelo://app?vid=5eab22ec-982b-4138-af33-6441de2717a4"},"vehicle_type_id":"4","last_reported":1725566979,"current_range_meters":6400,"station_id":"ce4bgk12rcd13ifvqbi0","pricing_plan_id":"cebpf4jnsgd1na2vs0mg"},{"bike_id":"571bca21-6294-4896-8167-4dddafab9995","system_id":"levelo_inurba_marseille","lat":43.295748,"lon":5.37522,"is_reserved":false,"is_disabled":false,"rental_uris":{"android":"levelo://app?vid=571bca21-6294-4896-8167-4dddafab9995","ios":"levelo://app?vid=571bca21-6294-4896-8167-4dddafab9995"},"vehicle_type_id":"4","last_reported":1725566979,"current_range_meters":4000,"station_id":"ce4bgh92rcd13ifvqb50","pricing_plan_id":"cebpf4jnsgd1na2vs0mg"},{"bike_id":"7b9daba2-1f15-49a4-b1f3-45081db9ba85","system_id":"levelo_inurba_marseille","lat":43.304274,"lon":5.388873,"is_reserved":false,"is_disabled":false,"rental_uris":{"android":"levelo://app?vid=7b9daba2-1f15-49a4-b1f3-45081db9ba85","ios":"levelo://app?vid=7b9daba2-1f15-49a4-b1f3-45081db9ba85"},"vehicle_type_id":"4","last_reported":1725566979,"current_range_meters":11200,"station_id":"ce4bgk12rcd13ifvqbi0","pricing_plan_id":"cebpf4jnsgd1na2vs0mg"},{"bike_id":"0ab88828-6102-4e8f-94f4-2d942410eddd","system_id":"levelo_inurba_marseille","lat":43.304278,"lon":5.388868,"is_reserved":false,"is_disabled":false,"rental_uris":{"android":"levelo://app?vid=0ab88828-6102-4e8f-94f4-2d942410eddd","ios":"levelo://app?vid=0ab88828-6102-4e8f-94f4-2d942410eddd"},"vehicle_type_id":"4","last_reported":1725566979,"current_range_meters":5200,"station_id":"ce4bgk12rcd13ifvqbi0","pricing_plan_id":"cebpf4jnsgd1na2vs0mg"},{"bike_id":"6869fc2f-a080-47cf-9ca0-3b76059d029f","system_id":"levelo_inurba_marseille","lat":43.304274,"lon":5.388873,"is_reserved":false,"is_disabled":false,"rental_uris":{"android":"levelo://app?vid=6869fc2f-a080-47cf-9ca0-3b76059d029f","ios":"levelo://app?vid=6869fc2f-a080-47cf-9ca0-3b76059d029f"},"vehicle_type_id":"4","last_reported":1725566979,"current_range_meters":30000,"station_id":"ce4bgk12rcd13ifvqbi0","pricing_plan_id":"cebpf4jnsgd1na2vs0mg"},{"bike_id":"729dbfa6-8652-4c70-8879-bcd7b5f84359","system_id":"levelo_inurba_marseille","lat":43.293009,"lon":5.374584,"is_reserved":false,"is_disabled":false,"rental_uris":{"android":"levelo://app?vid=729dbfa6-8652-4c70-8879-bcd7b5f84359","ios":"levelo://app?vid=729dbfa6-8652-4c70-8879-bcd7b5f84359"},"vehicle_type_id":"4","last_reported":1725566979,"current_range_meters":17200,"station_id":"ce4bgi12rcd13ifvqb70","pricing_plan_id":"cebpf4jnsgd1na2vs0mg"},{"bike_id":"6d875d15-af67-4c74-8c60-430f8837a7fc","system_id":"levelo_inurba_marseille","lat":43.304274,"lon":5.388873,"is_reserved":false,"is_disabled":false,"rental_uris":{"android":"levelo://app?vid=6d875d15-af67-4c74-8c60-430f8837a7fc","ios":"levelo://app?vid=6d875d15-af67-4c74-8c60-430f8837a7fc"},"vehicle_type_id":"4","last_reported":1725566979,"current_range_meters":24800,"station_id":"ce4bgk12rcd13ifvqbi0","pricing_plan_id":"cebpf4jnsgd1na2vs0mg"},{"bike_id":"0c351498-36c8-4317-be6d-64b3b0663b3e","system_id":"levelo_inurba_marseille","lat":43.295279,"lon":5.375048,"is_reserved":false,"is_disabled":false,"rental_uris":{"android":"levelo://app?vid=0c351498-36c8-4317-be6d-64b3b0663b3e","ios":"levelo://app?vid=0c351498-36c8-4317-be6d-64b3b0663b3e"},"vehicle_type_id":"4","last_reported":1725566979,"current_range_meters":1200,"station_id":"ce4bgkp2rcd13ifvqbmg","pricing_plan_id":"cebpf4jnsgd1na2vs0mg"},{"bike_id":"87abfc42-e306-437a-95ce-e9d6e4d29feb","system_id":"levelo_inurba_marseille","lat":43.295279,"lon":5.375048,"is_reserved":false,"is_disabled":false,"rental_uris":{"android":"levelo://app?vid=87abfc42-e306-437a-95ce-e9d6e4d29feb","ios":"levelo://app?vid=87abfc42-e306-437a-95ce-e9d6e4d29feb"},"vehicle_type_id":"4","last_reported":1725566979,"current_range_meters":0,"station_id":"ce4bgkp2rcd13ifvqbmg","pricing_plan_id":"cebpf4jnsgd1na2vs0mg"},{"bike_id":"d953c33e-550d-43d7-8364-62b1cc335f72","system_id":"levelo_inurba_marseille","lat":43.301423,"lon":5.387741,"is_reserved":false,"is_disabled":false,"rental_uris":{"android":"levelo://app?vid=d953c33e-550d-43d7-8364-62b1cc335f72","ios":"levelo://app?vid=d953c33e-550d-43d7-8364-62b1cc335f72"},"vehicle_type_id":"4","last_reported":1725566979,"current_range_meters":9600,"station_id":"","pricing_plan_id":"cebpf4jnsgd1na2vs0mg"},{"bike_id":"ab9e4ec6-787f-4c89-bec9-6aa0cb81beac","system_id":"levelo_inurba_marseille","lat":43.294708,"lon":5.374878,"is_reserved":false,"is_disabled":false,"rental_uris":{"android":"levelo://app?vid=ab9e4ec6-787f-4c89-bec9-6aa0cb81beac","ios":"levelo://app?vid=ab9e4ec6-787f-4c89-bec9-6aa0cb81beac"},"vehicle_type_id":"4","last_reported":1725566979,"current_range_meters":31200,"station_id":"","pricing_plan_id":"cebpf4jnsgd1na2vs0mg"},{"bike_id":"06394176-06bc-444a-9a39-f083d8ca8eea","system_id":"levelo_inurba_marseille","lat":43.32367,"lon":5.388836,"is_reserved":false,"is_disabled":false,"rental_uris":{"android":"levelo://app?vid=06394176-06bc-444a-9a39-f083d8ca8eea","ios":"levelo://app?vid=06394176-06bc-444a-9a39-f083d8ca8eea"},"vehicle_type_id":"4","last_reported":1725566979,"current_range_meters":0,"station_id":"ce4bhqp2rcd13ifvqhog","pricing_plan_id":"cebpf4jnsgd1na2vs0mg"},{"bike_id":"2e2fbfb3-b8bd-45de-8ff6-e928679e6b5d","system_id":"levelo_inurba_marseille","lat":43.32367,"lon":5.388836,"is_reserved":false,"is_disabled":false,"rental_uris":{"android":"levelo://app?vid=2e2fbfb3-b8bd-45de-8ff6-e928679e6b5d","ios":"levelo://app?vid=2e2fbfb3-b8bd-45de-8ff6-e928679e6b5d"},"vehicle_type_id":"4","last_reported":1725566979,"current_range_meters":22800,"station_id":"ce4bhqp2rcd13ifvqhog","pricing_plan_id":"cebpf4jnsgd1na2vs0mg"},{"bike_id":"b7dbcfc6-c667-439f-96c1-ceb2c9f33885","system_id":"levelo_inurba_marseille","lat":43.32369,"lon":5.38886,"is_reserved":false,"is_disabled":false,"rental_uris":{"android":"levelo://app?vid=b7dbcfc6-c667-439f-96c1-ceb2c9f33885","ios":"levelo://app?vid=b7dbcfc6-c667-439f-96c1-ceb2c9f33885"},"vehicle_type_id":"4","last_reported":1725566979,"current_range_meters":18000,"station_id":"ce4bhqp2rcd13ifvqhog","pricing_plan_id":"cebpf4jnsgd1na2vs0mg"},{"bike_id":"644839bf-13a6-4332-a004-798b218bd8a3","system_id":"levelo_inurba_marseille","lat":43.32367,"lon":5.388836,"is_reserved":false,"is_disabled":false,"rental_uris":{"android":"levelo://app?vid=644839bf-13a6-4332-a004-798b218bd8a3","ios":"levelo://app?vid=644839bf-13a6-4332-a004-798b218bd8a3"},"vehicle_type_id":"4","last_reported":1725566979,"current_range_meters":20800,"station_id":"ce4bhqp2rcd13ifvqhog","pricing_plan_id":"cebpf4jnsgd1na2vs0mg"},{"bike_id":"a3b2a2fe-3401-4a1a-91f8-558f8d6c1276","system_id":"levelo_inurba_marseille","lat":43.32367,"lon":5.388836,"is_reserved":false,"is_disabled":false,"rental_uris":{"android":"levelo://app?vid=a3b2a2fe-3401-4a1a-91f8-558f8d6c1276","ios":"levelo://app?vid=a3b2a2fe-3401-4a1a-91f8-558f8d6c1276"},"vehicle_type_id":"4","last_reported":1725566979,"current_range_meters":29600,"station_id":"ce4bhqp2rcd13ifvqhog","pricing_plan_id":"cebpf4jnsgd1na2vs0mg"},{"bike_id":"c6805463-a1eb-4443-83eb-8c49c52bfd0c","system_id":"levelo_inurba_marseille","lat":43.32369,"lon":5.38888,"is_reserved":false,"is_disabled":false,"rental_uris":{"android":"levelo://app?vid=c6805463-a1eb-4443-83eb-8c49c52bfd0c","ios":"levelo://app?vid=c6805463-a1eb-4443-83eb-8c49c52bfd0c"},"vehicle_type_id":"4","last_reported":1725566979,"current_range_meters":6800,"station_id":"ce4bhqp2rcd13ifvqhog","pricing_plan_id":"cebpf4jnsgd1na2vs0mg"},{"bike_id":"2bb572d3-acfc-4fd4-87f3-c7589725152a","system_id":"levelo_inurba_marseille","lat":43.32369,"lon":5.3889,"is_reserved":false,"is_disabled":false,"rental_uris":{"android":"levelo://app?vid=2bb572d3-acfc-4fd4-87f3-c7589725152a","ios":"levelo://app?vid=2bb572d3-acfc-4fd4-87f3-c7589725152a"},"vehicle_type_id":"4","last_reported":1725566979,"current_range_meters":12400,"station_id":"ce4bhqp2rcd13ifvqhog","pricing_plan_id":"cebpf4jnsgd1na2vs0mg"},{"bike_id":"55d137d3-213d-40fd-8461-ae5e576cf512","system_id":"levelo_inurba_marseille","lat":43.3237,"lon":5.38898,"is_reserved":false,"is_disabled":false,"rental_uris":{"android":"levelo://app?vid=55d137d3-213d-40fd-8461-ae5e576cf512","ios":"levelo://app?vid=55d137d3-213d-40fd-8461-ae5e576cf512"},"vehicle_type_id":"4","last_reported":1725566979,"current_range_meters":12000,"station_id":"ce4bhqp2rcd13ifvqhog","pricing_plan_id":"cebpf4jnsgd1na2vs0mg"},{"bike_id":"ba74d354-de97-441f-9f08-cca3865d5096","system_id":"levelo_inurba_marseille","lat":43.323749,"lon":5.388941,"is_reserved":false,"is_disabled":false,"rental_uris":{"android":"levelo://app?vid=ba74d354-de97-441f-9f08-cca3865d5096","ios":"levelo://app?vid=ba74d354-de97-441f-9f08-cca3865d5096"},"vehicle_type_id":"4","last_reported":1725566979,"current_range_meters":4800,"station_id":"ce4bhqp2rcd13ifvqhog","pricing_plan_id":"cebpf4jnsgd1na2vs0mg"},{"bike_id":"c9433f71-193c-4a82-8957-fffa6a1af983","system_id":"levelo_inurba_marseille","lat":43.29606,"lon":5.38097,"is_reserved":false,"is_disabled":false,"rental_uris":{"android":"levelo://app?vid=c9433f71-193c-4a82-8957-fffa6a1af983","ios":"levelo://app?vid=c9433f71-193c-4a82-8957-fffa6a1af983"},"vehicle_type_id":"4","last_reported":1725566979,"current_range_meters":15200,"station_id":"ce4bgl12rcd13ifvqbo0","pricing_plan_id":"cebpf4jnsgd1na2vs0mg"},{"bike_id":"9ae35b63-55e0-4e54-8deb-a32d3898e2f4","system_id":"levelo_inurba_marseille","lat":43.296058,"lon":5.381,"is_reserved":false,"is_disabled":false,"rental_uris":{"android":"levelo://app?vid=9ae35b63-55e0-4e54-8deb-a32d3898e2f4","ios":"levelo://app?vid=9ae35b63-55e0-4e54-8deb-a32d3898e2f4"},"vehicle_type_id":"4","last_reported":1725566979,"current_range_meters":11200,"station_id":"ce4bgl12rcd13ifvqbo0","pricing_plan_id":"cebpf4jnsgd1na2vs0mg"},{"bike_id":"f7499223-b553-4a7d-ac40-0f149c8f8892","system_id":"levelo_inurba_marseille","lat":43.296056,"lon":5.381046,"is_reserved":false,"is_disabled":false,"rental_uris":{"android":"levelo://app?vid=f7499223-b553-4a7d-ac40-0f149c8f8892","ios":"levelo://app?vid=f7499223-b553-4a7d-ac40-0f149c8f8892"},"vehicle_type_id":"4","last_reported":1725566979,"current_range_meters":10400,"station_id":"ce4bgl12rcd13ifvqbo0","pricing_plan_id":"cebpf4jnsgd1na2vs0mg"},{"bike_id":"d905eae9-22e6-4b0a-b765-6456d299a9c6","system_id":"levelo_inurba_marseille","lat":43.29603,"lon":5.381,"is_reserved":false,"is_disabled":false,"rental_uris":{"android":"levelo://app?vid=d905eae9-22e6-4b0a-b765-6456d299a9c6","ios":"levelo://app?vid=d905eae9-22e6-4b0a-b765-6456d299a9c6"},"vehicle_type_id":"4","last_reported":1725566979,"current_range_meters":2800,"station_id":"ce4bgl12rcd13ifvqbo0","pricing_plan_id":"cebpf4jnsgd1na2vs0mg"},{"bike_id":"4c793d59-8f85-4a24-a6a7-d4de75cd3bd4","system_id":"levelo_inurba_marseille","lat":43.29602,"lon":5.381084,"is_reserved":false,"is_disabled":false,"rental_uris":{"android":"levelo://app?vid=4c793d59-8f85-4a24-a6a7-d4de75cd3bd4","ios":"levelo://app?vid=4c793d59-8f85-4a24-a6a7-d4de75cd3bd4"},"vehicle_type_id":"4","last_reported":1725566979,"current_range_meters":28400,"station_id":"ce4bgl12rcd13ifvqbo0","pricing_plan_id":"cebpf4jnsgd1na2vs0mg"},{"bike_id":"1fd01cde-f6dd-4170-8f09-f7e89b87e772","system_id":"levelo_inurba_marseille","lat":43.29602,"lon":5.381084,"is_reserved":false,"is_disabled":false,"rental_uris":{"android":"levelo://app?vid=1fd01cde-f6dd-4170-8f09-f7e89b87e772","ios":"levelo://app?vid=1fd01cde-f6dd-4170-8f09-f7e89b87e772"},"vehicle_type_id":"4","last_reported":1725566979,"current_range_meters":800,"station_id":"ce4bgl12rcd13ifvqbo0","pricing_plan_id":"cebpf4jnsgd1na2vs0mg"},{"bike_id":"815f2f84-7d40-401e-a988-413167686861","system_id":"levelo_inurba_marseille","lat":43.293259,"lon":5.371586,"is_reserved":false,"is_disabled":false,"rental_uris":{"android":"levelo://app?vid=815f2f84-7d40-401e-a988-413167686861","ios":"levelo://app?vid=815f2f84-7d40-401e-a988-413167686861"},"vehicle_type_id":"4","last_reported":1725566979,"current_range_meters":26400,"station_id":"ce4bgh92rcd13ifvqb40","pricing_plan_id":"cebpf4jnsgd1na2vs0mg"},{"bike_id":"3c720746-fc90-499a-986b-350788205043","system_id":"levelo_inurba_marseille","lat":43.292749,"lon":5.368402,"is_reserved":false,"is_disabled":false,"rental_uris":{"android":"levelo://app?vid=3c720746-fc90-499a-986b-350788205043","ios":"levelo://app?vid=3c720746-fc90-499a-986b-350788205043"},"vehicle_type_id":"4","last_reported":1725566979,"current_range_meters":0,"station_id":"ce4bhbp2rcd13ifvqesg","pricing_plan_id":"cebpf4jnsgd1na2vs0mg"},{"bike_id":"d2f3a7b8-d6c6-4aca-9998-bbab262ed80c","system_id":"levelo_inurba_marseille","lat":43.293259,"lon":5.371586,"is_reserved":false,"is_disabled":false,"rental_uris":{"android":"levelo://app?vid=d2f3a7b8-d6c6-4aca-9998-bbab262ed80c","ios":"levelo://app?vid=d2f3a7b8-d6c6-4aca-9998-bbab262ed80c"},"vehicle_type_id":"4","last_reported":1725566979,"current_range_meters":22400,"station_id":"ce4bgh92rcd13ifvqb40","pricing_plan_id":"cebpf4jnsgd1na2vs0mg"},{"bike_id":"274a36ea-7078-46f8-a6fb-460b6885f941","system_id":"levelo_inurba_marseille","lat":43.293259,"lon":5.371586,"is_reserved":false,"is_disabled":false,"rental_uris":{"android":"levelo://app?vid=274a36ea-7078-46f8-a6fb-460b6885f941","ios":"levelo://app?vid=274a36ea-7078-46f8-a6fb-460b6885f941"},"vehicle_type_id":"4","last_reported":1725566979,"current_range_meters":2400,"station_id":"ce4bgh92rcd13ifvqb40","pricing_plan_id":"cebpf4jnsgd1na2vs0mg"},{"bike_id":"943ff430-1407-4a66-8fcd-68e022d00e77","system_id":"levelo_inurba_marseille","lat":43.29313,"lon":5.37171,"is_reserved":false,"is_disabled":false,"rental_uris":{"android":"levelo://app?vid=943ff430-1407-4a66-8fcd-68e022d00e77","ios":"levelo://app?vid=943ff430-1407-4a66-8fcd-68e022d00e77"},"vehicle_type_id":"4","last_reported":1725566979,"current_range_meters":0,"station_id":"ce4bgh92rcd13ifvqb40","pricing_plan_id":"cebpf4jnsgd1na2vs0mg"},{"bike_id":"c0395b54-072a-4d1a-838c-c3eb9ce4d251","system_id":"levelo_inurba_marseille","lat":43.293259,"lon":5.371586,"is_reserved":false,"is_disabled":false,"rental_uris":{"android":"levelo://app?vid=c0395b54-072a-4d1a-838c-c3eb9ce4d251","ios":"levelo://app?vid=c0395b54-072a-4d1a-838c-c3eb9ce4d251"},"vehicle_type_id":"4","last_reported":1725566979,"current_range_meters":26000,"station_id":"ce4bgh92rcd13ifvqb40","pricing_plan_id":"cebpf4jnsgd1na2vs0mg"},{"bike_id":"35e8dede-2293-47f7-8097-25adc57928fd","system_id":"levelo_inurba_marseille","lat":43.29304,"lon":5.37165,"is_reserved":false,"is_disabled":false,"rental_uris":{"android":"levelo://app?vid=35e8dede-2293-47f7-8097-25adc57928fd","ios":"levelo://app?vid=35e8dede-2293-47f7-8097-25adc57928fd"},"vehicle_type_id":"4","last_reported":1725566979,"current_range_meters":16800,"station_id":"ce4bgh92rcd13ifvqb40","pricing_plan_id":"cebpf4jnsgd1na2vs0mg"},{"bike_id":"5c47e2e0-3c3f-4827-8580-cb9978360f4d","system_id":"levelo_inurba_marseille","lat":43.293259,"lon":5.371586,"is_reserved":false,"is_disabled":false,"rental_uris":{"android":"levelo://app?vid=5c47e2e0-3c3f-4827-8580-cb9978360f4d","ios":"levelo://app?vid=5c47e2e0-3c3f-4827-8580-cb9978360f4d"},"vehicle_type_id":"4","last_reported":1725566979,"current_range_meters":29600,"station_id":"ce4bgh92rcd13ifvqb40","pricing_plan_id":"cebpf4jnsgd1na2vs0mg"},{"bike_id":"100e5f7e-01ed-4dd7-9b14-36883a57b0ed","system_id":"levelo_inurba_marseille","lat":43.293259,"lon":5.371586,"is_reserved":false,"is_disabled":false,"rental_uris":{"android":"levelo://app?vid=100e5f7e-01ed-4dd7-9b14-36883a57b0ed","ios":"levelo://app?vid=100e5f7e-01ed-4dd7-9b14-36883a57b0ed"},"vehicle_type_id":"4","last_reported":1725566979,"current_range_meters":15600,"station_id":"ce4bgh92rcd13ifvqb40","pricing_plan_id":"cebpf4jnsgd1na2vs0mg"},{"bike_id":"09640536-3fad-4a63-9a9d-8437d054832a","system_id":"levelo_inurba_marseille","lat":43.292749,"lon":5.368402,"is_reserved":false,"is_disabled":false,"rental_uris":{"android":"levelo://app?vid=09640536-3fad-4a63-9a9d-8437d054832a","ios":"levelo://app?vid=09640536-3fad-4a63-9a9d-8437d054832a"},"vehicle_type_id":"4","last_reported":1725566979,"current_range_meters":10000,"station_id":"ce4bhbp2rcd13ifvqesg","pricing_plan_id":"cebpf4jnsgd1na2vs0mg"},{"bike_id":"0853cbff-7949-4e2e-8e4c-8683ae615c51","system_id":"levelo_inurba_marseille","lat":43.292749,"lon":5.368402,"is_reserved":false,"is_disabled":false,"rental_uris":{"android":"levelo://app?vid=0853cbff-7949-4e2e-8e4c-8683ae615c51","ios":"levelo://app?vid=0853cbff-7949-4e2e-8e4c-8683ae615c51"},"vehicle_type_id":"4","last_reported":1725566979,"current_range_meters":28400,"station_id":"ce4bhbp2rcd13ifvqesg","pricing_plan_id":"cebpf4jnsgd1na2vs0mg"},{"bike_id":"5ecc02ca-c887-4b42-af8c-384282c2a588","system_id":"levelo_inurba_marseille","lat":43.29334,"lon":5.37443,"is_reserved":false,"is_disabled":false,"rental_uris":{"android":"levelo://app?vid=5ecc02ca-c887-4b42-af8c-384282c2a588","ios":"levelo://app?vid=5ecc02ca-c887-4b42-af8c-384282c2a588"},"vehicle_type_id":"4","last_reported":1725566979,"current_range_meters":11200,"station_id":"ce4bgi12rcd13ifvqb70","pricing_plan_id":"cebpf4jnsgd1na2vs0mg"},{"bike_id":"f2a2cdda-165d-424b-8e0e-65e71a813d9e","system_id":"levelo_inurba_marseille","lat":43.30199,"lon":5.390679,"is_reserved":false,"is_disabled":false,"rental_uris":{"android":"levelo://app?vid=f2a2cdda-165d-424b-8e0e-65e71a813d9e","ios":"levelo://app?vid=f2a2cdda-165d-424b-8e0e-65e71a813d9e"},"vehicle_type_id":"4","last_reported":1725566979,"current_range_meters":24400,"station_id":"","pricing_plan_id":"cebpf4jnsgd1na2vs0mg"},{"bike_id":"407c8dd1-ad87-44eb-901d-e45f98330e1f","system_id":"levelo_inurba_marseille","lat":43.293009,"lon":5.374584,"is_reserved":false,"is_disabled":false,"rental_uris":{"android":"levelo://app?vid=407c8dd1-ad87-44eb-901d-e45f98330e1f","ios":"levelo://app?vid=407c8dd1-ad87-44eb-901d-e45f98330e1f"},"vehicle_type_id":"4","last_reported":1725566979,"current_range_meters":16000,"station_id":"ce4bgi12rcd13ifvqb70","pricing_plan_id":"cebpf4jnsgd1na2vs0mg"},{"bike_id":"5276331a-cfb6-4de7-90a8-241e4f69b8d1","system_id":"levelo_inurba_marseille","lat":43.305994,"lon":5.393687,"is_reserved":false,"is_disabled":false,"rental_uris":{"android":"levelo://app?vid=5276331a-cfb6-4de7-90a8-241e4f69b8d1","ios":"levelo://app?vid=5276331a-cfb6-4de7-90a8-241e4f69b8d1"},"vehicle_type_id":"4","last_reported":1725566979,"current_range_meters":400,"station_id":"ce4bh0p2rcd13ifvqd80","pricing_plan_id":"cebpf4jnsgd1na2vs0mg"},{"bike_id":"9385ea06-9ce0-4532-9f67-7a47258c235b","system_id":"levelo_inurba_marseille","lat":43.305994,"lon":5.393687,"is_reserved":false,"is_disabled":false,"rental_uris":{"android":"levelo://app?vid=9385ea06-9ce0-4532-9f67-7a47258c235b","ios":"levelo://app?vid=9385ea06-9ce0-4532-9f67-7a47258c235b"},"vehicle_type_id":"4","last_reported":1725566979,"current_range_meters":23200,"station_id":"ce4bh0p2rcd13ifvqd80","pricing_plan_id":"cebpf4jnsgd1na2vs0mg"},{"bike_id":"97cc9674-e9d1-4de9-8ab7-c39f466c5dbb","system_id":"levelo_inurba_marseille","lat":43.30317,"lon":5.3921,"is_reserved":false,"is_disabled":false,"rental_uris":{"android":"levelo://app?vid=97cc9674-e9d1-4de9-8ab7-c39f466c5dbb","ios":"levelo://app?vid=97cc9674-e9d1-4de9-8ab7-c39f466c5dbb"},"vehicle_type_id":"4","last_reported":1725566979,"current_range_meters":23600,"station_id":"ce4bgkh2rcd13ifvqbk0","pricing_plan_id":"cebpf4jnsgd1na2vs0mg"},{"bike_id":"55d45c20-d863-465a-a4fe-c051ad8037ad","system_id":"levelo_inurba_marseille","lat":43.303,"lon":5.39211,"is_reserved":false,"is_disabled":false,"rental_uris":{"android":"levelo://app?vid=55d45c20-d863-465a-a4fe-c051ad8037ad","ios":"levelo://app?vid=55d45c20-d863-465a-a4fe-c051ad8037ad"},"vehicle_type_id":"4","last_reported":1725566979,"current_range_meters":3600,"station_id":"ce4bgkh2rcd13ifvqbk0","pricing_plan_id":"cebpf4jnsgd1na2vs0mg"},{"bike_id":"b56f1829-f810-498b-953b-44cc78bccbd3","system_id":"levelo_inurba_marseille","lat":43.303003,"lon":5.392127,"is_reserved":false,"is_disabled":false,"rental_uris":{"android":"levelo://app?vid=b56f1829-f810-498b-953b-44cc78bccbd3","ios":"levelo://app?vid=b56f1829-f810-498b-953b-44cc78bccbd3"},"vehicle_type_id":"4","last_reported":1725566979,"current_range_meters":30400,"station_id":"ce4bgkh2rcd13ifvqbk0","pricing_plan_id":"cebpf4jnsgd1na2vs0mg"},{"bike_id":"11e35458-52e3-4c1a-868f-04bbe6ddd45e","system_id":"levelo_inurba_marseille","lat":43.29375,"lon":5.378628,"is_reserved":false,"is_disabled":false,"rental_uris":{"android":"levelo://app?vid=11e35458-52e3-4c1a-868f-04bbe6ddd45e","ios":"levelo://app?vid=11e35458-52e3-4c1a-868f-04bbe6ddd45e"},"vehicle_type_id":"4","last_reported":1725566979,"current_range_meters":0,"station_id":"ce4bgjh2rcd13ifvqbf0","pricing_plan_id":"cebpf4jnsgd1na2vs0mg"},{"bike_id":"8e13fb13-9423-4820-ba8a-a76263790af1","system_id":"levelo_inurba_marseille","lat":43.302987,"lon":5.392223,"is_reserved":false,"is_disabled":false,"rental_uris":{"android":"levelo://app?vid=8e13fb13-9423-4820-ba8a-a76263790af1","ios":"levelo://app?vid=8e13fb13-9423-4820-ba8a-a76263790af1"},"vehicle_type_id":"4","last_reported":1725566979,"current_range_meters":3600,"station_id":"ce4bgkh2rcd13ifvqbk0","pricing_plan_id":"cebpf4jnsgd1na2vs0mg"},{"bike_id":"b36bf53c-60b9-4001-9346-d5c653097b76","system_id":"levelo_inurba_marseille","lat":43.300852,"lon":5.390859,"is_reserved":false,"is_disabled":false,"rental_uris":{"android":"levelo://app?vid=b36bf53c-60b9-4001-9346-d5c653097b76","ios":"levelo://app?vid=b36bf53c-60b9-4001-9346-d5c653097b76"},"vehicle_type_id":"4","last_reported":1725566979,"current_range_meters":21600,"station_id":"ce4bh192rcd13ifvqdb0","pricing_plan_id":"cebpf4jnsgd1na2vs0mg"},{"bike_id":"6038f41a-ebb0-4b3d-b7a0-864e05e7d1d2","system_id":"levelo_inurba_marseille","lat":43.300852,"lon":5.390859,"is_reserved":false,"is_disabled":false,"rental_uris":{"android":"levelo://app?vid=6038f41a-ebb0-4b3d-b7a0-864e05e7d1d2","ios":"levelo://app?vid=6038f41a-ebb0-4b3d-b7a0-864e05e7d1d2"},"vehicle_type_id":"4","last_reported":1725566979,"current_range_meters":18800,"station_id":"ce4bh192rcd13ifvqdb0","pricing_plan_id":"cebpf4jnsgd1na2vs0mg"},{"bike_id":"44bae41f-45c3-466c-bf82-6a87df45a707","system_id":"levelo_inurba_marseille","lat":43.300852,"lon":5.390859,"is_reserved":false,"is_disabled":false,"rental_uris":{"android":"levelo://app?vid=44bae41f-45c3-466c-bf82-6a87df45a707","ios":"levelo://app?vid=44bae41f-45c3-466c-bf82-6a87df45a707"},"vehicle_type_id":"4","last_reported":1725566979,"current_range_meters":28400,"station_id":"ce4bh192rcd13ifvqdb0","pricing_plan_id":"cebpf4jnsgd1na2vs0mg"},{"bike_id":"ac105009-1528-4a99-81ec-6d3322867b47","system_id":"levelo_inurba_marseille","lat":43.30085,"lon":5.390856,"is_reserved":false,"is_disabled":false,"rental_uris":{"android":"levelo://app?vid=ac105009-1528-4a99-81ec-6d3322867b47","ios":"levelo://app?vid=ac105009-1528-4a99-81ec-6d3322867b47"},"vehicle_type_id":"4","last_reported":1725566979,"current_range_meters":28400,"station_id":"ce4bh192rcd13ifvqdb0","pricing_plan_id":"cebpf4jnsgd1na2vs0mg"},{"bike_id":"c0988e18-7c45-473d-b5e9-74b31f32b36c","system_id":"levelo_inurba_marseille","lat":43.298764,"lon":5.388973,"is_reserved":false,"is_disabled":false,"rental_uris":{"android":"levelo://app?vid=c0988e18-7c45-473d-b5e9-74b31f32b36c","ios":"levelo://app?vid=c0988e18-7c45-473d-b5e9-74b31f32b36c"},"vehicle_type_id":"4","last_reported":1725566979,"current_range_meters":3600,"station_id":"ce4bh392rcd13ifvqdl0","pricing_plan_id":"cebpf4jnsgd1na2vs0mg"},{"bike_id":"b2d7db5c-272f-4301-b75b-40ac5d67347a","system_id":"levelo_inurba_marseille","lat":43.298764,"lon":5.388973,"is_reserved":false,"is_disabled":false,"rental_uris":{"android":"levelo://app?vid=b2d7db5c-272f-4301-b75b-40ac5d67347a","ios":"levelo://app?vid=b2d7db5c-272f-4301-b75b-40ac5d67347a"},"vehicle_type_id":"4","last_reported":1725566979,"current_range_meters":0,"station_id":"ce4bh392rcd13ifvqdl0","pricing_plan_id":"cebpf4jnsgd1na2vs0mg"},{"bike_id":"2c8f3bbf-f41f-4fec-a097-b454d3341c0f","system_id":"levelo_inurba_marseille","lat":43.29171,"lon":5.37155,"is_reserved":false,"is_disabled":false,"rental_uris":{"android":"levelo://app?vid=2c8f3bbf-f41f-4fec-a097-b454d3341c0f","ios":"levelo://app?vid=2c8f3bbf-f41f-4fec-a097-b454d3341c0f"},"vehicle_type_id":"4","last_reported":1725566979,"current_range_meters":0,"station_id":"ce4bha92rcd13ifvqeh0","pricing_plan_id":"cebpf4jnsgd1na2vs0mg"},{"bike_id":"f3457904-4d87-489b-bc7e-4a8c34cbdd9d","system_id":"levelo_inurba_marseille","lat":43.298764,"lon":5.388973,"is_reserved":false,"is_disabled":false,"rental_uris":{"android":"levelo://app?vid=f3457904-4d87-489b-bc7e-4a8c34cbdd9d","ios":"levelo://app?vid=f3457904-4d87-489b-bc7e-4a8c34cbdd9d"},"vehicle_type_id":"4","last_reported":1725566979,"current_range_meters":19200,"station_id":"ce4bh392rcd13ifvqdl0","pricing_plan_id":"cebpf4jnsgd1na2vs0mg"},{"bike_id":"d2587cfa-b0a0-4b7b-a84c-5d754081a4a4","system_id":"levelo_inurba_marseille","lat":43.291671,"lon":5.371575,"is_reserved":false,"is_disabled":false,"rental_uris":{"android":"levelo://app?vid=d2587cfa-b0a0-4b7b-a84c-5d754081a4a4","ios":"levelo://app?vid=d2587cfa-b0a0-4b7b-a84c-5d754081a4a4"},"vehicle_type_id":"4","last_reported":1725566979,"current_range_meters":800,"station_id":"ce4bha92rcd13ifvqeh0","pricing_plan_id":"cebpf4jnsgd1na2vs0mg"},{"bike_id":"1c162368-3609-414b-b1ec-ce2b88693c1e","system_id":"levelo_inurba_marseille","lat":43.291543,"lon":5.371643,"is_reserved":false,"is_disabled":false,"rental_uris":{"android":"levelo://app?vid=1c162368-3609-414b-b1ec-ce2b88693c1e","ios":"levelo://app?vid=1c162368-3609-414b-b1ec-ce2b88693c1e"},"vehicle_type_id":"4","last_reported":1725566979,"current_range_meters":13200,"station_id":"ce4bha92rcd13ifvqeh0","pricing_plan_id":"cebpf4jnsgd1na2vs0mg"},{"bike_id":"c970a582-44d9-4b60-86dc-25590a18dc5b","system_id":"levelo_inurba_marseille","lat":43.313291,"lon":5.396838,"is_reserved":false,"is_disabled":false,"rental_uris":{"android":"levelo://app?vid=c970a582-44d9-4b60-86dc-25590a18dc5b","ios":"levelo://app?vid=c970a582-44d9-4b60-86dc-25590a18dc5b"},"vehicle_type_id":"4","last_reported":1725566979,"current_range_meters":800,"station_id":"ce4bgvp2rcd13ifvqcu0","pricing_plan_id":"cebpf4jnsgd1na2vs0mg"},{"bike_id":"f94d586f-619b-4346-8d5e-c16c4843d470","system_id":"levelo_inurba_marseille","lat":43.292005,"lon":5.357875,"is_reserved":false,"is_disabled":false,"rental_uris":{"android":"levelo://app?vid=f94d586f-619b-4346-8d5e-c16c4843d470","ios":"levelo://app?vid=f94d586f-619b-4346-8d5e-c16c4843d470"},"vehicle_type_id":"4","last_reported":1725566979,"current_range_meters":3600,"station_id":"ce4bhb12rcd13ifvqel0","pricing_plan_id":"cebpf4jnsgd1na2vs0mg"},{"bike_id":"5364920d-971f-4b48-97ca-ce7057312f65","system_id":"levelo_inurba_marseille","lat":43.309047,"lon":5.396551,"is_reserved":false,"is_disabled":false,"rental_uris":{"android":"levelo://app?vid=5364920d-971f-4b48-97ca-ce7057312f65","ios":"levelo://app?vid=5364920d-971f-4b48-97ca-ce7057312f65"},"vehicle_type_id":"4","last_reported":1725566979,"current_range_meters":22400,"station_id":"ce4bh012rcd13ifvqcv0","pricing_plan_id":"cebpf4jnsgd1na2vs0mg"},{"bike_id":"119699a6-0754-4a20-ad5b-9dc3faf4204a","system_id":"levelo_inurba_marseille","lat":43.313291,"lon":5.396838,"is_reserved":false,"is_disabled":false,"rental_uris":{"android":"levelo://app?vid=119699a6-0754-4a20-ad5b-9dc3faf4204a","ios":"levelo://app?vid=119699a6-0754-4a20-ad5b-9dc3faf4204a"},"vehicle_type_id":"4","last_reported":1725566979,"current_range_meters":28000,"station_id":"ce4bgvp2rcd13ifvqcu0","pricing_plan_id":"cebpf4jnsgd1na2vs0mg"},{"bike_id":"7035d03f-2132-481f-9848-06bdf6bfd035","system_id":"levelo_inurba_marseille","lat":43.309047,"lon":5.396551,"is_reserved":false,"is_disabled":false,"rental_uris":{"android":"levelo://app?vid=7035d03f-2132-481f-9848-06bdf6bfd035","ios":"levelo://app?vid=7035d03f-2132-481f-9848-06bdf6bfd035"},"vehicle_type_id":"4","last_reported":1725566979,"current_range_meters":8800,"station_id":"ce4bh012rcd13ifvqcv0","pricing_plan_id":"cebpf4jnsgd1na2vs0mg"},{"bike_id":"c8ce85d7-96f5-4f27-8a50-42a370d36eb1","system_id":"levelo_inurba_marseille","lat":43.313291,"lon":5.396838,"is_reserved":false,"is_disabled":false,"rental_uris":{"android":"levelo://app?vid=c8ce85d7-96f5-4f27-8a50-42a370d36eb1","ios":"levelo://app?vid=c8ce85d7-96f5-4f27-8a50-42a370d36eb1"},"vehicle_type_id":"4","last_reported":1725566979,"current_range_meters":18800,"station_id":"ce4bgvp2rcd13ifvqcu0","pricing_plan_id":"cebpf4jnsgd1na2vs0mg"},{"bike_id":"a64b9a31-ec90-43ea-8247-b45613f6e719","system_id":"levelo_inurba_marseille","lat":43.309038,"lon":5.396546,"is_reserved":false,"is_disabled":false,"rental_uris":{"android":"levelo://app?vid=a64b9a31-ec90-43ea-8247-b45613f6e719","ios":"levelo://app?vid=a64b9a31-ec90-43ea-8247-b45613f6e719"},"vehicle_type_id":"4","last_reported":1725566979,"current_range_meters":20400,"station_id":"ce4bh012rcd13ifvqcv0","pricing_plan_id":"cebpf4jnsgd1na2vs0mg"},{"bike_id":"8b498aaf-5ad5-410a-8234-7e0c8041f663","system_id":"levelo_inurba_marseille","lat":43.309038,"lon":5.396546,"is_reserved":false,"is_disabled":false,"rental_uris":{"android":"levelo://app?vid=8b498aaf-5ad5-410a-8234-7e0c8041f663","ios":"levelo://app?vid=8b498aaf-5ad5-410a-8234-7e0c8041f663"},"vehicle_type_id":"4","last_reported":1725566979,"current_range_meters":24800,"station_id":"ce4bh012rcd13ifvqcv0","pricing_plan_id":"cebpf4jnsgd1na2vs0mg"},{"bike_id":"0086eb86-d710-4274-9304-52554fcc290d","system_id":"levelo_inurba_marseille","lat":43.309047,"lon":5.396551,"is_reserved":false,"is_disabled":false,"rental_uris":{"android":"levelo://app?vid=0086eb86-d710-4274-9304-52554fcc290d","ios":"levelo://app?vid=0086eb86-d710-4274-9304-52554fcc290d"},"vehicle_type_id":"4","last_reported":1725566979,"current_range_meters":400,"station_id":"ce4bh012rcd13ifvqcv0","pricing_plan_id":"cebpf4jnsgd1na2vs0mg"},{"bike_id":"2020c84d-2382-442d-aebe-4d8463fce58a","system_id":"levelo_inurba_marseille","lat":43.313291,"lon":5.396838,"is_reserved":false,"is_disabled":false,"rental_uris":{"android":"levelo://app?vid=2020c84d-2382-442d-aebe-4d8463fce58a","ios":"levelo://app?vid=2020c84d-2382-442d-aebe-4d8463fce58a"},"vehicle_type_id":"4","last_reported":1725566979,"current_range_meters":8000,"station_id":"ce4bgvp2rcd13ifvqcu0","pricing_plan_id":"cebpf4jnsgd1na2vs0mg"},{"bike_id":"84164078-d8fc-4ac7-9810-600345f3a7d3","system_id":"levelo_inurba_marseille","lat":43.313291,"lon":5.396838,"is_reserved":false,"is_disabled":false,"rental_uris":{"android":"levelo://app?vid=84164078-d8fc-4ac7-9810-600345f3a7d3","ios":"levelo://app?vid=84164078-d8fc-4ac7-9810-600345f3a7d3"},"vehicle_type_id":"4","last_reported":1725566979,"current_range_meters":26000,"station_id":"ce4bgvp2rcd13ifvqcu0","pricing_plan_id":"cebpf4jnsgd1na2vs0mg"},{"bike_id":"1bf3d3c5-ec1e-4014-a1bd-7cfea665e9b6","system_id":"levelo_inurba_marseille","lat":43.309038,"lon":5.396546,"is_reserved":false,"is_disabled":false,"rental_uris":{"android":"levelo://app?vid=1bf3d3c5-ec1e-4014-a1bd-7cfea665e9b6","ios":"levelo://app?vid=1bf3d3c5-ec1e-4014-a1bd-7cfea665e9b6"},"vehicle_type_id":"4","last_reported":1725566979,"current_range_meters":17200,"station_id":"ce4bh012rcd13ifvqcv0","pricing_plan_id":"cebpf4jnsgd1na2vs0mg"},{"bike_id":"d12764f5-fd25-4fee-a90f-4c6b44f258ee","system_id":"levelo_inurba_marseille","lat":43.31319,"lon":5.39703,"is_reserved":false,"is_disabled":false,"rental_uris":{"android":"levelo://app?vid=d12764f5-fd25-4fee-a90f-4c6b44f258ee","ios":"levelo://app?vid=d12764f5-fd25-4fee-a90f-4c6b44f258ee"},"vehicle_type_id":"4","last_reported":1725566979,"current_range_meters":26400,"station_id":"ce4bgvp2rcd13ifvqcu0","pricing_plan_id":"cebpf4jnsgd1na2vs0mg"},{"bike_id":"2b99c00d-f400-4b7a-b84a-c88e0d41ab74","system_id":"levelo_inurba_marseille","lat":43.29529,"lon":5.385581,"is_reserved":false,"is_disabled":false,"rental_uris":{"android":"levelo://app?vid=2b99c00d-f400-4b7a-b84a-c88e0d41ab74","ios":"levelo://app?vid=2b99c00d-f400-4b7a-b84a-c88e0d41ab74"},"vehicle_type_id":"4","last_reported":1725566979,"current_range_meters":12000,"station_id":"ce4bgih2rcd13ifvqba0","pricing_plan_id":"cebpf4jnsgd1na2vs0mg"},{"bike_id":"3aa3e106-1e0d-47d4-bbfa-32cd0de08d68","system_id":"levelo_inurba_marseille","lat":43.29529,"lon":5.385581,"is_reserved":false,"is_disabled":false,"rental_uris":{"android":"levelo://app?vid=3aa3e106-1e0d-47d4-bbfa-32cd0de08d68","ios":"levelo://app?vid=3aa3e106-1e0d-47d4-bbfa-32cd0de08d68"},"vehicle_type_id":"4","last_reported":1725566979,"current_range_meters":31200,"station_id":"ce4bgih2rcd13ifvqba0","pricing_plan_id":"cebpf4jnsgd1na2vs0mg"},{"bike_id":"44f1c756-005c-4869-af12-fbf0f1c292d7","system_id":"levelo_inurba_marseille","lat":43.29529,"lon":5.385581,"is_reserved":false,"is_disabled":false,"rental_uris":{"android":"levelo://app?vid=44f1c756-005c-4869-af12-fbf0f1c292d7","ios":"levelo://app?vid=44f1c756-005c-4869-af12-fbf0f1c292d7"},"vehicle_type_id":"4","last_reported":1725566979,"current_range_meters":15200,"station_id":"ce4bgih2rcd13ifvqba0","pricing_plan_id":"cebpf4jnsgd1na2vs0mg"},{"bike_id":"f81bd6ff-e5a2-4901-b711-a26286224998","system_id":"levelo_inurba_marseille","lat":43.29537,"lon":5.38541,"is_reserved":false,"is_disabled":false,"rental_uris":{"android":"levelo://app?vid=f81bd6ff-e5a2-4901-b711-a26286224998","ios":"levelo://app?vid=f81bd6ff-e5a2-4901-b711-a26286224998"},"vehicle_type_id":"4","last_reported":1725566979,"current_range_meters":3600,"station_id":"ce4bgih2rcd13ifvqba0","pricing_plan_id":"cebpf4jnsgd1na2vs0mg"},{"bike_id":"1384399d-b68f-4c52-aa8e-d30255d6fdd8","system_id":"levelo_inurba_marseille","lat":43.31335,"lon":5.39711,"is_reserved":false,"is_disabled":false,"rental_uris":{"android":"levelo://app?vid=1384399d-b68f-4c52-aa8e-d30255d6fdd8","ios":"levelo://app?vid=1384399d-b68f-4c52-aa8e-d30255d6fdd8"},"vehicle_type_id":"4","last_reported":1725566979,"current_range_meters":6000,"station_id":"ce4bgvp2rcd13ifvqcu0","pricing_plan_id":"cebpf4jnsgd1na2vs0mg"},{"bike_id":"1eceafa2-1179-4684-ae3e-18fa0fd6db20","system_id":"levelo_inurba_marseille","lat":43.29529,"lon":5.385581,"is_reserved":false,"is_disabled":false,"rental_uris":{"android":"levelo://app?vid=1eceafa2-1179-4684-ae3e-18fa0fd6db20","ios":"levelo://app?vid=1eceafa2-1179-4684-ae3e-18fa0fd6db20"},"vehicle_type_id":"4","last_reported":1725566979,"current_range_meters":3200,"station_id":"ce4bgih2rcd13ifvqba0","pricing_plan_id":"cebpf4jnsgd1na2vs0mg"},{"bike_id":"50b474c0-7ee8-43c3-bffc-63b00103fcf3","system_id":"levelo_inurba_marseille","lat":43.29537,"lon":5.38543,"is_reserved":false,"is_disabled":false,"rental_uris":{"android":"levelo://app?vid=50b474c0-7ee8-43c3-bffc-63b00103fcf3","ios":"levelo://app?vid=50b474c0-7ee8-43c3-bffc-63b00103fcf3"},"vehicle_type_id":"4","last_reported":1725566979,"current_range_meters":31200,"station_id":"ce4bgih2rcd13ifvqba0","pricing_plan_id":"cebpf4jnsgd1na2vs0mg"},{"bike_id":"1393fefe-196b-4e81-a9c7-e52a34f72c7d","system_id":"levelo_inurba_marseille","lat":43.308858,"lon":5.396656,"is_reserved":false,"is_disabled":false,"rental_uris":{"android":"levelo://app?vid=1393fefe-196b-4e81-a9c7-e52a34f72c7d","ios":"levelo://app?vid=1393fefe-196b-4e81-a9c7-e52a34f72c7d"},"vehicle_type_id":"4","last_reported":1725566979,"current_range_meters":31200,"station_id":"ce4bh012rcd13ifvqcv0","pricing_plan_id":"cebpf4jnsgd1na2vs0mg"},{"bike_id":"83241b93-3737-4ae7-af3f-5a21074013a5","system_id":"levelo_inurba_marseille","lat":43.29529,"lon":5.385581,"is_reserved":false,"is_disabled":false,"rental_uris":{"android":"levelo://app?vid=83241b93-3737-4ae7-af3f-5a21074013a5","ios":"levelo://app?vid=83241b93-3737-4ae7-af3f-5a21074013a5"},"vehicle_type_id":"4","last_reported":1725566979,"current_range_meters":4400,"station_id":"ce4bgih2rcd13ifvqba0","pricing_plan_id":"cebpf4jnsgd1na2vs0mg"},{"bike_id":"5fcd657d-2fbf-4988-835a-cd48cb28b2f9","system_id":"levelo_inurba_marseille","lat":43.29537,"lon":5.385457,"is_reserved":false,"is_disabled":false,"rental_uris":{"android":"levelo://app?vid=5fcd657d-2fbf-4988-835a-cd48cb28b2f9","ios":"levelo://app?vid=5fcd657d-2fbf-4988-835a-cd48cb28b2f9"},"vehicle_type_id":"4","last_reported":1725566979,"current_range_meters":2800,"station_id":"ce4bgih2rcd13ifvqba0","pricing_plan_id":"cebpf4jnsgd1na2vs0mg"},{"bike_id":"e027d34a-1b8f-487d-b37e-49386d93008c","system_id":"levelo_inurba_marseille","lat":43.29529,"lon":5.385581,"is_reserved":false,"is_disabled":false,"rental_uris":{"android":"levelo://app?vid=e027d34a-1b8f-487d-b37e-49386d93008c","ios":"levelo://app?vid=e027d34a-1b8f-487d-b37e-49386d93008c"},"vehicle_type_id":"4","last_reported":1725566979,"current_range_meters":1600,"station_id":"ce4bgih2rcd13ifvqba0","pricing_plan_id":"cebpf4jnsgd1na2vs0mg"},{"bike_id":"973c6442-7dd9-465a-a1fb-b0739acdea4f","system_id":"levelo_inurba_marseille","lat":43.29529,"lon":5.385581,"is_reserved":false,"is_disabled":false,"rental_uris":{"android":"levelo://app?vid=973c6442-7dd9-465a-a1fb-b0739acdea4f","ios":"levelo://app?vid=973c6442-7dd9-465a-a1fb-b0739acdea4f"},"vehicle_type_id":"4","last_reported":1725566979,"current_range_meters":6800,"station_id":"ce4bgih2rcd13ifvqba0","pricing_plan_id":"cebpf4jnsgd1na2vs0mg"},{"bike_id":"91542725-9279-458e-9a8f-cecba3cbd8db","system_id":"levelo_inurba_marseille","lat":43.29529,"lon":5.385581,"is_reserved":false,"is_disabled":false,"rental_uris":{"android":"levelo://app?vid=91542725-9279-458e-9a8f-cecba3cbd8db","ios":"levelo://app?vid=91542725-9279-458e-9a8f-cecba3cbd8db"},"vehicle_type_id":"4","last_reported":1725566979,"current_range_meters":1200,"station_id":"ce4bgih2rcd13ifvqba0","pricing_plan_id":"cebpf4jnsgd1na2vs0mg"},{"bike_id":"281100d8-cb0e-4a6d-afe0-8bdc3bc21934","system_id":"levelo_inurba_marseille","lat":43.29529,"lon":5.385581,"is_reserved":false,"is_disabled":false,"rental_uris":{"android":"levelo://app?vid=281100d8-cb0e-4a6d-afe0-8bdc3bc21934","ios":"levelo://app?vid=281100d8-cb0e-4a6d-afe0-8bdc3bc21934"},"vehicle_type_id":"4","last_reported":1725566979,"current_range_meters":400,"station_id":"ce4bgih2rcd13ifvqba0","pricing_plan_id":"cebpf4jnsgd1na2vs0mg"},{"bike_id":"0ef5f114-72ed-4f57-a879-16dd3591aa11","system_id":"levelo_inurba_marseille","lat":43.29536,"lon":5.38549,"is_reserved":false,"is_disabled":false,"rental_uris":{"android":"levelo://app?vid=0ef5f114-72ed-4f57-a879-16dd3591aa11","ios":"levelo://app?vid=0ef5f114-72ed-4f57-a879-16dd3591aa11"},"vehicle_type_id":"4","last_reported":1725566979,"current_range_meters":19200,"station_id":"ce4bgih2rcd13ifvqba0","pricing_plan_id":"cebpf4jnsgd1na2vs0mg"},{"bike_id":"3c02c1a3-17b4-43e5-9e19-54fc137ce820","system_id":"levelo_inurba_marseille","lat":43.29529,"lon":5.385581,"is_reserved":false,"is_disabled":false,"rental_uris":{"android":"levelo://app?vid=3c02c1a3-17b4-43e5-9e19-54fc137ce820","ios":"levelo://app?vid=3c02c1a3-17b4-43e5-9e19-54fc137ce820"},"vehicle_type_id":"4","last_reported":1725566979,"current_range_meters":0,"station_id":"ce4bgih2rcd13ifvqba0","pricing_plan_id":"cebpf4jnsgd1na2vs0mg"},{"bike_id":"c64101ee-3bd3-46d0-ad42-dae20de60d34","system_id":"levelo_inurba_marseille","lat":43.29529,"lon":5.385581,"is_reserved":false,"is_disabled":false,"rental_uris":{"android":"levelo://app?vid=c64101ee-3bd3-46d0-ad42-dae20de60d34","ios":"levelo://app?vid=c64101ee-3bd3-46d0-ad42-dae20de60d34"},"vehicle_type_id":"4","last_reported":1725566979,"current_range_meters":18400,"station_id":"ce4bgih2rcd13ifvqba0","pricing_plan_id":"cebpf4jnsgd1na2vs0mg"},{"bike_id":"33c2a344-4d36-490b-9f2a-f887f12cc14b","system_id":"levelo_inurba_marseille","lat":43.29533,"lon":5.38547,"is_reserved":false,"is_disabled":false,"rental_uris":{"android":"levelo://app?vid=33c2a344-4d36-490b-9f2a-f887f12cc14b","ios":"levelo://app?vid=33c2a344-4d36-490b-9f2a-f887f12cc14b"},"vehicle_type_id":"4","last_reported":1725566979,"current_range_meters":3600,"station_id":"ce4bgih2rcd13ifvqba0","pricing_plan_id":"cebpf4jnsgd1na2vs0mg"},{"bike_id":"8e4aac88-7b51-42c1-b9f2-89a56c3dec74","system_id":"levelo_inurba_marseille","lat":43.29529,"lon":5.385581,"is_reserved":false,"is_disabled":false,"rental_uris":{"android":"levelo://app?vid=8e4aac88-7b51-42c1-b9f2-89a56c3dec74","ios":"levelo://app?vid=8e4aac88-7b51-42c1-b9f2-89a56c3dec74"},"vehicle_type_id":"4","last_reported":1725566979,"current_range_meters":28800,"station_id":"ce4bgih2rcd13ifvqba0","pricing_plan_id":"cebpf4jnsgd1na2vs0mg"},{"bike_id":"3a57abb2-e4ec-4784-a663-d5f9b50135dd","system_id":"levelo_inurba_marseille","lat":43.29529,"lon":5.385581,"is_reserved":false,"is_disabled":false,"rental_uris":{"android":"levelo://app?vid=3a57abb2-e4ec-4784-a663-d5f9b50135dd","ios":"levelo://app?vid=3a57abb2-e4ec-4784-a663-d5f9b50135dd"},"vehicle_type_id":"4","last_reported":1725566979,"current_range_meters":20800,"station_id":"ce4bgih2rcd13ifvqba0","pricing_plan_id":"cebpf4jnsgd1na2vs0mg"},{"bike_id":"c3f55e53-6a0f-4c1c-8ffa-15bbcbd5f647","system_id":"levelo_inurba_marseille","lat":43.29529,"lon":5.385581,"is_reserved":false,"is_disabled":false,"rental_uris":{"android":"levelo://app?vid=c3f55e53-6a0f-4c1c-8ffa-15bbcbd5f647","ios":"levelo://app?vid=c3f55e53-6a0f-4c1c-8ffa-15bbcbd5f647"},"vehicle_type_id":"4","last_reported":1725566979,"current_range_meters":6800,"station_id":"ce4bgih2rcd13ifvqba0","pricing_plan_id":"cebpf4jnsgd1na2vs0mg"},{"bike_id":"4fc4a23a-c6a3-406d-b2c8-5c603177af2b","system_id":"levelo_inurba_marseille","lat":43.2953,"lon":5.38545,"is_reserved":false,"is_disabled":false,"rental_uris":{"android":"levelo://app?vid=4fc4a23a-c6a3-406d-b2c8-5c603177af2b","ios":"levelo://app?vid=4fc4a23a-c6a3-406d-b2c8-5c603177af2b"},"vehicle_type_id":"4","last_reported":1725566979,"current_range_meters":11600,"station_id":"ce4bgih2rcd13ifvqba0","pricing_plan_id":"cebpf4jnsgd1na2vs0mg"},{"bike_id":"dac32053-988a-47fe-ab1b-8c39575bf41f","system_id":"levelo_inurba_marseille","lat":43.29529,"lon":5.385581,"is_reserved":false,"is_disabled":false,"rental_uris":{"android":"levelo://app?vid=dac32053-988a-47fe-ab1b-8c39575bf41f","ios":"levelo://app?vid=dac32053-988a-47fe-ab1b-8c39575bf41f"},"vehicle_type_id":"4","last_reported":1725566979,"current_range_meters":0,"station_id":"ce4bgih2rcd13ifvqba0","pricing_plan_id":"cebpf4jnsgd1na2vs0mg"},{"bike_id":"6141e724-3dec-4cad-a777-8e202808de48","system_id":"levelo_inurba_marseille","lat":43.29529,"lon":5.385581,"is_reserved":false,"is_disabled":false,"rental_uris":{"android":"levelo://app?vid=6141e724-3dec-4cad-a777-8e202808de48","ios":"levelo://app?vid=6141e724-3dec-4cad-a777-8e202808de48"},"vehicle_type_id":"4","last_reported":1725566979,"current_range_meters":1200,"station_id":"ce4bgih2rcd13ifvqba0","pricing_plan_id":"cebpf4jnsgd1na2vs0mg"},{"bike_id":"d2b7e7ca-f2c5-4fc3-a270-26cc75d01b28","system_id":"levelo_inurba_marseille","lat":43.29529,"lon":5.385581,"is_reserved":false,"is_disabled":false,"rental_uris":{"android":"levelo://app?vid=d2b7e7ca-f2c5-4fc3-a270-26cc75d01b28","ios":"levelo://app?vid=d2b7e7ca-f2c5-4fc3-a270-26cc75d01b28"},"vehicle_type_id":"4","last_reported":1725566979,"current_range_meters":11200,"station_id":"ce4bgih2rcd13ifvqba0","pricing_plan_id":"cebpf4jnsgd1na2vs0mg"},{"bike_id":"79a52d73-9112-468a-b45e-f2733ec86196","system_id":"levelo_inurba_marseille","lat":43.29529,"lon":5.385581,"is_reserved":false,"is_disabled":false,"rental_uris":{"android":"levelo://app?vid=79a52d73-9112-468a-b45e-f2733ec86196","ios":"levelo://app?vid=79a52d73-9112-468a-b45e-f2733ec86196"},"vehicle_type_id":"4","last_reported":1725566979,"current_range_meters":1200,"station_id":"ce4bgih2rcd13ifvqba0","pricing_plan_id":"cebpf4jnsgd1na2vs0mg"},{"bike_id":"e265d340-e956-48c0-9a5d-28bfdeb1e2b1","system_id":"levelo_inurba_marseille","lat":43.29529,"lon":5.385581,"is_reserved":false,"is_disabled":false,"rental_uris":{"android":"levelo://app?vid=e265d340-e956-48c0-9a5d-28bfdeb1e2b1","ios":"levelo://app?vid=e265d340-e956-48c0-9a5d-28bfdeb1e2b1"},"vehicle_type_id":"4","last_reported":1725566979,"current_range_meters":0,"station_id":"ce4bgih2rcd13ifvqba0","pricing_plan_id":"cebpf4jnsgd1na2vs0mg"},{"bike_id":"867d76c2-33ae-45fb-8f31-c60fe9ac79da","system_id":"levelo_inurba_marseille","lat":43.290779,"lon":5.371482,"is_reserved":false,"is_disabled":false,"rental_uris":{"android":"levelo://app?vid=867d76c2-33ae-45fb-8f31-c60fe9ac79da","ios":"levelo://app?vid=867d76c2-33ae-45fb-8f31-c60fe9ac79da"},"vehicle_type_id":"4","last_reported":1725566979,"current_range_meters":0,"station_id":"ce4bh5p2rcd13ifvqe4g","pricing_plan_id":"cebpf4jnsgd1na2vs0mg"},{"bike_id":"1786763a-268b-49b8-81d9-120c5ca34b29","system_id":"levelo_inurba_marseille","lat":43.290779,"lon":5.371482,"is_reserved":false,"is_disabled":false,"rental_uris":{"android":"levelo://app?vid=1786763a-268b-49b8-81d9-120c5ca34b29","ios":"levelo://app?vid=1786763a-268b-49b8-81d9-120c5ca34b29"},"vehicle_type_id":"4","last_reported":1725566979,"current_range_meters":0,"station_id":"ce4bh5p2rcd13ifvqe4g","pricing_plan_id":"cebpf4jnsgd1na2vs0mg"},{"bike_id":"33b50c53-d80c-4d12-8d09-0d78c2352a46","system_id":"levelo_inurba_marseille","lat":43.302008,"lon":5.394694,"is_reserved":false,"is_disabled":false,"rental_uris":{"android":"levelo://app?vid=33b50c53-d80c-4d12-8d09-0d78c2352a46","ios":"levelo://app?vid=33b50c53-d80c-4d12-8d09-0d78c2352a46"},"vehicle_type_id":"4","last_reported":1725566979,"current_range_meters":26400,"station_id":"ce4bh0p2rcd13ifvqd70","pricing_plan_id":"cebpf4jnsgd1na2vs0mg"},{"bike_id":"d3cee253-ae41-4990-84e6-8181390f2554","system_id":"levelo_inurba_marseille","lat":43.290631,"lon":5.359244,"is_reserved":false,"is_disabled":false,"rental_uris":{"android":"levelo://app?vid=d3cee253-ae41-4990-84e6-8181390f2554","ios":"levelo://app?vid=d3cee253-ae41-4990-84e6-8181390f2554"},"vehicle_type_id":"4","last_reported":1725566979,"current_range_meters":2800,"station_id":"ce4bha92rcd13ifvqeg0","pricing_plan_id":"cebpf4jnsgd1na2vs0mg"},{"bike_id":"263a0ab6-e621-483f-9abe-d209f7b18b8a","system_id":"levelo_inurba_marseille","lat":43.294368,"lon":5.386037,"is_reserved":false,"is_disabled":false,"rental_uris":{"android":"levelo://app?vid=263a0ab6-e621-483f-9abe-d209f7b18b8a","ios":"levelo://app?vid=263a0ab6-e621-483f-9abe-d209f7b18b8a"},"vehicle_type_id":"4","last_reported":1725566979,"current_range_meters":31200,"station_id":"ce4bh2h2rcd13ifvqdh0","pricing_plan_id":"cebpf4jnsgd1na2vs0mg"},{"bike_id":"1f6f9a26-c17b-4d95-9a4d-43a09046f01f","system_id":"levelo_inurba_marseille","lat":43.29427,"lon":5.38618,"is_reserved":false,"is_disabled":false,"rental_uris":{"android":"levelo://app?vid=1f6f9a26-c17b-4d95-9a4d-43a09046f01f","ios":"levelo://app?vid=1f6f9a26-c17b-4d95-9a4d-43a09046f01f"},"vehicle_type_id":"4","last_reported":1725566979,"current_range_meters":22800,"station_id":"ce4bh2h2rcd13ifvqdh0","pricing_plan_id":"cebpf4jnsgd1na2vs0mg"},{"bike_id":"8d8ea848-6db6-46a9-a836-6442c35e8eb4","system_id":"levelo_inurba_marseille","lat":43.29423,"lon":5.38614,"is_reserved":false,"is_disabled":false,"rental_uris":{"android":"levelo://app?vid=8d8ea848-6db6-46a9-a836-6442c35e8eb4","ios":"levelo://app?vid=8d8ea848-6db6-46a9-a836-6442c35e8eb4"},"vehicle_type_id":"4","last_reported":1725566979,"current_range_meters":6400,"station_id":"ce4bh2h2rcd13ifvqdh0","pricing_plan_id":"cebpf4jnsgd1na2vs0mg"},{"bike_id":"23e969ab-22ec-4ed7-9737-1f259a5660bb","system_id":"levelo_inurba_marseille","lat":43.294153,"lon":5.386305,"is_reserved":false,"is_disabled":false,"rental_uris":{"android":"levelo://app?vid=23e969ab-22ec-4ed7-9737-1f259a5660bb","ios":"levelo://app?vid=23e969ab-22ec-4ed7-9737-1f259a5660bb"},"vehicle_type_id":"4","last_reported":1725566979,"current_range_meters":4400,"station_id":"ce4bh2h2rcd13ifvqdh0","pricing_plan_id":"cebpf4jnsgd1na2vs0mg"},{"bike_id":"75ab5b61-f09d-421a-8b87-8e97b5b48883","system_id":"levelo_inurba_marseille","lat":43.29424,"lon":5.3862,"is_reserved":false,"is_disabled":false,"rental_uris":{"android":"levelo://app?vid=75ab5b61-f09d-421a-8b87-8e97b5b48883","ios":"levelo://app?vid=75ab5b61-f09d-421a-8b87-8e97b5b48883"},"vehicle_type_id":"4","last_reported":1725566979,"current_range_meters":0,"station_id":"ce4bh2h2rcd13ifvqdh0","pricing_plan_id":"cebpf4jnsgd1na2vs0mg"},{"bike_id":"c61bfe78-2f93-4cc3-a20a-cd4b9ce8e32f","system_id":"levelo_inurba_marseille","lat":43.29421,"lon":5.38619,"is_reserved":false,"is_disabled":false,"rental_uris":{"android":"levelo://app?vid=c61bfe78-2f93-4cc3-a20a-cd4b9ce8e32f","ios":"levelo://app?vid=c61bfe78-2f93-4cc3-a20a-cd4b9ce8e32f"},"vehicle_type_id":"4","last_reported":1725566979,"current_range_meters":24000,"station_id":"ce4bh2h2rcd13ifvqdh0","pricing_plan_id":"cebpf4jnsgd1na2vs0mg"},{"bike_id":"b64763a8-ad3e-4409-8937-390df52e46f9","system_id":"levelo_inurba_marseille","lat":43.29421,"lon":5.3862,"is_reserved":false,"is_disabled":false,"rental_uris":{"android":"levelo://app?vid=b64763a8-ad3e-4409-8937-390df52e46f9","ios":"levelo://app?vid=b64763a8-ad3e-4409-8937-390df52e46f9"},"vehicle_type_id":"4","last_reported":1725566979,"current_range_meters":21600,"station_id":"ce4bh2h2rcd13ifvqdh0","pricing_plan_id":"cebpf4jnsgd1na2vs0mg"},{"bike_id":"9e6aa9e3-b168-40d6-8944-87cfb8034a11","system_id":"levelo_inurba_marseille","lat":43.29421,"lon":5.3862,"is_reserved":false,"is_disabled":false,"rental_uris":{"android":"levelo://app?vid=9e6aa9e3-b168-40d6-8944-87cfb8034a11","ios":"levelo://app?vid=9e6aa9e3-b168-40d6-8944-87cfb8034a11"},"vehicle_type_id":"4","last_reported":1725566979,"current_range_meters":24000,"station_id":"ce4bh2h2rcd13ifvqdh0","pricing_plan_id":"cebpf4jnsgd1na2vs0mg"},{"bike_id":"1209cc44-1ac5-492f-af29-acb5ea2acc90","system_id":"levelo_inurba_marseille","lat":43.29421,"lon":5.38624,"is_reserved":false,"is_disabled":false,"rental_uris":{"android":"levelo://app?vid=1209cc44-1ac5-492f-af29-acb5ea2acc90","ios":"levelo://app?vid=1209cc44-1ac5-492f-af29-acb5ea2acc90"},"vehicle_type_id":"4","last_reported":1725566979,"current_range_meters":26400,"station_id":"ce4bh2h2rcd13ifvqdh0","pricing_plan_id":"cebpf4jnsgd1na2vs0mg"},