{"last_updated":1679436290,"ttl":30,"version":"2.2","data":{"bikes":[{"bike_id":"a35eb4b1-56f0-4284-aef9-5c9d9820d08b","system_id":"levelo_inurba_marseille","lat":43.30903,"lon":5.36853,"is_reserved":false,"is_disabled":false,"rental_uris":{"android":"levelo://app?vid=a35eb4b1-56f0-4284-aef9-5c9d9820d08b","ios":"levelo://app?vid=a35eb4b1-56f0-4284-aef9-5c9d9820d08b"},"vehicle_type_id":"4","last_reported":1679436290,"current_range_meters":800,"station_id":"ce4bgn92rcd13ifvqbvg","pricing_plan_id":"free"},{"bike_id":"2195ea5f-bd3f-4761-a9ae-2c466a73f883","system_id":"levelo_inurba_marseille","lat":43.305989,"lon":5.37225,"is_reserved":false,"is_disabled":false,"rental_uris":{"android":"levelo://app?vid=2195ea5f-bd3f-4761-a9ae-2c466a73f883","ios":"levelo://app?vid=2195ea5f-bd3f-4761-a9ae-2c466a73f883"},"vehicle_type_id":"4","last_reported":1679436290,"current_range_meters":3600,"station_id":"ce4bgqh2rcd13ifvqc4g","pricing_plan_id":"free"},{"bike_id":"1e668d38-bbbe-4c92-8fc4-48dccc45a5b4","system_id":"levelo_inurba_marseille","lat":43.30652,"lon":5.37423,"is_reserved":false,"is_disabled":false,"rental_uris":{"android":"levelo://app?vid=1e668d38-bbbe-4c92-8fc4-48dccc45a5b4","ios":"levelo://app?vid=1e668d38-bbbe-4c92-8fc4-48dccc45a5b4"},"vehicle_type_id":"4","last_reported":1679436290,"current_range_meters":11600,"station_id":"","pricing_plan_id":"free"},{"bike_id":"f851cb69-1df3-4136-b54c-72ae73227492","system_id":"levelo_inurba_marseille","lat":43.317075,"lon":5.377367,"is_reserved":false,"is_disabled":false,"rental_uris":{"android":"levelo://app?vid=f851cb69-1df3-4136-b54c-72ae73227492","ios":"levelo://app?vid=f851cb69-1df3-4136-b54c-72ae73227492"},"vehicle_type_id":"4","last_reported":1679436290,"current_range_meters":31200,"station_id":"ce4bgth2rcd13ifvqch0","pricing_plan_id":"free"},{"bike_id":"4f61d0fa-b141-4ae9-a556-072fa7c9b06b","system_id":"levelo_inurba_marseille","lat":43.317075,"lon":5.377367,"is_reserved":false,"is_disabled":false,"rental_uris":{"android":"levelo://app?vid=4f61d0fa-b141-4ae9-a556-072fa7c9b06b","ios":"levelo://app?vid=4f61d0fa-b141-4ae9-a556-072fa7c9b06b"},"vehicle_type_id":"4","last_reported":1679436290,"current_range_meters":23200,"station_id":"ce4bgth2rcd13ifvqch0","pricing_plan_id":"free"},{"bike_id":"4d63a329-c19c-47c4-89d4-34b04626907c","system_id":"levelo_inurba_marseille","lat":43.317075,"lon":5.377367,"is_reserved":false,"is_disabled":false,"rental_uris":{"android":"levelo://app?vid=4d63a329-c19c-47c4-89d4-34b04626907c","ios":"levelo://app?vid=4d63a329-c19c-47c4-89d4-34b04626907c"},"vehicle_type_id":"4","last_reported":1679436290,"current_range_meters":22400,"station_id":"ce4bgth2rcd13ifvqch0","pricing_plan_id":"free"},{"bike_id":"75e1d84c-f067-42b1-bc21-acc3daec2e49","system_id":"levelo_inurba_marseille","lat":43.317075,"lon":5.377367,"is_reserved":false,"is_disabled":false,"rental_uris":{"android":"levelo://app?vid=75e1d84c-f067-42b1-bc21-acc3daec2e49","ios":"levelo://app?vid=75e1d84c-f067-42b1-bc21-acc3daec2e49"},"vehicle_type_id":"4","last_reported":1679436290,"current_range_meters":29600,"station_id":"ce4bgth2rcd13ifvqch0","pricing_plan_id":"free"},{"bike_id":"821c89a9-2d96-427a-9236-2f263d6e36bf","system_id":"levelo_inurba_marseille","lat":43.30728,"lon":5.37861,"is_reserved":false,"is_disabled":false,"rental_uris":{"android":"levelo://app?vid=821c89a9-2d96-427a-9236-2f263d6e36bf","ios":"levelo://app?vid=821c89a9-2d96-427a-9236-2f263d6e36bf"},"vehicle_type_id":"4","last_reported":1679436290,"current_range_meters":10800,"station_id":"","pricing_plan_id":"free"},{"bike_id":"dc9838b3-4ef1-4308-8db4-c3a87142eec0","system_id":"levelo_inurba_marseille","lat":43.308027,"lon":5.381497,"is_reserved":false,"is_disabled":false,"rental_uris":{"android":"levelo://app?vid=dc9838b3-4ef1-4308-8db4-c3a87142eec0","ios":"levelo://app?vid=dc9838b3-4ef1-4308-8db4-c3a87142eec0"},"vehicle_type_id":"4","last_reported":1679436290,"current_range_meters":0,"station_id":"","pricing_plan_id":"free"},{"bike_id":"eac50b77-a45b-4a8e-a6bd-44b10c8826d4","system_id":"levelo_inurba_marseille","lat":43.308012,"lon":5.381511,"is_reserved":false,"is_disabled":false,"rental_uris":{"android":"levelo://app?vid=eac50b77-a45b-4a8e-a6bd-44b10c8826d4","ios":"levelo://app?vid=eac50b77-a45b-4a8e-a6bd-44b10c8826d4"},"vehicle_type_id":"4","last_reported":1679436290,"current_range_meters":20800,"station_id":"ce4bgt12rcd13ifvqce0","pricing_plan_id":"free"},{"bike_id":"3365c5db-5c3d-4ae7-8f25-4b0258958865","system_id":"levelo_inurba_marseille","lat":43.308012,"lon":5.381511,"is_reserved":false,"is_disabled":false,"rental_uris":{"android":"levelo://app?vid=3365c5db-5c3d-4ae7-8f25-4b0258958865","ios":"levelo://app?vid=3365c5db-5c3d-4ae7-8f25-4b0258958865"},"vehicle_type_id":"4","last_reported":1679436290,"current_range_meters":21200,"station_id":"ce4bgt12rcd13ifvqce0","pricing_plan_id":"free"},{"bike_id":"54c9dced-1968-4e2b-b58f-4d64a2539d34","system_id":"levelo_inurba_marseille","lat":43.3079,"lon":5.38162,"is_reserved":false,"is_disabled":false,"rental_uris":{"android":"levelo://app?vid=54c9dced-1968-4e2b-b58f-4d64a2539d34","ios":"levelo://app?vid=54c9dced-1968-4e2b-b58f-4d64a2539d34"},"vehicle_type_id":"4","last_reported":1679436290,"current_range_meters":1200,"station_id":"ce4bgt12rcd13ifvqce0","pricing_plan_id":"free"},{"bike_id":"837f800c-e62a-43d4-b93c-ac7d178eec1a","system_id":"levelo_inurba_marseille","lat":43.304606,"lon":5.379026,"is_reserved":false,"is_disabled":false,"rental_uris":{"android":"levelo://app?vid=837f800c-e62a-43d4-b93c-ac7d178eec1a","ios":"levelo://app?vid=837f800c-e62a-43d4-b93c-ac7d178eec1a"},"vehicle_type_id":"4","last_reported":1679436290,"current_range_meters":24800,"station_id":"ce4bgup2rcd13ifvqcn0","pricing_plan_id":"free"},{"bike_id":"61d920d4-b381-48ec-9a94-f4e90bfbbebe","system_id":"levelo_inurba_marseille","lat":43.314874,"lon":5.383751,"is_reserved":false,"is_disabled":false,"rental_uris":{"android":"levelo://app?vid=61d920d4-b381-48ec-9a94-f4e90bfbbebe","ios":"levelo://app?vid=61d920d4-b381-48ec-9a94-f4e90bfbbebe"},"vehicle_type_id":"4","last_reported":1679436290,"current_range_meters":0,"station_id":"","pricing_plan_id":"free"},{"bike_id":"e236af73-9465-469d-a696-e7cacc7a3845","system_id":"levelo_inurba_marseille","lat":43.30029,"lon":5.365445,"is_reserved":false,"is_disabled":false,"rental_uris":{"android":"levelo://app?vid=e236af73-9465-469d-a696-e7cacc7a3845","ios":"levelo://app?vid=e236af73-9465-469d-a696-e7cacc7a3845"},"vehicle_type_id":"4","last_reported":1679436290,"current_range_meters":800,"station_id":"","pricing_plan_id":"free"},{"bike_id":"9785cfc5-0d05-4b19-a45a-68aa0af6e698","system_id":"levelo_inurba_marseille","lat":43.313571,"lon":5.384829,"is_reserved":false,"is_disabled":false,"rental_uris":{"android":"levelo://app?vid=9785cfc5-0d05-4b19-a45a-68aa0af6e698","ios":"levelo://app?vid=9785cfc5-0d05-4b19-a45a-68aa0af6e698"},"vehicle_type_id":"4","last_reported":1679436290,"current_range_meters":20000,"station_id":"ce4bgt92rcd13ifvqcf0","pricing_plan_id":"free"},{"bike_id":"abed0f4f-a275-44e5-bfe4-f009ffc4b3f8","system_id":"levelo_inurba_marseille","lat":43.313571,"lon":5.384829,"is_reserved":false,"is_disabled":false,"rental_uris":{"android":"levelo://app?vid=abed0f4f-a275-44e5-bfe4-f009ffc4b3f8","ios":"levelo://app?vid=abed0f4f-a275-44e5-bfe4-f009ffc4b3f8"},"vehicle_type_id":"4","last_reported":1679436290,"current_range_meters":24400,"station_id":"ce4bgt92rcd13ifvqcf0","pricing_plan_id":"free"},{"bike_id":"2ce24e32-0d12-401c-b13a-e9eb034aeb65","system_id":"levelo_inurba_marseille","lat":43.313571,"lon":5.384829,"is_reserved":false,"is_disabled":false,"rental_uris":{"android":"levelo://app?vid=2ce24e32-0d12-401c-b13a-e9eb034aeb65","ios":"levelo://app?vid=2ce24e32-0d12-401c-b13a-e9eb034aeb65"},"vehicle_type_id":"4","last_reported":1679436290,"current_range_meters":3600,"station_id":"ce4bgt92rcd13ifvqcf0","pricing_plan_id":"free"},{"bike_id":"0e0b993e-1f39-464c-95a5-e8218ea4e56a","system_id":"levelo_inurba_marseille","lat":43.313571,"lon":5.384829,"is_reserved":false,"is_disabled":false,"rental_uris":{"android":"levelo://app?vid=0e0b993e-1f39-464c-95a5-e8218ea4e56a","ios":"levelo://app?vid=0e0b993e-1f39-464c-95a5-e8218ea4e56a"},"vehicle_type_id":"4","last_reported":1679436290,"current_range_meters":11200,"station_id":"ce4bgt92rcd13ifvqcf0","pricing_plan_id":"free"},{"bike_id":"7b023b88-7adc-4e33-8f8c-75de93bc06e4","system_id":"levelo_inurba_marseille","lat":43.313571,"lon":5.384829,"is_reserved":false,"is_disabled":false,"rental_uris":{"android":"levelo://app?vid=7b023b88-7adc-4e33-8f8c-75de93bc06e4","ios":"levelo://app?vid=7b023b88-7adc-4e33-8f8c-75de93bc06e4"},"vehicle_type_id":"4","last_reported":1679436290,"current_range_meters":1200,"station_id":"ce4bgt92rcd13ifvqcf0","pricing_plan_id":"free"},{"bike_id":"a446146b-ec53-415f-a1ef-86091336a840","system_id":"levelo_inurba_marseille","lat":43.313571,"lon":5.384829,"is_reserved":false,"is_disabled":false,"rental_uris":{"android":"levelo://app?vid=a446146b-ec53-415f-a1ef-86091336a840","ios":"levelo://app?vid=a446146b-ec53-415f-a1ef-86091336a840"},"vehicle_type_id":"4","last_reported":1679436290,"current_range_meters":6800,"station_id":"ce4bgt92rcd13ifvqcf0","pricing_plan_id":"free"},{"bike_id":"8f382d73-eeae-4fed-b7c8-49b0a8681520","system_id":"levelo_inurba_marseille","lat":43.313571,"lon":5.384829,"is_reserved":false,"is_disabled":false,"rental_uris":{"android":"levelo://app?vid=8f382d73-eeae-4fed-b7c8-49b0a8681520","ios":"levelo://app?vid=8f382d73-eeae-4fed-b7c8-49b0a8681520"},"vehicle_type_id":"4","last_reported":1679436290,"current_range_meters":12000,"station_id":"ce4bgt92rcd13ifvqcf0","pricing_plan_id":"free"},{"bike_id":"70a7f3a8-674b-4f5f-9f9e-b38de9a64cd3","system_id":"levelo_inurba_marseille","lat":43.313571,"lon":5.384829,"is_reserved":false,"is_disabled":false,"rental_uris":{"android":"levelo://app?vid=70a7f3a8-674b-4f5f-9f9e-b38de9a64cd3","ios":"levelo://app?vid=70a7f3a8-674b-4f5f-9f9e-b38de9a64cd3"},"vehicle_type_id":"4","last_reported":1679436290,"current_range_meters":0,"station_id":"ce4bgt92rcd13ifvqcf0","pricing_plan_id":"free"},{"bike_id":"6f1e4b4f-e707-4414-a80f-367cf9b519c1","system_id":"levelo_inurba_marseille","lat":43.313571,"lon":5.384829,"is_reserved":false,"is_disabled":false,"rental_uris":{"android":"levelo://app?vid=6f1e4b4f-e707-4414-a80f-367cf9b519c1","ios":"levelo://app?vid=6f1e4b4f-e707-4414-a80f-367cf9b519c1"},"vehicle_type_id":"4","last_reported":1679436290,"current_range_meters":800,"station_id":"ce4bgt92rcd13ifvqcf0","pricing_plan_id":"free"},{"bike_id":"3007d85a-96c6-4043-b535-45d138187052","system_id":"levelo_inurba_marseille","lat":43.313571,"lon":5.384829,"is_reserved":false,"is_disabled":false,"rental_uris":{"android":"levelo://app?vid=3007d85a-96c6-4043-b535-45d138187052","ios":"levelo://app?vid=3007d85a-96c6-4043-b535-45d138187052"},"vehicle_type_id":"4","last_reported":1679436290,"current_range_meters":4800,"station_id":"ce4bgt92rcd13ifvqcf0","pricing_plan_id":"free"},{"bike_id":"2e51c883-a1e4-47aa-8bc5-464d8c321936","system_id":"levelo_inurba_marseille","lat":43.313571,"lon":5.384829,"is_reserved":false,"is_disabled":false,"rental_uris":{"android":"levelo://app?vid=2e51c883-a1e4-47aa-8bc5-464d8c321936","ios":"levelo://app?vid=2e51c883-a1e4-47aa-8bc5-464d8c321936"},"vehicle_type_id":"4","last_reported":1679436290,"current_range_meters":6000,"station_id":"ce4bgt92rcd13ifvqcf0","pricing_plan_id":"free"},{"bike_id":"5c9ec172-dbed-4f7c-b7a2-5312769b1a1c","system_id":"levelo_inurba_marseille","lat":43.31357,"lon":5.38506,"is_reserved":false,"is_disabled":false,"rental_uris":{"android":"levelo://app?vid=5c9ec172-dbed-4f7c-b7a2-5312769b1a1c","ios":"levelo://app?vid=5c9ec172-dbed-4f7c-b7a2-5312769b1a1c"},"vehicle_type_id":"4","last_reported":1679436290,"current_range_meters":11200,"station_id":"","pricing_plan_id":"free"},{"bike_id":"e016b1d6-1aae-4792-8db0-fcd89e9cbd45","system_id":"levelo_inurba_marseille","lat":43.299094,"lon":5.365415,"is_reserved":false,"is_disabled":false,"rental_uris":{"android":"levelo://app?vid=e016b1d6-1aae-4792-8db0-fcd89e9cbd45","ios":"levelo://app?vid=e016b1d6-1aae-4792-8db0-fcd89e9cbd45"},"vehicle_type_id":"4","last_reported":1679436290,"current_range_meters":8000,"station_id":"ce4bgm92rcd13ifvqbr0","pricing_plan_id":"free"},{"bike_id":"c42afb03-d4df-41c1-a62a-b0d3af9e24d2","system_id":"levelo_inurba_marseille","lat":43.324753,"lon":5.37507,"is_reserved":false,"is_disabled":false,"rental_uris":{"android":"levelo://app?vid=c42afb03-d4df-41c1-a62a-b0d3af9e24d2","ios":"levelo://app?vid=c42afb03-d4df-41c1-a62a-b0d3af9e24d2"},"vehicle_type_id":"4","last_reported":1679436290,"current_range_meters":18400,"station_id":"","pricing_plan_id":"free"},{"bike_id":"4ae85dbe-1654-43f8-aa48-ed4141e73e57","system_id":"levelo_inurba_marseille","lat":43.305433,"lon":5.38433,"is_reserved":false,"is_disabled":false,"rental_uris":{"android":"levelo://app?vid=4ae85dbe-1654-43f8-aa48-ed4141e73e57","ios":"levelo://app?vid=4ae85dbe-1654-43f8-aa48-ed4141e73e57"},"vehicle_type_id":"4","last_reported":1679436290,"current_range_meters":21200,"station_id":"ce4bgg92rcd13ifvqb30","pricing_plan_id":"free"},{"bike_id":"1d0ab729-5bb2-495f-98ed-e94468c8a5cc","system_id":"levelo_inurba_marseille","lat":43.311722,"lon":5.387247,"is_reserved":false,"is_disabled":false,"rental_uris":{"android":"levelo://app?vid=1d0ab729-5bb2-495f-98ed-e94468c8a5cc","ios":"levelo://app?vid=1d0ab729-5bb2-495f-98ed-e94468c8a5cc"},"vehicle_type_id":"4","last_reported":1679436290,"current_range_meters":22800,"station_id":"ce4bgv12rcd13ifvqcp0","pricing_plan_id":"free"},{"bike_id":"0976a0f2-a17f-4ce7-b03d-44721cd44bfd","system_id":"levelo_inurba_marseille","lat":43.311722,"lon":5.387247,"is_reserved":false,"is_disabled":false,"rental_uris":{"android":"levelo://app?vid=0976a0f2-a17f-4ce7-b03d-44721cd44bfd","ios":"levelo://app?vid=0976a0f2-a17f-4ce7-b03d-44721cd44bfd"},"vehicle_type_id":"4","last_reported":1679436290,"current_range_meters":7200,"station_id":"ce4bgv12rcd13ifvqcp0","pricing_plan_id":"free"},{"bike_id":"95fe7c56-f98f-4bfe-9dd8-e1e31fd4cf7b","system_id":"levelo_inurba_marseille","lat":43.32827,"lon":5.3669,"is_reserved":false,"is_disabled":false,"rental_uris":{"android":"levelo://app?vid=95fe7c56-f98f-4bfe-9dd8-e1e31fd4cf7b","ios":"levelo://app?vid=95fe7c56-f98f-4bfe-9dd8-e1e31fd4cf7b"},"vehicle_type_id":"4","last_reported":1679436290,"current_range_meters":11600,"station_id":"ce4bhs92rcd13ifvqi0g","pricing_plan_id":"free"},{"bike_id":"a301e5d5-d0b1-4cc8-a7df-55820f71d0da","system_id":"levelo_inurba_marseille","lat":43.32832,"lon":5.36685,"is_reserved":false,"is_disabled":false,"rental_uris":{"android":"levelo://app?vid=a301e5d5-d0b1-4cc8-a7df-55820f71d0da","ios":"levelo://app?vid=a301e5d5-d0b1-4cc8-a7df-55820f71d0da"},"vehicle_type_id":"4","last_reported":1679436290,"current_range_meters":5600,"station_id":"","pricing_plan_id":"free"},{"bike_id":"c69d9e4e-a471-4a94-99f5-1ae0a0c35036","system_id":"levelo_inurba_marseille","lat":43.32847,"lon":5.3669,"is_reserved":false,"is_disabled":false,"rental_uris":{"android":"levelo://app?vid=c69d9e4e-a471-4a94-99f5-1ae0a0c35036","ios":"levelo://app?vid=c69d9e4e-a471-4a94-99f5-1ae0a0c35036"},"vehicle_type_id":"4","last_reported":1679436290,"current_range_meters":16800,"station_id":"ce4bhs92rcd13ifvqi0g","pricing_plan_id":"free"},{"bike_id":"d88e6ae6-5c57-44ba-9387-c2a96cc436d4","system_id":"levelo_inurba_marseille","lat":43.328347,"lon":5.375223,"is_reserved":false,"is_disabled":false,"rental_uris":{"android":"levelo://app?vid=d88e6ae6-5c57-44ba-9387-c2a96cc436d4","ios":"levelo://app?vid=d88e6ae6-5c57-44ba-9387-c2a96cc436d4"},"vehicle_type_id":"4","last_reported":1679436290,"current_range_meters":13200,"station_id":"","pricing_plan_id":"free"},{"bike_id":"78bda597-1b0a-4416-a41c-3c72b83fe308","system_id":"levelo_inurba_marseille","lat":43.32837,"lon":5.37522,"is_reserved":false,"is_disabled":false,"rental_uris":{"android":"levelo://app?vid=78bda597-1b0a-4416-a41c-3c72b83fe308","ios":"levelo://app?vid=78bda597-1b0a-4416-a41c-3c72b83fe308"},"vehicle_type_id":"4","last_reported":1679436290,"current_range_meters":2000,"station_id":"","pricing_plan_id":"free"},{"bike_id":"83b5d788-1261-4de6-8be2-76bfc3574b18","system_id":"levelo_inurba_marseille","lat":43.32837,"lon":5.37523,"is_reserved":false,"is_disabled":false,"rental_uris":{"android":"levelo://app?vid=83b5d788-1261-4de6-8be2-76bfc3574b18","ios":"levelo://app?vid=83b5d788-1261-4de6-8be2-76bfc3574b18"},"vehicle_type_id":"4","last_reported":1679436290,"current_range_meters":13600,"station_id":"","pricing_plan_id":"free"},{"bike_id":"80b130d5-24df-43d5-ae01-166b3d558d92","system_id":"levelo_inurba_marseille","lat":43.328423,"lon":5.375135,"is_reserved":false,"is_disabled":false,"rental_uris":{"android":"levelo://app?vid=80b130d5-24df-43d5-ae01-166b3d558d92","ios":"levelo://app?vid=80b130d5-24df-43d5-ae01-166b3d558d92"},"vehicle_type_id":"4","last_reported":1679436290,"current_range_meters":12000,"station_id":"","pricing_plan_id":"free"},{"bike_id":"f1d074b1-99bc-4acc-b30f-869f761de3b7","system_id":"levelo_inurba_marseille","lat":43.296935,"lon":5.376544,"is_reserved":false,"is_disabled":false,"rental_uris":{"android":"levelo://app?vid=f1d074b1-99bc-4acc-b30f-869f761de3b7","ios":"levelo://app?vid=f1d074b1-99bc-4acc-b30f-869f761de3b7"},"vehicle_type_id":"4","last_reported":1679436290,"current_range_meters":0,"station_id":"ce4bgkh2rcd13ifvqbl0","pricing_plan_id":"free"},{"bike_id":"373f2141-9a94-40b2-a843-18f6efd886f0","system_id":"levelo_inurba_marseille","lat":43.317557,"lon":5.390173,"is_reserved":false,"is_disabled":false,"rental_uris":{"android":"levelo://app?vid=373f2141-9a94-40b2-a843-18f6efd886f0","ios":"levelo://app?vid=373f2141-9a94-40b2-a843-18f6efd886f0"},"vehicle_type_id":"4","last_reported":1679436290,"current_range_meters":6000,"station_id":"ce4bhqp2rcd13ifvqhng","pricing_plan_id":"free"},{"bike_id":"66a6196a-9159-42fd-806d-8ca7f90b01f9","system_id":"levelo_inurba_marseille","lat":43.317557,"lon":5.390173,"is_reserved":false,"is_disabled":false,"rental_uris":{"android":"levelo://app?vid=66a6196a-9159-42fd-806d-8ca7f90b01f9","ios":"levelo://app?vid=66a6196a-9159-42fd-806d-8ca7f90b01f9"},"vehicle_type_id":"4","last_reported":1679436290,"current_range_meters":0,"station_id":"ce4bhqp2rcd13ifvqhng","pricing_plan_id":"free"},{"bike_id":"fe34483d-7523-4251-a85c-d8394c5778d4","system_id":"levelo_inurba_marseille","lat":43.298037,"lon":5.381066,"is_reserved":false,"is_disabled":false,"rental_uris":{"android":"levelo://app?vid=fe34483d-7523-4251-a85c-d8394c5778d4","ios":"levelo://app?vid=fe34483d-7523-4251-a85c-d8394c5778d4"},"vehicle_type_id":"4","last_reported":1679436290,"current_range_meters":1600,"station_id":"ce4bgip2rcd13ifvqbb0","pricing_plan_id":"free"},{"bike_id":"02872aa6-be05-4451-a24d-49cec7ae528b","system_id":"levelo_inurba_marseille","lat":43.32367,"lon":5.38882,"is_reserved":false,"is_disabled":false,"rental_uris":{"android":"levelo://app?vid=02872aa6-be05-4451-a24d-49cec7ae528b","ios":"levelo://app?vid=02872aa6-be05-4451-a24d-49cec7ae528b"},"vehicle_type_id":"4","last_reported":1679436290,"current_range_meters":8800,"station_id":"","pricing_plan_id":"free"},{"bike_id":"55070dff-880f-400c-8303-92a494d721c6","system_id":"levelo_inurba_marseille","lat":43.32367,"lon":5.388836,"is_reserved":false,"is_disabled":false,"rental_uris":{"android":"levelo://app?vid=55070dff-880f-400c-8303-92a494d721c6","ios":"levelo://app?vid=55070dff-880f-400c-8303-92a494d721c6"},"vehicle_type_id":"4","last_reported":1679436290,"current_range_meters":16800,"station_id":"ce4bhqp2rcd13ifvqhog","pricing_plan_id":"free"},{"bike_id":"4ae445b2-ad48-4e6d-bd61-00f0c4768b23","system_id":"levelo_inurba_marseille","lat":43.32367,"lon":5.388836,"is_reserved":false,"is_disabled":false,"rental_uris":{"android":"levelo://app?vid=4ae445b2-ad48-4e6d-bd61-00f0c4768b23","ios":"levelo://app?vid=4ae445b2-ad48-4e6d-bd61-00f0c4768b23"},"vehicle_type_id":"4","last_reported":1679436290,"current_range_meters":0,"station_id":"ce4bhqp2rcd13ifvqhog","pricing_plan_id":"free"},{"bike_id":"579f036b-ea16-43de-a93d-e68a97ddba2e","system_id":"levelo_inurba_marseille","lat":43.32367,"lon":5.388836,"is_reserved":false,"is_disabled":false,"rental_uris":{"android":"levelo://app?vid=579f036b-ea16-43de-a93d-e68a97ddba2e","ios":"levelo://app?vid=579f036b-ea16-43de-a93d-e68a97ddba2e"},"vehicle_type_id":"4","last_reported":1679436290,"current_range_meters":16000,"station_id":"ce4bhqp2rcd13ifvqhog","pricing_plan_id":"free"},{"bike_id":"16a4a629-d0df-40f8-b71e-8856b084ea85","system_id":"levelo_inurba_marseille","lat":43.32367,"lon":5.388836,"is_reserved":false,"is_disabled":false,"rental_uris":{"android":"levelo://app?vid=16a4a629-d0df-40f8-b71e-8856b084ea85","ios":"levelo://app?vid=16a4a629-d0df-40f8-b71e-8856b084ea85"},"vehicle_type_id":"4","last_reported":1679436290,"current_range_meters":800,"station_id":"ce4bhqp2rcd13ifvqhog","pricing_plan_id":"free"},{"bike_id":"8ab450ca-79d9-4119-89fb-43b8b1861172","system_id":"levelo_inurba_marseille","lat":43.31216,"lon":5.39387,"is_reserved":false,"is_disabled":false,"rental_uris":{"android":"levelo://app?vid=8ab450ca-79d9-4119-89fb-43b8b1861172","ios":"levelo://app?vid=8ab450ca-79d9-4119-89fb-43b8b1861172"},"vehicle_type_id":"4","last_reported":1679436290,"current_range_meters":1600,"station_id":"","pricing_plan_id":"free"},{"bike_id":"1e88dbeb-27e3-4614-8c20-e8a22bd1a9ed","system_id":"levelo_inurba_marseille","lat":43.305994,"lon":5.393687,"is_reserved":false,"is_disabled":false,"rental_uris":{"android":"levelo://app?vid=1e88dbeb-27e3-4614-8c20-e8a22bd1a9ed","ios":"levelo://app?vid=1e88dbeb-27e3-4614-8c20-e8a22bd1a9ed"},"vehicle_type_id":"4","last_reported":1679436290,"current_range_meters":0,"station_id":"ce4bh0p2rcd13ifvqd80","pricing_plan_id":"free"},{"bike_id":"7ba96de7-ac6e-4cbd-bfb9-dbe7cfa959c7","system_id":"levelo_inurba_marseille","lat":43.305994,"lon":5.393687,"is_reserved":false,"is_disabled":false,"rental_uris":{"android":"levelo://app?vid=7ba96de7-ac6e-4cbd-bfb9-dbe7cfa959c7","ios":"levelo://app?vid=7ba96de7-ac6e-4cbd-bfb9-dbe7cfa959c7"},"vehicle_type_id":"4","last_reported":1679436290,"current_range_meters":17600,"station_id":"ce4bh0p2rcd13ifvqd80","pricing_plan_id":"free"},{"bike_id":"66214c19-1e2f-41ea-a9a8-34d7f4f2e243","system_id":"levelo_inurba_marseille","lat":43.300852,"lon":5.390859,"is_reserved":false,"is_disabled":false,"rental_uris":{"android":"levelo://app?vid=66214c19-1e2f-41ea-a9a8-34d7f4f2e243","ios":"levelo://app?vid=66214c19-1e2f-41ea-a9a8-34d7f4f2e243"},"vehicle_type_id":"4","last_reported":1679436290,"current_range_meters":30800,"station_id":"ce4bh192rcd13ifvqdb0","pricing_plan_id":"free"},{"bike_id":"392ff794-d197-4e2b-9e83-d5de9361d2fb","system_id":"levelo_inurba_marseille","lat":43.292247,"lon":5.360587,"is_reserved":false,"is_disabled":false,"rental_uris":{"android":"levelo://app?vid=392ff794-d197-4e2b-9e83-d5de9361d2fb","ios":"levelo://app?vid=392ff794-d197-4e2b-9e83-d5de9361d2fb"},"vehicle_type_id":"4","last_reported":1679436290,"current_range_meters":800,"station_id":"ce4bhbh2rcd13ifvqeqg","pricing_plan_id":"free"},{"bike_id":"f1a4bccc-8c8a-401b-9a8d-92876b92e16c","system_id":"levelo_inurba_marseille","lat":43.30095,"lon":5.390842,"is_reserved":false,"is_disabled":false,"rental_uris":{"android":"levelo://app?vid=f1a4bccc-8c8a-401b-9a8d-92876b92e16c","ios":"levelo://app?vid=f1a4bccc-8c8a-401b-9a8d-92876b92e16c"},"vehicle_type_id":"4","last_reported":1679436290,"current_range_meters":5200,"station_id":"ce4bh192rcd13ifvqdb0","pricing_plan_id":"free"},{"bike_id":"43111664-2870-4816-a941-41a608d46e69","system_id":"levelo_inurba_marseille","lat":43.3133,"lon":5.3969,"is_reserved":false,"is_disabled":false,"rental_uris":{"android":"levelo://app?vid=43111664-2870-4816-a941-41a608d46e69","ios":"levelo://app?vid=43111664-2870-4816-a941-41a608d46e69"},"vehicle_type_id":"4","last_reported":1679436290,"current_range_meters":3200,"station_id":"ce4bgvp2rcd13ifvqcu0","pricing_plan_id":"free"},{"bike_id":"9cd8a9aa-64f4-4f67-87dc-7744774a4ad7","system_id":"levelo_inurba_marseille","lat":43.30886,"lon":5.39645,"is_reserved":false,"is_disabled":false,"rental_uris":{"android":"levelo://app?vid=9cd8a9aa-64f4-4f67-87dc-7744774a4ad7","ios":"levelo://app?vid=9cd8a9aa-64f4-4f67-87dc-7744774a4ad7"},"vehicle_type_id":"4","last_reported":1679436290,"current_range_meters":400,"station_id":"ce4bh012rcd13ifvqcv0","pricing_plan_id":"free"},{"bike_id":"55883f35-8854-40f0-bfd0-3305c289ec15","system_id":"levelo_inurba_marseille","lat":43.31327,"lon":5.39692,"is_reserved":false,"is_disabled":false,"rental_uris":{"android":"levelo://app?vid=55883f35-8854-40f0-bfd0-3305c289ec15","ios":"levelo://app?vid=55883f35-8854-40f0-bfd0-3305c289ec15"},"vehicle_type_id":"4","last_reported":1679436290,"current_range_meters":16000,"station_id":"ce4bgvp2rcd13ifvqcu0","pricing_plan_id":"free"},{"bike_id":"e127ea75-5675-4809-b721-64d1975e3f2f","system_id":"levelo_inurba_marseille","lat":43.313291,"lon":5.396838,"is_reserved":false,"is_disabled":false,"rental_uris":{"android":"levelo://app?vid=e127ea75-5675-4809-b721-64d1975e3f2f","ios":"levelo://app?vid=e127ea75-5675-4809-b721-64d1975e3f2f"},"vehicle_type_id":"4","last_reported":1679436290,"current_range_meters":14800,"station_id":"ce4bgvp2rcd13ifvqcu0","pricing_plan_id":"free"},{"bike_id":"83b73192-fffd-46f3-9096-741c53e1099d","system_id":"levelo_inurba_marseille","lat":43.31331,"lon":5.39695,"is_reserved":false,"is_disabled":false,"rental_uris":{"android":"levelo://app?vid=83b73192-fffd-46f3-9096-741c53e1099d","ios":"levelo://app?vid=83b73192-fffd-46f3-9096-741c53e1099d"},"vehicle_type_id":"4","last_reported":1679436290,"current_range_meters":3600,"station_id":"ce4bgvp2rcd13ifvqcu0","pricing_plan_id":"free"},{"bike_id":"14776859-a4eb-478c-b245-b9f986b7fcb0","system_id":"levelo_inurba_marseille","lat":43.313291,"lon":5.396838,"is_reserved":false,"is_disabled":false,"rental_uris":{"android":"levelo://app?vid=14776859-a4eb-478c-b245-b9f986b7fcb0","ios":"levelo://app?vid=14776859-a4eb-478c-b245-b9f986b7fcb0"},"vehicle_type_id":"4","last_reported":1679436290,"current_range_meters":17600,"station_id":"ce4bgvp2rcd13ifvqcu0","pricing_plan_id":"free"},{"bike_id":"5ef3f6a8-1a01-42ec-a6e9-3b84c662dcfb","system_id":"levelo_inurba_marseille","lat":43.313291,"lon":5.396838,"is_reserved":false,"is_disabled":false,"rental_uris":{"android":"levelo://app?vid=5ef3f6a8-1a01-42ec-a6e9-3b84c662dcfb","ios":"levelo://app?vid=5ef3f6a8-1a01-42ec-a6e9-3b84c662dcfb"},"vehicle_type_id":"4","last_reported":1679436290,"current_range_meters":18800,"station_id":"ce4bgvp2rcd13ifvqcu0","pricing_plan_id":"free"},{"bike_id":"7967fa58-4c40-4027-a594-380fb3e7c793","system_id":"levelo_inurba_marseille","lat":43.29529,"lon":5.385581,"is_reserved":false,"is_disabled":false,"rental_uris":{"android":"levelo://app?vid=7967fa58-4c40-4027-a594-380fb3e7c793","ios":"levelo://app?vid=7967fa58-4c40-4027-a594-380fb3e7c793"},"vehicle_type_id":"4","last_reported":1679436290,"current_range_meters":6400,"station_id":"ce4bgih2rcd13ifvqba0","pricing_plan_id":"free"},{"bike_id":"fb45dcd7-2cdd-4b67-9f48-ffecc8ab95ae","system_id":"levelo_inurba_marseille","lat":43.29529,"lon":5.385581,"is_reserved":false,"is_disabled":false,"rental_uris":{"android":"levelo://app?vid=fb45dcd7-2cdd-4b67-9f48-ffecc8ab95ae","ios":"levelo://app?vid=fb45dcd7-2cdd-4b67-9f48-ffecc8ab95ae"},"vehicle_type_id":"4","last_reported":1679436290,"current_range_meters":21600,"station_id":"ce4bgih2rcd13ifvqba0","pricing_plan_id":"free"},{"bike_id":"c6b4f4d0-efc1-407c-be94-f8bf4751c0ce","system_id":"levelo_inurba_marseille","lat":43.29532,"lon":5.3854,"is_reserved":false,"is_disabled":false,"rental_uris":{"android":"levelo://app?vid=c6b4f4d0-efc1-407c-be94-f8bf4751c0ce","ios":"levelo://app?vid=c6b4f4d0-efc1-407c-be94-f8bf4751c0ce"},"vehicle_type_id":"4","last_reported":1679436290,"current_range_meters":22000,"station_id":"ce4bgih2rcd13ifvqba0","pricing_plan_id":"free"},{"bike_id":"92e55a7f-6071-4689-a0ee-08b086b4495a","system_id":"levelo_inurba_marseille","lat":43.29529,"lon":5.385581,"is_reserved":false,"is_disabled":false,"rental_uris":{"android":"levelo://app?vid=92e55a7f-6071-4689-a0ee-08b086b4495a","ios":"levelo://app?vid=92e55a7f-6071-4689-a0ee-08b086b4495a"},"vehicle_type_id":"4","last_reported":1679436290,"current_range_meters":16800,"station_id":"ce4bgih2rcd13ifvqba0","pricing_plan_id":"free"},{"bike_id":"2c5c3527-0c63-403b-937f-79407f883a85","system_id":"levelo_inurba_marseille","lat":43.29529,"lon":5.385581,"is_reserved":false,"is_disabled":false,"rental_uris":{"android":"levelo://app?vid=2c5c3527-0c63-403b-937f-79407f883a85","ios":"levelo://app?vid=2c5c3527-0c63-403b-937f-79407f883a85"},"vehicle_type_id":"4","last_reported":1679436290,"current_range_meters":16800,"station_id":"ce4bgih2rcd13ifvqba0","pricing_plan_id":"free"},{"bike_id":"924be205-820d-4459-af29-fb4506f71323","system_id":"levelo_inurba_marseille","lat":43.29529,"lon":5.385581,"is_reserved":false,"is_disabled":false,"rental_uris":{"android":"levelo://app?vid=924be205-820d-4459-af29-fb4506f71323","ios":"levelo://app?vid=924be205-820d-4459-af29-fb4506f71323"},"vehicle_type_id":"4","last_reported":1679436290,"current_range_meters":10800,"station_id":"ce4bgih2rcd13ifvqba0","pricing_plan_id":"free"},{"bike_id":"b6e1c714-bc41-4511-a5b3-f6d27ecf735e","system_id":"levelo_inurba_marseille","lat":43.29529,"lon":5.385581,"is_reserved":false,"is_disabled":false,"rental_uris":{"android":"levelo://app?vid=b6e1c714-bc41-4511-a5b3-f6d27ecf735e","ios":"levelo://app?vid=b6e1c714-bc41-4511-a5b3-f6d27ecf735e"},"vehicle_type_id":"4","last_reported":1679436290,"current_range_meters":10800,"station_id":"ce4bgih2rcd13ifvqba0","pricing_plan_id":"free"},{"bike_id":"6ece1105-50f8-48c1-97db-f60b564ae891","system_id":"levelo_inurba_marseille","lat":43.295267,"lon":5.385424,"is_reserved":false,"is_disabled":false,"rental_uris":{"android":"levelo://app?vid=6ece1105-50f8-48c1-97db-f60b564ae891","ios":"levelo://app?vid=6ece1105-50f8-48c1-97db-f60b564ae891"},"vehicle_type_id":"4","last_reported":1679436290,"current_range_meters":12000,"station_id":"ce4bgih2rcd13ifvqba0","pricing_plan_id":"free"},{"bike_id":"efe1b03a-7bfc-4cbc-92fe-374fba5bbfba","system_id":"levelo_inurba_marseille","lat":43.289184,"lon":5.366408,"is_reserved":false,"is_disabled":false,"rental_uris":{"android":"levelo://app?vid=efe1b03a-7bfc-4cbc-92fe-374fba5bbfba","ios":"levelo://app?vid=efe1b03a-7bfc-4cbc-92fe-374fba5bbfba"},"vehicle_type_id":"4","last_reported":1679436290,"current_range_meters":26800,"station_id":"ce4bhap2rcd13ifvqek0","pricing_plan_id":"free"},{"bike_id":"33de0049-bc42-4678-84cb-b3a78b15708b","system_id":"levelo_inurba_marseille","lat":43.289184,"lon":5.366408,"is_reserved":false,"is_disabled":false,"rental_uris":{"android":"levelo://app?vid=33de0049-bc42-4678-84cb-b3a78b15708b","ios":"levelo://app?vid=33de0049-bc42-4678-84cb-b3a78b15708b"},"vehicle_type_id":"4","last_reported":1679436290,"current_range_meters":0,"station_id":"ce4bhap2rcd13ifvqek0","pricing_plan_id":"free"},{"bike_id":"3111d181-346a-4816-9bde-fab6f79ade7d","system_id":"levelo_inurba_marseille","lat":43.28942,"lon":5.36398,"is_reserved":false,"is_disabled":false,"rental_uris":{"android":"levelo://app?vid=3111d181-346a-4816-9bde-fab6f79ade7d","ios":"levelo://app?vid=3111d181-346a-4816-9bde-fab6f79ade7d"},"vehicle_type_id":"4","last_reported":1679436290,"current_range_meters":11200,"station_id":"","pricing_plan_id":"free"},{"bike_id":"e7b0b9ce-7376-4296-b9f8-db9d4a97432d","system_id":"levelo_inurba_marseille","lat":43.289468,"lon":5.363719,"is_reserved":false,"is_disabled":false,"rental_uris":{"android":"levelo://app?vid=e7b0b9ce-7376-4296-b9f8-db9d4a97432d","ios":"levelo://app?vid=e7b0b9ce-7376-4296-b9f8-db9d4a97432d"},"vehicle_type_id":"4","last_reported":1679436290,"current_range_meters":31600,"station_id":"ce4bhc92rcd13ifvqetg","pricing_plan_id":"free"},{"bike_id":"239a179d-a31e-49af-991f-8c2371c7387b","system_id":"levelo_inurba_marseille","lat":43.2901,"lon":5.35624,"is_reserved":false,"is_disabled":false,"rental_uris":{"android":"levelo://app?vid=239a179d-a31e-49af-991f-8c2371c7387b","ios":"levelo://app?vid=239a179d-a31e-49af-991f-8c2371c7387b"},"vehicle_type_id":"4","last_reported":1679436290,"current_range_meters":6800,"station_id":"ce4bhb92rcd13ifvqen0","pricing_plan_id":"free"},{"bike_id":"f08808d9-63d1-4d98-9b34-c7567334001e","system_id":"levelo_inurba_marseille","lat":43.330442,"lon":5.389148,"is_reserved":false,"is_disabled":false,"rental_uris":{"android":"levelo://app?vid=f08808d9-63d1-4d98-9b34-c7567334001e","ios":"levelo://app?vid=f08808d9-63d1-4d98-9b34-c7567334001e"},"vehicle_type_id":"4","last_reported":1679436290,"current_range_meters":14400,"station_id":"ce4bhr92rcd13ifvqhrg","pricing_plan_id":"free"},{"bike_id":"b509c814-8d94-4d31-b949-89473a73be0a","system_id":"levelo_inurba_marseille","lat":43.290104,"lon":5.356111,"is_reserved":false,"is_disabled":false,"rental_uris":{"android":"levelo://app?vid=b509c814-8d94-4d31-b949-89473a73be0a","ios":"levelo://app?vid=b509c814-8d94-4d31-b949-89473a73be0a"},"vehicle_type_id":"4","last_reported":1679436290,"current_range_meters":25600,"station_id":"ce4bhb92rcd13ifvqen0","pricing_plan_id":"free"},{"bike_id":"8ae15680-4637-4237-8a79-e5e64da25c56","system_id":"levelo_inurba_marseille","lat":43.290104,"lon":5.356111,"is_reserved":false,"is_disabled":false,"rental_uris":{"android":"levelo://app?vid=8ae15680-4637-4237-8a79-e5e64da25c56","ios":"levelo://app?vid=8ae15680-4637-4237-8a79-e5e64da25c56"},"vehicle_type_id":"4","last_reported":1679436290,"current_range_meters":17200,"station_id":"ce4bhb92rcd13ifvqen0","pricing_plan_id":"free"},{"bike_id":"31fe10e0-3a47-4e7e-b115-964f4f658d80","system_id":"levelo_inurba_marseille","lat":43.330442,"lon":5.389148,"is_reserved":false,"is_disabled":false,"rental_uris":{"android":"levelo://app?vid=31fe10e0-3a47-4e7e-b115-964f4f658d80","ios":"levelo://app?vid=31fe10e0-3a47-4e7e-b115-964f4f658d80"},"vehicle_type_id":"4","last_reported":1679436290,"current_range_meters":14400,"station_id":"ce4bhr92rcd13ifvqhrg","pricing_plan_id":"free"},{"bike_id":"b05a9971-97d0-40ec-aee1-35c155857dc3","system_id":"levelo_inurba_marseille","lat":43.33047,"lon":5.38913,"is_reserved":false,"is_disabled":false,"rental_uris":{"android":"levelo://app?vid=b05a9971-97d0-40ec-aee1-35c155857dc3","ios":"levelo://app?vid=b05a9971-97d0-40ec-aee1-35c155857dc3"},"vehicle_type_id":"4","last_reported":1679436290,"current_range_meters":12400,"station_id":"ce4bhr92rcd13ifvqhrg","pricing_plan_id":"free"},{"bike_id":"f3082424-3605-4a00-a645-6e0bfbc9cdaf","system_id":"levelo_inurba_marseille","lat":43.33045,"lon":5.38917,"is_reserved":false,"is_disabled":false,"rental_uris":{"android":"levelo://app?vid=f3082424-3605-4a00-a645-6e0bfbc9cdaf","ios":"levelo://app?vid=f3082424-3605-4a00-a645-6e0bfbc9cdaf"},"vehicle_type_id":"4","last_reported":1679436290,"current_range_meters":26400,"station_id":"","pricing_plan_id":"free"},{"bike_id":"94ba2d26-f8d4-4279-b098-2b259dd62828","system_id":"levelo_inurba_marseille","lat":43.330442,"lon":5.389148,"is_reserved":false,"is_disabled":false,"rental_uris":{"android":"levelo://app?vid=94ba2d26-f8d4-4279-b098-2b259dd62828","ios":"levelo://app?vid=94ba2d26-f8d4-4279-b098-2b259dd62828"},"vehicle_type_id":"4","last_reported":1679436290,"current_range_meters":28800,"station_id":"ce4bhr92rcd13ifvqhrg","pricing_plan_id":"free"},{"bike_id":"812a3998-6bcc-4af5-8385-faa6a2c02a9a","system_id":"levelo_inurba_marseille","lat":43.290104,"lon":5.356111,"is_reserved":false,"is_disabled":false,"rental_uris":{"android":"levelo://app?vid=812a3998-6bcc-4af5-8385-faa6a2c02a9a","ios":"levelo://app?vid=812a3998-6bcc-4af5-8385-faa6a2c02a9a"},"vehicle_type_id":"4","last_reported":1679436290,"current_range_meters":0,"station_id":"ce4bhb92rcd13ifvqen0","pricing_plan_id":"free"},{"bike_id":"cebe9819-6ef7-4046-a56f-49072a304a18","system_id":"levelo_inurba_marseille","lat":43.290104,"lon":5.356111,"is_reserved":false,"is_disabled":false,"rental_uris":{"android":"levelo://app?vid=cebe9819-6ef7-4046-a56f-49072a304a18","ios":"levelo://app?vid=cebe9819-6ef7-4046-a56f-49072a304a18"},"vehicle_type_id":"4","last_reported":1679436290,"current_range_meters":20400,"station_id":"ce4bhb92rcd13ifvqen0","pricing_plan_id":"free"},{"bike_id":"cb90cb4f-cd32-4f62-81f1-80ca330bc942","system_id":"levelo_inurba_marseille","lat":43.290104,"lon":5.356111,"is_reserved":false,"is_disabled":false,"rental_uris":{"android":"levelo://app?vid=cb90cb4f-cd32-4f62-81f1-80ca330bc942","ios":"levelo://app?vid=cb90cb4f-cd32-4f62-81f1-80ca330bc942"},"vehicle_type_id":"4","last_reported":1679436290,"current_range_meters":2400,"station_id":"ce4bhb92rcd13ifvqen0","pricing_plan_id":"free"},{"bike_id":"2f069e79-7127-45e7-9859-7bd6377148d7","system_id":"levelo_inurba_marseille","lat":43.32621,"lon":5.39456,"is_reserved":false,"is_disabled":false,"rental_uris":{"android":"levelo://app?vid=2f069e79-7127-45e7-9859-7bd6377148d7","ios":"levelo://app?vid=2f069e79-7127-45e7-9859-7bd6377148d7"},"vehicle_type_id":"4","last_reported":1679436290,"current_range_meters":8000,"station_id":"","pricing_plan_id":"free"},{"bike_id":"575ae23a-3b31-45a2-9ac1-7a5c41f186b0","system_id":"levelo_inurba_marseille","lat":43.323464,"lon":5.406297,"is_reserved":false,"is_disabled":false,"rental_uris":{"android":"levelo://app?vid=575ae23a-3b31-45a2-9ac1-7a5c41f186b0","ios":"levelo://app?vid=575ae23a-3b31-45a2-9ac1-7a5c41f186b0"},"vehicle_type_id":"4","last_reported":1679436290,"current_range_meters":16000,"station_id":"ce4bhq92rcd13ifvqhjg","pricing_plan_id":"free"},{"bike_id":"85f6c923-f80a-411b-bd3a-122cb60394c5","system_id":"levelo_inurba_marseille","lat":43.28856,"lon":5.358371,"is_reserved":false,"is_disabled":false,"rental_uris":{"android":"levelo://app?vid=85f6c923-f80a-411b-bd3a-122cb60394c5","ios":"levelo://app?vid=85f6c923-f80a-411b-bd3a-122cb60394c5"},"vehicle_type_id":"4","last_reported":1679436290,"current_range_meters":14400,"station_id":"ce4bhb12rcd13ifvqem0","pricing_plan_id":"free"},{"bike_id":"f9fd58df-f4f4-43ca-94f1-0dc5675a4616","system_id":"levelo_inurba_marseille","lat":43.28856,"lon":5.358371,"is_reserved":false,"is_disabled":false,"rental_uris":{"android":"levelo://app?vid=f9fd58df-f4f4-43ca-94f1-0dc5675a4616","ios":"levelo://app?vid=f9fd58df-f4f4-43ca-94f1-0dc5675a4616"},"vehicle_type_id":"4","last_reported":1679436290,"current_range_meters":5600,"station_id":"ce4bhb12rcd13ifvqem0","pricing_plan_id":"free"},{"bike_id":"c3b69e93-d550-45b2-aeb3-8896c3b99c24","system_id":"levelo_inurba_marseille","lat":43.28856,"lon":5.358371,"is_reserved":false,"is_disabled":false,"rental_uris":{"android":"levelo://app?vid=c3b69e93-d550-45b2-aeb3-8896c3b99c24","ios":"levelo://app?vid=c3b69e93-d550-45b2-aeb3-8896c3b99c24"},"vehicle_type_id":"4","last_reported":1679436290,"current_range_meters":22400,"station_id":"ce4bhb12rcd13ifvqem0","pricing_plan_id":"free"},{"bike_id":"59d7a8ef-d514-4b09-87bd-d5cf0b05bd1b","system_id":"levelo_inurba_marseille","lat":43.28856,"lon":5.358371,"is_reserved":false,"is_disabled":false,"rental_uris":{"android":"levelo://app?vid=59d7a8ef-d514-4b09-87bd-d5cf0b05bd1b","ios":"levelo://app?vid=59d7a8ef-d514-4b09-87bd-d5cf0b05bd1b"},"vehicle_type_id":"4","last_reported":1679436290,"current_range_meters":5200,"station_id":"ce4bhb12rcd13ifvqem0","pricing_plan_id":"free"},{"bike_id":"ab6482a6-d533-4030-b3c8-996a8784e9f7","system_id":"levelo_inurba_marseille","lat":43.30642,"lon":5.401031,"is_reserved":false,"is_disabled":false,"rental_uris":{"android":"levelo://app?vid=ab6482a6-d533-4030-b3c8-996a8784e9f7","ios":"levelo://app?vid=ab6482a6-d533-4030-b3c8-996a8784e9f7"},"vehicle_type_id":"4","last_reported":1679436290,"current_range_meters":3200,"station_id":"ce4bh112rcd13ifvqda0","pricing_plan_id":"free"},{"bike_id":"b3e6d64b-8f90-4552-8858-69ec9939b8b2","system_id":"levelo_inurba_marseille","lat":43.30642,"lon":5.401031,"is_reserved":false,"is_disabled":false,"rental_uris":{"android":"levelo://app?vid=b3e6d64b-8f90-4552-8858-69ec9939b8b2","ios":"levelo://app?vid=b3e6d64b-8f90-4552-8858-69ec9939b8b2"},"vehicle_type_id":"4","last_reported":1679436290,"current_range_meters":0,"station_id":"ce4bh112rcd13ifvqda0","pricing_plan_id":"free"},{"bike_id":"76f0a1b5-8152-4fbe-ba7b-2cb3d9026ddd","system_id":"levelo_inurba_marseille","lat":43.30642,"lon":5.401031,"is_reserved":false,"is_disabled":false,"rental_uris":{"android":"levelo://app?vid=76f0a1b5-8152-4fbe-ba7b-2cb3d9026ddd","ios":"levelo://app?vid=76f0a1b5-8152-4fbe-ba7b-2cb3d9026ddd"},"vehicle_type_id":"4","last_reported":1679436290,"current_range_meters":19200,"station_id":"ce4bh112rcd13ifvqda0","pricing_plan_id":"free"},{"bike_id":"517e11b7-82c3-400b-9342-5c1f48ce20ba","system_id":"levelo_inurba_marseille","lat":43.30642,"lon":5.401031,"is_reserved":false,"is_disabled":false,"rental_uris":{"android":"levelo://app?vid=517e11b7-82c3-400b-9342-5c1f48ce20ba","ios":"levelo://app?vid=517e11b7-82c3-400b-9342-5c1f48ce20ba"},"vehicle_type_id":"4","last_reported":1679436290,"current_range_meters":1200,"station_id":"ce4bh112rcd13ifvqda0","pricing_plan_id":"free"},{"bike_id":"8f179cba-7398-4293-9f0d-88e9e7b65f79","system_id":"levelo_inurba_marseille","lat":43.301117,"lon":5.398795,"is_reserved":false,"is_disabled":false,"rental_uris":{"android":"levelo://app?vid=8f179cba-7398-4293-9f0d-88e9e7b65f79","ios":"levelo://app?vid=8f179cba-7398-4293-9f0d-88e9e7b65f79"},"vehicle_type_id":"4","last_reported":1679436290,"current_range_meters":18400,"station_id":"ce4bh0h2rcd13ifvqd40","pricing_plan_id":"free"},{"bike_id":"4f233d5b-41e8-4ea9-aa49-18bb21a6ff01","system_id":"levelo_inurba_marseille","lat":43.286593,"lon":5.363346,"is_reserved":false,"is_disabled":false,"rental_uris":{"android":"levelo://app?vid=4f233d5b-41e8-4ea9-aa49-18bb21a6ff01","ios":"levelo://app?vid=4f233d5b-41e8-4ea9-aa49-18bb21a6ff01"},"vehicle_type_id":"4","last_reported":1679436290,"current_range_meters":6800,"station_id":"ce4bhah2rcd13ifvqej0","pricing_plan_id":"free"},{"bike_id":"ac8ee250-abe2-4198-9daf-1f0203180401","system_id":"levelo_inurba_marseille","lat":43.286593,"lon":5.363346,"is_reserved":false,"is_disabled":false,"rental_uris":{"android":"levelo://app?vid=ac8ee250-abe2-4198-9daf-1f0203180401","ios":"levelo://app?vid=ac8ee250-abe2-4198-9daf-1f0203180401"},"vehicle_type_id":"4","last_reported":1679436290,"current_range_meters":0,"station_id":"ce4bhah2rcd13ifvqej0","pricing_plan_id":"free"},{"bike_id":"addc06db-bc54-4c7c-9db2-a80876f3c4d3","system_id":"levelo_inurba_marseille","lat":43.298685,"lon":5.397295,"is_reserved":false,"is_disabled":false,"rental_uris":{"android":"levelo://app?vid=addc06db-bc54-4c7c-9db2-a80876f3c4d3","ios":"levelo://app?vid=addc06db-bc54-4c7c-9db2-a80876f3c4d3"},"vehicle_type_id":"4","last_reported":1679436290,"current_range_meters":22000,"station_id":"ce4bh0h2rcd13ifvqd50","pricing_plan_id":"free"},{"bike_id":"1c987b5d-e4de-4867-8a0f-d109c5f3cd3e","system_id":"levelo_inurba_marseille","lat":43.29542,"lon":5.39396,"is_reserved":false,"is_disabled":false,"rental_uris":{"android":"levelo://app?vid=1c987b5d-e4de-4867-8a0f-d109c5f3cd3e","ios":"levelo://app?vid=1c987b5d-e4de-4867-8a0f-d109c5f3cd3e"},"vehicle_type_id":"4","last_reported":1679436290,"current_range_meters":2400,"station_id":"ce4bh212rcd13ifvqde0","pricing_plan_id":"free"},{"bike_id":"1bc15473-d9f1-4381-aacb-d92b0752e7a4","system_id":"levelo_inurba_marseille","lat":43.286593,"lon":5.363346,"is_reserved":false,"is_disabled":false,"rental_uris":{"android":"levelo://app?vid=1bc15473-d9f1-4381-aacb-d92b0752e7a4","ios":"levelo://app?vid=1bc15473-d9f1-4381-aacb-d92b0752e7a4"},"vehicle_type_id":"4","last_reported":1679436290,"current_range_meters":20800,"station_id":"ce4bhah2rcd13ifvqej0","pricing_plan_id":"free"},{"bike_id":"fcea0b1e-3d54-442f-b961-4b60f284f6b0","system_id":"levelo_inurba_marseille","lat":43.286593,"lon":5.363346,"is_reserved":false,"is_disabled":false,"rental_uris":{"android":"levelo://app?vid=fcea0b1e-3d54-442f-b961-4b60f284f6b0","ios":"levelo://app?vid=fcea0b1e-3d54-442f-b961-4b60f284f6b0"},"vehicle_type_id":"4","last_reported":1679436290,"current_range_meters":14800,"station_id":"ce4bhah2rcd13ifvqej0","pricing_plan_id":"free"},{"bike_id":"b92c8656-2f29-4f30-886b-62b5af6f122d","system_id":"levelo_inurba_marseille","lat":43.286593,"lon":5.363346,"is_reserved":false,"is_disabled":false,"rental_uris":{"android":"levelo://app?vid=b92c8656-2f29-4f30-886b-62b5af6f122d","ios":"levelo://app?vid=b92c8656-2f29-4f30-886b-62b5af6f122d"},"vehicle_type_id":"4","last_reported":1679436290,"current_range_meters":20800,"station_id":"ce4bhah2rcd13ifvqej0","pricing_plan_id":"free"},{"bike_id":"6c2d077e-252c-4b32-bf35-14dd839e34d2","system_id":"levelo_inurba_marseille","lat":43.286593,"lon":5.363346,"is_reserved":false,"is_disabled":false,"rental_uris":{"android":"levelo://app?vid=6c2d077e-252c-4b32-bf35-14dd839e34d2","ios":"levelo://app?vid=6c2d077e-252c-4b32-bf35-14dd839e34d2"},"vehicle_type_id":"4","last_reported":1679436290,"current_range_meters":3200,"station_id":"ce4bhah2rcd13ifvqej0","pricing_plan_id":"free"},{"bike_id":"0dd45a8e-d47f-44d7-a496-57c4f1d49d36","system_id":"levelo_inurba_marseille","lat":43.28659,"lon":5.36342,"is_reserved":false,"is_disabled":false,"rental_uris":{"android":"levelo://app?vid=0dd45a8e-d47f-44d7-a496-57c4f1d49d36","ios":"levelo://app?vid=0dd45a8e-d47f-44d7-a496-57c4f1d49d36"},"vehicle_type_id":"4","last_reported":1679436290,"current_range_meters":6800,"station_id":"ce4bhah2rcd13ifvqej0","pricing_plan_id":"free"},{"bike_id":"05c2a028-a161-4933-89bc-83bde6003952","system_id":"levelo_inurba_marseille","lat":43.29536,"lon":5.39403,"is_reserved":false,"is_disabled":false,"rental_uris":{"android":"levelo://app?vid=05c2a028-a161-4933-89bc-83bde6003952","ios":"levelo://app?vid=05c2a028-a161-4933-89bc-83bde6003952"},"vehicle_type_id":"4","last_reported":1679436290,"current_range_meters":14000,"station_id":"ce4bh212rcd13ifvqde0","pricing_plan_id":"free"},{"bike_id":"fbd9375a-8c7e-45c9-9039-d2ee4d4d2576","system_id":"levelo_inurba_marseille","lat":43.29526,"lon":5.39395,"is_reserved":false,"is_disabled":false,"rental_uris":{"android":"levelo://app?vid=fbd9375a-8c7e-45c9-9039-d2ee4d4d2576","ios":"levelo://app?vid=fbd9375a-8c7e-45c9-9039-d2ee4d4d2576"},"vehicle_type_id":"4","last_reported":1679436290,"current_range_meters":15200,"station_id":"ce4bh212rcd13ifvqde0","pricing_plan_id":"free"},{"bike_id":"3bc30a27-f966-4d63-9a9f-07c748d43ad8","system_id":"levelo_inurba_marseille","lat":43.295256,"lon":5.394016,"is_reserved":false,"is_disabled":false,"rental_uris":{"android":"levelo://app?vid=3bc30a27-f966-4d63-9a9f-07c748d43ad8","ios":"levelo://app?vid=3bc30a27-f966-4d63-9a9f-07c748d43ad8"},"vehicle_type_id":"4","last_reported":1679436290,"current_range_meters":24000,"station_id":"ce4bh212rcd13ifvqde0","pricing_plan_id":"free"},{"bike_id":"95313bdf-3ed4-45fa-85fc-e2be4bf4a257","system_id":"levelo_inurba_marseille","lat":43.29521,"lon":5.39399,"is_reserved":false,"is_disabled":false,"rental_uris":{"android":"levelo://app?vid=95313bdf-3ed4-45fa-85fc-e2be4bf4a257","ios":"levelo://app?vid=95313bdf-3ed4-45fa-85fc-e2be4bf4a257"},"vehicle_type_id":"4","last_reported":1679436290,"current_range_meters":15200,"station_id":"ce4bh212rcd13ifvqde0","pricing_plan_id":"free"},{"bike_id":"144ca383-b14f-420e-aab3-45573ebff82b","system_id":"levelo_inurba_marseille","lat":43.2951,"lon":5.39393,"is_reserved":false,"is_disabled":false,"rental_uris":{"android":"levelo://app?vid=144ca383-b14f-420e-aab3-45573ebff82b","ios":"levelo://app?vid=144ca383-b14f-420e-aab3-45573ebff82b"},"vehicle_type_id":"4","last_reported":1679436290,"current_range_meters":27600,"station_id":"ce4bh212rcd13ifvqde0","pricing_plan_id":"free"},{"bike_id":"47e1f801-3ec5-4238-b8d0-e30d227518d5","system_id":"levelo_inurba_marseille","lat":43.2951,"lon":5.39401,"is_reserved":false,"is_disabled":false,"rental_uris":{"android":"levelo://app?vid=47e1f801-3ec5-4238-b8d0-e30d227518d5","ios":"levelo://app?vid=47e1f801-3ec5-4238-b8d0-e30d227518d5"},"vehicle_type_id":"4","last_reported":1679436290,"current_range_meters":16000,"station_id":"ce4bh292rcd13ifvqdf0","pricing_plan_id":"free"},{"bike_id":"a50f211b-4176-4a12-befb-e4c4c188bfa7","system_id":"levelo_inurba_marseille","lat":43.302759,"lon":5.400793,"is_reserved":false,"is_disabled":false,"rental_uris":{"android":"levelo://app?vid=a50f211b-4176-4a12-befb-e4c4c188bfa7","ios":"levelo://app?vid=a50f211b-4176-4a12-befb-e4c4c188bfa7"},"vehicle_type_id":"4","last_reported":1679436290,"current_range_meters":6400,"station_id":"ce4bgvh2rcd13ifvqcs0","pricing_plan_id":"free"},{"bike_id":"482524c0-029f-4194-a05a-3285aa6a75cf","system_id":"levelo_inurba_marseille","lat":43.302759,"lon":5.400793,"is_reserved":false,"is_disabled":false,"rental_uris":{"android":"levelo://app?vid=482524c0-029f-4194-a05a-3285aa6a75cf","ios":"levelo://app?vid=482524c0-029f-4194-a05a-3285aa6a75cf"},"vehicle_type_id":"4","last_reported":1679436290,"current_range_meters":30800,"station_id":"ce4bgvh2rcd13ifvqcs0","pricing_plan_id":"free"},{"bike_id":"a588ff49-71ca-4751-b522-9b23dce4a5ed","system_id":"levelo_inurba_marseille","lat":43.302759,"lon":5.400793,"is_reserved":false,"is_disabled":false,"rental_uris":{"android":"levelo://app?vid=a588ff49-71ca-4751-b522-9b23dce4a5ed","ios":"levelo://app?vid=a588ff49-71ca-4751-b522-9b23dce4a5ed"},"vehicle_type_id":"4","last_reported":1679436290,"current_range_meters":16800,"station_id":"ce4bgvh2rcd13ifvqcs0","pricing_plan_id":"free"},{"bike_id":"64891ed7-a07f-453b-ac83-1e518f9f7397","system_id":"levelo_inurba_marseille","lat":43.302458,"lon":5.400653,"is_reserved":false,"is_disabled":false,"rental_uris":{"android":"levelo://app?vid=64891ed7-a07f-453b-ac83-1e518f9f7397","ios":"levelo://app?vid=64891ed7-a07f-453b-ac83-1e518f9f7397"},"vehicle_type_id":"4","last_reported":1679436290,"current_range_meters":0,"station_id":"ce4bgvh2rcd13ifvqcs0","pricing_plan_id":"free"},{"bike_id":"431c3330-4f68-47b2-a555-ee630d49d6de","system_id":"levelo_inurba_marseille","lat":43.286039,"lon":5.370679,"is_reserved":false,"is_disabled":false,"rental_uris":{"android":"levelo://app?vid=431c3330-4f68-47b2-a555-ee630d49d6de","ios":"levelo://app?vid=431c3330-4f68-47b2-a555-ee630d49d6de"},"vehicle_type_id":"4","last_reported":1679436290,"current_range_meters":8400,"station_id":"ce4bht12rcd13ifvqi60","pricing_plan_id":"free"},{"bike_id":"5e513417-36b3-4c16-97ec-a7061cc15ba6","system_id":"levelo_inurba_marseille","lat":43.286039,"lon":5.370679,"is_reserved":false,"is_disabled":false,"rental_uris":{"android":"levelo://app?vid=5e513417-36b3-4c16-97ec-a7061cc15ba6","ios":"levelo://app?vid=5e513417-36b3-4c16-97ec-a7061cc15ba6"},"vehicle_type_id":"4","last_reported":1679436290,"current_range_meters":7600,"station_id":"ce4bht12rcd13ifvqi60","pricing_plan_id":"free"},{"bike_id":"211e36fc-3876-4721-935d-4b16dcd88d69","system_id":"levelo_inurba_marseille","lat":43.286039,"lon":5.370679,"is_reserved":false,"is_disabled":false,"rental_uris":{"android":"levelo://app?vid=211e36fc-3876-4721-935d-4b16dcd88d69","ios":"levelo://app?vid=211e36fc-3876-4721-935d-4b16dcd88d69"},"vehicle_type_id":"4","last_reported":1679436290,"current_range_meters":4000,"station_id":"ce4bht12rcd13ifvqi60","pricing_plan_id":"free"},{"bike_id":"8b753332-4820-4b05-b033-1e21575484ba","system_id":"levelo_inurba_marseille","lat":43.287185,"lon":5.379373,"is_reserved":false,"is_disabled":false,"rental_uris":{"android":"levelo://app?vid=8b753332-4820-4b05-b033-1e21575484ba","ios":"levelo://app?vid=8b753332-4820-4b05-b033-1e21575484ba"},"vehicle_type_id":"4","last_reported":1679436290,"current_range_meters":14800,"station_id":"ce4bh9p2rcd13ifvqec0","pricing_plan_id":"free"},{"bike_id":"7fd2ff81-d8af-40fb-83a6-4b4af3b5eb1d","system_id":"levelo_inurba_marseille","lat":43.287185,"lon":5.379373,"is_reserved":false,"is_disabled":false,"rental_uris":{"android":"levelo://app?vid=7fd2ff81-d8af-40fb-83a6-4b4af3b5eb1d","ios":"levelo://app?vid=7fd2ff81-d8af-40fb-83a6-4b4af3b5eb1d"},"vehicle_type_id":"4","last_reported":1679436290,"current_range_meters":14400,"station_id":"ce4bh9p2rcd13ifvqec0","pricing_plan_id":"free"},{"bike_id":"598a6d36-11e8-46db-8695-8bbac6461afe","system_id":"levelo_inurba_marseille","lat":43.284534,"lon":5.358662,"is_reserved":false,"is_disabled":false,"rental_uris":{"android":"levelo://app?vid=598a6d36-11e8-46db-8695-8bbac6461afe","ios":"levelo://app?vid=598a6d36-11e8-46db-8695-8bbac6461afe"},"vehicle_type_id":"4","last_reported":1679436290,"current_range_meters":19200,"station_id":"ce4bhah2rcd13ifvqei0","pricing_plan_id":"free"},{"bike_id":"d78a3fb5-1b00-4558-90d7-a918843d395c","system_id":"levelo_inurba_marseille","lat":43.284534,"lon":5.358662,"is_reserved":false,"is_disabled":false,"rental_uris":{"android":"levelo://app?vid=d78a3fb5-1b00-4558-90d7-a918843d395c","ios":"levelo://app?vid=d78a3fb5-1b00-4558-90d7-a918843d395c"},"vehicle_type_id":"4","last_reported":1679436290,"current_range_meters":13600,"station_id":"ce4bhah2rcd13ifvqei0","pricing_plan_id":"free"},{"bike_id":"ec442130-7f4e-4bd0-8a58-a4c2796f2b5d","system_id":"levelo_inurba_marseille","lat":43.284534,"lon":5.358662,"is_reserved":false,"is_disabled":false,"rental_uris":{"android":"levelo://app?vid=ec442130-7f4e-4bd0-8a58-a4c2796f2b5d","ios":"levelo://app?vid=ec442130-7f4e-4bd0-8a58-a4c2796f2b5d"},"vehicle_type_id":"4","last_reported":1679436290,"current_range_meters":8400,"station_id":"ce4bhah2rcd13ifvqei0","pricing_plan_id":"free"},{"bike_id":"49917186-fda2-4333-9d28-9064cd70d50e","system_id":"levelo_inurba_marseille","lat":43.284534,"lon":5.358662,"is_reserved":false,"is_disabled":false,"rental_uris":{"android":"levelo://app?vid=49917186-fda2-4333-9d28-9064cd70d50e","ios":"levelo://app?vid=49917186-fda2-4333-9d28-9064cd70d50e"},"vehicle_type_id":"4","last_reported":1679436290,"current_range_meters":25200,"station_id":"ce4bhah2rcd13ifvqei0","pricing_plan_id":"free"},{"bike_id":"0b09ce26-1706-4414-918a-06330e3ad5a1","system_id":"levelo_inurba_marseille","lat":43.284534,"lon":5.358662,"is_reserved":false,"is_disabled":false,"rental_uris":{"android":"levelo://app?vid=0b09ce26-1706-4414-918a-06330e3ad5a1","ios":"levelo://app?vid=0b09ce26-1706-4414-918a-06330e3ad5a1"},"vehicle_type_id":"4","last_reported":1679436290,"current_range_meters":18000,"station_id":"ce4bhah2rcd13ifvqei0","pricing_plan_id":"free"},{"bike_id":"df484bd0-4908-4829-bd7b-8a803fe1361b","system_id":"levelo_inurba_marseille","lat":43.284534,"lon":5.358662,"is_reserved":false,"is_disabled":false,"rental_uris":{"android":"levelo://app?vid=df484bd0-4908-4829-bd7b-8a803fe1361b","ios":"levelo://app?vid=df484bd0-4908-4829-bd7b-8a803fe1361b"},"vehicle_type_id":"4","last_reported":1679436290,"current_range_meters":12000,"station_id":"ce4bhah2rcd13ifvqei0","pricing_plan_id":"free"},{"bike_id":"d5d8f211-d809-4266-84cf-7b9bc088c685","system_id":"levelo_inurba_marseille","lat":43.284534,"lon":5.358662,"is_reserved":false,"is_disabled":false,"rental_uris":{"android":"levelo://app?vid=d5d8f211-d809-4266-84cf-7b9bc088c685","ios":"levelo://app?vid=d5d8f211-d809-4266-84cf-7b9bc088c685"},"vehicle_type_id":"4","last_reported":1679436290,"current_range_meters":13200,"station_id":"ce4bhah2rcd13ifvqei0","pricing_plan_id":"free"},{"bike_id":"bdfc5c53-00ea-41f3-b4c4-3a11c713aa63","system_id":"levelo_inurba_marseille","lat":43.295713,"lon":5.399639,"is_reserved":false,"is_disabled":false,"rental_uris":{"android":"levelo://app?vid=bdfc5c53-00ea-41f3-b4c4-3a11c713aa63","ios":"levelo://app?vid=bdfc5c53-00ea-41f3-b4c4-3a11c713aa63"},"vehicle_type_id":"4","last_reported":1679436290,"current_range_meters":29600,"station_id":"ce4bh312rcd13ifvqdj0","pricing_plan_id":"free"},{"bike_id":"dedc7835-4dd2-4d4d-9017-c5968cf09c5a","system_id":"levelo_inurba_marseille","lat":43.295704,"lon":5.399725,"is_reserved":false,"is_disabled":false,"rental_uris":{"android":"levelo://app?vid=dedc7835-4dd2-4d4d-9017-c5968cf09c5a","ios":"levelo://app?vid=dedc7835-4dd2-4d4d-9017-c5968cf09c5a"},"vehicle_type_id":"4","last_reported":1679436290,"current_range_meters":2000,"station_id":"","pricing_plan_id":"free"},{"bike_id":"e70caaf8-39c6-484b-81fb-642155083ef6","system_id":"levelo_inurba_marseille","lat":43.295713,"lon":5.399639,"is_reserved":false,"is_disabled":false,"rental_uris":{"android":"levelo://app?vid=e70caaf8-39c6-484b-81fb-642155083ef6","ios":"levelo://app?vid=e70caaf8-39c6-484b-81fb-642155083ef6"},"vehicle_type_id":"4","last_reported":1679436290,"current_range_meters":8400,"station_id":"ce4bh312rcd13ifvqdj0","pricing_plan_id":"free"},{"bike_id":"c53f2a72-3ac6-477a-a829-fe08b64f575f","system_id":"levelo_inurba_marseille","lat":43.286595,"lon":5.386795,"is_reserved":false,"is_disabled":false,"rental_uris":{"android":"levelo://app?vid=c53f2a72-3ac6-477a-a829-fe08b64f575f","ios":"levelo://app?vid=c53f2a72-3ac6-477a-a829-fe08b64f575f"},"vehicle_type_id":"4","last_reported":1679436290,"current_range_meters":8400,"station_id":"ce4bh492rcd13ifvqdug","pricing_plan_id":"free"},{"bike_id":"5d3b32fe-12b9-4821-a301-8fed504b7f45","system_id":"levelo_inurba_marseille","lat":43.286595,"lon":5.386795,"is_reserved":false,"is_disabled":false,"rental_uris":{"android":"levelo://app?vid=5d3b32fe-12b9-4821-a301-8fed504b7f45","ios":"levelo://app?vid=5d3b32fe-12b9-4821-a301-8fed504b7f45"},"vehicle_type_id":"4","last_reported":1679436290,"current_range_meters":13600,"station_id":"ce4bh492rcd13ifvqdug","pricing_plan_id":"free"},{"bike_id":"9cc56853-93ce-45b6-8eed-b5f68bc87466","system_id":"levelo_inurba_marseille","lat":43.29875,"lon":5.40318,"is_reserved":false,"is_disabled":false,"rental_uris":{"android":"levelo://app?vid=9cc56853-93ce-45b6-8eed-b5f68bc87466","ios":"levelo://app?vid=9cc56853-93ce-45b6-8eed-b5f68bc87466"},"vehicle_type_id":"4","last_reported":1679436290,"current_range_meters":18800,"station_id":"","pricing_plan_id":"free"},{"bike_id":"ac38feec-575c-492d-ad10-1daefbf41728","system_id":"levelo_inurba_marseille","lat":43.323464,"lon":5.406297,"is_reserved":false,"is_disabled":false,"rental_uris":{"android":"levelo://app?vid=ac38feec-575c-492d-ad10-1daefbf41728","ios":"levelo://app?vid=ac38feec-575c-492d-ad10-1daefbf41728"},"vehicle_type_id":"4","last_reported":1679436290,"current_range_meters":0,"station_id":"ce4bhq92rcd13ifvqhjg","pricing_plan_id":"free"},{"bike_id":"8690490d-f157-403d-ae61-0ff919fc0c68","system_id":"levelo_inurba_marseille","lat":43.323464,"lon":5.406297,"is_reserved":false,"is_disabled":false,"rental_uris":{"android":"levelo://app?vid=8690490d-f157-403d-ae61-0ff919fc0c68","ios":"levelo://app?vid=8690490d-f157-403d-ae61-0ff919fc0c68"},"vehicle_type_id":"4","last_reported":1679436290,"current_range_meters":1200,"station_id":"ce4bhq92rcd13ifvqhjg","pricing_plan_id":"free"},{"bike_id":"b4273277-617b-4665-88d0-6d10f93d2683","system_id":"levelo_inurba_marseille","lat":43.33726,"lon":5.39185,"is_reserved":false,"is_disabled":false,"rental_uris":{"android":"levelo://app?vid=b4273277-617b-4665-88d0-6d10f93d2683","ios":"levelo://app?vid=b4273277-617b-4665-88d0-6d10f93d2683"},"vehicle_type_id":"4","last_reported":1679436290,"current_range_meters":4400,"station_id":"","pricing_plan_id":"free"},{"bike_id":"f31d3e22-d7c9-4ac6-ba0d-df43ac34d423","system_id":"levelo_inurba_marseille","lat":43.323464,"lon":5.406297,"is_reserved":false,"is_disabled":false,"rental_uris":{"android":"levelo://app?vid=f31d3e22-d7c9-4ac6-ba0d-df43ac34d423","ios":"levelo://app?vid=f31d3e22-d7c9-4ac6-ba0d-df43ac34d423"},"vehicle_type_id":"4","last_reported":1679436290,"current_range_meters":0,"station_id":"ce4bhq92rcd13ifvqhjg","pricing_plan_id":"free"},{"bike_id":"13a193fb-09c6-40b2-b9ea-3208a70b5432","system_id":"levelo_inurba_marseille","lat":43.323464,"lon":5.406297,"is_reserved":false,"is_disabled":false,"rental_uris":{"android":"levelo://app?vid=13a193fb-09c6-40b2-b9ea-3208a70b5432","ios":"levelo://app?vid=13a193fb-09c6-40b2-b9ea-3208a70b5432"},"vehicle_type_id":"4","last_reported":1679436290,"current_range_meters":2400,"station_id":"ce4bhq92rcd13ifvqhjg","pricing_plan_id":"free"},{"bike_id":"26c86ba3-3d6f-4311-94e5-2a002f0a1683","system_id":"levelo_inurba_marseille","lat":43.323464,"lon":5.406297,"is_reserved":false,"is_disabled":false,"rental_uris":{"android":"levelo://app?vid=26c86ba3-3d6f-4311-94e5-2a002f0a1683","ios":"levelo://app?vid=26c86ba3-3d6f-4311-94e5-2a002f0a1683"},"vehicle_type_id":"4","last_reported":1679436290,"current_range_meters":20000,"station_id":"ce4bhq92rcd13ifvqhjg","pricing_plan_id":"free"},{"bike_id":"927b6318-1d82-46ed-8db0-a5d4512871c3","system_id":"levelo_inurba_marseille","lat":43.337239,"lon":5.391971,"is_reserved":false,"is_disabled":false,"rental_uris":{"android":"levelo://app?vid=927b6318-1d82-46ed-8db0-a5d4512871c3","ios":"levelo://app?vid=927b6318-1d82-46ed-8db0-a5d4512871c3"},"vehicle_type_id":"4","last_reported":1679436290,"current_range_meters":0,"station_id":"ce4bhr92rcd13ifvqhsg","pricing_plan_id":"free"},{"bike_id":"9c5f0c7d-9a0d-4fcd-b07b-2db3a20a37f4","system_id":"levelo_inurba_marseille","lat":43.323464,"lon":5.406297,"is_reserved":false,"is_disabled":false,"rental_uris":{"android":"levelo://app?vid=9c5f0c7d-9a0d-4fcd-b07b-2db3a20a37f4","ios":"levelo://app?vid=9c5f0c7d-9a0d-4fcd-b07b-2db3a20a37f4"},"vehicle_type_id":"4","last_reported":1679436290,"current_range_meters":8400,"station_id":"ce4bhq92rcd13ifvqhjg","pricing_plan_id":"free"},{"bike_id":"aba382ac-59bd-497b-9a62-702a49e07b4d","system_id":"levelo_inurba_marseille","lat":43.323464,"lon":5.406297,"is_reserved":false,"is_disabled":false,"rental_uris":{"android":"levelo://app?vid=aba382ac-59bd-497b-9a62-702a49e07b4d","ios":"levelo://app?vid=aba382ac-59bd-497b-9a62-702a49e07b4d"},"vehicle_type_id":"4","last_reported":1679436290,"current_range_meters":18400,"station_id":"ce4bhq92rcd13ifvqhjg","pricing_plan_id":"free"},{"bike_id":"e8271957-bede-493f-8a8a-7dbf297294a9","system_id":"levelo_inurba_marseille","lat":43.323464,"lon":5.406297,"is_reserved":false,"is_disabled":false,"rental_uris":{"android":"levelo://app?vid=e8271957-bede-493f-8a8a-7dbf297294a9","ios":"levelo://app?vid=e8271957-bede-493f-8a8a-7dbf297294a9"},"vehicle_type_id":"4","last_reported":1679436290,"current_range_meters":2400,"station_id":"ce4bhq92rcd13ifvqhjg","pricing_plan_id":"free"},{"bike_id":"21433888-d544-415f-a89c-ada79b3cdd96","system_id":"levelo_inurba_marseille","lat":43.284219,"lon":5.3497,"is_reserved":false,"is_disabled":false,"rental_uris":{"android":"levelo://app?vid=21433888-d544-415f-a89c-ada79b3cdd96","ios":"levelo://app?vid=21433888-d544-415f-a89c-ada79b3cdd96"},"vehicle_type_id":"4","last_reported":1679436290,"current_range_meters":30400,"station_id":"ce4bhbh2rcd13ifvqepg","pricing_plan_id":"free"},{"bike_id":"9521f7b8-091a-4d65-bbcc-5f9c81bf1210","system_id":"levelo_inurba_marseille","lat":43.28426,"lon":5.34986,"is_reserved":false,"is_disabled":false,"rental_uris":{"android":"levelo://app?vid=9521f7b8-091a-4d65-bbcc-5f9c81bf1210","ios":"levelo://app?vid=9521f7b8-091a-4d65-bbcc-5f9c81bf1210"},"vehicle_type_id":"4","last_reported":1679436290,"current_range_meters":18400,"station_id":"ce4bhbh2rcd13ifvqepg","pricing_plan_id":"free"},{"bike_id":"6a870f8f-5e67-41c7-b628-3e904c5844d9","system_id":"levelo_inurba_marseille","lat":43.284217,"lon":5.349697,"is_reserved":false,"is_disabled":false,"rental_uris":{"android":"levelo://app?vid=6a870f8f-5e67-41c7-b628-3e904c5844d9","ios":"levelo://app?vid=6a870f8f-5e67-41c7-b628-3e904c5844d9"},"vehicle_type_id":"4","last_reported":1679436290,"current_range_meters":30400,"station_id":"ce4bhbh2rcd13ifvqepg","pricing_plan_id":"free"},{"bike_id":"e147c872-24e0-42cd-b938-f8167509bf91","system_id":"levelo_inurba_marseille","lat":43.284219,"lon":5.3497,"is_reserved":false,"is_disabled":false,"rental_uris":{"android":"levelo://app?vid=e147c872-24e0-42cd-b938-f8167509bf91","ios":"levelo://app?vid=e147c872-24e0-42cd-b938-f8167509bf91"},"vehicle_type_id":"4","last_reported":1679436290,"current_range_meters":14400,"station_id":"ce4bhbh2rcd13ifvqepg","pricing_plan_id":"free"},{"bike_id":"933cab00-8905-4650-9931-aee61960c2d0","system_id":"levelo_inurba_marseille","lat":43.284163,"lon":5.349797,"is_reserved":false,"is_disabled":false,"rental_uris":{"android":"levelo://app?vid=933cab00-8905-4650-9931-aee61960c2d0","ios":"levelo://app?vid=933cab00-8905-4650-9931-aee61960c2d0"},"vehicle_type_id":"4","last_reported":1679436290,"current_range_meters":0,"station_id":"ce4bhbh2rcd13ifvqepg","pricing_plan_id":"free"},{"bike_id":"06880c9c-9410-4711-b5e0-54d8a784620a","system_id":"levelo_inurba_marseille","lat":43.282004,"lon":5.376939,"is_reserved":false,"is_disabled":false,"rental_uris":{"android":"levelo://app?vid=06880c9c-9410-4711-b5e0-54d8a784620a","ios":"levelo://app?vid=06880c9c-9410-4711-b5e0-54d8a784620a"},"vehicle_type_id":"4","last_reported":1679436290,"current_range_meters":1600,"station_id":"","pricing_plan_id":"free"},{"bike_id":"92b3ed5f-d5bf-419b-83e1-2f20f6803740","system_id":"levelo_inurba_marseille","lat":43.292724,"lon":5.401131,"is_reserved":false,"is_disabled":false,"rental_uris":{"android":"levelo://app?vid=92b3ed5f-d5bf-419b-83e1-2f20f6803740","ios":"levelo://app?vid=92b3ed5f-d5bf-419b-83e1-2f20f6803740"},"vehicle_type_id":"4","last_reported":1679436290,"current_range_meters":31200,"station_id":"ce4bh312rcd13ifvqdk0","pricing_plan_id":"free"},{"bike_id":"d8849b85-f15f-4b2e-965a-9cd8cf60c90d","system_id":"levelo_inurba_marseille","lat":43.292724,"lon":5.401131,"is_reserved":false,"is_disabled":false,"rental_uris":{"android":"levelo://app?vid=d8849b85-f15f-4b2e-965a-9cd8cf60c90d","ios":"levelo://app?vid=d8849b85-f15f-4b2e-965a-9cd8cf60c90d"},"vehicle_type_id":"4","last_reported":1679436290,"current_range_meters":25200,"station_id":"ce4bh312rcd13ifvqdk0","pricing_plan_id":"free"},{"bike_id":"f3a24a08-d2e3-4ca7-a8c4-ef6840c8adbb","system_id":"levelo_inurba_marseille","lat":43.29274,"lon":5.40112,"is_reserved":false,"is_disabled":false,"rental_uris":{"android":"levelo://app?vid=f3a24a08-d2e3-4ca7-a8c4-ef6840c8adbb","ios":"levelo://app?vid=f3a24a08-d2e3-4ca7-a8c4-ef6840c8adbb"},"vehicle_type_id":"4","last_reported":1679436290,"current_range_meters":4800,"station_id":"ce4bh312rcd13ifvqdk0","pricing_plan_id":"free"},{"bike_id":"20543a32-77c9-4f70-9e5a-4d84b713666b","system_id":"levelo_inurba_marseille","lat":43.28278,"lon":5.350807,"is_reserved":false,"is_disabled":false,"rental_uris":{"android":"levelo://app?vid=20543a32-77c9-4f70-9e5a-4d84b713666b","ios":"levelo://app?vid=20543a32-77c9-4f70-9e5a-4d84b713666b"},"vehicle_type_id":"4","last_reported":1679436290,"current_range_meters":16800,"station_id":"ce4bhbp2rcd13ifvqerg","pricing_plan_id":"free"},{"bike_id":"35629592-5a6e-41d1-9195-25c997e53586","system_id":"levelo_inurba_marseille","lat":43.28271,"lon":5.35066,"is_reserved":false,"is_disabled":false,"rental_uris":{"android":"levelo://app?vid=35629592-5a6e-41d1-9195-25c997e53586","ios":"levelo://app?vid=35629592-5a6e-41d1-9195-25c997e53586"},"vehicle_type_id":"4","last_reported":1679436290,"current_range_meters":13200,"station_id":"","pricing_plan_id":"free"},{"bike_id":"79ec0268-d34d-4767-bf1a-ac9cdb651843","system_id":"levelo_inurba_marseille","lat":43.282703,"lon":5.350644,"is_reserved":false,"is_disabled":false,"rental_uris":{"android":"levelo://app?vid=79ec0268-d34d-4767-bf1a-ac9cdb651843","ios":"levelo://app?vid=79ec0268-d34d-4767-bf1a-ac9cdb651843"},"vehicle_type_id":"4","last_reported":1679436290,"current_range_meters":10800,"station_id":"ce4bhbp2rcd13ifvqerg","pricing_plan_id":"free"},{"bike_id":"83003e1b-3525-4028-acdc-686db04e548b","system_id":"levelo_inurba_marseille","lat":43.2827,"lon":5.35063,"is_reserved":false,"is_disabled":false,"rental_uris":{"android":"levelo://app?vid=83003e1b-3525-4028-acdc-686db04e548b","ios":"levelo://app?vid=83003e1b-3525-4028-acdc-686db04e548b"},"vehicle_type_id":"4","last_reported":1679436290,"current_range_meters":27200,"station_id":"ce4bhbp2rcd13ifvqerg","pricing_plan_id":"free"},{"bike_id":"ffa43bb3-08c5-41de-83ab-e1b9d028db80","system_id":"levelo_inurba_marseille","lat":43.28269,"lon":5.35061,"is_reserved":false,"is_disabled":false,"rental_uris":{"android":"levelo://app?vid=ffa43bb3-08c5-41de-83ab-e1b9d028db80","ios":"levelo://app?vid=ffa43bb3-08c5-41de-83ab-e1b9d028db80"},"vehicle_type_id":"4","last_reported":1679436290,"current_range_meters":20800,"station_id":"ce4bhbp2rcd13ifvqerg","pricing_plan_id":"free"},{"bike_id":"d4dda785-217d-4af6-b81b-157080bbe405","system_id":"levelo_inurba_marseille","lat":43.28263,"lon":5.35078,"is_reserved":false,"is_disabled":false,"rental_uris":{"android":"levelo://app?vid=d4dda785-217d-4af6-b81b-157080bbe405","ios":"levelo://app?vid=d4dda785-217d-4af6-b81b-157080bbe405"},"vehicle_type_id":"4","last_reported":1679436290,"current_range_meters":28000,"station_id":"ce4bhbp2rcd13ifvqerg","pricing_plan_id":"free"},{"bike_id":"1b0d6c57-2da1-4f3f-af71-5a7469699739","system_id":"levelo_inurba_marseille","lat":43.28269,"lon":5.35055,"is_reserved":false,"is_disabled":false,"rental_uris":{"android":"levelo://app?vid=1b0d6c57-2da1-4f3f-af71-5a7469699739","ios":"levelo://app?vid=1b0d6c57-2da1-4f3f-af71-5a7469699739"},"vehicle_type_id":"4","last_reported":1679436290,"current_range_meters":23600,"station_id":"ce4bhbp2rcd13ifvqerg","pricing_plan_id":"free"},{"bike_id":"b8ae3c72-9618-4c8c-8de1-9f281417aaed","system_id":"levelo_inurba_marseille","lat":43.282667,"lon":5.35062,"is_reserved":false,"is_disabled":false,"rental_uris":{"android":"levelo://app?vid=b8ae3c72-9618-4c8c-8de1-9f281417aaed","ios":"levelo://app?vid=b8ae3c72-9618-4c8c-8de1-9f281417aaed"},"vehicle_type_id":"4","last_reported":1679436290,"current_range_meters":0,"station_id":"ce4bhbp2rcd13ifvqerg","pricing_plan_id":"free"},{"bike_id":"b75cf4f2-5b19-474d-8d5d-7a8a4db3d572","system_id":"levelo_inurba_marseille","lat":43.282676,"lon":5.350578,"is_reserved":false,"is_disabled":false,"rental_uris":{"android":"levelo://app?vid=b75cf4f2-5b19-474d-8d5d-7a8a4db3d572","ios":"levelo://app?vid=b75cf4f2-5b19-474d-8d5d-7a8a4db3d572"},"vehicle_type_id":"4","last_reported":1679436290,"current_range_meters":4800,"station_id":"","pricing_plan_id":"free"},{"bike_id":"0530b666-c42c-4bab-9773-11e67c56f799","system_id":"levelo_inurba_marseille","lat":43.282638,"lon":5.35069,"is_reserved":false,"is_disabled":false,"rental_uris":{"android":"levelo://app?vid=0530b666-c42c-4bab-9773-11e67c56f799","ios":"levelo://app?vid=0530b666-c42c-4bab-9773-11e67c56f799"},"vehicle_type_id":"4","last_reported":1679436290,"current_range_meters":400,"station_id":"ce4bhbp2rcd13ifvqerg","pricing_plan_id":"free"},{"bike_id":"5f01fdbf-0106-4d93-bbdd-65a6b0b9d8ce","system_id":"levelo_inurba_marseille","lat":43.282744,"lon":5.350533,"is_reserved":false,"is_disabled":false,"rental_uris":{"android":"levelo://app?vid=5f01fdbf-0106-4d93-bbdd-65a6b0b9d8ce","ios":"levelo://app?vid=5f01fdbf-0106-4d93-bbdd-65a6b0b9d8ce"},"vehicle_type_id":"4","last_reported":1679436290,"current_range_meters":3200,"station_id":"ce4bhbp2rcd13ifvqerg","pricing_plan_id":"free"},{"bike_id":"97592b7b-1049-431d-a9cb-b9ecd2fa2def","system_id":"levelo_inurba_marseille","lat":43.282628,"lon":5.350672,"is_reserved":false,"is_disabled":false,"rental_uris":{"android":"levelo://app?vid=97592b7b-1049-431d-a9cb-b9ecd2fa2def","ios":"levelo://app?vid=97592b7b-1049-431d-a9cb-b9ecd2fa2def"},"vehicle_type_id":"4","last_reported":1679436290,"current_range_meters":0,"station_id":"ce4bhbp2rcd13ifvqerg","pricing_plan_id":"free"},{"bike_id":"e7553919-ec34-4895-bf1a-7daf7f7f5505","system_id":"levelo_inurba_marseille","lat":43.282744,"lon":5.350533,"is_reserved":false,"is_disabled":false,"rental_uris":{"android":"levelo://app?vid=e7553919-ec34-4895-bf1a-7daf7f7f5505","ios":"levelo://app?vid=e7553919-ec34-4895-bf1a-7daf7f7f5505"},"vehicle_type_id":"4","last_reported":1679436290,"current_range_meters":4800,"station_id":"ce4bhbp2rcd13ifvqerg","pricing_plan_id":"free"},{"bike_id":"4c888b68-8c4c-48f2-bd6a-2250f6bc4ce3","system_id":"levelo_inurba_marseille","lat":43.28039,"lon":5.369297,"is_reserved":false,"is_disabled":false,"rental_uris":{"android":"levelo://app?vid=4c888b68-8c4c-48f2-bd6a-2250f6bc4ce3","ios":"levelo://app?vid=4c888b68-8c4c-48f2-bd6a-2250f6bc4ce3"},"vehicle_type_id":"4","last_reported":1679436290,"current_range_meters":25200,"station_id":"ce4bha12rcd13ifvqef0","pricing_plan_id":"free"},{"bike_id":"697e0026-b475-4a1d-9fe5-81ce2aa3390f","system_id":"levelo_inurba_marseille","lat":43.28039,"lon":5.369297,"is_reserved":false,"is_disabled":false,"rental_uris":{"android":"levelo://app?vid=697e0026-b475-4a1d-9fe5-81ce2aa3390f","ios":"levelo://app?vid=697e0026-b475-4a1d-9fe5-81ce2aa3390f"},"vehicle_type_id":"4","last_reported":1679436290,"current_range_meters":8800,"station_id":"ce4bha12rcd13ifvqef0","pricing_plan_id":"free"},{"bike_id":"9c0a2d95-dadd-483d-a39e-da46a6d1e41f","system_id":"levelo_inurba_marseille","lat":43.280374,"lon":5.369408,"is_reserved":false,"is_disabled":false,"rental_uris":{"android":"levelo://app?vid=9c0a2d95-dadd-483d-a39e-da46a6d1e41f","ios":"levelo://app?vid=9c0a2d95-dadd-483d-a39e-da46a6d1e41f"},"vehicle_type_id":"4","last_reported":1679436290,"current_range_meters":0,"station_id":"","pricing_plan_id":"free"},{"bike_id":"45d05f95-9b38-43fc-b078-9bb1cf3b7e4c","system_id":"levelo_inurba_marseille","lat":43.28039,"lon":5.369297,"is_reserved":false,"is_disabled":false,"rental_uris":{"android":"levelo://app?vid=45d05f95-9b38-43fc-b078-9bb1cf3b7e4c","ios":"levelo://app?vid=45d05f95-9b38-43fc-b078-9bb1cf3b7e4c"},"vehicle_type_id":"4","last_reported":1679436290,"current_range_meters":22800,"station_id":"ce4bha12rcd13ifvqef0","pricing_plan_id":"free"},{"bike_id":"dd052d07-36d4-41ef-99de-b62e26b01f9c","system_id":"levelo_inurba_marseille","lat":43.290102,"lon":5.399318,"is_reserved":false,"is_disabled":false,"rental_uris":{"android":"levelo://app?vid=dd052d07-36d4-41ef-99de-b62e26b01f9c","ios":"levelo://app?vid=dd052d07-36d4-41ef-99de-b62e26b01f9c"},"vehicle_type_id":"4","last_reported":1679436290,"current_range_meters":12000,"station_id":"ce4bgph2rcd13ifvqc2g","pricing_plan_id":"free"},{"bike_id":"54af3148-8572-44e6-80b4-a7cbaff74d8c","system_id":"levelo_inurba_marseille","lat":43.2811,"lon":5.37831,"is_reserved":false,"is_disabled":false,"rental_uris":{"android":"levelo://app?vid=54af3148-8572-44e6-80b4-a7cbaff74d8c","ios":"levelo://app?vid=54af3148-8572-44e6-80b4-a7cbaff74d8c"},"vehicle_type_id":"4","last_reported":1679436290,"current_range_meters":19200,"station_id":"","pricing_plan_id":"free"},{"bike_id":"09d00511-d30e-4d50-87f3-7ee190bf95cf","system_id":"levelo_inurba_marseille","lat":43.28105,"lon":5.37832,"is_reserved":false,"is_disabled":false,"rental_uris":{"android":"levelo://app?vid=09d00511-d30e-4d50-87f3-7ee190bf95cf","ios":"levelo://app?vid=09d00511-d30e-4d50-87f3-7ee190bf95cf"},"vehicle_type_id":"4","last_reported":1679436290,"current_range_meters":5200,"station_id":"ce4bha12rcd13ifvqee0","pricing_plan_id":"free"},{"bike_id":"a6e33754-7024-4019-92dc-7cd5d4dc0035","system_id":"levelo_inurba_marseille","lat":43.28106,"lon":5.37838,"is_reserved":false,"is_disabled":false,"rental_uris":{"android":"levelo://app?vid=a6e33754-7024-4019-92dc-7cd5d4dc0035","ios":"levelo://app?vid=a6e33754-7024-4019-92dc-7cd5d4dc0035"},"vehicle_type_id":"4","last_reported":1679436290,"current_range_meters":5200,"station_id":"ce4bha12rcd13ifvqee0","pricing_plan_id":"free"},{"bike_id":"8dd1730c-8252-475e-bec3-1e55bd7e5700","system_id":"levelo_inurba_marseille","lat":43.28106,"lon":5.37839,"is_reserved":false,"is_disabled":false,"rental_uris":{"android":"levelo://app?vid=8dd1730c-8252-475e-bec3-1e55bd7e5700","ios":"levelo://app?vid=8dd1730c-8252-475e-bec3-1e55bd7e5700"},"vehicle_type_id":"4","last_reported":1679436290,"current_range_meters":26400,"station_id":"ce4bha12rcd13ifvqee0","pricing_plan_id":"free"},{"bike_id":"882b0a82-6e45-4457-a358-20faef548bf7","system_id":"levelo_inurba_marseille","lat":43.28101,"lon":5.378313,"is_reserved":false,"is_disabled":false,"rental_uris":{"android":"levelo://app?vid=882b0a82-6e45-4457-a358-20faef548bf7","ios":"levelo://app?vid=882b0a82-6e45-4457-a358-20faef548bf7"},"vehicle_type_id":"4","last_reported":1679436290,"current_range_meters":30800,"station_id":"","pricing_plan_id":"free"},{"bike_id":"3c5dfefd-fe26-4332-94a4-ae4f4c02a7fd","system_id":"levelo_inurba_marseille","lat":43.280994,"lon":5.378479,"is_reserved":false,"is_disabled":false,"rental_uris":{"android":"levelo://app?vid=3c5dfefd-fe26-4332-94a4-ae4f4c02a7fd","ios":"levelo://app?vid=3c5dfefd-fe26-4332-94a4-ae4f4c02a7fd"},"vehicle_type_id":"4","last_reported":1679436290,"current_range_meters":30800,"station_id":"ce4bha12rcd13ifvqee0","pricing_plan_id":"free"},{"bike_id":"a8e09846-75c6-4ba5-95b8-b96214d087b0","system_id":"levelo_inurba_marseille","lat":43.28098,"lon":5.37842,"is_reserved":false,"is_disabled":false,"rental_uris":{"android":"levelo://app?vid=a8e09846-75c6-4ba5-95b8-b96214d087b0","ios":"levelo://app?vid=a8e09846-75c6-4ba5-95b8-b96214d087b0"},"vehicle_type_id":"4","last_reported":1679436290,"current_range_meters":14800,"station_id":"ce4bha12rcd13ifvqee0","pricing_plan_id":"free"},{"bike_id":"1a2ee003-88aa-46a1-a699-2c76a8cc1804","system_id":"levelo_inurba_marseille","lat":43.284462,"lon":5.392121,"is_reserved":false,"is_disabled":false,"rental_uris":{"android":"levelo://app?vid=1a2ee003-88aa-46a1-a699-2c76a8cc1804","ios":"levelo://app?vid=1a2ee003-88aa-46a1-a699-2c76a8cc1804"},"vehicle_type_id":"4","last_reported":1679436290,"current_range_meters":0,"station_id":"ce4bhoh2rcd13ifvqh5g","pricing_plan_id":"free"},{"bike_id":"e1be00be-17c7-4e54-8454-f1ca09f61759","system_id":"levelo_inurba_marseille","lat":43.30421,"lon":5.41281,"is_reserved":false,"is_disabled":false,"rental_uris":{"android":"levelo://app?vid=e1be00be-17c7-4e54-8454-f1ca09f61759","ios":"levelo://app?vid=e1be00be-17c7-4e54-8454-f1ca09f61759"},"vehicle_type_id":"4","last_reported":1679436290,"current_range_meters":27200,"station_id":"","pricing_plan_id":"free"},{"bike_id":"22bdbdab-d08b-407d-ad95-fd5deb54c7ef","system_id":"levelo_inurba_marseille","lat":43.30421,"lon":5.41281,"is_reserved":false,"is_disabled":false,"rental_uris":{"android":"levelo://app?vid=22bdbdab-d08b-407d-ad95-fd5deb54c7ef","ios":"levelo://app?vid=22bdbdab-d08b-407d-ad95-fd5deb54c7ef"},"vehicle_type_id":"4","last_reported":1679436290,"current_range_meters":800,"station_id":"","pricing_plan_id":"free"},{"bike_id":"e64a024f-3f24-45d1-844b-644699a6037e","system_id":"levelo_inurba_marseille","lat":43.3042,"lon":5.41289,"is_reserved":false,"is_disabled":false,"rental_uris":{"android":"levelo://app?vid=e64a024f-3f24-45d1-844b-644699a6037e","ios":"levelo://app?vid=e64a024f-3f24-45d1-844b-644699a6037e"},"vehicle_type_id":"4","last_reported":1679436290,"current_range_meters":13600,"station_id":"ce4bhop2rcd13ifvqh8g","pricing_plan_id":"free"},{"bike_id":"13906b72-e719-4d20-9140-e0a6ecbbe144","system_id":"levelo_inurba_marseille","lat":43.30417,"lon":5.41292,"is_reserved":false,"is_disabled":false,"rental_uris":{"android":"levelo://app?vid=13906b72-e719-4d20-9140-e0a6ecbbe144","ios":"levelo://app?vid=13906b72-e719-4d20-9140-e0a6ecbbe144"},"vehicle_type_id":"4","last_reported":1679436290,"current_range_meters":800,"station_id":"","pricing_plan_id":"free"},{"bike_id":"4d378177-8654-4b3d-a73b-3c6425d2058e","system_id":"levelo_inurba_marseille","lat":43.287154,"lon":5.399979,"is_reserved":false,"is_disabled":false,"rental_uris":{"android":"levelo://app?vid=4d378177-8654-4b3d-a73b-3c6425d2058e","ios":"levelo://app?vid=4d378177-8654-4b3d-a73b-3c6425d2058e"},"vehicle_type_id":"4","last_reported":1679436290,"current_range_meters":7600,"station_id":"ce4bho92rcd13ifvqh3g","pricing_plan_id":"free"},{"bike_id":"f87ee466-dad1-4def-900a-5fced7091f0e","system_id":"levelo_inurba_marseille","lat":43.28703,"lon":5.3999,"is_reserved":false,"is_disabled":false,"rental_uris":{"android":"levelo://app?vid=f87ee466-dad1-4def-900a-5fced7091f0e","ios":"levelo://app?vid=f87ee466-dad1-4def-900a-5fced7091f0e"},"vehicle_type_id":"4","last_reported":1679436290,"current_range_meters":30000,"station_id":"ce4bho92rcd13ifvqh3g","pricing_plan_id":"free"},{"bike_id":"dad8cf64-3751-4cfe-8b81-73a9efdfd9ef","system_id":"levelo_inurba_marseille","lat":43.287154,"lon":5.399979,"is_reserved":false,"is_disabled":false,"rental_uris":{"android":"levelo://app?vid=dad8cf64-3751-4cfe-8b81-73a9efdfd9ef","ios":"levelo://app?vid=dad8cf64-3751-4cfe-8b81-73a9efdfd9ef"},"vehicle_type_id":"4","last_reported":1679436290,"current_range_meters":0,"station_id":"ce4bho92rcd13ifvqh3g","pricing_plan_id":"free"},{"bike_id":"723e7d5c-99f7-43b4-8945-1cbb2e5a79dc","system_id":"levelo_inurba_marseille","lat":43.292569,"lon":5.409107,"is_reserved":false,"is_disabled":false,"rental_uris":{"android":"levelo://app?vid=723e7d5c-99f7-43b4-8945-1cbb2e5a79dc","ios":"levelo://app?vid=723e7d5c-99f7-43b4-8945-1cbb2e5a79dc"},"vehicle_type_id":"4","last_reported":1679436290,"current_range_meters":2400,"station_id":"ce4bh192rcd13ifvqdc0","pricing_plan_id":"free"},{"bike_id":"cb66ec26-80cc-4909-9842-fe93643a908c","system_id":"levelo_inurba_marseille","lat":43.292569,"lon":5.409107,"is_reserved":false,"is_disabled":false,"rental_uris":{"android":"levelo://app?vid=cb66ec26-80cc-4909-9842-fe93643a908c","ios":"levelo://app?vid=cb66ec26-80cc-4909-9842-fe93643a908c"},"vehicle_type_id":"4","last_reported":1679436290,"current_range_meters":21200,"station_id":"ce4bh192rcd13ifvqdc0","pricing_plan_id":"free"},{"bike_id":"3f88eb98-9b42-41c7-8ebe-e25da99f9d77","system_id":"levelo_inurba_marseille","lat":43.292569,"lon":5.409107,"is_reserved":false,"is_disabled":false,"rental_uris":{"android":"levelo://app?vid=3f88eb98-9b42-41c7-8ebe-e25da99f9d77","ios":"levelo://app?vid=3f88eb98-9b42-41c7-8ebe-e25da99f9d77"},"vehicle_type_id":"4","last_reported":1679436290,"current_range_meters":23200,"station_id":"ce4bh192rcd13ifvqdc0","pricing_plan_id":"free"},{"bike_id":"6a442b1b-935a-4cc1-bc9b-e1808c1f40c6","system_id":"levelo_inurba_marseille","lat":43.292569,"lon":5.409107,"is_reserved":false,"is_disabled":false,"rental_uris":{"android":"levelo://app?vid=6a442b1b-935a-4cc1-bc9b-e1808c1f40c6","ios":"levelo://app?vid=6a442b1b-935a-4cc1-bc9b-e1808c1f40c6"},"vehicle_type_id":"4","last_reported":1679436290,"current_range_meters":6800,"station_id":"ce4bh192rcd13ifvqdc0","pricing_plan_id":"free"},{"bike_id":"e820af9c-3a33-4314-ab00-d7cb4e25e5a1","system_id":"levelo_inurba_marseille","lat":43.292569,"lon":5.409107,"is_reserved":false,"is_disabled":false,"rental_uris":{"android":"levelo://app?vid=e820af9c-3a33-4314-ab00-d7cb4e25e5a1","ios":"levelo://app?vid=e820af9c-3a33-4314-ab00-d7cb4e25e5a1"},"vehicle_type_id":"4","last_reported":1679436290,"current_range_meters":25200,"station_id":"ce4bh192rcd13ifvqdc0","pricing_plan_id":"free"},{"bike_id":"c3f4e919-ee01-4236-97f1-6000b8cc4bd0","system_id":"levelo_inurba_marseille","lat":43.325444,"lon":5.41432,"is_reserved":false,"is_disabled":false,"rental_uris":{"android":"levelo://app?vid=c3f4e919-ee01-4236-97f1-6000b8cc4bd0","ios":"levelo://app?vid=c3f4e919-ee01-4236-97f1-6000b8cc4bd0"},"vehicle_type_id":"4","last_reported":1679436290,"current_range_meters":22000,"station_id":"ce4bhq12rcd13ifvqhhg","pricing_plan_id":"free"},{"bike_id":"b68360e3-0d4b-49bd-9dbc-58d0c5332a68","system_id":"levelo_inurba_marseille","lat":43.325233,"lon":5.414318,"is_reserved":false,"is_disabled":false,"rental_uris":{"android":"levelo://app?vid=b68360e3-0d4b-49bd-9dbc-58d0c5332a68","ios":"levelo://app?vid=b68360e3-0d4b-49bd-9dbc-58d0c5332a68"},"vehicle_type_id":"4","last_reported":1679436290,"current_range_meters":20800,"station_id":"ce4bhq12rcd13ifvqhhg","pricing_plan_id":"free"},{"bike_id":"d052c549-3438-4e83-b9cf-bb72d48eb30f","system_id":"levelo_inurba_marseille","lat":43.32544,"lon":5.414405,"is_reserved":false,"is_disabled":false,"rental_uris":{"android":"levelo://app?vid=d052c549-3438-4e83-b9cf-bb72d48eb30f","ios":"levelo://app?vid=d052c549-3438-4e83-b9cf-bb72d48eb30f"},"vehicle_type_id":"4","last_reported":1679436290,"current_range_meters":22000,"station_id":"ce4bhq12rcd13ifvqhhg","pricing_plan_id":"free"},{"bike_id":"322ac92a-3e20-4525-a191-17ac2dd87f7b","system_id":"levelo_inurba_marseille","lat":43.325243,"lon":5.414326,"is_reserved":false,"is_disabled":false,"rental_uris":{"android":"levelo://app?vid=322ac92a-3e20-4525-a191-17ac2dd87f7b","ios":"levelo://app?vid=322ac92a-3e20-4525-a191-17ac2dd87f7b"},"vehicle_type_id":"4","last_reported":1679436290,"current_range_meters":12400,"station_id":"ce4bhq12rcd13ifvqhhg","pricing_plan_id":"free"},{"bike_id":"84492bf5-e1e6-47c6-89a3-ff15280266b0","system_id":"levelo_inurba_marseille","lat":43.325383,"lon":5.41445,"is_reserved":false,"is_disabled":false,"rental_uris":{"android":"levelo://app?vid=84492bf5-e1e6-47c6-89a3-ff15280266b0","ios":"levelo://app?vid=84492bf5-e1e6-47c6-89a3-ff15280266b0"},"vehicle_type_id":"4","last_reported":1679436290,"current_range_meters":2000,"station_id":"ce4bhq12rcd13ifvqhhg","pricing_plan_id":"free"},{"bike_id":"c1b0769c-5750-4a5c-95f9-cc66d9238be6","system_id":"levelo_inurba_marseille","lat":43.276179,"lon":5.361009,"is_reserved":false,"is_disabled":false,"rental_uris":{"android":"levelo://app?vid=c1b0769c-5750-4a5c-95f9-cc66d9238be6","ios":"levelo://app?vid=c1b0769c-5750-4a5c-95f9-cc66d9238be6"},"vehicle_type_id":"4","last_reported":1679436290,"current_range_meters":7200,"station_id":"ce4bgj92rcd13ifvqbe0","pricing_plan_id":"free"},{"bike_id":"09100ff5-a5ef-46fb-8d08-147cdcc5f60f","system_id":"levelo_inurba_marseille","lat":43.325518,"lon":5.414428,"is_reserved":false,"is_disabled":false,"rental_uris":{"android":"levelo://app?vid=09100ff5-a5ef-46fb-8d08-147cdcc5f60f","ios":"levelo://app?vid=09100ff5-a5ef-46fb-8d08-147cdcc5f60f"},"vehicle_type_id":"4","last_reported":1679436290,"current_range_meters":5600,"station_id":"","pricing_plan_id":"free"},{"bike_id":"020cbb00-74a4-4049-a545-2b5f0c798121","system_id":"levelo_inurba_marseille","lat":43.325243,"lon":5.414326,"is_reserved":false,"is_disabled":false,"rental_uris":{"android":"levelo://app?vid=020cbb00-74a4-4049-a545-2b5f0c798121","ios":"levelo://app?vid=020cbb00-74a4-4049-a545-2b5f0c798121"},"vehicle_type_id":"4","last_reported":1679436290,"current_range_meters":7200,"station_id":"ce4bhq12rcd13ifvqhhg","pricing_plan_id":"free"},{"bike_id":"04c23df4-ebbc-4e87-a893-afbf2d91c18d","system_id":"levelo_inurba_marseille","lat":43.325243,"lon":5.414326,"is_reserved":false,"is_disabled":false,"rental_uris":{"android":"levelo://app?vid=04c23df4-ebbc-4e87-a893-afbf2d91c18d","ios":"levelo://app?vid=04c23df4-ebbc-4e87-a893-afbf2d91c18d"},"vehicle_type_id":"4","last_reported":1679436290,"current_range_meters":0,"station_id":"ce4bhq12rcd13ifvqhhg","pricing_plan_id":"free"},{"bike_id":"e4242bd3-c81f-4830-869f-f7ba3ebee027","system_id":"levelo_inurba_marseille","lat":43.279905,"lon":5.394368,"is_reserved":false,"is_disabled":false,"rental_uris":{"android":"levelo://app?vid=e4242bd3-c81f-4830-869f-f7ba3ebee027","ios":"levelo://app?vid=e4242bd3-c81f-4830-869f-f7ba3ebee027"},"vehicle_type_id":"4","last_reported":1679436290,"current_range_meters":12000,"station_id":"","pricing_plan_id":"free"},{"bike_id":"43953ce6-c48b-4fc6-93b0-68ac20b53f45","system_id":"levelo_inurba_marseille","lat":43.280784,"lon":5.396622,"is_reserved":false,"is_disabled":false,"rental_uris":{"android":"levelo://app?vid=43953ce6-c48b-4fc6-93b0-68ac20b53f45","ios":"levelo://app?vid=43953ce6-c48b-4fc6-93b0-68ac20b53f45"},"vehicle_type_id":"4","last_reported":1679436290,"current_range_meters":31600,"station_id":"ce4bho12rcd13ifvqh2g","pricing_plan_id":"free"},{"bike_id":"44df6c54-2f72-4606-8e4b-6f7e60e0d892","system_id":"levelo_inurba_marseille","lat":43.280784,"lon":5.396622,"is_reserved":false,"is_disabled":false,"rental_uris":{"android":"levelo://app?vid=44df6c54-2f72-4606-8e4b-6f7e60e0d892","ios":"levelo://app?vid=44df6c54-2f72-4606-8e4b-6f7e60e0d892"},"vehicle_type_id":"4","last_reported":1679436290,"current_range_meters":2000,"station_id":"ce4bho12rcd13ifvqh2g","pricing_plan_id":"free"},{"bike_id":"78043dd2-0c1b-4de2-9265-f911e0b32d09","system_id":"levelo_inurba_marseille","lat":43.280784,"lon":5.396622,"is_reserved":false,"is_disabled":false,"rental_uris":{"android":"levelo://app?vid=78043dd2-0c1b-4de2-9265-f911e0b32d09","ios":"levelo://app?vid=78043dd2-0c1b-4de2-9265-f911e0b32d09"},"vehicle_type_id":"4","last_reported":1679436290,"current_range_meters":30400,"station_id":"ce4bho12rcd13ifvqh2g","pricing_plan_id":"free"},{"bike_id":"47c6cfcf-2c8a-46f5-a4b0-500af96b83fa","system_id":"levelo_inurba_marseille","lat":43.280784,"lon":5.396622,"is_reserved":false,"is_disabled":false,"rental_uris":{"android":"levelo://app?vid=47c6cfcf-2c8a-46f5-a4b0-500af96b83fa","ios":"levelo://app?vid=47c6cfcf-2c8a-46f5-a4b0-500af96b83fa"},"vehicle_type_id":"4","last_reported":1679436290,"current_range_meters":25200,"station_id":"ce4bho12rcd13ifvqh2g","pricing_plan_id":"free"},{"bike_id":"1d26efbb-3715-455f-be00-a37f53460218","system_id":"levelo_inurba_marseille","lat":43.280784,"lon":5.396622,"is_reserved":false,"is_disabled":false,"rental_uris":{"android":"levelo://app?vid=1d26efbb-3715-455f-be00-a37f53460218","ios":"levelo://app?vid=1d26efbb-3715-455f-be00-a37f53460218"},"vehicle_type_id":"4","last_reported":1679436290,"current_range_meters":27600,"station_id":"ce4bho12rcd13ifvqh2g","pricing_plan_id":"free"},{"bike_id":"a51f0e00-4213-48e3-a3ae-86f88d8d5b01","system_id":"levelo_inurba_marseille","lat":43.335978,"lon":5.41015,"is_reserved":false,"is_disabled":false,"rental_uris":{"android":"levelo://app?vid=a51f0e00-4213-48e3-a3ae-86f88d8d5b01","ios":"levelo://app?vid=a51f0e00-4213-48e3-a3ae-86f88d8d5b01"},"vehicle_type_id":"4","last_reported":1679436290,"current_range_meters":28000,"station_id":"ce4bhqh2rcd13ifvqhmg","pricing_plan_id":"free"},{"bike_id":"96ebd67f-1d13-43e6-a6d7-3f51148691b5","system_id":"levelo_inurba_marseille","lat":43.33612,"lon":5.410321,"is_reserved":false,"is_disabled":false,"rental_uris":{"android":"levelo://app?vid=96ebd67f-1d13-43e6-a6d7-3f51148691b5","ios":"levelo://app?vid=96ebd67f-1d13-43e6-a6d7-3f51148691b5"},"vehicle_type_id":"4","last_reported":1679436290,"current_range_meters":26800,"station_id":"ce4bhqh2rcd13ifvqhmg","pricing_plan_id":"free"},{"bike_id":"c921f830-76ae-4e1e-a862-793b711b5696","system_id":"levelo_inurba_marseille","lat":43.33607,"lon":5.41026,"is_reserved":false,"is_disabled":false,"rental_uris":{"android":"levelo://app?vid=c921f830-76ae-4e1e-a862-793b711b5696","ios":"levelo://app?vid=c921f830-76ae-4e1e-a862-793b711b5696"},"vehicle_type_id":"4","last_reported":1679436290,"current_range_meters":20000,"station_id":"","pricing_plan_id":"free"},{"bike_id":"7b867b84-899f-43cb-a16f-9d8847054778","system_id":"levelo_inurba_marseille","lat":43.33606,"lon":5.41029,"is_reserved":false,"is_disabled":false,"rental_uris":{"android":"levelo://app?vid=7b867b84-899f-43cb-a16f-9d8847054778","ios":"levelo://app?vid=7b867b84-899f-43cb-a16f-9d8847054778"},"vehicle_type_id":"4","last_reported":1679436290,"current_range_meters":31600,"station_id":"","pricing_plan_id":"free"},{"bike_id":"0f34edb1-4bd4-436b-ae7c-a7b3c1183449","system_id":"levelo_inurba_marseille","lat":43.336148,"lon":5.410349,"is_reserved":false,"is_disabled":false,"rental_uris":{"android":"levelo://app?vid=0f34edb1-4bd4-436b-ae7c-a7b3c1183449","ios":"levelo://app?vid=0f34edb1-4bd4-436b-ae7c-a7b3c1183449"},"vehicle_type_id":"4","last_reported":1679436290,"current_range_meters":28800,"station_id":"ce4bhqh2rcd13ifvqhmg","pricing_plan_id":"free"},{"bike_id":"6f393ce2-bb6e-467d-8a0c-22191e099f7d","system_id":"levelo_inurba_marseille","lat":43.33606,"lon":5.41034,"is_reserved":false,"is_disabled":false,"rental_uris":{"android":"levelo://app?vid=6f393ce2-bb6e-467d-8a0c-22191e099f7d","ios":"levelo://app?vid=6f393ce2-bb6e-467d-8a0c-22191e099f7d"},"vehicle_type_id":"4","last_reported":1679436290,"current_range_meters":21600,"station_id":"","pricing_plan_id":"free"},{"bike_id":"813897e5-6da5-4a20-b20c-73d7dd02c8ba","system_id":"levelo_inurba_marseille","lat":43.33609,"lon":5.41036,"is_reserved":false,"is_disabled":false,"rental_uris":{"android":"levelo://app?vid=813897e5-6da5-4a20-b20c-73d7dd02c8ba","ios":"levelo://app?vid=813897e5-6da5-4a20-b20c-73d7dd02c8ba"},"vehicle_type_id":"4","last_reported":1679436290,"current_range_meters":2000,"station_id":"","pricing_plan_id":"free"},{"bike_id":"1af1595c-6087-4f23-b807-9c61adfeab96","system_id":"levelo_inurba_marseille","lat":43.33609,"lon":5.41038,"is_reserved":false,"is_disabled":false,"rental_uris":{"android":"levelo://app?vid=1af1595c-6087-4f23-b807-9c61adfeab96","ios":"levelo://app?vid=1af1595c-6087-4f23-b807-9c61adfeab96"},"vehicle_type_id":"4","last_reported":1679436290,"current_range_meters":22000,"station_id":"ce4bhqh2rcd13ifvqhmg","pricing_plan_id":"free"},{"bike_id":"ed4bc768-64b1-4ef3-bb1f-54833e9209a8","system_id":"levelo_inurba_marseille","lat":43.276771,"lon":5.388799,"is_reserved":false,"is_disabled":false,"rental_uris":{"android":"levelo://app?vid=ed4bc768-64b1-4ef3-bb1f-54833e9209a8","ios":"levelo://app?vid=ed4bc768-64b1-4ef3-bb1f-54833e9209a8"},"vehicle_type_id":"4","last_reported":1679436290,"current_range_meters":22800,"station_id":"ce4bhi12rcd13ifvqfo0","pricing_plan_id":"free"},{"bike_id":"c6de3584-f276-4551-ad9a-12c24018bb80","system_id":"levelo_inurba_marseille","lat":43.327836,"lon":5.417989,"is_reserved":false,"is_disabled":false,"rental_uris":{"android":"levelo://app?vid=c6de3584-f276-4551-ad9a-12c24018bb80","ios":"levelo://app?vid=c6de3584-f276-4551-ad9a-12c24018bb80"},"vehicle_type_id":"4","last_reported":1679436290,"current_range_meters":0,"station_id":"","pricing_plan_id":"free"},{"bike_id":"213c35f6-5d3a-4716-a6d2-c5efa74c11cb","system_id":"levelo_inurba_marseille","lat":43.317256,"lon":5.423886,"is_reserved":false,"is_disabled":false,"rental_uris":{"android":"levelo://app?vid=213c35f6-5d3a-4716-a6d2-c5efa74c11cb","ios":"levelo://app?vid=213c35f6-5d3a-4716-a6d2-c5efa74c11cb"},"vehicle_type_id":"4","last_reported":1679436290,"current_range_meters":14000,"station_id":"ce4bhp92rcd13ifvqhbg","pricing_plan_id":"free"},{"bike_id":"b67cf820-ee79-49da-85f9-14d4d3e025ff","system_id":"levelo_inurba_marseille","lat":43.310785,"lon":5.424305,"is_reserved":false,"is_disabled":false,"rental_uris":{"android":"levelo://app?vid=b67cf820-ee79-49da-85f9-14d4d3e025ff","ios":"levelo://app?vid=b67cf820-ee79-49da-85f9-14d4d3e025ff"},"vehicle_type_id":"4","last_reported":1679436290,"current_range_meters":0,"station_id":"ce4bhp92rcd13ifvqhag","pricing_plan_id":"free"},{"bike_id":"acf74c9b-16ea-4e3d-a75f-c1a66b237225","system_id":"levelo_inurba_marseille","lat":43.27427,"lon":5.39418,"is_reserved":false,"is_disabled":false,"rental_uris":{"android":"levelo://app?vid=acf74c9b-16ea-4e3d-a75f-c1a66b237225","ios":"levelo://app?vid=acf74c9b-16ea-4e3d-a75f-c1a66b237225"},"vehicle_type_id":"4","last_reported":1679436290,"current_range_meters":26000,"station_id":"ce4bhdp2rcd13ifvqf20","pricing_plan_id":"free"},{"bike_id":"a0eb8141-2d25-4073-b98c-c681a47290d4","system_id":"levelo_inurba_marseille","lat":43.27231,"lon":5.39098,"is_reserved":false,"is_disabled":false,"rental_uris":{"android":"levelo://app?vid=a0eb8141-2d25-4073-b98c-c681a47290d4","ios":"levelo://app?vid=a0eb8141-2d25-4073-b98c-c681a47290d4"},"vehicle_type_id":"4","last_reported":1679436290,"current_range_meters":12000,"station_id":"ce4bhah2rcd13ifvqei0","pricing_plan_id":"free"},{"bike_id":"56833b08-77b3-41fc-9da5-bbe87260ff7a","system_id":"levelo_inurba_marseille","lat":43.295523,"lon":5.422926,"is_reserved":false,"is_disabled":false,"rental_uris":{"android":"levelo://app?vid=56833b08-77b3-41fc-9da5-bbe87260ff7a","ios":"levelo://app?vid=56833b08-77b3-41fc-9da5-bbe87260ff7a"},"vehicle_type_id":"4","last_reported":1679436290,"current_range_meters":4800,"station_id":"ce4bhph2rcd13ifvqhdg","pricing_plan_id":"free"},{"bike_id":"f03c0b3d-7445-429e-ac76-780ed2eea5af","system_id":"levelo_inurba_marseille","lat":43.295511,"lon":5.422926,"is_reserved":false,"is_disabled":false,"rental_uris":{"android":"levelo://app?vid=f03c0b3d-7445-429e-ac76-780ed2eea5af","ios":"levelo://app?vid=f03c0b3d-7445-429e-ac76-780ed2eea5af"},"vehicle_type_id":"4","last_reported":1679436290,"current_range_meters":10000,"station_id":"ce4bhph2rcd13ifvqhdg","pricing_plan_id":"free"},{"bike_id":"852fcf8c-43d4-4938-b39a-ec837a89a31b","system_id":"levelo_inurba_marseille","lat":43.295511,"lon":5.422926,"is_reserved":false,"is_disabled":false,"rental_uris":{"android":"levelo://app?vid=852fcf8c-43d4-4938-b39a-ec837a89a31b","ios":"levelo://app?vid=852fcf8c-43d4-4938-b39a-ec837a89a31b"},"vehicle_type_id":"4","last_reported":1679436290,"current_range_meters":15600,"station_id":"ce4bhph2rcd13ifvqhdg","pricing_plan_id":"free"},{"bike_id":"bc03cbec-9144-45a5-8c9c-4d3f89a32293","system_id":"levelo_inurba_marseille","lat":43.29554,"lon":5.42283,"is_reserved":false,"is_disabled":false,"rental_uris":{"android":"levelo://app?vid=bc03cbec-9144-45a5-8c9c-4d3f89a32293","ios":"levelo://app?vid=bc03cbec-9144-45a5-8c9c-4d3f89a32293"},"vehicle_type_id":"4","last_reported":1679436290,"current_range_meters":12800,"station_id":"ce4bhph2rcd13ifvqhdg","pricing_plan_id":"free"},{"bike_id":"1b282965-6c29-4da5-a83a-93d1aa3a2e61","system_id":"levelo_inurba_marseille","lat":43.295511,"lon":5.422926,"is_reserved":false,"is_disabled":false,"rental_uris":{"android":"levelo://app?vid=1b282965-6c29-4da5-a83a-93d1aa3a2e61","ios":"levelo://app?vid=1b282965-6c29-4da5-a83a-93d1aa3a2e61"},"vehicle_type_id":"4","last_reported":1679436290,"current_range_meters":12000,"station_id":"ce4bhph2rcd13ifvqhdg","pricing_plan_id":"free"},{"bike_id":"fd46fcb7-c77d-4bc0-b278-727c1839acee","system_id":"levelo_inurba_marseille","lat":43.295511,"lon":5.422926,"is_reserved":false,"is_disabled":false,"rental_uris":{"android":"levelo://app?vid=fd46fcb7-c77d-4bc0-b278-727c1839acee","ios":"levelo://app?vid=fd46fcb7-c77d-4bc0-b278-727c1839acee"},"vehicle_type_id":"4","last_reported":1679436290,"current_range_meters":22800,"station_id":"ce4bhph2rcd13ifvqhdg","pricing_plan_id":"free"},{"bike_id":"3940e042-6abb-4c6a-8653-d03385fd16b9","system_id":"levelo_inurba_marseille","lat":43.295511,"lon":5.422926,"is_reserved":false,"is_disabled":false,"rental_uris":{"android":"levelo://app?vid=3940e042-6abb-4c6a-8653-d03385fd16b9","ios":"levelo://app?vid=3940e042-6abb-4c6a-8653-d03385fd16b9"},"vehicle_type_id":"4","last_reported":1679436290,"current_range_meters":20800,"station_id":"ce4bhph2rcd13ifvqhdg","pricing_plan_id":"free"},{"bike_id":"a5a15105-6c0a-4c08-aded-63f3e4080a68","system_id":"levelo_inurba_marseille","lat":43.295511,"lon":5.422926,"is_reserved":false,"is_disabled":false,"rental_uris":{"android":"levelo://app?vid=a5a15105-6c0a-4c08-aded-63f3e4080a68","ios":"levelo://app?vid=a5a15105-6c0a-4c08-aded-63f3e4080a68"},"vehicle_type_id":"4","last_reported":1679436290,"current_range_meters":5200,"station_id":"ce4bhph2rcd13ifvqhdg","pricing_plan_id":"free"},{"bike_id":"7f5622ac-3f9b-4612-80a5-6d293f90c60b","system_id":"levelo_inurba_marseille","lat":43.278128,"lon":5.407195,"is_reserved":false,"is_disabled":false,"rental_uris":{"android":"levelo://app?vid=7f5622ac-3f9b-4612-80a5-6d293f90c60b","ios":"levelo://app?vid=7f5622ac-3f9b-4612-80a5-6d293f90c60b"},"vehicle_type_id":"4","last_reported":1679436290,"current_range_meters":14400,"station_id":"ce4bhnh2rcd13ifvqgtg","pricing_plan_id":"free"},{"bike_id":"0cc7f766-935f-49ab-a3ae-44c16890d039","system_id":"levelo_inurba_marseille","lat":43.278128,"lon":5.407195,"is_reserved":false,"is_disabled":false,"rental_uris":{"android":"levelo://app?vid=0cc7f766-935f-49ab-a3ae-44c16890d039","ios":"levelo://app?vid=0cc7f766-935f-49ab-a3ae-44c16890d039"},