{"last_updated":1719414515,"ttl":30,"version":"2.2","data":{"bikes":[{"bike_id":"bcc3e4e7-49ad-4827-ad72-a8aac5cd29e6","system_id":"levelo_inurba_marseille","lat":43.31509,"lon":5.37089,"is_reserved":false,"is_disabled":false,"rental_uris":{"android":"levelo://app?vid=bcc3e4e7-49ad-4827-ad72-a8aac5cd29e6","ios":"levelo://app?vid=bcc3e4e7-49ad-4827-ad72-a8aac5cd29e6"},"vehicle_type_id":"4","last_reported":1719414515,"current_range_meters":15200,"station_id":"","pricing_plan_id":"cebpf4jnsgd1na2vs0mg"},{"bike_id":"088317ad-7bd2-46ff-ae26-6e7b1bb50d5f","system_id":"levelo_inurba_marseille","lat":43.30882,"lon":5.37211,"is_reserved":false,"is_disabled":false,"rental_uris":{"android":"levelo://app?vid=088317ad-7bd2-46ff-ae26-6e7b1bb50d5f","ios":"levelo://app?vid=088317ad-7bd2-46ff-ae26-6e7b1bb50d5f"},"vehicle_type_id":"4","last_reported":1719414515,"current_range_meters":8400,"station_id":"ce4bguh2rcd13ifvqckg","pricing_plan_id":"cebpf4jnsgd1na2vs0mg"},{"bike_id":"3ab1b1b8-e68c-45a9-85b1-3b42c3f3f878","system_id":"levelo_inurba_marseille","lat":43.30537,"lon":5.367345,"is_reserved":false,"is_disabled":false,"rental_uris":{"android":"levelo://app?vid=3ab1b1b8-e68c-45a9-85b1-3b42c3f3f878","ios":"levelo://app?vid=3ab1b1b8-e68c-45a9-85b1-3b42c3f3f878"},"vehicle_type_id":"4","last_reported":1719414515,"current_range_meters":29600,"station_id":"ce4bgrp2rcd13ifvqc9g","pricing_plan_id":"cebpf4jnsgd1na2vs0mg"},{"bike_id":"efc7615d-30bb-4754-a9dd-645c7db295a4","system_id":"levelo_inurba_marseille","lat":43.305283,"lon":5.366623,"is_reserved":false,"is_disabled":false,"rental_uris":{"android":"levelo://app?vid=efc7615d-30bb-4754-a9dd-645c7db295a4","ios":"levelo://app?vid=efc7615d-30bb-4754-a9dd-645c7db295a4"},"vehicle_type_id":"4","last_reported":1719414515,"current_range_meters":31200,"station_id":"","pricing_plan_id":"cebpf4jnsgd1na2vs0mg"},{"bike_id":"c1646790-0ad6-4c16-bdb1-a8c10928e05a","system_id":"levelo_inurba_marseille","lat":43.311131,"lon":5.377651,"is_reserved":false,"is_disabled":false,"rental_uris":{"android":"levelo://app?vid=c1646790-0ad6-4c16-bdb1-a8c10928e05a","ios":"levelo://app?vid=c1646790-0ad6-4c16-bdb1-a8c10928e05a"},"vehicle_type_id":"4","last_reported":1719414515,"current_range_meters":23200,"station_id":"ce4bgt92rcd13ifvqcg0","pricing_plan_id":"cebpf4jnsgd1na2vs0mg"},{"bike_id":"36c140fe-d18f-4ff5-be8f-386de33eddf0","system_id":"levelo_inurba_marseille","lat":43.311178,"lon":5.377647,"is_reserved":false,"is_disabled":false,"rental_uris":{"android":"levelo://app?vid=36c140fe-d18f-4ff5-be8f-386de33eddf0","ios":"levelo://app?vid=36c140fe-d18f-4ff5-be8f-386de33eddf0"},"vehicle_type_id":"4","last_reported":1719414515,"current_range_meters":25200,"station_id":"ce4bgt92rcd13ifvqcg0","pricing_plan_id":"cebpf4jnsgd1na2vs0mg"},{"bike_id":"3fe9b639-2b12-4e4e-b50a-6098c79a0062","system_id":"levelo_inurba_marseille","lat":43.311125,"lon":5.377624,"is_reserved":false,"is_disabled":false,"rental_uris":{"android":"levelo://app?vid=3fe9b639-2b12-4e4e-b50a-6098c79a0062","ios":"levelo://app?vid=3fe9b639-2b12-4e4e-b50a-6098c79a0062"},"vehicle_type_id":"4","last_reported":1719414515,"current_range_meters":13200,"station_id":"ce4bgt92rcd13ifvqcg0","pricing_plan_id":"cebpf4jnsgd1na2vs0mg"},{"bike_id":"9de02eca-b3d5-4118-8c58-95d741bb2cdb","system_id":"levelo_inurba_marseille","lat":43.304567,"lon":5.367089,"is_reserved":false,"is_disabled":false,"rental_uris":{"android":"levelo://app?vid=9de02eca-b3d5-4118-8c58-95d741bb2cdb","ios":"levelo://app?vid=9de02eca-b3d5-4118-8c58-95d741bb2cdb"},"vehicle_type_id":"4","last_reported":1719414515,"current_range_meters":30800,"station_id":"","pricing_plan_id":"cebpf4jnsgd1na2vs0mg"},{"bike_id":"4511de1e-edc4-46cd-a354-be464217c119","system_id":"levelo_inurba_marseille","lat":43.31704,"lon":5.37742,"is_reserved":false,"is_disabled":false,"rental_uris":{"android":"levelo://app?vid=4511de1e-edc4-46cd-a354-be464217c119","ios":"levelo://app?vid=4511de1e-edc4-46cd-a354-be464217c119"},"vehicle_type_id":"4","last_reported":1719414515,"current_range_meters":24400,"station_id":"ce4bgth2rcd13ifvqch0","pricing_plan_id":"cebpf4jnsgd1na2vs0mg"},{"bike_id":"41036cd4-fbd8-41c5-9bb2-ab37550118d4","system_id":"levelo_inurba_marseille","lat":43.317075,"lon":5.377367,"is_reserved":false,"is_disabled":false,"rental_uris":{"android":"levelo://app?vid=41036cd4-fbd8-41c5-9bb2-ab37550118d4","ios":"levelo://app?vid=41036cd4-fbd8-41c5-9bb2-ab37550118d4"},"vehicle_type_id":"4","last_reported":1719414515,"current_range_meters":2800,"station_id":"ce4bgth2rcd13ifvqch0","pricing_plan_id":"cebpf4jnsgd1na2vs0mg"},{"bike_id":"a1dd199e-ac8a-4394-9c4a-334740d4831d","system_id":"levelo_inurba_marseille","lat":43.31665,"lon":5.37821,"is_reserved":false,"is_disabled":false,"rental_uris":{"android":"levelo://app?vid=a1dd199e-ac8a-4394-9c4a-334740d4831d","ios":"levelo://app?vid=a1dd199e-ac8a-4394-9c4a-334740d4831d"},"vehicle_type_id":"4","last_reported":1719414515,"current_range_meters":23600,"station_id":"","pricing_plan_id":"cebpf4jnsgd1na2vs0mg"},{"bike_id":"64f7e855-46ab-4577-bed9-da8cc40747f9","system_id":"levelo_inurba_marseille","lat":43.30317,"lon":5.36907,"is_reserved":false,"is_disabled":false,"rental_uris":{"android":"levelo://app?vid=64f7e855-46ab-4577-bed9-da8cc40747f9","ios":"levelo://app?vid=64f7e855-46ab-4577-bed9-da8cc40747f9"},"vehicle_type_id":"4","last_reported":1719414515,"current_range_meters":12400,"station_id":"ce4bgqh2rcd13ifvqc5g","pricing_plan_id":"cebpf4jnsgd1na2vs0mg"},{"bike_id":"475b2195-7601-4ad1-a506-c71d315d7d97","system_id":"levelo_inurba_marseille","lat":43.303046,"lon":5.368981,"is_reserved":false,"is_disabled":false,"rental_uris":{"android":"levelo://app?vid=475b2195-7601-4ad1-a506-c71d315d7d97","ios":"levelo://app?vid=475b2195-7601-4ad1-a506-c71d315d7d97"},"vehicle_type_id":"4","last_reported":1719414515,"current_range_meters":26400,"station_id":"ce4bgqh2rcd13ifvqc5g","pricing_plan_id":"cebpf4jnsgd1na2vs0mg"},{"bike_id":"6db2a6c5-5030-488f-ab01-78a16329d32f","system_id":"levelo_inurba_marseille","lat":43.315289,"lon":5.380349,"is_reserved":false,"is_disabled":false,"rental_uris":{"android":"levelo://app?vid=6db2a6c5-5030-488f-ab01-78a16329d32f","ios":"levelo://app?vid=6db2a6c5-5030-488f-ab01-78a16329d32f"},"vehicle_type_id":"4","last_reported":1719414515,"current_range_meters":10000,"station_id":"ce4bhsp2rcd13ifvqi50","pricing_plan_id":"cebpf4jnsgd1na2vs0mg"},{"bike_id":"52bb56b6-1e4f-403b-b3da-04bf4488906a","system_id":"levelo_inurba_marseille","lat":43.315289,"lon":5.380349,"is_reserved":false,"is_disabled":false,"rental_uris":{"android":"levelo://app?vid=52bb56b6-1e4f-403b-b3da-04bf4488906a","ios":"levelo://app?vid=52bb56b6-1e4f-403b-b3da-04bf4488906a"},"vehicle_type_id":"4","last_reported":1719414515,"current_range_meters":25600,"station_id":"ce4bhsp2rcd13ifvqi50","pricing_plan_id":"cebpf4jnsgd1na2vs0mg"},{"bike_id":"cf47c364-2355-4bb5-aac0-f768d594540f","system_id":"levelo_inurba_marseille","lat":43.315289,"lon":5.380349,"is_reserved":false,"is_disabled":false,"rental_uris":{"android":"levelo://app?vid=cf47c364-2355-4bb5-aac0-f768d594540f","ios":"levelo://app?vid=cf47c364-2355-4bb5-aac0-f768d594540f"},"vehicle_type_id":"4","last_reported":1719414515,"current_range_meters":12800,"station_id":"ce4bhsp2rcd13ifvqi50","pricing_plan_id":"cebpf4jnsgd1na2vs0mg"},{"bike_id":"4c70ad5e-1b1a-4e4d-b45b-39263f74cec6","system_id":"levelo_inurba_marseille","lat":43.301939,"lon":5.366286,"is_reserved":false,"is_disabled":false,"rental_uris":{"android":"levelo://app?vid=4c70ad5e-1b1a-4e4d-b45b-39263f74cec6","ios":"levelo://app?vid=4c70ad5e-1b1a-4e4d-b45b-39263f74cec6"},"vehicle_type_id":"4","last_reported":1719414515,"current_range_meters":22400,"station_id":"ce4bgrh2rcd13ifvqc8g","pricing_plan_id":"cebpf4jnsgd1na2vs0mg"},{"bike_id":"59805317-4506-4c4c-89d2-0b9827eb22b5","system_id":"levelo_inurba_marseille","lat":43.308012,"lon":5.381511,"is_reserved":false,"is_disabled":false,"rental_uris":{"android":"levelo://app?vid=59805317-4506-4c4c-89d2-0b9827eb22b5","ios":"levelo://app?vid=59805317-4506-4c4c-89d2-0b9827eb22b5"},"vehicle_type_id":"4","last_reported":1719414515,"current_range_meters":24800,"station_id":"ce4bgt12rcd13ifvqce0","pricing_plan_id":"cebpf4jnsgd1na2vs0mg"},{"bike_id":"37dabac8-91d8-4111-abe4-50481d47123b","system_id":"levelo_inurba_marseille","lat":43.308012,"lon":5.381511,"is_reserved":false,"is_disabled":false,"rental_uris":{"android":"levelo://app?vid=37dabac8-91d8-4111-abe4-50481d47123b","ios":"levelo://app?vid=37dabac8-91d8-4111-abe4-50481d47123b"},"vehicle_type_id":"4","last_reported":1719414515,"current_range_meters":22400,"station_id":"ce4bgt12rcd13ifvqce0","pricing_plan_id":"cebpf4jnsgd1na2vs0mg"},{"bike_id":"84460d33-ec0b-4334-a2c1-f0b115f9cd25","system_id":"levelo_inurba_marseille","lat":43.304606,"lon":5.379026,"is_reserved":false,"is_disabled":false,"rental_uris":{"android":"levelo://app?vid=84460d33-ec0b-4334-a2c1-f0b115f9cd25","ios":"levelo://app?vid=84460d33-ec0b-4334-a2c1-f0b115f9cd25"},"vehicle_type_id":"4","last_reported":1719414515,"current_range_meters":0,"station_id":"ce4bgup2rcd13ifvqcn0","pricing_plan_id":"cebpf4jnsgd1na2vs0mg"},{"bike_id":"59468a49-ff5a-4083-8c91-005f7a15a8d4","system_id":"levelo_inurba_marseille","lat":43.324771,"lon":5.36557,"is_reserved":false,"is_disabled":false,"rental_uris":{"android":"levelo://app?vid=59468a49-ff5a-4083-8c91-005f7a15a8d4","ios":"levelo://app?vid=59468a49-ff5a-4083-8c91-005f7a15a8d4"},"vehicle_type_id":"4","last_reported":1719414515,"current_range_meters":14400,"station_id":"ce4bhs12rcd13ifvqhvg","pricing_plan_id":"cebpf4jnsgd1na2vs0mg"},{"bike_id":"c8170bb6-a2e2-4e02-b09e-8929f05ef0b6","system_id":"levelo_inurba_marseille","lat":43.324771,"lon":5.36557,"is_reserved":false,"is_disabled":false,"rental_uris":{"android":"levelo://app?vid=c8170bb6-a2e2-4e02-b09e-8929f05ef0b6","ios":"levelo://app?vid=c8170bb6-a2e2-4e02-b09e-8929f05ef0b6"},"vehicle_type_id":"4","last_reported":1719414515,"current_range_meters":2000,"station_id":"ce4bhs12rcd13ifvqhvg","pricing_plan_id":"cebpf4jnsgd1na2vs0mg"},{"bike_id":"cd7a8215-677a-437f-b7f3-43bdffbcf350","system_id":"levelo_inurba_marseille","lat":43.324771,"lon":5.36557,"is_reserved":false,"is_disabled":false,"rental_uris":{"android":"levelo://app?vid=cd7a8215-677a-437f-b7f3-43bdffbcf350","ios":"levelo://app?vid=cd7a8215-677a-437f-b7f3-43bdffbcf350"},"vehicle_type_id":"4","last_reported":1719414515,"current_range_meters":8400,"station_id":"ce4bhs12rcd13ifvqhvg","pricing_plan_id":"cebpf4jnsgd1na2vs0mg"},{"bike_id":"b5775679-4ca6-4cce-8295-031cf4e3a3d5","system_id":"levelo_inurba_marseille","lat":43.324771,"lon":5.36557,"is_reserved":false,"is_disabled":false,"rental_uris":{"android":"levelo://app?vid=b5775679-4ca6-4cce-8295-031cf4e3a3d5","ios":"levelo://app?vid=b5775679-4ca6-4cce-8295-031cf4e3a3d5"},"vehicle_type_id":"4","last_reported":1719414515,"current_range_meters":20800,"station_id":"ce4bhs12rcd13ifvqhvg","pricing_plan_id":"cebpf4jnsgd1na2vs0mg"},{"bike_id":"9545c3a7-fcef-49d2-bc7d-f475a8f46799","system_id":"levelo_inurba_marseille","lat":43.324855,"lon":5.36564,"is_reserved":false,"is_disabled":false,"rental_uris":{"android":"levelo://app?vid=9545c3a7-fcef-49d2-bc7d-f475a8f46799","ios":"levelo://app?vid=9545c3a7-fcef-49d2-bc7d-f475a8f46799"},"vehicle_type_id":"4","last_reported":1719414515,"current_range_meters":6400,"station_id":"ce4bhs12rcd13ifvqhvg","pricing_plan_id":"cebpf4jnsgd1na2vs0mg"},{"bike_id":"72bafb86-d841-44a2-ac16-6d9373c7a7ae","system_id":"levelo_inurba_marseille","lat":43.31063,"lon":5.38338,"is_reserved":false,"is_disabled":false,"rental_uris":{"android":"levelo://app?vid=72bafb86-d841-44a2-ac16-6d9373c7a7ae","ios":"levelo://app?vid=72bafb86-d841-44a2-ac16-6d9373c7a7ae"},"vehicle_type_id":"4","last_reported":1719414515,"current_range_meters":0,"station_id":"ce4bgv92rcd13ifvqcr0","pricing_plan_id":"cebpf4jnsgd1na2vs0mg"},{"bike_id":"7d29847f-daf0-47a0-bcbd-0e931d171891","system_id":"levelo_inurba_marseille","lat":43.324771,"lon":5.36557,"is_reserved":false,"is_disabled":false,"rental_uris":{"android":"levelo://app?vid=7d29847f-daf0-47a0-bcbd-0e931d171891","ios":"levelo://app?vid=7d29847f-daf0-47a0-bcbd-0e931d171891"},"vehicle_type_id":"4","last_reported":1719414515,"current_range_meters":20800,"station_id":"ce4bhs12rcd13ifvqhvg","pricing_plan_id":"cebpf4jnsgd1na2vs0mg"},{"bike_id":"2b7ed28a-d97b-4525-90f8-e6aba18e3b5e","system_id":"levelo_inurba_marseille","lat":43.31993,"lon":5.38157,"is_reserved":false,"is_disabled":false,"rental_uris":{"android":"levelo://app?vid=2b7ed28a-d97b-4525-90f8-e6aba18e3b5e","ios":"levelo://app?vid=2b7ed28a-d97b-4525-90f8-e6aba18e3b5e"},"vehicle_type_id":"4","last_reported":1719414515,"current_range_meters":14400,"station_id":"ce4bhr12rcd13ifvqhpg","pricing_plan_id":"cebpf4jnsgd1na2vs0mg"},{"bike_id":"935297c3-826f-44e2-9df5-4a1587892834","system_id":"levelo_inurba_marseille","lat":43.303201,"lon":5.378776,"is_reserved":false,"is_disabled":false,"rental_uris":{"android":"levelo://app?vid=935297c3-826f-44e2-9df5-4a1587892834","ios":"levelo://app?vid=935297c3-826f-44e2-9df5-4a1587892834"},"vehicle_type_id":"4","last_reported":1719414515,"current_range_meters":25200,"station_id":"","pricing_plan_id":"cebpf4jnsgd1na2vs0mg"},{"bike_id":"2bc3b98e-46da-41ee-ba40-7e40bc757358","system_id":"levelo_inurba_marseille","lat":43.298433,"lon":5.362774,"is_reserved":false,"is_disabled":false,"rental_uris":{"android":"levelo://app?vid=2bc3b98e-46da-41ee-ba40-7e40bc757358","ios":"levelo://app?vid=2bc3b98e-46da-41ee-ba40-7e40bc757358"},"vehicle_type_id":"4","last_reported":1719414515,"current_range_meters":6000,"station_id":"ce4bgpp2rcd13ifvqc3g","pricing_plan_id":"cebpf4jnsgd1na2vs0mg"},{"bike_id":"574ef041-0570-4949-8413-63965b806e9d","system_id":"levelo_inurba_marseille","lat":43.305364,"lon":5.384119,"is_reserved":false,"is_disabled":false,"rental_uris":{"android":"levelo://app?vid=574ef041-0570-4949-8413-63965b806e9d","ios":"levelo://app?vid=574ef041-0570-4949-8413-63965b806e9d"},"vehicle_type_id":"4","last_reported":1719414515,"current_range_meters":18800,"station_id":"ce4bgg92rcd13ifvqb30","pricing_plan_id":"cebpf4jnsgd1na2vs0mg"},{"bike_id":"b4e90371-b51b-4bb3-9f26-7d543acd8573","system_id":"levelo_inurba_marseille","lat":43.30935,"lon":5.38652,"is_reserved":false,"is_disabled":false,"rental_uris":{"android":"levelo://app?vid=b4e90371-b51b-4bb3-9f26-7d543acd8573","ios":"levelo://app?vid=b4e90371-b51b-4bb3-9f26-7d543acd8573"},"vehicle_type_id":"4","last_reported":1719414515,"current_range_meters":20000,"station_id":"","pricing_plan_id":"cebpf4jnsgd1na2vs0mg"},{"bike_id":"254ee690-bda6-42fb-ab28-10bd5ca82b6f","system_id":"levelo_inurba_marseille","lat":43.305364,"lon":5.384119,"is_reserved":false,"is_disabled":false,"rental_uris":{"android":"levelo://app?vid=254ee690-bda6-42fb-ab28-10bd5ca82b6f","ios":"levelo://app?vid=254ee690-bda6-42fb-ab28-10bd5ca82b6f"},"vehicle_type_id":"4","last_reported":1719414515,"current_range_meters":22800,"station_id":"ce4bgg92rcd13ifvqb30","pricing_plan_id":"cebpf4jnsgd1na2vs0mg"},{"bike_id":"9cb3f3cb-5da3-43b1-956d-83130fd3f6ad","system_id":"levelo_inurba_marseille","lat":43.298433,"lon":5.362774,"is_reserved":false,"is_disabled":false,"rental_uris":{"android":"levelo://app?vid=9cb3f3cb-5da3-43b1-956d-83130fd3f6ad","ios":"levelo://app?vid=9cb3f3cb-5da3-43b1-956d-83130fd3f6ad"},"vehicle_type_id":"4","last_reported":1719414515,"current_range_meters":0,"station_id":"ce4bgpp2rcd13ifvqc3g","pricing_plan_id":"cebpf4jnsgd1na2vs0mg"},{"bike_id":"9a485aad-9c9e-4fed-a29d-b1d6b4f4fa24","system_id":"levelo_inurba_marseille","lat":43.31167,"lon":5.38717,"is_reserved":false,"is_disabled":false,"rental_uris":{"android":"levelo://app?vid=9a485aad-9c9e-4fed-a29d-b1d6b4f4fa24","ios":"levelo://app?vid=9a485aad-9c9e-4fed-a29d-b1d6b4f4fa24"},"vehicle_type_id":"4","last_reported":1719414515,"current_range_meters":6400,"station_id":"ce4bgv12rcd13ifvqcp0","pricing_plan_id":"cebpf4jnsgd1na2vs0mg"},{"bike_id":"32d54977-55fb-4c89-9d2f-a8a5196a0898","system_id":"levelo_inurba_marseille","lat":43.311722,"lon":5.387247,"is_reserved":false,"is_disabled":false,"rental_uris":{"android":"levelo://app?vid=32d54977-55fb-4c89-9d2f-a8a5196a0898","ios":"levelo://app?vid=32d54977-55fb-4c89-9d2f-a8a5196a0898"},"vehicle_type_id":"4","last_reported":1719414515,"current_range_meters":0,"station_id":"ce4bgv12rcd13ifvqcp0","pricing_plan_id":"cebpf4jnsgd1na2vs0mg"},{"bike_id":"4a13c9c8-f853-46e3-8d57-8e96a74a4f8a","system_id":"levelo_inurba_marseille","lat":43.311754,"lon":5.387202,"is_reserved":false,"is_disabled":false,"rental_uris":{"android":"levelo://app?vid=4a13c9c8-f853-46e3-8d57-8e96a74a4f8a","ios":"levelo://app?vid=4a13c9c8-f853-46e3-8d57-8e96a74a4f8a"},"vehicle_type_id":"4","last_reported":1719414515,"current_range_meters":7600,"station_id":"ce4bgv12rcd13ifvqcp0","pricing_plan_id":"cebpf4jnsgd1na2vs0mg"},{"bike_id":"4c19b1e9-353c-4af2-932b-46ae929f259a","system_id":"levelo_inurba_marseille","lat":43.311722,"lon":5.387247,"is_reserved":false,"is_disabled":false,"rental_uris":{"android":"levelo://app?vid=4c19b1e9-353c-4af2-932b-46ae929f259a","ios":"levelo://app?vid=4c19b1e9-353c-4af2-932b-46ae929f259a"},"vehicle_type_id":"4","last_reported":1719414515,"current_range_meters":28400,"station_id":"ce4bgv12rcd13ifvqcp0","pricing_plan_id":"cebpf4jnsgd1na2vs0mg"},{"bike_id":"aa95e71e-927a-4edd-80b1-eff4c531dc41","system_id":"levelo_inurba_marseille","lat":43.31166,"lon":5.38723,"is_reserved":false,"is_disabled":false,"rental_uris":{"android":"levelo://app?vid=aa95e71e-927a-4edd-80b1-eff4c531dc41","ios":"levelo://app?vid=aa95e71e-927a-4edd-80b1-eff4c531dc41"},"vehicle_type_id":"4","last_reported":1719414515,"current_range_meters":27600,"station_id":"ce4bgv12rcd13ifvqcp0","pricing_plan_id":"cebpf4jnsgd1na2vs0mg"},{"bike_id":"8a3dee68-befb-495c-8c53-779d24084da1","system_id":"levelo_inurba_marseille","lat":43.297079,"lon":5.365524,"is_reserved":false,"is_disabled":false,"rental_uris":{"android":"levelo://app?vid=8a3dee68-befb-495c-8c53-779d24084da1","ios":"levelo://app?vid=8a3dee68-befb-495c-8c53-779d24084da1"},"vehicle_type_id":"4","last_reported":1719414515,"current_range_meters":22400,"station_id":"","pricing_plan_id":"cebpf4jnsgd1na2vs0mg"},{"bike_id":"bcfeee5e-e88a-45f0-bc38-0324d6034e2d","system_id":"levelo_inurba_marseille","lat":43.29873,"lon":5.37666,"is_reserved":false,"is_disabled":false,"rental_uris":{"android":"levelo://app?vid=bcfeee5e-e88a-45f0-bc38-0324d6034e2d","ios":"levelo://app?vid=bcfeee5e-e88a-45f0-bc38-0324d6034e2d"},"vehicle_type_id":"4","last_reported":1719414515,"current_range_meters":0,"station_id":"","pricing_plan_id":"cebpf4jnsgd1na2vs0mg"},{"bike_id":"18af5eea-8b09-49f3-a8fc-f6ecb650ba0d","system_id":"levelo_inurba_marseille","lat":43.313291,"lon":5.396838,"is_reserved":false,"is_disabled":false,"rental_uris":{"android":"levelo://app?vid=18af5eea-8b09-49f3-a8fc-f6ecb650ba0d","ios":"levelo://app?vid=18af5eea-8b09-49f3-a8fc-f6ecb650ba0d"},"vehicle_type_id":"4","last_reported":1719414515,"current_range_meters":20400,"station_id":"ce4bgvp2rcd13ifvqcu0","pricing_plan_id":"cebpf4jnsgd1na2vs0mg"},{"bike_id":"10d3f7e6-19cd-4626-a4ef-62aa7bcc98f2","system_id":"levelo_inurba_marseille","lat":43.296131,"lon":5.370773,"is_reserved":false,"is_disabled":false,"rental_uris":{"android":"levelo://app?vid=10d3f7e6-19cd-4626-a4ef-62aa7bcc98f2","ios":"levelo://app?vid=10d3f7e6-19cd-4626-a4ef-62aa7bcc98f2"},"vehicle_type_id":"4","last_reported":1719414515,"current_range_meters":6400,"station_id":"ce4bgnh2rcd13ifvqc0g","pricing_plan_id":"cebpf4jnsgd1na2vs0mg"},{"bike_id":"a4a069bf-286d-4813-966e-fe86882445fd","system_id":"levelo_inurba_marseille","lat":43.317557,"lon":5.390173,"is_reserved":false,"is_disabled":false,"rental_uris":{"android":"levelo://app?vid=a4a069bf-286d-4813-966e-fe86882445fd","ios":"levelo://app?vid=a4a069bf-286d-4813-966e-fe86882445fd"},"vehicle_type_id":"4","last_reported":1719414515,"current_range_meters":11200,"station_id":"ce4bhqp2rcd13ifvqhng","pricing_plan_id":"cebpf4jnsgd1na2vs0mg"},{"bike_id":"a2d87d2b-83b2-4370-86bf-6142920ff509","system_id":"levelo_inurba_marseille","lat":43.295748,"lon":5.37522,"is_reserved":false,"is_disabled":false,"rental_uris":{"android":"levelo://app?vid=a2d87d2b-83b2-4370-86bf-6142920ff509","ios":"levelo://app?vid=a2d87d2b-83b2-4370-86bf-6142920ff509"},"vehicle_type_id":"4","last_reported":1719414515,"current_range_meters":13200,"station_id":"ce4bgh92rcd13ifvqb50","pricing_plan_id":"cebpf4jnsgd1na2vs0mg"},{"bike_id":"6db01f68-0c56-409c-a0fb-0991806bf89e","system_id":"levelo_inurba_marseille","lat":43.295748,"lon":5.37522,"is_reserved":false,"is_disabled":false,"rental_uris":{"android":"levelo://app?vid=6db01f68-0c56-409c-a0fb-0991806bf89e","ios":"levelo://app?vid=6db01f68-0c56-409c-a0fb-0991806bf89e"},"vehicle_type_id":"4","last_reported":1719414515,"current_range_meters":4400,"station_id":"ce4bgh92rcd13ifvqb50","pricing_plan_id":"cebpf4jnsgd1na2vs0mg"},{"bike_id":"95afc6e5-63dd-443c-a314-8a2f35255abc","system_id":"levelo_inurba_marseille","lat":43.295748,"lon":5.37522,"is_reserved":false,"is_disabled":false,"rental_uris":{"android":"levelo://app?vid=95afc6e5-63dd-443c-a314-8a2f35255abc","ios":"levelo://app?vid=95afc6e5-63dd-443c-a314-8a2f35255abc"},"vehicle_type_id":"4","last_reported":1719414515,"current_range_meters":5200,"station_id":"ce4bgh92rcd13ifvqb50","pricing_plan_id":"cebpf4jnsgd1na2vs0mg"},{"bike_id":"3e46edf0-505d-4016-afa5-90dfc0887988","system_id":"levelo_inurba_marseille","lat":43.295748,"lon":5.37522,"is_reserved":false,"is_disabled":false,"rental_uris":{"android":"levelo://app?vid=3e46edf0-505d-4016-afa5-90dfc0887988","ios":"levelo://app?vid=3e46edf0-505d-4016-afa5-90dfc0887988"},"vehicle_type_id":"4","last_reported":1719414515,"current_range_meters":15200,"station_id":"ce4bgh92rcd13ifvqb50","pricing_plan_id":"cebpf4jnsgd1na2vs0mg"},{"bike_id":"6a8d408c-97de-43f6-b8de-51e25f70aa1b","system_id":"levelo_inurba_marseille","lat":43.304278,"lon":5.388868,"is_reserved":false,"is_disabled":false,"rental_uris":{"android":"levelo://app?vid=6a8d408c-97de-43f6-b8de-51e25f70aa1b","ios":"levelo://app?vid=6a8d408c-97de-43f6-b8de-51e25f70aa1b"},"vehicle_type_id":"4","last_reported":1719414515,"current_range_meters":0,"station_id":"ce4bgk12rcd13ifvqbi0","pricing_plan_id":"cebpf4jnsgd1na2vs0mg"},{"bike_id":"54f0ed8e-7741-4f8b-a3a7-8bc24863ab58","system_id":"levelo_inurba_marseille","lat":43.295279,"lon":5.375048,"is_reserved":false,"is_disabled":false,"rental_uris":{"android":"levelo://app?vid=54f0ed8e-7741-4f8b-a3a7-8bc24863ab58","ios":"levelo://app?vid=54f0ed8e-7741-4f8b-a3a7-8bc24863ab58"},"vehicle_type_id":"4","last_reported":1719414515,"current_range_meters":24800,"station_id":"ce4bgkp2rcd13ifvqbmg","pricing_plan_id":"cebpf4jnsgd1na2vs0mg"},{"bike_id":"93ba045c-e486-40b2-9f9a-1624f71b3aeb","system_id":"levelo_inurba_marseille","lat":43.29833,"lon":5.38319,"is_reserved":false,"is_disabled":false,"rental_uris":{"android":"levelo://app?vid=93ba045c-e486-40b2-9f9a-1624f71b3aeb","ios":"levelo://app?vid=93ba045c-e486-40b2-9f9a-1624f71b3aeb"},"vehicle_type_id":"4","last_reported":1719414515,"current_range_meters":20800,"station_id":"","pricing_plan_id":"cebpf4jnsgd1na2vs0mg"},{"bike_id":"920cdd1b-075c-4697-8260-d4b5fe7393c8","system_id":"levelo_inurba_marseille","lat":43.295279,"lon":5.375048,"is_reserved":false,"is_disabled":false,"rental_uris":{"android":"levelo://app?vid=920cdd1b-075c-4697-8260-d4b5fe7393c8","ios":"levelo://app?vid=920cdd1b-075c-4697-8260-d4b5fe7393c8"},"vehicle_type_id":"4","last_reported":1719414515,"current_range_meters":14800,"station_id":"ce4bgkp2rcd13ifvqbmg","pricing_plan_id":"cebpf4jnsgd1na2vs0mg"},{"bike_id":"60810d91-cec0-4f9a-aa93-e75de280bb0e","system_id":"levelo_inurba_marseille","lat":43.32367,"lon":5.388836,"is_reserved":false,"is_disabled":false,"rental_uris":{"android":"levelo://app?vid=60810d91-cec0-4f9a-aa93-e75de280bb0e","ios":"levelo://app?vid=60810d91-cec0-4f9a-aa93-e75de280bb0e"},"vehicle_type_id":"4","last_reported":1719414515,"current_range_meters":0,"station_id":"ce4bhqp2rcd13ifvqhog","pricing_plan_id":"cebpf4jnsgd1na2vs0mg"},{"bike_id":"8c84994e-ea55-4683-98fa-835bb0a5bc9f","system_id":"levelo_inurba_marseille","lat":43.32367,"lon":5.388836,"is_reserved":false,"is_disabled":false,"rental_uris":{"android":"levelo://app?vid=8c84994e-ea55-4683-98fa-835bb0a5bc9f","ios":"levelo://app?vid=8c84994e-ea55-4683-98fa-835bb0a5bc9f"},"vehicle_type_id":"4","last_reported":1719414515,"current_range_meters":16000,"station_id":"ce4bhqp2rcd13ifvqhog","pricing_plan_id":"cebpf4jnsgd1na2vs0mg"},{"bike_id":"8d8e754e-1b24-4648-99a9-a2e9b5603519","system_id":"levelo_inurba_marseille","lat":43.29595,"lon":5.38106,"is_reserved":false,"is_disabled":false,"rental_uris":{"android":"levelo://app?vid=8d8e754e-1b24-4648-99a9-a2e9b5603519","ios":"levelo://app?vid=8d8e754e-1b24-4648-99a9-a2e9b5603519"},"vehicle_type_id":"4","last_reported":1719414515,"current_range_meters":4800,"station_id":"ce4bgl12rcd13ifvqbo0","pricing_plan_id":"cebpf4jnsgd1na2vs0mg"},{"bike_id":"26a54864-96cf-43fe-a0c2-ca0efb5cd5a6","system_id":"levelo_inurba_marseille","lat":43.293259,"lon":5.371586,"is_reserved":false,"is_disabled":false,"rental_uris":{"android":"levelo://app?vid=26a54864-96cf-43fe-a0c2-ca0efb5cd5a6","ios":"levelo://app?vid=26a54864-96cf-43fe-a0c2-ca0efb5cd5a6"},"vehicle_type_id":"4","last_reported":1719414515,"current_range_meters":26000,"station_id":"ce4bgh92rcd13ifvqb40","pricing_plan_id":"cebpf4jnsgd1na2vs0mg"},{"bike_id":"05c27933-6c98-4790-86ca-4fbbd19b9692","system_id":"levelo_inurba_marseille","lat":43.29306,"lon":5.37179,"is_reserved":false,"is_disabled":false,"rental_uris":{"android":"levelo://app?vid=05c27933-6c98-4790-86ca-4fbbd19b9692","ios":"levelo://app?vid=05c27933-6c98-4790-86ca-4fbbd19b9692"},"vehicle_type_id":"4","last_reported":1719414515,"current_range_meters":0,"station_id":"ce4bgh92rcd13ifvqb40","pricing_plan_id":"cebpf4jnsgd1na2vs0mg"},{"bike_id":"ba3c907f-7818-40ea-8337-eae78e9e16f0","system_id":"levelo_inurba_marseille","lat":43.293009,"lon":5.374584,"is_reserved":false,"is_disabled":false,"rental_uris":{"android":"levelo://app?vid=ba3c907f-7818-40ea-8337-eae78e9e16f0","ios":"levelo://app?vid=ba3c907f-7818-40ea-8337-eae78e9e16f0"},"vehicle_type_id":"4","last_reported":1719414515,"current_range_meters":27600,"station_id":"ce4bgi12rcd13ifvqb70","pricing_plan_id":"cebpf4jnsgd1na2vs0mg"},{"bike_id":"b85c4452-6f1e-47e8-90e2-0ded40972ace","system_id":"levelo_inurba_marseille","lat":43.293009,"lon":5.374584,"is_reserved":false,"is_disabled":false,"rental_uris":{"android":"levelo://app?vid=b85c4452-6f1e-47e8-90e2-0ded40972ace","ios":"levelo://app?vid=b85c4452-6f1e-47e8-90e2-0ded40972ace"},"vehicle_type_id":"4","last_reported":1719414515,"current_range_meters":0,"station_id":"ce4bgi12rcd13ifvqb70","pricing_plan_id":"cebpf4jnsgd1na2vs0mg"},{"bike_id":"1bab6021-68cf-42a9-8948-904c6cc89dae","system_id":"levelo_inurba_marseille","lat":43.292311,"lon":5.360731,"is_reserved":false,"is_disabled":false,"rental_uris":{"android":"levelo://app?vid=1bab6021-68cf-42a9-8948-904c6cc89dae","ios":"levelo://app?vid=1bab6021-68cf-42a9-8948-904c6cc89dae"},"vehicle_type_id":"4","last_reported":1719414515,"current_range_meters":12400,"station_id":"ce4bhbh2rcd13ifvqeqg","pricing_plan_id":"cebpf4jnsgd1na2vs0mg"},{"bike_id":"eda5b5a9-72b2-4735-9095-c8e739a65af9","system_id":"levelo_inurba_marseille","lat":43.292311,"lon":5.360731,"is_reserved":false,"is_disabled":false,"rental_uris":{"android":"levelo://app?vid=eda5b5a9-72b2-4735-9095-c8e739a65af9","ios":"levelo://app?vid=eda5b5a9-72b2-4735-9095-c8e739a65af9"},"vehicle_type_id":"4","last_reported":1719414515,"current_range_meters":10800,"station_id":"ce4bhbh2rcd13ifvqeqg","pricing_plan_id":"cebpf4jnsgd1na2vs0mg"},{"bike_id":"8bc68be2-303d-475e-b8d6-9e1e0acca21b","system_id":"levelo_inurba_marseille","lat":43.29697,"lon":5.386427,"is_reserved":false,"is_disabled":false,"rental_uris":{"android":"levelo://app?vid=8bc68be2-303d-475e-b8d6-9e1e0acca21b","ios":"levelo://app?vid=8bc68be2-303d-475e-b8d6-9e1e0acca21b"},"vehicle_type_id":"4","last_reported":1719414515,"current_range_meters":7200,"station_id":"","pricing_plan_id":"cebpf4jnsgd1na2vs0mg"},{"bike_id":"eacf13b5-9706-4465-966d-321636bcb2e0","system_id":"levelo_inurba_marseille","lat":43.298764,"lon":5.388973,"is_reserved":false,"is_disabled":false,"rental_uris":{"android":"levelo://app?vid=eacf13b5-9706-4465-966d-321636bcb2e0","ios":"levelo://app?vid=eacf13b5-9706-4465-966d-321636bcb2e0"},"vehicle_type_id":"4","last_reported":1719414515,"current_range_meters":20000,"station_id":"ce4bh392rcd13ifvqdl0","pricing_plan_id":"cebpf4jnsgd1na2vs0mg"},{"bike_id":"96b0b0b6-063d-4f44-80d6-7190e0f028bf","system_id":"levelo_inurba_marseille","lat":43.298764,"lon":5.388973,"is_reserved":false,"is_disabled":false,"rental_uris":{"android":"levelo://app?vid=96b0b0b6-063d-4f44-80d6-7190e0f028bf","ios":"levelo://app?vid=96b0b0b6-063d-4f44-80d6-7190e0f028bf"},"vehicle_type_id":"4","last_reported":1719414515,"current_range_meters":16000,"station_id":"ce4bh392rcd13ifvqdl0","pricing_plan_id":"cebpf4jnsgd1na2vs0mg"},{"bike_id":"6bcf6816-35a1-4709-84bf-67b1e0044a3b","system_id":"levelo_inurba_marseille","lat":43.291675,"lon":5.371583,"is_reserved":false,"is_disabled":false,"rental_uris":{"android":"levelo://app?vid=6bcf6816-35a1-4709-84bf-67b1e0044a3b","ios":"levelo://app?vid=6bcf6816-35a1-4709-84bf-67b1e0044a3b"},"vehicle_type_id":"4","last_reported":1719414515,"current_range_meters":400,"station_id":"ce4bha92rcd13ifvqeh0","pricing_plan_id":"cebpf4jnsgd1na2vs0mg"},{"bike_id":"3530066b-c0c0-427d-9743-778a435454e9","system_id":"levelo_inurba_marseille","lat":43.313291,"lon":5.396838,"is_reserved":false,"is_disabled":false,"rental_uris":{"android":"levelo://app?vid=3530066b-c0c0-427d-9743-778a435454e9","ios":"levelo://app?vid=3530066b-c0c0-427d-9743-778a435454e9"},"vehicle_type_id":"4","last_reported":1719414515,"current_range_meters":30800,"station_id":"ce4bgvp2rcd13ifvqcu0","pricing_plan_id":"cebpf4jnsgd1na2vs0mg"},{"bike_id":"1b315a56-a0f7-4251-8595-393195dbc722","system_id":"levelo_inurba_marseille","lat":43.313291,"lon":5.396838,"is_reserved":false,"is_disabled":false,"rental_uris":{"android":"levelo://app?vid=1b315a56-a0f7-4251-8595-393195dbc722","ios":"levelo://app?vid=1b315a56-a0f7-4251-8595-393195dbc722"},"vehicle_type_id":"4","last_reported":1719414515,"current_range_meters":31200,"station_id":"ce4bgvp2rcd13ifvqcu0","pricing_plan_id":"cebpf4jnsgd1na2vs0mg"},{"bike_id":"6621ddb4-788a-4365-945a-8898d7698991","system_id":"levelo_inurba_marseille","lat":43.313291,"lon":5.396838,"is_reserved":false,"is_disabled":false,"rental_uris":{"android":"levelo://app?vid=6621ddb4-788a-4365-945a-8898d7698991","ios":"levelo://app?vid=6621ddb4-788a-4365-945a-8898d7698991"},"vehicle_type_id":"4","last_reported":1719414515,"current_range_meters":22800,"station_id":"ce4bgvp2rcd13ifvqcu0","pricing_plan_id":"cebpf4jnsgd1na2vs0mg"},{"bike_id":"6b0214fb-536f-445f-97f3-1f12995f1558","system_id":"levelo_inurba_marseille","lat":43.313291,"lon":5.396838,"is_reserved":false,"is_disabled":false,"rental_uris":{"android":"levelo://app?vid=6b0214fb-536f-445f-97f3-1f12995f1558","ios":"levelo://app?vid=6b0214fb-536f-445f-97f3-1f12995f1558"},"vehicle_type_id":"4","last_reported":1719414515,"current_range_meters":12400,"station_id":"ce4bgvp2rcd13ifvqcu0","pricing_plan_id":"cebpf4jnsgd1na2vs0mg"},{"bike_id":"3247ac35-c17b-4b51-a5dc-c37e6ff3d28e","system_id":"levelo_inurba_marseille","lat":43.309038,"lon":5.396546,"is_reserved":false,"is_disabled":false,"rental_uris":{"android":"levelo://app?vid=3247ac35-c17b-4b51-a5dc-c37e6ff3d28e","ios":"levelo://app?vid=3247ac35-c17b-4b51-a5dc-c37e6ff3d28e"},"vehicle_type_id":"4","last_reported":1719414515,"current_range_meters":22800,"station_id":"ce4bh012rcd13ifvqcv0","pricing_plan_id":"cebpf4jnsgd1na2vs0mg"},{"bike_id":"65c51a81-4f42-4a14-9277-665d19f7c440","system_id":"levelo_inurba_marseille","lat":43.313291,"lon":5.396838,"is_reserved":false,"is_disabled":false,"rental_uris":{"android":"levelo://app?vid=65c51a81-4f42-4a14-9277-665d19f7c440","ios":"levelo://app?vid=65c51a81-4f42-4a14-9277-665d19f7c440"},"vehicle_type_id":"4","last_reported":1719414515,"current_range_meters":29600,"station_id":"ce4bgvp2rcd13ifvqcu0","pricing_plan_id":"cebpf4jnsgd1na2vs0mg"},{"bike_id":"9e0aec6a-8a0c-4236-89e0-70c158fe3ebc","system_id":"levelo_inurba_marseille","lat":43.313291,"lon":5.396838,"is_reserved":false,"is_disabled":false,"rental_uris":{"android":"levelo://app?vid=9e0aec6a-8a0c-4236-89e0-70c158fe3ebc","ios":"levelo://app?vid=9e0aec6a-8a0c-4236-89e0-70c158fe3ebc"},"vehicle_type_id":"4","last_reported":1719414515,"current_range_meters":14000,"station_id":"ce4bgvp2rcd13ifvqcu0","pricing_plan_id":"cebpf4jnsgd1na2vs0mg"},{"bike_id":"e2e38ac2-7d3d-4874-8ae3-03b6f1803f54","system_id":"levelo_inurba_marseille","lat":43.313291,"lon":5.396838,"is_reserved":false,"is_disabled":false,"rental_uris":{"android":"levelo://app?vid=e2e38ac2-7d3d-4874-8ae3-03b6f1803f54","ios":"levelo://app?vid=e2e38ac2-7d3d-4874-8ae3-03b6f1803f54"},"vehicle_type_id":"4","last_reported":1719414515,"current_range_meters":20400,"station_id":"ce4bgvp2rcd13ifvqcu0","pricing_plan_id":"cebpf4jnsgd1na2vs0mg"},{"bike_id":"c557ff76-d2ce-423e-a433-ba3713688927","system_id":"levelo_inurba_marseille","lat":43.313291,"lon":5.396838,"is_reserved":false,"is_disabled":false,"rental_uris":{"android":"levelo://app?vid=c557ff76-d2ce-423e-a433-ba3713688927","ios":"levelo://app?vid=c557ff76-d2ce-423e-a433-ba3713688927"},"vehicle_type_id":"4","last_reported":1719414515,"current_range_meters":27200,"station_id":"ce4bgvp2rcd13ifvqcu0","pricing_plan_id":"cebpf4jnsgd1na2vs0mg"},{"bike_id":"cbc54b44-448a-444f-9ccf-16d01a08fb3f","system_id":"levelo_inurba_marseille","lat":43.313291,"lon":5.396838,"is_reserved":false,"is_disabled":false,"rental_uris":{"android":"levelo://app?vid=cbc54b44-448a-444f-9ccf-16d01a08fb3f","ios":"levelo://app?vid=cbc54b44-448a-444f-9ccf-16d01a08fb3f"},"vehicle_type_id":"4","last_reported":1719414515,"current_range_meters":21200,"station_id":"ce4bgvp2rcd13ifvqcu0","pricing_plan_id":"cebpf4jnsgd1na2vs0mg"},{"bike_id":"7edc0eca-b1e6-4ac7-83a7-5b41e4cab1fd","system_id":"levelo_inurba_marseille","lat":43.313291,"lon":5.396838,"is_reserved":false,"is_disabled":false,"rental_uris":{"android":"levelo://app?vid=7edc0eca-b1e6-4ac7-83a7-5b41e4cab1fd","ios":"levelo://app?vid=7edc0eca-b1e6-4ac7-83a7-5b41e4cab1fd"},"vehicle_type_id":"4","last_reported":1719414515,"current_range_meters":16800,"station_id":"ce4bgvp2rcd13ifvqcu0","pricing_plan_id":"cebpf4jnsgd1na2vs0mg"},{"bike_id":"0bf1e263-edc2-4583-b40e-fcfd21b6d833","system_id":"levelo_inurba_marseille","lat":43.313291,"lon":5.396838,"is_reserved":false,"is_disabled":false,"rental_uris":{"android":"levelo://app?vid=0bf1e263-edc2-4583-b40e-fcfd21b6d833","ios":"levelo://app?vid=0bf1e263-edc2-4583-b40e-fcfd21b6d833"},"vehicle_type_id":"4","last_reported":1719414515,"current_range_meters":6000,"station_id":"ce4bgvp2rcd13ifvqcu0","pricing_plan_id":"cebpf4jnsgd1na2vs0mg"},{"bike_id":"ffe4bbe6-dae7-431e-9422-6a6d54fea34b","system_id":"levelo_inurba_marseille","lat":43.313291,"lon":5.396838,"is_reserved":false,"is_disabled":false,"rental_uris":{"android":"levelo://app?vid=ffe4bbe6-dae7-431e-9422-6a6d54fea34b","ios":"levelo://app?vid=ffe4bbe6-dae7-431e-9422-6a6d54fea34b"},"vehicle_type_id":"4","last_reported":1719414515,"current_range_meters":18000,"station_id":"ce4bgvp2rcd13ifvqcu0","pricing_plan_id":"cebpf4jnsgd1na2vs0mg"},{"bike_id":"333b7198-fda9-480e-80b1-b0bcb24a314d","system_id":"levelo_inurba_marseille","lat":43.313291,"lon":5.396838,"is_reserved":false,"is_disabled":false,"rental_uris":{"android":"levelo://app?vid=333b7198-fda9-480e-80b1-b0bcb24a314d","ios":"levelo://app?vid=333b7198-fda9-480e-80b1-b0bcb24a314d"},"vehicle_type_id":"4","last_reported":1719414515,"current_range_meters":11600,"station_id":"ce4bgvp2rcd13ifvqcu0","pricing_plan_id":"cebpf4jnsgd1na2vs0mg"},{"bike_id":"b5b9fd40-cffd-4420-8a6f-1acc9ba1c709","system_id":"levelo_inurba_marseille","lat":43.29529,"lon":5.385581,"is_reserved":false,"is_disabled":false,"rental_uris":{"android":"levelo://app?vid=b5b9fd40-cffd-4420-8a6f-1acc9ba1c709","ios":"levelo://app?vid=b5b9fd40-cffd-4420-8a6f-1acc9ba1c709"},"vehicle_type_id":"4","last_reported":1719414515,"current_range_meters":22800,"station_id":"ce4bgih2rcd13ifvqba0","pricing_plan_id":"cebpf4jnsgd1na2vs0mg"},{"bike_id":"73d32b64-ad00-4c17-a57a-04433eb0bb0f","system_id":"levelo_inurba_marseille","lat":43.29529,"lon":5.385581,"is_reserved":false,"is_disabled":false,"rental_uris":{"android":"levelo://app?vid=73d32b64-ad00-4c17-a57a-04433eb0bb0f","ios":"levelo://app?vid=73d32b64-ad00-4c17-a57a-04433eb0bb0f"},"vehicle_type_id":"4","last_reported":1719414515,"current_range_meters":24400,"station_id":"ce4bgih2rcd13ifvqba0","pricing_plan_id":"cebpf4jnsgd1na2vs0mg"},{"bike_id":"b4f44710-9821-4d6a-8f87-fa9753fa6e4c","system_id":"levelo_inurba_marseille","lat":43.29529,"lon":5.385581,"is_reserved":false,"is_disabled":false,"rental_uris":{"android":"levelo://app?vid=b4f44710-9821-4d6a-8f87-fa9753fa6e4c","ios":"levelo://app?vid=b4f44710-9821-4d6a-8f87-fa9753fa6e4c"},"vehicle_type_id":"4","last_reported":1719414515,"current_range_meters":8800,"station_id":"ce4bgih2rcd13ifvqba0","pricing_plan_id":"cebpf4jnsgd1na2vs0mg"},{"bike_id":"755d1234-46b9-402e-963d-39c01be7aaef","system_id":"levelo_inurba_marseille","lat":43.29529,"lon":5.385581,"is_reserved":false,"is_disabled":false,"rental_uris":{"android":"levelo://app?vid=755d1234-46b9-402e-963d-39c01be7aaef","ios":"levelo://app?vid=755d1234-46b9-402e-963d-39c01be7aaef"},"vehicle_type_id":"4","last_reported":1719414515,"current_range_meters":26000,"station_id":"ce4bgih2rcd13ifvqba0","pricing_plan_id":"cebpf4jnsgd1na2vs0mg"},{"bike_id":"b3068c07-5093-4be2-a522-96227a4ec325","system_id":"levelo_inurba_marseille","lat":43.29529,"lon":5.385581,"is_reserved":false,"is_disabled":false,"rental_uris":{"android":"levelo://app?vid=b3068c07-5093-4be2-a522-96227a4ec325","ios":"levelo://app?vid=b3068c07-5093-4be2-a522-96227a4ec325"},"vehicle_type_id":"4","last_reported":1719414515,"current_range_meters":2000,"station_id":"ce4bgih2rcd13ifvqba0","pricing_plan_id":"cebpf4jnsgd1na2vs0mg"},{"bike_id":"984a7463-3273-4c55-af97-978d712e02fe","system_id":"levelo_inurba_marseille","lat":43.290779,"lon":5.371482,"is_reserved":false,"is_disabled":false,"rental_uris":{"android":"levelo://app?vid=984a7463-3273-4c55-af97-978d712e02fe","ios":"levelo://app?vid=984a7463-3273-4c55-af97-978d712e02fe"},"vehicle_type_id":"4","last_reported":1719414515,"current_range_meters":4800,"station_id":"ce4bh5p2rcd13ifvqe4g","pricing_plan_id":"cebpf4jnsgd1na2vs0mg"},{"bike_id":"62dc073a-684d-4ad7-9a1a-5fee1eaf233d","system_id":"levelo_inurba_marseille","lat":43.30204,"lon":5.39467,"is_reserved":false,"is_disabled":false,"rental_uris":{"android":"levelo://app?vid=62dc073a-684d-4ad7-9a1a-5fee1eaf233d","ios":"levelo://app?vid=62dc073a-684d-4ad7-9a1a-5fee1eaf233d"},"vehicle_type_id":"4","last_reported":1719414515,"current_range_meters":0,"station_id":"ce4bh0p2rcd13ifvqd70","pricing_plan_id":"cebpf4jnsgd1na2vs0mg"},{"bike_id":"a411f7c8-2edf-41c7-ab4f-c81a6704881a","system_id":"levelo_inurba_marseille","lat":43.30203,"lon":5.39476,"is_reserved":false,"is_disabled":false,"rental_uris":{"android":"levelo://app?vid=a411f7c8-2edf-41c7-ab4f-c81a6704881a","ios":"levelo://app?vid=a411f7c8-2edf-41c7-ab4f-c81a6704881a"},"vehicle_type_id":"4","last_reported":1719414515,"current_range_meters":0,"station_id":"ce4bh0p2rcd13ifvqd70","pricing_plan_id":"cebpf4jnsgd1na2vs0mg"},{"bike_id":"81100fe6-3c62-4601-a904-b7521a539de8","system_id":"levelo_inurba_marseille","lat":43.290327,"lon":5.375711,"is_reserved":false,"is_disabled":false,"rental_uris":{"android":"levelo://app?vid=81100fe6-3c62-4601-a904-b7521a539de8","ios":"levelo://app?vid=81100fe6-3c62-4601-a904-b7521a539de8"},"vehicle_type_id":"4","last_reported":1719414515,"current_range_meters":0,"station_id":"ce4bh692rcd13ifvqe90","pricing_plan_id":"cebpf4jnsgd1na2vs0mg"},{"bike_id":"5dfd30d3-9840-458e-9848-ed5cb5d76f2a","system_id":"levelo_inurba_marseille","lat":43.294153,"lon":5.386305,"is_reserved":false,"is_disabled":false,"rental_uris":{"android":"levelo://app?vid=5dfd30d3-9840-458e-9848-ed5cb5d76f2a","ios":"levelo://app?vid=5dfd30d3-9840-458e-9848-ed5cb5d76f2a"},"vehicle_type_id":"4","last_reported":1719414515,"current_range_meters":22000,"station_id":"ce4bh2h2rcd13ifvqdh0","pricing_plan_id":"cebpf4jnsgd1na2vs0mg"},{"bike_id":"fcc76c72-c8f1-4bf7-bed4-9fa857587728","system_id":"levelo_inurba_marseille","lat":43.289184,"lon":5.366408,"is_reserved":false,"is_disabled":false,"rental_uris":{"android":"levelo://app?vid=fcc76c72-c8f1-4bf7-bed4-9fa857587728","ios":"levelo://app?vid=fcc76c72-c8f1-4bf7-bed4-9fa857587728"},"vehicle_type_id":"4","last_reported":1719414515,"current_range_meters":0,"station_id":"ce4bhap2rcd13ifvqek0","pricing_plan_id":"cebpf4jnsgd1na2vs0mg"},{"bike_id":"a3f54a2f-d531-49dc-b443-94c5449ef984","system_id":"levelo_inurba_marseille","lat":43.292644,"lon":5.384257,"is_reserved":false,"is_disabled":false,"rental_uris":{"android":"levelo://app?vid=a3f54a2f-d531-49dc-b443-94c5449ef984","ios":"levelo://app?vid=a3f54a2f-d531-49dc-b443-94c5449ef984"},"vehicle_type_id":"4","last_reported":1719414515,"current_range_meters":31200,"station_id":"ce4bh692rcd13ifvqea0","pricing_plan_id":"cebpf4jnsgd1na2vs0mg"},{"bike_id":"6d7fc503-bfd3-41e3-ab34-b7b293390fc6","system_id":"levelo_inurba_marseille","lat":43.29012,"lon":5.35619,"is_reserved":false,"is_disabled":false,"rental_uris":{"android":"levelo://app?vid=6d7fc503-bfd3-41e3-ab34-b7b293390fc6","ios":"levelo://app?vid=6d7fc503-bfd3-41e3-ab34-b7b293390fc6"},"vehicle_type_id":"4","last_reported":1719414515,"current_range_meters":22400,"station_id":"ce4bhb92rcd13ifvqen0","pricing_plan_id":"cebpf4jnsgd1na2vs0mg"},{"bike_id":"afa5aedd-bbf3-4da5-b812-bbdaff99b550","system_id":"levelo_inurba_marseille","lat":43.290103,"lon":5.356114,"is_reserved":false,"is_disabled":false,"rental_uris":{"android":"levelo://app?vid=afa5aedd-bbf3-4da5-b812-bbdaff99b550","ios":"levelo://app?vid=afa5aedd-bbf3-4da5-b812-bbdaff99b550"},"vehicle_type_id":"4","last_reported":1719414515,"current_range_meters":10400,"station_id":"ce4bhb92rcd13ifvqen0","pricing_plan_id":"cebpf4jnsgd1na2vs0mg"},{"bike_id":"2e8c2c8f-78a3-43fc-97f4-145c2e8cb54d","system_id":"levelo_inurba_marseille","lat":43.29788,"lon":5.393363,"is_reserved":false,"is_disabled":false,"rental_uris":{"android":"levelo://app?vid=2e8c2c8f-78a3-43fc-97f4-145c2e8cb54d","ios":"levelo://app?vid=2e8c2c8f-78a3-43fc-97f4-145c2e8cb54d"},"vehicle_type_id":"4","last_reported":1719414515,"current_range_meters":2800,"station_id":"chh1huq6cuj3fo74tm60","pricing_plan_id":"cebpf4jnsgd1na2vs0mg"},{"bike_id":"a298fbb2-5773-4dee-be5f-a801f6e8fe5e","system_id":"levelo_inurba_marseille","lat":43.297815,"lon":5.393548,"is_reserved":false,"is_disabled":false,"rental_uris":{"android":"levelo://app?vid=a298fbb2-5773-4dee-be5f-a801f6e8fe5e","ios":"levelo://app?vid=a298fbb2-5773-4dee-be5f-a801f6e8fe5e"},"vehicle_type_id":"4","last_reported":1719414515,"current_range_meters":27600,"station_id":"chh1huq6cuj3fo74tm60","pricing_plan_id":"cebpf4jnsgd1na2vs0mg"},{"bike_id":"eb24b57a-2764-46dc-a5c4-12b230e7815c","system_id":"levelo_inurba_marseille","lat":43.297815,"lon":5.393548,"is_reserved":false,"is_disabled":false,"rental_uris":{"android":"levelo://app?vid=eb24b57a-2764-46dc-a5c4-12b230e7815c","ios":"levelo://app?vid=eb24b57a-2764-46dc-a5c4-12b230e7815c"},"vehicle_type_id":"4","last_reported":1719414515,"current_range_meters":0,"station_id":"chh1huq6cuj3fo74tm60","pricing_plan_id":"cebpf4jnsgd1na2vs0mg"},{"bike_id":"c061a6ec-5d9f-4aac-9a39-3ee00714b9a4","system_id":"levelo_inurba_marseille","lat":43.295169,"lon":5.390426,"is_reserved":false,"is_disabled":false,"rental_uris":{"android":"levelo://app?vid=c061a6ec-5d9f-4aac-9a39-3ee00714b9a4","ios":"levelo://app?vid=c061a6ec-5d9f-4aac-9a39-3ee00714b9a4"},"vehicle_type_id":"4","last_reported":1719414515,"current_range_meters":0,"station_id":"ce4bh3p2rcd13ifvqdp0","pricing_plan_id":"cebpf4jnsgd1na2vs0mg"},{"bike_id":"af536cbe-89e3-4194-a282-59a54aaa87b5","system_id":"levelo_inurba_marseille","lat":43.330442,"lon":5.389148,"is_reserved":false,"is_disabled":false,"rental_uris":{"android":"levelo://app?vid=af536cbe-89e3-4194-a282-59a54aaa87b5","ios":"levelo://app?vid=af536cbe-89e3-4194-a282-59a54aaa87b5"},"vehicle_type_id":"4","last_reported":1719414515,"current_range_meters":6800,"station_id":"ce4bhr92rcd13ifvqhrg","pricing_plan_id":"cebpf4jnsgd1na2vs0mg"},{"bike_id":"a6ec74b7-6b49-4f6a-896d-4ba883e959f5","system_id":"levelo_inurba_marseille","lat":43.290094,"lon":5.381264,"is_reserved":false,"is_disabled":false,"rental_uris":{"android":"levelo://app?vid=a6ec74b7-6b49-4f6a-896d-4ba883e959f5","ios":"levelo://app?vid=a6ec74b7-6b49-4f6a-896d-4ba883e959f5"},"vehicle_type_id":"4","last_reported":1719414515,"current_range_meters":23600,"station_id":"ce4bh4p2rcd13ifvqe1g","pricing_plan_id":"cebpf4jnsgd1na2vs0mg"},{"bike_id":"bebdbea3-4766-4241-9897-2089b0780aae","system_id":"levelo_inurba_marseille","lat":43.291093,"lon":5.383687,"is_reserved":false,"is_disabled":false,"rental_uris":{"android":"levelo://app?vid=bebdbea3-4766-4241-9897-2089b0780aae","ios":"levelo://app?vid=bebdbea3-4766-4241-9897-2089b0780aae"},"vehicle_type_id":"4","last_reported":1719414515,"current_range_meters":22000,"station_id":"","pricing_plan_id":"cebpf4jnsgd1na2vs0mg"},{"bike_id":"c3ddbe4a-157d-4893-acf1-f1f626a65d21","system_id":"levelo_inurba_marseille","lat":43.33715,"lon":5.37426,"is_reserved":false,"is_disabled":false,"rental_uris":{"android":"levelo://app?vid=c3ddbe4a-157d-4893-acf1-f1f626a65d21","ios":"levelo://app?vid=c3ddbe4a-157d-4893-acf1-f1f626a65d21"},"vehicle_type_id":"0","last_reported":1719414515,"current_range_meters":19200,"station_id":"","pricing_plan_id":"cebpf4jnsgd1na2vs0mg"},{"bike_id":"4cf4b936-26c9-41d8-a74c-15abea42fe11","system_id":"levelo_inurba_marseille","lat":43.28856,"lon":5.358371,"is_reserved":false,"is_disabled":false,"rental_uris":{"android":"levelo://app?vid=4cf4b936-26c9-41d8-a74c-15abea42fe11","ios":"levelo://app?vid=4cf4b936-26c9-41d8-a74c-15abea42fe11"},"vehicle_type_id":"4","last_reported":1719414515,"current_range_meters":20800,"station_id":"ce4bhb12rcd13ifvqem0","pricing_plan_id":"cebpf4jnsgd1na2vs0mg"},{"bike_id":"9e514910-b7dd-41e5-a382-7388100e3e18","system_id":"levelo_inurba_marseille","lat":43.312609,"lon":5.401662,"is_reserved":false,"is_disabled":false,"rental_uris":{"android":"levelo://app?vid=9e514910-b7dd-41e5-a382-7388100e3e18","ios":"levelo://app?vid=9e514910-b7dd-41e5-a382-7388100e3e18"},"vehicle_type_id":"4","last_reported":1719414515,"current_range_meters":21200,"station_id":"ce4bh092rcd13ifvqd30","pricing_plan_id":"cebpf4jnsgd1na2vs0mg"},{"bike_id":"70df0eff-7892-4d64-8b33-f9b25d3cdb77","system_id":"levelo_inurba_marseille","lat":43.337366,"lon":5.374646,"is_reserved":false,"is_disabled":false,"rental_uris":{"android":"levelo://app?vid=70df0eff-7892-4d64-8b33-f9b25d3cdb77","ios":"levelo://app?vid=70df0eff-7892-4d64-8b33-f9b25d3cdb77"},"vehicle_type_id":"4","last_reported":1719414515,"current_range_meters":18800,"station_id":"","pricing_plan_id":"cebpf4jnsgd1na2vs0mg"},{"bike_id":"cdba7398-38d4-46c1-ab97-e50387a0dd94","system_id":"levelo_inurba_marseille","lat":43.312609,"lon":5.401662,"is_reserved":false,"is_disabled":false,"rental_uris":{"android":"levelo://app?vid=cdba7398-38d4-46c1-ab97-e50387a0dd94","ios":"levelo://app?vid=cdba7398-38d4-46c1-ab97-e50387a0dd94"},"vehicle_type_id":"4","last_reported":1719414515,"current_range_meters":11200,"station_id":"ce4bh092rcd13ifvqd30","pricing_plan_id":"cebpf4jnsgd1na2vs0mg"},{"bike_id":"11da98ef-d0c3-43c2-a7e4-890f2c23ccbc","system_id":"levelo_inurba_marseille","lat":43.337378,"lon":5.37466,"is_reserved":false,"is_disabled":false,"rental_uris":{"android":"levelo://app?vid=11da98ef-d0c3-43c2-a7e4-890f2c23ccbc","ios":"levelo://app?vid=11da98ef-d0c3-43c2-a7e4-890f2c23ccbc"},"vehicle_type_id":"4","last_reported":1719414515,"current_range_meters":12800,"station_id":"","pricing_plan_id":"cebpf4jnsgd1na2vs0mg"},{"bike_id":"bb65fb70-df82-47d8-b27f-438620895501","system_id":"levelo_inurba_marseille","lat":43.33739,"lon":5.374658,"is_reserved":false,"is_disabled":false,"rental_uris":{"android":"levelo://app?vid=bb65fb70-df82-47d8-b27f-438620895501","ios":"levelo://app?vid=bb65fb70-df82-47d8-b27f-438620895501"},"vehicle_type_id":"4","last_reported":1719414515,"current_range_meters":12400,"station_id":"","pricing_plan_id":"cebpf4jnsgd1na2vs0mg"},{"bike_id":"bd9a6c26-2db3-4e30-92c7-c85ae97147aa","system_id":"levelo_inurba_marseille","lat":43.3374,"lon":5.3746,"is_reserved":false,"is_disabled":false,"rental_uris":{"android":"levelo://app?vid=bd9a6c26-2db3-4e30-92c7-c85ae97147aa","ios":"levelo://app?vid=bd9a6c26-2db3-4e30-92c7-c85ae97147aa"},"vehicle_type_id":"0","last_reported":1719414515,"current_range_meters":21600,"station_id":"","pricing_plan_id":"cebpf4jnsgd1na2vs0mg"},{"bike_id":"9b81675f-44cd-4cbe-9733-2d36a516d8f7","system_id":"levelo_inurba_marseille","lat":43.3374,"lon":5.3746,"is_reserved":false,"is_disabled":false,"rental_uris":{"android":"levelo://app?vid=9b81675f-44cd-4cbe-9733-2d36a516d8f7","ios":"levelo://app?vid=9b81675f-44cd-4cbe-9733-2d36a516d8f7"},"vehicle_type_id":"0","last_reported":1719414515,"current_range_meters":20400,"station_id":"","pricing_plan_id":"cebpf4jnsgd1na2vs0mg"},{"bike_id":"c25a3696-e1cc-43ba-8656-23d4a118ee2e","system_id":"levelo_inurba_marseille","lat":43.337388,"lon":5.374716,"is_reserved":false,"is_disabled":false,"rental_uris":{"android":"levelo://app?vid=c25a3696-e1cc-43ba-8656-23d4a118ee2e","ios":"levelo://app?vid=c25a3696-e1cc-43ba-8656-23d4a118ee2e"},"vehicle_type_id":"4","last_reported":1719414515,"current_range_meters":18800,"station_id":"","pricing_plan_id":"cebpf4jnsgd1na2vs0mg"},{"bike_id":"c6cc3f6f-2d98-4353-adfb-fde696bdd22b","system_id":"levelo_inurba_marseille","lat":43.312609,"lon":5.401662,"is_reserved":false,"is_disabled":false,"rental_uris":{"android":"levelo://app?vid=c6cc3f6f-2d98-4353-adfb-fde696bdd22b","ios":"levelo://app?vid=c6cc3f6f-2d98-4353-adfb-fde696bdd22b"},"vehicle_type_id":"4","last_reported":1719414515,"current_range_meters":10000,"station_id":"ce4bh092rcd13ifvqd30","pricing_plan_id":"cebpf4jnsgd1na2vs0mg"},{"bike_id":"2a0fb516-a307-4861-b129-104556c40f00","system_id":"levelo_inurba_marseille","lat":43.3374,"lon":5.374675,"is_reserved":false,"is_disabled":false,"rental_uris":{"android":"levelo://app?vid=2a0fb516-a307-4861-b129-104556c40f00","ios":"levelo://app?vid=2a0fb516-a307-4861-b129-104556c40f00"},"vehicle_type_id":"0","last_reported":1719414515,"current_range_meters":10400,"station_id":"","pricing_plan_id":"cebpf4jnsgd1na2vs0mg"},{"bike_id":"bf709b1a-1e81-4c69-a36a-dfef45d67fee","system_id":"levelo_inurba_marseille","lat":43.3374,"lon":5.374685,"is_reserved":false,"is_disabled":false,"rental_uris":{"android":"levelo://app?vid=bf709b1a-1e81-4c69-a36a-dfef45d67fee","ios":"levelo://app?vid=bf709b1a-1e81-4c69-a36a-dfef45d67fee"},"vehicle_type_id":"4","last_reported":1719414515,"current_range_meters":18800,"station_id":"","pricing_plan_id":"cebpf4jnsgd1na2vs0mg"},{"bike_id":"cbff8e2e-87ad-4d9e-a09d-9b1fba1c0aeb","system_id":"levelo_inurba_marseille","lat":43.337424,"lon":5.374709,"is_reserved":false,"is_disabled":false,"rental_uris":{"android":"levelo://app?vid=cbff8e2e-87ad-4d9e-a09d-9b1fba1c0aeb","ios":"levelo://app?vid=cbff8e2e-87ad-4d9e-a09d-9b1fba1c0aeb"},"vehicle_type_id":"0","last_reported":1719414515,"current_range_meters":18400,"station_id":"","pricing_plan_id":"cebpf4jnsgd1na2vs0mg"},{"bike_id":"985eda3a-8205-4c72-8b0d-a44593dd15b5","system_id":"levelo_inurba_marseille","lat":43.337435,"lon":5.374655,"is_reserved":false,"is_disabled":false,"rental_uris":{"android":"levelo://app?vid=985eda3a-8205-4c72-8b0d-a44593dd15b5","ios":"levelo://app?vid=985eda3a-8205-4c72-8b0d-a44593dd15b5"},"vehicle_type_id":"0","last_reported":1719414515,"current_range_meters":11600,"station_id":"","pricing_plan_id":"cebpf4jnsgd1na2vs0mg"},{"bike_id":"aa527c2c-31a5-479b-bfbe-daae0d9bb514","system_id":"levelo_inurba_marseille","lat":43.33744,"lon":5.37466,"is_reserved":false,"is_disabled":false,"rental_uris":{"android":"levelo://app?vid=aa527c2c-31a5-479b-bfbe-daae0d9bb514","ios":"levelo://app?vid=aa527c2c-31a5-479b-bfbe-daae0d9bb514"},"vehicle_type_id":"0","last_reported":1719414515,"current_range_meters":8000,"station_id":"","pricing_plan_id":"cebpf4jnsgd1na2vs0mg"},{"bike_id":"427f698a-135e-4cbd-9dfb-ecf62a719c3b","system_id":"levelo_inurba_marseille","lat":43.309371,"lon":5.401449,"is_reserved":false,"is_disabled":false,"rental_uris":{"android":"levelo://app?vid=427f698a-135e-4cbd-9dfb-ecf62a719c3b","ios":"levelo://app?vid=427f698a-135e-4cbd-9dfb-ecf62a719c3b"},"vehicle_type_id":"4","last_reported":1719414515,"current_range_meters":7600,"station_id":"ce4bgvp2rcd13ifvqct0","pricing_plan_id":"cebpf4jnsgd1na2vs0mg"},{"bike_id":"eab34e3f-ba97-4574-bf1f-d4846a54c85c","system_id":"levelo_inurba_marseille","lat":43.31279,"lon":5.40177,"is_reserved":false,"is_disabled":false,"rental_uris":{"android":"levelo://app?vid=eab34e3f-ba97-4574-bf1f-d4846a54c85c","ios":"levelo://app?vid=eab34e3f-ba97-4574-bf1f-d4846a54c85c"},"vehicle_type_id":"4","last_reported":1719414515,"current_range_meters":13200,"station_id":"ce4bh092rcd13ifvqd30","pricing_plan_id":"cebpf4jnsgd1na2vs0mg"},{"bike_id":"8043cc8a-f702-4e45-9523-d56dfd7ee432","system_id":"levelo_inurba_marseille","lat":43.337462,"lon":5.37471,"is_reserved":false,"is_disabled":false,"rental_uris":{"android":"levelo://app?vid=8043cc8a-f702-4e45-9523-d56dfd7ee432","ios":"levelo://app?vid=8043cc8a-f702-4e45-9523-d56dfd7ee432"},"vehicle_type_id":"0","last_reported":1719414515,"current_range_meters":17600,"station_id":"","pricing_plan_id":"cebpf4jnsgd1na2vs0mg"},{"bike_id":"9c212851-943a-4b41-a824-e19458f60cad","system_id":"levelo_inurba_marseille","lat":43.33758,"lon":5.37435,"is_reserved":false,"is_disabled":false,"rental_uris":{"android":"levelo://app?vid=9c212851-943a-4b41-a824-e19458f60cad","ios":"levelo://app?vid=9c212851-943a-4b41-a824-e19458f60cad"},"vehicle_type_id":"4","last_reported":1719414515,"current_range_meters":20000,"station_id":"","pricing_plan_id":"cebpf4jnsgd1na2vs0mg"},{"bike_id":"8fcdb847-fe52-45d4-934a-f6d1fbe1ec25","system_id":"levelo_inurba_marseille","lat":43.33796,"lon":5.3743,"is_reserved":false,"is_disabled":false,"rental_uris":{"android":"levelo://app?vid=8fcdb847-fe52-45d4-934a-f6d1fbe1ec25","ios":"levelo://app?vid=8fcdb847-fe52-45d4-934a-f6d1fbe1ec25"},"vehicle_type_id":"4","last_reported":1719414515,"current_range_meters":30000,"station_id":"","pricing_plan_id":"cebpf4jnsgd1na2vs0mg"},{"bike_id":"b00e1981-9d09-49f3-9983-95573f0b3e93","system_id":"levelo_inurba_marseille","lat":43.301117,"lon":5.398795,"is_reserved":false,"is_disabled":false,"rental_uris":{"android":"levelo://app?vid=b00e1981-9d09-49f3-9983-95573f0b3e93","ios":"levelo://app?vid=b00e1981-9d09-49f3-9983-95573f0b3e93"},"vehicle_type_id":"4","last_reported":1719414515,"current_range_meters":9200,"station_id":"ce4bh0h2rcd13ifvqd40","pricing_plan_id":"cebpf4jnsgd1na2vs0mg"},{"bike_id":"a04d1a54-9496-4372-a441-611d034c08a1","system_id":"levelo_inurba_marseille","lat":43.286961,"lon":5.373785,"is_reserved":false,"is_disabled":false,"rental_uris":{"android":"levelo://app?vid=a04d1a54-9496-4372-a441-611d034c08a1","ios":"levelo://app?vid=a04d1a54-9496-4372-a441-611d034c08a1"},"vehicle_type_id":"4","last_reported":1719414515,"current_range_meters":21200,"station_id":"ce4bh3p2rcd13ifvqdq0","pricing_plan_id":"cebpf4jnsgd1na2vs0mg"},{"bike_id":"37456f2b-3ec1-49cd-ad9c-d02f704b52ae","system_id":"levelo_inurba_marseille","lat":43.312609,"lon":5.401662,"is_reserved":false,"is_disabled":false,"rental_uris":{"android":"levelo://app?vid=37456f2b-3ec1-49cd-ad9c-d02f704b52ae","ios":"levelo://app?vid=37456f2b-3ec1-49cd-ad9c-d02f704b52ae"},"vehicle_type_id":"4","last_reported":1719414515,"current_range_meters":11600,"station_id":"ce4bh092rcd13ifvqd30","pricing_plan_id":"cebpf4jnsgd1na2vs0mg"},{"bike_id":"9189b7fb-58dc-4498-85f7-76f9d7dbbab1","system_id":"levelo_inurba_marseille","lat":43.286591,"lon":5.363346,"is_reserved":false,"is_disabled":false,"rental_uris":{"android":"levelo://app?vid=9189b7fb-58dc-4498-85f7-76f9d7dbbab1","ios":"levelo://app?vid=9189b7fb-58dc-4498-85f7-76f9d7dbbab1"},"vehicle_type_id":"4","last_reported":1719414515,"current_range_meters":9600,"station_id":"ce4bhah2rcd13ifvqej0","pricing_plan_id":"cebpf4jnsgd1na2vs0mg"},{"bike_id":"0417c9cb-2420-4d67-ae33-9c4f587e1e69","system_id":"levelo_inurba_marseille","lat":43.286591,"lon":5.363346,"is_reserved":false,"is_disabled":false,"rental_uris":{"android":"levelo://app?vid=0417c9cb-2420-4d67-ae33-9c4f587e1e69","ios":"levelo://app?vid=0417c9cb-2420-4d67-ae33-9c4f587e1e69"},"vehicle_type_id":"4","last_reported":1719414515,"current_range_meters":0,"station_id":"ce4bhah2rcd13ifvqej0","pricing_plan_id":"cebpf4jnsgd1na2vs0mg"},{"bike_id":"771cc6b5-1aab-48f4-bc75-7ff367a757f5","system_id":"levelo_inurba_marseille","lat":43.286593,"lon":5.363346,"is_reserved":false,"is_disabled":false,"rental_uris":{"android":"levelo://app?vid=771cc6b5-1aab-48f4-bc75-7ff367a757f5","ios":"levelo://app?vid=771cc6b5-1aab-48f4-bc75-7ff367a757f5"},"vehicle_type_id":"4","last_reported":1719414515,"current_range_meters":16800,"station_id":"ce4bhah2rcd13ifvqej0","pricing_plan_id":"cebpf4jnsgd1na2vs0mg"},{"bike_id":"31134e4b-b8a3-4335-8e1b-3b281a4c75bd","system_id":"levelo_inurba_marseille","lat":43.286591,"lon":5.363346,"is_reserved":false,"is_disabled":false,"rental_uris":{"android":"levelo://app?vid=31134e4b-b8a3-4335-8e1b-3b281a4c75bd","ios":"levelo://app?vid=31134e4b-b8a3-4335-8e1b-3b281a4c75bd"},"vehicle_type_id":"4","last_reported":1719414515,"current_range_meters":12400,"station_id":"ce4bhah2rcd13ifvqej0","pricing_plan_id":"cebpf4jnsgd1na2vs0mg"},{"bike_id":"0b9af242-bfe6-4b11-955a-32aedd9fdcbe","system_id":"levelo_inurba_marseille","lat":43.287185,"lon":5.379373,"is_reserved":false,"is_disabled":false,"rental_uris":{"android":"levelo://app?vid=0b9af242-bfe6-4b11-955a-32aedd9fdcbe","ios":"levelo://app?vid=0b9af242-bfe6-4b11-955a-32aedd9fdcbe"},"vehicle_type_id":"4","last_reported":1719414515,"current_range_meters":2400,"station_id":"ce4bh9p2rcd13ifvqec0","pricing_plan_id":"cebpf4jnsgd1na2vs0mg"},{"bike_id":"6003742c-2f70-46db-a0d2-1ef738b5c17f","system_id":"levelo_inurba_marseille","lat":43.286961,"lon":5.373785,"is_reserved":false,"is_disabled":false,"rental_uris":{"android":"levelo://app?vid=6003742c-2f70-46db-a0d2-1ef738b5c17f","ios":"levelo://app?vid=6003742c-2f70-46db-a0d2-1ef738b5c17f"},"vehicle_type_id":"4","last_reported":1719414515,"current_range_meters":14400,"station_id":"ce4bh3p2rcd13ifvqdq0","pricing_plan_id":"cebpf4jnsgd1na2vs0mg"},{"bike_id":"f432f1cf-dae1-442f-a44d-3ae6552de8a8","system_id":"levelo_inurba_marseille","lat":43.286593,"lon":5.363346,"is_reserved":false,"is_disabled":false,"rental_uris":{"android":"levelo://app?vid=f432f1cf-dae1-442f-a44d-3ae6552de8a8","ios":"levelo://app?vid=f432f1cf-dae1-442f-a44d-3ae6552de8a8"},"vehicle_type_id":"4","last_reported":1719414515,"current_range_meters":9600,"station_id":"ce4bhah2rcd13ifvqej0","pricing_plan_id":"cebpf4jnsgd1na2vs0mg"},{"bike_id":"5073b267-efe1-48e5-afbe-83512426f12b","system_id":"levelo_inurba_marseille","lat":43.28653,"lon":5.3635,"is_reserved":false,"is_disabled":false,"rental_uris":{"android":"levelo://app?vid=5073b267-efe1-48e5-afbe-83512426f12b","ios":"levelo://app?vid=5073b267-efe1-48e5-afbe-83512426f12b"},"vehicle_type_id":"4","last_reported":1719414515,"current_range_meters":1200,"station_id":"","pricing_plan_id":"cebpf4jnsgd1na2vs0mg"},{"bike_id":"c559755b-d72d-4fb7-9108-8ae01721ff35","system_id":"levelo_inurba_marseille","lat":43.289307,"lon":5.38406,"is_reserved":false,"is_disabled":false,"rental_uris":{"android":"levelo://app?vid=c559755b-d72d-4fb7-9108-8ae01721ff35","ios":"levelo://app?vid=c559755b-d72d-4fb7-9108-8ae01721ff35"},"vehicle_type_id":"4","last_reported":1719414515,"current_range_meters":8800,"station_id":"ce4bh612rcd13ifvqe6g","pricing_plan_id":"cebpf4jnsgd1na2vs0mg"},{"bike_id":"a30128ab-ef1d-4c9d-a593-26af5a99184b","system_id":"levelo_inurba_marseille","lat":43.29514,"lon":5.39402,"is_reserved":false,"is_disabled":false,"rental_uris":{"android":"levelo://app?vid=a30128ab-ef1d-4c9d-a593-26af5a99184b","ios":"levelo://app?vid=a30128ab-ef1d-4c9d-a593-26af5a99184b"},"vehicle_type_id":"4","last_reported":1719414515,"current_range_meters":0,"station_id":"ce4bh292rcd13ifvqdf0","pricing_plan_id":"cebpf4jnsgd1na2vs0mg"},{"bike_id":"769dae3f-fa95-4cce-9dbc-dec4dae89714","system_id":"levelo_inurba_marseille","lat":43.289307,"lon":5.38406,"is_reserved":false,"is_disabled":false,"rental_uris":{"android":"levelo://app?vid=769dae3f-fa95-4cce-9dbc-dec4dae89714","ios":"levelo://app?vid=769dae3f-fa95-4cce-9dbc-dec4dae89714"},"vehicle_type_id":"4","last_reported":1719414515,"current_range_meters":14800,"station_id":"ce4bh612rcd13ifvqe6g","pricing_plan_id":"cebpf4jnsgd1na2vs0mg"},{"bike_id":"c59da20f-e181-45e5-a842-c7022f4475cb","system_id":"levelo_inurba_marseille","lat":43.29024,"lon":5.38646,"is_reserved":false,"is_disabled":false,"rental_uris":{"android":"levelo://app?vid=c59da20f-e181-45e5-a842-c7022f4475cb","ios":"levelo://app?vid=c59da20f-e181-45e5-a842-c7022f4475cb"},"vehicle_type_id":"4","last_reported":1719414515,"current_range_meters":800,"station_id":"ce4bh4p2rcd13ifvqe0g","pricing_plan_id":"cebpf4jnsgd1na2vs0mg"},{"bike_id":"6964ad50-aabe-4fb7-abbc-82ba4b60521d","system_id":"levelo_inurba_marseille","lat":43.286039,"lon":5.370679,"is_reserved":false,"is_disabled":false,"rental_uris":{"android":"levelo://app?vid=6964ad50-aabe-4fb7-abbc-82ba4b60521d","ios":"levelo://app?vid=6964ad50-aabe-4fb7-abbc-82ba4b60521d"},"vehicle_type_id":"4","last_reported":1719414515,"current_range_meters":0,"station_id":"ce4bht12rcd13ifvqi60","pricing_plan_id":"cebpf4jnsgd1na2vs0mg"},{"bike_id":"472f3098-325a-48d5-8e3e-5eb087facb98","system_id":"levelo_inurba_marseille","lat":43.2881,"lon":5.35268,"is_reserved":false,"is_disabled":false,"rental_uris":{"android":"levelo://app?vid=472f3098-325a-48d5-8e3e-5eb087facb98","ios":"levelo://app?vid=472f3098-325a-48d5-8e3e-5eb087facb98"},"vehicle_type_id":"4","last_reported":1719414515,"current_range_meters":10800,"station_id":"","pricing_plan_id":"cebpf4jnsgd1na2vs0mg"},{"bike_id":"5a069054-9da1-48b3-9b2b-3cab5940e783","system_id":"levelo_inurba_marseille","lat":43.286039,"lon":5.370679,"is_reserved":false,"is_disabled":false,"rental_uris":{"android":"levelo://app?vid=5a069054-9da1-48b3-9b2b-3cab5940e783","ios":"levelo://app?vid=5a069054-9da1-48b3-9b2b-3cab5940e783"},"vehicle_type_id":"4","last_reported":1719414515,"current_range_meters":2400,"station_id":"ce4bht12rcd13ifvqi60","pricing_plan_id":"cebpf4jnsgd1na2vs0mg"},{"bike_id":"933956e2-9591-4c38-915c-2cdade65f533","system_id":"levelo_inurba_marseille","lat":43.287184,"lon":5.37937,"is_reserved":false,"is_disabled":false,"rental_uris":{"android":"levelo://app?vid=933956e2-9591-4c38-915c-2cdade65f533","ios":"levelo://app?vid=933956e2-9591-4c38-915c-2cdade65f533"},"vehicle_type_id":"4","last_reported":1719414515,"current_range_meters":0,"station_id":"ce4bh9p2rcd13ifvqec0","pricing_plan_id":"cebpf4jnsgd1na2vs0mg"},{"bike_id":"b378e5dc-2ac2-4d4e-aaf7-93de68f0f2e3","system_id":"levelo_inurba_marseille","lat":43.287184,"lon":5.37937,"is_reserved":false,"is_disabled":false,"rental_uris":{"android":"levelo://app?vid=b378e5dc-2ac2-4d4e-aaf7-93de68f0f2e3","ios":"levelo://app?vid=b378e5dc-2ac2-4d4e-aaf7-93de68f0f2e3"},"vehicle_type_id":"4","last_reported":1719414515,"current_range_meters":21200,"station_id":"ce4bh9p2rcd13ifvqec0","pricing_plan_id":"cebpf4jnsgd1na2vs0mg"},{"bike_id":"78849ed7-fb2d-45d9-b881-fd65c4a447e6","system_id":"levelo_inurba_marseille","lat":43.28717,"lon":5.37941,"is_reserved":false,"is_disabled":false,"rental_uris":{"android":"levelo://app?vid=78849ed7-fb2d-45d9-b881-fd65c4a447e6","ios":"levelo://app?vid=78849ed7-fb2d-45d9-b881-fd65c4a447e6"},"vehicle_type_id":"4","last_reported":1719414515,"current_range_meters":1600,"station_id":"ce4bh9p2rcd13ifvqec0","pricing_plan_id":"cebpf4jnsgd1na2vs0mg"},{"bike_id":"aa78e2e2-3232-4b63-a510-0252c9e5ec8f","system_id":"levelo_inurba_marseille","lat":43.316983,"lon":5.404713,"is_reserved":false,"is_disabled":false,"rental_uris":{"android":"levelo://app?vid=aa78e2e2-3232-4b63-a510-0252c9e5ec8f","ios":"levelo://app?vid=aa78e2e2-3232-4b63-a510-0252c9e5ec8f"},"vehicle_type_id":"4","last_reported":1719414515,"current_range_meters":0,"station_id":"ce4bh012rcd13ifvqd00","pricing_plan_id":"cebpf4jnsgd1na2vs0mg"},{"bike_id":"4238fddd-03b8-4526-9238-1e41f284b8f7","system_id":"levelo_inurba_marseille","lat":43.316828,"lon":5.404723,"is_reserved":false,"is_disabled":false,"rental_uris":{"android":"levelo://app?vid=4238fddd-03b8-4526-9238-1e41f284b8f7","ios":"levelo://app?vid=4238fddd-03b8-4526-9238-1e41f284b8f7"},"vehicle_type_id":"4","last_reported":1719414515,"current_range_meters":20400,"station_id":"ce4bh012rcd13ifvqd00","pricing_plan_id":"cebpf4jnsgd1na2vs0mg"},{"bike_id":"91f3d5a7-121f-46f2-82a9-37815ee5392f","system_id":"levelo_inurba_marseille","lat":43.31687,"lon":5.40481,"is_reserved":false,"is_disabled":false,"rental_uris":{"android":"levelo://app?vid=91f3d5a7-121f-46f2-82a9-37815ee5392f","ios":"levelo://app?vid=91f3d5a7-121f-46f2-82a9-37815ee5392f"},"vehicle_type_id":"4","last_reported":1719414515,"current_range_meters":0,"station_id":"ce4bh012rcd13ifvqd00","pricing_plan_id":"cebpf4jnsgd1na2vs0mg"},{"bike_id":"d03e37b4-48ba-4a33-b116-e6114606e030","system_id":"levelo_inurba_marseille","lat":43.316828,"lon":5.404723,"is_reserved":false,"is_disabled":false,"rental_uris":{"android":"levelo://app?vid=d03e37b4-48ba-4a33-b116-e6114606e030","ios":"levelo://app?vid=d03e37b4-48ba-4a33-b116-e6114606e030"},"vehicle_type_id":"4","last_reported":1719414515,"current_range_meters":24000,"station_id":"ce4bh012rcd13ifvqd00","pricing_plan_id":"cebpf4jnsgd1na2vs0mg"},{"bike_id":"6ccd2418-083f-4825-8c16-3a00c259e805","system_id":"levelo_inurba_marseille","lat":43.291994,"lon":5.392907,"is_reserved":false,"is_disabled":false,"rental_uris":{"android":"levelo://app?vid=6ccd2418-083f-4825-8c16-3a00c259e805","ios":"levelo://app?vid=6ccd2418-083f-4825-8c16-3a00c259e805"},"vehicle_type_id":"4","last_reported":1719414515,"current_range_meters":4000,"station_id":"ce4bh192rcd13ifvqdd0","pricing_plan_id":"cebpf4jnsgd1na2vs0mg"},{"bike_id":"057e754e-42f7-4f07-95d6-4f6e687f1cd6","system_id":"levelo_inurba_marseille","lat":43.291994,"lon":5.392907,"is_reserved":false,"is_disabled":false,"rental_uris":{"android":"levelo://app?vid=057e754e-42f7-4f07-95d6-4f6e687f1cd6","ios":"levelo://app?vid=057e754e-42f7-4f07-95d6-4f6e687f1cd6"},"vehicle_type_id":"4","last_reported":1719414515,"current_range_meters":28400,"station_id":"ce4bh192rcd13ifvqdd0","pricing_plan_id":"cebpf4jnsgd1na2vs0mg"},{"bike_id":"22d37719-fe14-41a2-b6a3-e26e77a2203f","system_id":"levelo_inurba_marseille","lat":43.291994,"lon":5.392907,"is_reserved":false,"is_disabled":false,"rental_uris":{"android":"levelo://app?vid=22d37719-fe14-41a2-b6a3-e26e77a2203f","ios":"levelo://app?vid=22d37719-fe14-41a2-b6a3-e26e77a2203f"},"vehicle_type_id":"4","last_reported":1719414515,"current_range_meters":12000,"station_id":"ce4bh192rcd13ifvqdd0","pricing_plan_id":"cebpf4jnsgd1na2vs0mg"},{"bike_id":"dd7e344e-1860-4467-8635-77133bf35488","system_id":"levelo_inurba_marseille","lat":43.28441,"lon":5.37164,"is_reserved":false,"is_disabled":false,"rental_uris":{"android":"levelo://app?vid=dd7e344e-1860-4467-8635-77133bf35488","ios":"levelo://app?vid=dd7e344e-1860-4467-8635-77133bf35488"},"vehicle_type_id":"4","last_reported":1719414515,"current_range_meters":22800,"station_id":"","pricing_plan_id":"cebpf4jnsgd1na2vs0mg"},{"bike_id":"92c08918-0cc4-489b-abb4-c8528d98ca03","system_id":"levelo_inurba_marseille","lat":43.284538,"lon":5.358657,"is_reserved":false,"is_disabled":false,"rental_uris":{"android":"levelo://app?vid=92c08918-0cc4-489b-abb4-c8528d98ca03","ios":"levelo://app?vid=92c08918-0cc4-489b-abb4-c8528d98ca03"},"vehicle_type_id":"4","last_reported":1719414515,"current_range_meters":16000,"station_id":"ce4bhah2rcd13ifvqei0","pricing_plan_id":"cebpf4jnsgd1na2vs0mg"},{"bike_id":"62c85261-db41-40c1-bd26-ebff485454ec","system_id":"levelo_inurba_marseille","lat":43.284534,"lon":5.358662,"is_reserved":false,"is_disabled":false,"rental_uris":{"android":"levelo://app?vid=62c85261-db41-40c1-bd26-ebff485454ec","ios":"levelo://app?vid=62c85261-db41-40c1-bd26-ebff485454ec"},"vehicle_type_id":"4","last_reported":1719414515,"current_range_meters":14400,"station_id":"ce4bhah2rcd13ifvqei0","pricing_plan_id":"cebpf4jnsgd1na2vs0mg"},{"bike_id":"99b8477f-5d22-4a75-9717-44bf8a3292b2","system_id":"levelo_inurba_marseille","lat":43.294314,"lon":5.397498,"is_reserved":false,"is_disabled":false,"rental_uris":{"android":"levelo://app?vid=99b8477f-5d22-4a75-9717-44bf8a3292b2","ios":"levelo://app?vid=99b8477f-5d22-4a75-9717-44bf8a3292b2"},"vehicle_type_id":"4","last_reported":1719414515,"current_range_meters":0,"station_id":"ce4bh3h2rcd13ifvqdo0","pricing_plan_id":"cebpf4jnsgd1na2vs0mg"},{"bike_id":"832cdbe4-b99a-475c-9949-e5a66f959664","system_id":"levelo_inurba_marseille","lat":43.28621,"lon":5.35112,"is_reserved":false,"is_disabled":false,"rental_uris":{"android":"levelo://app?vid=832cdbe4-b99a-475c-9949-e5a66f959664","ios":"levelo://app?vid=832cdbe4-b99a-475c-9949-e5a66f959664"},"vehicle_type_id":"4","last_reported":1719414515,"current_range_meters":400,"station_id":"ce4bhch2rcd13ifvqeug","pricing_plan_id":"cebpf4jnsgd1na2vs0mg"},{"bike_id":"1c37b8f4-a9c1-4d54-a64b-5a72b2876817","system_id":"levelo_inurba_marseille","lat":43.286194,"lon":5.351017,"is_reserved":false,"is_disabled":false,"rental_uris":{"android":"levelo://app?vid=1c37b8f4-a9c1-4d54-a64b-5a72b2876817","ios":"levelo://app?vid=1c37b8f4-a9c1-4d54-a64b-5a72b2876817"},"vehicle_type_id":"4","last_reported":1719414515,"current_range_meters":26000,"station_id":"ce4bhch2rcd13ifvqeug","pricing_plan_id":"cebpf4jnsgd1na2vs0mg"},{"bike_id":"58c3925a-c587-4822-a115-45a47a9de59d","system_id":"levelo_inurba_marseille","lat":43.28618,"lon":5.35106,"is_reserved":false,"is_disabled":false,"rental_uris":{"android":"levelo://app?vid=58c3925a-c587-4822-a115-45a47a9de59d","ios":"levelo://app?vid=58c3925a-c587-4822-a115-45a47a9de59d"},"vehicle_type_id":"4","last_reported":1719414515,"current_range_meters":21200,"station_id":"ce4bhch2rcd13ifvqeug","pricing_plan_id":"cebpf4jnsgd1na2vs0mg"},{"bike_id":"9cf2758d-784d-4243-a590-12e99f3ab9e2","system_id":"levelo_inurba_marseille","lat":43.28615,"lon":5.3511,"is_reserved":false,"is_disabled":false,"rental_uris":{"android":"levelo://app?vid=9cf2758d-784d-4243-a590-12e99f3ab9e2","ios":"levelo://app?vid=9cf2758d-784d-4243-a590-12e99f3ab9e2"},"vehicle_type_id":"4","last_reported":1719414515,"current_range_meters":5200,"station_id":"ce4bhch2rcd13ifvqeug","pricing_plan_id":"cebpf4jnsgd1na2vs0mg"},{"bike_id":"c4d144b2-ca24-49d6-b344-8c8572d79545","system_id":"levelo_inurba_marseille","lat":43.28616,"lon":5.35106,"is_reserved":false,"is_disabled":false,"rental_uris":{"android":"levelo://app?vid=c4d144b2-ca24-49d6-b344-8c8572d79545","ios":"levelo://app?vid=c4d144b2-ca24-49d6-b344-8c8572d79545"},"vehicle_type_id":"4","last_reported":1719414515,"current_range_meters":20800,"station_id":"ce4bhch2rcd13ifvqeug","pricing_plan_id":"cebpf4jnsgd1na2vs0mg"},{"bike_id":"837cb22a-a8b1-4cf3-962c-8b23d8871a4f","system_id":"levelo_inurba_marseille","lat":43.285856,"lon":5.350771,"is_reserved":false,"is_disabled":false,"rental_uris":{"android":"levelo://app?vid=837cb22a-a8b1-4cf3-962c-8b23d8871a4f","ios":"levelo://app?vid=837cb22a-a8b1-4cf3-962c-8b23d8871a4f"},"vehicle_type_id":"4","last_reported":1719414515,"current_range_meters":14400,"station_id":"ce4bhch2rcd13ifvqeug","pricing_plan_id":"cebpf4jnsgd1na2vs0mg"},{"bike_id":"b7039640-97da-4f78-be22-0e9ba9f32203","system_id":"levelo_inurba_marseille","lat":43.286162,"lon":5.35104,"is_reserved":false,"is_disabled":false,"rental_uris":{"android":"levelo://app?vid=b7039640-97da-4f78-be22-0e9ba9f32203","ios":"levelo://app?vid=b7039640-97da-4f78-be22-0e9ba9f32203"},"vehicle_type_id":"4","last_reported":1719414515,"current_range_meters":400,"station_id":"ce4bhch2rcd13ifvqeug","pricing_plan_id":"cebpf4jnsgd1na2vs0mg"},{"bike_id":"4b6c2cdc-d714-4eee-8cdb-faf4c911b2cc","system_id":"levelo_inurba_marseille","lat":43.285856,"lon":5.350771,"is_reserved":false,"is_disabled":false,"rental_uris":{"android":"levelo://app?vid=4b6c2cdc-d714-4eee-8cdb-faf4c911b2cc","ios":"levelo://app?vid=4b6c2cdc-d714-4eee-8cdb-faf4c911b2cc"},"vehicle_type_id":"4","last_reported":1719414515,"current_range_meters":14400,"station_id":"ce4bhch2rcd13ifvqeug","pricing_plan_id":"cebpf4jnsgd1na2vs0mg"},{"bike_id":"f80db631-600a-42b2-bed5-5ecd21f973f2","system_id":"levelo_inurba_marseille","lat":43.28615,"lon":5.35102,"is_reserved":false,"is_disabled":false,"rental_uris":{"android":"levelo://app?vid=f80db631-600a-42b2-bed5-5ecd21f973f2","ios":"levelo://app?vid=f80db631-600a-42b2-bed5-5ecd21f973f2"},"vehicle_type_id":"4","last_reported":1719414515,"current_range_meters":0,"station_id":"ce4bhch2rcd13ifvqeug","pricing_plan_id":"cebpf4jnsgd1na2vs0mg"},{"bike_id":"7b8338a5-6df6-4a08-82c8-cdc7b463e006","system_id":"levelo_inurba_marseille","lat":43.28614,"lon":5.35103,"is_reserved":false,"is_disabled":false,"rental_uris":{"android":"levelo://app?vid=7b8338a5-6df6-4a08-82c8-cdc7b463e006","ios":"levelo://app?vid=7b8338a5-6df6-4a08-82c8-cdc7b463e006"},"vehicle_type_id":"4","last_reported":1719414515,"current_range_meters":29600,"station_id":"ce4bhch2rcd13ifvqeug","pricing_plan_id":"cebpf4jnsgd1na2vs0mg"},{"bike_id":"a7c76dda-eb68-4fd5-a311-67f02109d140","system_id":"levelo_inurba_marseille","lat":43.2479,"lon":5.374457,"is_reserved":false,"is_disabled":false,"rental_uris":{"android":"levelo://app?vid=a7c76dda-eb68-4fd5-a311-67f02109d140","ios":"levelo://app?vid=a7c76dda-eb68-4fd5-a311-67f02109d140"},"vehicle_type_id":"4","last_reported":1719414515,"current_range_meters":0,"station_id":"ce4bhgh2rcd13ifvqfb0","pricing_plan_id":"cebpf4jnsgd1na2vs0mg"},{"bike_id":"f6e67595-1b33-4a70-8399-54130a14adaa","system_id":"levelo_inurba_marseille","lat":43.28612,"lon":5.35099,"is_reserved":false,"is_disabled":false,"rental_uris":{"android":"levelo://app?vid=f6e67595-1b33-4a70-8399-54130a14adaa","ios":"levelo://app?vid=f6e67595-1b33-4a70-8399-54130a14adaa"},"vehicle_type_id":"4","last_reported":1719414515,"current_range_meters":10400,"station_id":"ce4bhch2rcd13ifvqeug","pricing_plan_id":"cebpf4jnsgd1na2vs0mg"},{"bike_id":"5003181a-1516-49b3-bcc0-fb41cba92baa","system_id":"levelo_inurba_marseille","lat":43.295713,"lon":5.399639,"is_reserved":false,"is_disabled":false,"rental_uris":{"android":"levelo://app?vid=5003181a-1516-49b3-bcc0-fb41cba92baa","ios":"levelo://app?vid=5003181a-1516-49b3-bcc0-fb41cba92baa"},"vehicle_type_id":"4","last_reported":1719414515,"current_range_meters":29600,"station_id":"ce4bh312rcd13ifvqdj0","pricing_plan_id":"cebpf4jnsgd1na2vs0mg"},{"bike_id":"c56425b5-d81d-4d0a-9ade-d5e9599e3e94","system_id":"levelo_inurba_marseille","lat":43.28401,"lon":5.37501,"is_reserved":false,"is_disabled":false,"rental_uris":{"android":"levelo://app?vid=c56425b5-d81d-4d0a-9ade-d5e9599e3e94","ios":"levelo://app?vid=c56425b5-d81d-4d0a-9ade-d5e9599e3e94"},"vehicle_type_id":"4","last_reported":1719414515,"current_range_meters":18400,"station_id":"ce4bh412rcd13ifvqds0","pricing_plan_id":"cebpf4jnsgd1na2vs0mg"},{"bike_id":"f729b57c-55c6-4f6d-9da4-8610ed68136a","system_id":"levelo_inurba_marseille","lat":43.283998,"lon":5.375062,"is_reserved":false,"is_disabled":false,"rental_uris":{"android":"levelo://app?vid=f729b57c-55c6-4f6d-9da4-8610ed68136a","ios":"levelo://app?vid=f729b57c-55c6-4f6d-9da4-8610ed68136a"},"vehicle_type_id":"4","last_reported":1719414515,"current_range_meters":8400,"station_id":"ce4bh412rcd13ifvqds0","pricing_plan_id":"cebpf4jnsgd1na2vs0mg"},{"bike_id":"8efa42cd-6d40-48da-8b5a-0a3989d6c12e","system_id":"levelo_inurba_marseille","lat":43.295713,"lon":5.399639,"is_reserved":false,"is_disabled":false,"rental_uris":{"android":"levelo://app?vid=8efa42cd-6d40-48da-8b5a-0a3989d6c12e","ios":"levelo://app?vid=8efa42cd-6d40-48da-8b5a-0a3989d6c12e"},"vehicle_type_id":"4","last_reported":1719414515,"current_range_meters":14000,"station_id":"ce4bh312rcd13ifvqdj0","pricing_plan_id":"cebpf4jnsgd1na2vs0mg"},{"bike_id":"4407a010-1b22-4906-8dd5-35a5a76305de","system_id":"levelo_inurba_marseille","lat":43.283998,"lon":5.375062,"is_reserved":false,"is_disabled":false,"rental_uris":{"android":"levelo://app?vid=4407a010-1b22-4906-8dd5-35a5a76305de","ios":"levelo://app?vid=4407a010-1b22-4906-8dd5-35a5a76305de"},"vehicle_type_id":"4","last_reported":1719414515,"current_range_meters":3200,"station_id":"ce4bh412rcd13ifvqds0","pricing_plan_id":"cebpf4jnsgd1na2vs0mg"},{"bike_id":"a05365c2-b8ad-4227-8d47-ee05f28c370b","system_id":"levelo_inurba_marseille","lat":43.319179,"lon":5.407725,"is_reserved":false,"is_disabled":false,"rental_uris":{"android":"levelo://app?vid=a05365c2-b8ad-4227-8d47-ee05f28c370b","ios":"levelo://app?vid=a05365c2-b8ad-4227-8d47-ee05f28c370b"},"vehicle_type_id":"4","last_reported":1719414515,"current_range_meters":31200,"station_id":"ce4bhq12rcd13ifvqhig","pricing_plan_id":"cebpf4jnsgd1na2vs0mg"},{"bike_id":"b8b52a7d-5966-49fb-9ed7-236e3583a235","system_id":"levelo_inurba_marseille","lat":43.319179,"lon":5.407725,"is_reserved":false,"is_disabled":false,"rental_uris":{"android":"levelo://app?vid=b8b52a7d-5966-49fb-9ed7-236e3583a235","ios":"levelo://app?vid=b8b52a7d-5966-49fb-9ed7-236e3583a235"},"vehicle_type_id":"4","last_reported":1719414515,"current_range_meters":1200,"station_id":"ce4bhq12rcd13ifvqhig","pricing_plan_id":"cebpf4jnsgd1na2vs0mg"},{"bike_id":"c2330c6e-e917-4eb0-9185-f380cab84f30","system_id":"levelo_inurba_marseille","lat":43.319179,"lon":5.407725,"is_reserved":false,"is_disabled":false,"rental_uris":{"android":"levelo://app?vid=c2330c6e-e917-4eb0-9185-f380cab84f30","ios":"levelo://app?vid=c2330c6e-e917-4eb0-9185-f380cab84f30"},"vehicle_type_id":"4","last_reported":1719414515,"current_range_meters":25600,"station_id":"ce4bhq12rcd13ifvqhig","pricing_plan_id":"cebpf4jnsgd1na2vs0mg"},{"bike_id":"ad0597a3-c5f3-4c36-bd32-892547c1e148","system_id":"levelo_inurba_marseille","lat":43.319179,"lon":5.407725,"is_reserved":false,"is_disabled":false,"rental_uris":{"android":"levelo://app?vid=ad0597a3-c5f3-4c36-bd32-892547c1e148","ios":"levelo://app?vid=ad0597a3-c5f3-4c36-bd32-892547c1e148"},"vehicle_type_id":"4","last_reported":1719414515,"current_range_meters":3200,"station_id":"ce4bhq12rcd13ifvqhig","pricing_plan_id":"cebpf4jnsgd1na2vs0mg"},{"bike_id":"df27ffef-1398-46a7-831f-e0a59d29e452","system_id":"levelo_inurba_marseille","lat":43.319179,"lon":5.407725,"is_reserved":false,"is_disabled":false,"rental_uris":{"android":"levelo://app?vid=df27ffef-1398-46a7-831f-e0a59d29e452","ios":"levelo://app?vid=df27ffef-1398-46a7-831f-e0a59d29e452"},"vehicle_type_id":"4","last_reported":1719414515,"current_range_meters":23600,"station_id":"ce4bhq12rcd13ifvqhig","pricing_plan_id":"cebpf4jnsgd1na2vs0mg"},{"bike_id":"e39137e7-ac4b-40d2-876d-3dcdc7707937","system_id":"levelo_inurba_marseille","lat":43.337168,"lon":5.391825,"is_reserved":false,"is_disabled":false,"rental_uris":{"android":"levelo://app?vid=e39137e7-ac4b-40d2-876d-3dcdc7707937","ios":"levelo://app?vid=e39137e7-ac4b-40d2-876d-3dcdc7707937"},"vehicle_type_id":"4","last_reported":1719414515,"current_range_meters":31200,"station_id":"ce4bhr92rcd13ifvqhsg","pricing_plan_id":"cebpf4jnsgd1na2vs0mg"},{"bike_id":"311c3a7d-ed26-4e20-b696-f702ef51dba3","system_id":"levelo_inurba_marseille","lat":43.32335,"lon":5.40616,"is_reserved":false,"is_disabled":false,"rental_uris":{"android":"levelo://app?vid=311c3a7d-ed26-4e20-b696-f702ef51dba3","ios":"levelo://app?vid=311c3a7d-ed26-4e20-b696-f702ef51dba3"},"vehicle_type_id":"4","last_reported":1719414515,"current_range_meters":2000,"station_id":"ce4bhq92rcd13ifvqhjg","pricing_plan_id":"cebpf4jnsgd1na2vs0mg"},{"bike_id":"844cce4e-ec17-4fc7-bc1e-ed33c5d2dc49","system_id":"levelo_inurba_marseille","lat":43.323464,"lon":5.406297,"is_reserved":false,"is_disabled":false,"rental_uris":{"android":"levelo://app?vid=844cce4e-ec17-4fc7-bc1e-ed33c5d2dc49","ios":"levelo://app?vid=844cce4e-ec17-4fc7-bc1e-ed33c5d2dc49"},"vehicle_type_id":"4","last_reported":1719414515,"current_range_meters":6800,"station_id":"ce4bhq92rcd13ifvqhjg","pricing_plan_id":"cebpf4jnsgd1na2vs0mg"},{"bike_id":"6429e62f-b980-46b9-81d6-5064d82f15ba","system_id":"levelo_inurba_marseille","lat":43.337168,"lon":5.391825,"is_reserved":false,"is_disabled":false,"rental_uris":{"android":"levelo://app?vid=6429e62f-b980-46b9-81d6-5064d82f15ba","ios":"levelo://app?vid=6429e62f-b980-46b9-81d6-5064d82f15ba"},"vehicle_type_id":"4","last_reported":1719414515,"current_range_meters":29200,"station_id":"ce4bhr92rcd13ifvqhsg","pricing_plan_id":"cebpf4jnsgd1na2vs0mg"},{"bike_id":"5a40155e-f6da-4c6d-a8ce-87b8c87e32a8","system_id":"levelo_inurba_marseille","lat":43.32333,"lon":5.40622,"is_reserved":false,"is_disabled":false,"rental_uris":{"android":"levelo://app?vid=5a40155e-f6da-4c6d-a8ce-87b8c87e32a8","ios":"levelo://app?vid=5a40155e-f6da-4c6d-a8ce-87b8c87e32a8"},"vehicle_type_id":"4","last_reported":1719414515,"current_range_meters":19200,"station_id":"ce4bhq92rcd13ifvqhjg","pricing_plan_id":"cebpf4jnsgd1na2vs0mg"},{"bike_id":"3e450720-8d02-4eae-b2af-ba974ee56a7f","system_id":"levelo_inurba_marseille","lat":43.323464,"lon":5.406297,"is_reserved":false,"is_disabled":false,"rental_uris":{"android":"levelo://app?vid=3e450720-8d02-4eae-b2af-ba974ee56a7f","ios":"levelo://app?vid=3e450720-8d02-4eae-b2af-ba974ee56a7f"},"vehicle_type_id":"4","last_reported":1719414515,"current_range_meters":4400,"station_id":"ce4bhq92rcd13ifvqhjg","pricing_plan_id":"cebpf4jnsgd1na2vs0mg"},{"bike_id":"5c269dcf-aeeb-4ab3-8b8d-3f65d61428c4","system_id":"levelo_inurba_marseille","lat":43.28482,"lon":5.38433,"is_reserved":false,"is_disabled":false,"rental_uris":{"android":"levelo://app?vid=5c269dcf-aeeb-4ab3-8b8d-3f65d61428c4","ios":"levelo://app?vid=5c269dcf-aeeb-4ab3-8b8d-3f65d61428c4"},"vehicle_type_id":"4","last_reported":1719414515,"current_range_meters":0,"station_id":"ce4bh512rcd13ifvqe3g","pricing_plan_id":"cebpf4jnsgd1na2vs0mg"},{"bike_id":"c1af1a8a-d148-48a6-8d75-7243508eb09f","system_id":"levelo_inurba_marseille","lat":43.297946,"lon":5.404063,"is_reserved":false,"is_disabled":false,"rental_uris":{"android":"levelo://app?vid=c1af1a8a-d148-48a6-8d75-7243508eb09f","ios":"levelo://app?vid=c1af1a8a-d148-48a6-8d75-7243508eb09f"},"vehicle_type_id":"4","last_reported":1719414515,"current_range_meters":6800,"station_id":"ce4bh112rcd13ifvqd90","pricing_plan_id":"cebpf4jnsgd1na2vs0mg"},{"bike_id":"1c74c576-0502-4ba5-803d-782066f8aabb","system_id":"levelo_inurba_marseille","lat":43.297946,"lon":5.404063,"is_reserved":false,"is_disabled":false,"rental_uris":{"android":"levelo://app?vid=1c74c576-0502-4ba5-803d-782066f8aabb","ios":"levelo://app?vid=1c74c576-0502-4ba5-803d-782066f8aabb"},"vehicle_type_id":"4","last_reported":1719414515,"current_range_meters":13600,"station_id":"ce4bh112rcd13ifvqd90","pricing_plan_id":"cebpf4jnsgd1na2vs0mg"},{"bike_id":"7378873e-6d7e-4ed9-9161-f41b555b4102","system_id":"levelo_inurba_marseille","lat":43.283494,"lon":5.380945,"is_reserved":false,"is_disabled":false,"rental_uris":{"android":"levelo://app?vid=7378873e-6d7e-4ed9-9161-f41b555b4102","ios":"levelo://app?vid=7378873e-6d7e-4ed9-9161-f41b555b4102"},"vehicle_type_id":"4","last_reported":1719414515,"current_range_meters":800,"station_id":"ce4bh412rcd13ifvqdr0","pricing_plan_id":"cebpf4jnsgd1na2vs0mg"},{"bike_id":"1fceaf69-4687-4578-8440-91e1de523216","system_id":"levelo_inurba_marseille","lat":43.283494,"lon":5.380945,"is_reserved":false,"is_disabled":false,"rental_uris":{"android":"levelo://app?vid=1fceaf69-4687-4578-8440-91e1de523216","ios":"levelo://app?vid=1fceaf69-4687-4578-8440-91e1de523216"},"vehicle_type_id":"4","last_reported":1719414515,"current_range_meters":23600,"station_id":"ce4bh412rcd13ifvqdr0","pricing_plan_id":"cebpf4jnsgd1na2vs0mg"},{"bike_id":"3a62a8ee-f066-416c-b4ab-8fcc646b792c","system_id":"levelo_inurba_marseille","lat":43.283494,"lon":5.380945,"is_reserved":false,"is_disabled":false,"rental_uris":{"android":"levelo://app?vid=3a62a8ee-f066-416c-b4ab-8fcc646b792c","ios":"levelo://app?vid=3a62a8ee-f066-416c-b4ab-8fcc646b792c"},"vehicle_type_id":"4","last_reported":1719414515,"current_range_meters":12400,"station_id":"ce4bh412rcd13ifvqdr0","pricing_plan_id":"cebpf4jnsgd1na2vs0mg"},{"bike_id":"63e5d346-df5c-411f-927a-254a156c6791","system_id":"levelo_inurba_marseille","lat":43.283494,"lon":5.380945,"is_reserved":false,"is_disabled":false,"rental_uris":{"android":"levelo://app?vid=63e5d346-df5c-411f-927a-254a156c6791","ios":"levelo://app?vid=63e5d346-df5c-411f-927a-254a156c6791"},"vehicle_type_id":"4","last_reported":1719414515,"current_range_meters":4000,"station_id":"ce4bh412rcd13ifvqdr0","pricing_plan_id":"cebpf4jnsgd1na2vs0mg"},{"bike_id":"81bda769-794e-403a-918d-83084f216af0","system_id":"levelo_inurba_marseille","lat":43.284217,"lon":5.349697,"is_reserved":false,"is_disabled":false,"rental_uris":{"android":"levelo://app?vid=81bda769-794e-403a-918d-83084f216af0","ios":"levelo://app?vid=81bda769-794e-403a-918d-83084f216af0"},"vehicle_type_id":"4","last_reported":1719414515,"current_range_meters":27600,"station_id":"ce4bhbh2rcd13ifvqepg","pricing_plan_id":"cebpf4jnsgd1na2vs0mg"},{"bike_id":"c9fc29ab-4796-4176-b680-9fa57e54c939","system_id":"levelo_inurba_marseille","lat":43.28422,"lon":5.34998,"is_reserved":false,"is_disabled":false,"rental_uris":{"android":"levelo://app?vid=c9fc29ab-4796-4176-b680-9fa57e54c939","ios":"levelo://app?vid=c9fc29ab-4796-4176-b680-9fa57e54c939"},"vehicle_type_id":"4","last_reported":1719414515,"current_range_meters":30800,"station_id":"ce4bhbh2rcd13ifvqepg","pricing_plan_id":"cebpf4jnsgd1na2vs0mg"},{"bike_id":"e240b56b-52ca-4a3f-8fe5-3674f4677072","system_id":"levelo_inurba_marseille","lat":43.28421,"lon":5.349983,"is_reserved":false,"is_disabled":false,"rental_uris":{"android":"levelo://app?vid=e240b56b-52ca-4a3f-8fe5-3674f4677072","ios":"levelo://app?vid=e240b56b-52ca-4a3f-8fe5-3674f4677072"},"vehicle_type_id":"4","last_reported":1719414515,"current_range_meters":17200,"station_id":"ce4bhbh2rcd13ifvqepg","pricing_plan_id":"cebpf4jnsgd1na2vs0mg"},{"bike_id":"47847bfd-3189-4acd-819d-2d49eb035bcf","system_id":"levelo_inurba_marseille","lat":43.284219,"lon":5.3497,"is_reserved":false,"is_disabled":false,"rental_uris":{"android":"levelo://app?vid=47847bfd-3189-4acd-819d-2d49eb035bcf","ios":"levelo://app?vid=47847bfd-3189-4acd-819d-2d49eb035bcf"},"vehicle_type_id":"4","last_reported":1719414515,"current_range_meters":22000,"station_id":"ce4bhbh2rcd13ifvqepg","pricing_plan_id":"cebpf4jnsgd1na2vs0mg"},{"bike_id":"64d96309-1d55-4110-9bdf-165839f809eb","system_id":"levelo_inurba_marseille","lat":43.28419,"lon":5.34996,"is_reserved":false,"is_disabled":false,"rental_uris":{"android":"levelo://app?vid=64d96309-1d55-4110-9bdf-165839f809eb","ios":"levelo://app?vid=64d96309-1d55-4110-9bdf-165839f809eb"},"vehicle_type_id":"4","last_reported":1719414515,"current_range_meters":21600,"station_id":"ce4bhbh2rcd13ifvqepg","pricing_plan_id":"cebpf4jnsgd1na2vs0mg"},{"bike_id":"178e0465-14b3-4998-87c3-551e8b1bf948","system_id":"levelo_inurba_marseille","lat":43.284219,"lon":5.3497,"is_reserved":false,"is_disabled":false,"rental_uris":{"android":"levelo://app?vid=178e0465-14b3-4998-87c3-551e8b1bf948","ios":"levelo://app?vid=178e0465-14b3-4998-87c3-551e8b1bf948"},"vehicle_type_id":"4","last_reported":1719414515,"current_range_meters":24800,"station_id":"ce4bhbh2rcd13ifvqepg","pricing_plan_id":"cebpf4jnsgd1na2vs0mg"},{"bike_id":"ff31937c-0582-408e-bf17-5e6e58ad8356","system_id":"levelo_inurba_marseille","lat":43.285848,"lon":5.350787,"is_reserved":false,"is_disabled":false,"rental_uris":{"android":"levelo://app?vid=ff31937c-0582-408e-bf17-5e6e58ad8356","ios":"levelo://app?vid=ff31937c-0582-408e-bf17-5e6e58ad8356"},"vehicle_type_id":"4","last_reported":1719414515,"current_range_meters":20000,"station_id":"ce4bhch2rcd13ifvqeug","pricing_plan_id":"cebpf4jnsgd1na2vs0mg"},{"bike_id":"622f8d49-709b-44f2-a688-9fd8b9c99480","system_id":"levelo_inurba_marseille","lat":43.284214,"lon":5.349706,"is_reserved":false,"is_disabled":false,"rental_uris":{"android":"levelo://app?vid=622f8d49-709b-44f2-a688-9fd8b9c99480","ios":"levelo://app?vid=622f8d49-709b-44f2-a688-9fd8b9c99480"},"vehicle_type_id":"4","last_reported":1719414515,"current_range_meters":22000,"station_id":"ce4bhbh2rcd13ifvqepg","pricing_plan_id":"cebpf4jnsgd1na2vs0mg"},{"bike_id":"62c9d4f5-883b-49d3-b96e-e0329fdf23de","system_id":"levelo_inurba_marseille","lat":43.284214,"lon":5.349706,"is_reserved":false,"is_disabled":false,"rental_uris":{"android":"levelo://app?vid=62c9d4f5-883b-49d3-b96e-e0329fdf23de","ios":"levelo://app?vid=62c9d4f5-883b-49d3-b96e-e0329fdf23de"},"vehicle_type_id":"4","last_reported":1719414515,"current_range_meters":2000,"station_id":"ce4bhbh2rcd13ifvqepg","pricing_plan_id":"cebpf4jnsgd1na2vs0mg"},{"bike_id":"639667a2-f27d-4132-986d-0b385115b920","system_id":"levelo_inurba_marseille","lat":43.284167,"lon":5.349932,"is_reserved":false,"is_disabled":false,"rental_uris":{"android":"levelo://app?vid=639667a2-f27d-4132-986d-0b385115b920","ios":"levelo://app?vid=639667a2-f27d-4132-986d-0b385115b920"},"vehicle_type_id":"4","last_reported":1719414515,"current_range_meters":0,"station_id":"ce4bhbh2rcd13ifvqepg","pricing_plan_id":"cebpf4jnsgd1na2vs0mg"},{"bike_id":"738a00dd-8c77-41b8-8f27-c51b9d85133d","system_id":"levelo_inurba_marseille","lat":43.28417,"lon":5.349905,"is_reserved":false,"is_disabled":false,"rental_uris":{"android":"levelo://app?vid=738a00dd-8c77-41b8-8f27-c51b9d85133d","ios":"levelo://app?vid=738a00dd-8c77-41b8-8f27-c51b9d85133d"},"vehicle_type_id":"4","last_reported":1719414515,"current_range_meters":30800,"station_id":"ce4bhbh2rcd13ifvqepg","pricing_plan_id":"cebpf4jnsgd1na2vs0mg"},{"bike_id":"1da88b6e-45c4-4362-8ed8-43178fe03958","system_id":"levelo_inurba_marseille","lat":43.284214,"lon":5.349706,"is_reserved":false,"is_disabled":false,"rental_uris":{"android":"levelo://app?vid=1da88b6e-45c4-4362-8ed8-43178fe03958","ios":"levelo://app?vid=1da88b6e-45c4-4362-8ed8-43178fe03958"},"vehicle_type_id":"4","last_reported":1719414515,"current_range_meters":8000,"station_id":"ce4bhbh2rcd13ifvqepg","pricing_plan_id":"cebpf4jnsgd1na2vs0mg"},{"bike_id":"822bec61-819f-4b2f-b01d-583da23bf6c2","system_id":"levelo_inurba_marseille","lat":43.284214,"lon":5.349706,"is_reserved":false,"is_disabled":false,"rental_uris":{"android":"levelo://app?vid=822bec61-819f-4b2f-b01d-583da23bf6c2","ios":"levelo://app?vid=822bec61-819f-4b2f-b01d-583da23bf6c2"},"vehicle_type_id":"4","last_reported":1719414515,"current_range_meters":2400,"station_id":"ce4bhbh2rcd13ifvqepg","pricing_plan_id":"cebpf4jnsgd1na2vs0mg"},{"bike_id":"bba49e63-275e-49c6-8bf8-11daa4491504","system_id":"levelo_inurba_marseille","lat":43.28416,"lon":5.3499,"is_reserved":false,"is_disabled":false,"rental_uris":{"android":"levelo://app?vid=bba49e63-275e-49c6-8bf8-11daa4491504","ios":"levelo://app?vid=bba49e63-275e-49c6-8bf8-11daa4491504"},"vehicle_type_id":"4","last_reported":1719414515,"current_range_meters":24000,"station_id":"ce4bhbh2rcd13ifvqepg","pricing_plan_id":"cebpf4jnsgd1na2vs0mg"},{"bike_id":"56e2d572-068d-46ea-8d60-75e3395d1209","system_id":"levelo_inurba_marseille","lat":43.28414,"lon":5.34996,"is_reserved":false,"is_disabled":false,"rental_uris":{"android":"levelo://app?vid=56e2d572-068d-46ea-8d60-75e3395d1209","ios":"levelo://app?vid=56e2d572-068d-46ea-8d60-75e3395d1209"},"vehicle_type_id":"4","last_reported":1719414515,"current_range_meters":16800,"station_id":"ce4bhbh2rcd13ifvqepg","pricing_plan_id":"cebpf4jnsgd1na2vs0mg"},{"bike_id":"a0ff3554-7fd3-45ce-9104-5b199e73880b","system_id":"levelo_inurba_marseille","lat":43.28419,"lon":5.3498,"is_reserved":false,"is_disabled":false,"rental_uris":{"android":"levelo://app?vid=a0ff3554-7fd3-45ce-9104-5b199e73880b","ios":"levelo://app?vid=a0ff3554-7fd3-45ce-9104-5b199e73880b"},"vehicle_type_id":"4","last_reported":1719414515,"current_range_meters":22000,"station_id":"ce4bhbh2rcd13ifvqepg","pricing_plan_id":"cebpf4jnsgd1na2vs0mg"},{"bike_id":"fda3b004-4b71-4786-9299-0f74ee8fb76e","system_id":"levelo_inurba_marseille","lat":43.28414,"lon":5.34991,"is_reserved":false,"is_disabled":false,"rental_uris":{"android":"levelo://app?vid=fda3b004-4b71-4786-9299-0f74ee8fb76e","ios":"levelo://app?vid=fda3b004-4b71-4786-9299-0f74ee8fb76e"},"vehicle_type_id":"4","last_reported":1719414515,"current_range_meters":25600,"station_id":"ce4bhbh2rcd13ifvqepg","pricing_plan_id":"cebpf4jnsgd1na2vs0mg"},{"bike_id":"b9af0a29-4379-4a95-9339-b1bcc814c746","system_id":"levelo_inurba_marseille","lat":43.284177,"lon":5.349788,"is_reserved":false,"is_disabled":false,"rental_uris":{"android":"levelo://app?vid=b9af0a29-4379-4a95-9339-b1bcc814c746","ios":"levelo://app?vid=b9af0a29-4379-4a95-9339-b1bcc814c746"},"vehicle_type_id":"4","last_reported":1719414515,"current_range_meters":8400,"station_id":"ce4bhbh2rcd13ifvqepg","pricing_plan_id":"cebpf4jnsgd1na2vs0mg"},{"bike_id":"5d79c3cb-16f0-4c09-bf2b-e379fb3917f1","system_id":"levelo_inurba_marseille","lat":43.284173,"lon":5.349795,"is_reserved":false,"is_disabled":false,"rental_uris":{"android":"levelo://app?vid=5d79c3cb-16f0-4c09-bf2b-e379fb3917f1","ios":"levelo://app?vid=5d79c3cb-16f0-4c09-bf2b-e379fb3917f1"},"vehicle_type_id":"4","last_reported":1719414515,"current_range_meters":18800,"station_id":"ce4bhbh2rcd13ifvqepg","pricing_plan_id":"cebpf4jnsgd1na2vs0mg"},{"bike_id":"f868c77f-5548-4040-bb03-0a5f2ea81fd5","system_id":"levelo_inurba_marseille","lat":43.284156,"lon":5.349838,"is_reserved":false,"is_disabled":false,"rental_uris":{"android":"levelo://app?vid=f868c77f-5548-4040-bb03-0a5f2ea81fd5","ios":"levelo://app?vid=f868c77f-5548-4040-bb03-0a5f2ea81fd5"},"vehicle_type_id":"4","last_reported":1719414515,"current_range_meters":23600,"station_id":"ce4bhbh2rcd13ifvqepg","pricing_plan_id":"cebpf4jnsgd1na2vs0mg"},{"bike_id":"0064b865-5a78-4a5d-b1da-f09dfef854bb","system_id":"levelo_inurba_marseille","lat":43.284136,"lon":5.349892,"is_reserved":false,"is_disabled":false,"rental_uris":{"android":"levelo://app?vid=0064b865-5a78-4a5d-b1da-f09dfef854bb","ios":"levelo://app?vid=0064b865-5a78-4a5d-b1da-f09dfef854bb"},"vehicle_type_id":"4","last_reported":1719414515,"current_range_meters":18000,"station_id":"ce4bhbh2rcd13ifvqepg","pricing_plan_id":"cebpf4jnsgd1na2vs0mg"},{"bike_id":"bf5f6f5d-0eb3-44e9-9152-6912a6786bb0","system_id":"levelo_inurba_marseille","lat":43.28414,"lon":5.34986,"is_reserved":false,"is_disabled":false,"rental_uris":{"android":"levelo://app?vid=bf5f6f5d-0eb3-44e9-9152-6912a6786bb0","ios":"levelo://app?vid=bf5f6f5d-0eb3-44e9-9152-6912a6786bb0"},"vehicle_type_id":"4","last_reported":1719414515,"current_range_meters":25200,"station_id":"ce4bhbh2rcd13ifvqepg","pricing_plan_id":"cebpf4jnsgd1na2vs0mg"},{"bike_id":"ffd2231d-3caa-4a2d-b545-d955a79a96e7","system_id":"levelo_inurba_marseille","lat":43.284182,"lon":5.349726,"is_reserved":false,"is_disabled":false,"rental_uris":{"android":"levelo://app?vid=ffd2231d-3caa-4a2d-b545-d955a79a96e7","ios":"levelo://app?vid=ffd2231d-3caa-4a2d-b545-d955a79a96e7"},"vehicle_type_id":"4","last_reported":1719414515,"current_range_meters":31200,"station_id":"ce4bhbh2rcd13ifvqepg","pricing_plan_id":"cebpf4jnsgd1na2vs0mg"},{"bike_id":"52ac580f-cab0-4b38-88d5-edc0d88e838a","system_id":"levelo_inurba_marseille","lat":43.284125,"lon":5.349894,"is_reserved":false,"is_disabled":false,"rental_uris":{"android":"levelo://app?vid=52ac580f-cab0-4b38-88d5-edc0d88e838a","ios":"levelo://app?vid=52ac580f-cab0-4b38-88d5-edc0d88e838a"},"vehicle_type_id":"4","last_reported":1719414515,"current_range_meters":31200,"station_id":"ce4bhbh2rcd13ifvqepg","pricing_plan_id":"cebpf4jnsgd1na2vs0mg"},{"bike_id":"1c40322f-4b40-4463-80e9-5420e4175981","system_id":"levelo_inurba_marseille","lat":43.284136,"lon":5.34986,"is_reserved":false,"is_disabled":false,"rental_uris":{"android":"levelo://app?vid=1c40322f-4b40-4463-80e9-5420e4175981","ios":"levelo://app?vid=1c40322f-4b40-4463-80e9-5420e4175981"},"vehicle_type_id":"4","last_reported":1719414515,"current_range_meters":30800,"station_id":"ce4bhbh2rcd13ifvqepg","pricing_plan_id":"cebpf4jnsgd1na2vs0mg"},{"bike_id":"447afc32-b4f0-4bdb-845b-dc3fa5a253f9","system_id":"levelo_inurba_marseille","lat":43.284149,"lon":5.349798,"is_reserved":false,"is_disabled":false,"rental_uris":{"android":"levelo://app?vid=447afc32-b4f0-4bdb-845b-dc3fa5a253f9","ios":"levelo://app?vid=447afc32-b4f0-4bdb-845b-dc3fa5a253f9"},"vehicle_type_id":"4","last_reported":1719414515,"current_range_meters":30000,"station_id":"ce4bhbh2rcd13ifvqepg","pricing_plan_id":"cebpf4jnsgd1na2vs0mg"},{"bike_id":"c19beebd-43a1-4c13-82ea-230c82f03342","system_id":"levelo_inurba_marseille","lat":43.284137,"lon":5.349832,"is_reserved":false,"is_disabled":false,"rental_uris":{"android":"levelo://app?vid=c19beebd-43a1-4c13-82ea-230c82f03342","ios":"levelo://app?vid=c19beebd-43a1-4c13-82ea-230c82f03342"},"vehicle_type_id":"4","last_reported":1719414515,"current_range_meters":14400,"station_id":"ce4bhbh2rcd13ifvqepg","pricing_plan_id":"cebpf4jnsgd1na2vs0mg"},{"bike_id":"3868d300-38f2-4d09-a199-146608b04abc","system_id":"levelo_inurba_marseille","lat":43.28414,"lon":5.3498,"is_reserved":false,"is_disabled":false,"rental_uris":{"android":"levelo://app?vid=3868d300-38f2-4d09-a199-146608b04abc","ios":"levelo://app?vid=3868d300-38f2-4d09-a199-146608b04abc"},"vehicle_type_id":"4","last_reported":1719414515,"current_range_meters":0,"station_id":"ce4bhbh2rcd13ifvqepg","pricing_plan_id":"cebpf4jnsgd1na2vs0mg"},{"bike_id":"92e4d199-6863-4884-a445-73d233be8c10","system_id":"levelo_inurba_marseille","lat":43.28411,"lon":5.34987,"is_reserved":false,"is_disabled":false,"rental_uris":{"android":"levelo://app?vid=92e4d199-6863-4884-a445-73d233be8c10","ios":"levelo://app?vid=92e4d199-6863-4884-a445-73d233be8c10"},"vehicle_type_id":"4","last_reported":1719414515,"current_range_meters":0,"station_id":"ce4bhbh2rcd13ifvqepg","pricing_plan_id":"cebpf4jnsgd1na2vs0mg"},{"bike_id":"002de1b3-cc83-4bf1-a1cb-b85968c95dd2","system_id":"levelo_inurba_marseille","lat":43.28414,"lon":5.34977,"is_reserved":false,"is_disabled":false,"rental_uris":{"android":"levelo://app?vid=002de1b3-cc83-4bf1-a1cb-b85968c95dd2","ios":"levelo://app?vid=002de1b3-cc83-4bf1-a1cb-b85968c95dd2"},"vehicle_type_id":"4","last_reported":1719414515,"current_range_meters":20000,"station_id":"ce4bhbh2rcd13ifvqepg","pricing_plan_id":"cebpf4jnsgd1na2vs0mg"},{"bike_id":"7f642014-379f-4b5b-b2c2-d847fa9df58f","system_id":"levelo_inurba_marseille","lat":43.283498,"lon":5.380948,"is_reserved":false,"is_disabled":false,"rental_uris":{"android":"levelo://app?vid=7f642014-379f-4b5b-b2c2-d847fa9df58f","ios":"levelo://app?vid=7f642014-379f-4b5b-b2c2-d847fa9df58f"},"vehicle_type_id":"4","last_reported":1719414515,"current_range_meters":2000,"station_id":"ce4bh412rcd13ifvqdr0","pricing_plan_id":"cebpf4jnsgd1na2vs0mg"},{"bike_id":"b92af72d-158d-411d-81b7-664d22e06925","system_id":"levelo_inurba_marseille","lat":43.284037,"lon":5.349937,"is_reserved":false,"is_disabled":false,"rental_uris":{"android":"levelo://app?vid=b92af72d-158d-411d-81b7-664d22e06925","ios":"levelo://app?vid=b92af72d-158d-411d-81b7-664d22e06925"},