{"last_updated":1769516842,"ttl":60,"version":"2.2","data":{"bikes":[{"bike_id":"1d4557f2-9194-433e-908c-7af0a931319a","system_id":"levelo_inurba_marseille","lat":43.25495,"lon":5.3765,"is_reserved":false,"is_disabled":false,"rental_uris":{"android":"levelo://app?vid=1d4557f2-9194-433e-908c-7af0a931319a","ios":"levelo://app?vid=1d4557f2-9194-433e-908c-7af0a931319a"},"vehicle_type_id":"4","last_reported":1769516843,"current_range_meters":2800,"station_id":"ce4bhh12rcd13ifvqff0","pricing_plan_id":"cebpf4jnsgd1na2vs0mg"},{"bike_id":"a85c4dff-4d0e-447f-be35-ab46b7400fe4","system_id":"levelo_inurba_marseille","lat":43.24814,"lon":5.37457,"is_reserved":false,"is_disabled":false,"rental_uris":{"android":"levelo://app?vid=a85c4dff-4d0e-447f-be35-ab46b7400fe4","ios":"levelo://app?vid=a85c4dff-4d0e-447f-be35-ab46b7400fe4"},"vehicle_type_id":"4","last_reported":1769516843,"current_range_meters":2800,"station_id":"ce4bhgh2rcd13ifvqfb0","pricing_plan_id":"cebpf4jnsgd1na2vs0mg"},{"bike_id":"a57ac1b9-36db-4721-8a5f-8013a4daf2e4","system_id":"levelo_inurba_marseille","lat":43.29816,"lon":5.44066,"is_reserved":false,"is_disabled":false,"rental_uris":{"android":"levelo://app?vid=a57ac1b9-36db-4721-8a5f-8013a4daf2e4","ios":"levelo://app?vid=a57ac1b9-36db-4721-8a5f-8013a4daf2e4"},"vehicle_type_id":"4","last_reported":1769516843,"current_range_meters":2800,"station_id":"st_d3jp68qikq2c7381ktn0","pricing_plan_id":"cebpf4jnsgd1na2vs0mg"},{"bike_id":"4cb54212-116b-4feb-9622-3a7d6acefd1b","system_id":"levelo_inurba_marseille","lat":43.2318,"lon":5.39974,"is_reserved":false,"is_disabled":false,"rental_uris":{"android":"levelo://app?vid=4cb54212-116b-4feb-9622-3a7d6acefd1b","ios":"levelo://app?vid=4cb54212-116b-4feb-9622-3a7d6acefd1b"},"vehicle_type_id":"4","last_reported":1769516843,"current_range_meters":2800,"station_id":"ce4bhn12rcd13ifvqgqg","pricing_plan_id":"cebpf4jnsgd1na2vs0mg"},{"bike_id":"1b209641-906c-4eed-9c8f-89dbf4074863","system_id":"levelo_inurba_marseille","lat":43.29555,"lon":5.4229,"is_reserved":false,"is_disabled":false,"rental_uris":{"android":"levelo://app?vid=1b209641-906c-4eed-9c8f-89dbf4074863","ios":"levelo://app?vid=1b209641-906c-4eed-9c8f-89dbf4074863"},"vehicle_type_id":"4","last_reported":1769516843,"current_range_meters":2800,"station_id":"ce4bhph2rcd13ifvqhdg","pricing_plan_id":"cebpf4jnsgd1na2vs0mg"},{"bike_id":"80ada91d-e191-4ef3-b7aa-b48de6ef011f","system_id":"levelo_inurba_marseille","lat":43.27868,"lon":5.39222,"is_reserved":false,"is_disabled":false,"rental_uris":{"android":"levelo://app?vid=80ada91d-e191-4ef3-b7aa-b48de6ef011f","ios":"levelo://app?vid=80ada91d-e191-4ef3-b7aa-b48de6ef011f"},"vehicle_type_id":"4","last_reported":1769516843,"current_range_meters":2800,"station_id":"ce4bhjp2rcd13ifvqga0","pricing_plan_id":"cebpf4jnsgd1na2vs0mg"},{"bike_id":"8fcc7dfb-9afa-4b40-8aed-c00c1dd819d8","system_id":"levelo_inurba_marseille","lat":43.31108,"lon":5.37826,"is_reserved":false,"is_disabled":false,"rental_uris":{"android":"levelo://app?vid=8fcc7dfb-9afa-4b40-8aed-c00c1dd819d8","ios":"levelo://app?vid=8fcc7dfb-9afa-4b40-8aed-c00c1dd819d8"},"vehicle_type_id":"4","last_reported":1769516843,"current_range_meters":3200,"station_id":"ce4bgt92rcd13ifvqcg0","pricing_plan_id":"cebpf4jnsgd1na2vs0mg"},{"bike_id":"93c7ca3c-2e02-4311-a0d1-b461f66e2ced","system_id":"levelo_inurba_marseille","lat":43.314982,"lon":5.373115,"is_reserved":false,"is_disabled":false,"rental_uris":{"android":"levelo://app?vid=93c7ca3c-2e02-4311-a0d1-b461f66e2ced","ios":"levelo://app?vid=93c7ca3c-2e02-4311-a0d1-b461f66e2ced"},"vehicle_type_id":"4","last_reported":1769516843,"current_range_meters":3200,"station_id":"","pricing_plan_id":"cebpf4jnsgd1na2vs0mg"},{"bike_id":"908b886e-cc4b-4226-b372-446a0d3f1b77","system_id":"levelo_inurba_marseille","lat":43.23181,"lon":5.35571,"is_reserved":false,"is_disabled":false,"rental_uris":{"android":"levelo://app?vid=908b886e-cc4b-4226-b372-446a0d3f1b77","ios":"levelo://app?vid=908b886e-cc4b-4226-b372-446a0d3f1b77"},"vehicle_type_id":"4","last_reported":1769516843,"current_range_meters":3200,"station_id":"ce4bhu92rcd13ifvqi70","pricing_plan_id":"cebpf4jnsgd1na2vs0mg"},{"bike_id":"2e7dad9e-9695-44d6-bc96-ef3eee5dfbfa","system_id":"levelo_inurba_marseille","lat":43.31413,"lon":5.3668,"is_reserved":false,"is_disabled":false,"rental_uris":{"android":"levelo://app?vid=2e7dad9e-9695-44d6-bc96-ef3eee5dfbfa","ios":"levelo://app?vid=2e7dad9e-9695-44d6-bc96-ef3eee5dfbfa"},"vehicle_type_id":"4","last_reported":1769516843,"current_range_meters":3200,"station_id":"","pricing_plan_id":"cebpf4jnsgd1na2vs0mg"},{"bike_id":"03628ce2-f90f-4215-9e8f-4d1a2c153b49","system_id":"levelo_inurba_marseille","lat":43.24566,"lon":5.37356,"is_reserved":false,"is_disabled":false,"rental_uris":{"android":"levelo://app?vid=03628ce2-f90f-4215-9e8f-4d1a2c153b49","ios":"levelo://app?vid=03628ce2-f90f-4215-9e8f-4d1a2c153b49"},"vehicle_type_id":"4","last_reported":1769516843,"current_range_meters":3200,"station_id":"","pricing_plan_id":"cebpf4jnsgd1na2vs0mg"},{"bike_id":"736929a0-d6a8-4f12-8769-fcb0d31195b2","system_id":"levelo_inurba_marseille","lat":43.27853,"lon":5.40376,"is_reserved":false,"is_disabled":false,"rental_uris":{"android":"levelo://app?vid=736929a0-d6a8-4f12-8769-fcb0d31195b2","ios":"levelo://app?vid=736929a0-d6a8-4f12-8769-fcb0d31195b2"},"vehicle_type_id":"4","last_reported":1769516843,"current_range_meters":3200,"station_id":"","pricing_plan_id":"cebpf4jnsgd1na2vs0mg"},{"bike_id":"e73f1781-62f4-4a23-b153-6815bc29f05e","system_id":"levelo_inurba_marseille","lat":43.2929,"lon":5.41178,"is_reserved":false,"is_disabled":false,"rental_uris":{"android":"levelo://app?vid=e73f1781-62f4-4a23-b153-6815bc29f05e","ios":"levelo://app?vid=e73f1781-62f4-4a23-b153-6815bc29f05e"},"vehicle_type_id":"4","last_reported":1769516843,"current_range_meters":3200,"station_id":"","pricing_plan_id":"cebpf4jnsgd1na2vs0mg"},{"bike_id":"5b91b93d-b3ae-4751-8498-b1dabc506a1f","system_id":"levelo_inurba_marseille","lat":43.24459,"lon":5.4254,"is_reserved":false,"is_disabled":false,"rental_uris":{"android":"levelo://app?vid=5b91b93d-b3ae-4751-8498-b1dabc506a1f","ios":"levelo://app?vid=5b91b93d-b3ae-4751-8498-b1dabc506a1f"},"vehicle_type_id":"4","last_reported":1769516843,"current_range_meters":3600,"station_id":"st_d4a3vfp97mjs738cd8kg","pricing_plan_id":"cebpf4jnsgd1na2vs0mg"},{"bike_id":"192ad20e-ad65-4a54-bb90-6859b4697a3a","system_id":"levelo_inurba_marseille","lat":43.31062,"lon":5.38355,"is_reserved":false,"is_disabled":false,"rental_uris":{"android":"levelo://app?vid=192ad20e-ad65-4a54-bb90-6859b4697a3a","ios":"levelo://app?vid=192ad20e-ad65-4a54-bb90-6859b4697a3a"},"vehicle_type_id":"4","last_reported":1769516843,"current_range_meters":3600,"station_id":"ce4bgv92rcd13ifvqcr0","pricing_plan_id":"cebpf4jnsgd1na2vs0mg"},{"bike_id":"f27411a3-1900-42bd-99e6-badc7c9aec55","system_id":"levelo_inurba_marseille","lat":43.27075,"lon":5.42298,"is_reserved":false,"is_disabled":false,"rental_uris":{"android":"levelo://app?vid=f27411a3-1900-42bd-99e6-badc7c9aec55","ios":"levelo://app?vid=f27411a3-1900-42bd-99e6-badc7c9aec55"},"vehicle_type_id":"4","last_reported":1769516843,"current_range_meters":3600,"station_id":"ce4bhk92rcd13ifvqgb0","pricing_plan_id":"cebpf4jnsgd1na2vs0mg"},{"bike_id":"606f4b37-e66b-4bf3-b8ee-ac87e56bca9f","system_id":"levelo_inurba_marseille","lat":43.24074,"lon":5.37764,"is_reserved":false,"is_disabled":false,"rental_uris":{"android":"levelo://app?vid=606f4b37-e66b-4bf3-b8ee-ac87e56bca9f","ios":"levelo://app?vid=606f4b37-e66b-4bf3-b8ee-ac87e56bca9f"},"vehicle_type_id":"4","last_reported":1769516843,"current_range_meters":3600,"station_id":"ce4bhnp2rcd13ifvqgvg","pricing_plan_id":"cebpf4jnsgd1na2vs0mg"},{"bike_id":"9a3bd7cd-c173-401e-aeca-1c31c6626124","system_id":"levelo_inurba_marseille","lat":43.25502,"lon":5.37647,"is_reserved":false,"is_disabled":false,"rental_uris":{"android":"levelo://app?vid=9a3bd7cd-c173-401e-aeca-1c31c6626124","ios":"levelo://app?vid=9a3bd7cd-c173-401e-aeca-1c31c6626124"},"vehicle_type_id":"4","last_reported":1769516843,"current_range_meters":3600,"station_id":"ce4bhh12rcd13ifvqff0","pricing_plan_id":"cebpf4jnsgd1na2vs0mg"},{"bike_id":"e08b4e36-f866-4715-b906-4f8f20dfeb88","system_id":"levelo_inurba_marseille","lat":43.31324,"lon":5.39689,"is_reserved":false,"is_disabled":false,"rental_uris":{"android":"levelo://app?vid=e08b4e36-f866-4715-b906-4f8f20dfeb88","ios":"levelo://app?vid=e08b4e36-f866-4715-b906-4f8f20dfeb88"},"vehicle_type_id":"4","last_reported":1769516843,"current_range_meters":4000,"station_id":"ce4bgvp2rcd13ifvqcu0","pricing_plan_id":"cebpf4jnsgd1na2vs0mg"},{"bike_id":"db9c03c2-9b01-4225-936a-49087960dd5e","system_id":"levelo_inurba_marseille","lat":43.295,"lon":5.43309,"is_reserved":false,"is_disabled":false,"rental_uris":{"android":"levelo://app?vid=db9c03c2-9b01-4225-936a-49087960dd5e","ios":"levelo://app?vid=db9c03c2-9b01-4225-936a-49087960dd5e"},"vehicle_type_id":"4","last_reported":1769516843,"current_range_meters":4000,"station_id":"st_d3j5ugp08ojc73fj9d10","pricing_plan_id":"cebpf4jnsgd1na2vs0mg"},{"bike_id":"898169fa-29c0-4349-a185-41ab96475b8a","system_id":"levelo_inurba_marseille","lat":43.25006,"lon":5.38908,"is_reserved":false,"is_disabled":false,"rental_uris":{"android":"levelo://app?vid=898169fa-29c0-4349-a185-41ab96475b8a","ios":"levelo://app?vid=898169fa-29c0-4349-a185-41ab96475b8a"},"vehicle_type_id":"4","last_reported":1769516843,"current_range_meters":4000,"station_id":"ce4bhgp2rcd13ifvqfd0","pricing_plan_id":"cebpf4jnsgd1na2vs0mg"},{"bike_id":"062ac5f5-90b2-4964-8a95-05a79098170a","system_id":"levelo_inurba_marseille","lat":43.24469,"lon":5.42535,"is_reserved":false,"is_disabled":false,"rental_uris":{"android":"levelo://app?vid=062ac5f5-90b2-4964-8a95-05a79098170a","ios":"levelo://app?vid=062ac5f5-90b2-4964-8a95-05a79098170a"},"vehicle_type_id":"4","last_reported":1769516843,"current_range_meters":4000,"station_id":"","pricing_plan_id":"cebpf4jnsgd1na2vs0mg"},{"bike_id":"2ee3973e-4978-4682-8f7b-588282a20d1f","system_id":"levelo_inurba_marseille","lat":43.2602,"lon":5.4174,"is_reserved":false,"is_disabled":false,"rental_uris":{"android":"levelo://app?vid=2ee3973e-4978-4682-8f7b-588282a20d1f","ios":"levelo://app?vid=2ee3973e-4978-4682-8f7b-588282a20d1f"},"vehicle_type_id":"4","last_reported":1769516843,"current_range_meters":4000,"station_id":"","pricing_plan_id":"cebpf4jnsgd1na2vs0mg"},{"bike_id":"79b6158d-49ea-4914-8da1-643529c2d44f","system_id":"levelo_inurba_marseille","lat":43.24653,"lon":5.38887,"is_reserved":false,"is_disabled":false,"rental_uris":{"android":"levelo://app?vid=79b6158d-49ea-4914-8da1-643529c2d44f","ios":"levelo://app?vid=79b6158d-49ea-4914-8da1-643529c2d44f"},"vehicle_type_id":"4","last_reported":1769516843,"current_range_meters":4400,"station_id":"ce4bhg12rcd13ifvqf60","pricing_plan_id":"cebpf4jnsgd1na2vs0mg"},{"bike_id":"e495c2f5-f80d-4df9-82ae-75a42acd9c16","system_id":"levelo_inurba_marseille","lat":43.28022,"lon":5.39983,"is_reserved":false,"is_disabled":false,"rental_uris":{"android":"levelo://app?vid=e495c2f5-f80d-4df9-82ae-75a42acd9c16","ios":"levelo://app?vid=e495c2f5-f80d-4df9-82ae-75a42acd9c16"},"vehicle_type_id":"4","last_reported":1769516843,"current_range_meters":4400,"station_id":"ce4bho92rcd13ifvqh4g","pricing_plan_id":"cebpf4jnsgd1na2vs0mg"},{"bike_id":"cfb67ada-34b1-419c-91f0-868c9be1a48b","system_id":"levelo_inurba_marseille","lat":43.24174,"lon":5.36409,"is_reserved":false,"is_disabled":false,"rental_uris":{"android":"levelo://app?vid=cfb67ada-34b1-419c-91f0-868c9be1a48b","ios":"levelo://app?vid=cfb67ada-34b1-419c-91f0-868c9be1a48b"},"vehicle_type_id":"4","last_reported":1769516843,"current_range_meters":4400,"station_id":"cpo36qri1sfpv3e86is0","pricing_plan_id":"cebpf4jnsgd1na2vs0mg"},{"bike_id":"daab4c5f-eb65-4192-89dd-6363e81a674d","system_id":"levelo_inurba_marseille","lat":43.275352,"lon":5.409425,"is_reserved":false,"is_disabled":false,"rental_uris":{"android":"levelo://app?vid=daab4c5f-eb65-4192-89dd-6363e81a674d","ios":"levelo://app?vid=daab4c5f-eb65-4192-89dd-6363e81a674d"},"vehicle_type_id":"4","last_reported":1769516843,"current_range_meters":4400,"station_id":"","pricing_plan_id":"cebpf4jnsgd1na2vs0mg"},{"bike_id":"8d577ecd-077d-4aa5-81a9-b98fbac96ee4","system_id":"levelo_inurba_marseille","lat":43.28391,"lon":5.38631,"is_reserved":false,"is_disabled":false,"rental_uris":{"android":"levelo://app?vid=8d577ecd-077d-4aa5-81a9-b98fbac96ee4","ios":"levelo://app?vid=8d577ecd-077d-4aa5-81a9-b98fbac96ee4"},"vehicle_type_id":"4","last_reported":1769516843,"current_range_meters":4400,"station_id":"ce4bh492rcd13ifvqdvg","pricing_plan_id":"cebpf4jnsgd1na2vs0mg"},{"bike_id":"ccf326ac-ae0a-4ffb-a071-520b4c6f402c","system_id":"levelo_inurba_marseille","lat":43.332817,"lon":5.379623,"is_reserved":false,"is_disabled":false,"rental_uris":{"android":"levelo://app?vid=ccf326ac-ae0a-4ffb-a071-520b4c6f402c","ios":"levelo://app?vid=ccf326ac-ae0a-4ffb-a071-520b4c6f402c"},"vehicle_type_id":"4","last_reported":1769516843,"current_range_meters":4400,"station_id":"","pricing_plan_id":"cebpf4jnsgd1na2vs0mg"},{"bike_id":"c060f6fe-9c22-4601-a3d6-b324dc7e883d","system_id":"levelo_inurba_marseille","lat":43.229259,"lon":5.353784,"is_reserved":false,"is_disabled":false,"rental_uris":{"android":"levelo://app?vid=c060f6fe-9c22-4601-a3d6-b324dc7e883d","ios":"levelo://app?vid=c060f6fe-9c22-4601-a3d6-b324dc7e883d"},"vehicle_type_id":"4","last_reported":1769516843,"current_range_meters":4400,"station_id":"cpo3532slgdg3j2ikp40","pricing_plan_id":"cebpf4jnsgd1na2vs0mg"},{"bike_id":"5be68105-477a-4926-9923-7b5ffbb88956","system_id":"levelo_inurba_marseille","lat":43.33529,"lon":5.37469,"is_reserved":false,"is_disabled":false,"rental_uris":{"android":"levelo://app?vid=5be68105-477a-4926-9923-7b5ffbb88956","ios":"levelo://app?vid=5be68105-477a-4926-9923-7b5ffbb88956"},"vehicle_type_id":"4","last_reported":1769516843,"current_range_meters":4400,"station_id":"","pricing_plan_id":"cebpf4jnsgd1na2vs0mg"},{"bike_id":"539af392-7350-492a-86ff-031e626096d7","system_id":"levelo_inurba_marseille","lat":43.3236,"lon":5.36732,"is_reserved":false,"is_disabled":false,"rental_uris":{"android":"levelo://app?vid=539af392-7350-492a-86ff-031e626096d7","ios":"levelo://app?vid=539af392-7350-492a-86ff-031e626096d7"},"vehicle_type_id":"4","last_reported":1769516843,"current_range_meters":4800,"station_id":"ce4bhsh2rcd13ifvqi2g","pricing_plan_id":"cebpf4jnsgd1na2vs0mg"},{"bike_id":"f90a7cba-5743-45de-a991-86993c3511a7","system_id":"levelo_inurba_marseille","lat":43.32364,"lon":5.36758,"is_reserved":false,"is_disabled":false,"rental_uris":{"android":"levelo://app?vid=f90a7cba-5743-45de-a991-86993c3511a7","ios":"levelo://app?vid=f90a7cba-5743-45de-a991-86993c3511a7"},"vehicle_type_id":"4","last_reported":1769516843,"current_range_meters":4800,"station_id":"ce4bhsh2rcd13ifvqi2g","pricing_plan_id":"cebpf4jnsgd1na2vs0mg"},{"bike_id":"0bd3fd33-ca42-4b1b-b0cd-6ec4b1ecd569","system_id":"levelo_inurba_marseille","lat":43.32578,"lon":5.37799,"is_reserved":false,"is_disabled":false,"rental_uris":{"android":"levelo://app?vid=0bd3fd33-ca42-4b1b-b0cd-6ec4b1ecd569","ios":"levelo://app?vid=0bd3fd33-ca42-4b1b-b0cd-6ec4b1ecd569"},"vehicle_type_id":"4","last_reported":1769516843,"current_range_meters":4800,"station_id":"","pricing_plan_id":"cebpf4jnsgd1na2vs0mg"},{"bike_id":"4c5e84a3-878b-4e80-a848-d4891b4199bc","system_id":"levelo_inurba_marseille","lat":43.32348,"lon":5.36749,"is_reserved":false,"is_disabled":false,"rental_uris":{"android":"levelo://app?vid=4c5e84a3-878b-4e80-a848-d4891b4199bc","ios":"levelo://app?vid=4c5e84a3-878b-4e80-a848-d4891b4199bc"},"vehicle_type_id":"4","last_reported":1769516843,"current_range_meters":4800,"station_id":"ce4bhsh2rcd13ifvqi2g","pricing_plan_id":"cebpf4jnsgd1na2vs0mg"},{"bike_id":"f39628e7-f451-4af8-80af-ee31b074b0b2","system_id":"levelo_inurba_marseille","lat":43.29812,"lon":5.44063,"is_reserved":false,"is_disabled":false,"rental_uris":{"android":"levelo://app?vid=f39628e7-f451-4af8-80af-ee31b074b0b2","ios":"levelo://app?vid=f39628e7-f451-4af8-80af-ee31b074b0b2"},"vehicle_type_id":"4","last_reported":1769516843,"current_range_meters":4800,"station_id":"st_d3jp68qikq2c7381ktn0","pricing_plan_id":"cebpf4jnsgd1na2vs0mg"},{"bike_id":"61f9b512-dfe2-4c6f-b9eb-0a539aacc6ab","system_id":"levelo_inurba_marseille","lat":43.29912,"lon":5.43677,"is_reserved":false,"is_disabled":false,"rental_uris":{"android":"levelo://app?vid=61f9b512-dfe2-4c6f-b9eb-0a539aacc6ab","ios":"levelo://app?vid=61f9b512-dfe2-4c6f-b9eb-0a539aacc6ab"},"vehicle_type_id":"4","last_reported":1769516843,"current_range_meters":4800,"station_id":"ce4bhpp2rcd13ifvqhfg","pricing_plan_id":"cebpf4jnsgd1na2vs0mg"},{"bike_id":"62689e11-30b2-4cf7-a0a0-b39283952b26","system_id":"levelo_inurba_marseille","lat":43.24475,"lon":5.42532,"is_reserved":false,"is_disabled":false,"rental_uris":{"android":"levelo://app?vid=62689e11-30b2-4cf7-a0a0-b39283952b26","ios":"levelo://app?vid=62689e11-30b2-4cf7-a0a0-b39283952b26"},"vehicle_type_id":"4","last_reported":1769516843,"current_range_meters":4800,"station_id":"st_d4a3vfp97mjs738cd8kg","pricing_plan_id":"cebpf4jnsgd1na2vs0mg"},{"bike_id":"fcf7a98f-1fd5-4e85-9314-c14ad8323d94","system_id":"levelo_inurba_marseille","lat":43.31174,"lon":5.39365,"is_reserved":false,"is_disabled":false,"rental_uris":{"android":"levelo://app?vid=fcf7a98f-1fd5-4e85-9314-c14ad8323d94","ios":"levelo://app?vid=fcf7a98f-1fd5-4e85-9314-c14ad8323d94"},"vehicle_type_id":"4","last_reported":1769516843,"current_range_meters":5600,"station_id":"","pricing_plan_id":"cebpf4jnsgd1na2vs0mg"},{"bike_id":"ddf0627f-8ae1-4070-900d-7896689996f7","system_id":"levelo_inurba_marseille","lat":43.2501,"lon":5.38917,"is_reserved":false,"is_disabled":false,"rental_uris":{"android":"levelo://app?vid=ddf0627f-8ae1-4070-900d-7896689996f7","ios":"levelo://app?vid=ddf0627f-8ae1-4070-900d-7896689996f7"},"vehicle_type_id":"4","last_reported":1769516843,"current_range_meters":5600,"station_id":"ce4bhgp2rcd13ifvqfd0","pricing_plan_id":"cebpf4jnsgd1na2vs0mg"},{"bike_id":"628d1d29-948b-4815-bc3f-a0ef2ac1c781","system_id":"levelo_inurba_marseille","lat":43.241665,"lon":5.363909,"is_reserved":false,"is_disabled":false,"rental_uris":{"android":"levelo://app?vid=628d1d29-948b-4815-bc3f-a0ef2ac1c781","ios":"levelo://app?vid=628d1d29-948b-4815-bc3f-a0ef2ac1c781"},"vehicle_type_id":"4","last_reported":1769516843,"current_range_meters":5600,"station_id":"cpo36qri1sfpv3e86is0","pricing_plan_id":"cebpf4jnsgd1na2vs0mg"},{"bike_id":"74975ee5-cc21-4f8d-8ef0-3c4b42557576","system_id":"levelo_inurba_marseille","lat":43.32116,"lon":5.36792,"is_reserved":false,"is_disabled":false,"rental_uris":{"android":"levelo://app?vid=74975ee5-cc21-4f8d-8ef0-3c4b42557576","ios":"levelo://app?vid=74975ee5-cc21-4f8d-8ef0-3c4b42557576"},"vehicle_type_id":"4","last_reported":1769516843,"current_range_meters":5600,"station_id":"ce4bhrh2rcd13ifvqhug","pricing_plan_id":"cebpf4jnsgd1na2vs0mg"},{"bike_id":"b42265f2-22a6-4dc7-a5e2-a1d7b80fef7e","system_id":"levelo_inurba_marseille","lat":43.29602,"lon":5.37722,"is_reserved":false,"is_disabled":false,"rental_uris":{"android":"levelo://app?vid=b42265f2-22a6-4dc7-a5e2-a1d7b80fef7e","ios":"levelo://app?vid=b42265f2-22a6-4dc7-a5e2-a1d7b80fef7e"},"vehicle_type_id":"4","last_reported":1769516843,"current_range_meters":5600,"station_id":"ce4bgi92rcd13ifvqb90","pricing_plan_id":"cebpf4jnsgd1na2vs0mg"},{"bike_id":"fe78e212-9570-4f43-bb59-7c32b282ccdf","system_id":"levelo_inurba_marseille","lat":43.26957,"lon":5.38631,"is_reserved":false,"is_disabled":false,"rental_uris":{"android":"levelo://app?vid=fe78e212-9570-4f43-bb59-7c32b282ccdf","ios":"levelo://app?vid=fe78e212-9570-4f43-bb59-7c32b282ccdf"},"vehicle_type_id":"4","last_reported":1769516843,"current_range_meters":5600,"station_id":"ce4bhh92rcd13ifvqfh0","pricing_plan_id":"cebpf4jnsgd1na2vs0mg"},{"bike_id":"376d69a1-6c6a-4847-9e8d-b0a51343ba06","system_id":"levelo_inurba_marseille","lat":43.29589,"lon":5.37969,"is_reserved":false,"is_disabled":false,"rental_uris":{"android":"levelo://app?vid=376d69a1-6c6a-4847-9e8d-b0a51343ba06","ios":"levelo://app?vid=376d69a1-6c6a-4847-9e8d-b0a51343ba06"},"vehicle_type_id":"4","last_reported":1769516843,"current_range_meters":5600,"station_id":"","pricing_plan_id":"cebpf4jnsgd1na2vs0mg"},{"bike_id":"a240423c-4d7e-41a8-a549-8c46c4bdd550","system_id":"levelo_inurba_marseille","lat":43.248153,"lon":5.374678,"is_reserved":false,"is_disabled":false,"rental_uris":{"android":"levelo://app?vid=a240423c-4d7e-41a8-a549-8c46c4bdd550","ios":"levelo://app?vid=a240423c-4d7e-41a8-a549-8c46c4bdd550"},"vehicle_type_id":"4","last_reported":1769516843,"current_range_meters":5600,"station_id":"ce4bhgh2rcd13ifvqfb0","pricing_plan_id":"cebpf4jnsgd1na2vs0mg"},{"bike_id":"b93c0378-1697-47c4-b3e0-0ec8bc5ee0f3","system_id":"levelo_inurba_marseille","lat":43.263785,"lon":5.410574,"is_reserved":false,"is_disabled":false,"rental_uris":{"android":"levelo://app?vid=b93c0378-1697-47c4-b3e0-0ec8bc5ee0f3","ios":"levelo://app?vid=b93c0378-1697-47c4-b3e0-0ec8bc5ee0f3"},"vehicle_type_id":"4","last_reported":1769516843,"current_range_meters":5600,"station_id":"st_d4e5ca6na9uc73bfl5fg","pricing_plan_id":"cebpf4jnsgd1na2vs0mg"},{"bike_id":"5c18bca9-46cd-42a4-bd07-ba7493ce75f5","system_id":"levelo_inurba_marseille","lat":43.24666,"lon":5.43107,"is_reserved":false,"is_disabled":false,"rental_uris":{"android":"levelo://app?vid=5c18bca9-46cd-42a4-bd07-ba7493ce75f5","ios":"levelo://app?vid=5c18bca9-46cd-42a4-bd07-ba7493ce75f5"},"vehicle_type_id":"4","last_reported":1769516843,"current_range_meters":5600,"station_id":"st_d2m6c4gdas8pm72e190g","pricing_plan_id":"cebpf4jnsgd1na2vs0mg"},{"bike_id":"f845e441-1ca1-4fde-889e-45a681c017c7","system_id":"levelo_inurba_marseille","lat":43.24499,"lon":5.39565,"is_reserved":false,"is_disabled":false,"rental_uris":{"android":"levelo://app?vid=f845e441-1ca1-4fde-889e-45a681c017c7","ios":"levelo://app?vid=f845e441-1ca1-4fde-889e-45a681c017c7"},"vehicle_type_id":"4","last_reported":1769516843,"current_range_meters":6000,"station_id":"","pricing_plan_id":"cebpf4jnsgd1na2vs0mg"},{"bike_id":"cd32b736-566b-4d35-8940-26c8819f750b","system_id":"levelo_inurba_marseille","lat":43.25028,"lon":5.3891,"is_reserved":false,"is_disabled":false,"rental_uris":{"android":"levelo://app?vid=cd32b736-566b-4d35-8940-26c8819f750b","ios":"levelo://app?vid=cd32b736-566b-4d35-8940-26c8819f750b"},"vehicle_type_id":"4","last_reported":1769516843,"current_range_meters":6000,"station_id":"ce4bhgp2rcd13ifvqfd0","pricing_plan_id":"cebpf4jnsgd1na2vs0mg"},{"bike_id":"56076317-b66a-45ba-b3b6-c261c650aa84","system_id":"levelo_inurba_marseille","lat":43.29647,"lon":5.37813,"is_reserved":false,"is_disabled":false,"rental_uris":{"android":"levelo://app?vid=56076317-b66a-45ba-b3b6-c261c650aa84","ios":"levelo://app?vid=56076317-b66a-45ba-b3b6-c261c650aa84"},"vehicle_type_id":"4","last_reported":1769516843,"current_range_meters":6000,"station_id":"","pricing_plan_id":"cebpf4jnsgd1na2vs0mg"},{"bike_id":"aaf68de7-a8ba-4f2c-b543-643a8694a695","system_id":"levelo_inurba_marseille","lat":43.24806,"lon":5.37453,"is_reserved":false,"is_disabled":false,"rental_uris":{"android":"levelo://app?vid=aaf68de7-a8ba-4f2c-b543-643a8694a695","ios":"levelo://app?vid=aaf68de7-a8ba-4f2c-b543-643a8694a695"},"vehicle_type_id":"4","last_reported":1769516843,"current_range_meters":6000,"station_id":"ce4bhgh2rcd13ifvqfb0","pricing_plan_id":"cebpf4jnsgd1na2vs0mg"},{"bike_id":"6b771328-8844-4d03-a3e5-e822921ab254","system_id":"levelo_inurba_marseille","lat":43.26071,"lon":5.39395,"is_reserved":false,"is_disabled":false,"rental_uris":{"android":"levelo://app?vid=6b771328-8844-4d03-a3e5-e822921ab254","ios":"levelo://app?vid=6b771328-8844-4d03-a3e5-e822921ab254"},"vehicle_type_id":"4","last_reported":1769516843,"current_range_meters":6000,"station_id":"ce4bhh92rcd13ifvqfj0","pricing_plan_id":"cebpf4jnsgd1na2vs0mg"},{"bike_id":"780f37c1-f90d-49a0-a2ac-cb1a69ad708a","system_id":"levelo_inurba_marseille","lat":43.25946,"lon":5.4091,"is_reserved":false,"is_disabled":false,"rental_uris":{"android":"levelo://app?vid=780f37c1-f90d-49a0-a2ac-cb1a69ad708a","ios":"levelo://app?vid=780f37c1-f90d-49a0-a2ac-cb1a69ad708a"},"vehicle_type_id":"4","last_reported":1769516843,"current_range_meters":6000,"station_id":"ce4bhm92rcd13ifvqglg","pricing_plan_id":"cebpf4jnsgd1na2vs0mg"},{"bike_id":"9b6c9428-224e-49b9-a7f7-3ae4b2220fe9","system_id":"levelo_inurba_marseille","lat":43.28106,"lon":5.37839,"is_reserved":false,"is_disabled":false,"rental_uris":{"android":"levelo://app?vid=9b6c9428-224e-49b9-a7f7-3ae4b2220fe9","ios":"levelo://app?vid=9b6c9428-224e-49b9-a7f7-3ae4b2220fe9"},"vehicle_type_id":"4","last_reported":1769516843,"current_range_meters":6000,"station_id":"ce4bha12rcd13ifvqee0","pricing_plan_id":"cebpf4jnsgd1na2vs0mg"},{"bike_id":"39c45b00-edbc-4039-9410-db409ff71c29","system_id":"levelo_inurba_marseille","lat":43.3047,"lon":5.37259,"is_reserved":false,"is_disabled":false,"rental_uris":{"android":"levelo://app?vid=39c45b00-edbc-4039-9410-db409ff71c29","ios":"levelo://app?vid=39c45b00-edbc-4039-9410-db409ff71c29"},"vehicle_type_id":"4","last_reported":1769516843,"current_range_meters":6000,"station_id":"","pricing_plan_id":"cebpf4jnsgd1na2vs0mg"},{"bike_id":"15ffb544-9cf9-4c83-98f5-22f43ecc1d4c","system_id":"levelo_inurba_marseille","lat":43.30812,"lon":5.40479,"is_reserved":false,"is_disabled":false,"rental_uris":{"android":"levelo://app?vid=15ffb544-9cf9-4c83-98f5-22f43ecc1d4c","ios":"levelo://app?vid=15ffb544-9cf9-4c83-98f5-22f43ecc1d4c"},"vehicle_type_id":"4","last_reported":1769516843,"current_range_meters":6000,"station_id":"","pricing_plan_id":"cebpf4jnsgd1na2vs0mg"},{"bike_id":"3efb3524-6d65-46c0-8b42-df3b450ef0f6","system_id":"levelo_inurba_marseille","lat":43.24078,"lon":5.37755,"is_reserved":false,"is_disabled":false,"rental_uris":{"android":"levelo://app?vid=3efb3524-6d65-46c0-8b42-df3b450ef0f6","ios":"levelo://app?vid=3efb3524-6d65-46c0-8b42-df3b450ef0f6"},"vehicle_type_id":"4","last_reported":1769516843,"current_range_meters":6000,"station_id":"ce4bhnp2rcd13ifvqgvg","pricing_plan_id":"cebpf4jnsgd1na2vs0mg"},{"bike_id":"88ffd3a2-1506-480b-abc1-f9282e869380","system_id":"levelo_inurba_marseille","lat":43.25094,"lon":5.39515,"is_reserved":false,"is_disabled":false,"rental_uris":{"android":"levelo://app?vid=88ffd3a2-1506-480b-abc1-f9282e869380","ios":"levelo://app?vid=88ffd3a2-1506-480b-abc1-f9282e869380"},"vehicle_type_id":"4","last_reported":1769516843,"current_range_meters":6000,"station_id":"ce4bhm12rcd13ifvqgkg","pricing_plan_id":"cebpf4jnsgd1na2vs0mg"},{"bike_id":"f9a73a15-91a3-4f69-827d-c677810c8b91","system_id":"levelo_inurba_marseille","lat":43.22919,"lon":5.35376,"is_reserved":false,"is_disabled":false,"rental_uris":{"android":"levelo://app?vid=f9a73a15-91a3-4f69-827d-c677810c8b91","ios":"levelo://app?vid=f9a73a15-91a3-4f69-827d-c677810c8b91"},"vehicle_type_id":"4","last_reported":1769516843,"current_range_meters":6000,"station_id":"cpo3532slgdg3j2ikp40","pricing_plan_id":"cebpf4jnsgd1na2vs0mg"},{"bike_id":"65c2cffa-6fb7-4bc9-8df2-f7bde8bca8f1","system_id":"levelo_inurba_marseille","lat":43.257322,"lon":5.411083,"is_reserved":false,"is_disabled":false,"rental_uris":{"android":"levelo://app?vid=65c2cffa-6fb7-4bc9-8df2-f7bde8bca8f1","ios":"levelo://app?vid=65c2cffa-6fb7-4bc9-8df2-f7bde8bca8f1"},"vehicle_type_id":"4","last_reported":1769516843,"current_range_meters":6000,"station_id":"ce4bhkp2rcd13ifvqgd0","pricing_plan_id":"cebpf4jnsgd1na2vs0mg"},{"bike_id":"4982447f-e072-41ab-8515-f50997651ddc","system_id":"levelo_inurba_marseille","lat":43.23057,"lon":5.35485,"is_reserved":false,"is_disabled":false,"rental_uris":{"android":"levelo://app?vid=4982447f-e072-41ab-8515-f50997651ddc","ios":"levelo://app?vid=4982447f-e072-41ab-8515-f50997651ddc"},"vehicle_type_id":"4","last_reported":1769516843,"current_range_meters":6400,"station_id":"cpo3342slgdg3j2ifvpg","pricing_plan_id":"cebpf4jnsgd1na2vs0mg"},{"bike_id":"1b26e38f-d77a-41b0-93f4-12776fa12921","system_id":"levelo_inurba_marseille","lat":43.23146,"lon":5.43719,"is_reserved":false,"is_disabled":false,"rental_uris":{"android":"levelo://app?vid=1b26e38f-d77a-41b0-93f4-12776fa12921","ios":"levelo://app?vid=1b26e38f-d77a-41b0-93f4-12776fa12921"},"vehicle_type_id":"4","last_reported":1769516843,"current_range_meters":6400,"station_id":"ce4bhmp2rcd13ifvqgog","pricing_plan_id":"cebpf4jnsgd1na2vs0mg"},{"bike_id":"cc827cf5-4f3f-4ac3-aba7-6f8c4601f689","system_id":"levelo_inurba_marseille","lat":43.24155,"lon":5.36416,"is_reserved":false,"is_disabled":false,"rental_uris":{"android":"levelo://app?vid=cc827cf5-4f3f-4ac3-aba7-6f8c4601f689","ios":"levelo://app?vid=cc827cf5-4f3f-4ac3-aba7-6f8c4601f689"},"vehicle_type_id":"4","last_reported":1769516843,"current_range_meters":6400,"station_id":"cpo36qri1sfpv3e86is0","pricing_plan_id":"cebpf4jnsgd1na2vs0mg"},{"bike_id":"4f438dad-01fc-4a34-afef-9521fac04b4f","system_id":"levelo_inurba_marseille","lat":43.32384,"lon":5.36729,"is_reserved":false,"is_disabled":false,"rental_uris":{"android":"levelo://app?vid=4f438dad-01fc-4a34-afef-9521fac04b4f","ios":"levelo://app?vid=4f438dad-01fc-4a34-afef-9521fac04b4f"},"vehicle_type_id":"4","last_reported":1769516843,"current_range_meters":6400,"station_id":"","pricing_plan_id":"cebpf4jnsgd1na2vs0mg"},{"bike_id":"8dc1c371-7a8b-4d40-96de-5f21b3f68e5e","system_id":"levelo_inurba_marseille","lat":43.29916,"lon":5.37468,"is_reserved":false,"is_disabled":false,"rental_uris":{"android":"levelo://app?vid=8dc1c371-7a8b-4d40-96de-5f21b3f68e5e","ios":"levelo://app?vid=8dc1c371-7a8b-4d40-96de-5f21b3f68e5e"},"vehicle_type_id":"4","last_reported":1769516843,"current_range_meters":6400,"station_id":"ce4bgjh2rcd13ifvqbg0","pricing_plan_id":"cebpf4jnsgd1na2vs0mg"},{"bike_id":"5073c588-fd69-4546-b19e-c25ee2532fa0","system_id":"levelo_inurba_marseille","lat":43.32483,"lon":5.36571,"is_reserved":false,"is_disabled":false,"rental_uris":{"android":"levelo://app?vid=5073c588-fd69-4546-b19e-c25ee2532fa0","ios":"levelo://app?vid=5073c588-fd69-4546-b19e-c25ee2532fa0"},"vehicle_type_id":"4","last_reported":1769516843,"current_range_meters":6400,"station_id":"ce4bhs12rcd13ifvqhvg","pricing_plan_id":"cebpf4jnsgd1na2vs0mg"},{"bike_id":"6025fde7-0179-4de8-8990-dcff6da74269","system_id":"levelo_inurba_marseille","lat":43.2848,"lon":5.38451,"is_reserved":false,"is_disabled":false,"rental_uris":{"android":"levelo://app?vid=6025fde7-0179-4de8-8990-dcff6da74269","ios":"levelo://app?vid=6025fde7-0179-4de8-8990-dcff6da74269"},"vehicle_type_id":"4","last_reported":1769516843,"current_range_meters":6400,"station_id":"ce4bh512rcd13ifvqe3g","pricing_plan_id":"cebpf4jnsgd1na2vs0mg"},{"bike_id":"ddac16df-da7b-4c1e-8c96-25bd2dbc1226","system_id":"levelo_inurba_marseille","lat":43.32359,"lon":5.36766,"is_reserved":false,"is_disabled":false,"rental_uris":{"android":"levelo://app?vid=ddac16df-da7b-4c1e-8c96-25bd2dbc1226","ios":"levelo://app?vid=ddac16df-da7b-4c1e-8c96-25bd2dbc1226"},"vehicle_type_id":"4","last_reported":1769516843,"current_range_meters":6400,"station_id":"ce4bhsh2rcd13ifvqi2g","pricing_plan_id":"cebpf4jnsgd1na2vs0mg"},{"bike_id":"c8bb2a08-170b-4c3f-9a7c-8d580e9bd3cc","system_id":"levelo_inurba_marseille","lat":43.24461,"lon":5.42531,"is_reserved":false,"is_disabled":false,"rental_uris":{"android":"levelo://app?vid=c8bb2a08-170b-4c3f-9a7c-8d580e9bd3cc","ios":"levelo://app?vid=c8bb2a08-170b-4c3f-9a7c-8d580e9bd3cc"},"vehicle_type_id":"4","last_reported":1769516843,"current_range_meters":6400,"station_id":"st_d4a3vfp97mjs738cd8kg","pricing_plan_id":"cebpf4jnsgd1na2vs0mg"},{"bike_id":"fbbfdfb0-2a68-42b1-8e98-f01f0f60526d","system_id":"levelo_inurba_marseille","lat":43.2808,"lon":5.39645,"is_reserved":false,"is_disabled":false,"rental_uris":{"android":"levelo://app?vid=fbbfdfb0-2a68-42b1-8e98-f01f0f60526d","ios":"levelo://app?vid=fbbfdfb0-2a68-42b1-8e98-f01f0f60526d"},"vehicle_type_id":"4","last_reported":1769516843,"current_range_meters":6400,"station_id":"ce4bho12rcd13ifvqh2g","pricing_plan_id":"cebpf4jnsgd1na2vs0mg"},{"bike_id":"f1636ea0-4851-4c88-a511-e439e20d8c14","system_id":"levelo_inurba_marseille","lat":43.290354,"lon":5.399573,"is_reserved":false,"is_disabled":false,"rental_uris":{"android":"levelo://app?vid=f1636ea0-4851-4c88-a511-e439e20d8c14","ios":"levelo://app?vid=f1636ea0-4851-4c88-a511-e439e20d8c14"},"vehicle_type_id":"4","last_reported":1769516843,"current_range_meters":6400,"station_id":"ce4bh392rcd13ifvqdm0","pricing_plan_id":"cebpf4jnsgd1na2vs0mg"},{"bike_id":"fb8934f6-9dab-439c-acce-05fcdc10c589","system_id":"levelo_inurba_marseille","lat":43.24948,"lon":5.40484,"is_reserved":false,"is_disabled":false,"rental_uris":{"android":"levelo://app?vid=fb8934f6-9dab-439c-acce-05fcdc10c589","ios":"levelo://app?vid=fb8934f6-9dab-439c-acce-05fcdc10c589"},"vehicle_type_id":"4","last_reported":1769516843,"current_range_meters":6400,"station_id":"st_d2ngiaodas8pm72gd1h0","pricing_plan_id":"cebpf4jnsgd1na2vs0mg"},{"bike_id":"10ed2664-109e-43f4-9dbd-256742a1695f","system_id":"levelo_inurba_marseille","lat":43.30176,"lon":5.3662,"is_reserved":false,"is_disabled":false,"rental_uris":{"android":"levelo://app?vid=10ed2664-109e-43f4-9dbd-256742a1695f","ios":"levelo://app?vid=10ed2664-109e-43f4-9dbd-256742a1695f"},"vehicle_type_id":"4","last_reported":1769516843,"current_range_meters":6400,"station_id":"ce4bgrh2rcd13ifvqc8g","pricing_plan_id":"cebpf4jnsgd1na2vs0mg"},{"bike_id":"07a2347d-c3fa-4015-bf16-4148ed3d013b","system_id":"levelo_inurba_marseille","lat":43.27322,"lon":5.39082,"is_reserved":false,"is_disabled":false,"rental_uris":{"android":"levelo://app?vid=07a2347d-c3fa-4015-bf16-4148ed3d013b","ios":"levelo://app?vid=07a2347d-c3fa-4015-bf16-4148ed3d013b"},"vehicle_type_id":"4","last_reported":1769516843,"current_range_meters":6400,"station_id":"ce4bhgp2rcd13ifvqfe0","pricing_plan_id":"cebpf4jnsgd1na2vs0mg"},{"bike_id":"c1d76fe7-8229-49b0-8dae-038c2bf0b5b7","system_id":"levelo_inurba_marseille","lat":43.30906,"lon":5.40338,"is_reserved":false,"is_disabled":false,"rental_uris":{"android":"levelo://app?vid=c1d76fe7-8229-49b0-8dae-038c2bf0b5b7","ios":"levelo://app?vid=c1d76fe7-8229-49b0-8dae-038c2bf0b5b7"},"vehicle_type_id":"4","last_reported":1769516843,"current_range_meters":6800,"station_id":"","pricing_plan_id":"cebpf4jnsgd1na2vs0mg"},{"bike_id":"6ac15107-8d5a-4bc5-aef3-ea3f593e80d3","system_id":"levelo_inurba_marseille","lat":43.31252,"lon":5.36896,"is_reserved":false,"is_disabled":false,"rental_uris":{"android":"levelo://app?vid=6ac15107-8d5a-4bc5-aef3-ea3f593e80d3","ios":"levelo://app?vid=6ac15107-8d5a-4bc5-aef3-ea3f593e80d3"},"vehicle_type_id":"4","last_reported":1769516843,"current_range_meters":6800,"station_id":"ce4bgl92rcd13ifvqbq0","pricing_plan_id":"cebpf4jnsgd1na2vs0mg"},{"bike_id":"b778e9ae-9e5d-422f-9aa0-c2aebe5892bf","system_id":"levelo_inurba_marseille","lat":43.32363,"lon":5.36731,"is_reserved":false,"is_disabled":false,"rental_uris":{"android":"levelo://app?vid=b778e9ae-9e5d-422f-9aa0-c2aebe5892bf","ios":"levelo://app?vid=b778e9ae-9e5d-422f-9aa0-c2aebe5892bf"},"vehicle_type_id":"4","last_reported":1769516843,"current_range_meters":6800,"station_id":"ce4bhsh2rcd13ifvqi2g","pricing_plan_id":"cebpf4jnsgd1na2vs0mg"},{"bike_id":"e1b65952-cf23-4d4c-bb61-476f12fae8d2","system_id":"levelo_inurba_marseille","lat":43.23187,"lon":5.35559,"is_reserved":false,"is_disabled":false,"rental_uris":{"android":"levelo://app?vid=e1b65952-cf23-4d4c-bb61-476f12fae8d2","ios":"levelo://app?vid=e1b65952-cf23-4d4c-bb61-476f12fae8d2"},"vehicle_type_id":"4","last_reported":1769516843,"current_range_meters":6800,"station_id":"ce4bhu92rcd13ifvqi70","pricing_plan_id":"cebpf4jnsgd1na2vs0mg"},{"bike_id":"07334ae3-a27a-46ae-b685-938785481481","system_id":"levelo_inurba_marseille","lat":43.29814,"lon":5.44061,"is_reserved":false,"is_disabled":false,"rental_uris":{"android":"levelo://app?vid=07334ae3-a27a-46ae-b685-938785481481","ios":"levelo://app?vid=07334ae3-a27a-46ae-b685-938785481481"},"vehicle_type_id":"4","last_reported":1769516843,"current_range_meters":6800,"station_id":"st_d3jp68qikq2c7381ktn0","pricing_plan_id":"cebpf4jnsgd1na2vs0mg"},{"bike_id":"054e163b-1e47-4a0a-a038-a7939885860e","system_id":"levelo_inurba_marseille","lat":43.323588,"lon":5.367326,"is_reserved":false,"is_disabled":false,"rental_uris":{"android":"levelo://app?vid=054e163b-1e47-4a0a-a038-a7939885860e","ios":"levelo://app?vid=054e163b-1e47-4a0a-a038-a7939885860e"},"vehicle_type_id":"4","last_reported":1769516843,"current_range_meters":6800,"station_id":"ce4bhsh2rcd13ifvqi2g","pricing_plan_id":"cebpf4jnsgd1na2vs0mg"},{"bike_id":"d67989f5-ff99-4625-8cc4-0e0a77727709","system_id":"levelo_inurba_marseille","lat":43.30154,"lon":5.38082,"is_reserved":false,"is_disabled":false,"rental_uris":{"android":"levelo://app?vid=d67989f5-ff99-4625-8cc4-0e0a77727709","ios":"levelo://app?vid=d67989f5-ff99-4625-8cc4-0e0a77727709"},"vehicle_type_id":"4","last_reported":1769516843,"current_range_meters":6800,"station_id":"ce4bgjp2rcd13ifvqbh0","pricing_plan_id":"cebpf4jnsgd1na2vs0mg"},{"bike_id":"c91f91f3-98b3-4fcf-bd93-581840c2823a","system_id":"levelo_inurba_marseille","lat":43.28499,"lon":5.39204,"is_reserved":false,"is_disabled":false,"rental_uris":{"android":"levelo://app?vid=c91f91f3-98b3-4fcf-bd93-581840c2823a","ios":"levelo://app?vid=c91f91f3-98b3-4fcf-bd93-581840c2823a"},"vehicle_type_id":"4","last_reported":1769516843,"current_range_meters":6800,"station_id":"ce4bhoh2rcd13ifvqh5g","pricing_plan_id":"cebpf4jnsgd1na2vs0mg"},{"bike_id":"1e6ae573-7b0d-4ca7-8d21-23950df7df4a","system_id":"levelo_inurba_marseille","lat":43.33569,"lon":5.37464,"is_reserved":false,"is_disabled":false,"rental_uris":{"android":"levelo://app?vid=1e6ae573-7b0d-4ca7-8d21-23950df7df4a","ios":"levelo://app?vid=1e6ae573-7b0d-4ca7-8d21-23950df7df4a"},"vehicle_type_id":"4","last_reported":1769516843,"current_range_meters":6800,"station_id":"st_d46tts09ee8s73dlu43g","pricing_plan_id":"cebpf4jnsgd1na2vs0mg"},{"bike_id":"189a5990-9e2f-44da-aa06-5c0e6fba4899","system_id":"levelo_inurba_marseille","lat":43.23972,"lon":5.36627,"is_reserved":false,"is_disabled":false,"rental_uris":{"android":"levelo://app?vid=189a5990-9e2f-44da-aa06-5c0e6fba4899","ios":"levelo://app?vid=189a5990-9e2f-44da-aa06-5c0e6fba4899"},"vehicle_type_id":"4","last_reported":1769516843,"current_range_meters":6800,"station_id":"ce4bhi12rcd13ifvqfp0","pricing_plan_id":"cebpf4jnsgd1na2vs0mg"},{"bike_id":"8631421d-21a9-439a-82c3-3764ee3e564c","system_id":"levelo_inurba_marseille","lat":43.27196,"lon":5.410024,"is_reserved":false,"is_disabled":false,"rental_uris":{"android":"levelo://app?vid=8631421d-21a9-439a-82c3-3764ee3e564c","ios":"levelo://app?vid=8631421d-21a9-439a-82c3-3764ee3e564c"},"vehicle_type_id":"4","last_reported":1769516843,"current_range_meters":6800,"station_id":"ce4bhl12rcd13ifvqgf0","pricing_plan_id":"cebpf4jnsgd1na2vs0mg"},{"bike_id":"2abdbc45-a66e-4faf-971c-b57d8f806d8d","system_id":"levelo_inurba_marseille","lat":43.284794,"lon":5.483968,"is_reserved":false,"is_disabled":false,"rental_uris":{"android":"levelo://app?vid=2abdbc45-a66e-4faf-971c-b57d8f806d8d","ios":"levelo://app?vid=2abdbc45-a66e-4faf-971c-b57d8f806d8d"},"vehicle_type_id":"4","last_reported":1769516843,"current_range_meters":6800,"station_id":"st_d3svhcjqgbts73a3dn0g","pricing_plan_id":"cebpf4jnsgd1na2vs0mg"},{"bike_id":"c7939f6d-0069-44ac-9fa3-9a3bd5851769","system_id":"levelo_inurba_marseille","lat":43.31712,"lon":5.4371,"is_reserved":false,"is_disabled":false,"rental_uris":{"android":"levelo://app?vid=c7939f6d-0069-44ac-9fa3-9a3bd5851769","ios":"levelo://app?vid=c7939f6d-0069-44ac-9fa3-9a3bd5851769"},"vehicle_type_id":"4","last_reported":1769516843,"current_range_meters":6800,"station_id":"ce4bhp92rcd13ifvqhcg","pricing_plan_id":"cebpf4jnsgd1na2vs0mg"},{"bike_id":"c2ef930b-20b2-4926-9cb2-44f3b548ea0c","system_id":"levelo_inurba_marseille","lat":43.29524,"lon":5.3751,"is_reserved":false,"is_disabled":false,"rental_uris":{"android":"levelo://app?vid=c2ef930b-20b2-4926-9cb2-44f3b548ea0c","ios":"levelo://app?vid=c2ef930b-20b2-4926-9cb2-44f3b548ea0c"},"vehicle_type_id":"4","last_reported":1769516843,"current_range_meters":6800,"station_id":"ce4bgkp2rcd13ifvqbmg","pricing_plan_id":"cebpf4jnsgd1na2vs0mg"},{"bike_id":"c3616682-88ec-472f-b28b-1fbb837fa9d1","system_id":"levelo_inurba_marseille","lat":43.24194,"lon":5.3642,"is_reserved":false,"is_disabled":false,"rental_uris":{"android":"levelo://app?vid=c3616682-88ec-472f-b28b-1fbb837fa9d1","ios":"levelo://app?vid=c3616682-88ec-472f-b28b-1fbb837fa9d1"},"vehicle_type_id":"4","last_reported":1769516843,"current_range_meters":6800,"station_id":"cpo36qri1sfpv3e86is0","pricing_plan_id":"cebpf4jnsgd1na2vs0mg"},{"bike_id":"97d1eda0-a9af-4c4a-9c8b-3b1301d74ec8","system_id":"levelo_inurba_marseille","lat":43.22926,"lon":5.35374,"is_reserved":false,"is_disabled":false,"rental_uris":{"android":"levelo://app?vid=97d1eda0-a9af-4c4a-9c8b-3b1301d74ec8","ios":"levelo://app?vid=97d1eda0-a9af-4c4a-9c8b-3b1301d74ec8"},"vehicle_type_id":"4","last_reported":1769516843,"current_range_meters":7200,"station_id":"cpo3532slgdg3j2ikp40","pricing_plan_id":"cebpf4jnsgd1na2vs0mg"},{"bike_id":"8015069b-a7cc-4d43-94ce-58830f0e841c","system_id":"levelo_inurba_marseille","lat":43.29089,"lon":5.38154,"is_reserved":false,"is_disabled":false,"rental_uris":{"android":"levelo://app?vid=8015069b-a7cc-4d43-94ce-58830f0e841c","ios":"levelo://app?vid=8015069b-a7cc-4d43-94ce-58830f0e841c"},"vehicle_type_id":"4","last_reported":1769516843,"current_range_meters":7200,"station_id":"ce4bh512rcd13ifvqe2g","pricing_plan_id":"cebpf4jnsgd1na2vs0mg"},{"bike_id":"e2300383-c671-48a0-9420-860a0772480d","system_id":"levelo_inurba_marseille","lat":43.28945,"lon":5.39631,"is_reserved":false,"is_disabled":false,"rental_uris":{"android":"levelo://app?vid=e2300383-c671-48a0-9420-860a0772480d","ios":"levelo://app?vid=e2300383-c671-48a0-9420-860a0772480d"},"vehicle_type_id":"4","last_reported":1769516843,"current_range_meters":7200,"station_id":"ce4bh3h2rcd13ifvqdn0","pricing_plan_id":"cebpf4jnsgd1na2vs0mg"},{"bike_id":"39bceb37-1133-47a7-8f28-61021ec883b3","system_id":"levelo_inurba_marseille","lat":43.26547,"lon":5.37289,"is_reserved":false,"is_disabled":false,"rental_uris":{"android":"levelo://app?vid=39bceb37-1133-47a7-8f28-61021ec883b3","ios":"levelo://app?vid=39bceb37-1133-47a7-8f28-61021ec883b3"},"vehicle_type_id":"4","last_reported":1769516843,"current_range_meters":7200,"station_id":"ce4bhg12rcd13ifvqf70","pricing_plan_id":"cebpf4jnsgd1na2vs0mg"},{"bike_id":"75187644-40dc-4ee3-bf2b-301af78a34ee","system_id":"levelo_inurba_marseille","lat":43.29306,"lon":5.37145,"is_reserved":false,"is_disabled":false,"rental_uris":{"android":"levelo://app?vid=75187644-40dc-4ee3-bf2b-301af78a34ee","ios":"levelo://app?vid=75187644-40dc-4ee3-bf2b-301af78a34ee"},"vehicle_type_id":"4","last_reported":1769516843,"current_range_meters":7200,"station_id":"ce4bgh92rcd13ifvqb40","pricing_plan_id":"cebpf4jnsgd1na2vs0mg"},{"bike_id":"04ddf445-c90e-4eb2-b7e0-2646a674cd14","system_id":"levelo_inurba_marseille","lat":43.24808,"lon":5.37459,"is_reserved":false,"is_disabled":false,"rental_uris":{"android":"levelo://app?vid=04ddf445-c90e-4eb2-b7e0-2646a674cd14","ios":"levelo://app?vid=04ddf445-c90e-4eb2-b7e0-2646a674cd14"},"vehicle_type_id":"4","last_reported":1769516843,"current_range_meters":7200,"station_id":"ce4bhgh2rcd13ifvqfb0","pricing_plan_id":"cebpf4jnsgd1na2vs0mg"},{"bike_id":"095fe064-5c29-454d-9324-b990504256cb","system_id":"levelo_inurba_marseille","lat":43.24389,"lon":5.37066,"is_reserved":false,"is_disabled":false,"rental_uris":{"android":"levelo://app?vid=095fe064-5c29-454d-9324-b990504256cb","ios":"levelo://app?vid=095fe064-5c29-454d-9324-b990504256cb"},"vehicle_type_id":"4","last_reported":1769516843,"current_range_meters":7200,"station_id":"ce4bhhh2rcd13ifvqfk0","pricing_plan_id":"cebpf4jnsgd1na2vs0mg"},{"bike_id":"852e5434-b120-452e-b081-86def1698ab0","system_id":"levelo_inurba_marseille","lat":43.2512,"lon":5.40318,"is_reserved":false,"is_disabled":false,"rental_uris":{"android":"levelo://app?vid=852e5434-b120-452e-b081-86def1698ab0","ios":"levelo://app?vid=852e5434-b120-452e-b081-86def1698ab0"},"vehicle_type_id":"4","last_reported":1769516843,"current_range_meters":7200,"station_id":"ce4bhlh2rcd13ifvqgig","pricing_plan_id":"cebpf4jnsgd1na2vs0mg"},{"bike_id":"6403e3cb-b3e3-41e8-bf9f-1d4a6c92aa6b","system_id":"levelo_inurba_marseille","lat":43.29591,"lon":5.39257,"is_reserved":false,"is_disabled":false,"rental_uris":{"android":"levelo://app?vid=6403e3cb-b3e3-41e8-bf9f-1d4a6c92aa6b","ios":"levelo://app?vid=6403e3cb-b3e3-41e8-bf9f-1d4a6c92aa6b"},"vehicle_type_id":"4","last_reported":1769516843,"current_range_meters":7200,"station_id":"","pricing_plan_id":"cebpf4jnsgd1na2vs0mg"},{"bike_id":"34490c13-8bcf-415c-b9e5-3eb81df8b667","system_id":"levelo_inurba_marseille","lat":43.26027,"lon":5.37556,"is_reserved":false,"is_disabled":false,"rental_uris":{"android":"levelo://app?vid=34490c13-8bcf-415c-b9e5-3eb81df8b667","ios":"levelo://app?vid=34490c13-8bcf-415c-b9e5-3eb81df8b667"},"vehicle_type_id":"4","last_reported":1769516843,"current_range_meters":7200,"station_id":"ce4bhgh2rcd13ifvqfa0","pricing_plan_id":"cebpf4jnsgd1na2vs0mg"},{"bike_id":"3bff5cec-8847-4371-9dcf-08e0ac5a358c","system_id":"levelo_inurba_marseille","lat":43.25014,"lon":5.38922,"is_reserved":false,"is_disabled":false,"rental_uris":{"android":"levelo://app?vid=3bff5cec-8847-4371-9dcf-08e0ac5a358c","ios":"levelo://app?vid=3bff5cec-8847-4371-9dcf-08e0ac5a358c"},"vehicle_type_id":"4","last_reported":1769516843,"current_range_meters":7200,"station_id":"ce4bhgp2rcd13ifvqfd0","pricing_plan_id":"cebpf4jnsgd1na2vs0mg"},{"bike_id":"20aa12dc-f764-4df4-9849-0e6572012126","system_id":"levelo_inurba_marseille","lat":43.26388,"lon":5.41054,"is_reserved":false,"is_disabled":false,"rental_uris":{"android":"levelo://app?vid=20aa12dc-f764-4df4-9849-0e6572012126","ios":"levelo://app?vid=20aa12dc-f764-4df4-9849-0e6572012126"},"vehicle_type_id":"4","last_reported":1769516843,"current_range_meters":8000,"station_id":"st_d4e5ca6na9uc73bfl5fg","pricing_plan_id":"cebpf4jnsgd1na2vs0mg"},{"bike_id":"bed981e9-239a-4c8e-b1c1-b226709af449","system_id":"levelo_inurba_marseille","lat":43.26562,"lon":5.37298,"is_reserved":false,"is_disabled":false,"rental_uris":{"android":"levelo://app?vid=bed981e9-239a-4c8e-b1c1-b226709af449","ios":"levelo://app?vid=bed981e9-239a-4c8e-b1c1-b226709af449"},"vehicle_type_id":"4","last_reported":1769516843,"current_range_meters":8000,"station_id":"ce4bhg12rcd13ifvqf70","pricing_plan_id":"cebpf4jnsgd1na2vs0mg"},{"bike_id":"f42e584b-9bb4-4887-8e5f-678edd30bac0","system_id":"levelo_inurba_marseille","lat":43.29638,"lon":5.37141,"is_reserved":false,"is_disabled":true,"rental_uris":{"android":"levelo://app?vid=f42e584b-9bb4-4887-8e5f-678edd30bac0","ios":"levelo://app?vid=f42e584b-9bb4-4887-8e5f-678edd30bac0"},"vehicle_type_id":"4","last_reported":1769516843,"current_range_meters":8000,"station_id":"ce4bgnh2rcd13ifvqc0g","pricing_plan_id":"cebpf4jnsgd1na2vs0mg"},{"bike_id":"d8fe5977-167d-4d79-bb8d-a90abddb5736","system_id":"levelo_inurba_marseille","lat":43.24808,"lon":5.37452,"is_reserved":false,"is_disabled":false,"rental_uris":{"android":"levelo://app?vid=d8fe5977-167d-4d79-bb8d-a90abddb5736","ios":"levelo://app?vid=d8fe5977-167d-4d79-bb8d-a90abddb5736"},"vehicle_type_id":"4","last_reported":1769516843,"current_range_meters":8000,"station_id":"ce4bhgh2rcd13ifvqfb0","pricing_plan_id":"cebpf4jnsgd1na2vs0mg"},{"bike_id":"c400c24e-f626-4790-a262-fffd3889d152","system_id":"levelo_inurba_marseille","lat":43.31167,"lon":5.38714,"is_reserved":false,"is_disabled":false,"rental_uris":{"android":"levelo://app?vid=c400c24e-f626-4790-a262-fffd3889d152","ios":"levelo://app?vid=c400c24e-f626-4790-a262-fffd3889d152"},"vehicle_type_id":"4","last_reported":1769516843,"current_range_meters":8000,"station_id":"ce4bgv12rcd13ifvqcp0","pricing_plan_id":"cebpf4jnsgd1na2vs0mg"},{"bike_id":"64f3f307-4445-49b0-a4d2-13895bd53a04","system_id":"levelo_inurba_marseille","lat":43.298523,"lon":5.362921,"is_reserved":false,"is_disabled":false,"rental_uris":{"android":"levelo://app?vid=64f3f307-4445-49b0-a4d2-13895bd53a04","ios":"levelo://app?vid=64f3f307-4445-49b0-a4d2-13895bd53a04"},"vehicle_type_id":"4","last_reported":1769516843,"current_range_meters":8000,"station_id":"ce4bgpp2rcd13ifvqc3g","pricing_plan_id":"cebpf4jnsgd1na2vs0mg"},{"bike_id":"ccb8f850-15c8-4a47-a07e-b172230b2bf2","system_id":"levelo_inurba_marseille","lat":43.24459,"lon":5.42546,"is_reserved":false,"is_disabled":false,"rental_uris":{"android":"levelo://app?vid=ccb8f850-15c8-4a47-a07e-b172230b2bf2","ios":"levelo://app?vid=ccb8f850-15c8-4a47-a07e-b172230b2bf2"},"vehicle_type_id":"4","last_reported":1769516843,"current_range_meters":8000,"station_id":"st_d4a3vfp97mjs738cd8kg","pricing_plan_id":"cebpf4jnsgd1na2vs0mg"},{"bike_id":"dd17e14d-0564-4393-a6fd-cb7a120675c0","system_id":"levelo_inurba_marseille","lat":43.24458,"lon":5.42539,"is_reserved":false,"is_disabled":false,"rental_uris":{"android":"levelo://app?vid=dd17e14d-0564-4393-a6fd-cb7a120675c0","ios":"levelo://app?vid=dd17e14d-0564-4393-a6fd-cb7a120675c0"},"vehicle_type_id":"4","last_reported":1769516843,"current_range_meters":8000,"station_id":"st_d4a3vfp97mjs738cd8kg","pricing_plan_id":"cebpf4jnsgd1na2vs0mg"},{"bike_id":"ce317954-0233-49b4-9d91-5d7daf261e04","system_id":"levelo_inurba_marseille","lat":43.25931,"lon":5.40847,"is_reserved":false,"is_disabled":false,"rental_uris":{"android":"levelo://app?vid=ce317954-0233-49b4-9d91-5d7daf261e04","ios":"levelo://app?vid=ce317954-0233-49b4-9d91-5d7daf261e04"},"vehicle_type_id":"4","last_reported":1769516843,"current_range_meters":8000,"station_id":"ce4bhm92rcd13ifvqglg","pricing_plan_id":"cebpf4jnsgd1na2vs0mg"},{"bike_id":"03a56725-7b1b-46e3-a656-af9cba3f6e05","system_id":"levelo_inurba_marseille","lat":43.29898,"lon":5.38146,"is_reserved":false,"is_disabled":false,"rental_uris":{"android":"levelo://app?vid=03a56725-7b1b-46e3-a656-af9cba3f6e05","ios":"levelo://app?vid=03a56725-7b1b-46e3-a656-af9cba3f6e05"},"vehicle_type_id":"4","last_reported":1769516843,"current_range_meters":8000,"station_id":"ce4bgj12rcd13ifvqbc0","pricing_plan_id":"cebpf4jnsgd1na2vs0mg"},{"bike_id":"f955be94-4aed-4a94-a304-cf3933e2e92e","system_id":"levelo_inurba_marseille","lat":43.33163,"lon":5.37695,"is_reserved":false,"is_disabled":false,"rental_uris":{"android":"levelo://app?vid=f955be94-4aed-4a94-a304-cf3933e2e92e","ios":"levelo://app?vid=f955be94-4aed-4a94-a304-cf3933e2e92e"},"vehicle_type_id":"4","last_reported":1769516843,"current_range_meters":8000,"station_id":"st_d46cu089ee8s73dldbu0","pricing_plan_id":"cebpf4jnsgd1na2vs0mg"},{"bike_id":"22f6bb79-8b93-4e09-a040-2d10338d9904","system_id":"levelo_inurba_marseille","lat":43.28217,"lon":5.39065,"is_reserved":false,"is_disabled":false,"rental_uris":{"android":"levelo://app?vid=22f6bb79-8b93-4e09-a040-2d10338d9904","ios":"levelo://app?vid=22f6bb79-8b93-4e09-a040-2d10338d9904"},"vehicle_type_id":"4","last_reported":1769516843,"current_range_meters":8000,"station_id":"ce4bhn92rcd13ifvqgsg","pricing_plan_id":"cebpf4jnsgd1na2vs0mg"},{"bike_id":"12a4c848-5bc6-4c48-a91a-071c8c9b217e","system_id":"levelo_inurba_marseille","lat":43.23153,"lon":5.43731,"is_reserved":false,"is_disabled":false,"rental_uris":{"android":"levelo://app?vid=12a4c848-5bc6-4c48-a91a-071c8c9b217e","ios":"levelo://app?vid=12a4c848-5bc6-4c48-a91a-071c8c9b217e"},"vehicle_type_id":"4","last_reported":1769516843,"current_range_meters":8000,"station_id":"ce4bhmp2rcd13ifvqgog","pricing_plan_id":"cebpf4jnsgd1na2vs0mg"},{"bike_id":"449affbd-aaf8-41d6-bed7-0d41a00c111d","system_id":"levelo_inurba_marseille","lat":43.33299,"lon":5.36593,"is_reserved":false,"is_disabled":false,"rental_uris":{"android":"levelo://app?vid=449affbd-aaf8-41d6-bed7-0d41a00c111d","ios":"levelo://app?vid=449affbd-aaf8-41d6-bed7-0d41a00c111d"},"vehicle_type_id":"4","last_reported":1769516843,"current_range_meters":8000,"station_id":"","pricing_plan_id":"cebpf4jnsgd1na2vs0mg"},{"bike_id":"22ce75b4-972c-4968-ac22-1ae22e22a882","system_id":"levelo_inurba_marseille","lat":43.304606,"lon":5.379126,"is_reserved":false,"is_disabled":false,"rental_uris":{"android":"levelo://app?vid=22ce75b4-972c-4968-ac22-1ae22e22a882","ios":"levelo://app?vid=22ce75b4-972c-4968-ac22-1ae22e22a882"},"vehicle_type_id":"4","last_reported":1769516843,"current_range_meters":8000,"station_id":"ce4bgup2rcd13ifvqcn0","pricing_plan_id":"cebpf4jnsgd1na2vs0mg"},{"bike_id":"6d06c21c-b3a0-4a4c-b24e-191f22182658","system_id":"levelo_inurba_marseille","lat":43.24635,"lon":5.43143,"is_reserved":false,"is_disabled":false,"rental_uris":{"android":"levelo://app?vid=6d06c21c-b3a0-4a4c-b24e-191f22182658","ios":"levelo://app?vid=6d06c21c-b3a0-4a4c-b24e-191f22182658"},"vehicle_type_id":"4","last_reported":1769516843,"current_range_meters":8000,"station_id":"st_d2m6c4gdas8pm72e190g","pricing_plan_id":"cebpf4jnsgd1na2vs0mg"},{"bike_id":"1bd44af8-a399-4717-b391-e0e7ede0d4bc","system_id":"levelo_inurba_marseille","lat":43.28871,"lon":5.42517,"is_reserved":false,"is_disabled":false,"rental_uris":{"android":"levelo://app?vid=1bd44af8-a399-4717-b391-e0e7ede0d4bc","ios":"levelo://app?vid=1bd44af8-a399-4717-b391-e0e7ede0d4bc"},"vehicle_type_id":"4","last_reported":1769516843,"current_range_meters":8000,"station_id":"st_d3b462108ojc7389ooeg","pricing_plan_id":"cebpf4jnsgd1na2vs0mg"},{"bike_id":"5c284cb6-55a5-403f-8cd0-0d67404aae8b","system_id":"levelo_inurba_marseille","lat":43.29146,"lon":5.40019,"is_reserved":false,"is_disabled":false,"rental_uris":{"android":"levelo://app?vid=5c284cb6-55a5-403f-8cd0-0d67404aae8b","ios":"levelo://app?vid=5c284cb6-55a5-403f-8cd0-0d67404aae8b"},"vehicle_type_id":"4","last_reported":1769516843,"current_range_meters":8400,"station_id":"","pricing_plan_id":"cebpf4jnsgd1na2vs0mg"},{"bike_id":"6b4c2cb5-5f9e-4113-aa57-12bc075351c0","system_id":"levelo_inurba_marseille","lat":43.29932,"lon":5.36533,"is_reserved":false,"is_disabled":false,"rental_uris":{"android":"levelo://app?vid=6b4c2cb5-5f9e-4113-aa57-12bc075351c0","ios":"levelo://app?vid=6b4c2cb5-5f9e-4113-aa57-12bc075351c0"},"vehicle_type_id":"4","last_reported":1769516843,"current_range_meters":8400,"station_id":"ce4bgm92rcd13ifvqbr0","pricing_plan_id":"cebpf4jnsgd1na2vs0mg"},{"bike_id":"7d6a87cd-873d-44b2-a109-0e549332afd0","system_id":"levelo_inurba_marseille","lat":43.30307,"lon":5.36891,"is_reserved":false,"is_disabled":false,"rental_uris":{"android":"levelo://app?vid=7d6a87cd-873d-44b2-a109-0e549332afd0","ios":"levelo://app?vid=7d6a87cd-873d-44b2-a109-0e549332afd0"},"vehicle_type_id":"4","last_reported":1769516843,"current_range_meters":8400,"station_id":"ce4bgqh2rcd13ifvqc5g","pricing_plan_id":"cebpf4jnsgd1na2vs0mg"},{"bike_id":"ef6051ae-368e-462d-a97e-97d412ed7150","system_id":"levelo_inurba_marseille","lat":43.26693,"lon":5.38252,"is_reserved":false,"is_disabled":false,"rental_uris":{"android":"levelo://app?vid=ef6051ae-368e-462d-a97e-97d412ed7150","ios":"levelo://app?vid=ef6051ae-368e-462d-a97e-97d412ed7150"},"vehicle_type_id":"4","last_reported":1769516843,"current_range_meters":8400,"station_id":"ce4bhg92rcd13ifvqf90","pricing_plan_id":"cebpf4jnsgd1na2vs0mg"},{"bike_id":"db3d65b0-4e84-4a43-9c44-21aea7fdce10","system_id":"levelo_inurba_marseille","lat":43.26221,"lon":5.40462,"is_reserved":false,"is_disabled":false,"rental_uris":{"android":"levelo://app?vid=db3d65b0-4e84-4a43-9c44-21aea7fdce10","ios":"levelo://app?vid=db3d65b0-4e84-4a43-9c44-21aea7fdce10"},"vehicle_type_id":"4","last_reported":1769516843,"current_range_meters":8400,"station_id":"ce4bhmh2rcd13ifvqgmg","pricing_plan_id":"cebpf4jnsgd1na2vs0mg"},{"bike_id":"cd97a287-f3db-4bb8-af84-655827a2ff9f","system_id":"levelo_inurba_marseille","lat":43.231447,"lon":5.437135,"is_reserved":false,"is_disabled":false,"rental_uris":{"android":"levelo://app?vid=cd97a287-f3db-4bb8-af84-655827a2ff9f","ios":"levelo://app?vid=cd97a287-f3db-4bb8-af84-655827a2ff9f"},"vehicle_type_id":"4","last_reported":1769516843,"current_range_meters":8400,"station_id":"ce4bhmp2rcd13ifvqgog","pricing_plan_id":"cebpf4jnsgd1na2vs0mg"},{"bike_id":"7cf63c02-2290-47a5-a0c9-74b872bca3e0","system_id":"levelo_inurba_marseille","lat":43.30956,"lon":5.3904,"is_reserved":false,"is_disabled":false,"rental_uris":{"android":"levelo://app?vid=7cf63c02-2290-47a5-a0c9-74b872bca3e0","ios":"levelo://app?vid=7cf63c02-2290-47a5-a0c9-74b872bca3e0"},"vehicle_type_id":"4","last_reported":1769516843,"current_range_meters":8400,"station_id":"ce4bgup2rcd13ifvqco0","pricing_plan_id":"cebpf4jnsgd1na2vs0mg"},{"bike_id":"3269fbfb-2d56-4669-8241-7ead3f38fe4b","system_id":"levelo_inurba_marseille","lat":43.29024,"lon":5.39977,"is_reserved":false,"is_disabled":false,"rental_uris":{"android":"levelo://app?vid=3269fbfb-2d56-4669-8241-7ead3f38fe4b","ios":"levelo://app?vid=3269fbfb-2d56-4669-8241-7ead3f38fe4b"},"vehicle_type_id":"4","last_reported":1769516843,"current_range_meters":8400,"station_id":"ce4bh392rcd13ifvqdm0","pricing_plan_id":"cebpf4jnsgd1na2vs0mg"},{"bike_id":"0af0de00-bbfa-40fd-9e78-0231ad8b2ef1","system_id":"levelo_inurba_marseille","lat":43.2669,"lon":5.3826,"is_reserved":false,"is_disabled":false,"rental_uris":{"android":"levelo://app?vid=0af0de00-bbfa-40fd-9e78-0231ad8b2ef1","ios":"levelo://app?vid=0af0de00-bbfa-40fd-9e78-0231ad8b2ef1"},"vehicle_type_id":"4","last_reported":1769516843,"current_range_meters":8400,"station_id":"","pricing_plan_id":"cebpf4jnsgd1na2vs0mg"},{"bike_id":"a2440d1b-a3a8-413d-afc2-b2eb2991ca06","system_id":"levelo_inurba_marseille","lat":43.33162,"lon":5.37686,"is_reserved":false,"is_disabled":false,"rental_uris":{"android":"levelo://app?vid=a2440d1b-a3a8-413d-afc2-b2eb2991ca06","ios":"levelo://app?vid=a2440d1b-a3a8-413d-afc2-b2eb2991ca06"},"vehicle_type_id":"4","last_reported":1769516843,"current_range_meters":8400,"station_id":"st_d46cu089ee8s73dldbu0","pricing_plan_id":"cebpf4jnsgd1na2vs0mg"},{"bike_id":"73fc0ed2-33b8-469f-9d74-8809de49ae7e","system_id":"levelo_inurba_marseille","lat":43.2606,"lon":5.39381,"is_reserved":false,"is_disabled":false,"rental_uris":{"android":"levelo://app?vid=73fc0ed2-33b8-469f-9d74-8809de49ae7e","ios":"levelo://app?vid=73fc0ed2-33b8-469f-9d74-8809de49ae7e"},"vehicle_type_id":"4","last_reported":1769516843,"current_range_meters":8400,"station_id":"ce4bhh92rcd13ifvqfj0","pricing_plan_id":"cebpf4jnsgd1na2vs0mg"},{"bike_id":"e87551f7-d06a-4b80-aa7a-e3b2490a54b4","system_id":"levelo_inurba_marseille","lat":43.25574,"lon":5.38243,"is_reserved":false,"is_disabled":false,"rental_uris":{"android":"levelo://app?vid=e87551f7-d06a-4b80-aa7a-e3b2490a54b4","ios":"levelo://app?vid=e87551f7-d06a-4b80-aa7a-e3b2490a54b4"},"vehicle_type_id":"4","last_reported":1769516843,"current_range_meters":8400,"station_id":"ce4bhih2rcd13ifvqfs0","pricing_plan_id":"cebpf4jnsgd1na2vs0mg"},{"bike_id":"a7673b04-18b8-4653-b517-d6b03a5dcdbf","system_id":"levelo_inurba_marseille","lat":43.30258,"lon":5.40043,"is_reserved":false,"is_disabled":false,"rental_uris":{"android":"levelo://app?vid=a7673b04-18b8-4653-b517-d6b03a5dcdbf","ios":"levelo://app?vid=a7673b04-18b8-4653-b517-d6b03a5dcdbf"},"vehicle_type_id":"4","last_reported":1769516843,"current_range_meters":8400,"station_id":"ce4bgvh2rcd13ifvqcs0","pricing_plan_id":"cebpf4jnsgd1na2vs0mg"},{"bike_id":"71fea5dc-d0de-4a78-a167-9b14189de85c","system_id":"levelo_inurba_marseille","lat":43.28442,"lon":5.34974,"is_reserved":false,"is_disabled":false,"rental_uris":{"android":"levelo://app?vid=71fea5dc-d0de-4a78-a167-9b14189de85c","ios":"levelo://app?vid=71fea5dc-d0de-4a78-a167-9b14189de85c"},"vehicle_type_id":"4","last_reported":1769516843,"current_range_meters":8400,"station_id":"ce4bhbh2rcd13ifvqepg","pricing_plan_id":"cebpf4jnsgd1na2vs0mg"},{"bike_id":"34d50b3c-5ce8-4f73-8561-7d8c5e669e11","system_id":"levelo_inurba_marseille","lat":43.30532,"lon":5.36693,"is_reserved":false,"is_disabled":false,"rental_uris":{"android":"levelo://app?vid=34d50b3c-5ce8-4f73-8561-7d8c5e669e11","ios":"levelo://app?vid=34d50b3c-5ce8-4f73-8561-7d8c5e669e11"},"vehicle_type_id":"4","last_reported":1769516843,"current_range_meters":8400,"station_id":"ce4bgrp2rcd13ifvqc9g","pricing_plan_id":"cebpf4jnsgd1na2vs0mg"},{"bike_id":"e1d814f1-8a4b-47bd-b805-780af94a9b38","system_id":"levelo_inurba_marseille","lat":43.30645,"lon":5.43169,"is_reserved":false,"is_disabled":false,"rental_uris":{"android":"levelo://app?vid=e1d814f1-8a4b-47bd-b805-780af94a9b38","ios":"levelo://app?vid=e1d814f1-8a4b-47bd-b805-780af94a9b38"},"vehicle_type_id":"4","last_reported":1769516843,"current_range_meters":8400,"station_id":"","pricing_plan_id":"cebpf4jnsgd1na2vs0mg"},{"bike_id":"54d081f6-38f7-4279-8b0a-0a86123d9943","system_id":"levelo_inurba_marseille","lat":43.26677,"lon":5.38259,"is_reserved":false,"is_disabled":false,"rental_uris":{"android":"levelo://app?vid=54d081f6-38f7-4279-8b0a-0a86123d9943","ios":"levelo://app?vid=54d081f6-38f7-4279-8b0a-0a86123d9943"},"vehicle_type_id":"4","last_reported":1769516843,"current_range_meters":8400,"station_id":"ce4bhg92rcd13ifvqf90","pricing_plan_id":"cebpf4jnsgd1na2vs0mg"},{"bike_id":"0d68e9fb-c6a8-4cfc-8dfd-fffb5cc1d283","system_id":"levelo_inurba_marseille","lat":43.30459,"lon":5.37921,"is_reserved":false,"is_disabled":false,"rental_uris":{"android":"levelo://app?vid=0d68e9fb-c6a8-4cfc-8dfd-fffb5cc1d283","ios":"levelo://app?vid=0d68e9fb-c6a8-4cfc-8dfd-fffb5cc1d283"},"vehicle_type_id":"4","last_reported":1769516843,"current_range_meters":8400,"station_id":"ce4bgup2rcd13ifvqcn0","pricing_plan_id":"cebpf4jnsgd1na2vs0mg"},{"bike_id":"b17b5124-beec-4a5a-bebf-2b8f718a1349","system_id":"levelo_inurba_marseille","lat":43.2321,"lon":5.35547,"is_reserved":false,"is_disabled":false,"rental_uris":{"android":"levelo://app?vid=b17b5124-beec-4a5a-bebf-2b8f718a1349","ios":"levelo://app?vid=b17b5124-beec-4a5a-bebf-2b8f718a1349"},"vehicle_type_id":"4","last_reported":1769516843,"current_range_meters":8400,"station_id":"ce4bhu92rcd13ifvqi70","pricing_plan_id":"cebpf4jnsgd1na2vs0mg"},{"bike_id":"0ea3d740-957a-41cd-8123-81078ac58473","system_id":"levelo_inurba_marseille","lat":43.28394,"lon":5.34985,"is_reserved":false,"is_disabled":false,"rental_uris":{"android":"levelo://app?vid=0ea3d740-957a-41cd-8123-81078ac58473","ios":"levelo://app?vid=0ea3d740-957a-41cd-8123-81078ac58473"},"vehicle_type_id":"4","last_reported":1769516843,"current_range_meters":8400,"station_id":"ce4bhbh2rcd13ifvqepg","pricing_plan_id":"cebpf4jnsgd1na2vs0mg"},{"bike_id":"66d53e2f-2a0c-4a26-af49-177c6a70a302","system_id":"levelo_inurba_marseille","lat":43.25431,"lon":5.3959,"is_reserved":false,"is_disabled":false,"rental_uris":{"android":"levelo://app?vid=66d53e2f-2a0c-4a26-af49-177c6a70a302","ios":"levelo://app?vid=66d53e2f-2a0c-4a26-af49-177c6a70a302"},"vehicle_type_id":"4","last_reported":1769516843,"current_range_meters":8800,"station_id":"","pricing_plan_id":"cebpf4jnsgd1na2vs0mg"},{"bike_id":"5645bb8b-cbc9-4823-ad0a-3c45b2f6c88c","system_id":"levelo_inurba_marseille","lat":43.30478,"lon":5.37908,"is_reserved":false,"is_disabled":false,"rental_uris":{"android":"levelo://app?vid=5645bb8b-cbc9-4823-ad0a-3c45b2f6c88c","ios":"levelo://app?vid=5645bb8b-cbc9-4823-ad0a-3c45b2f6c88c"},"vehicle_type_id":"4","last_reported":1769516843,"current_range_meters":8800,"station_id":"ce4bgup2rcd13ifvqcn0","pricing_plan_id":"cebpf4jnsgd1na2vs0mg"},{"bike_id":"643ff0a2-5272-414a-94e9-d471da996199","system_id":"levelo_inurba_marseille","lat":43.23153,"lon":5.43723,"is_reserved":false,"is_disabled":false,"rental_uris":{"android":"levelo://app?vid=643ff0a2-5272-414a-94e9-d471da996199","ios":"levelo://app?vid=643ff0a2-5272-414a-94e9-d471da996199"},"vehicle_type_id":"4","last_reported":1769516843,"current_range_meters":8800,"station_id":"ce4bhmp2rcd13ifvqgog","pricing_plan_id":"cebpf4jnsgd1na2vs0mg"},{"bike_id":"dbf2d5fa-0067-4d78-8d50-7328128e1b0e","system_id":"levelo_inurba_marseille","lat":43.2587,"lon":5.39327,"is_reserved":false,"is_disabled":false,"rental_uris":{"android":"levelo://app?vid=dbf2d5fa-0067-4d78-8d50-7328128e1b0e","ios":"levelo://app?vid=dbf2d5fa-0067-4d78-8d50-7328128e1b0e"},"vehicle_type_id":"4","last_reported":1769516843,"current_range_meters":8800,"station_id":"","pricing_plan_id":"cebpf4jnsgd1na2vs0mg"},{"bike_id":"6486cff7-cfc1-4dca-901e-7bdd8dbcdbcf","system_id":"levelo_inurba_marseille","lat":43.28834,"lon":5.37681,"is_reserved":false,"is_disabled":false,"rental_uris":{"android":"levelo://app?vid=6486cff7-cfc1-4dca-901e-7bdd8dbcdbcf","ios":"levelo://app?vid=6486cff7-cfc1-4dca-901e-7bdd8dbcdbcf"},"vehicle_type_id":"4","last_reported":1769516843,"current_range_meters":8800,"station_id":"","pricing_plan_id":"cebpf4jnsgd1na2vs0mg"},{"bike_id":"0bc9d1d8-da98-4366-82cc-366e8fc0a3fd","system_id":"levelo_inurba_marseille","lat":43.309597,"lon":5.39042,"is_reserved":false,"is_disabled":false,"rental_uris":{"android":"levelo://app?vid=0bc9d1d8-da98-4366-82cc-366e8fc0a3fd","ios":"levelo://app?vid=0bc9d1d8-da98-4366-82cc-366e8fc0a3fd"},"vehicle_type_id":"4","last_reported":1769516843,"current_range_meters":8800,"station_id":"ce4bgup2rcd13ifvqco0","pricing_plan_id":"cebpf4jnsgd1na2vs0mg"},{"bike_id":"d1c43644-7810-4148-a97a-875d3c52e1cb","system_id":"levelo_inurba_marseille","lat":43.22558,"lon":5.41638,"is_reserved":false,"is_disabled":false,"rental_uris":{"android":"levelo://app?vid=d1c43644-7810-4148-a97a-875d3c52e1cb","ios":"levelo://app?vid=d1c43644-7810-4148-a97a-875d3c52e1cb"},"vehicle_type_id":"4","last_reported":1769516843,"current_range_meters":8800,"station_id":"st_d2o4gvlbi1j2169b742g","pricing_plan_id":"cebpf4jnsgd1na2vs0mg"},{"bike_id":"4e8e865a-8f20-4aa1-a13e-5ecf88371b39","system_id":"levelo_inurba_marseille","lat":43.295153,"lon":5.394045,"is_reserved":false,"is_disabled":false,"rental_uris":{"android":"levelo://app?vid=4e8e865a-8f20-4aa1-a13e-5ecf88371b39","ios":"levelo://app?vid=4e8e865a-8f20-4aa1-a13e-5ecf88371b39"},"vehicle_type_id":"4","last_reported":1769516843,"current_range_meters":8800,"station_id":"ce4bh292rcd13ifvqdf0","pricing_plan_id":"cebpf4jnsgd1na2vs0mg"},{"bike_id":"d815de99-dc62-4dc1-9b11-2df23d3fe849","system_id":"levelo_inurba_marseille","lat":43.240447,"lon":5.377443,"is_reserved":false,"is_disabled":true,"rental_uris":{"android":"levelo://app?vid=d815de99-dc62-4dc1-9b11-2df23d3fe849","ios":"levelo://app?vid=d815de99-dc62-4dc1-9b11-2df23d3fe849"},"vehicle_type_id":"4","last_reported":1769516843,"current_range_meters":8800,"station_id":"ce4bhnp2rcd13ifvqgvg","pricing_plan_id":"cebpf4jnsgd1na2vs0mg"},{"bike_id":"bd6ac193-2cd0-45a9-9b54-fbb52ad3b5af","system_id":"levelo_inurba_marseille","lat":43.28605,"lon":5.39897,"is_reserved":false,"is_disabled":true,"rental_uris":{"android":"levelo://app?vid=bd6ac193-2cd0-45a9-9b54-fbb52ad3b5af","ios":"levelo://app?vid=bd6ac193-2cd0-45a9-9b54-fbb52ad3b5af"},"vehicle_type_id":"4","last_reported":1769516843,"current_range_meters":8800,"station_id":"st_d4a7ka997mjs738ck50g","pricing_plan_id":"cebpf4jnsgd1na2vs0mg"},{"bike_id":"48fc7424-9f8b-452e-b985-2922c5d3a016","system_id":"levelo_inurba_marseille","lat":43.23146,"lon":5.43717,"is_reserved":false,"is_disabled":false,"rental_uris":{"android":"levelo://app?vid=48fc7424-9f8b-452e-b985-2922c5d3a016","ios":"levelo://app?vid=48fc7424-9f8b-452e-b985-2922c5d3a016"},"vehicle_type_id":"4","last_reported":1769516843,"current_range_meters":8800,"station_id":"ce4bhmp2rcd13ifvqgog","pricing_plan_id":"cebpf4jnsgd1na2vs0mg"},{"bike_id":"44d0616f-fc20-438d-9b08-1efcaa3d0a1f","system_id":"levelo_inurba_marseille","lat":43.3055,"lon":5.36521,"is_reserved":false,"is_disabled":false,"rental_uris":{"android":"levelo://app?vid=44d0616f-fc20-438d-9b08-1efcaa3d0a1f","ios":"levelo://app?vid=44d0616f-fc20-438d-9b08-1efcaa3d0a1f"},"vehicle_type_id":"4","last_reported":1769516843,"current_range_meters":8800,"station_id":"ce4bgs12rcd13ifvqcag","pricing_plan_id":"cebpf4jnsgd1na2vs0mg"},{"bike_id":"932f24ce-afa3-48f4-a501-0bac81547b63","system_id":"levelo_inurba_marseille","lat":43.28291,"lon":5.35072,"is_reserved":false,"is_disabled":false,"rental_uris":{"android":"levelo://app?vid=932f24ce-afa3-48f4-a501-0bac81547b63","ios":"levelo://app?vid=932f24ce-afa3-48f4-a501-0bac81547b63"},"vehicle_type_id":"4","last_reported":1769516843,"current_range_meters":8800,"station_id":"ce4bhbp2rcd13ifvqerg","pricing_plan_id":"cebpf4jnsgd1na2vs0mg"},{"bike_id":"eb0bf08a-b6cc-4ac8-8e1f-c82dd2a6df2f","system_id":"levelo_inurba_marseille","lat":43.32349,"lon":5.36742,"is_reserved":false,"is_disabled":false,"rental_uris":{"android":"levelo://app?vid=eb0bf08a-b6cc-4ac8-8e1f-c82dd2a6df2f","ios":"levelo://app?vid=eb0bf08a-b6cc-4ac8-8e1f-c82dd2a6df2f"},"vehicle_type_id":"4","last_reported":1769516843,"current_range_meters":8800,"station_id":"ce4bhsh2rcd13ifvqi2g","pricing_plan_id":"cebpf4jnsgd1na2vs0mg"},{"bike_id":"23ced6a9-0c42-4ea2-97f1-d005faa4a36b","system_id":"levelo_inurba_marseille","lat":43.31542,"lon":5.3802,"is_reserved":false,"is_disabled":false,"rental_uris":{"android":"levelo://app?vid=23ced6a9-0c42-4ea2-97f1-d005faa4a36b","ios":"levelo://app?vid=23ced6a9-0c42-4ea2-97f1-d005faa4a36b"},"vehicle_type_id":"4","last_reported":1769516843,"current_range_meters":8800,"station_id":"ce4bhsp2rcd13ifvqi50","pricing_plan_id":"cebpf4jnsgd1na2vs0mg"},{"bike_id":"40c00ce8-9696-4dc1-a876-a27469c259e5","system_id":"levelo_inurba_marseille","lat":43.23232,"lon":5.43769,"is_reserved":false,"is_disabled":false,"rental_uris":{"android":"levelo://app?vid=40c00ce8-9696-4dc1-a876-a27469c259e5","ios":"levelo://app?vid=40c00ce8-9696-4dc1-a876-a27469c259e5"},"vehicle_type_id":"4","last_reported":1769516843,"current_range_meters":8800,"station_id":"ce4bhmp2rcd13ifvqgog","pricing_plan_id":"cebpf4jnsgd1na2vs0mg"},{"bike_id":"5e5a4b08-e009-4ed3-b3e6-6aff63cdd0e3","system_id":"levelo_inurba_marseille","lat":43.29535,"lon":5.38533,"is_reserved":false,"is_disabled":false,"rental_uris":{"android":"levelo://app?vid=5e5a4b08-e009-4ed3-b3e6-6aff63cdd0e3","ios":"levelo://app?vid=5e5a4b08-e009-4ed3-b3e6-6aff63cdd0e3"},"vehicle_type_id":"4","last_reported":1769516843,"current_range_meters":8800,"station_id":"ce4bgih2rcd13ifvqba0","pricing_plan_id":"cebpf4jnsgd1na2vs0mg"},{"bike_id":"74dfc5f5-8832-48ba-8d68-0ef0fa100d72","system_id":"levelo_inurba_marseille","lat":43.25606,"lon":5.38205,"is_reserved":false,"is_disabled":false,"rental_uris":{"android":"levelo://app?vid=74dfc5f5-8832-48ba-8d68-0ef0fa100d72","ios":"levelo://app?vid=74dfc5f5-8832-48ba-8d68-0ef0fa100d72"},"vehicle_type_id":"4","last_reported":1769516843,"current_range_meters":8800,"station_id":"ce4bhih2rcd13ifvqfs0","pricing_plan_id":"cebpf4jnsgd1na2vs0mg"},{"bike_id":"a5cc1832-de06-4308-9c7d-d748558af371","system_id":"levelo_inurba_marseille","lat":43.27075,"lon":5.42268,"is_reserved":false,"is_disabled":false,"rental_uris":{"android":"levelo://app?vid=a5cc1832-de06-4308-9c7d-d748558af371","ios":"levelo://app?vid=a5cc1832-de06-4308-9c7d-d748558af371"},"vehicle_type_id":"4","last_reported":1769516843,"current_range_meters":8800,"station_id":"ce4bhk92rcd13ifvqgb0","pricing_plan_id":"cebpf4jnsgd1na2vs0mg"},{"bike_id":"9a8ad0af-897e-45a4-9788-4bc766c7219b","system_id":"levelo_inurba_marseille","lat":43.27607,"lon":5.36102,"is_reserved":false,"is_disabled":false,"rental_uris":{"android":"levelo://app?vid=9a8ad0af-897e-45a4-9788-4bc766c7219b","ios":"levelo://app?vid=9a8ad0af-897e-45a4-9788-4bc766c7219b"},"vehicle_type_id":"4","last_reported":1769516843,"current_range_meters":9200,"station_id":"ce4bgj92rcd13ifvqbe0","pricing_plan_id":"cebpf4jnsgd1na2vs0mg"},{"bike_id":"394b0442-b227-4817-82ee-24bf4442a5ce","system_id":"levelo_inurba_marseille","lat":43.3074,"lon":5.42441,"is_reserved":false,"is_disabled":false,"rental_uris":{"android":"levelo://app?vid=394b0442-b227-4817-82ee-24bf4442a5ce","ios":"levelo://app?vid=394b0442-b227-4817-82ee-24bf4442a5ce"},"vehicle_type_id":"4","last_reported":1769516843,"current_range_meters":9200,"station_id":"st_cvj6ca6bvosntc0bfgr0","pricing_plan_id":"cebpf4jnsgd1na2vs0mg"},{"bike_id":"e97d0a7c-09a0-4de9-8b12-4f01b9fc223b","system_id":"levelo_inurba_marseille","lat":43.29766,"lon":5.3802,"is_reserved":false,"is_disabled":false,"rental_uris":{"android":"levelo://app?vid=e97d0a7c-09a0-4de9-8b12-4f01b9fc223b","ios":"levelo://app?vid=e97d0a7c-09a0-4de9-8b12-4f01b9fc223b"},"vehicle_type_id":"4","last_reported":1769516843,"current_range_meters":9200,"station_id":"","pricing_plan_id":"cebpf4jnsgd1na2vs0mg"},{"bike_id":"4ceba446-ad1c-421f-8a0d-e0aa42271ae3","system_id":"levelo_inurba_marseille","lat":43.29015,"lon":5.38115,"is_reserved":false,"is_disabled":false,"rental_uris":{"android":"levelo://app?vid=4ceba446-ad1c-421f-8a0d-e0aa42271ae3","ios":"levelo://app?vid=4ceba446-ad1c-421f-8a0d-e0aa42271ae3"},"vehicle_type_id":"4","last_reported":1769516843,"current_range_meters":9200,"station_id":"ce4bh4p2rcd13ifvqe1g","pricing_plan_id":"cebpf4jnsgd1na2vs0mg"},{"bike_id":"b448e451-2626-4999-85e3-999affb889ee","system_id":"levelo_inurba_marseille","lat":43.29227,"lon":5.36068,"is_reserved":false,"is_disabled":false,"rental_uris":{"android":"levelo://app?vid=b448e451-2626-4999-85e3-999affb889ee","ios":"levelo://app?vid=b448e451-2626-4999-85e3-999affb889ee"},"vehicle_type_id":"4","last_reported":1769516843,"current_range_meters":9200,"station_id":"ce4bhbh2rcd13ifvqeqg","pricing_plan_id":"cebpf4jnsgd1na2vs0mg"},{"bike_id":"665f09a0-86f3-41fb-ba25-528fda59e6d0","system_id":"levelo_inurba_marseille","lat":43.28606,"lon":5.3988,"is_reserved":false,"is_disabled":false,"rental_uris":{"android":"levelo://app?vid=665f09a0-86f3-41fb-ba25-528fda59e6d0","ios":"levelo://app?vid=665f09a0-86f3-41fb-ba25-528fda59e6d0"},"vehicle_type_id":"4","last_reported":1769516843,"current_range_meters":9200,"station_id":"st_d4a7ka997mjs738ck50g","pricing_plan_id":"cebpf4jnsgd1na2vs0mg"},{"bike_id":"2b1900c8-1336-4c9a-a0d6-b6d7e9c46d35","system_id":"levelo_inurba_marseille","lat":43.27618,"lon":5.36118,"is_reserved":false,"is_disabled":false,"rental_uris":{"android":"levelo://app?vid=2b1900c8-1336-4c9a-a0d6-b6d7e9c46d35","ios":"levelo://app?vid=2b1900c8-1336-4c9a-a0d6-b6d7e9c46d35"},"vehicle_type_id":"4","last_reported":1769516843,"current_range_meters":9200,"station_id":"ce4bgj92rcd13ifvqbe0","pricing_plan_id":"cebpf4jnsgd1na2vs0mg"},{"bike_id":"d0f42ee2-a714-4fb2-8e10-0f955cdf931e","system_id":"levelo_inurba_marseille","lat":43.25823,"lon":5.39434,"is_reserved":false,"is_disabled":false,"rental_uris":{"android":"levelo://app?vid=d0f42ee2-a714-4fb2-8e10-0f955cdf931e","ios":"levelo://app?vid=d0f42ee2-a714-4fb2-8e10-0f955cdf931e"},"vehicle_type_id":"4","last_reported":1769516843,"current_range_meters":9200,"station_id":"ce4bhip2rcd13ifvqft0","pricing_plan_id":"cebpf4jnsgd1na2vs0mg"},{"bike_id":"799847f3-00d6-4dac-8773-c8f7acf031bb","system_id":"levelo_inurba_marseille","lat":43.31483,"lon":5.37222,"is_reserved":false,"is_disabled":false,"rental_uris":{"android":"levelo://app?vid=799847f3-00d6-4dac-8773-c8f7acf031bb","ios":"levelo://app?vid=799847f3-00d6-4dac-8773-c8f7acf031bb"},"vehicle_type_id":"4","last_reported":1769516843,"current_range_meters":9200,"station_id":"","pricing_plan_id":"cebpf4jnsgd1na2vs0mg"},{"bike_id":"ca66d378-9d1e-4b95-930f-e2b25ff469f9","system_id":"levelo_inurba_marseille","lat":43.33142,"lon":5.37697,"is_reserved":false,"is_disabled":false,"rental_uris":{"android":"levelo://app?vid=ca66d378-9d1e-4b95-930f-e2b25ff469f9","ios":"levelo://app?vid=ca66d378-9d1e-4b95-930f-e2b25ff469f9"},"vehicle_type_id":"4","last_reported":1769516843,"current_range_meters":9200,"station_id":"st_d46cu089ee8s73dldbu0","pricing_plan_id":"cebpf4jnsgd1na2vs0mg"},{"bike_id":"6a8dfbe8-c78e-4934-a1d1-5fd879ba7233","system_id":"levelo_inurba_marseille","lat":43.23157,"lon":5.43707,"is_reserved":false,"is_disabled":false,"rental_uris":{"android":"levelo://app?vid=6a8dfbe8-c78e-4934-a1d1-5fd879ba7233","ios":"levelo://app?vid=6a8dfbe8-c78e-4934-a1d1-5fd879ba7233"},"vehicle_type_id":"4","last_reported":1769516843,"current_range_meters":9200,"station_id":"ce4bhmp2rcd13ifvqgog","pricing_plan_id":"cebpf4jnsgd1na2vs0mg"},{"bike_id":"cd344f5c-4fef-4be8-8a35-1b59ed47f3e1","system_id":"levelo_inurba_marseille","lat":43.245485,"lon":5.395309,"is_reserved":false,"is_disabled":false,"rental_uris":{"android":"levelo://app?vid=cd344f5c-4fef-4be8-8a35-1b59ed47f3e1","ios":"levelo://app?vid=cd344f5c-4fef-4be8-8a35-1b59ed47f3e1"},"vehicle_type_id":"4","last_reported":1769516843,"current_range_meters":9200,"station_id":"ce4bhlp2rcd13ifvqgjg","pricing_plan_id":"cebpf4jnsgd1na2vs0mg"},{"bike_id":"de0a745b-ff98-4422-bea1-113796d1108a","system_id":"levelo_inurba_marseille","lat":43.24661,"lon":5.38155,"is_reserved":false,"is_disabled":false,"rental_uris":{"android":"levelo://app?vid=de0a745b-ff98-4422-bea1-113796d1108a","ios":"levelo://app?vid=de0a745b-ff98-4422-bea1-113796d1108a"},"vehicle_type_id":"4","last_reported":1769516843,"current_range_meters":9600,"station_id":"ce4bhih2rcd13ifvqfr0","pricing_plan_id":"cebpf4jnsgd1na2vs0mg"},{"bike_id":"48ac7849-98f4-4e69-b9f0-0586eb7d8ef9","system_id":"levelo_inurba_marseille","lat":43.29778,"lon":5.44083,"is_reserved":false,"is_disabled":false,"rental_uris":{"android":"levelo://app?vid=48ac7849-98f4-4e69-b9f0-0586eb7d8ef9","ios":"levelo://app?vid=48ac7849-98f4-4e69-b9f0-0586eb7d8ef9"},"vehicle_type_id":"4","last_reported":1769516843,"current_range_meters":9600,"station_id":"st_d3jp68qikq2c7381ktn0","pricing_plan_id":"cebpf4jnsgd1na2vs0mg"},{"bike_id":"b4a5d2da-950b-4190-a8a9-bd35b9354540","system_id":"levelo_inurba_marseille","lat":43.32505,"lon":5.38329,"is_reserved":false,"is_disabled":false,"rental_uris":{"android":"levelo://app?vid=b4a5d2da-950b-4190-a8a9-bd35b9354540","ios":"levelo://app?vid=b4a5d2da-950b-4190-a8a9-bd35b9354540"},"vehicle_type_id":"4","last_reported":1769516843,"current_range_meters":9600,"station_id":"st_d4asgbiv49dc73anf9m0","pricing_plan_id":"cebpf4jnsgd1na2vs0mg"},{"bike_id":"fd37e3f8-f653-4032-a18b-5d54517be452","system_id":"levelo_inurba_marseille","lat":43.31405,"lon":5.37106,"is_reserved":false,"is_disabled":false,"rental_uris":{"android":"levelo://app?vid=fd37e3f8-f653-4032-a18b-5d54517be452","ios":"levelo://app?vid=fd37e3f8-f653-4032-a18b-5d54517be452"},"vehicle_type_id":"4","last_reported":1769516843,"current_range_meters":9600,"station_id":"ce4bgt12rcd13ifvqcd0","pricing_plan_id":"cebpf4jnsgd1na2vs0mg"},{"bike_id":"d3fdbf76-98bd-4ba5-ae78-85dbd591ddad","system_id":"levelo_inurba_marseille","lat":43.29527,"lon":5.38549,"is_reserved":false,"is_disabled":false,"rental_uris":{"android":"levelo://app?vid=d3fdbf76-98bd-4ba5-ae78-85dbd591ddad","ios":"levelo://app?vid=d3fdbf76-98bd-4ba5-ae78-85dbd591ddad"},"vehicle_type_id":"4","last_reported":1769516843,"current_range_meters":9600,"station_id":"ce4bgih2rcd13ifvqba0","pricing_plan_id":"cebpf4jnsgd1na2vs0mg"},{"bike_id":"cb8cde94-651e-4099-b2de-f4490841b080","system_id":"levelo_inurba_marseille","lat":43.241603,"lon":5.364314,"is_reserved":false,"is_disabled":false,"rental_uris":{"android":"levelo://app?vid=cb8cde94-651e-4099-b2de-f4490841b080","ios":"levelo://app?vid=cb8cde94-651e-4099-b2de-f4490841b080"},"vehicle_type_id":"4","last_reported":1769516843,"current_range_meters":9600,"station_id":"cpo36qri1sfpv3e86is0","pricing_plan_id":"cebpf4jnsgd1na2vs0mg"},{"bike_id":"e93193ad-4e10-4fde-b0f5-3507ab09bfe1","system_id":"levelo_inurba_marseille","lat":43.33168,"lon":5.37682,"is_reserved":false,"is_disabled":false,"rental_uris":{"android":"levelo://app?vid=e93193ad-4e10-4fde-b0f5-3507ab09bfe1","ios":"levelo://app?vid=e93193ad-4e10-4fde-b0f5-3507ab09bfe1"},"vehicle_type_id":"4","last_reported":1769516843,"current_range_meters":9600,"station_id":"st_d46cu089ee8s73dldbu0","pricing_plan_id":"cebpf4jnsgd1na2vs0mg"},{"bike_id":"61aa552d-3cbe-40f0-be7a-149354466a30","system_id":"levelo_inurba_marseille","lat":43.33541,"lon":5.3745,"is_reserved":false,"is_disabled":false,"rental_uris":{"android":"levelo://app?vid=61aa552d-3cbe-40f0-be7a-149354466a30","ios":"levelo://app?vid=61aa552d-3cbe-40f0-be7a-149354466a30"},"vehicle_type_id":"4","last_reported":1769516843,"current_range_meters":9600,"station_id":"","pricing_plan_id":"cebpf4jnsgd1na2vs0mg"},{"bike_id":"b7ba63ef-8d28-4c2f-985f-557a01349fd8","system_id":"levelo_inurba_marseille","lat":43.27193,"lon":5.4098,"is_reserved":false,"is_disabled":false,"rental_uris":{"android":"levelo://app?vid=b7ba63ef-8d28-4c2f-985f-557a01349fd8","ios":"levelo://app?vid=b7ba63ef-8d28-4c2f-985f-557a01349fd8"},"vehicle_type_id":"4","last_reported":1769516843,"current_range_meters":9600,"station_id":"ce4bhl12rcd13ifvqgf0","pricing_plan_id":"cebpf4jnsgd1na2vs0mg"},{"bike_id":"8835c2e4-9651-4a75-98c9-c410b5836b98","system_id":"levelo_inurba_marseille","lat":43.335397,"lon":5.374707,"is_reserved":false,"is_disabled":false,"rental_uris":{"android":"levelo://app?vid=8835c2e4-9651-4a75-98c9-c410b5836b98","ios":"levelo://app?vid=8835c2e4-9651-4a75-98c9-c410b5836b98"},"vehicle_type_id":"4","last_reported":1769516843,"current_range_meters":9600,"station_id":"st_d3j3df2ikq2c7380ej80","pricing_plan_id":"cebpf4jnsgd1na2vs0mg"},{"bike_id":"9fd72da4-67fe-4f28-a93f-5818f963e85b","system_id":"levelo_inurba_marseille","lat":43.25097,"lon":5.39503,"is_reserved":false,"is_disabled":false,"rental_uris":{"android":"levelo://app?vid=9fd72da4-67fe-4f28-a93f-5818f963e85b","ios":"levelo://app?vid=9fd72da4-67fe-4f28-a93f-5818f963e85b"},"vehicle_type_id":"4","last_reported":1769516843,"current_range_meters":10000,"station_id":"ce4bhm12rcd13ifvqgkg","pricing_plan_id":"cebpf4jnsgd1na2vs0mg"},{"bike_id":"bc6c800a-6928-4bf7-8745-f31ca6747acf","system_id":"levelo_inurba_marseille","lat":43.323485,"lon":5.367428,"is_reserved":false,"is_disabled":false,"rental_uris":{"android":"levelo://app?vid=bc6c800a-6928-4bf7-8745-f31ca6747acf","ios":"levelo://app?vid=bc6c800a-6928-4bf7-8745-f31ca6747acf"},"vehicle_type_id":"4","last_reported":1769516843,"current_range_meters":10000,"station_id":"ce4bhsh2rcd13ifvqi2g","pricing_plan_id":"cebpf4jnsgd1na2vs0mg"},{"bike_id":"7e4000cd-e3a1-4864-8ad2-e5b67370c4e6","system_id":"levelo_inurba_marseille","lat":43.26073,"lon":5.39382,"is_reserved":false,"is_disabled":false,"rental_uris":{"android":"levelo://app?vid=7e4000cd-e3a1-4864-8ad2-e5b67370c4e6","ios":"levelo://app?vid=7e4000cd-e3a1-4864-8ad2-e5b67370c4e6"},"vehicle_type_id":"4","last_reported":1769516843,"current_range_meters":10000,"station_id":"ce4bhh92rcd13ifvqfj0","pricing_plan_id":"cebpf4jnsgd1na2vs0mg"},{"bike_id":"fe18431d-53df-4614-883d-fffa52f224b1","system_id":"levelo_inurba_marseille","lat":43.33223,"lon":5.40233,"is_reserved":false,"is_disabled":false,"rental_uris":{"android":"levelo://app?vid=fe18431d-53df-4614-883d-fffa52f224b1","ios":"levelo://app?vid=fe18431d-53df-4614-883d-fffa52f224b1"},"vehicle_type_id":"4","last_reported":1769516843,"current_range_meters":10000,"station_id":"","pricing_plan_id":"cebpf4jnsgd1na2vs0mg"},{"bike_id":"9eb6b9e2-a618-4dd4-9c2c-7b55a67226e2","system_id":"levelo_inurba_marseille","lat":43.313282,"lon":5.39696,"is_reserved":false,"is_disabled":false,"rental_uris":{"android":"levelo://app?vid=9eb6b9e2-a618-4dd4-9c2c-7b55a67226e2","ios":"levelo://app?vid=9eb6b9e2-a618-4dd4-9c2c-7b55a67226e2"},"vehicle_type_id":"4","last_reported":1769516843,"current_range_meters":10000,"station_id":"ce4bgvp2rcd13ifvqcu0","pricing_plan_id":"cebpf4jnsgd1na2vs0mg"},{"bike_id":"4c3ee580-76cd-41db-ab53-f7d8d1ee494a","system_id":"levelo_inurba_marseille","lat":43.30142,"lon":5.43109,"is_reserved":false,"is_disabled":false,"rental_uris":{"android":"levelo://app?vid=4c3ee580-76cd-41db-ab53-f7d8d1ee494a","ios":"levelo://app?vid=4c3ee580-76cd-41db-ab53-f7d8d1ee494a"},"vehicle_type_id":"4","last_reported":1769516843,"current_range_meters":10000,"station_id":"st_d3js3co5814s73ftftug","pricing_plan_id":"cebpf4jnsgd1na2vs0mg"},{"bike_id":"f6e405d3-8a9d-4261-8d95-49e5d5fcb5c0","system_id":"levelo_inurba_marseille","lat":43.32459,"lon":5.36557,"is_reserved":false,"is_disabled":false,"rental_uris":{"android":"levelo://app?vid=f6e405d3-8a9d-4261-8d95-49e5d5fcb5c0","ios":"levelo://app?vid=f6e405d3-8a9d-4261-8d95-49e5d5fcb5c0"},"vehicle_type_id":"4","last_reported":1769516843,"current_range_meters":10000,"station_id":"ce4bhs12rcd13ifvqhvg","pricing_plan_id":"cebpf4jnsgd1na2vs0mg"},{"bike_id":"74dbc386-33f8-48c3-8138-7f70338397fa","system_id":"levelo_inurba_marseille","lat":43.30558,"lon":5.38421,"is_reserved":false,"is_disabled":false,"rental_uris":{"android":"levelo://app?vid=74dbc386-33f8-48c3-8138-7f70338397fa","ios":"levelo://app?vid=74dbc386-33f8-48c3-8138-7f70338397fa"},"vehicle_type_id":"4","last_reported":1769516843,"current_range_meters":10000,"station_id":"ce4bgg92rcd13ifvqb30","pricing_plan_id":"cebpf4jnsgd1na2vs0mg"},{"bike_id":"1a56152d-f93b-4ba8-94fe-9709967df90d","system_id":"levelo_inurba_marseille","lat":43.239619,"lon":5.366293,"is_reserved":false,"is_disabled":false,"rental_uris":{"android":"levelo://app?vid=1a56152d-f93b-4ba8-94fe-9709967df90d","ios":"levelo://app?vid=1a56152d-f93b-4ba8-94fe-9709967df90d"},"vehicle_type_id":"4","last_reported":1769516843,"current_range_meters":10000,"station_id":"ce4bhi12rcd13ifvqfp0","pricing_plan_id":"cebpf4jnsgd1na2vs0mg"},{"bike_id":"10a95871-93a0-4f99-844a-819c68a7da20","system_id":"levelo_inurba_marseille","lat":43.2884,"lon":5.35873,"is_reserved":false,"is_disabled":false,"rental_uris":{"android":"levelo://app?vid=10a95871-93a0-4f99-844a-819c68a7da20","ios":"levelo://app?vid=10a95871-93a0-4f99-844a-819c68a7da20"},"vehicle_type_id":"4","last_reported":1769516843,"current_range_meters":10000,"station_id":"ce4bhb12rcd13ifvqem0","pricing_plan_id":"cebpf4jnsgd1na2vs0mg"},{"bike_id":"762080ff-9460-4403-b5cb-9005c9f445ba","system_id":"levelo_inurba_marseille","lat":43.24811,"lon":5.37464,"is_reserved":false,"is_disabled":false,"rental_uris":{"android":"levelo://app?vid=762080ff-9460-4403-b5cb-9005c9f445ba","ios":"levelo://app?vid=762080ff-9460-4403-b5cb-9005c9f445ba"},"vehicle_type_id":"4","last_reported":1769516843,"current_range_meters":10000,"station_id":"ce4bhgh2rcd13ifvqfb0","pricing_plan_id":"cebpf4jnsgd1na2vs0mg"},{"bike_id":"7d22752a-f133-4083-b6bb-f6a2946f2ca7","system_id":"levelo_inurba_marseille","lat":43.29553,"lon":5.37506,"is_reserved":false,"is_disabled":false,"rental_uris":{"android":"levelo://app?vid=7d22752a-f133-4083-b6bb-f6a2946f2ca7","ios":"levelo://app?vid=7d22752a-f133-4083-b6bb-f6a2946f2ca7"},"vehicle_type_id":"4","last_reported":1769516843,"current_range_meters":10000,"station_id":"ce4bgh92rcd13ifvqb50","pricing_plan_id":"cebpf4jnsgd1na2vs0mg"},{"bike_id":"ea593747-46f8-4f1d-ad75-e03de719f0f9","system_id":"levelo_inurba_marseille","lat":43.30938,"lon":5.36846,"is_reserved":false,"is_disabled":false,"rental_uris":{"android":"levelo://app?vid=ea593747-46f8-4f1d-ad75-e03de719f0f9","ios":"levelo://app?vid=ea593747-46f8-4f1d-ad75-e03de719f0f9"},"vehicle_type_id":"4","last_reported":1769516843,"current_range_meters":10000,"station_id":"ce4bgn92rcd13ifvqbvg","pricing_plan_id":"cebpf4jnsgd1na2vs0mg"},{"bike_id":"d46471ec-377c-410e-b3fb-8093e216c936","system_id":"levelo_inurba_marseille","lat":43.331532,"lon":5.376923,"is_reserved":false,"is_disabled":false,"rental_uris":{"android":"levelo://app?vid=d46471ec-377c-410e-b3fb-8093e216c936","ios":"levelo://app?vid=d46471ec-377c-410e-b3fb-8093e216c936"},"vehicle_type_id":"4","last_reported":1769516843,"current_range_meters":10000,"station_id":"st_d46cu089ee8s73dldbu0","pricing_plan_id":"cebpf4jnsgd1na2vs0mg"},{"bike_id":"d7c93144-839a-4f01-87af-a386fc41f6ba","system_id":"levelo_inurba_marseille","lat":43.2944,"lon":5.39747,"is_reserved":false,"is_disabled":false,"rental_uris":{"android":"levelo://app?vid=d7c93144-839a-4f01-87af-a386fc41f6ba","ios":"levelo://app?vid=d7c93144-839a-4f01-87af-a386fc41f6ba"},"vehicle_type_id":"4","last_reported":1769516843,"current_range_meters":10000,"station_id":"ce4bh3h2rcd13ifvqdo0","pricing_plan_id":"cebpf4jnsgd1na2vs0mg"},{"bike_id":"864234d1-1dd8-4d5b-8e9e-310a0995de83","system_id":"levelo_inurba_marseille","lat":43.29268,"lon":5.36838,"is_reserved":false,"is_disabled":false,"rental_uris":{"android":"levelo://app?vid=864234d1-1dd8-4d5b-8e9e-310a0995de83","ios":"levelo://app?vid=864234d1-1dd8-4d5b-8e9e-310a0995de83"},"vehicle_type_id":"4","last_reported":1769516843,"current_range_meters":10000,"station_id":"ce4bhbp2rcd13ifvqesg","pricing_plan_id":"cebpf4jnsgd1na2vs0mg"},{"bike_id":"30257518-5f58-4ce4-a4a7-f20311ed14bb","system_id":"levelo_inurba_marseille","lat":43.2407,"lon":5.37767,"is_reserved":false,"is_disabled":false,"rental_uris":{"android":"levelo://app?vid=30257518-5f58-4ce4-a4a7-f20311ed14bb","ios":"levelo://app?vid=30257518-5f58-4ce4-a4a7-f20311ed14bb"},"vehicle_type_id":"4","last_reported":1769516843,"current_range_meters":10800,"station_id":"ce4bhnp2rcd13ifvqgvg","pricing_plan_id":"cebpf4jnsgd1na2vs0mg"},{"bike_id":"57ba8264-2f36-40a0-84a9-adc727c65354","system_id":"levelo_inurba_marseille","lat":43.29038,"lon":5.39995,"is_reserved":false,"is_disabled":false,"rental_uris":{"android":"levelo://app?vid=57ba8264-2f36-40a0-84a9-adc727c65354","ios":"levelo://app?vid=57ba8264-2f36-40a0-84a9-adc727c65354"},"vehicle_type_id":"4","last_reported":1769516843,"current_range_meters":10800,"station_id":"ce4bh392rcd13ifvqdm0","pricing_plan_id":"cebpf4jnsgd1na2vs0mg"},{"bike_id":"dc47f27c-80c4-4aef-9f7e-137ae5f6aaab","system_id":"levelo_inurba_marseille","lat":43.24075,"lon":5.37759,"is_reserved":false,"is_disabled":false,"rental_uris":{"android":"levelo://app?vid=dc47f27c-80c4-4aef-9f7e-137ae5f6aaab","ios":"levelo://app?vid=dc47f27c-80c4-4aef-9f7e-137ae5f6aaab"},"vehicle_type_id":"4","last_reported":1769516843,"current_range_meters":10800,"station_id":"ce4bhnp2rcd13ifvqgvg","pricing_plan_id":"cebpf4jnsgd1na2vs0mg"},{"bike_id":"be73f9f8-39c5-4042-b9a4-d2b74c307907","system_id":"levelo_inurba_marseille","lat":43.313401,"lon":5.367188,"is_reserved":false,"is_disabled":false,"rental_uris":{"android":"levelo://app?vid=be73f9f8-39c5-4042-b9a4-d2b74c307907","ios":"levelo://app?vid=be73f9f8-39c5-4042-b9a4-d2b74c307907"},"vehicle_type_id":"4","last_reported":1769516843,"current_range_meters":10800,"station_id":"ce4bgr92rcd13ifvqc6g","pricing_plan_id":"cebpf4jnsgd1na2vs0mg"},{"bike_id":"c5a027ec-7291-4eaa-9cfc-7f41b39ae3b8","system_id":"levelo_inurba_marseille","lat":43.28275,"lon":5.35075,"is_reserved":false,"is_disabled":false,"rental_uris":{"android":"levelo://app?vid=c5a027ec-7291-4eaa-9cfc-7f41b39ae3b8","ios":"levelo://app?vid=c5a027ec-7291-4eaa-9cfc-7f41b39ae3b8"},"vehicle_type_id":"4","last_reported":1769516843,"current_range_meters":10800,"station_id":"ce4bhbp2rcd13ifvqerg","pricing_plan_id":"cebpf4jnsgd1na2vs0mg"},{"bike_id":"690311ac-da8d-43f3-b9e5-4e7d467ee486","system_id":"levelo_inurba_marseille","lat":43.323543,"lon":5.367224,"is_reserved":false,"is_disabled":false,"rental_uris":{"android":"levelo://app?vid=690311ac-da8d-43f3-b9e5-4e7d467ee486","ios":"levelo://app?vid=690311ac-da8d-43f3-b9e5-4e7d467ee486"},"vehicle_type_id":"4","last_reported":1769516843,"current_range_meters":10800,"station_id":"ce4bhsh2rcd13ifvqi2g","pricing_plan_id":"cebpf4jnsgd1na2vs0mg"},{"bike_id":"8adf422e-1d31-4a04-96dd-dc48c4174bee","system_id":"levelo_inurba_marseille","lat":43.25521,"lon":5.37654,"is_reserved":false,"is_disabled":false,"rental_uris":{"android":"levelo://app?vid=8adf422e-1d31-4a04-96dd-dc48c4174bee","ios":"levelo://app?vid=8adf422e-1d31-4a04-96dd-dc48c4174bee"},"vehicle_type_id":"4","last_reported":1769516843,"current_range_meters":10800,"station_id":"ce4bhh12rcd13ifvqff0","pricing_plan_id":"cebpf4jnsgd1na2vs0mg"},{"bike_id":"e6a5661d-144e-4a59-aee1-bebd9c95c655","system_id":"levelo_inurba_marseille","lat":43.25009,"lon":5.389199,"is_reserved":false,"is_disabled":false,"rental_uris":{"android":"levelo://app?vid=e6a5661d-144e-4a59-aee1-bebd9c95c655","ios":"levelo://app?vid=e6a5661d-144e-4a59-aee1-bebd9c95c655"},"vehicle_type_id":"4","last_reported":1769516843,"current_range_meters":10800,"station_id":"ce4bhgp2rcd13ifvqfd0","pricing_plan_id":"cebpf4jnsgd1na2vs0mg"},{"bike_id":"1c4db7aa-2546-4b50-96ca-5d5e14e5b1fa","system_id":"levelo_inurba_marseille","lat":43.29032,"lon":5.39965,"is_reserved":false,"is_disabled":false,"rental_uris":{"android":"levelo://app?vid=1c4db7aa-2546-4b50-96ca-5d5e14e5b1fa","ios":"levelo://app?vid=1c4db7aa-2546-4b50-96ca-5d5e14e5b1fa"},"vehicle_type_id":"4","last_reported":1769516843,"current_range_meters":10800,"station_id":"ce4bh392rcd13ifvqdm0","pricing_plan_id":"cebpf4jnsgd1na2vs0mg"},{"bike_id":"2f009252-5cac-49b2-9dc5-1adbfea4044c","system_id":"levelo_inurba_marseille","lat":43.26186,"lon":5.37449,"is_reserved":false,"is_disabled":false,"rental_uris":{"android":"levelo://app?vid=2f009252-5cac-49b2-9dc5-1adbfea4044c","ios":"levelo://app?vid=2f009252-5cac-49b2-9dc5-1adbfea4044c"},"vehicle_type_id":"4","last_reported":1769516843,"current_range_meters":10800,"station_id":"ce4bhgp2rcd13ifvqfc0","pricing_plan_id":"cebpf4jnsgd1na2vs0mg"},{"bike_id":"19a4b735-d55d-4dc7-8616-541c09acceaa","system_id":"levelo_inurba_marseille","lat":43.29,"lon":5.37828,"is_reserved":false,"is_disabled":false,"rental_uris":{"android":"levelo://app?vid=19a4b735-d55d-4dc7-8616-541c09acceaa","ios":"levelo://app?vid=19a4b735-d55d-4dc7-8616-541c09acceaa"},"vehicle_type_id":"4","last_reported":1769516843,"current_range_meters":11200,"station_id":"ce4bh9p2rcd13ifvqed0","pricing_plan_id":"cebpf4jnsgd1na2vs0mg"},{"bike_id":"6c21ba36-56d3-4886-aea5-bc3a1110a460","system_id":"levelo_inurba_marseille","lat":43.29882,"lon":5.38151,"is_reserved":false,"is_disabled":false,"rental_uris":{"android":"levelo://app?vid=6c21ba36-56d3-4886-aea5-bc3a1110a460","ios":"levelo://app?vid=6c21ba36-56d3-4886-aea5-bc3a1110a460"},"vehicle_type_id":"4","last_reported":1769516843,"current_range_meters":11200,"station_id":"ce4bgj12rcd13ifvqbc0","pricing_plan_id":"cebpf4jnsgd1na2vs0mg"},{"bike_id":"589a0b60-ed47-47c0-885e-0335fa49c5be","system_id":"levelo_inurba_marseille","lat":43.24665,"lon":5.38167,"is_reserved":false,"is_disabled":false,"rental_uris":{"android":"levelo://app?vid=589a0b60-ed47-47c0-885e-0335fa49c5be","ios":"levelo://app?vid=589a0b60-ed47-47c0-885e-0335fa49c5be"},"vehicle_type_id":"4","last_reported":1769516843,"current_range_meters":11200,"station_id":"ce4bhih2rcd13ifvqfr0","pricing_plan_id":"cebpf4jnsgd1na2vs0mg"},{"bike_id":"293bf7b7-0f0f-4323-bd4b-aa8698c6c665","system_id":"levelo_inurba_marseille","lat":43.2315,"lon":5.43692,"is_reserved":false,"is_disabled":false,"rental_uris":{"android":"levelo://app?vid=293bf7b7-0f0f-4323-bd4b-aa8698c6c665","ios":"levelo://app?vid=293bf7b7-0f0f-4323-bd4b-aa8698c6c665"},"vehicle_type_id":"4","last_reported":1769516843,"current_range_meters":11200,"station_id":"ce4bhmp2rcd13ifvqgog","pricing_plan_id":"cebpf4jnsgd1na2vs0mg"},{"bike_id":"6d0f3590-1f08-4309-8a81-86f2ba4719cc","system_id":"levelo_inurba_marseille","lat":43.23143,"lon":5.437162,"is_reserved":false,"is_disabled":false,"rental_uris":{"android":"levelo://app?vid=6d0f3590-1f08-4309-8a81-86f2ba4719cc","ios":"levelo://app?vid=6d0f3590-1f08-4309-8a81-86f2ba4719cc"},"vehicle_type_id":"4","last_reported":1769516843,"current_range_meters":11200,"station_id":"ce4bhmp2rcd13ifvqgog","pricing_plan_id":"cebpf4jnsgd1na2vs0mg"},{"bike_id":"dc9cc09a-c907-411d-8088-d7b60569feda","system_id":"levelo_inurba_marseille","lat":43.30465,"lon":5.37902,"is_reserved":false,"is_disabled":false,"rental_uris":{"android":"levelo://app?vid=dc9cc09a-c907-411d-8088-d7b60569feda","ios":"levelo://app?vid=dc9cc09a-c907-411d-8088-d7b60569feda"},"vehicle_type_id":"4","last_reported":1769516843,"current_range_meters":11200,"station_id":"ce4bgup2rcd13ifvqcn0","pricing_plan_id":"cebpf4jnsgd1na2vs0mg"},{"bike_id":"c83397dc-af34-4aa3-b04b-bfdefb9be244","system_id":"levelo_inurba_marseille","lat":43.30122,"lon":5.43111,"is_reserved":false,"is_disabled":false,"rental_uris":{"android":"levelo://app?vid=c83397dc-af34-4aa3-b04b-bfdefb9be244","ios":"levelo://app?vid=c83397dc-af34-4aa3-b04b-bfdefb9be244"},"vehicle_type_id":"4","last_reported":1769516843,"current_range_meters":11200,"station_id":"st_d3js3co5814s73ftftug","pricing_plan_id":"cebpf4jnsgd1na2vs0mg"},{"bike_id":"6e8ca7e0-b9d2-4dd8-a49c-594aebdeffb7","system_id":"levelo_inurba_marseille","lat":43.24647,"lon":5.38174,"is_reserved":false,"is_disabled":false,"rental_uris":{"android":"levelo://app?vid=6e8ca7e0-b9d2-4dd8-a49c-594aebdeffb7","ios":"levelo://app?vid=6e8ca7e0-b9d2-4dd8-a49c-594aebdeffb7"},"vehicle_type_id":"4","last_reported":1769516843,"current_range_meters":11200,"station_id":"ce4bhih2rcd13ifvqfr0","pricing_plan_id":"cebpf4jnsgd1na2vs0mg"},{"bike_id":"8e2b31b0-98c9-4daf-8d18-30fc830a8a7a","system_id":"levelo_inurba_marseille","lat":43.29035,"lon":5.39976,"is_reserved":false,"is_disabled":false,"rental_uris":{"android":"levelo://app?vid=8e2b31b0-98c9-4daf-8d18-30fc830a8a7a","ios":"levelo://app?vid=8e2b31b0-98c9-4daf-8d18-30fc830a8a7a"},"vehicle_type_id":"4","last_reported":1769516843,"current_range_meters":11200,"station_id":"ce4bh392rcd13ifvqdm0","pricing_plan_id":"cebpf4jnsgd1na2vs0mg"},{"bike_id":"2c3556d9-9937-4777-ac8d-5e3a534a66c4","system_id":"levelo_inurba_marseille","lat":43.25736,"lon":5.41113,"is_reserved":false,"is_disabled":false,"rental_uris":{"android":"levelo://app?vid=2c3556d9-9937-4777-ac8d-5e3a534a66c4","ios":"levelo://app?vid=2c3556d9-9937-4777-ac8d-5e3a534a66c4"},"vehicle_type_id":"4","last_reported":1769516843,"current_range_meters":11200,"station_id":"ce4bhkp2rcd13ifvqgd0","pricing_plan_id":"cebpf4jnsgd1na2vs0mg"},{"bike_id":"d9f56a61-1a13-4a92-b34c-7b199d4cd125","system_id":"levelo_inurba_marseille","lat":43.2794,"lon":5.41041,"is_reserved":false,"is_disabled":true,"rental_uris":{"android":"levelo://app?vid=d9f56a61-1a13-4a92-b34c-7b199d4cd125","ios":"levelo://app?vid=d9f56a61-1a13-4a92-b34c-7b199d4cd125"},"vehicle_type_id":"4","last_reported":1769516843,"current_range_meters":11200,"station_id":"ce4bhnp2rcd13ifvqh0g","pricing_plan_id":"cebpf4jnsgd1na2vs0mg"},{"bike_id":"02036545-e9e0-4ebe-9553-6ea94a3cac62","system_id":"levelo_inurba_marseille","lat":43.23188,"lon":5.35574,"is_reserved":false,"is_disabled":false,"rental_uris":{"android":"levelo://app?vid=02036545-e9e0-4ebe-9553-6ea94a3cac62","ios":"levelo://app?vid=02036545-e9e0-4ebe-9553-6ea94a3cac62"},"vehicle_type_id":"4","last_reported":1769516843,"current_range_meters":11200,"station_id":"ce4bhu92rcd13ifvqi70","pricing_plan_id":"cebpf4jnsgd1na2vs0mg"},{"bike_id":"e89e1387-3e6e-4b6a-922c-baad7264e648","system_id":"levelo_inurba_marseille","lat":43.29278,"lon":5.40112,"is_reserved":false,"is_disabled":false,"rental_uris":{"android":"levelo://app?vid=e89e1387-3e6e-4b6a-922c-baad7264e648","ios":"levelo://app?vid=e89e1387-3e6e-4b6a-922c-baad7264e648"},"vehicle_type_id":"4","last_reported":1769516843,"current_range_meters":11200,"station_id":"ce4bh312rcd13ifvqdk0","pricing_plan_id":"cebpf4jnsgd1na2vs0mg"},{"bike_id":"20f52021-89a0-4564-9527-16385e8094a8","system_id":"levelo_inurba_marseille","lat":43.30133,"lon":5.38099,"is_reserved":false,"is_disabled":false,"rental_uris":{"android":"levelo://app?vid=20f52021-89a0-4564-9527-16385e8094a8","ios":"levelo://app?vid=20f52021-89a0-4564-9527-16385e8094a8"},"vehicle_type_id":"4","last_reported":1769516843,"current_range_meters":11200,"station_id":"","pricing_plan_id":"cebpf4jnsgd1na2vs0mg"},{"bike_id":"eab031dc-f71d-4165-a9cb-853805938002","system_id":"levelo_inurba_marseille","lat":43.29269,"lon":5.40125,"is_reserved":false,"is_disabled":false,"rental_uris":{"android":"levelo://app?vid=eab031dc-f71d-4165-a9cb-853805938002","ios":"levelo://app?vid=eab031dc-f71d-4165-a9cb-853805938002"},"vehicle_type_id":"4","last_reported":1769516843,"current_range_meters":11200,"station_id":"ce4bh312rcd13ifvqdk0","pricing_plan_id":"cebpf4jnsgd1na2vs0mg"},