{"last_updated":1753467364,"ttl":60,"version":"2.2","data":{"bikes":[{"bike_id":"ac825e91-7f0c-4c72-8720-80271a9ac17c","system_id":"levelo_inurba_marseille","lat":43.30948,"lon":5.39038,"is_reserved":false,"is_disabled":false,"rental_uris":{"android":"levelo://app?vid=ac825e91-7f0c-4c72-8720-80271a9ac17c","ios":"levelo://app?vid=ac825e91-7f0c-4c72-8720-80271a9ac17c"},"vehicle_type_id":"4","last_reported":1753467364,"current_range_meters":2800,"station_id":"ce4bgup2rcd13ifvqco0","pricing_plan_id":"cebpf4jnsgd1na2vs0mg"},{"bike_id":"09899674-0103-404f-a4ed-2c62a0da94f9","system_id":"levelo_inurba_marseille","lat":43.316908,"lon":5.404506,"is_reserved":false,"is_disabled":false,"rental_uris":{"android":"levelo://app?vid=09899674-0103-404f-a4ed-2c62a0da94f9","ios":"levelo://app?vid=09899674-0103-404f-a4ed-2c62a0da94f9"},"vehicle_type_id":"4","last_reported":1753467364,"current_range_meters":2800,"station_id":"ce4bh012rcd13ifvqd00","pricing_plan_id":"cebpf4jnsgd1na2vs0mg"},{"bike_id":"2b45edc8-3944-43d6-a4a7-675023e363ed","system_id":"levelo_inurba_marseille","lat":43.23181,"lon":5.39992,"is_reserved":false,"is_disabled":false,"rental_uris":{"android":"levelo://app?vid=2b45edc8-3944-43d6-a4a7-675023e363ed","ios":"levelo://app?vid=2b45edc8-3944-43d6-a4a7-675023e363ed"},"vehicle_type_id":"4","last_reported":1753467364,"current_range_meters":2800,"station_id":"ce4bhn12rcd13ifvqgqg","pricing_plan_id":"cebpf4jnsgd1na2vs0mg"},{"bike_id":"02b23429-20e1-4354-b9d0-93a2eafa4149","system_id":"levelo_inurba_marseille","lat":43.30951,"lon":5.39022,"is_reserved":false,"is_disabled":false,"rental_uris":{"android":"levelo://app?vid=02b23429-20e1-4354-b9d0-93a2eafa4149","ios":"levelo://app?vid=02b23429-20e1-4354-b9d0-93a2eafa4149"},"vehicle_type_id":"4","last_reported":1753467364,"current_range_meters":2800,"station_id":"ce4bgup2rcd13ifvqco0","pricing_plan_id":"cebpf4jnsgd1na2vs0mg"},{"bike_id":"cd129ba3-e792-4c8f-a103-f7dd5769626f","system_id":"levelo_inurba_marseille","lat":43.29269,"lon":5.38444,"is_reserved":false,"is_disabled":false,"rental_uris":{"android":"levelo://app?vid=cd129ba3-e792-4c8f-a103-f7dd5769626f","ios":"levelo://app?vid=cd129ba3-e792-4c8f-a103-f7dd5769626f"},"vehicle_type_id":"4","last_reported":1753467364,"current_range_meters":3600,"station_id":"ce4bh692rcd13ifvqea0","pricing_plan_id":"cebpf4jnsgd1na2vs0mg"},{"bike_id":"8e23d395-fbdc-4633-82e7-61a8647f3d0c","system_id":"levelo_inurba_marseille","lat":43.28843,"lon":5.35858,"is_reserved":false,"is_disabled":false,"rental_uris":{"android":"levelo://app?vid=8e23d395-fbdc-4633-82e7-61a8647f3d0c","ios":"levelo://app?vid=8e23d395-fbdc-4633-82e7-61a8647f3d0c"},"vehicle_type_id":"4","last_reported":1753467364,"current_range_meters":3200,"station_id":"ce4bhb12rcd13ifvqem0","pricing_plan_id":"cebpf4jnsgd1na2vs0mg"},{"bike_id":"246efd16-0e35-48a7-bc30-084fd0b92785","system_id":"levelo_inurba_marseille","lat":43.28941,"lon":5.39632,"is_reserved":false,"is_disabled":false,"rental_uris":{"android":"levelo://app?vid=246efd16-0e35-48a7-bc30-084fd0b92785","ios":"levelo://app?vid=246efd16-0e35-48a7-bc30-084fd0b92785"},"vehicle_type_id":"4","last_reported":1753467364,"current_range_meters":3200,"station_id":"ce4bh3h2rcd13ifvqdn0","pricing_plan_id":"cebpf4jnsgd1na2vs0mg"},{"bike_id":"9f489c93-1676-4547-8fca-97f1ec4510de","system_id":"levelo_inurba_marseille","lat":43.30948,"lon":5.39037,"is_reserved":false,"is_disabled":false,"rental_uris":{"android":"levelo://app?vid=9f489c93-1676-4547-8fca-97f1ec4510de","ios":"levelo://app?vid=9f489c93-1676-4547-8fca-97f1ec4510de"},"vehicle_type_id":"4","last_reported":1753467364,"current_range_meters":3200,"station_id":"ce4bgup2rcd13ifvqco0","pricing_plan_id":"cebpf4jnsgd1na2vs0mg"},{"bike_id":"fe65d7d6-638d-40a5-bccf-533e7cf482a6","system_id":"levelo_inurba_marseille","lat":43.28357,"lon":5.43266,"is_reserved":false,"is_disabled":false,"rental_uris":{"android":"levelo://app?vid=fe65d7d6-638d-40a5-bccf-533e7cf482a6","ios":"levelo://app?vid=fe65d7d6-638d-40a5-bccf-533e7cf482a6"},"vehicle_type_id":"4","last_reported":1753467364,"current_range_meters":3600,"station_id":"","pricing_plan_id":"cebpf4jnsgd1na2vs0mg"},{"bike_id":"2bfd7965-be5a-421b-9a77-57723887e501","system_id":"levelo_inurba_marseille","lat":43.295312,"lon":5.385354,"is_reserved":false,"is_disabled":false,"rental_uris":{"android":"levelo://app?vid=2bfd7965-be5a-421b-9a77-57723887e501","ios":"levelo://app?vid=2bfd7965-be5a-421b-9a77-57723887e501"},"vehicle_type_id":"4","last_reported":1753467364,"current_range_meters":3600,"station_id":"ce4bgih2rcd13ifvqba0","pricing_plan_id":"cebpf4jnsgd1na2vs0mg"},{"bike_id":"cabe7f8a-cd56-4897-a7a4-386d7d8209c1","system_id":"levelo_inurba_marseille","lat":43.284707,"lon":5.384158,"is_reserved":false,"is_disabled":false,"rental_uris":{"android":"levelo://app?vid=cabe7f8a-cd56-4897-a7a4-386d7d8209c1","ios":"levelo://app?vid=cabe7f8a-cd56-4897-a7a4-386d7d8209c1"},"vehicle_type_id":"4","last_reported":1753467364,"current_range_meters":3600,"station_id":"ce4bhjp2rcd13ifvqg90","pricing_plan_id":"cebpf4jnsgd1na2vs0mg"},{"bike_id":"26894054-6dcf-494f-9e18-cac5aebb0602","system_id":"levelo_inurba_marseille","lat":43.30948,"lon":5.39026,"is_reserved":false,"is_disabled":false,"rental_uris":{"android":"levelo://app?vid=26894054-6dcf-494f-9e18-cac5aebb0602","ios":"levelo://app?vid=26894054-6dcf-494f-9e18-cac5aebb0602"},"vehicle_type_id":"4","last_reported":1753467364,"current_range_meters":3600,"station_id":"ce4bgup2rcd13ifvqco0","pricing_plan_id":"cebpf4jnsgd1na2vs0mg"},{"bike_id":"82ac0be7-c017-4f61-88e5-d6d707cbd680","system_id":"levelo_inurba_marseille","lat":43.29221,"lon":5.36079,"is_reserved":false,"is_disabled":false,"rental_uris":{"android":"levelo://app?vid=82ac0be7-c017-4f61-88e5-d6d707cbd680","ios":"levelo://app?vid=82ac0be7-c017-4f61-88e5-d6d707cbd680"},"vehicle_type_id":"4","last_reported":1753467364,"current_range_meters":4000,"station_id":"ce4bhbh2rcd13ifvqeqg","pricing_plan_id":"cebpf4jnsgd1na2vs0mg"},{"bike_id":"a6d65769-dfa3-48d9-90a9-a7d6b6292591","system_id":"levelo_inurba_marseille","lat":43.29004,"lon":5.35613,"is_reserved":false,"is_disabled":false,"rental_uris":{"android":"levelo://app?vid=a6d65769-dfa3-48d9-90a9-a7d6b6292591","ios":"levelo://app?vid=a6d65769-dfa3-48d9-90a9-a7d6b6292591"},"vehicle_type_id":"4","last_reported":1753467364,"current_range_meters":4000,"station_id":"ce4bhb92rcd13ifvqen0","pricing_plan_id":"cebpf4jnsgd1na2vs0mg"},{"bike_id":"8708bae9-dd19-4f85-aabc-d145003adfcc","system_id":"levelo_inurba_marseille","lat":43.32289,"lon":5.38274,"is_reserved":false,"is_disabled":false,"rental_uris":{"android":"levelo://app?vid=8708bae9-dd19-4f85-aabc-d145003adfcc","ios":"levelo://app?vid=8708bae9-dd19-4f85-aabc-d145003adfcc"},"vehicle_type_id":"4","last_reported":1753467364,"current_range_meters":4000,"station_id":"ce4bhr12rcd13ifvqhqg","pricing_plan_id":"cebpf4jnsgd1na2vs0mg"},{"bike_id":"e076b5bc-a217-44f6-8580-cdf26ac8fbae","system_id":"levelo_inurba_marseille","lat":43.25587,"lon":5.38217,"is_reserved":false,"is_disabled":false,"rental_uris":{"android":"levelo://app?vid=e076b5bc-a217-44f6-8580-cdf26ac8fbae","ios":"levelo://app?vid=e076b5bc-a217-44f6-8580-cdf26ac8fbae"},"vehicle_type_id":"4","last_reported":1753467364,"current_range_meters":4400,"station_id":"ce4bhih2rcd13ifvqfs0","pricing_plan_id":"cebpf4jnsgd1na2vs0mg"},{"bike_id":"a4005793-34d7-47b8-9889-887f2f6f7183","system_id":"levelo_inurba_marseille","lat":43.2762,"lon":5.36112,"is_reserved":false,"is_disabled":false,"rental_uris":{"android":"levelo://app?vid=a4005793-34d7-47b8-9889-887f2f6f7183","ios":"levelo://app?vid=a4005793-34d7-47b8-9889-887f2f6f7183"},"vehicle_type_id":"4","last_reported":1753467364,"current_range_meters":4800,"station_id":"ce4bgj92rcd13ifvqbe0","pricing_plan_id":"cebpf4jnsgd1na2vs0mg"},{"bike_id":"cad6e236-42a9-4b7d-9c5d-304fb4e7d5bc","system_id":"levelo_inurba_marseille","lat":43.23187,"lon":5.39982,"is_reserved":false,"is_disabled":false,"rental_uris":{"android":"levelo://app?vid=cad6e236-42a9-4b7d-9c5d-304fb4e7d5bc","ios":"levelo://app?vid=cad6e236-42a9-4b7d-9c5d-304fb4e7d5bc"},"vehicle_type_id":"4","last_reported":1753467364,"current_range_meters":4800,"station_id":"ce4bhn12rcd13ifvqgqg","pricing_plan_id":"cebpf4jnsgd1na2vs0mg"},{"bike_id":"0dc46eb1-eb5c-4f00-8a05-98caad7e35a9","system_id":"levelo_inurba_marseille","lat":43.24804,"lon":5.37455,"is_reserved":false,"is_disabled":false,"rental_uris":{"android":"levelo://app?vid=0dc46eb1-eb5c-4f00-8a05-98caad7e35a9","ios":"levelo://app?vid=0dc46eb1-eb5c-4f00-8a05-98caad7e35a9"},"vehicle_type_id":"4","last_reported":1753467364,"current_range_meters":4800,"station_id":"ce4bhgh2rcd13ifvqfb0","pricing_plan_id":"cebpf4jnsgd1na2vs0mg"},{"bike_id":"734beb0a-2b5b-4f92-a0b4-f138fc3076ee","system_id":"levelo_inurba_marseille","lat":43.22509,"lon":5.34771,"is_reserved":false,"is_disabled":false,"rental_uris":{"android":"levelo://app?vid=734beb0a-2b5b-4f92-a0b4-f138fc3076ee","ios":"levelo://app?vid=734beb0a-2b5b-4f92-a0b4-f138fc3076ee"},"vehicle_type_id":"4","last_reported":1753467364,"current_range_meters":4800,"station_id":"st_cvj5dfep6f1abm77gieg","pricing_plan_id":"cebpf4jnsgd1na2vs0mg"},{"bike_id":"dfefeede-60f9-44e8-a2f1-6579826b8bd8","system_id":"levelo_inurba_marseille","lat":43.31752,"lon":5.39015,"is_reserved":false,"is_disabled":false,"rental_uris":{"android":"levelo://app?vid=dfefeede-60f9-44e8-a2f1-6579826b8bd8","ios":"levelo://app?vid=dfefeede-60f9-44e8-a2f1-6579826b8bd8"},"vehicle_type_id":"4","last_reported":1753467364,"current_range_meters":5600,"station_id":"ce4bhqp2rcd13ifvqhng","pricing_plan_id":"cebpf4jnsgd1na2vs0mg"},{"bike_id":"cfd9df40-985e-4681-af34-5efe168719ee","system_id":"levelo_inurba_marseille","lat":43.29262,"lon":5.38429,"is_reserved":false,"is_disabled":false,"rental_uris":{"android":"levelo://app?vid=cfd9df40-985e-4681-af34-5efe168719ee","ios":"levelo://app?vid=cfd9df40-985e-4681-af34-5efe168719ee"},"vehicle_type_id":"4","last_reported":1753467364,"current_range_meters":5600,"station_id":"ce4bh692rcd13ifvqea0","pricing_plan_id":"cebpf4jnsgd1na2vs0mg"},{"bike_id":"212d8ce1-ee72-47c4-94e6-5acc6e705030","system_id":"levelo_inurba_marseille","lat":43.30888,"lon":5.39646,"is_reserved":false,"is_disabled":false,"rental_uris":{"android":"levelo://app?vid=212d8ce1-ee72-47c4-94e6-5acc6e705030","ios":"levelo://app?vid=212d8ce1-ee72-47c4-94e6-5acc6e705030"},"vehicle_type_id":"4","last_reported":1753467364,"current_range_meters":5600,"station_id":"ce4bh012rcd13ifvqcv0","pricing_plan_id":"cebpf4jnsgd1na2vs0mg"},{"bike_id":"63a9d545-9be5-4d39-9e97-542154105a9f","system_id":"levelo_inurba_marseille","lat":43.2319,"lon":5.35552,"is_reserved":false,"is_disabled":false,"rental_uris":{"android":"levelo://app?vid=63a9d545-9be5-4d39-9e97-542154105a9f","ios":"levelo://app?vid=63a9d545-9be5-4d39-9e97-542154105a9f"},"vehicle_type_id":"4","last_reported":1753467364,"current_range_meters":4800,"station_id":"ce4bhu92rcd13ifvqi70","pricing_plan_id":"cebpf4jnsgd1na2vs0mg"},{"bike_id":"f8457b59-fa8e-4d7c-98b9-418ed259f827","system_id":"levelo_inurba_marseille","lat":43.29907,"lon":5.38142,"is_reserved":false,"is_disabled":false,"rental_uris":{"android":"levelo://app?vid=f8457b59-fa8e-4d7c-98b9-418ed259f827","ios":"levelo://app?vid=f8457b59-fa8e-4d7c-98b9-418ed259f827"},"vehicle_type_id":"4","last_reported":1753467364,"current_range_meters":6000,"station_id":"ce4bgj12rcd13ifvqbc0","pricing_plan_id":"cebpf4jnsgd1na2vs0mg"},{"bike_id":"9cdb195c-04a5-416b-935d-e6c6e5e37a54","system_id":"levelo_inurba_marseille","lat":43.292697,"lon":5.384438,"is_reserved":false,"is_disabled":false,"rental_uris":{"android":"levelo://app?vid=9cdb195c-04a5-416b-935d-e6c6e5e37a54","ios":"levelo://app?vid=9cdb195c-04a5-416b-935d-e6c6e5e37a54"},"vehicle_type_id":"4","last_reported":1753467364,"current_range_meters":6000,"station_id":"ce4bh692rcd13ifvqea0","pricing_plan_id":"cebpf4jnsgd1na2vs0mg"},{"bike_id":"5cc2f126-8add-4502-8785-12095c602f14","system_id":"levelo_inurba_marseille","lat":43.29794,"lon":5.38096,"is_reserved":false,"is_disabled":false,"rental_uris":{"android":"levelo://app?vid=5cc2f126-8add-4502-8785-12095c602f14","ios":"levelo://app?vid=5cc2f126-8add-4502-8785-12095c602f14"},"vehicle_type_id":"4","last_reported":1753467364,"current_range_meters":6000,"station_id":"ce4bgip2rcd13ifvqbb0","pricing_plan_id":"cebpf4jnsgd1na2vs0mg"},{"bike_id":"306b214e-2d76-489c-a0f0-d6e5d199d768","system_id":"levelo_inurba_marseille","lat":43.29295,"lon":5.37453,"is_reserved":false,"is_disabled":false,"rental_uris":{"android":"levelo://app?vid=306b214e-2d76-489c-a0f0-d6e5d199d768","ios":"levelo://app?vid=306b214e-2d76-489c-a0f0-d6e5d199d768"},"vehicle_type_id":"4","last_reported":1753467364,"current_range_meters":6000,"station_id":"ce4bgi12rcd13ifvqb70","pricing_plan_id":"cebpf4jnsgd1na2vs0mg"},{"bike_id":"d90a4ea0-57d0-448c-ade0-e8dba423de87","system_id":"levelo_inurba_marseille","lat":43.292668,"lon":5.38439,"is_reserved":false,"is_disabled":false,"rental_uris":{"android":"levelo://app?vid=d90a4ea0-57d0-448c-ade0-e8dba423de87","ios":"levelo://app?vid=d90a4ea0-57d0-448c-ade0-e8dba423de87"},"vehicle_type_id":"4","last_reported":1753467364,"current_range_meters":6000,"station_id":"ce4bh692rcd13ifvqea0","pricing_plan_id":"cebpf4jnsgd1na2vs0mg"},{"bike_id":"74d6319f-7a85-4b0c-a7d2-f85358fe32dc","system_id":"levelo_inurba_marseille","lat":43.29267,"lon":5.38441,"is_reserved":false,"is_disabled":false,"rental_uris":{"android":"levelo://app?vid=74d6319f-7a85-4b0c-a7d2-f85358fe32dc","ios":"levelo://app?vid=74d6319f-7a85-4b0c-a7d2-f85358fe32dc"},"vehicle_type_id":"4","last_reported":1753467364,"current_range_meters":6400,"station_id":"ce4bh692rcd13ifvqea0","pricing_plan_id":"cebpf4jnsgd1na2vs0mg"},{"bike_id":"5ef16f9d-4571-4bfb-900e-4d865637921b","system_id":"levelo_inurba_marseille","lat":43.25719,"lon":5.41114,"is_reserved":false,"is_disabled":false,"rental_uris":{"android":"levelo://app?vid=5ef16f9d-4571-4bfb-900e-4d865637921b","ios":"levelo://app?vid=5ef16f9d-4571-4bfb-900e-4d865637921b"},"vehicle_type_id":"4","last_reported":1753467364,"current_range_meters":5600,"station_id":"ce4bhkp2rcd13ifvqgd0","pricing_plan_id":"cebpf4jnsgd1na2vs0mg"},{"bike_id":"d87b56f9-aec8-4c18-8340-d7aba9319bde","system_id":"levelo_inurba_marseille","lat":43.27493,"lon":5.39627,"is_reserved":false,"is_disabled":false,"rental_uris":{"android":"levelo://app?vid=d87b56f9-aec8-4c18-8340-d7aba9319bde","ios":"levelo://app?vid=d87b56f9-aec8-4c18-8340-d7aba9319bde"},"vehicle_type_id":"4","last_reported":1753467364,"current_range_meters":6400,"station_id":"","pricing_plan_id":"cebpf4jnsgd1na2vs0mg"},{"bike_id":"58f45b87-ac35-429f-879f-477065091ee8","system_id":"levelo_inurba_marseille","lat":43.248,"lon":5.37444,"is_reserved":false,"is_disabled":false,"rental_uris":{"android":"levelo://app?vid=58f45b87-ac35-429f-879f-477065091ee8","ios":"levelo://app?vid=58f45b87-ac35-429f-879f-477065091ee8"},"vehicle_type_id":"4","last_reported":1753467364,"current_range_meters":6400,"station_id":"ce4bhgh2rcd13ifvqfb0","pricing_plan_id":"cebpf4jnsgd1na2vs0mg"},{"bike_id":"1db57e3b-8e15-4948-b30e-2956de7e5dcb","system_id":"levelo_inurba_marseille","lat":43.22522,"lon":5.34849,"is_reserved":false,"is_disabled":false,"rental_uris":{"android":"levelo://app?vid=1db57e3b-8e15-4948-b30e-2956de7e5dcb","ios":"levelo://app?vid=1db57e3b-8e15-4948-b30e-2956de7e5dcb"},"vehicle_type_id":"4","last_reported":1753467364,"current_range_meters":6400,"station_id":"","pricing_plan_id":"cebpf4jnsgd1na2vs0mg"},{"bike_id":"75b093f5-275d-4ce9-832b-0c2ff61cc9f8","system_id":"levelo_inurba_marseille","lat":43.31698,"lon":5.3773,"is_reserved":false,"is_disabled":false,"rental_uris":{"android":"levelo://app?vid=75b093f5-275d-4ce9-832b-0c2ff61cc9f8","ios":"levelo://app?vid=75b093f5-275d-4ce9-832b-0c2ff61cc9f8"},"vehicle_type_id":"4","last_reported":1753467364,"current_range_meters":6400,"station_id":"ce4bgth2rcd13ifvqch0","pricing_plan_id":"cebpf4jnsgd1na2vs0mg"},{"bike_id":"3843a00f-81d8-45fd-a52a-64868b9c8532","system_id":"levelo_inurba_marseille","lat":43.297629,"lon":5.37711,"is_reserved":false,"is_disabled":false,"rental_uris":{"android":"levelo://app?vid=3843a00f-81d8-45fd-a52a-64868b9c8532","ios":"levelo://app?vid=3843a00f-81d8-45fd-a52a-64868b9c8532"},"vehicle_type_id":"4","last_reported":1753467364,"current_range_meters":6400,"station_id":"","pricing_plan_id":"cebpf4jnsgd1na2vs0mg"},{"bike_id":"fce755e2-a8dc-4ae6-9f87-f1b4ea63faf8","system_id":"levelo_inurba_marseille","lat":43.28448,"lon":5.39191,"is_reserved":false,"is_disabled":false,"rental_uris":{"android":"levelo://app?vid=fce755e2-a8dc-4ae6-9f87-f1b4ea63faf8","ios":"levelo://app?vid=fce755e2-a8dc-4ae6-9f87-f1b4ea63faf8"},"vehicle_type_id":"4","last_reported":1753467364,"current_range_meters":6800,"station_id":"ce4bhoh2rcd13ifvqh5g","pricing_plan_id":"cebpf4jnsgd1na2vs0mg"},{"bike_id":"e19cd9bd-8f1f-4909-a624-5af678243303","system_id":"levelo_inurba_marseille","lat":43.29055,"lon":5.39882,"is_reserved":false,"is_disabled":false,"rental_uris":{"android":"levelo://app?vid=e19cd9bd-8f1f-4909-a624-5af678243303","ios":"levelo://app?vid=e19cd9bd-8f1f-4909-a624-5af678243303"},"vehicle_type_id":"4","last_reported":1753467364,"current_range_meters":6800,"station_id":"","pricing_plan_id":"cebpf4jnsgd1na2vs0mg"},{"bike_id":"fa7ff071-de7f-454d-b111-26b9d91e2c20","system_id":"levelo_inurba_marseille","lat":43.29544,"lon":5.38526,"is_reserved":false,"is_disabled":false,"rental_uris":{"android":"levelo://app?vid=fa7ff071-de7f-454d-b111-26b9d91e2c20","ios":"levelo://app?vid=fa7ff071-de7f-454d-b111-26b9d91e2c20"},"vehicle_type_id":"4","last_reported":1753467364,"current_range_meters":6800,"station_id":"ce4bgih2rcd13ifvqba0","pricing_plan_id":"cebpf4jnsgd1na2vs0mg"},{"bike_id":"49a25020-c17f-426d-a295-c677da1110b3","system_id":"levelo_inurba_marseille","lat":43.26225,"lon":5.37455,"is_reserved":false,"is_disabled":true,"rental_uris":{"android":"levelo://app?vid=49a25020-c17f-426d-a295-c677da1110b3","ios":"levelo://app?vid=49a25020-c17f-426d-a295-c677da1110b3"},"vehicle_type_id":"4","last_reported":1753467364,"current_range_meters":6800,"station_id":"ce4bhgp2rcd13ifvqfc0","pricing_plan_id":"cebpf4jnsgd1na2vs0mg"},{"bike_id":"cbb3e372-0dbe-4234-946b-a7c61a107d9d","system_id":"levelo_inurba_marseille","lat":43.27206,"lon":5.39181,"is_reserved":false,"is_disabled":false,"rental_uris":{"android":"levelo://app?vid=cbb3e372-0dbe-4234-946b-a7c61a107d9d","ios":"levelo://app?vid=cbb3e372-0dbe-4234-946b-a7c61a107d9d"},"vehicle_type_id":"4","last_reported":1753467364,"current_range_meters":6800,"station_id":"ce4bhhp2rcd13ifvqfm0","pricing_plan_id":"cebpf4jnsgd1na2vs0mg"},{"bike_id":"b93c0803-f824-4cb7-a4ed-57da1403b68e","system_id":"levelo_inurba_marseille","lat":43.325583,"lon":5.379059,"is_reserved":false,"is_disabled":true,"rental_uris":{"android":"levelo://app?vid=b93c0803-f824-4cb7-a4ed-57da1403b68e","ios":"levelo://app?vid=b93c0803-f824-4cb7-a4ed-57da1403b68e"},"vehicle_type_id":"4","last_reported":1753467364,"current_range_meters":7200,"station_id":"","pricing_plan_id":"cebpf4jnsgd1na2vs0mg"},{"bike_id":"51979a68-a8cc-400e-b7b9-cd8004031e65","system_id":"levelo_inurba_marseille","lat":43.225,"lon":5.34789,"is_reserved":false,"is_disabled":false,"rental_uris":{"android":"levelo://app?vid=51979a68-a8cc-400e-b7b9-cd8004031e65","ios":"levelo://app?vid=51979a68-a8cc-400e-b7b9-cd8004031e65"},"vehicle_type_id":"4","last_reported":1753467364,"current_range_meters":7200,"station_id":"st_cvj5dfep6f1abm77gieg","pricing_plan_id":"cebpf4jnsgd1na2vs0mg"},{"bike_id":"db43efcf-7a93-46cf-a3e0-e3e72a4d0f67","system_id":"levelo_inurba_marseille","lat":43.31316,"lon":5.39705,"is_reserved":false,"is_disabled":false,"rental_uris":{"android":"levelo://app?vid=db43efcf-7a93-46cf-a3e0-e3e72a4d0f67","ios":"levelo://app?vid=db43efcf-7a93-46cf-a3e0-e3e72a4d0f67"},"vehicle_type_id":"4","last_reported":1753467364,"current_range_meters":6800,"station_id":"ce4bgvp2rcd13ifvqcu0","pricing_plan_id":"cebpf4jnsgd1na2vs0mg"},{"bike_id":"7b8f0b84-b522-44ab-860c-924f0c398730","system_id":"levelo_inurba_marseille","lat":43.281503,"lon":5.42645,"is_reserved":false,"is_disabled":true,"rental_uris":{"android":"levelo://app?vid=7b8f0b84-b522-44ab-860c-924f0c398730","ios":"levelo://app?vid=7b8f0b84-b522-44ab-860c-924f0c398730"},"vehicle_type_id":"4","last_reported":1753467364,"current_range_meters":8000,"station_id":"ce4bhnh2rcd13ifvqgug","pricing_plan_id":"cebpf4jnsgd1na2vs0mg"},{"bike_id":"ba434f8f-e816-4100-bd50-3537efba68ea","system_id":"levelo_inurba_marseille","lat":43.24805,"lon":5.37455,"is_reserved":false,"is_disabled":false,"rental_uris":{"android":"levelo://app?vid=ba434f8f-e816-4100-bd50-3537efba68ea","ios":"levelo://app?vid=ba434f8f-e816-4100-bd50-3537efba68ea"},"vehicle_type_id":"4","last_reported":1753467364,"current_range_meters":6400,"station_id":"ce4bhgh2rcd13ifvqfb0","pricing_plan_id":"cebpf4jnsgd1na2vs0mg"},{"bike_id":"bcfeb788-eed8-4a22-9566-78b3af0fa09b","system_id":"levelo_inurba_marseille","lat":43.29904,"lon":5.37556,"is_reserved":false,"is_disabled":false,"rental_uris":{"android":"levelo://app?vid=bcfeb788-eed8-4a22-9566-78b3af0fa09b","ios":"levelo://app?vid=bcfeb788-eed8-4a22-9566-78b3af0fa09b"},"vehicle_type_id":"4","last_reported":1753467364,"current_range_meters":8000,"station_id":"","pricing_plan_id":"cebpf4jnsgd1na2vs0mg"},{"bike_id":"b2d9b512-461e-4c22-8160-83c7cfb0cdf8","system_id":"levelo_inurba_marseille","lat":43.279541,"lon":5.410446,"is_reserved":false,"is_disabled":true,"rental_uris":{"android":"levelo://app?vid=b2d9b512-461e-4c22-8160-83c7cfb0cdf8","ios":"levelo://app?vid=b2d9b512-461e-4c22-8160-83c7cfb0cdf8"},"vehicle_type_id":"4","last_reported":1753467364,"current_range_meters":8400,"station_id":"ce4bhnp2rcd13ifvqh0g","pricing_plan_id":"cebpf4jnsgd1na2vs0mg"},{"bike_id":"9d3577ed-421f-4dba-9bac-9bd2049348e1","system_id":"levelo_inurba_marseille","lat":43.25024,"lon":5.38883,"is_reserved":false,"is_disabled":false,"rental_uris":{"android":"levelo://app?vid=9d3577ed-421f-4dba-9bac-9bd2049348e1","ios":"levelo://app?vid=9d3577ed-421f-4dba-9bac-9bd2049348e1"},"vehicle_type_id":"4","last_reported":1753467364,"current_range_meters":8400,"station_id":"ce4bhgp2rcd13ifvqfd0","pricing_plan_id":"cebpf4jnsgd1na2vs0mg"},{"bike_id":"26dd95b0-43d6-4505-8a48-56caf7900111","system_id":"levelo_inurba_marseille","lat":43.29406,"lon":5.38783,"is_reserved":false,"is_disabled":false,"rental_uris":{"android":"levelo://app?vid=26dd95b0-43d6-4505-8a48-56caf7900111","ios":"levelo://app?vid=26dd95b0-43d6-4505-8a48-56caf7900111"},"vehicle_type_id":"4","last_reported":1753467364,"current_range_meters":8400,"station_id":"","pricing_plan_id":"cebpf4jnsgd1na2vs0mg"},{"bike_id":"2e9cba4f-6de9-4359-8618-d7c89470eb1e","system_id":"levelo_inurba_marseille","lat":43.30537,"lon":5.36702,"is_reserved":false,"is_disabled":false,"rental_uris":{"android":"levelo://app?vid=2e9cba4f-6de9-4359-8618-d7c89470eb1e","ios":"levelo://app?vid=2e9cba4f-6de9-4359-8618-d7c89470eb1e"},"vehicle_type_id":"4","last_reported":1753467364,"current_range_meters":8000,"station_id":"ce4bgrp2rcd13ifvqc9g","pricing_plan_id":"cebpf4jnsgd1na2vs0mg"},{"bike_id":"65fabc23-cf2a-4ca8-a868-9941476ce202","system_id":"levelo_inurba_marseille","lat":43.23626,"lon":5.362,"is_reserved":false,"is_disabled":false,"rental_uris":{"android":"levelo://app?vid=65fabc23-cf2a-4ca8-a868-9941476ce202","ios":"levelo://app?vid=65fabc23-cf2a-4ca8-a868-9941476ce202"},"vehicle_type_id":"4","last_reported":1753467364,"current_range_meters":8400,"station_id":"","pricing_plan_id":"cebpf4jnsgd1na2vs0mg"},{"bike_id":"f6b04a3f-9195-49ca-bdf1-f786dbecd596","system_id":"levelo_inurba_marseille","lat":43.284072,"lon":5.375102,"is_reserved":false,"is_disabled":false,"rental_uris":{"android":"levelo://app?vid=f6b04a3f-9195-49ca-bdf1-f786dbecd596","ios":"levelo://app?vid=f6b04a3f-9195-49ca-bdf1-f786dbecd596"},"vehicle_type_id":"4","last_reported":1753467364,"current_range_meters":8400,"station_id":"ce4bh412rcd13ifvqds0","pricing_plan_id":"cebpf4jnsgd1na2vs0mg"},{"bike_id":"f28d2bb9-4217-4196-a573-ba6f4c172497","system_id":"levelo_inurba_marseille","lat":43.28165,"lon":5.36108,"is_reserved":false,"is_disabled":false,"rental_uris":{"android":"levelo://app?vid=f28d2bb9-4217-4196-a573-ba6f4c172497","ios":"levelo://app?vid=f28d2bb9-4217-4196-a573-ba6f4c172497"},"vehicle_type_id":"4","last_reported":1753467364,"current_range_meters":8400,"station_id":"","pricing_plan_id":"cebpf4jnsgd1na2vs0mg"},{"bike_id":"fd4ba70a-7bfa-434e-8564-04bf25cc9f63","system_id":"levelo_inurba_marseille","lat":43.281147,"lon":5.441113,"is_reserved":false,"is_disabled":false,"rental_uris":{"android":"levelo://app?vid=fd4ba70a-7bfa-434e-8564-04bf25cc9f63","ios":"levelo://app?vid=fd4ba70a-7bfa-434e-8564-04bf25cc9f63"},"vehicle_type_id":"4","last_reported":1753467364,"current_range_meters":8400,"station_id":"","pricing_plan_id":"cebpf4jnsgd1na2vs0mg"},{"bike_id":"8f6a388d-ee3f-4548-8264-e020aaacee47","system_id":"levelo_inurba_marseille","lat":43.28425,"lon":5.37512,"is_reserved":false,"is_disabled":false,"rental_uris":{"android":"levelo://app?vid=8f6a388d-ee3f-4548-8264-e020aaacee47","ios":"levelo://app?vid=8f6a388d-ee3f-4548-8264-e020aaacee47"},"vehicle_type_id":"4","last_reported":1753467364,"current_range_meters":8400,"station_id":"ce4bh412rcd13ifvqds0","pricing_plan_id":"cebpf4jnsgd1na2vs0mg"},{"bike_id":"5183fde4-6a09-4470-a606-c5481cf5fb53","system_id":"levelo_inurba_marseille","lat":43.21747,"lon":5.34602,"is_reserved":false,"is_disabled":false,"rental_uris":{"android":"levelo://app?vid=5183fde4-6a09-4470-a606-c5481cf5fb53","ios":"levelo://app?vid=5183fde4-6a09-4470-a606-c5481cf5fb53"},"vehicle_type_id":"4","last_reported":1753467364,"current_range_meters":8800,"station_id":"","pricing_plan_id":"cebpf4jnsgd1na2vs0mg"},{"bike_id":"88a0b957-920c-4ce8-8d6b-5a7f3d8556bd","system_id":"levelo_inurba_marseille","lat":43.24652,"lon":5.38885,"is_reserved":false,"is_disabled":false,"rental_uris":{"android":"levelo://app?vid=88a0b957-920c-4ce8-8d6b-5a7f3d8556bd","ios":"levelo://app?vid=88a0b957-920c-4ce8-8d6b-5a7f3d8556bd"},"vehicle_type_id":"4","last_reported":1753467364,"current_range_meters":8800,"station_id":"ce4bhg12rcd13ifvqf60","pricing_plan_id":"cebpf4jnsgd1na2vs0mg"},{"bike_id":"39022d5b-3002-4857-8798-8410ed754043","system_id":"levelo_inurba_marseille","lat":43.27373,"lon":5.36256,"is_reserved":false,"is_disabled":false,"rental_uris":{"android":"levelo://app?vid=39022d5b-3002-4857-8798-8410ed754043","ios":"levelo://app?vid=39022d5b-3002-4857-8798-8410ed754043"},"vehicle_type_id":"4","last_reported":1753467364,"current_range_meters":8800,"station_id":"ce4bhbh2rcd13ifvqeo0","pricing_plan_id":"cebpf4jnsgd1na2vs0mg"},{"bike_id":"3655ff6e-d716-472e-b8b8-fd6dd0ae9200","system_id":"levelo_inurba_marseille","lat":43.260279,"lon":5.375461,"is_reserved":false,"is_disabled":false,"rental_uris":{"android":"levelo://app?vid=3655ff6e-d716-472e-b8b8-fd6dd0ae9200","ios":"levelo://app?vid=3655ff6e-d716-472e-b8b8-fd6dd0ae9200"},"vehicle_type_id":"4","last_reported":1753467364,"current_range_meters":8800,"station_id":"ce4bhgh2rcd13ifvqfa0","pricing_plan_id":"cebpf4jnsgd1na2vs0mg"},{"bike_id":"7fd9bb23-7169-4391-a00a-920c5121a49e","system_id":"levelo_inurba_marseille","lat":43.31751,"lon":5.39017,"is_reserved":false,"is_disabled":false,"rental_uris":{"android":"levelo://app?vid=7fd9bb23-7169-4391-a00a-920c5121a49e","ios":"levelo://app?vid=7fd9bb23-7169-4391-a00a-920c5121a49e"},"vehicle_type_id":"4","last_reported":1753467364,"current_range_meters":8800,"station_id":"ce4bhqp2rcd13ifvqhng","pricing_plan_id":"cebpf4jnsgd1na2vs0mg"},{"bike_id":"68801fee-efc8-485b-a110-a36431796a83","system_id":"levelo_inurba_marseille","lat":43.29584,"lon":5.37462,"is_reserved":false,"is_disabled":true,"rental_uris":{"android":"levelo://app?vid=68801fee-efc8-485b-a110-a36431796a83","ios":"levelo://app?vid=68801fee-efc8-485b-a110-a36431796a83"},"vehicle_type_id":"4","last_reported":1753467364,"current_range_meters":9200,"station_id":"ce4bgh92rcd13ifvqb50","pricing_plan_id":"cebpf4jnsgd1na2vs0mg"},{"bike_id":"2e96b5e1-6101-4c45-bd7a-284e516eacb7","system_id":"levelo_inurba_marseille","lat":43.24542,"lon":5.39525,"is_reserved":false,"is_disabled":false,"rental_uris":{"android":"levelo://app?vid=2e96b5e1-6101-4c45-bd7a-284e516eacb7","ios":"levelo://app?vid=2e96b5e1-6101-4c45-bd7a-284e516eacb7"},"vehicle_type_id":"4","last_reported":1753467364,"current_range_meters":8800,"station_id":"ce4bhlp2rcd13ifvqgjg","pricing_plan_id":"cebpf4jnsgd1na2vs0mg"},{"bike_id":"e6d24950-face-42d2-87ef-cf280646f824","system_id":"levelo_inurba_marseille","lat":43.29537,"lon":5.38545,"is_reserved":false,"is_disabled":false,"rental_uris":{"android":"levelo://app?vid=e6d24950-face-42d2-87ef-cf280646f824","ios":"levelo://app?vid=e6d24950-face-42d2-87ef-cf280646f824"},"vehicle_type_id":"4","last_reported":1753467364,"current_range_meters":9200,"station_id":"ce4bgih2rcd13ifvqba0","pricing_plan_id":"cebpf4jnsgd1na2vs0mg"},{"bike_id":"cea209e9-b55e-4c2c-b347-d62b64b84146","system_id":"levelo_inurba_marseille","lat":43.29203,"lon":5.39335,"is_reserved":false,"is_disabled":false,"rental_uris":{"android":"levelo://app?vid=cea209e9-b55e-4c2c-b347-d62b64b84146","ios":"levelo://app?vid=cea209e9-b55e-4c2c-b347-d62b64b84146"},"vehicle_type_id":"4","last_reported":1753467364,"current_range_meters":8800,"station_id":"ce4bh192rcd13ifvqdd0","pricing_plan_id":"cebpf4jnsgd1na2vs0mg"},{"bike_id":"5b94eff9-2e0f-4c0e-b3f6-ab7ca2eca31a","system_id":"levelo_inurba_marseille","lat":43.27381,"lon":5.36251,"is_reserved":false,"is_disabled":true,"rental_uris":{"android":"levelo://app?vid=5b94eff9-2e0f-4c0e-b3f6-ab7ca2eca31a","ios":"levelo://app?vid=5b94eff9-2e0f-4c0e-b3f6-ab7ca2eca31a"},"vehicle_type_id":"4","last_reported":1753467364,"current_range_meters":9600,"station_id":"ce4bhbh2rcd13ifvqeo0","pricing_plan_id":"cebpf4jnsgd1na2vs0mg"},{"bike_id":"c33ca5fe-1b5e-4a19-9aa5-840ad46394e0","system_id":"levelo_inurba_marseille","lat":43.29725,"lon":5.37687,"is_reserved":false,"is_disabled":true,"rental_uris":{"android":"levelo://app?vid=c33ca5fe-1b5e-4a19-9aa5-840ad46394e0","ios":"levelo://app?vid=c33ca5fe-1b5e-4a19-9aa5-840ad46394e0"},"vehicle_type_id":"4","last_reported":1753467364,"current_range_meters":9600,"station_id":"ce4bgkh2rcd13ifvqbl0","pricing_plan_id":"cebpf4jnsgd1na2vs0mg"},{"bike_id":"2e8e7fa4-47bc-4567-b903-96abfb4fdf66","system_id":"levelo_inurba_marseille","lat":43.29237,"lon":5.44547,"is_reserved":false,"is_disabled":false,"rental_uris":{"android":"levelo://app?vid=2e8e7fa4-47bc-4567-b903-96abfb4fdf66","ios":"levelo://app?vid=2e8e7fa4-47bc-4567-b903-96abfb4fdf66"},"vehicle_type_id":"4","last_reported":1753467364,"current_range_meters":9600,"station_id":"","pricing_plan_id":"cebpf4jnsgd1na2vs0mg"},{"bike_id":"e032122a-e90e-432e-bcf0-02c517832424","system_id":"levelo_inurba_marseille","lat":43.25712,"lon":5.41111,"is_reserved":false,"is_disabled":false,"rental_uris":{"android":"levelo://app?vid=e032122a-e90e-432e-bcf0-02c517832424","ios":"levelo://app?vid=e032122a-e90e-432e-bcf0-02c517832424"},"vehicle_type_id":"4","last_reported":1753467364,"current_range_meters":9200,"station_id":"ce4bhkp2rcd13ifvqgd0","pricing_plan_id":"cebpf4jnsgd1na2vs0mg"},{"bike_id":"a1676a90-aeae-4e28-8472-3e88e730a66f","system_id":"levelo_inurba_marseille","lat":43.28993,"lon":5.43982,"is_reserved":false,"is_disabled":false,"rental_uris":{"android":"levelo://app?vid=a1676a90-aeae-4e28-8472-3e88e730a66f","ios":"levelo://app?vid=a1676a90-aeae-4e28-8472-3e88e730a66f"},"vehicle_type_id":"4","last_reported":1753467364,"current_range_meters":10000,"station_id":"","pricing_plan_id":"cebpf4jnsgd1na2vs0mg"},{"bike_id":"ff30a5ee-0e9d-4bfa-a593-c7beaf9df463","system_id":"levelo_inurba_marseille","lat":43.33541,"lon":5.36216,"is_reserved":false,"is_disabled":false,"rental_uris":{"android":"levelo://app?vid=ff30a5ee-0e9d-4bfa-a593-c7beaf9df463","ios":"levelo://app?vid=ff30a5ee-0e9d-4bfa-a593-c7beaf9df463"},"vehicle_type_id":"4","last_reported":1753467364,"current_range_meters":10000,"station_id":"","pricing_plan_id":"cebpf4jnsgd1na2vs0mg"},{"bike_id":"77f9d9d4-b5e1-4abc-9bc2-d9b08fb7cba2","system_id":"levelo_inurba_marseille","lat":43.29049,"lon":5.35899,"is_reserved":false,"is_disabled":false,"rental_uris":{"android":"levelo://app?vid=77f9d9d4-b5e1-4abc-9bc2-d9b08fb7cba2","ios":"levelo://app?vid=77f9d9d4-b5e1-4abc-9bc2-d9b08fb7cba2"},"vehicle_type_id":"4","last_reported":1753467364,"current_range_meters":9600,"station_id":"ce4bha92rcd13ifvqeg0","pricing_plan_id":"cebpf4jnsgd1na2vs0mg"},{"bike_id":"ac7f3c2f-452c-4620-beb4-96f9c8da3434","system_id":"levelo_inurba_marseille","lat":43.30598,"lon":5.38547,"is_reserved":false,"is_disabled":false,"rental_uris":{"android":"levelo://app?vid=ac7f3c2f-452c-4620-beb4-96f9c8da3434","ios":"levelo://app?vid=ac7f3c2f-452c-4620-beb4-96f9c8da3434"},"vehicle_type_id":"4","last_reported":1753467364,"current_range_meters":10000,"station_id":"","pricing_plan_id":"cebpf4jnsgd1na2vs0mg"},{"bike_id":"a5061a1a-2c27-4eb7-885e-12bad168cc77","system_id":"levelo_inurba_marseille","lat":43.29788,"lon":5.38115,"is_reserved":false,"is_disabled":false,"rental_uris":{"android":"levelo://app?vid=a5061a1a-2c27-4eb7-885e-12bad168cc77","ios":"levelo://app?vid=a5061a1a-2c27-4eb7-885e-12bad168cc77"},"vehicle_type_id":"4","last_reported":1753467364,"current_range_meters":10000,"station_id":"ce4bgip2rcd13ifvqbb0","pricing_plan_id":"cebpf4jnsgd1na2vs0mg"},{"bike_id":"259ebe45-7c47-482f-89ff-5d42b5692c1c","system_id":"levelo_inurba_marseille","lat":43.29958,"lon":5.41321,"is_reserved":false,"is_disabled":false,"rental_uris":{"android":"levelo://app?vid=259ebe45-7c47-482f-89ff-5d42b5692c1c","ios":"levelo://app?vid=259ebe45-7c47-482f-89ff-5d42b5692c1c"},"vehicle_type_id":"4","last_reported":1753467364,"current_range_meters":9600,"station_id":"ce4bhp12rcd13ifvqh9g","pricing_plan_id":"cebpf4jnsgd1na2vs0mg"},{"bike_id":"4cd2edd6-2fc5-492f-9012-2f2145f333e2","system_id":"levelo_inurba_marseille","lat":43.29509,"lon":5.375043,"is_reserved":false,"is_disabled":false,"rental_uris":{"android":"levelo://app?vid=4cd2edd6-2fc5-492f-9012-2f2145f333e2","ios":"levelo://app?vid=4cd2edd6-2fc5-492f-9012-2f2145f333e2"},"vehicle_type_id":"4","last_reported":1753467364,"current_range_meters":10000,"station_id":"ce4bgkp2rcd13ifvqbmg","pricing_plan_id":"cebpf4jnsgd1na2vs0mg"},{"bike_id":"2cdd71c3-85d9-4cbc-ad23-affba8f05218","system_id":"levelo_inurba_marseille","lat":43.28996,"lon":5.35609,"is_reserved":false,"is_disabled":false,"rental_uris":{"android":"levelo://app?vid=2cdd71c3-85d9-4cbc-ad23-affba8f05218","ios":"levelo://app?vid=2cdd71c3-85d9-4cbc-ad23-affba8f05218"},"vehicle_type_id":"4","last_reported":1753467364,"current_range_meters":10800,"station_id":"ce4bhb92rcd13ifvqen0","pricing_plan_id":"cebpf4jnsgd1na2vs0mg"},{"bike_id":"d68f3124-e473-42d9-93d7-0d6c6613e4e0","system_id":"levelo_inurba_marseille","lat":43.28865,"lon":5.35794,"is_reserved":false,"is_disabled":false,"rental_uris":{"android":"levelo://app?vid=d68f3124-e473-42d9-93d7-0d6c6613e4e0","ios":"levelo://app?vid=d68f3124-e473-42d9-93d7-0d6c6613e4e0"},"vehicle_type_id":"4","last_reported":1753467364,"current_range_meters":10800,"station_id":"ce4bhb12rcd13ifvqem0","pricing_plan_id":"cebpf4jnsgd1na2vs0mg"},{"bike_id":"1880938e-90e7-4c00-8734-cde8f5d94ba6","system_id":"levelo_inurba_marseille","lat":43.3095,"lon":5.39032,"is_reserved":false,"is_disabled":false,"rental_uris":{"android":"levelo://app?vid=1880938e-90e7-4c00-8734-cde8f5d94ba6","ios":"levelo://app?vid=1880938e-90e7-4c00-8734-cde8f5d94ba6"},"vehicle_type_id":"4","last_reported":1753467364,"current_range_meters":10800,"station_id":"ce4bgup2rcd13ifvqco0","pricing_plan_id":"cebpf4jnsgd1na2vs0mg"},{"bike_id":"0939eecf-ab8e-4e0f-8dde-ab5f40cfd3cc","system_id":"levelo_inurba_marseille","lat":43.2842,"lon":5.34977,"is_reserved":false,"is_disabled":true,"rental_uris":{"android":"levelo://app?vid=0939eecf-ab8e-4e0f-8dde-ab5f40cfd3cc","ios":"levelo://app?vid=0939eecf-ab8e-4e0f-8dde-ab5f40cfd3cc"},"vehicle_type_id":"4","last_reported":1753467364,"current_range_meters":10800,"station_id":"ce4bhbh2rcd13ifvqepg","pricing_plan_id":"cebpf4jnsgd1na2vs0mg"},{"bike_id":"a2ccbf76-8c1a-4aef-814f-db130f867270","system_id":"levelo_inurba_marseille","lat":43.30958,"lon":5.37376,"is_reserved":false,"is_disabled":false,"rental_uris":{"android":"levelo://app?vid=a2ccbf76-8c1a-4aef-814f-db130f867270","ios":"levelo://app?vid=a2ccbf76-8c1a-4aef-814f-db130f867270"},"vehicle_type_id":"4","last_reported":1753467364,"current_range_meters":10800,"station_id":"","pricing_plan_id":"cebpf4jnsgd1na2vs0mg"},{"bike_id":"f7623b57-5f88-4ef7-8535-1d8b44f90d27","system_id":"levelo_inurba_marseille","lat":43.225038,"lon":5.347743,"is_reserved":false,"is_disabled":false,"rental_uris":{"android":"levelo://app?vid=f7623b57-5f88-4ef7-8535-1d8b44f90d27","ios":"levelo://app?vid=f7623b57-5f88-4ef7-8535-1d8b44f90d27"},"vehicle_type_id":"4","last_reported":1753467364,"current_range_meters":10800,"station_id":"","pricing_plan_id":"cebpf4jnsgd1na2vs0mg"},{"bike_id":"88713064-73b6-47c5-8baf-21f8c90f1d38","system_id":"levelo_inurba_marseille","lat":43.3067,"lon":5.38179,"is_reserved":false,"is_disabled":false,"rental_uris":{"android":"levelo://app?vid=88713064-73b6-47c5-8baf-21f8c90f1d38","ios":"levelo://app?vid=88713064-73b6-47c5-8baf-21f8c90f1d38"},"vehicle_type_id":"4","last_reported":1753467364,"current_range_meters":10800,"station_id":"","pricing_plan_id":"cebpf4jnsgd1na2vs0mg"},{"bike_id":"35ee41ab-1155-4c5d-a3ff-d1e05b86be8c","system_id":"levelo_inurba_marseille","lat":43.31301,"lon":5.4308,"is_reserved":false,"is_disabled":false,"rental_uris":{"android":"levelo://app?vid=35ee41ab-1155-4c5d-a3ff-d1e05b86be8c","ios":"levelo://app?vid=35ee41ab-1155-4c5d-a3ff-d1e05b86be8c"},"vehicle_type_id":"4","last_reported":1753467364,"current_range_meters":10800,"station_id":"","pricing_plan_id":"cebpf4jnsgd1na2vs0mg"},{"bike_id":"b0642f06-95ff-41f6-9f4a-0722c8309d1c","system_id":"levelo_inurba_marseille","lat":43.26886,"lon":5.36871,"is_reserved":false,"is_disabled":false,"rental_uris":{"android":"levelo://app?vid=b0642f06-95ff-41f6-9f4a-0722c8309d1c","ios":"levelo://app?vid=b0642f06-95ff-41f6-9f4a-0722c8309d1c"},"vehicle_type_id":"4","last_reported":1753467364,"current_range_meters":11200,"station_id":"","pricing_plan_id":"cebpf4jnsgd1na2vs0mg"},{"bike_id":"575b954a-0e3c-4fed-a5de-55592aac92dd","system_id":"levelo_inurba_marseille","lat":43.2707,"lon":5.42281,"is_reserved":false,"is_disabled":false,"rental_uris":{"android":"levelo://app?vid=575b954a-0e3c-4fed-a5de-55592aac92dd","ios":"levelo://app?vid=575b954a-0e3c-4fed-a5de-55592aac92dd"},"vehicle_type_id":"4","last_reported":1753467364,"current_range_meters":10800,"station_id":"ce4bhk92rcd13ifvqgb0","pricing_plan_id":"cebpf4jnsgd1na2vs0mg"},{"bike_id":"2e6edd64-cff0-4f19-b3fc-a7fc304ab7d4","system_id":"levelo_inurba_marseille","lat":43.29287,"lon":5.37447,"is_reserved":false,"is_disabled":false,"rental_uris":{"android":"levelo://app?vid=2e6edd64-cff0-4f19-b3fc-a7fc304ab7d4","ios":"levelo://app?vid=2e6edd64-cff0-4f19-b3fc-a7fc304ab7d4"},"vehicle_type_id":"4","last_reported":1753467364,"current_range_meters":11200,"station_id":"ce4bgi12rcd13ifvqb70","pricing_plan_id":"cebpf4jnsgd1na2vs0mg"},{"bike_id":"1c31f24b-2b9e-48c3-b103-bffd32b92420","system_id":"levelo_inurba_marseille","lat":43.33531,"lon":5.40868,"is_reserved":false,"is_disabled":false,"rental_uris":{"android":"levelo://app?vid=1c31f24b-2b9e-48c3-b103-bffd32b92420","ios":"levelo://app?vid=1c31f24b-2b9e-48c3-b103-bffd32b92420"},"vehicle_type_id":"4","last_reported":1753467364,"current_range_meters":11200,"station_id":"","pricing_plan_id":"cebpf4jnsgd1na2vs0mg"},{"bike_id":"092a6d62-d2b1-4865-bd3a-c375c22273de","system_id":"levelo_inurba_marseille","lat":43.24074,"lon":5.37758,"is_reserved":false,"is_disabled":false,"rental_uris":{"android":"levelo://app?vid=092a6d62-d2b1-4865-bd3a-c375c22273de","ios":"levelo://app?vid=092a6d62-d2b1-4865-bd3a-c375c22273de"},"vehicle_type_id":"4","last_reported":1753467364,"current_range_meters":11200,"station_id":"ce4bhnp2rcd13ifvqgvg","pricing_plan_id":"cebpf4jnsgd1na2vs0mg"},{"bike_id":"79079a9a-8322-4f6c-a9e6-9aba90ee17ba","system_id":"levelo_inurba_marseille","lat":43.337811,"lon":5.374255,"is_reserved":false,"is_disabled":false,"rental_uris":{"android":"levelo://app?vid=79079a9a-8322-4f6c-a9e6-9aba90ee17ba","ios":"levelo://app?vid=79079a9a-8322-4f6c-a9e6-9aba90ee17ba"},"vehicle_type_id":"4","last_reported":1753467364,"current_range_meters":11200,"station_id":"","pricing_plan_id":"cebpf4jnsgd1na2vs0mg"},{"bike_id":"8c6568ff-2f40-457e-bdc0-fd6370cb7109","system_id":"levelo_inurba_marseille","lat":43.31481,"lon":5.37309,"is_reserved":false,"is_disabled":false,"rental_uris":{"android":"levelo://app?vid=8c6568ff-2f40-457e-bdc0-fd6370cb7109","ios":"levelo://app?vid=8c6568ff-2f40-457e-bdc0-fd6370cb7109"},"vehicle_type_id":"4","last_reported":1753467364,"current_range_meters":11600,"station_id":"ce4bgt12rcd13ifvqcd0","pricing_plan_id":"cebpf4jnsgd1na2vs0mg"},{"bike_id":"b6cf0732-f039-400b-8e86-aff46a5b87ae","system_id":"levelo_inurba_marseille","lat":43.29686,"lon":5.37292,"is_reserved":false,"is_disabled":false,"rental_uris":{"android":"levelo://app?vid=b6cf0732-f039-400b-8e86-aff46a5b87ae","ios":"levelo://app?vid=b6cf0732-f039-400b-8e86-aff46a5b87ae"},"vehicle_type_id":"4","last_reported":1753467364,"current_range_meters":11200,"station_id":"ce4bgk12rcd13ifvqbj0","pricing_plan_id":"cebpf4jnsgd1na2vs0mg"},{"bike_id":"eb83f636-9f57-4bf9-a976-73b5bf47f8ce","system_id":"levelo_inurba_marseille","lat":43.22522,"lon":5.34752,"is_reserved":false,"is_disabled":false,"rental_uris":{"android":"levelo://app?vid=eb83f636-9f57-4bf9-a976-73b5bf47f8ce","ios":"levelo://app?vid=eb83f636-9f57-4bf9-a976-73b5bf47f8ce"},"vehicle_type_id":"4","last_reported":1753467364,"current_range_meters":11600,"station_id":"st_cvj5dfep6f1abm77gieg","pricing_plan_id":"cebpf4jnsgd1na2vs0mg"},{"bike_id":"43cf4049-15dd-4e8c-88a8-61cd8dc10bf5","system_id":"levelo_inurba_marseille","lat":43.331001,"lon":5.388786,"is_reserved":false,"is_disabled":false,"rental_uris":{"android":"levelo://app?vid=43cf4049-15dd-4e8c-88a8-61cd8dc10bf5","ios":"levelo://app?vid=43cf4049-15dd-4e8c-88a8-61cd8dc10bf5"},"vehicle_type_id":"4","last_reported":1753467364,"current_range_meters":11600,"station_id":"","pricing_plan_id":"cebpf4jnsgd1na2vs0mg"},{"bike_id":"3a6b17f9-7e17-4d79-902b-343aa71d3292","system_id":"levelo_inurba_marseille","lat":43.301361,"lon":5.387793,"is_reserved":false,"is_disabled":false,"rental_uris":{"android":"levelo://app?vid=3a6b17f9-7e17-4d79-902b-343aa71d3292","ios":"levelo://app?vid=3a6b17f9-7e17-4d79-902b-343aa71d3292"},"vehicle_type_id":"4","last_reported":1753467364,"current_range_meters":11200,"station_id":"ce4bghh2rcd13ifvqb60","pricing_plan_id":"cebpf4jnsgd1na2vs0mg"},{"bike_id":"604db462-ca9a-4fd5-b251-88dff4c2360c","system_id":"levelo_inurba_marseille","lat":43.28408,"lon":5.37512,"is_reserved":false,"is_disabled":false,"rental_uris":{"android":"levelo://app?vid=604db462-ca9a-4fd5-b251-88dff4c2360c","ios":"levelo://app?vid=604db462-ca9a-4fd5-b251-88dff4c2360c"},"vehicle_type_id":"4","last_reported":1753467364,"current_range_meters":11600,"station_id":"ce4bh412rcd13ifvqds0","pricing_plan_id":"cebpf4jnsgd1na2vs0mg"},{"bike_id":"674b12a2-774c-40a9-960b-35f55476cc8b","system_id":"levelo_inurba_marseille","lat":43.29295,"lon":5.37469,"is_reserved":false,"is_disabled":false,"rental_uris":{"android":"levelo://app?vid=674b12a2-774c-40a9-960b-35f55476cc8b","ios":"levelo://app?vid=674b12a2-774c-40a9-960b-35f55476cc8b"},"vehicle_type_id":"4","last_reported":1753467364,"current_range_meters":12000,"station_id":"ce4bgi12rcd13ifvqb70","pricing_plan_id":"cebpf4jnsgd1na2vs0mg"},{"bike_id":"79fd3a5b-ec79-4899-aa4f-a7c6125d3c38","system_id":"levelo_inurba_marseille","lat":43.29986,"lon":5.38499,"is_reserved":false,"is_disabled":false,"rental_uris":{"android":"levelo://app?vid=79fd3a5b-ec79-4899-aa4f-a7c6125d3c38","ios":"levelo://app?vid=79fd3a5b-ec79-4899-aa4f-a7c6125d3c38"},"vehicle_type_id":"4","last_reported":1753467364,"current_range_meters":12000,"station_id":"ce4bgj92rcd13ifvqbd0","pricing_plan_id":"cebpf4jnsgd1na2vs0mg"},{"bike_id":"2ff0c314-1882-4c73-9993-5e695ee4a20c","system_id":"levelo_inurba_marseille","lat":43.26557,"lon":5.39002,"is_reserved":false,"is_disabled":false,"rental_uris":{"android":"levelo://app?vid=2ff0c314-1882-4c73-9993-5e695ee4a20c","ios":"levelo://app?vid=2ff0c314-1882-4c73-9993-5e695ee4a20c"},"vehicle_type_id":"4","last_reported":1753467364,"current_range_meters":12000,"station_id":"ce4bhe12rcd13ifvqf30","pricing_plan_id":"cebpf4jnsgd1na2vs0mg"},{"bike_id":"490fd0a3-3ae2-4135-acff-5c94025f5f04","system_id":"levelo_inurba_marseille","lat":43.27919,"lon":5.39564,"is_reserved":false,"is_disabled":true,"rental_uris":{"android":"levelo://app?vid=490fd0a3-3ae2-4135-acff-5c94025f5f04","ios":"levelo://app?vid=490fd0a3-3ae2-4135-acff-5c94025f5f04"},"vehicle_type_id":"4","last_reported":1753467364,"current_range_meters":12000,"station_id":"ce4bhf92rcd13ifvqf40","pricing_plan_id":"cebpf4jnsgd1na2vs0mg"},{"bike_id":"1e585017-21d3-4d67-83d1-93b6972f5e47","system_id":"levelo_inurba_marseille","lat":43.2603,"lon":5.37553,"is_reserved":false,"is_disabled":false,"rental_uris":{"android":"levelo://app?vid=1e585017-21d3-4d67-83d1-93b6972f5e47","ios":"levelo://app?vid=1e585017-21d3-4d67-83d1-93b6972f5e47"},"vehicle_type_id":"4","last_reported":1753467364,"current_range_meters":12400,"station_id":"ce4bhgh2rcd13ifvqfa0","pricing_plan_id":"cebpf4jnsgd1na2vs0mg"},{"bike_id":"30fa4da8-5a41-44f6-bac0-21861ac0e732","system_id":"levelo_inurba_marseille","lat":43.27811,"lon":5.40713,"is_reserved":false,"is_disabled":false,"rental_uris":{"android":"levelo://app?vid=30fa4da8-5a41-44f6-bac0-21861ac0e732","ios":"levelo://app?vid=30fa4da8-5a41-44f6-bac0-21861ac0e732"},"vehicle_type_id":"4","last_reported":1753467364,"current_range_meters":12400,"station_id":"ce4bhnh2rcd13ifvqgtg","pricing_plan_id":"cebpf4jnsgd1na2vs0mg"},{"bike_id":"a2544c16-8624-4773-abe7-ffa14d7b9490","system_id":"levelo_inurba_marseille","lat":43.30938,"lon":5.3902,"is_reserved":false,"is_disabled":false,"rental_uris":{"android":"levelo://app?vid=a2544c16-8624-4773-abe7-ffa14d7b9490","ios":"levelo://app?vid=a2544c16-8624-4773-abe7-ffa14d7b9490"},"vehicle_type_id":"4","last_reported":1753467364,"current_range_meters":12400,"station_id":"ce4bgup2rcd13ifvqco0","pricing_plan_id":"cebpf4jnsgd1na2vs0mg"},{"bike_id":"078febbd-6d49-4abf-8b46-d33f87f8da46","system_id":"levelo_inurba_marseille","lat":43.25451,"lon":5.37989,"is_reserved":false,"is_disabled":false,"rental_uris":{"android":"levelo://app?vid=078febbd-6d49-4abf-8b46-d33f87f8da46","ios":"levelo://app?vid=078febbd-6d49-4abf-8b46-d33f87f8da46"},"vehicle_type_id":"4","last_reported":1753467364,"current_range_meters":12400,"station_id":"","pricing_plan_id":"cebpf4jnsgd1na2vs0mg"},{"bike_id":"c017b4de-074c-46ed-bc0a-5b7912813135","system_id":"levelo_inurba_marseille","lat":43.26079,"lon":5.37306,"is_reserved":false,"is_disabled":false,"rental_uris":{"android":"levelo://app?vid=c017b4de-074c-46ed-bc0a-5b7912813135","ios":"levelo://app?vid=c017b4de-074c-46ed-bc0a-5b7912813135"},"vehicle_type_id":"4","last_reported":1753467364,"current_range_meters":12400,"station_id":"","pricing_plan_id":"cebpf4jnsgd1na2vs0mg"},{"bike_id":"d2cb877d-d63e-4c06-8493-287c3c68a37f","system_id":"levelo_inurba_marseille","lat":43.26214,"lon":5.37431,"is_reserved":false,"is_disabled":false,"rental_uris":{"android":"levelo://app?vid=d2cb877d-d63e-4c06-8493-287c3c68a37f","ios":"levelo://app?vid=d2cb877d-d63e-4c06-8493-287c3c68a37f"},"vehicle_type_id":"4","last_reported":1753467364,"current_range_meters":12400,"station_id":"ce4bhgp2rcd13ifvqfc0","pricing_plan_id":"cebpf4jnsgd1na2vs0mg"},{"bike_id":"b37278c0-1991-4d58-9ea6-fe2d4d33eb9c","system_id":"levelo_inurba_marseille","lat":43.27975,"lon":5.38721,"is_reserved":false,"is_disabled":false,"rental_uris":{"android":"levelo://app?vid=b37278c0-1991-4d58-9ea6-fe2d4d33eb9c","ios":"levelo://app?vid=b37278c0-1991-4d58-9ea6-fe2d4d33eb9c"},"vehicle_type_id":"4","last_reported":1753467364,"current_range_meters":12400,"station_id":"ce4bhg12rcd13ifvqf80","pricing_plan_id":"cebpf4jnsgd1na2vs0mg"},{"bike_id":"e05dc178-7991-4ff4-9419-7902f8c8343f","system_id":"levelo_inurba_marseille","lat":43.29782,"lon":5.37098,"is_reserved":false,"is_disabled":false,"rental_uris":{"android":"levelo://app?vid=e05dc178-7991-4ff4-9419-7902f8c8343f","ios":"levelo://app?vid=e05dc178-7991-4ff4-9419-7902f8c8343f"},"vehicle_type_id":"4","last_reported":1753467364,"current_range_meters":12400,"station_id":"ce4bgop2rcd13ifvqc1g","pricing_plan_id":"cebpf4jnsgd1na2vs0mg"},{"bike_id":"12f1ccbe-caad-447a-81e6-68f78b4f48b3","system_id":"levelo_inurba_marseille","lat":43.28617,"lon":5.35095,"is_reserved":false,"is_disabled":false,"rental_uris":{"android":"levelo://app?vid=12f1ccbe-caad-447a-81e6-68f78b4f48b3","ios":"levelo://app?vid=12f1ccbe-caad-447a-81e6-68f78b4f48b3"},"vehicle_type_id":"4","last_reported":1753467364,"current_range_meters":12800,"station_id":"ce4bhch2rcd13ifvqeug","pricing_plan_id":"cebpf4jnsgd1na2vs0mg"},{"bike_id":"5440a182-b760-4205-92c8-d9ab0a9c67c8","system_id":"levelo_inurba_marseille","lat":43.28425,"lon":5.34969,"is_reserved":false,"is_disabled":true,"rental_uris":{"android":"levelo://app?vid=5440a182-b760-4205-92c8-d9ab0a9c67c8","ios":"levelo://app?vid=5440a182-b760-4205-92c8-d9ab0a9c67c8"},"vehicle_type_id":"4","last_reported":1753467364,"current_range_meters":12800,"station_id":"ce4bhbh2rcd13ifvqepg","pricing_plan_id":"cebpf4jnsgd1na2vs0mg"},{"bike_id":"b44e0ef0-448d-42e7-b8ce-9c7edd8e1cfe","system_id":"levelo_inurba_marseille","lat":43.28149,"lon":5.42637,"is_reserved":false,"is_disabled":false,"rental_uris":{"android":"levelo://app?vid=b44e0ef0-448d-42e7-b8ce-9c7edd8e1cfe","ios":"levelo://app?vid=b44e0ef0-448d-42e7-b8ce-9c7edd8e1cfe"},"vehicle_type_id":"4","last_reported":1753467364,"current_range_meters":12800,"station_id":"ce4bhnh2rcd13ifvqgug","pricing_plan_id":"cebpf4jnsgd1na2vs0mg"},{"bike_id":"591fb768-7e78-4b54-88b5-e73a5af76b19","system_id":"levelo_inurba_marseille","lat":43.229259,"lon":5.35369,"is_reserved":false,"is_disabled":false,"rental_uris":{"android":"levelo://app?vid=591fb768-7e78-4b54-88b5-e73a5af76b19","ios":"levelo://app?vid=591fb768-7e78-4b54-88b5-e73a5af76b19"},"vehicle_type_id":"4","last_reported":1753467364,"current_range_meters":12800,"station_id":"cpo3532slgdg3j2ikp40","pricing_plan_id":"cebpf4jnsgd1na2vs0mg"},{"bike_id":"fe3d6fca-b4d1-4b6d-85e0-c71e1e225ab7","system_id":"levelo_inurba_marseille","lat":43.29531,"lon":5.38541,"is_reserved":false,"is_disabled":false,"rental_uris":{"android":"levelo://app?vid=fe3d6fca-b4d1-4b6d-85e0-c71e1e225ab7","ios":"levelo://app?vid=fe3d6fca-b4d1-4b6d-85e0-c71e1e225ab7"},"vehicle_type_id":"4","last_reported":1753467364,"current_range_meters":12800,"station_id":"ce4bgih2rcd13ifvqba0","pricing_plan_id":"cebpf4jnsgd1na2vs0mg"},{"bike_id":"ccca3042-9358-40fc-ac03-e327e01c225f","system_id":"levelo_inurba_marseille","lat":43.23323,"lon":5.36085,"is_reserved":false,"is_disabled":false,"rental_uris":{"android":"levelo://app?vid=ccca3042-9358-40fc-ac03-e327e01c225f","ios":"levelo://app?vid=ccca3042-9358-40fc-ac03-e327e01c225f"},"vehicle_type_id":"4","last_reported":1753467364,"current_range_meters":12800,"station_id":"","pricing_plan_id":"cebpf4jnsgd1na2vs0mg"},{"bike_id":"0e783024-46bf-47d4-932a-7229ed2b631d","system_id":"levelo_inurba_marseille","lat":43.26567,"lon":5.39003,"is_reserved":false,"is_disabled":false,"rental_uris":{"android":"levelo://app?vid=0e783024-46bf-47d4-932a-7229ed2b631d","ios":"levelo://app?vid=0e783024-46bf-47d4-932a-7229ed2b631d"},"vehicle_type_id":"4","last_reported":1753467364,"current_range_meters":12800,"station_id":"ce4bhe12rcd13ifvqf30","pricing_plan_id":"cebpf4jnsgd1na2vs0mg"},{"bike_id":"6e675566-44f8-49cf-89b2-d1ada7e59de9","system_id":"levelo_inurba_marseille","lat":43.241388,"lon":5.376859,"is_reserved":false,"is_disabled":false,"rental_uris":{"android":"levelo://app?vid=6e675566-44f8-49cf-89b2-d1ada7e59de9","ios":"levelo://app?vid=6e675566-44f8-49cf-89b2-d1ada7e59de9"},"vehicle_type_id":"4","last_reported":1753467364,"current_range_meters":12800,"station_id":"ce4bhnp2rcd13ifvqgvg","pricing_plan_id":"cebpf4jnsgd1na2vs0mg"},{"bike_id":"6755382c-76dd-4587-baf5-a4b43a86610a","system_id":"levelo_inurba_marseille","lat":43.24057,"lon":5.3777,"is_reserved":false,"is_disabled":false,"rental_uris":{"android":"levelo://app?vid=6755382c-76dd-4587-baf5-a4b43a86610a","ios":"levelo://app?vid=6755382c-76dd-4587-baf5-a4b43a86610a"},"vehicle_type_id":"4","last_reported":1753467364,"current_range_meters":12800,"station_id":"ce4bhnp2rcd13ifvqgvg","pricing_plan_id":"cebpf4jnsgd1na2vs0mg"},{"bike_id":"41daefc7-ade1-420d-8be5-f094723f2df5","system_id":"levelo_inurba_marseille","lat":43.27962,"lon":5.38748,"is_reserved":false,"is_disabled":false,"rental_uris":{"android":"levelo://app?vid=41daefc7-ade1-420d-8be5-f094723f2df5","ios":"levelo://app?vid=41daefc7-ade1-420d-8be5-f094723f2df5"},"vehicle_type_id":"4","last_reported":1753467364,"current_range_meters":12800,"station_id":"ce4bhg12rcd13ifvqf80","pricing_plan_id":"cebpf4jnsgd1na2vs0mg"},{"bike_id":"0a0bab8e-418c-444e-aec1-944747da80f2","system_id":"levelo_inurba_marseille","lat":43.29532,"lon":5.38555,"is_reserved":false,"is_disabled":false,"rental_uris":{"android":"levelo://app?vid=0a0bab8e-418c-444e-aec1-944747da80f2","ios":"levelo://app?vid=0a0bab8e-418c-444e-aec1-944747da80f2"},"vehicle_type_id":"4","last_reported":1753467364,"current_range_meters":13600,"station_id":"ce4bgih2rcd13ifvqba0","pricing_plan_id":"cebpf4jnsgd1na2vs0mg"},{"bike_id":"a3fe9995-2e3e-423b-9540-429a92fa997e","system_id":"levelo_inurba_marseille","lat":43.30187,"lon":5.37222,"is_reserved":false,"is_disabled":false,"rental_uris":{"android":"levelo://app?vid=a3fe9995-2e3e-423b-9540-429a92fa997e","ios":"levelo://app?vid=a3fe9995-2e3e-423b-9540-429a92fa997e"},"vehicle_type_id":"4","last_reported":1753467364,"current_range_meters":13600,"station_id":"","pricing_plan_id":"cebpf4jnsgd1na2vs0mg"},{"bike_id":"1b4ca5df-3412-427d-8a47-c3afc2103109","system_id":"levelo_inurba_marseille","lat":43.27803,"lon":5.40702,"is_reserved":false,"is_disabled":false,"rental_uris":{"android":"levelo://app?vid=1b4ca5df-3412-427d-8a47-c3afc2103109","ios":"levelo://app?vid=1b4ca5df-3412-427d-8a47-c3afc2103109"},"vehicle_type_id":"4","last_reported":1753467364,"current_range_meters":13600,"station_id":"ce4bhnh2rcd13ifvqgtg","pricing_plan_id":"cebpf4jnsgd1na2vs0mg"},{"bike_id":"14290dc3-0ecb-4c09-bf2e-6db4a8e35188","system_id":"levelo_inurba_marseille","lat":43.243923,"lon":5.370635,"is_reserved":false,"is_disabled":false,"rental_uris":{"android":"levelo://app?vid=14290dc3-0ecb-4c09-bf2e-6db4a8e35188","ios":"levelo://app?vid=14290dc3-0ecb-4c09-bf2e-6db4a8e35188"},"vehicle_type_id":"4","last_reported":1753467364,"current_range_meters":13600,"station_id":"ce4bhhh2rcd13ifvqfk0","pricing_plan_id":"cebpf4jnsgd1na2vs0mg"},{"bike_id":"ebc7a43e-85fe-4b4c-8ca0-84469f9fd8c4","system_id":"levelo_inurba_marseille","lat":43.2622,"lon":5.37418,"is_reserved":false,"is_disabled":false,"rental_uris":{"android":"levelo://app?vid=ebc7a43e-85fe-4b4c-8ca0-84469f9fd8c4","ios":"levelo://app?vid=ebc7a43e-85fe-4b4c-8ca0-84469f9fd8c4"},"vehicle_type_id":"4","last_reported":1753467364,"current_range_meters":13600,"station_id":"ce4bhgp2rcd13ifvqfc0","pricing_plan_id":"cebpf4jnsgd1na2vs0mg"},{"bike_id":"77eac10d-0493-4b9e-bcc7-15498c9bb653","system_id":"levelo_inurba_marseille","lat":43.2781,"lon":5.40717,"is_reserved":false,"is_disabled":false,"rental_uris":{"android":"levelo://app?vid=77eac10d-0493-4b9e-bcc7-15498c9bb653","ios":"levelo://app?vid=77eac10d-0493-4b9e-bcc7-15498c9bb653"},"vehicle_type_id":"4","last_reported":1753467364,"current_range_meters":14000,"station_id":"ce4bhnh2rcd13ifvqgtg","pricing_plan_id":"cebpf4jnsgd1na2vs0mg"},{"bike_id":"9bd37625-d45f-4cd6-9742-4cc4e399656e","system_id":"levelo_inurba_marseille","lat":43.27415,"lon":5.39415,"is_reserved":false,"is_disabled":false,"rental_uris":{"android":"levelo://app?vid=9bd37625-d45f-4cd6-9742-4cc4e399656e","ios":"levelo://app?vid=9bd37625-d45f-4cd6-9742-4cc4e399656e"},"vehicle_type_id":"4","last_reported":1753467364,"current_range_meters":14000,"station_id":"ce4bhdp2rcd13ifvqf20","pricing_plan_id":"cebpf4jnsgd1na2vs0mg"},{"bike_id":"bf5dc847-8618-43ac-89c5-509d432811df","system_id":"levelo_inurba_marseille","lat":43.28697,"lon":5.37376,"is_reserved":false,"is_disabled":false,"rental_uris":{"android":"levelo://app?vid=bf5dc847-8618-43ac-89c5-509d432811df","ios":"levelo://app?vid=bf5dc847-8618-43ac-89c5-509d432811df"},"vehicle_type_id":"4","last_reported":1753467364,"current_range_meters":14000,"station_id":"ce4bh3p2rcd13ifvqdq0","pricing_plan_id":"cebpf4jnsgd1na2vs0mg"},{"bike_id":"c07e20cc-6724-4af5-a3ac-826edc27d1dd","system_id":"levelo_inurba_marseille","lat":43.26219,"lon":5.40462,"is_reserved":false,"is_disabled":false,"rental_uris":{"android":"levelo://app?vid=c07e20cc-6724-4af5-a3ac-826edc27d1dd","ios":"levelo://app?vid=c07e20cc-6724-4af5-a3ac-826edc27d1dd"},"vehicle_type_id":"4","last_reported":1753467364,"current_range_meters":14000,"station_id":"ce4bhmh2rcd13ifvqgmg","pricing_plan_id":"cebpf4jnsgd1na2vs0mg"},{"bike_id":"ebb93afd-33d1-41ff-aeb0-236b556714ba","system_id":"levelo_inurba_marseille","lat":43.2971,"lon":5.36601,"is_reserved":false,"is_disabled":false,"rental_uris":{"android":"levelo://app?vid=ebb93afd-33d1-41ff-aeb0-236b556714ba","ios":"levelo://app?vid=ebb93afd-33d1-41ff-aeb0-236b556714ba"},"vehicle_type_id":"4","last_reported":1753467364,"current_range_meters":14000,"station_id":"ce4bgn12rcd13ifvqbt0","pricing_plan_id":"cebpf4jnsgd1na2vs0mg"},{"bike_id":"ba00d103-850b-4592-9be9-fea05914fea6","system_id":"levelo_inurba_marseille","lat":43.24071,"lon":5.37708,"is_reserved":false,"is_disabled":false,"rental_uris":{"android":"levelo://app?vid=ba00d103-850b-4592-9be9-fea05914fea6","ios":"levelo://app?vid=ba00d103-850b-4592-9be9-fea05914fea6"},"vehicle_type_id":"4","last_reported":1753467364,"current_range_meters":14000,"station_id":"ce4bhnp2rcd13ifvqgvg","pricing_plan_id":"cebpf4jnsgd1na2vs0mg"},{"bike_id":"d47dedda-f650-4d49-9681-1841ad983b67","system_id":"levelo_inurba_marseille","lat":43.28616,"lon":5.35106,"is_reserved":false,"is_disabled":false,"rental_uris":{"android":"levelo://app?vid=d47dedda-f650-4d49-9681-1841ad983b67","ios":"levelo://app?vid=d47dedda-f650-4d49-9681-1841ad983b67"},"vehicle_type_id":"4","last_reported":1753467364,"current_range_meters":14000,"station_id":"ce4bhch2rcd13ifvqeug","pricing_plan_id":"cebpf4jnsgd1na2vs0mg"},{"bike_id":"3ff2a880-040a-4c20-8c98-ec8bab9bf02f","system_id":"levelo_inurba_marseille","lat":43.27617,"lon":5.36108,"is_reserved":false,"is_disabled":false,"rental_uris":{"android":"levelo://app?vid=3ff2a880-040a-4c20-8c98-ec8bab9bf02f","ios":"levelo://app?vid=3ff2a880-040a-4c20-8c98-ec8bab9bf02f"},"vehicle_type_id":"4","last_reported":1753467364,"current_range_meters":14000,"station_id":"","pricing_plan_id":"cebpf4jnsgd1na2vs0mg"},{"bike_id":"afad4ac6-e608-426e-aaf5-5f67eda68569","system_id":"levelo_inurba_marseille","lat":43.29004,"lon":5.35607,"is_reserved":false,"is_disabled":false,"rental_uris":{"android":"levelo://app?vid=afad4ac6-e608-426e-aaf5-5f67eda68569","ios":"levelo://app?vid=afad4ac6-e608-426e-aaf5-5f67eda68569"},"vehicle_type_id":"4","last_reported":1753467364,"current_range_meters":14000,"station_id":"ce4bhb92rcd13ifvqen0","pricing_plan_id":"cebpf4jnsgd1na2vs0mg"},{"bike_id":"f5cb4941-a7c3-4012-81c4-cb602b866e2e","system_id":"levelo_inurba_marseille","lat":43.2998,"lon":5.38477,"is_reserved":false,"is_disabled":false,"rental_uris":{"android":"levelo://app?vid=f5cb4941-a7c3-4012-81c4-cb602b866e2e","ios":"levelo://app?vid=f5cb4941-a7c3-4012-81c4-cb602b866e2e"},"vehicle_type_id":"4","last_reported":1753467364,"current_range_meters":14000,"station_id":"ce4bgj92rcd13ifvqbd0","pricing_plan_id":"cebpf4jnsgd1na2vs0mg"},{"bike_id":"22abd279-ac3d-4b7c-8221-b68bbacaab0e","system_id":"levelo_inurba_marseille","lat":43.26224,"lon":5.37415,"is_reserved":false,"is_disabled":false,"rental_uris":{"android":"levelo://app?vid=22abd279-ac3d-4b7c-8221-b68bbacaab0e","ios":"levelo://app?vid=22abd279-ac3d-4b7c-8221-b68bbacaab0e"},"vehicle_type_id":"4","last_reported":1753467364,"current_range_meters":14400,"station_id":"ce4bhgp2rcd13ifvqfc0","pricing_plan_id":"cebpf4jnsgd1na2vs0mg"},{"bike_id":"edd7516f-71e2-412b-91c1-d122f094923e","system_id":"levelo_inurba_marseille","lat":43.26035,"lon":5.37548,"is_reserved":false,"is_disabled":false,"rental_uris":{"android":"levelo://app?vid=edd7516f-71e2-412b-91c1-d122f094923e","ios":"levelo://app?vid=edd7516f-71e2-412b-91c1-d122f094923e"},"vehicle_type_id":"4","last_reported":1753467364,"current_range_meters":14400,"station_id":"ce4bhgh2rcd13ifvqfa0","pricing_plan_id":"cebpf4jnsgd1na2vs0mg"},{"bike_id":"45919cfe-4302-488b-8296-1458eac6db93","system_id":"levelo_inurba_marseille","lat":43.290311,"lon":5.399895,"is_reserved":false,"is_disabled":true,"rental_uris":{"android":"levelo://app?vid=45919cfe-4302-488b-8296-1458eac6db93","ios":"levelo://app?vid=45919cfe-4302-488b-8296-1458eac6db93"},"vehicle_type_id":"4","last_reported":1753467364,"current_range_meters":14400,"station_id":"ce4bh392rcd13ifvqdm0","pricing_plan_id":"cebpf4jnsgd1na2vs0mg"},{"bike_id":"378521b9-2f88-49b6-9620-86cb628eab29","system_id":"levelo_inurba_marseille","lat":43.27197,"lon":5.40956,"is_reserved":false,"is_disabled":false,"rental_uris":{"android":"levelo://app?vid=378521b9-2f88-49b6-9620-86cb628eab29","ios":"levelo://app?vid=378521b9-2f88-49b6-9620-86cb628eab29"},"vehicle_type_id":"4","last_reported":1753467364,"current_range_meters":14400,"station_id":"ce4bhl12rcd13ifvqgf0","pricing_plan_id":"cebpf4jnsgd1na2vs0mg"},{"bike_id":"f2e74128-6423-4baf-af15-40aba76b4fc3","system_id":"levelo_inurba_marseille","lat":43.32364,"lon":5.36763,"is_reserved":false,"is_disabled":false,"rental_uris":{"android":"levelo://app?vid=f2e74128-6423-4baf-af15-40aba76b4fc3","ios":"levelo://app?vid=f2e74128-6423-4baf-af15-40aba76b4fc3"},"vehicle_type_id":"4","last_reported":1753467364,"current_range_meters":14400,"station_id":"ce4bhsh2rcd13ifvqi2g","pricing_plan_id":"cebpf4jnsgd1na2vs0mg"},{"bike_id":"eeeb9218-8042-4cbd-95a4-0834de564d28","system_id":"levelo_inurba_marseille","lat":43.21746,"lon":5.34605,"is_reserved":false,"is_disabled":true,"rental_uris":{"android":"levelo://app?vid=eeeb9218-8042-4cbd-95a4-0834de564d28","ios":"levelo://app?vid=eeeb9218-8042-4cbd-95a4-0834de564d28"},"vehicle_type_id":"4","last_reported":1753467364,"current_range_meters":14400,"station_id":"st_cvj6r9ubvosntc0bgbag","pricing_plan_id":"cebpf4jnsgd1na2vs0mg"},{"bike_id":"d3cef9f3-322c-474b-8610-649bb811da62","system_id":"levelo_inurba_marseille","lat":43.29171,"lon":5.37154,"is_reserved":false,"is_disabled":false,"rental_uris":{"android":"levelo://app?vid=d3cef9f3-322c-474b-8610-649bb811da62","ios":"levelo://app?vid=d3cef9f3-322c-474b-8610-649bb811da62"},"vehicle_type_id":"4","last_reported":1753467364,"current_range_meters":14000,"station_id":"ce4bha92rcd13ifvqeh0","pricing_plan_id":"cebpf4jnsgd1na2vs0mg"},{"bike_id":"1b1201a2-805f-477c-b501-ae96321cc61f","system_id":"levelo_inurba_marseille","lat":43.29778,"lon":5.37109,"is_reserved":false,"is_disabled":false,"rental_uris":{"android":"levelo://app?vid=1b1201a2-805f-477c-b501-ae96321cc61f","ios":"levelo://app?vid=1b1201a2-805f-477c-b501-ae96321cc61f"},"vehicle_type_id":"4","last_reported":1753467364,"current_range_meters":14400,"station_id":"ce4bgop2rcd13ifvqc1g","pricing_plan_id":"cebpf4jnsgd1na2vs0mg"},{"bike_id":"81461214-9c69-4b36-96d1-184315e03fdd","system_id":"levelo_inurba_marseille","lat":43.26201,"lon":5.3793,"is_reserved":false,"is_disabled":false,"rental_uris":{"android":"levelo://app?vid=81461214-9c69-4b36-96d1-184315e03fdd","ios":"levelo://app?vid=81461214-9c69-4b36-96d1-184315e03fdd"},"vehicle_type_id":"4","last_reported":1753467364,"current_range_meters":14800,"station_id":"ce4bhjp2rcd13ifvqg90","pricing_plan_id":"cebpf4jnsgd1na2vs0mg"},{"bike_id":"20c04b6f-ad76-4cc5-b96b-c73b545b78d6","system_id":"levelo_inurba_marseille","lat":43.28622,"lon":5.35095,"is_reserved":false,"is_disabled":false,"rental_uris":{"android":"levelo://app?vid=20c04b6f-ad76-4cc5-b96b-c73b545b78d6","ios":"levelo://app?vid=20c04b6f-ad76-4cc5-b96b-c73b545b78d6"},"vehicle_type_id":"4","last_reported":1753467364,"current_range_meters":14800,"station_id":"ce4bhch2rcd13ifvqeug","pricing_plan_id":"cebpf4jnsgd1na2vs0mg"},{"bike_id":"1f0aae55-e844-4ee6-b469-dd2c711dbc19","system_id":"levelo_inurba_marseille","lat":43.28417,"lon":5.37514,"is_reserved":false,"is_disabled":false,"rental_uris":{"android":"levelo://app?vid=1f0aae55-e844-4ee6-b469-dd2c711dbc19","ios":"levelo://app?vid=1f0aae55-e844-4ee6-b469-dd2c711dbc19"},"vehicle_type_id":"4","last_reported":1753467364,"current_range_meters":14800,"station_id":"ce4bh412rcd13ifvqds0","pricing_plan_id":"cebpf4jnsgd1na2vs0mg"},{"bike_id":"d7af52ab-0122-4eaf-a975-89f2d15d16b7","system_id":"levelo_inurba_marseille","lat":43.297977,"lon":5.381057,"is_reserved":false,"is_disabled":false,"rental_uris":{"android":"levelo://app?vid=d7af52ab-0122-4eaf-a975-89f2d15d16b7","ios":"levelo://app?vid=d7af52ab-0122-4eaf-a975-89f2d15d16b7"},"vehicle_type_id":"4","last_reported":1753467364,"current_range_meters":14400,"station_id":"ce4bgip2rcd13ifvqbb0","pricing_plan_id":"cebpf4jnsgd1na2vs0mg"},{"bike_id":"ddbba69c-e08a-47ea-8688-58dd0f25d277","system_id":"levelo_inurba_marseille","lat":43.30145,"lon":5.37417,"is_reserved":false,"is_disabled":false,"rental_uris":{"android":"levelo://app?vid=ddbba69c-e08a-47ea-8688-58dd0f25d277","ios":"levelo://app?vid=ddbba69c-e08a-47ea-8688-58dd0f25d277"},"vehicle_type_id":"4","last_reported":1753467364,"current_range_meters":14800,"station_id":"ce4bgs92rcd13ifvqcc0","pricing_plan_id":"cebpf4jnsgd1na2vs0mg"},{"bike_id":"ff1ddc08-4d0c-4b6a-80c1-cf3af0583384","system_id":"levelo_inurba_marseille","lat":43.3094,"lon":5.39045,"is_reserved":false,"is_disabled":false,"rental_uris":{"android":"levelo://app?vid=ff1ddc08-4d0c-4b6a-80c1-cf3af0583384","ios":"levelo://app?vid=ff1ddc08-4d0c-4b6a-80c1-cf3af0583384"},"vehicle_type_id":"4","last_reported":1753467364,"current_range_meters":14400,"station_id":"ce4bgup2rcd13ifvqco0","pricing_plan_id":"cebpf4jnsgd1na2vs0mg"},{"bike_id":"d7f56454-8f7f-435d-b2b8-a762c8c27470","system_id":"levelo_inurba_marseille","lat":43.30536,"lon":5.38422,"is_reserved":false,"is_disabled":false,"rental_uris":{"android":"levelo://app?vid=d7f56454-8f7f-435d-b2b8-a762c8c27470","ios":"levelo://app?vid=d7f56454-8f7f-435d-b2b8-a762c8c27470"},"vehicle_type_id":"4","last_reported":1753467364,"current_range_meters":14800,"station_id":"ce4bgg92rcd13ifvqb30","pricing_plan_id":"cebpf4jnsgd1na2vs0mg"},{"bike_id":"ec5cb7ad-6860-4def-8cdc-2b9b2dec4d72","system_id":"levelo_inurba_marseille","lat":43.28415,"lon":5.37511,"is_reserved":false,"is_disabled":false,"rental_uris":{"android":"levelo://app?vid=ec5cb7ad-6860-4def-8cdc-2b9b2dec4d72","ios":"levelo://app?vid=ec5cb7ad-6860-4def-8cdc-2b9b2dec4d72"},"vehicle_type_id":"4","last_reported":1753467364,"current_range_meters":14800,"station_id":"ce4bh412rcd13ifvqds0","pricing_plan_id":"cebpf4jnsgd1na2vs0mg"},{"bike_id":"80bb2c4d-7661-4c42-867c-f24309de517d","system_id":"levelo_inurba_marseille","lat":43.30942,"lon":5.39032,"is_reserved":false,"is_disabled":false,"rental_uris":{"android":"levelo://app?vid=80bb2c4d-7661-4c42-867c-f24309de517d","ios":"levelo://app?vid=80bb2c4d-7661-4c42-867c-f24309de517d"},"vehicle_type_id":"4","last_reported":1753467364,"current_range_meters":12800,"station_id":"ce4bgup2rcd13ifvqco0","pricing_plan_id":"cebpf4jnsgd1na2vs0mg"},{"bike_id":"5fc666d4-7509-40b3-b359-a141ffaa9f74","system_id":"levelo_inurba_marseille","lat":43.275,"lon":5.42466,"is_reserved":false,"is_disabled":false,"rental_uris":{"android":"levelo://app?vid=5fc666d4-7509-40b3-b359-a141ffaa9f74","ios":"levelo://app?vid=5fc666d4-7509-40b3-b359-a141ffaa9f74"},"vehicle_type_id":"4","last_reported":1753467364,"current_range_meters":15200,"station_id":"ce4bhn92rcd13ifvqgrg","pricing_plan_id":"cebpf4jnsgd1na2vs0mg"},{"bike_id":"22dca147-1260-44d8-822d-d9d1d50cce31","system_id":"levelo_inurba_marseille","lat":43.274687,"lon":5.395925,"is_reserved":false,"is_disabled":false,"rental_uris":{"android":"levelo://app?vid=22dca147-1260-44d8-822d-d9d1d50cce31","ios":"levelo://app?vid=22dca147-1260-44d8-822d-d9d1d50cce31"},"vehicle_type_id":"4","last_reported":1753467364,"current_range_meters":15200,"station_id":"","pricing_plan_id":"cebpf4jnsgd1na2vs0mg"},{"bike_id":"d79b409f-ca1b-43df-9348-1c6665f1fc25","system_id":"levelo_inurba_marseille","lat":43.22502,"lon":5.34772,"is_reserved":false,"is_disabled":false,"rental_uris":{"android":"levelo://app?vid=d79b409f-ca1b-43df-9348-1c6665f1fc25","ios":"levelo://app?vid=d79b409f-ca1b-43df-9348-1c6665f1fc25"},"vehicle_type_id":"4","last_reported":1753467364,"current_range_meters":15200,"station_id":"st_cvj5dfep6f1abm77gieg","pricing_plan_id":"cebpf4jnsgd1na2vs0mg"},{"bike_id":"9575837e-b363-4708-9b96-c153c5fc2eb1","system_id":"levelo_inurba_marseille","lat":43.32357,"lon":5.36741,"is_reserved":false,"is_disabled":false,"rental_uris":{"android":"levelo://app?vid=9575837e-b363-4708-9b96-c153c5fc2eb1","ios":"levelo://app?vid=9575837e-b363-4708-9b96-c153c5fc2eb1"},"vehicle_type_id":"4","last_reported":1753467364,"current_range_meters":15200,"station_id":"ce4bhsh2rcd13ifvqi2g","pricing_plan_id":"cebpf4jnsgd1na2vs0mg"},{"bike_id":"21a22bc7-65fe-4b97-a005-517b211a0b98","system_id":"levelo_inurba_marseille","lat":43.230501,"lon":5.354904,"is_reserved":false,"is_disabled":false,"rental_uris":{"android":"levelo://app?vid=21a22bc7-65fe-4b97-a005-517b211a0b98","ios":"levelo://app?vid=21a22bc7-65fe-4b97-a005-517b211a0b98"},"vehicle_type_id":"4","last_reported":1753467364,"current_range_meters":15200,"station_id":"cpo3342slgdg3j2ifvpg","pricing_plan_id":"cebpf4jnsgd1na2vs0mg"},{"bike_id":"dc87bffe-1c91-423d-bf5d-1a24d79c37ca","system_id":"levelo_inurba_marseille","lat":43.29568,"lon":5.37528,"is_reserved":false,"is_disabled":false,"rental_uris":{"android":"levelo://app?vid=dc87bffe-1c91-423d-bf5d-1a24d79c37ca","ios":"levelo://app?vid=dc87bffe-1c91-423d-bf5d-1a24d79c37ca"},"vehicle_type_id":"4","last_reported":1753467364,"current_range_meters":15200,"station_id":"ce4bgh92rcd13ifvqb50","pricing_plan_id":"cebpf4jnsgd1na2vs0mg"},{"bike_id":"36f324cb-a9ad-46b7-afb0-26f814934e1f","system_id":"levelo_inurba_marseille","lat":43.26234,"lon":5.37398,"is_reserved":false,"is_disabled":false,"rental_uris":{"android":"levelo://app?vid=36f324cb-a9ad-46b7-afb0-26f814934e1f","ios":"levelo://app?vid=36f324cb-a9ad-46b7-afb0-26f814934e1f"},"vehicle_type_id":"4","last_reported":1753467364,"current_range_meters":15200,"station_id":"ce4bhgp2rcd13ifvqfc0","pricing_plan_id":"cebpf4jnsgd1na2vs0mg"},{"bike_id":"06efbd2a-fcca-4784-aa74-70f8fdbdc82d","system_id":"levelo_inurba_marseille","lat":43.29278,"lon":5.36833,"is_reserved":false,"is_disabled":true,"rental_uris":{"android":"levelo://app?vid=06efbd2a-fcca-4784-aa74-70f8fdbdc82d","ios":"levelo://app?vid=06efbd2a-fcca-4784-aa74-70f8fdbdc82d"},"vehicle_type_id":"4","last_reported":1753467364,"current_range_meters":15200,"station_id":"ce4bhbp2rcd13ifvqesg","pricing_plan_id":"cebpf4jnsgd1na2vs0mg"},{"bike_id":"cb278293-9f1e-47b2-a401-660fac112f1b","system_id":"levelo_inurba_marseille","lat":43.262054,"lon":5.374491,"is_reserved":false,"is_disabled":false,"rental_uris":{"android":"levelo://app?vid=cb278293-9f1e-47b2-a401-660fac112f1b","ios":"levelo://app?vid=cb278293-9f1e-47b2-a401-660fac112f1b"},"vehicle_type_id":"4","last_reported":1753467364,"current_range_meters":15200,"station_id":"","pricing_plan_id":"cebpf4jnsgd1na2vs0mg"},{"bike_id":"de99b14c-9afd-4bdd-bc56-50354c110c3d","system_id":"levelo_inurba_marseille","lat":43.25467,"lon":5.37687,"is_reserved":false,"is_disabled":false,"rental_uris":{"android":"levelo://app?vid=de99b14c-9afd-4bdd-bc56-50354c110c3d","ios":"levelo://app?vid=de99b14c-9afd-4bdd-bc56-50354c110c3d"},"vehicle_type_id":"4","last_reported":1753467364,"current_range_meters":16000,"station_id":"","pricing_plan_id":"cebpf4jnsgd1na2vs0mg"},{"bike_id":"4ce3b822-566f-41ea-92dc-b7890a2494b1","system_id":"levelo_inurba_marseille","lat":43.29689,"lon":5.3729,"is_reserved":false,"is_disabled":false,"rental_uris":{"android":"levelo://app?vid=4ce3b822-566f-41ea-92dc-b7890a2494b1","ios":"levelo://app?vid=4ce3b822-566f-41ea-92dc-b7890a2494b1"},"vehicle_type_id":"4","last_reported":1753467364,"current_range_meters":16000,"station_id":"","pricing_plan_id":"cebpf4jnsgd1na2vs0mg"},{"bike_id":"970ce0d9-2c80-445a-b6ab-c8eb3acdf2c4","system_id":"levelo_inurba_marseille","lat":43.262272,"lon":5.404475,"is_reserved":false,"is_disabled":false,"rental_uris":{"android":"levelo://app?vid=970ce0d9-2c80-445a-b6ab-c8eb3acdf2c4","ios":"levelo://app?vid=970ce0d9-2c80-445a-b6ab-c8eb3acdf2c4"},"vehicle_type_id":"4","last_reported":1753467364,"current_range_meters":16000,"station_id":"ce4bhmh2rcd13ifvqgmg","pricing_plan_id":"cebpf4jnsgd1na2vs0mg"},{"bike_id":"c26f1b4d-11e7-4aaa-8fd1-0c8a6e22bd7c","system_id":"levelo_inurba_marseille","lat":43.30125,"lon":5.38757,"is_reserved":false,"is_disabled":true,"rental_uris":{"android":"levelo://app?vid=c26f1b4d-11e7-4aaa-8fd1-0c8a6e22bd7c","ios":"levelo://app?vid=c26f1b4d-11e7-4aaa-8fd1-0c8a6e22bd7c"},"vehicle_type_id":"4","last_reported":1753467364,"current_range_meters":16000,"station_id":"ce4bghh2rcd13ifvqb60","pricing_plan_id":"cebpf4jnsgd1na2vs0mg"},{"bike_id":"7fa33096-7cb8-4818-8ec0-f73faa7fc10b","system_id":"levelo_inurba_marseille","lat":43.2953,"lon":5.3855,"is_reserved":false,"is_disabled":false,"rental_uris":{"android":"levelo://app?vid=7fa33096-7cb8-4818-8ec0-f73faa7fc10b","ios":"levelo://app?vid=7fa33096-7cb8-4818-8ec0-f73faa7fc10b"},"vehicle_type_id":"4","last_reported":1753467364,"current_range_meters":16000,"station_id":"ce4bgih2rcd13ifvqba0","pricing_plan_id":"cebpf4jnsgd1na2vs0mg"},{"bike_id":"4eedb553-1a5f-47e4-a136-f5051ab058e6","system_id":"levelo_inurba_marseille","lat":43.28423,"lon":5.34968,"is_reserved":false,"is_disabled":true,"rental_uris":{"android":"levelo://app?vid=4eedb553-1a5f-47e4-a136-f5051ab058e6","ios":"levelo://app?vid=4eedb553-1a5f-47e4-a136-f5051ab058e6"},"vehicle_type_id":"4","last_reported":1753467364,"current_range_meters":16000,"station_id":"ce4bhbh2rcd13ifvqepg","pricing_plan_id":"cebpf4jnsgd1na2vs0mg"},{"bike_id":"1adb7937-5eac-4e2e-b1c3-63df12af9e4d","system_id":"levelo_inurba_marseille","lat":43.29969,"lon":5.38487,"is_reserved":false,"is_disabled":false,"rental_uris":{"android":"levelo://app?vid=1adb7937-5eac-4e2e-b1c3-63df12af9e4d","ios":"levelo://app?vid=1adb7937-5eac-4e2e-b1c3-63df12af9e4d"},"vehicle_type_id":"4","last_reported":1753467364,"current_range_meters":16000,"station_id":"ce4bgj92rcd13ifvqbd0","pricing_plan_id":"cebpf4jnsgd1na2vs0mg"},{"bike_id":"8dcab7ff-30e3-4f9e-a515-fabad1a70180","system_id":"levelo_inurba_marseille","lat":43.28398,"lon":5.37514,"is_reserved":false,"is_disabled":false,"rental_uris":{"android":"levelo://app?vid=8dcab7ff-30e3-4f9e-a515-fabad1a70180","ios":"levelo://app?vid=8dcab7ff-30e3-4f9e-a515-fabad1a70180"},"vehicle_type_id":"4","last_reported":1753467364,"current_range_meters":16000,"station_id":"ce4bh412rcd13ifvqds0","pricing_plan_id":"cebpf4jnsgd1na2vs0mg"},{"bike_id":"57755280-973c-4ff3-9c25-8f15e2c5b510","system_id":"levelo_inurba_marseille","lat":43.31872,"lon":5.37373,"is_reserved":false,"is_disabled":false,"rental_uris":{"android":"levelo://app?vid=57755280-973c-4ff3-9c25-8f15e2c5b510","ios":"levelo://app?vid=57755280-973c-4ff3-9c25-8f15e2c5b510"},"vehicle_type_id":"4","last_reported":1753467364,"current_range_meters":16000,"station_id":"","pricing_plan_id":"cebpf4jnsgd1na2vs0mg"},{"bike_id":"ec2ff7fe-96f8-4ea8-9c99-8b7c542133c4","system_id":"levelo_inurba_marseille","lat":43.273781,"lon":5.362525,"is_reserved":false,"is_disabled":false,"rental_uris":{"android":"levelo://app?vid=ec2ff7fe-96f8-4ea8-9c99-8b7c542133c4","ios":"levelo://app?vid=ec2ff7fe-96f8-4ea8-9c99-8b7c542133c4"},"vehicle_type_id":"4","last_reported":1753467364,"current_range_meters":16000,"station_id":"ce4bhbh2rcd13ifvqeo0","pricing_plan_id":"cebpf4jnsgd1na2vs0mg"},{"bike_id":"94e0ed4d-dd24-46ea-ab23-e464871369c7","system_id":"levelo_inurba_marseille","lat":43.27921,"lon":5.39577,"is_reserved":false,"is_disabled":false,"rental_uris":{"android":"levelo://app?vid=94e0ed4d-dd24-46ea-ab23-e464871369c7","ios":"levelo://app?vid=94e0ed4d-dd24-46ea-ab23-e464871369c7"},"vehicle_type_id":"4","last_reported":1753467364,"current_range_meters":16400,"station_id":"ce4bhf92rcd13ifvqf40","pricing_plan_id":"cebpf4jnsgd1na2vs0mg"},{"bike_id":"c4223149-eeb8-4da8-830b-af67942691a3","system_id":"levelo_inurba_marseille","lat":43.294464,"lon":5.386353,"is_reserved":false,"is_disabled":false,"rental_uris":{"android":"levelo://app?vid=c4223149-eeb8-4da8-830b-af67942691a3","ios":"levelo://app?vid=c4223149-eeb8-4da8-830b-af67942691a3"},"vehicle_type_id":"4","last_reported":1753467364,"current_range_meters":16400,"station_id":"","pricing_plan_id":"cebpf4jnsgd1na2vs0mg"},{"bike_id":"09b7f600-cb1e-4ea0-adc2-9c3dcb778794","system_id":"levelo_inurba_marseille","lat":43.22495,"lon":5.34802,"is_reserved":false,"is_disabled":false,"rental_uris":{"android":"levelo://app?vid=09b7f600-cb1e-4ea0-adc2-9c3dcb778794","ios":"levelo://app?vid=09b7f600-cb1e-4ea0-adc2-9c3dcb778794"},"vehicle_type_id":"4","last_reported":1753467364,"current_range_meters":16400,"station_id":"st_cvj5dfep6f1abm77gieg","pricing_plan_id":"cebpf4jnsgd1na2vs0mg"},{"bike_id":"7f7a4770-cb44-4cbe-afee-f7531a238fa9","system_id":"levelo_inurba_marseille","lat":43.225059,"lon":5.347842,"is_reserved":false,"is_disabled":false,"rental_uris":{"android":"levelo://app?vid=7f7a4770-cb44-4cbe-afee-f7531a238fa9","ios":"levelo://app?vid=7f7a4770-cb44-4cbe-afee-f7531a238fa9"},"vehicle_type_id":"4","last_reported":1753467364,"current_range_meters":16400,"station_id":"st_cvj5dfep6f1abm77gieg","pricing_plan_id":"cebpf4jnsgd1na2vs0mg"},{"bike_id":"7528e0ee-3254-4380-8007-ffef61e356ca","system_id":"levelo_inurba_marseille","lat":43.26547,"lon":5.37282,"is_reserved":false,"is_disabled":false,"rental_uris":{"android":"levelo://app?vid=7528e0ee-3254-4380-8007-ffef61e356ca","ios":"levelo://app?vid=7528e0ee-3254-4380-8007-ffef61e356ca"},"vehicle_type_id":"4","last_reported":1753467364,"current_range_meters":16400,"station_id":"ce4bhg12rcd13ifvqf70","pricing_plan_id":"cebpf4jnsgd1na2vs0mg"},{"bike_id":"1d6f4dc5-1bb7-4d16-9cd7-94f8f505e564","system_id":"levelo_inurba_marseille","lat":43.29582,"lon":5.37515,"is_reserved":false,"is_disabled":false,"rental_uris":{"android":"levelo://app?vid=1d6f4dc5-1bb7-4d16-9cd7-94f8f505e564","ios":"levelo://app?vid=1d6f4dc5-1bb7-4d16-9cd7-94f8f505e564"},"vehicle_type_id":"4","last_reported":1753467364,"current_range_meters":16400,"station_id":"ce4bgh92rcd13ifvqb50","pricing_plan_id":"cebpf4jnsgd1na2vs0mg"},{"bike_id":"6afd1d6b-a8aa-468a-9a61-2ff10f1bd776","system_id":"levelo_inurba_marseille","lat":43.30136,"lon":5.37408,"is_reserved":false,"is_disabled":false,"rental_uris":{"android":"levelo://app?vid=6afd1d6b-a8aa-468a-9a61-2ff10f1bd776","ios":"levelo://app?vid=6afd1d6b-a8aa-468a-9a61-2ff10f1bd776"},"vehicle_type_id":"4","last_reported":1753467364,"current_range_meters":16000,"station_id":"ce4bgs92rcd13ifvqcc0","pricing_plan_id":"cebpf4jnsgd1na2vs0mg"},{"bike_id":"dd4669b8-7a1e-455c-921c-cef6ea4213f0","system_id":"levelo_inurba_marseille","lat":43.29731,"lon":5.37688,"is_reserved":false,"is_disabled":false,"rental_uris":{"android":"levelo://app?vid=dd4669b8-7a1e-455c-921c-cef6ea4213f0","ios":"levelo://app?vid=dd4669b8-7a1e-455c-921c-cef6ea4213f0"},"vehicle_type_id":"4","last_reported":1753467364,"current_range_meters":16400,"station_id":"ce4bgkh2rcd13ifvqbl0","pricing_plan_id":"cebpf4jnsgd1na2vs0mg"},{"bike_id":"8c26d18d-7b76-4f89-9a85-0ff8340cf395","system_id":"levelo_inurba_marseille","lat":43.23958,"lon":5.36633,"is_reserved":false,"is_disabled":false,"rental_uris":{"android":"levelo://app?vid=8c26d18d-7b76-4f89-9a85-0ff8340cf395","ios":"levelo://app?vid=8c26d18d-7b76-4f89-9a85-0ff8340cf395"},"vehicle_type_id":"4","last_reported":1753467364,"current_range_meters":16400,"station_id":"ce4bhi12rcd13ifvqfp0","pricing_plan_id":"cebpf4jnsgd1na2vs0mg"},{"bike_id":"33976e3d-53c0-4185-846b-4b84207e0d06","system_id":"levelo_inurba_marseille","lat":43.32301,"lon":5.38272,"is_reserved":false,"is_disabled":false,"rental_uris":{"android":"levelo://app?vid=33976e3d-53c0-4185-846b-4b84207e0d06","ios":"levelo://app?vid=33976e3d-53c0-4185-846b-4b84207e0d06"},"vehicle_type_id":"4","last_reported":1753467364,"current_range_meters":16400,"station_id":"ce4bhr12rcd13ifvqhqg","pricing_plan_id":"cebpf4jnsgd1na2vs0mg"},{"bike_id":"65993485-235c-44cf-808a-7ffc04102581","system_id":"levelo_inurba_marseille","lat":43.28615,"lon":5.35085,"is_reserved":false,"is_disabled":false,"rental_uris":{"android":"levelo://app?vid=65993485-235c-44cf-808a-7ffc04102581","ios":"levelo://app?vid=65993485-235c-44cf-808a-7ffc04102581"},"vehicle_type_id":"4","last_reported":1753467364,"current_range_meters":16800,"station_id":"ce4bhch2rcd13ifvqeug","pricing_plan_id":"cebpf4jnsgd1na2vs0mg"},{"bike_id":"b13587c6-7f8f-4fdd-a6ac-82008179eee3","system_id":"levelo_inurba_marseille","lat":43.30943,"lon":5.39038,"is_reserved":false,"is_disabled":false,"rental_uris":{"android":"levelo://app?vid=b13587c6-7f8f-4fdd-a6ac-82008179eee3","ios":"levelo://app?vid=b13587c6-7f8f-4fdd-a6ac-82008179eee3"},"vehicle_type_id":"4","last_reported":1753467364,"current_range_meters":16800,"station_id":"ce4bgup2rcd13ifvqco0","pricing_plan_id":"cebpf4jnsgd1na2vs0mg"},{"bike_id":"97a719d6-9a61-41a3-aa32-c84796fe6ec0","system_id":"levelo_inurba_marseille","lat":43.28412,"lon":5.37506,"is_reserved":false,"is_disabled":false,"rental_uris":{"android":"levelo://app?vid=97a719d6-9a61-41a3-aa32-c84796fe6ec0","ios":"levelo://app?vid=97a719d6-9a61-41a3-aa32-c84796fe6ec0"},"vehicle_type_id":"4","last_reported":1753467364,"current_range_meters":16800,"station_id":"ce4bh412rcd13ifvqds0","pricing_plan_id":"cebpf4jnsgd1na2vs0mg"},{"bike_id":"474a675e-9fb5-453c-b41d-577012822840","system_id":"levelo_inurba_marseille","lat":43.29368,"lon":5.37838,"is_reserved":false,"is_disabled":false,"rental_uris":{"android":"levelo://app?vid=474a675e-9fb5-453c-b41d-577012822840","ios":"levelo://app?vid=474a675e-9fb5-453c-b41d-577012822840"},"vehicle_type_id":"4","last_reported":1753467364,"current_range_meters":16400,"station_id":"ce4bgjh2rcd13ifvqbf0","pricing_plan_id":"cebpf4jnsgd1na2vs0mg"},{"bike_id":"571d9e64-5428-42e7-a4f7-bf282329e35e","system_id":"levelo_inurba_marseille","lat":43.29865,"lon":5.39732,"is_reserved":false,"is_disabled":false,"rental_uris":{"android":"levelo://app?vid=571d9e64-5428-42e7-a4f7-bf282329e35e","ios":"levelo://app?vid=571d9e64-5428-42e7-a4f7-bf282329e35e"},"vehicle_type_id":"4","last_reported":1753467364,"current_range_meters":16800,"station_id":"ce4bh0h2rcd13ifvqd50","pricing_plan_id":"cebpf4jnsgd1na2vs0mg"},{"bike_id":"8b5f50fc-068c-456b-9d20-58d1cb6def3a","system_id":"levelo_inurba_marseille","lat":43.29703,"lon":5.36604,"is_reserved":false,"is_disabled":false,"rental_uris":{"android":"levelo://app?vid=8b5f50fc-068c-456b-9d20-58d1cb6def3a","ios":"levelo://app?vid=8b5f50fc-068c-456b-9d20-58d1cb6def3a"},"vehicle_type_id":"4","last_reported":1753467364,"current_range_meters":16800,"station_id":"ce4bgn12rcd13ifvqbt0","pricing_plan_id":"cebpf4jnsgd1na2vs0mg"},{"bike_id":"a520aef3-d8ee-479c-910a-c0447822ca28","system_id":"levelo_inurba_marseille","lat":43.326788,"lon":5.409728,"is_reserved":false,"is_disabled":false,"rental_uris":{"android":"levelo://app?vid=a520aef3-d8ee-479c-910a-c0447822ca28","ios":"levelo://app?vid=a520aef3-d8ee-479c-910a-c0447822ca28"},"vehicle_type_id":"4","last_reported":1753467364,"current_range_meters":16800,"station_id":"ce4bhpp2rcd13ifvqhgg","pricing_plan_id":"cebpf4jnsgd1na2vs0mg"},{"bike_id":"c5364873-8337-44d6-a250-5a32ef267a25","system_id":"levelo_inurba_marseille","lat":43.3095,"lon":5.39027,"is_reserved":false,"is_disabled":false,"rental_uris":{"android":"levelo://app?vid=c5364873-8337-44d6-a250-5a32ef267a25","ios":"levelo://app?vid=c5364873-8337-44d6-a250-5a32ef267a25"},"vehicle_type_id":"4","last_reported":1753467364,"current_range_meters":16400,"station_id":"ce4bgup2rcd13ifvqco0","pricing_plan_id":"cebpf4jnsgd1na2vs0mg"},{"bike_id":"b24bb927-3183-40dc-a65b-1e662c42b4a7","system_id":"levelo_inurba_marseille","lat":43.3171,"lon":5.37731,"is_reserved":false,"is_disabled":false,"rental_uris":{"android":"levelo://app?vid=b24bb927-3183-40dc-a65b-1e662c42b4a7","ios":"levelo://app?vid=b24bb927-3183-40dc-a65b-1e662c42b4a7"},"vehicle_type_id":"4","last_reported":1753467364,"current_range_meters":16400,"station_id":"ce4bgth2rcd13ifvqch0","pricing_plan_id":"cebpf4jnsgd1na2vs0mg"},{"bike_id":"45ec1091-e6ba-41f1-9533-82769723cafd","system_id":"levelo_inurba_marseille","lat":43.32378,"lon":5.38866,"is_reserved":false,"is_disabled":false,"rental_uris":{"android":"levelo://app?vid=45ec1091-e6ba-41f1-9533-82769723cafd","ios":"levelo://app?vid=45ec1091-e6ba-41f1-9533-82769723cafd"},"vehicle_type_id":"4","last_reported":1753467364,"current_range_meters":16800,"station_id":"ce4bhqp2rcd13ifvqhog","pricing_plan_id":"cebpf4jnsgd1na2vs0mg"},{"bike_id":"8c581ec7-4691-451b-bcc8-0ed14d3f29d1","system_id":"levelo_inurba_marseille","lat":43.29513,"lon":5.37493,"is_reserved":false,"is_disabled":false,"rental_uris":{"android":"levelo://app?vid=8c581ec7-4691-451b-bcc8-0ed14d3f29d1","ios":"levelo://app?vid=8c581ec7-4691-451b-bcc8-0ed14d3f29d1"},"vehicle_type_id":"4","last_reported":1753467364,"current_range_meters":16800,"station_id":"ce4bgkp2rcd13ifvqbmg","pricing_plan_id":"cebpf4jnsgd1na2vs0mg"},{"bike_id":"88df6793-43db-4f6d-8333-f4f84436806b","system_id":"levelo_inurba_marseille","lat":43.30795,"lon":5.38154,"is_reserved":false,"is_disabled":false,"rental_uris":{"android":"levelo://app?vid=88df6793-43db-4f6d-8333-f4f84436806b","ios":"levelo://app?vid=88df6793-43db-4f6d-8333-f4f84436806b"},"vehicle_type_id":"4","last_reported":1753467364,"current_range_meters":16800,"station_id":"ce4bgt12rcd13ifvqce0","pricing_plan_id":"cebpf4jnsgd1na2vs0mg"},{"bike_id":"329c8f00-9fb0-47d7-84ef-1bc64e291f9c","system_id":"levelo_inurba_marseille","lat":43.292789,"lon":5.36837,"is_reserved":false,"is_disabled":false,"rental_uris":{"android":"levelo://app?vid=329c8f00-9fb0-47d7-84ef-1bc64e291f9c","ios":"levelo://app?vid=329c8f00-9fb0-47d7-84ef-1bc64e291f9c"},"vehicle_type_id":"4","last_reported":1753467364,"current_range_meters":16800,"station_id":"","pricing_plan_id":"cebpf4jnsgd1na2vs0mg"},{"bike_id":"80acebb2-0350-48ac-b0aa-274664838171","system_id":"levelo_inurba_marseille","lat":43.24167,"lon":5.36401,"is_reserved":false,"is_disabled":false,"rental_uris":{"android":"levelo://app?vid=80acebb2-0350-48ac-b0aa-274664838171","ios":"levelo://app?vid=80acebb2-0350-48ac-b0aa-274664838171"},"vehicle_type_id":"4","last_reported":1753467364,"current_range_meters":16800,"station_id":"cpo36qri1sfpv3e86is0","pricing_plan_id":"cebpf4jnsgd1na2vs0mg"},{"bike_id":"6ab0b13c-2ff1-417a-acfd-489d6800d4c9","system_id":"levelo_inurba_marseille","lat":43.27376,"lon":5.3624,"is_reserved":false,"is_disabled":true,"rental_uris":{"android":"levelo://app?vid=6ab0b13c-2ff1-417a-acfd-489d6800d4c9","ios":"levelo://app?vid=6ab0b13c-2ff1-417a-acfd-489d6800d4c9"},"vehicle_type_id":"4","last_reported":1753467364,"current_range_meters":16800,"station_id":"ce4bhbh2rcd13ifvqeo0","pricing_plan_id":"cebpf4jnsgd1na2vs0mg"},{"bike_id":"1f60027f-5ca6-4a98-af30-65946b6c5b20","system_id":"levelo_inurba_marseille","lat":43.29712,"lon":5.36598,"is_reserved":false,"is_disabled":false,"rental_uris":{"android":"levelo://app?vid=1f60027f-5ca6-4a98-af30-65946b6c5b20","ios":"levelo://app?vid=1f60027f-5ca6-4a98-af30-65946b6c5b20"},"vehicle_type_id":"4","last_reported":1753467364,"current_range_meters":17200,"station_id":"ce4bgn12rcd13ifvqbt0","pricing_plan_id":"cebpf4jnsgd1na2vs0mg"},{"bike_id":"16971f4c-ccac-4993-ad28-795396f2377f","system_id":"levelo_inurba_marseille","lat":43.24173,"lon":5.36396,"is_reserved":false,"is_disabled":false,"rental_uris":{"android":"levelo://app?vid=16971f4c-ccac-4993-ad28-795396f2377f","ios":"levelo://app?vid=16971f4c-ccac-4993-ad28-795396f2377f"},"vehicle_type_id":"4","last_reported":1753467364,"current_range_meters":17200,"station_id":"cpo36qri1sfpv3e86is0","pricing_plan_id":"cebpf4jnsgd1na2vs0mg"},{"bike_id":"847b44c9-efab-4746-8937-dcebf1206fff","system_id":"levelo_inurba_marseille","lat":43.262095,"lon":5.374463,"is_reserved":false,"is_disabled":true,"rental_uris":{"android":"levelo://app?vid=847b44c9-efab-4746-8937-dcebf1206fff","ios":"levelo://app?vid=847b44c9-efab-4746-8937-dcebf1206fff"},"vehicle_type_id":"4","last_reported":1753467364,"current_range_meters":17200,"station_id":"ce4bhgp2rcd13ifvqfc0","pricing_plan_id":"cebpf4jnsgd1na2vs0mg"},{"bike_id":"acb9a0e9-c13c-4ef3-8d9a-f21d2ecd5aa3","system_id":"levelo_inurba_marseille","lat":43.29538,"lon":5.38547,"is_reserved":false,"is_disabled":false,"rental_uris":{"android":"levelo://app?vid=acb9a0e9-c13c-4ef3-8d9a-f21d2ecd5aa3","ios":"levelo://app?vid=acb9a0e9-c13c-4ef3-8d9a-f21d2ecd5aa3"},"vehicle_type_id":"4","last_reported":1753467364,"current_range_meters":17200,"station_id":"ce4bgih2rcd13ifvqba0","pricing_plan_id":"cebpf4jnsgd1na2vs0mg"},{"bike_id":"152247a2-6f09-485f-acf9-4f6bd27a046c","system_id":"levelo_inurba_marseille","lat":43.28155,"lon":5.42615,"is_reserved":false,"is_disabled":false,"rental_uris":{"android":"levelo://app?vid=152247a2-6f09-485f-acf9-4f6bd27a046c","ios":"levelo://app?vid=152247a2-6f09-485f-acf9-4f6bd27a046c"},"vehicle_type_id":"4","last_reported":1753467364,"current_range_meters":17200,"station_id":"ce4bhnh2rcd13ifvqgug","pricing_plan_id":"cebpf4jnsgd1na2vs0mg"},{"bike_id":"ec74f06a-40dc-4c39-a0cb-57d6f568a4e5","system_id":"levelo_inurba_marseille","lat":43.22925,"lon":5.35371,"is_reserved":false,"is_disabled":false,"rental_uris":{"android":"levelo://app?vid=ec74f06a-40dc-4c39-a0cb-57d6f568a4e5","ios":"levelo://app?vid=ec74f06a-40dc-4c39-a0cb-57d6f568a4e5"},"vehicle_type_id":"4","last_reported":1753467364,"current_range_meters":17200,"station_id":"cpo3532slgdg3j2ikp40","pricing_plan_id":"cebpf4jnsgd1na2vs0mg"},{"bike_id":"cd7f0f71-34aa-4f9d-b13f-66f815ed1e8d","system_id":"levelo_inurba_marseille","lat":43.25501,"lon":5.37652,"is_reserved":false,"is_disabled":false,"rental_uris":{"android":"levelo://app?vid=cd7f0f71-34aa-4f9d-b13f-66f815ed1e8d","ios":"levelo://app?vid=cd7f0f71-34aa-4f9d-b13f-66f815ed1e8d"},"vehicle_type_id":"4","last_reported":1753467364,"current_range_meters":17200,"station_id":"ce4bhh12rcd13ifvqff0","pricing_plan_id":"cebpf4jnsgd1na2vs0mg"},{"bike_id":"8f4ca69e-9621-4ffd-91af-41f939f5f71e","system_id":"levelo_inurba_marseille","lat":43.239656,"lon":5.36631,"is_reserved":false,"is_disabled":false,"rental_uris":{"android":"levelo://app?vid=8f4ca69e-9621-4ffd-91af-41f939f5f71e","ios":"levelo://app?vid=8f4ca69e-9621-4ffd-91af-41f939f5f71e"},"vehicle_type_id":"4","last_reported":1753467364,"current_range_meters":17600,"station_id":"ce4bhi12rcd13ifvqfp0","pricing_plan_id":"cebpf4jnsgd1na2vs0mg"},{"bike_id":"1855cbe1-5a05-480e-9057-6e9b3976dbbe","system_id":"levelo_inurba_marseille","lat":43.33729,"lon":5.39177,"is_reserved":false,"is_disabled":false,"rental_uris":{"android":"levelo://app?vid=1855cbe1-5a05-480e-9057-6e9b3976dbbe","ios":"levelo://app?vid=1855cbe1-5a05-480e-9057-6e9b3976dbbe"},"vehicle_type_id":"4","last_reported":1753467364,"current_range_meters":17600,"station_id":"ce4bhr92rcd13ifvqhsg","pricing_plan_id":"cebpf4jnsgd1na2vs0mg"},{"bike_id":"e1bdf2b9-40f5-4ad7-a323-d17fcbeb643b","system_id":"levelo_inurba_marseille","lat":43.28618,"lon":5.35111,"is_reserved":false,"is_disabled":false,"rental_uris":{"android":"levelo://app?vid=e1bdf2b9-40f5-4ad7-a323-d17fcbeb643b","ios":"levelo://app?vid=e1bdf2b9-40f5-4ad7-a323-d17fcbeb643b"},"vehicle_type_id":"4","last_reported":1753467364,"current_range_meters":17600,"station_id":"ce4bhch2rcd13ifvqeug","pricing_plan_id":"cebpf4jnsgd1na2vs0mg"},{"bike_id":"d4a4ff82-40eb-4c79-a12e-ba898c990900","system_id":"levelo_inurba_marseille","lat":43.27617,"lon":5.36107,"is_reserved":false,"is_disabled":false,"rental_uris":{"android":"levelo://app?vid=d4a4ff82-40eb-4c79-a12e-ba898c990900","ios":"levelo://app?vid=d4a4ff82-40eb-4c79-a12e-ba898c990900"},"vehicle_type_id":"4","last_reported":1753467364,"current_range_meters":17600,"station_id":"ce4bgj92rcd13ifvqbe0","pricing_plan_id":"cebpf4jnsgd1na2vs0mg"},{"bike_id":"7f5570dc-9150-4ed7-9b66-bcf97f27bc9c","system_id":"levelo_inurba_marseille","lat":43.28922,"lon":5.38405,"is_reserved":false,"is_disabled":false,"rental_uris":{"android":"levelo://app?vid=7f5570dc-9150-4ed7-9b66-bcf97f27bc9c","ios":"levelo://app?vid=7f5570dc-9150-4ed7-9b66-bcf97f27bc9c"},"vehicle_type_id":"4","last_reported":1753467364,"current_range_meters":17600,"station_id":"ce4bh612rcd13ifvqe6g","pricing_plan_id":"cebpf4jnsgd1na2vs0mg"},{"bike_id":"5fdac892-5788-4b60-8be7-09dd43754d01","system_id":"levelo_inurba_marseille","lat":43.258717,"lon":5.398927,"is_reserved":false,"is_disabled":false,"rental_uris":{"android":"levelo://app?vid=5fdac892-5788-4b60-8be7-09dd43754d01","ios":"levelo://app?vid=5fdac892-5788-4b60-8be7-09dd43754d01"},"vehicle_type_id":"4","last_reported":1753467364,"current_range_meters":17600,"station_id":"ce4bhl92rcd13ifvqghg","pricing_plan_id":"cebpf4jnsgd1na2vs0mg"},{"bike_id":"1a723eaf-1272-4a3a-94f4-e498e257adb7","system_id":"levelo_inurba_marseille","lat":43.28616,"lon":5.35108,"is_reserved":false,"is_disabled":false,"rental_uris":{"android":"levelo://app?vid=1a723eaf-1272-4a3a-94f4-e498e257adb7","ios":"levelo://app?vid=1a723eaf-1272-4a3a-94f4-e498e257adb7"},"vehicle_type_id":"4","last_reported":1753467364,"current_range_meters":17600,"station_id":"ce4bhch2rcd13ifvqeug","pricing_plan_id":"cebpf4jnsgd1na2vs0mg"},{"bike_id":"2c1587f6-c8c8-454c-82f5-3204e1a93abf","system_id":"levelo_inurba_marseille","lat":43.28611,"lon":5.35098,"is_reserved":false,"is_disabled":false,"rental_uris":{"android":"levelo://app?vid=2c1587f6-c8c8-454c-82f5-3204e1a93abf","ios":"levelo://app?vid=2c1587f6-c8c8-454c-82f5-3204e1a93abf"},"vehicle_type_id":"4","last_reported":1753467364,"current_range_meters":18000,"station_id":"ce4bhch2rcd13ifvqeug","pricing_plan_id":"cebpf4jnsgd1na2vs0mg"},{"bike_id":"c3c2652b-f2d7-4ed4-89ec-9559feb01451","system_id":"levelo_inurba_marseille","lat":43.292236,"lon":5.360521,"is_reserved":false,"is_disabled":true,"rental_uris":{"android":"levelo://app?vid=c3c2652b-f2d7-4ed4-89ec-9559feb01451","ios":"levelo://app?vid=c3c2652b-f2d7-4ed4-89ec-9559feb01451"},"vehicle_type_id":"4","last_reported":1753467364,"current_range_meters":18000,"station_id":"ce4bhbh2rcd13ifvqeqg","pricing_plan_id":"cebpf4jnsgd1na2vs0mg"},{"bike_id":"e0eb1480-8e49-40af-b207-4759bfad8c4d","system_id":"levelo_inurba_marseille","lat":43.29168,"lon":5.37156,"is_reserved":false,"is_disabled":false,"rental_uris":{"android":"levelo://app?vid=e0eb1480-8e49-40af-b207-4759bfad8c4d","ios":"levelo://app?vid=e0eb1480-8e49-40af-b207-4759bfad8c4d"},"vehicle_type_id":"4","last_reported":1753467364,"current_range_meters":18000,"station_id":"ce4bha92rcd13ifvqeh0","pricing_plan_id":"cebpf4jnsgd1na2vs0mg"},{"bike_id":"e7652c6c-2402-49f7-a93f-025650a12a4e","system_id":"levelo_inurba_marseille","lat":43.28639,"lon":5.35057,"is_reserved":false,"is_disabled":false,"rental_uris":{"android":"levelo://app?vid=e7652c6c-2402-49f7-a93f-025650a12a4e","ios":"levelo://app?vid=e7652c6c-2402-49f7-a93f-025650a12a4e"},"vehicle_type_id":"4","last_reported":1753467364,"current_range_meters":18000,"station_id":"ce4bhch2rcd13ifvqeug","pricing_plan_id":"cebpf4jnsgd1na2vs0mg"},{"bike_id":"f3d850d9-f032-4b80-827d-1e66c26b963d","system_id":"levelo_inurba_marseille","lat":43.29916,"lon":5.37473,"is_reserved":false,"is_disabled":false,"rental_uris":{"android":"levelo://app?vid=f3d850d9-f032-4b80-827d-1e66c26b963d","ios":"levelo://app?vid=f3d850d9-f032-4b80-827d-1e66c26b963d"},"vehicle_type_id":"4","last_reported":1753467364,"current_range_meters":18000,"station_id":"ce4bgjh2rcd13ifvqbg0","pricing_plan_id":"cebpf4jnsgd1na2vs0mg"},{"bike_id":"d66d1ee1-f636-4cbf-b265-9c4b7c78a4d3","system_id":"levelo_inurba_marseille","lat":43.29215,"lon":5.36073,"is_reserved":false,"is_disabled":false,"rental_uris":{"android":"levelo://app?vid=d66d1ee1-f636-4cbf-b265-9c4b7c78a4d3","ios":"levelo://app?vid=d66d1ee1-f636-4cbf-b265-9c4b7c78a4d3"},"vehicle_type_id":"4","last_reported":1753467364,"current_range_meters":18000,"station_id":"ce4bhbh2rcd13ifvqeqg","pricing_plan_id":"cebpf4jnsgd1na2vs0mg"},{"bike_id":"d1118ba2-7ab0-47ff-a120-ca2f2f1b3dfe","system_id":"levelo_inurba_marseille","lat":43.28624,"lon":5.35091,"is_reserved":false,"is_disabled":false,"rental_uris":{"android":"levelo://app?vid=d1118ba2-7ab0-47ff-a120-ca2f2f1b3dfe","ios":"levelo://app?vid=d1118ba2-7ab0-47ff-a120-ca2f2f1b3dfe"},"vehicle_type_id":"4","last_reported":1753467364,"current_range_meters":18000,"station_id":"ce4bhch2rcd13ifvqeug","pricing_plan_id":"cebpf4jnsgd1na2vs0mg"},{"bike_id":"1e5c96a6-9d0f-4d5f-85ef-5a5f8ac0317a","system_id":"levelo_inurba_marseille","lat":43.33497,"lon":5.39102,"is_reserved":false,"is_disabled":false,"rental_uris":{"android":"levelo://app?vid=1e5c96a6-9d0f-4d5f-85ef-5a5f8ac0317a","ios":"levelo://app?vid=1e5c96a6-9d0f-4d5f-85ef-5a5f8ac0317a"},"vehicle_type_id":"4","last_reported":1753467364,"current_range_meters":18000,"station_id":"","pricing_plan_id":"cebpf4jnsgd1na2vs0mg"},{"bike_id":"9a132e69-1809-4add-8c88-2407bded5f54","system_id":"levelo_inurba_marseille","lat":43.29005,"lon":5.35614,"is_reserved":false,"is_disabled":false,"rental_uris":{"android":"levelo://app?vid=9a132e69-1809-4add-8c88-2407bded5f54","ios":"levelo://app?vid=9a132e69-1809-4add-8c88-2407bded5f54"},"vehicle_type_id":"4","last_reported":1753467364,"current_range_meters":18000,"station_id":"ce4bhb92rcd13ifvqen0","pricing_plan_id":"cebpf4jnsgd1na2vs0mg"},{"bike_id":"9a67752c-7e84-4313-b000-cc264836029a","system_id":"levelo_inurba_marseille","lat":43.26209,"lon":5.37452,"is_reserved":false,"is_disabled":false,"rental_uris":{"android":"levelo://app?vid=9a67752c-7e84-4313-b000-cc264836029a","ios":"levelo://app?vid=9a67752c-7e84-4313-b000-cc264836029a"},"vehicle_type_id":"4","last_reported":1753467364,"current_range_meters":18000,"station_id":"ce4bhgp2rcd13ifvqfc0","pricing_plan_id":"cebpf4jnsgd1na2vs0mg"},{"bike_id":"6d52e56f-d1c4-4bd6-8222-7c4f503887a5","system_id":"levelo_inurba_marseille","lat":43.31884,"lon":5.40739,"is_reserved":false,"is_disabled":false,"rental_uris":{"android":"levelo://app?vid=6d52e56f-d1c4-4bd6-8222-7c4f503887a5","ios":"levelo://app?vid=6d52e56f-d1c4-4bd6-8222-7c4f503887a5"},"vehicle_type_id":"4","last_reported":1753467364,"current_range_meters":17600,"station_id":"ce4bhq12rcd13ifvqhig","pricing_plan_id":"cebpf4jnsgd1na2vs0mg"},{"bike_id":"a1d5115b-997f-44a5-8b4b-21cb29757407","system_id":"levelo_inurba_marseille","lat":43.3121,"lon":5.37306,"is_reserved":false,"is_disabled":false,"rental_uris":{"android":"levelo://app?vid=a1d5115b-997f-44a5-8b4b-21cb29757407","ios":"levelo://app?vid=a1d5115b-997f-44a5-8b4b-21cb29757407"},"vehicle_type_id":"4","last_reported":1753467364,"current_range_meters":18000,"station_id":"","pricing_plan_id":"cebpf4jnsgd1na2vs0mg"},