{"last_updated":1750702481,"ttl":60,"version":"2.2","data":{"bikes":[{"bike_id":"3da29fb8-fc97-44c6-b9ac-31dd456b2fd4","system_id":"levelo_inurba_marseille","lat":43.33771,"lon":5.37424,"is_reserved":false,"is_disabled":true,"rental_uris":{"android":"levelo://app?vid=3da29fb8-fc97-44c6-b9ac-31dd456b2fd4","ios":"levelo://app?vid=3da29fb8-fc97-44c6-b9ac-31dd456b2fd4"},"vehicle_type_id":"4","last_reported":1750702481,"current_range_meters":0,"station_id":"","pricing_plan_id":"cebpf4jnsgd1na2vs0mg"},{"bike_id":"01861ad8-a8d7-4be6-816e-651927c87584","system_id":"levelo_inurba_marseille","lat":43.33751,"lon":5.37456,"is_reserved":false,"is_disabled":true,"rental_uris":{"android":"levelo://app?vid=01861ad8-a8d7-4be6-816e-651927c87584","ios":"levelo://app?vid=01861ad8-a8d7-4be6-816e-651927c87584"},"vehicle_type_id":"4","last_reported":1750702481,"current_range_meters":0,"station_id":"","pricing_plan_id":"cebpf4jnsgd1na2vs0mg"},{"bike_id":"f0a1d594-9817-42ab-a8d6-aea4947e8858","system_id":"levelo_inurba_marseille","lat":43.28797,"lon":5.43456,"is_reserved":false,"is_disabled":true,"rental_uris":{"android":"levelo://app?vid=f0a1d594-9817-42ab-a8d6-aea4947e8858","ios":"levelo://app?vid=f0a1d594-9817-42ab-a8d6-aea4947e8858"},"vehicle_type_id":"4","last_reported":1750702481,"current_range_meters":0,"station_id":"","pricing_plan_id":"cebpf4jnsgd1na2vs0mg"},{"bike_id":"38fa1014-dc0c-49c9-ad0a-4ed146026865","system_id":"levelo_inurba_marseille","lat":43.211938,"lon":5.350819,"is_reserved":false,"is_disabled":true,"rental_uris":{"android":"levelo://app?vid=38fa1014-dc0c-49c9-ad0a-4ed146026865","ios":"levelo://app?vid=38fa1014-dc0c-49c9-ad0a-4ed146026865"},"vehicle_type_id":"4","last_reported":1750702481,"current_range_meters":0,"station_id":"","pricing_plan_id":"cebpf4jnsgd1na2vs0mg"},{"bike_id":"62a493c7-4534-4419-ad43-0582de34a72a","system_id":"levelo_inurba_marseille","lat":43.21366,"lon":5.355183,"is_reserved":false,"is_disabled":true,"rental_uris":{"android":"levelo://app?vid=62a493c7-4534-4419-ad43-0582de34a72a","ios":"levelo://app?vid=62a493c7-4534-4419-ad43-0582de34a72a"},"vehicle_type_id":"4","last_reported":1750702481,"current_range_meters":0,"station_id":"","pricing_plan_id":"cebpf4jnsgd1na2vs0mg"},{"bike_id":"33615944-bcfe-40a4-9477-206b01eec142","system_id":"levelo_inurba_marseille","lat":43.29237,"lon":5.36686,"is_reserved":false,"is_disabled":true,"rental_uris":{"android":"levelo://app?vid=33615944-bcfe-40a4-9477-206b01eec142","ios":"levelo://app?vid=33615944-bcfe-40a4-9477-206b01eec142"},"vehicle_type_id":"4","last_reported":1750702481,"current_range_meters":0,"station_id":"","pricing_plan_id":"cebpf4jnsgd1na2vs0mg"},{"bike_id":"bec97e80-f20a-4137-a561-725ff16a4b68","system_id":"levelo_inurba_marseille","lat":43.2712,"lon":5.39249,"is_reserved":false,"is_disabled":true,"rental_uris":{"android":"levelo://app?vid=bec97e80-f20a-4137-a561-725ff16a4b68","ios":"levelo://app?vid=bec97e80-f20a-4137-a561-725ff16a4b68"},"vehicle_type_id":"4","last_reported":1750702481,"current_range_meters":0,"station_id":"","pricing_plan_id":"cebpf4jnsgd1na2vs0mg"},{"bike_id":"b627105c-3934-4ca1-8179-b0b3f7c80098","system_id":"levelo_inurba_marseille","lat":43.2956,"lon":5.36512,"is_reserved":false,"is_disabled":true,"rental_uris":{"android":"levelo://app?vid=b627105c-3934-4ca1-8179-b0b3f7c80098","ios":"levelo://app?vid=b627105c-3934-4ca1-8179-b0b3f7c80098"},"vehicle_type_id":"4","last_reported":1750702481,"current_range_meters":0,"station_id":"","pricing_plan_id":"cebpf4jnsgd1na2vs0mg"},{"bike_id":"91aba767-1cca-4550-b38f-d3b7ad9c97e6","system_id":"levelo_inurba_marseille","lat":43.28217,"lon":5.40373,"is_reserved":false,"is_disabled":true,"rental_uris":{"android":"levelo://app?vid=91aba767-1cca-4550-b38f-d3b7ad9c97e6","ios":"levelo://app?vid=91aba767-1cca-4550-b38f-d3b7ad9c97e6"},"vehicle_type_id":"4","last_reported":1750702481,"current_range_meters":0,"station_id":"","pricing_plan_id":"cebpf4jnsgd1na2vs0mg"},{"bike_id":"de002d9d-83b0-41e6-99fe-f9eb013d6ff3","system_id":"levelo_inurba_marseille","lat":43.21751,"lon":5.34602,"is_reserved":false,"is_disabled":true,"rental_uris":{"android":"levelo://app?vid=de002d9d-83b0-41e6-99fe-f9eb013d6ff3","ios":"levelo://app?vid=de002d9d-83b0-41e6-99fe-f9eb013d6ff3"},"vehicle_type_id":"4","last_reported":1750702481,"current_range_meters":0,"station_id":"","pricing_plan_id":"cebpf4jnsgd1na2vs0mg"},{"bike_id":"ad493fb3-a825-4f89-a635-4be1c1102b11","system_id":"levelo_inurba_marseille","lat":43.32655,"lon":5.42344,"is_reserved":false,"is_disabled":true,"rental_uris":{"android":"levelo://app?vid=ad493fb3-a825-4f89-a635-4be1c1102b11","ios":"levelo://app?vid=ad493fb3-a825-4f89-a635-4be1c1102b11"},"vehicle_type_id":"4","last_reported":1750702481,"current_range_meters":0,"station_id":"","pricing_plan_id":"cebpf4jnsgd1na2vs0mg"},{"bike_id":"3a3a1818-f20a-442b-bfcf-0e0a18008f43","system_id":"levelo_inurba_marseille","lat":43.26618,"lon":5.37459,"is_reserved":false,"is_disabled":true,"rental_uris":{"android":"levelo://app?vid=3a3a1818-f20a-442b-bfcf-0e0a18008f43","ios":"levelo://app?vid=3a3a1818-f20a-442b-bfcf-0e0a18008f43"},"vehicle_type_id":"4","last_reported":1750702481,"current_range_meters":0,"station_id":"","pricing_plan_id":"cebpf4jnsgd1na2vs0mg"},{"bike_id":"b3e9f918-1d31-4f54-8940-f16848779524","system_id":"levelo_inurba_marseille","lat":43.29576,"lon":5.38742,"is_reserved":false,"is_disabled":true,"rental_uris":{"android":"levelo://app?vid=b3e9f918-1d31-4f54-8940-f16848779524","ios":"levelo://app?vid=b3e9f918-1d31-4f54-8940-f16848779524"},"vehicle_type_id":"4","last_reported":1750702481,"current_range_meters":0,"station_id":"","pricing_plan_id":"cebpf4jnsgd1na2vs0mg"},{"bike_id":"d6609b4f-333b-43c1-9ebe-8726f5e76e88","system_id":"levelo_inurba_marseille","lat":43.337444,"lon":5.374475,"is_reserved":false,"is_disabled":true,"rental_uris":{"android":"levelo://app?vid=d6609b4f-333b-43c1-9ebe-8726f5e76e88","ios":"levelo://app?vid=d6609b4f-333b-43c1-9ebe-8726f5e76e88"},"vehicle_type_id":"4","last_reported":1750702481,"current_range_meters":0,"station_id":"","pricing_plan_id":"cebpf4jnsgd1na2vs0mg"},{"bike_id":"e33d6114-e768-4962-ac07-ecceca34b693","system_id":"levelo_inurba_marseille","lat":43.254823,"lon":5.40114,"is_reserved":false,"is_disabled":true,"rental_uris":{"android":"levelo://app?vid=e33d6114-e768-4962-ac07-ecceca34b693","ios":"levelo://app?vid=e33d6114-e768-4962-ac07-ecceca34b693"},"vehicle_type_id":"4","last_reported":1750702481,"current_range_meters":0,"station_id":"","pricing_plan_id":"cebpf4jnsgd1na2vs0mg"},{"bike_id":"88ae5b64-1dbd-48a9-b30e-c1d98d52e5a6","system_id":"levelo_inurba_marseille","lat":43.2808,"lon":5.40783,"is_reserved":false,"is_disabled":true,"rental_uris":{"android":"levelo://app?vid=88ae5b64-1dbd-48a9-b30e-c1d98d52e5a6","ios":"levelo://app?vid=88ae5b64-1dbd-48a9-b30e-c1d98d52e5a6"},"vehicle_type_id":"4","last_reported":1750702481,"current_range_meters":0,"station_id":"","pricing_plan_id":"cebpf4jnsgd1na2vs0mg"},{"bike_id":"0c86cdad-b64a-47bf-ba91-5b398064181c","system_id":"levelo_inurba_marseille","lat":43.38411,"lon":5.35853,"is_reserved":false,"is_disabled":true,"rental_uris":{"android":"levelo://app?vid=0c86cdad-b64a-47bf-ba91-5b398064181c","ios":"levelo://app?vid=0c86cdad-b64a-47bf-ba91-5b398064181c"},"vehicle_type_id":"4","last_reported":1750702481,"current_range_meters":0,"station_id":"","pricing_plan_id":"cebpf4jnsgd1na2vs0mg"},{"bike_id":"5f2f7bee-160d-4394-93fd-1f871d742678","system_id":"levelo_inurba_marseille","lat":43.29979,"lon":5.38491,"is_reserved":false,"is_disabled":true,"rental_uris":{"android":"levelo://app?vid=5f2f7bee-160d-4394-93fd-1f871d742678","ios":"levelo://app?vid=5f2f7bee-160d-4394-93fd-1f871d742678"},"vehicle_type_id":"4","last_reported":1750702481,"current_range_meters":0,"station_id":"ce4bgj92rcd13ifvqbd0","pricing_plan_id":"cebpf4jnsgd1na2vs0mg"},{"bike_id":"dc59164f-701b-4aec-bbf6-e15cc9e4be68","system_id":"levelo_inurba_marseille","lat":43.30883,"lon":5.3964,"is_reserved":false,"is_disabled":true,"rental_uris":{"android":"levelo://app?vid=dc59164f-701b-4aec-bbf6-e15cc9e4be68","ios":"levelo://app?vid=dc59164f-701b-4aec-bbf6-e15cc9e4be68"},"vehicle_type_id":"4","last_reported":1750702481,"current_range_meters":0,"station_id":"ce4bh012rcd13ifvqcv0","pricing_plan_id":"cebpf4jnsgd1na2vs0mg"},{"bike_id":"23b31c04-c4f9-4601-87b8-a83a9c708255","system_id":"levelo_inurba_marseille","lat":43.28861,"lon":5.39319,"is_reserved":false,"is_disabled":true,"rental_uris":{"android":"levelo://app?vid=23b31c04-c4f9-4601-87b8-a83a9c708255","ios":"levelo://app?vid=23b31c04-c4f9-4601-87b8-a83a9c708255"},"vehicle_type_id":"4","last_reported":1750702481,"current_range_meters":0,"station_id":"ce4bh2p2rcd13ifvqdi0","pricing_plan_id":"cebpf4jnsgd1na2vs0mg"},{"bike_id":"333e8d0c-a0f5-40ba-80be-378df9c80f29","system_id":"levelo_inurba_marseille","lat":43.29454,"lon":5.39749,"is_reserved":false,"is_disabled":true,"rental_uris":{"android":"levelo://app?vid=333e8d0c-a0f5-40ba-80be-378df9c80f29","ios":"levelo://app?vid=333e8d0c-a0f5-40ba-80be-378df9c80f29"},"vehicle_type_id":"4","last_reported":1750702481,"current_range_meters":0,"station_id":"ce4bh3h2rcd13ifvqdo0","pricing_plan_id":"cebpf4jnsgd1na2vs0mg"},{"bike_id":"de2011f5-7cb2-4878-94f9-f8124b8f1bdc","system_id":"levelo_inurba_marseille","lat":43.284894,"lon":5.384239,"is_reserved":false,"is_disabled":true,"rental_uris":{"android":"levelo://app?vid=de2011f5-7cb2-4878-94f9-f8124b8f1bdc","ios":"levelo://app?vid=de2011f5-7cb2-4878-94f9-f8124b8f1bdc"},"vehicle_type_id":"4","last_reported":1750702481,"current_range_meters":0,"station_id":"ce4bh512rcd13ifvqe3g","pricing_plan_id":"cebpf4jnsgd1na2vs0mg"},{"bike_id":"54571f5e-9b5b-4495-ba87-4153b6462e64","system_id":"levelo_inurba_marseille","lat":43.28484,"lon":5.38551,"is_reserved":false,"is_disabled":true,"rental_uris":{"android":"levelo://app?vid=54571f5e-9b5b-4495-ba87-4153b6462e64","ios":"levelo://app?vid=54571f5e-9b5b-4495-ba87-4153b6462e64"},"vehicle_type_id":"4","last_reported":1750702481,"current_range_meters":0,"station_id":"ce4bh8p2rcd13ifvqeb0","pricing_plan_id":"cebpf4jnsgd1na2vs0mg"},{"bike_id":"e1238a65-2004-4f28-a437-bdda7caf68a5","system_id":"levelo_inurba_marseille","lat":43.273761,"lon":5.362589,"is_reserved":false,"is_disabled":true,"rental_uris":{"android":"levelo://app?vid=e1238a65-2004-4f28-a437-bdda7caf68a5","ios":"levelo://app?vid=e1238a65-2004-4f28-a437-bdda7caf68a5"},"vehicle_type_id":"4","last_reported":1750702481,"current_range_meters":0,"station_id":"ce4bhbh2rcd13ifvqeo0","pricing_plan_id":"cebpf4jnsgd1na2vs0mg"},{"bike_id":"f8925649-4019-4e10-8f40-7550574402d5","system_id":"levelo_inurba_marseille","lat":43.273712,"lon":5.362569,"is_reserved":false,"is_disabled":true,"rental_uris":{"android":"levelo://app?vid=f8925649-4019-4e10-8f40-7550574402d5","ios":"levelo://app?vid=f8925649-4019-4e10-8f40-7550574402d5"},"vehicle_type_id":"4","last_reported":1750702481,"current_range_meters":0,"station_id":"ce4bhbh2rcd13ifvqeo0","pricing_plan_id":"cebpf4jnsgd1na2vs0mg"},{"bike_id":"20677153-a7d3-4693-a014-c9fe21309f4c","system_id":"levelo_inurba_marseille","lat":43.28616,"lon":5.35104,"is_reserved":false,"is_disabled":true,"rental_uris":{"android":"levelo://app?vid=20677153-a7d3-4693-a014-c9fe21309f4c","ios":"levelo://app?vid=20677153-a7d3-4693-a014-c9fe21309f4c"},"vehicle_type_id":"4","last_reported":1750702481,"current_range_meters":0,"station_id":"ce4bhch2rcd13ifvqeug","pricing_plan_id":"cebpf4jnsgd1na2vs0mg"},{"bike_id":"a443ad5b-5655-4ac7-87b0-15e15e47ac15","system_id":"levelo_inurba_marseille","lat":43.25502,"lon":5.37652,"is_reserved":false,"is_disabled":false,"rental_uris":{"android":"levelo://app?vid=a443ad5b-5655-4ac7-87b0-15e15e47ac15","ios":"levelo://app?vid=a443ad5b-5655-4ac7-87b0-15e15e47ac15"},"vehicle_type_id":"4","last_reported":1750702481,"current_range_meters":0,"station_id":"ce4bhh12rcd13ifvqff0","pricing_plan_id":"cebpf4jnsgd1na2vs0mg"},{"bike_id":"5f22c392-9081-45ed-89aa-d89b246e55c0","system_id":"levelo_inurba_marseille","lat":43.2757,"lon":5.38414,"is_reserved":false,"is_disabled":true,"rental_uris":{"android":"levelo://app?vid=5f22c392-9081-45ed-89aa-d89b246e55c0","ios":"levelo://app?vid=5f22c392-9081-45ed-89aa-d89b246e55c0"},"vehicle_type_id":"4","last_reported":1750702481,"current_range_meters":0,"station_id":"ce4bhh92rcd13ifvqfi0","pricing_plan_id":"cebpf4jnsgd1na2vs0mg"},{"bike_id":"9620012a-d6a0-497c-8fcd-781d3dde8f26","system_id":"levelo_inurba_marseille","lat":43.30366,"lon":5.42477,"is_reserved":false,"is_disabled":true,"rental_uris":{"android":"levelo://app?vid=9620012a-d6a0-497c-8fcd-781d3dde8f26","ios":"levelo://app?vid=9620012a-d6a0-497c-8fcd-781d3dde8f26"},"vehicle_type_id":"4","last_reported":1750702481,"current_range_meters":0,"station_id":"ce4bhoh2rcd13ifvqh6g","pricing_plan_id":"cebpf4jnsgd1na2vs0mg"},{"bike_id":"c97d875c-093c-4a18-88bd-0f2c53778776","system_id":"levelo_inurba_marseille","lat":43.303947,"lon":5.409903,"is_reserved":false,"is_disabled":true,"rental_uris":{"android":"levelo://app?vid=c97d875c-093c-4a18-88bd-0f2c53778776","ios":"levelo://app?vid=c97d875c-093c-4a18-88bd-0f2c53778776"},"vehicle_type_id":"4","last_reported":1750702481,"current_range_meters":0,"station_id":"ce4bhop2rcd13ifvqh8g","pricing_plan_id":"cebpf4jnsgd1na2vs0mg"},{"bike_id":"1d23de78-f281-4b16-92b3-051a5a349a5f","system_id":"levelo_inurba_marseille","lat":43.30415,"lon":5.41285,"is_reserved":false,"is_disabled":true,"rental_uris":{"android":"levelo://app?vid=1d23de78-f281-4b16-92b3-051a5a349a5f","ios":"levelo://app?vid=1d23de78-f281-4b16-92b3-051a5a349a5f"},"vehicle_type_id":"4","last_reported":1750702481,"current_range_meters":0,"station_id":"ce4bhop2rcd13ifvqh8g","pricing_plan_id":"cebpf4jnsgd1na2vs0mg"},{"bike_id":"fbbb8d81-83b6-4e6a-817e-c246e27095a3","system_id":"levelo_inurba_marseille","lat":43.29967,"lon":5.41315,"is_reserved":false,"is_disabled":true,"rental_uris":{"android":"levelo://app?vid=fbbb8d81-83b6-4e6a-817e-c246e27095a3","ios":"levelo://app?vid=fbbb8d81-83b6-4e6a-817e-c246e27095a3"},"vehicle_type_id":"4","last_reported":1750702481,"current_range_meters":0,"station_id":"ce4bhp12rcd13ifvqh9g","pricing_plan_id":"cebpf4jnsgd1na2vs0mg"},{"bike_id":"8683e1ce-b4fd-48f0-8c87-cc8a449ee301","system_id":"levelo_inurba_marseille","lat":43.292,"lon":5.39307,"is_reserved":false,"is_disabled":true,"rental_uris":{"android":"levelo://app?vid=8683e1ce-b4fd-48f0-8c87-cc8a449ee301","ios":"levelo://app?vid=8683e1ce-b4fd-48f0-8c87-cc8a449ee301"},"vehicle_type_id":"4","last_reported":1750702481,"current_range_meters":400,"station_id":"ce4bh192rcd13ifvqdd0","pricing_plan_id":"cebpf4jnsgd1na2vs0mg"},{"bike_id":"99860d91-16d0-4839-a1b5-1d610795bf0d","system_id":"levelo_inurba_marseille","lat":43.27951,"lon":5.41039,"is_reserved":false,"is_disabled":true,"rental_uris":{"android":"levelo://app?vid=99860d91-16d0-4839-a1b5-1d610795bf0d","ios":"levelo://app?vid=99860d91-16d0-4839-a1b5-1d610795bf0d"},"vehicle_type_id":"4","last_reported":1750702481,"current_range_meters":400,"station_id":"ce4bhnp2rcd13ifvqh0g","pricing_plan_id":"cebpf4jnsgd1na2vs0mg"},{"bike_id":"d153f35d-b44d-45b3-822b-e8ea2eb86266","system_id":"levelo_inurba_marseille","lat":43.27997,"lon":5.41669,"is_reserved":false,"is_disabled":true,"rental_uris":{"android":"levelo://app?vid=d153f35d-b44d-45b3-822b-e8ea2eb86266","ios":"levelo://app?vid=d153f35d-b44d-45b3-822b-e8ea2eb86266"},"vehicle_type_id":"4","last_reported":1750702481,"current_range_meters":400,"station_id":"ce4bho12rcd13ifvqh1g","pricing_plan_id":"cebpf4jnsgd1na2vs0mg"},{"bike_id":"08fa03b5-d9d6-4e04-bbd4-654303aeae57","system_id":"levelo_inurba_marseille","lat":43.30298,"lon":5.396974,"is_reserved":false,"is_disabled":true,"rental_uris":{"android":"levelo://app?vid=08fa03b5-d9d6-4e04-bbd4-654303aeae57","ios":"levelo://app?vid=08fa03b5-d9d6-4e04-bbd4-654303aeae57"},"vehicle_type_id":"4","last_reported":1750702481,"current_range_meters":800,"station_id":"","pricing_plan_id":"cebpf4jnsgd1na2vs0mg"},{"bike_id":"a66f85b3-f692-41aa-98b6-3f97b9a3f52d","system_id":"levelo_inurba_marseille","lat":43.22806,"lon":5.34938,"is_reserved":false,"is_disabled":true,"rental_uris":{"android":"levelo://app?vid=a66f85b3-f692-41aa-98b6-3f97b9a3f52d","ios":"levelo://app?vid=a66f85b3-f692-41aa-98b6-3f97b9a3f52d"},"vehicle_type_id":"4","last_reported":1750702481,"current_range_meters":800,"station_id":"","pricing_plan_id":"cebpf4jnsgd1na2vs0mg"},{"bike_id":"fb33ef32-9d57-42a1-bc47-b5fe9456c1fc","system_id":"levelo_inurba_marseille","lat":43.30303,"lon":5.39211,"is_reserved":false,"is_disabled":true,"rental_uris":{"android":"levelo://app?vid=fb33ef32-9d57-42a1-bc47-b5fe9456c1fc","ios":"levelo://app?vid=fb33ef32-9d57-42a1-bc47-b5fe9456c1fc"},"vehicle_type_id":"4","last_reported":1750702481,"current_range_meters":800,"station_id":"ce4bgkh2rcd13ifvqbk0","pricing_plan_id":"cebpf4jnsgd1na2vs0mg"},{"bike_id":"786bcaf7-aaed-414c-91e1-724c4d825040","system_id":"levelo_inurba_marseille","lat":43.31318,"lon":5.39682,"is_reserved":false,"is_disabled":true,"rental_uris":{"android":"levelo://app?vid=786bcaf7-aaed-414c-91e1-724c4d825040","ios":"levelo://app?vid=786bcaf7-aaed-414c-91e1-724c4d825040"},"vehicle_type_id":"4","last_reported":1750702481,"current_range_meters":800,"station_id":"ce4bgvp2rcd13ifvqcu0","pricing_plan_id":"cebpf4jnsgd1na2vs0mg"},{"bike_id":"3316a2de-5b89-4ab1-88a1-85f83ad335dc","system_id":"levelo_inurba_marseille","lat":43.32332,"lon":5.40627,"is_reserved":false,"is_disabled":true,"rental_uris":{"android":"levelo://app?vid=3316a2de-5b89-4ab1-88a1-85f83ad335dc","ios":"levelo://app?vid=3316a2de-5b89-4ab1-88a1-85f83ad335dc"},"vehicle_type_id":"4","last_reported":1750702481,"current_range_meters":800,"station_id":"ce4bhq92rcd13ifvqhjg","pricing_plan_id":"cebpf4jnsgd1na2vs0mg"},{"bike_id":"27d0da21-fd2b-4433-bc60-5e6185b40adf","system_id":"levelo_inurba_marseille","lat":43.31484,"lon":5.37307,"is_reserved":false,"is_disabled":true,"rental_uris":{"android":"levelo://app?vid=27d0da21-fd2b-4433-bc60-5e6185b40adf","ios":"levelo://app?vid=27d0da21-fd2b-4433-bc60-5e6185b40adf"},"vehicle_type_id":"4","last_reported":1750702481,"current_range_meters":1200,"station_id":"ce4bgt12rcd13ifvqcd0","pricing_plan_id":"cebpf4jnsgd1na2vs0mg"},{"bike_id":"73cd6779-60f3-4396-9dc2-89dfefa94b5b","system_id":"levelo_inurba_marseille","lat":43.31725,"lon":5.40428,"is_reserved":false,"is_disabled":true,"rental_uris":{"android":"levelo://app?vid=73cd6779-60f3-4396-9dc2-89dfefa94b5b","ios":"levelo://app?vid=73cd6779-60f3-4396-9dc2-89dfefa94b5b"},"vehicle_type_id":"4","last_reported":1750702481,"current_range_meters":1200,"station_id":"ce4bh012rcd13ifvqd00","pricing_plan_id":"cebpf4jnsgd1na2vs0mg"},{"bike_id":"fbfb6d81-a19b-4c39-b03c-6735d016a58f","system_id":"levelo_inurba_marseille","lat":43.292694,"lon":5.384378,"is_reserved":false,"is_disabled":true,"rental_uris":{"android":"levelo://app?vid=fbfb6d81-a19b-4c39-b03c-6735d016a58f","ios":"levelo://app?vid=fbfb6d81-a19b-4c39-b03c-6735d016a58f"},"vehicle_type_id":"4","last_reported":1750702481,"current_range_meters":1200,"station_id":"ce4bh692rcd13ifvqea0","pricing_plan_id":"cebpf4jnsgd1na2vs0mg"},{"bike_id":"cbb29eb6-7c6e-4e0b-b067-41831f16cffb","system_id":"levelo_inurba_marseille","lat":43.280436,"lon":5.369356,"is_reserved":false,"is_disabled":true,"rental_uris":{"android":"levelo://app?vid=cbb29eb6-7c6e-4e0b-b067-41831f16cffb","ios":"levelo://app?vid=cbb29eb6-7c6e-4e0b-b067-41831f16cffb"},"vehicle_type_id":"4","last_reported":1750702481,"current_range_meters":1200,"station_id":"ce4bha12rcd13ifvqef0","pricing_plan_id":"cebpf4jnsgd1na2vs0mg"},{"bike_id":"c3492915-83f4-4377-8d33-3def4fcb4560","system_id":"levelo_inurba_marseille","lat":43.28453,"lon":5.35891,"is_reserved":false,"is_disabled":true,"rental_uris":{"android":"levelo://app?vid=c3492915-83f4-4377-8d33-3def4fcb4560","ios":"levelo://app?vid=c3492915-83f4-4377-8d33-3def4fcb4560"},"vehicle_type_id":"4","last_reported":1750702481,"current_range_meters":1200,"station_id":"ce4bhah2rcd13ifvqei0","pricing_plan_id":"cebpf4jnsgd1na2vs0mg"},{"bike_id":"13716b9c-3845-43e9-aa6f-b092429b38dc","system_id":"levelo_inurba_marseille","lat":43.29191,"lon":5.35809,"is_reserved":false,"is_disabled":true,"rental_uris":{"android":"levelo://app?vid=13716b9c-3845-43e9-aa6f-b092429b38dc","ios":"levelo://app?vid=13716b9c-3845-43e9-aa6f-b092429b38dc"},"vehicle_type_id":"4","last_reported":1750702481,"current_range_meters":1200,"station_id":"ce4bhb12rcd13ifvqel0","pricing_plan_id":"cebpf4jnsgd1na2vs0mg"},{"bike_id":"62d80464-977b-4115-b889-e2d8eaa4d9ae","system_id":"levelo_inurba_marseille","lat":43.30412,"lon":5.4129,"is_reserved":false,"is_disabled":true,"rental_uris":{"android":"levelo://app?vid=62d80464-977b-4115-b889-e2d8eaa4d9ae","ios":"levelo://app?vid=62d80464-977b-4115-b889-e2d8eaa4d9ae"},"vehicle_type_id":"4","last_reported":1750702481,"current_range_meters":1200,"station_id":"ce4bhop2rcd13ifvqh8g","pricing_plan_id":"cebpf4jnsgd1na2vs0mg"},{"bike_id":"a885eafb-a5f6-4dc7-84e4-1aaf30acc892","system_id":"levelo_inurba_marseille","lat":43.22927,"lon":5.35373,"is_reserved":false,"is_disabled":true,"rental_uris":{"android":"levelo://app?vid=a885eafb-a5f6-4dc7-84e4-1aaf30acc892","ios":"levelo://app?vid=a885eafb-a5f6-4dc7-84e4-1aaf30acc892"},"vehicle_type_id":"4","last_reported":1750702481,"current_range_meters":1200,"station_id":"cpo3532slgdg3j2ikp40","pricing_plan_id":"cebpf4jnsgd1na2vs0mg"},{"bike_id":"aed74840-f9df-4b24-a8f2-c9cc47d925ca","system_id":"levelo_inurba_marseille","lat":43.282297,"lon":5.390523,"is_reserved":false,"is_disabled":true,"rental_uris":{"android":"levelo://app?vid=aed74840-f9df-4b24-a8f2-c9cc47d925ca","ios":"levelo://app?vid=aed74840-f9df-4b24-a8f2-c9cc47d925ca"},"vehicle_type_id":"4","last_reported":1750702481,"current_range_meters":1600,"station_id":"","pricing_plan_id":"cebpf4jnsgd1na2vs0mg"},{"bike_id":"93599700-c6f8-488c-a48c-dd7e5735e5ca","system_id":"levelo_inurba_marseille","lat":43.31178,"lon":5.38721,"is_reserved":false,"is_disabled":false,"rental_uris":{"android":"levelo://app?vid=93599700-c6f8-488c-a48c-dd7e5735e5ca","ios":"levelo://app?vid=93599700-c6f8-488c-a48c-dd7e5735e5ca"},"vehicle_type_id":"4","last_reported":1750702481,"current_range_meters":1600,"station_id":"ce4bgv12rcd13ifvqcp0","pricing_plan_id":"cebpf4jnsgd1na2vs0mg"},{"bike_id":"868fd27f-052f-49c9-8219-44d640951ffc","system_id":"levelo_inurba_marseille","lat":43.292603,"lon":5.384384,"is_reserved":false,"is_disabled":true,"rental_uris":{"android":"levelo://app?vid=868fd27f-052f-49c9-8219-44d640951ffc","ios":"levelo://app?vid=868fd27f-052f-49c9-8219-44d640951ffc"},"vehicle_type_id":"4","last_reported":1750702481,"current_range_meters":1600,"station_id":"ce4bh692rcd13ifvqea0","pricing_plan_id":"cebpf4jnsgd1na2vs0mg"},{"bike_id":"8ede082e-0157-4f38-91da-65b18f82ef62","system_id":"levelo_inurba_marseille","lat":43.299608,"lon":5.413333,"is_reserved":false,"is_disabled":true,"rental_uris":{"android":"levelo://app?vid=8ede082e-0157-4f38-91da-65b18f82ef62","ios":"levelo://app?vid=8ede082e-0157-4f38-91da-65b18f82ef62"},"vehicle_type_id":"4","last_reported":1750702481,"current_range_meters":1600,"station_id":"ce4bhp12rcd13ifvqh9g","pricing_plan_id":"cebpf4jnsgd1na2vs0mg"},{"bike_id":"139d47bd-ff87-42d8-a4c6-89da4be6f80c","system_id":"levelo_inurba_marseille","lat":43.27951,"lon":5.4418,"is_reserved":false,"is_disabled":true,"rental_uris":{"android":"levelo://app?vid=139d47bd-ff87-42d8-a4c6-89da4be6f80c","ios":"levelo://app?vid=139d47bd-ff87-42d8-a4c6-89da4be6f80c"},"vehicle_type_id":"4","last_reported":1750702481,"current_range_meters":2000,"station_id":"","pricing_plan_id":"cebpf4jnsgd1na2vs0mg"},{"bike_id":"8dd9df6c-b126-451f-9a76-70628e27eebc","system_id":"levelo_inurba_marseille","lat":43.293848,"lon":5.373368,"is_reserved":false,"is_disabled":true,"rental_uris":{"android":"levelo://app?vid=8dd9df6c-b126-451f-9a76-70628e27eebc","ios":"levelo://app?vid=8dd9df6c-b126-451f-9a76-70628e27eebc"},"vehicle_type_id":"4","last_reported":1750702481,"current_range_meters":2000,"station_id":"ce4bgqh2rcd13ifvqc5g","pricing_plan_id":"cebpf4jnsgd1na2vs0mg"},{"bike_id":"43764b71-2fcd-4da7-aa0c-ab3e3a4fdd72","system_id":"levelo_inurba_marseille","lat":43.28699,"lon":5.39994,"is_reserved":false,"is_disabled":true,"rental_uris":{"android":"levelo://app?vid=43764b71-2fcd-4da7-aa0c-ab3e3a4fdd72","ios":"levelo://app?vid=43764b71-2fcd-4da7-aa0c-ab3e3a4fdd72"},"vehicle_type_id":"4","last_reported":1750702481,"current_range_meters":2000,"station_id":"ce4bho92rcd13ifvqh3g","pricing_plan_id":"cebpf4jnsgd1na2vs0mg"},{"bike_id":"315d89df-fb8c-40e9-bd02-a7881e6f4613","system_id":"levelo_inurba_marseille","lat":43.29195,"lon":5.40001,"is_reserved":false,"is_disabled":false,"rental_uris":{"android":"levelo://app?vid=315d89df-fb8c-40e9-bd02-a7881e6f4613","ios":"levelo://app?vid=315d89df-fb8c-40e9-bd02-a7881e6f4613"},"vehicle_type_id":"4","last_reported":1750702481,"current_range_meters":2800,"station_id":"","pricing_plan_id":"cebpf4jnsgd1na2vs0mg"},{"bike_id":"c91ae8f1-e7db-4b2d-adb4-6f40133c7ca4","system_id":"levelo_inurba_marseille","lat":43.26195,"lon":5.37448,"is_reserved":false,"is_disabled":false,"rental_uris":{"android":"levelo://app?vid=c91ae8f1-e7db-4b2d-adb4-6f40133c7ca4","ios":"levelo://app?vid=c91ae8f1-e7db-4b2d-adb4-6f40133c7ca4"},"vehicle_type_id":"4","last_reported":1750702481,"current_range_meters":2800,"station_id":"ce4bhgp2rcd13ifvqfc0","pricing_plan_id":"cebpf4jnsgd1na2vs0mg"},{"bike_id":"9cb193d0-906b-4ac2-85c5-eea810b1d20f","system_id":"levelo_inurba_marseille","lat":43.2944,"lon":5.432,"is_reserved":false,"is_disabled":false,"rental_uris":{"android":"levelo://app?vid=9cb193d0-906b-4ac2-85c5-eea810b1d20f","ios":"levelo://app?vid=9cb193d0-906b-4ac2-85c5-eea810b1d20f"},"vehicle_type_id":"4","last_reported":1750702481,"current_range_meters":3200,"station_id":"","pricing_plan_id":"cebpf4jnsgd1na2vs0mg"},{"bike_id":"0ccd24b7-588b-4acd-b1f4-59a71facf9e8","system_id":"levelo_inurba_marseille","lat":43.252995,"lon":5.40434,"is_reserved":false,"is_disabled":false,"rental_uris":{"android":"levelo://app?vid=0ccd24b7-588b-4acd-b1f4-59a71facf9e8","ios":"levelo://app?vid=0ccd24b7-588b-4acd-b1f4-59a71facf9e8"},"vehicle_type_id":"4","last_reported":1750702481,"current_range_meters":3200,"station_id":"","pricing_plan_id":"cebpf4jnsgd1na2vs0mg"},{"bike_id":"de707624-8f27-45ae-9f76-22f487188bbf","system_id":"levelo_inurba_marseille","lat":43.30811,"lon":5.38155,"is_reserved":false,"is_disabled":false,"rental_uris":{"android":"levelo://app?vid=de707624-8f27-45ae-9f76-22f487188bbf","ios":"levelo://app?vid=de707624-8f27-45ae-9f76-22f487188bbf"},"vehicle_type_id":"4","last_reported":1750702481,"current_range_meters":3200,"station_id":"ce4bgt12rcd13ifvqce0","pricing_plan_id":"cebpf4jnsgd1na2vs0mg"},{"bike_id":"6b228003-59e5-405f-8855-0589b8866bb2","system_id":"levelo_inurba_marseille","lat":43.29875,"lon":5.38907,"is_reserved":false,"is_disabled":false,"rental_uris":{"android":"levelo://app?vid=6b228003-59e5-405f-8855-0589b8866bb2","ios":"levelo://app?vid=6b228003-59e5-405f-8855-0589b8866bb2"},"vehicle_type_id":"4","last_reported":1750702481,"current_range_meters":3200,"station_id":"ce4bh392rcd13ifvqdl0","pricing_plan_id":"cebpf4jnsgd1na2vs0mg"},{"bike_id":"0503e1d2-ec4f-4cb3-9ea6-e4f3eb558d3e","system_id":"levelo_inurba_marseille","lat":43.29928,"lon":5.36939,"is_reserved":false,"is_disabled":false,"rental_uris":{"android":"levelo://app?vid=0503e1d2-ec4f-4cb3-9ea6-e4f3eb558d3e","ios":"levelo://app?vid=0503e1d2-ec4f-4cb3-9ea6-e4f3eb558d3e"},"vehicle_type_id":"4","last_reported":1750702481,"current_range_meters":3600,"station_id":"","pricing_plan_id":"cebpf4jnsgd1na2vs0mg"},{"bike_id":"6736d085-a402-4d53-910d-c00fd6cb156c","system_id":"levelo_inurba_marseille","lat":43.273766,"lon":5.362629,"is_reserved":false,"is_disabled":false,"rental_uris":{"android":"levelo://app?vid=6736d085-a402-4d53-910d-c00fd6cb156c","ios":"levelo://app?vid=6736d085-a402-4d53-910d-c00fd6cb156c"},"vehicle_type_id":"4","last_reported":1750702481,"current_range_meters":3600,"station_id":"ce4bhbh2rcd13ifvqeo0","pricing_plan_id":"cebpf4jnsgd1na2vs0mg"},{"bike_id":"2ab1bb34-6d42-48dd-941c-7e940e484e08","system_id":"levelo_inurba_marseille","lat":43.32981,"lon":5.39066,"is_reserved":false,"is_disabled":false,"rental_uris":{"android":"levelo://app?vid=2ab1bb34-6d42-48dd-941c-7e940e484e08","ios":"levelo://app?vid=2ab1bb34-6d42-48dd-941c-7e940e484e08"},"vehicle_type_id":"4","last_reported":1750702481,"current_range_meters":3600,"station_id":"ce4bhr92rcd13ifvqhrg","pricing_plan_id":"cebpf4jnsgd1na2vs0mg"},{"bike_id":"3d07ef76-af52-42e0-81f1-5f4963c9ee29","system_id":"levelo_inurba_marseille","lat":43.2949,"lon":5.43852,"is_reserved":false,"is_disabled":false,"rental_uris":{"android":"levelo://app?vid=3d07ef76-af52-42e0-81f1-5f4963c9ee29","ios":"levelo://app?vid=3d07ef76-af52-42e0-81f1-5f4963c9ee29"},"vehicle_type_id":"4","last_reported":1750702481,"current_range_meters":4000,"station_id":"","pricing_plan_id":"cebpf4jnsgd1na2vs0mg"},{"bike_id":"2771ae39-7805-421f-ace5-bbddc01fce8a","system_id":"levelo_inurba_marseille","lat":43.31176,"lon":5.38712,"is_reserved":false,"is_disabled":false,"rental_uris":{"android":"levelo://app?vid=2771ae39-7805-421f-ace5-bbddc01fce8a","ios":"levelo://app?vid=2771ae39-7805-421f-ace5-bbddc01fce8a"},"vehicle_type_id":"4","last_reported":1750702481,"current_range_meters":4000,"station_id":"ce4bgv12rcd13ifvqcp0","pricing_plan_id":"cebpf4jnsgd1na2vs0mg"},{"bike_id":"fd991ba7-e675-49d6-afb2-a8ba7ae975a1","system_id":"levelo_inurba_marseille","lat":43.28422,"lon":5.34983,"is_reserved":false,"is_disabled":false,"rental_uris":{"android":"levelo://app?vid=fd991ba7-e675-49d6-afb2-a8ba7ae975a1","ios":"levelo://app?vid=fd991ba7-e675-49d6-afb2-a8ba7ae975a1"},"vehicle_type_id":"4","last_reported":1750702481,"current_range_meters":4000,"station_id":"ce4bhbh2rcd13ifvqepg","pricing_plan_id":"cebpf4jnsgd1na2vs0mg"},{"bike_id":"2b997f50-c358-4845-bc9d-57f151b68d68","system_id":"levelo_inurba_marseille","lat":43.30918,"lon":5.40152,"is_reserved":false,"is_disabled":false,"rental_uris":{"android":"levelo://app?vid=2b997f50-c358-4845-bc9d-57f151b68d68","ios":"levelo://app?vid=2b997f50-c358-4845-bc9d-57f151b68d68"},"vehicle_type_id":"4","last_reported":1750702481,"current_range_meters":4400,"station_id":"ce4bgvp2rcd13ifvqct0","pricing_plan_id":"cebpf4jnsgd1na2vs0mg"},{"bike_id":"6681c0e9-14a8-41fa-b7ef-ba7cedcc0c8a","system_id":"levelo_inurba_marseille","lat":43.294128,"lon":5.386204,"is_reserved":false,"is_disabled":false,"rental_uris":{"android":"levelo://app?vid=6681c0e9-14a8-41fa-b7ef-ba7cedcc0c8a","ios":"levelo://app?vid=6681c0e9-14a8-41fa-b7ef-ba7cedcc0c8a"},"vehicle_type_id":"4","last_reported":1750702481,"current_range_meters":4400,"station_id":"ce4bh2h2rcd13ifvqdh0","pricing_plan_id":"cebpf4jnsgd1na2vs0mg"},{"bike_id":"9ddcdd8e-26e7-4fb6-9661-11d28bc7c55b","system_id":"levelo_inurba_marseille","lat":43.28424,"lon":5.375,"is_reserved":false,"is_disabled":false,"rental_uris":{"android":"levelo://app?vid=9ddcdd8e-26e7-4fb6-9661-11d28bc7c55b","ios":"levelo://app?vid=9ddcdd8e-26e7-4fb6-9661-11d28bc7c55b"},"vehicle_type_id":"4","last_reported":1750702481,"current_range_meters":4400,"station_id":"ce4bh412rcd13ifvqds0","pricing_plan_id":"cebpf4jnsgd1na2vs0mg"},{"bike_id":"efa9657d-3ee1-47d1-a78c-8258bde3487a","system_id":"levelo_inurba_marseille","lat":43.269276,"lon":5.385984,"is_reserved":false,"is_disabled":false,"rental_uris":{"android":"levelo://app?vid=efa9657d-3ee1-47d1-a78c-8258bde3487a","ios":"levelo://app?vid=efa9657d-3ee1-47d1-a78c-8258bde3487a"},"vehicle_type_id":"4","last_reported":1750702481,"current_range_meters":4400,"station_id":"ce4bhh92rcd13ifvqfh0","pricing_plan_id":"cebpf4jnsgd1na2vs0mg"},{"bike_id":"9ae4c43a-c295-4ee1-90bc-135a6e1245ce","system_id":"levelo_inurba_marseille","lat":43.27179,"lon":5.41001,"is_reserved":false,"is_disabled":false,"rental_uris":{"android":"levelo://app?vid=9ae4c43a-c295-4ee1-90bc-135a6e1245ce","ios":"levelo://app?vid=9ae4c43a-c295-4ee1-90bc-135a6e1245ce"},"vehicle_type_id":"4","last_reported":1750702481,"current_range_meters":4400,"station_id":"ce4bhl12rcd13ifvqgf0","pricing_plan_id":"cebpf4jnsgd1na2vs0mg"},{"bike_id":"196eb7bf-8632-4ce7-8b1b-ea0354867cba","system_id":"levelo_inurba_marseille","lat":43.27971,"lon":5.38728,"is_reserved":false,"is_disabled":false,"rental_uris":{"android":"levelo://app?vid=196eb7bf-8632-4ce7-8b1b-ea0354867cba","ios":"levelo://app?vid=196eb7bf-8632-4ce7-8b1b-ea0354867cba"},"vehicle_type_id":"4","last_reported":1750702481,"current_range_meters":4800,"station_id":"ce4bhg12rcd13ifvqf80","pricing_plan_id":"cebpf4jnsgd1na2vs0mg"},{"bike_id":"61c57eee-a3aa-465b-a99d-d441da536630","system_id":"levelo_inurba_marseille","lat":43.27567,"lon":5.38423,"is_reserved":false,"is_disabled":false,"rental_uris":{"android":"levelo://app?vid=61c57eee-a3aa-465b-a99d-d441da536630","ios":"levelo://app?vid=61c57eee-a3aa-465b-a99d-d441da536630"},"vehicle_type_id":"4","last_reported":1750702481,"current_range_meters":4800,"station_id":"ce4bhh92rcd13ifvqfi0","pricing_plan_id":"cebpf4jnsgd1na2vs0mg"},{"bike_id":"4a36fa9f-925a-4985-804f-cb3c4e73800e","system_id":"levelo_inurba_marseille","lat":43.28696,"lon":5.35194,"is_reserved":false,"is_disabled":false,"rental_uris":{"android":"levelo://app?vid=4a36fa9f-925a-4985-804f-cb3c4e73800e","ios":"levelo://app?vid=4a36fa9f-925a-4985-804f-cb3c4e73800e"},"vehicle_type_id":"4","last_reported":1750702481,"current_range_meters":5600,"station_id":"","pricing_plan_id":"cebpf4jnsgd1na2vs0mg"},{"bike_id":"56dc936c-5402-44b0-9f77-09793d9a5398","system_id":"levelo_inurba_marseille","lat":43.30884,"lon":5.39629,"is_reserved":false,"is_disabled":false,"rental_uris":{"android":"levelo://app?vid=56dc936c-5402-44b0-9f77-09793d9a5398","ios":"levelo://app?vid=56dc936c-5402-44b0-9f77-09793d9a5398"},"vehicle_type_id":"4","last_reported":1750702481,"current_range_meters":5600,"station_id":"ce4bh012rcd13ifvqcv0","pricing_plan_id":"cebpf4jnsgd1na2vs0mg"},{"bike_id":"a0a9d7ad-3558-48b2-ad65-55ff43b93fac","system_id":"levelo_inurba_marseille","lat":43.25828,"lon":5.39433,"is_reserved":false,"is_disabled":false,"rental_uris":{"android":"levelo://app?vid=a0a9d7ad-3558-48b2-ad65-55ff43b93fac","ios":"levelo://app?vid=a0a9d7ad-3558-48b2-ad65-55ff43b93fac"},"vehicle_type_id":"4","last_reported":1750702481,"current_range_meters":5600,"station_id":"ce4bhip2rcd13ifvqft0","pricing_plan_id":"cebpf4jnsgd1na2vs0mg"},{"bike_id":"e672c7ab-9539-485a-b360-1e12bbab178b","system_id":"levelo_inurba_marseille","lat":43.30334,"lon":5.43501,"is_reserved":false,"is_disabled":false,"rental_uris":{"android":"levelo://app?vid=e672c7ab-9539-485a-b360-1e12bbab178b","ios":"levelo://app?vid=e672c7ab-9539-485a-b360-1e12bbab178b"},"vehicle_type_id":"4","last_reported":1750702481,"current_range_meters":6000,"station_id":"","pricing_plan_id":"cebpf4jnsgd1na2vs0mg"},{"bike_id":"8bd0fc2e-dcc5-437e-838d-5e42ae252ef1","system_id":"levelo_inurba_marseille","lat":43.31326,"lon":5.39695,"is_reserved":false,"is_disabled":false,"rental_uris":{"android":"levelo://app?vid=8bd0fc2e-dcc5-437e-838d-5e42ae252ef1","ios":"levelo://app?vid=8bd0fc2e-dcc5-437e-838d-5e42ae252ef1"},"vehicle_type_id":"4","last_reported":1750702481,"current_range_meters":6000,"station_id":"ce4bgvp2rcd13ifvqcu0","pricing_plan_id":"cebpf4jnsgd1na2vs0mg"},{"bike_id":"94987a33-62bb-4830-aadb-4d81a5b14bbe","system_id":"levelo_inurba_marseille","lat":43.28848,"lon":5.39316,"is_reserved":false,"is_disabled":false,"rental_uris":{"android":"levelo://app?vid=94987a33-62bb-4830-aadb-4d81a5b14bbe","ios":"levelo://app?vid=94987a33-62bb-4830-aadb-4d81a5b14bbe"},"vehicle_type_id":"4","last_reported":1750702481,"current_range_meters":6000,"station_id":"ce4bh2p2rcd13ifvqdi0","pricing_plan_id":"cebpf4jnsgd1na2vs0mg"},{"bike_id":"eced9993-ddbd-4797-b18c-d81569d34eb7","system_id":"levelo_inurba_marseille","lat":43.27073,"lon":5.42276,"is_reserved":false,"is_disabled":false,"rental_uris":{"android":"levelo://app?vid=eced9993-ddbd-4797-b18c-d81569d34eb7","ios":"levelo://app?vid=eced9993-ddbd-4797-b18c-d81569d34eb7"},"vehicle_type_id":"4","last_reported":1750702481,"current_range_meters":6000,"station_id":"ce4bhk92rcd13ifvqgb0","pricing_plan_id":"cebpf4jnsgd1na2vs0mg"},{"bike_id":"e00116b5-29ba-45d1-b032-69dbad09bbba","system_id":"levelo_inurba_marseille","lat":43.299,"lon":5.43672,"is_reserved":false,"is_disabled":false,"rental_uris":{"android":"levelo://app?vid=e00116b5-29ba-45d1-b032-69dbad09bbba","ios":"levelo://app?vid=e00116b5-29ba-45d1-b032-69dbad09bbba"},"vehicle_type_id":"4","last_reported":1750702481,"current_range_meters":6000,"station_id":"ce4bhpp2rcd13ifvqhfg","pricing_plan_id":"cebpf4jnsgd1na2vs0mg"},{"bike_id":"6f3bf653-1233-4103-a0ae-98654401105e","system_id":"levelo_inurba_marseille","lat":43.32381,"lon":5.3888,"is_reserved":false,"is_disabled":false,"rental_uris":{"android":"levelo://app?vid=6f3bf653-1233-4103-a0ae-98654401105e","ios":"levelo://app?vid=6f3bf653-1233-4103-a0ae-98654401105e"},"vehicle_type_id":"4","last_reported":1750702481,"current_range_meters":6000,"station_id":"ce4bhqp2rcd13ifvqhog","pricing_plan_id":"cebpf4jnsgd1na2vs0mg"},{"bike_id":"2f20e2c6-bc30-42d2-9f93-01aaacad1eb3","system_id":"levelo_inurba_marseille","lat":43.27625,"lon":5.41799,"is_reserved":false,"is_disabled":false,"rental_uris":{"android":"levelo://app?vid=2f20e2c6-bc30-42d2-9f93-01aaacad1eb3","ios":"levelo://app?vid=2f20e2c6-bc30-42d2-9f93-01aaacad1eb3"},"vehicle_type_id":"4","last_reported":1750702481,"current_range_meters":6400,"station_id":"","pricing_plan_id":"cebpf4jnsgd1na2vs0mg"},{"bike_id":"4e070e9d-f01c-4d05-b16f-52c002b0c491","system_id":"levelo_inurba_marseille","lat":43.29311,"lon":5.37181,"is_reserved":false,"is_disabled":false,"rental_uris":{"android":"levelo://app?vid=4e070e9d-f01c-4d05-b16f-52c002b0c491","ios":"levelo://app?vid=4e070e9d-f01c-4d05-b16f-52c002b0c491"},"vehicle_type_id":"4","last_reported":1750702481,"current_range_meters":6400,"station_id":"ce4bgh92rcd13ifvqb40","pricing_plan_id":"cebpf4jnsgd1na2vs0mg"},{"bike_id":"2918bcfc-3ae7-4e90-b1ca-239f9a284a9c","system_id":"levelo_inurba_marseille","lat":43.30561,"lon":5.39363,"is_reserved":false,"is_disabled":false,"rental_uris":{"android":"levelo://app?vid=2918bcfc-3ae7-4e90-b1ca-239f9a284a9c","ios":"levelo://app?vid=2918bcfc-3ae7-4e90-b1ca-239f9a284a9c"},"vehicle_type_id":"4","last_reported":1750702481,"current_range_meters":6400,"station_id":"ce4bh0p2rcd13ifvqd80","pricing_plan_id":"cebpf4jnsgd1na2vs0mg"},{"bike_id":"d3bc5f7a-0a67-4d8c-a1ab-98fd1d6f772c","system_id":"levelo_inurba_marseille","lat":43.27998,"lon":5.38725,"is_reserved":false,"is_disabled":false,"rental_uris":{"android":"levelo://app?vid=d3bc5f7a-0a67-4d8c-a1ab-98fd1d6f772c","ios":"levelo://app?vid=d3bc5f7a-0a67-4d8c-a1ab-98fd1d6f772c"},"vehicle_type_id":"4","last_reported":1750702481,"current_range_meters":6400,"station_id":"ce4bhg12rcd13ifvqf80","pricing_plan_id":"cebpf4jnsgd1na2vs0mg"},{"bike_id":"7c8e26a5-eb99-4d71-9055-b999114320cc","system_id":"levelo_inurba_marseille","lat":43.25075,"lon":5.39507,"is_reserved":false,"is_disabled":false,"rental_uris":{"android":"levelo://app?vid=7c8e26a5-eb99-4d71-9055-b999114320cc","ios":"levelo://app?vid=7c8e26a5-eb99-4d71-9055-b999114320cc"},"vehicle_type_id":"4","last_reported":1750702481,"current_range_meters":6400,"station_id":"ce4bhm12rcd13ifvqgkg","pricing_plan_id":"cebpf4jnsgd1na2vs0mg"},{"bike_id":"e78ca26a-99e0-4083-8f44-d0a177e68532","system_id":"levelo_inurba_marseille","lat":43.27815,"lon":5.40721,"is_reserved":false,"is_disabled":false,"rental_uris":{"android":"levelo://app?vid=e78ca26a-99e0-4083-8f44-d0a177e68532","ios":"levelo://app?vid=e78ca26a-99e0-4083-8f44-d0a177e68532"},"vehicle_type_id":"4","last_reported":1750702481,"current_range_meters":6400,"station_id":"ce4bhnh2rcd13ifvqgtg","pricing_plan_id":"cebpf4jnsgd1na2vs0mg"},{"bike_id":"85c58f10-925d-4344-b389-09267487a6fc","system_id":"levelo_inurba_marseille","lat":43.21047,"lon":5.41935,"is_reserved":false,"is_disabled":false,"rental_uris":{"android":"levelo://app?vid=85c58f10-925d-4344-b389-09267487a6fc","ios":"levelo://app?vid=85c58f10-925d-4344-b389-09267487a6fc"},"vehicle_type_id":"4","last_reported":1750702481,"current_range_meters":6800,"station_id":"","pricing_plan_id":"cebpf4jnsgd1na2vs0mg"},{"bike_id":"82daa609-66e4-4b91-8a1c-a20f4b557675","system_id":"levelo_inurba_marseille","lat":43.3102,"lon":5.37326,"is_reserved":false,"is_disabled":false,"rental_uris":{"android":"levelo://app?vid=82daa609-66e4-4b91-8a1c-a20f4b557675","ios":"levelo://app?vid=82daa609-66e4-4b91-8a1c-a20f4b557675"},"vehicle_type_id":"4","last_reported":1750702481,"current_range_meters":6800,"station_id":"","pricing_plan_id":"cebpf4jnsgd1na2vs0mg"},{"bike_id":"ad78d310-6e9a-4d77-ac8a-4884d5e02280","system_id":"levelo_inurba_marseille","lat":43.25874,"lon":5.3991,"is_reserved":false,"is_disabled":false,"rental_uris":{"android":"levelo://app?vid=ad78d310-6e9a-4d77-ac8a-4884d5e02280","ios":"levelo://app?vid=ad78d310-6e9a-4d77-ac8a-4884d5e02280"},"vehicle_type_id":"4","last_reported":1750702481,"current_range_meters":6800,"station_id":"ce4bhl92rcd13ifvqghg","pricing_plan_id":"cebpf4jnsgd1na2vs0mg"},{"bike_id":"b7f06f6b-9d78-4bbf-b82d-d7b2e7c2e71a","system_id":"levelo_inurba_marseille","lat":43.30378,"lon":5.42474,"is_reserved":false,"is_disabled":false,"rental_uris":{"android":"levelo://app?vid=b7f06f6b-9d78-4bbf-b82d-d7b2e7c2e71a","ios":"levelo://app?vid=b7f06f6b-9d78-4bbf-b82d-d7b2e7c2e71a"},"vehicle_type_id":"4","last_reported":1750702481,"current_range_meters":6800,"station_id":"ce4bhoh2rcd13ifvqh6g","pricing_plan_id":"cebpf4jnsgd1na2vs0mg"},{"bike_id":"aec6cf21-a412-47a8-8bfa-f6c3f4b034c4","system_id":"levelo_inurba_marseille","lat":43.27622,"lon":5.36107,"is_reserved":false,"is_disabled":false,"rental_uris":{"android":"levelo://app?vid=aec6cf21-a412-47a8-8bfa-f6c3f4b034c4","ios":"levelo://app?vid=aec6cf21-a412-47a8-8bfa-f6c3f4b034c4"},"vehicle_type_id":"4","last_reported":1750702481,"current_range_meters":7200,"station_id":"ce4bgj92rcd13ifvqbe0","pricing_plan_id":"cebpf4jnsgd1na2vs0mg"},{"bike_id":"8350efc1-5c41-43d3-a71b-888bb4bf7840","system_id":"levelo_inurba_marseille","lat":43.26209,"lon":5.37442,"is_reserved":false,"is_disabled":false,"rental_uris":{"android":"levelo://app?vid=8350efc1-5c41-43d3-a71b-888bb4bf7840","ios":"levelo://app?vid=8350efc1-5c41-43d3-a71b-888bb4bf7840"},"vehicle_type_id":"4","last_reported":1750702481,"current_range_meters":7200,"station_id":"ce4bhgp2rcd13ifvqfc0","pricing_plan_id":"cebpf4jnsgd1na2vs0mg"},{"bike_id":"5026cdb4-a1eb-42b7-96f0-e06fd4695fec","system_id":"levelo_inurba_marseille","lat":43.29233,"lon":5.38258,"is_reserved":false,"is_disabled":false,"rental_uris":{"android":"levelo://app?vid=5026cdb4-a1eb-42b7-96f0-e06fd4695fec","ios":"levelo://app?vid=5026cdb4-a1eb-42b7-96f0-e06fd4695fec"},"vehicle_type_id":"4","last_reported":1750702481,"current_range_meters":8000,"station_id":"","pricing_plan_id":"cebpf4jnsgd1na2vs0mg"},{"bike_id":"a9e5e555-fdaf-49c0-b286-f0f2659b17d0","system_id":"levelo_inurba_marseille","lat":43.28321,"lon":5.43234,"is_reserved":false,"is_disabled":false,"rental_uris":{"android":"levelo://app?vid=a9e5e555-fdaf-49c0-b286-f0f2659b17d0","ios":"levelo://app?vid=a9e5e555-fdaf-49c0-b286-f0f2659b17d0"},"vehicle_type_id":"4","last_reported":1750702481,"current_range_meters":8000,"station_id":"","pricing_plan_id":"cebpf4jnsgd1na2vs0mg"},{"bike_id":"f66a6e34-c553-4ffc-a010-eca73da9f571","system_id":"levelo_inurba_marseille","lat":43.28022,"lon":5.39931,"is_reserved":false,"is_disabled":false,"rental_uris":{"android":"levelo://app?vid=f66a6e34-c553-4ffc-a010-eca73da9f571","ios":"levelo://app?vid=f66a6e34-c553-4ffc-a010-eca73da9f571"},"vehicle_type_id":"4","last_reported":1750702481,"current_range_meters":8000,"station_id":"","pricing_plan_id":"cebpf4jnsgd1na2vs0mg"},{"bike_id":"8c6de0c1-9eaf-4c18-8155-d956789067ae","system_id":"levelo_inurba_marseille","lat":43.279393,"lon":5.442837,"is_reserved":false,"is_disabled":false,"rental_uris":{"android":"levelo://app?vid=8c6de0c1-9eaf-4c18-8155-d956789067ae","ios":"levelo://app?vid=8c6de0c1-9eaf-4c18-8155-d956789067ae"},"vehicle_type_id":"4","last_reported":1750702481,"current_range_meters":8400,"station_id":"","pricing_plan_id":"cebpf4jnsgd1na2vs0mg"},{"bike_id":"8d197929-9fd5-4312-a5f7-b6d7fc6475a8","system_id":"levelo_inurba_marseille","lat":43.23462,"lon":5.3602,"is_reserved":false,"is_disabled":false,"rental_uris":{"android":"levelo://app?vid=8d197929-9fd5-4312-a5f7-b6d7fc6475a8","ios":"levelo://app?vid=8d197929-9fd5-4312-a5f7-b6d7fc6475a8"},"vehicle_type_id":"4","last_reported":1750702481,"current_range_meters":8400,"station_id":"","pricing_plan_id":"cebpf4jnsgd1na2vs0mg"},{"bike_id":"b5d9bb3a-8792-4c2b-a5bf-10946605d4da","system_id":"levelo_inurba_marseille","lat":43.31686,"lon":5.40482,"is_reserved":false,"is_disabled":false,"rental_uris":{"android":"levelo://app?vid=b5d9bb3a-8792-4c2b-a5bf-10946605d4da","ios":"levelo://app?vid=b5d9bb3a-8792-4c2b-a5bf-10946605d4da"},"vehicle_type_id":"4","last_reported":1750702481,"current_range_meters":8400,"station_id":"ce4bh012rcd13ifvqd00","pricing_plan_id":"cebpf4jnsgd1na2vs0mg"},{"bike_id":"d7c56714-1585-4954-976a-05b319c2a630","system_id":"levelo_inurba_marseille","lat":43.30801,"lon":5.37327,"is_reserved":false,"is_disabled":false,"rental_uris":{"android":"levelo://app?vid=d7c56714-1585-4954-976a-05b319c2a630","ios":"levelo://app?vid=d7c56714-1585-4954-976a-05b319c2a630"},"vehicle_type_id":"4","last_reported":1750702481,"current_range_meters":8800,"station_id":"","pricing_plan_id":"cebpf4jnsgd1na2vs0mg"},{"bike_id":"29e479f7-8b4a-4d95-a43e-a2df2b2e5450","system_id":"levelo_inurba_marseille","lat":43.29894,"lon":5.43658,"is_reserved":false,"is_disabled":false,"rental_uris":{"android":"levelo://app?vid=29e479f7-8b4a-4d95-a43e-a2df2b2e5450","ios":"levelo://app?vid=29e479f7-8b4a-4d95-a43e-a2df2b2e5450"},"vehicle_type_id":"4","last_reported":1750702481,"current_range_meters":8800,"station_id":"ce4bhpp2rcd13ifvqhfg","pricing_plan_id":"cebpf4jnsgd1na2vs0mg"},{"bike_id":"f10e38ce-c08a-4001-873a-ec3e8846285a","system_id":"levelo_inurba_marseille","lat":43.329577,"lon":5.380468,"is_reserved":false,"is_disabled":false,"rental_uris":{"android":"levelo://app?vid=f10e38ce-c08a-4001-873a-ec3e8846285a","ios":"levelo://app?vid=f10e38ce-c08a-4001-873a-ec3e8846285a"},"vehicle_type_id":"4","last_reported":1750702481,"current_range_meters":9200,"station_id":"","pricing_plan_id":"cebpf4jnsgd1na2vs0mg"},{"bike_id":"f0a4c64e-a4bd-498e-93c8-cd79c2cdfed4","system_id":"levelo_inurba_marseille","lat":43.28039,"lon":5.36944,"is_reserved":false,"is_disabled":false,"rental_uris":{"android":"levelo://app?vid=f0a4c64e-a4bd-498e-93c8-cd79c2cdfed4","ios":"levelo://app?vid=f0a4c64e-a4bd-498e-93c8-cd79c2cdfed4"},"vehicle_type_id":"4","last_reported":1750702481,"current_range_meters":9200,"station_id":"ce4bha12rcd13ifvqef0","pricing_plan_id":"cebpf4jnsgd1na2vs0mg"},{"bike_id":"5b5ccab8-ce7f-4899-a24f-c52acadbb643","system_id":"levelo_inurba_marseille","lat":43.24812,"lon":5.37462,"is_reserved":false,"is_disabled":false,"rental_uris":{"android":"levelo://app?vid=5b5ccab8-ce7f-4899-a24f-c52acadbb643","ios":"levelo://app?vid=5b5ccab8-ce7f-4899-a24f-c52acadbb643"},"vehicle_type_id":"4","last_reported":1750702481,"current_range_meters":9200,"station_id":"ce4bhgh2rcd13ifvqfb0","pricing_plan_id":"cebpf4jnsgd1na2vs0mg"},{"bike_id":"6aa1d562-181f-4591-badc-33969b4f10dd","system_id":"levelo_inurba_marseille","lat":43.29892,"lon":5.4367,"is_reserved":false,"is_disabled":false,"rental_uris":{"android":"levelo://app?vid=6aa1d562-181f-4591-badc-33969b4f10dd","ios":"levelo://app?vid=6aa1d562-181f-4591-badc-33969b4f10dd"},"vehicle_type_id":"4","last_reported":1750702481,"current_range_meters":9200,"station_id":"ce4bhpp2rcd13ifvqhfg","pricing_plan_id":"cebpf4jnsgd1na2vs0mg"},{"bike_id":"008ac6e0-b1cf-4c53-9fc8-3bdb2303addb","system_id":"levelo_inurba_marseille","lat":43.29062,"lon":5.39074,"is_reserved":false,"is_disabled":false,"rental_uris":{"android":"levelo://app?vid=008ac6e0-b1cf-4c53-9fc8-3bdb2303addb","ios":"levelo://app?vid=008ac6e0-b1cf-4c53-9fc8-3bdb2303addb"},"vehicle_type_id":"4","last_reported":1750702481,"current_range_meters":9600,"station_id":"","pricing_plan_id":"cebpf4jnsgd1na2vs0mg"},{"bike_id":"70764641-799a-4261-99bd-903918c1b74a","system_id":"levelo_inurba_marseille","lat":43.32897,"lon":5.38391,"is_reserved":false,"is_disabled":false,"rental_uris":{"android":"levelo://app?vid=70764641-799a-4261-99bd-903918c1b74a","ios":"levelo://app?vid=70764641-799a-4261-99bd-903918c1b74a"},"vehicle_type_id":"4","last_reported":1750702481,"current_range_meters":9600,"station_id":"","pricing_plan_id":"cebpf4jnsgd1na2vs0mg"},{"bike_id":"a115eac4-c74a-435e-abfb-85fba85554bd","system_id":"levelo_inurba_marseille","lat":43.28706,"lon":5.37383,"is_reserved":false,"is_disabled":false,"rental_uris":{"android":"levelo://app?vid=a115eac4-c74a-435e-abfb-85fba85554bd","ios":"levelo://app?vid=a115eac4-c74a-435e-abfb-85fba85554bd"},"vehicle_type_id":"4","last_reported":1750702481,"current_range_meters":9600,"station_id":"ce4bh3p2rcd13ifvqdq0","pricing_plan_id":"cebpf4jnsgd1na2vs0mg"},{"bike_id":"db41d920-8f03-4c57-804b-080b22c3c83a","system_id":"levelo_inurba_marseille","lat":43.26028,"lon":5.37552,"is_reserved":false,"is_disabled":false,"rental_uris":{"android":"levelo://app?vid=db41d920-8f03-4c57-804b-080b22c3c83a","ios":"levelo://app?vid=db41d920-8f03-4c57-804b-080b22c3c83a"},"vehicle_type_id":"4","last_reported":1750702481,"current_range_meters":9600,"station_id":"ce4bhgh2rcd13ifvqfa0","pricing_plan_id":"cebpf4jnsgd1na2vs0mg"},{"bike_id":"66f01293-a9ac-4315-b84c-a86b93d781b3","system_id":"levelo_inurba_marseille","lat":43.25584,"lon":5.38238,"is_reserved":false,"is_disabled":false,"rental_uris":{"android":"levelo://app?vid=66f01293-a9ac-4315-b84c-a86b93d781b3","ios":"levelo://app?vid=66f01293-a9ac-4315-b84c-a86b93d781b3"},"vehicle_type_id":"4","last_reported":1750702481,"current_range_meters":9600,"station_id":"ce4bhih2rcd13ifvqfs0","pricing_plan_id":"cebpf4jnsgd1na2vs0mg"},{"bike_id":"a7542d1d-908d-4f5c-8b27-3bb62ca4047d","system_id":"levelo_inurba_marseille","lat":43.306362,"lon":5.399464,"is_reserved":false,"is_disabled":false,"rental_uris":{"android":"levelo://app?vid=a7542d1d-908d-4f5c-8b27-3bb62ca4047d","ios":"levelo://app?vid=a7542d1d-908d-4f5c-8b27-3bb62ca4047d"},"vehicle_type_id":"4","last_reported":1750702481,"current_range_meters":9600,"station_id":"ce4bhq12rcd13ifvqhig","pricing_plan_id":"cebpf4jnsgd1na2vs0mg"},{"bike_id":"43a7403b-8e86-4d02-a7f8-32f9da124e0b","system_id":"levelo_inurba_marseille","lat":43.29515,"lon":5.39029,"is_reserved":false,"is_disabled":false,"rental_uris":{"android":"levelo://app?vid=43a7403b-8e86-4d02-a7f8-32f9da124e0b","ios":"levelo://app?vid=43a7403b-8e86-4d02-a7f8-32f9da124e0b"},"vehicle_type_id":"4","last_reported":1750702481,"current_range_meters":10000,"station_id":"ce4bh3p2rcd13ifvqdp0","pricing_plan_id":"cebpf4jnsgd1na2vs0mg"},{"bike_id":"193ad6ab-a6b1-4acc-b0a8-ffd129c35151","system_id":"levelo_inurba_marseille","lat":43.29279,"lon":5.3684,"is_reserved":false,"is_disabled":false,"rental_uris":{"android":"levelo://app?vid=193ad6ab-a6b1-4acc-b0a8-ffd129c35151","ios":"levelo://app?vid=193ad6ab-a6b1-4acc-b0a8-ffd129c35151"},"vehicle_type_id":"4","last_reported":1750702481,"current_range_meters":10000,"station_id":"ce4bhbp2rcd13ifvqesg","pricing_plan_id":"cebpf4jnsgd1na2vs0mg"},{"bike_id":"86e9af26-76ec-42fd-85c3-0c14927405ec","system_id":"levelo_inurba_marseille","lat":43.304099,"lon":5.41293,"is_reserved":false,"is_disabled":false,"rental_uris":{"android":"levelo://app?vid=86e9af26-76ec-42fd-85c3-0c14927405ec","ios":"levelo://app?vid=86e9af26-76ec-42fd-85c3-0c14927405ec"},"vehicle_type_id":"4","last_reported":1750702481,"current_range_meters":10000,"station_id":"ce4bhop2rcd13ifvqh8g","pricing_plan_id":"cebpf4jnsgd1na2vs0mg"},{"bike_id":"9f755c45-f9a3-4f55-b405-4981c8032ecd","system_id":"levelo_inurba_marseille","lat":43.32,"lon":5.38168,"is_reserved":false,"is_disabled":false,"rental_uris":{"android":"levelo://app?vid=9f755c45-f9a3-4f55-b405-4981c8032ecd","ios":"levelo://app?vid=9f755c45-f9a3-4f55-b405-4981c8032ecd"},"vehicle_type_id":"4","last_reported":1750702481,"current_range_meters":10000,"station_id":"ce4bhr12rcd13ifvqhpg","pricing_plan_id":"cebpf4jnsgd1na2vs0mg"},{"bike_id":"b1ac0b79-8c8e-432f-9f6a-49c7594dafb3","system_id":"levelo_inurba_marseille","lat":43.28424,"lon":5.34976,"is_reserved":false,"is_disabled":false,"rental_uris":{"android":"levelo://app?vid=b1ac0b79-8c8e-432f-9f6a-49c7594dafb3","ios":"levelo://app?vid=b1ac0b79-8c8e-432f-9f6a-49c7594dafb3"},"vehicle_type_id":"4","last_reported":1750702481,"current_range_meters":10800,"station_id":"ce4bhbh2rcd13ifvqepg","pricing_plan_id":"cebpf4jnsgd1na2vs0mg"},{"bike_id":"97a58b08-d0ab-479b-ac28-45e2c72794cf","system_id":"levelo_inurba_marseille","lat":43.308038,"lon":5.372381,"is_reserved":false,"is_disabled":false,"rental_uris":{"android":"levelo://app?vid=97a58b08-d0ab-479b-ac28-45e2c72794cf","ios":"levelo://app?vid=97a58b08-d0ab-479b-ac28-45e2c72794cf"},"vehicle_type_id":"4","last_reported":1750702481,"current_range_meters":11200,"station_id":"ce4bguh2rcd13ifvqckg","pricing_plan_id":"cebpf4jnsgd1na2vs0mg"},{"bike_id":"f451074e-8c18-4c6f-81a2-83468c532295","system_id":"levelo_inurba_marseille","lat":43.284119,"lon":5.349781,"is_reserved":false,"is_disabled":false,"rental_uris":{"android":"levelo://app?vid=f451074e-8c18-4c6f-81a2-83468c532295","ios":"levelo://app?vid=f451074e-8c18-4c6f-81a2-83468c532295"},"vehicle_type_id":"4","last_reported":1750702481,"current_range_meters":11200,"station_id":"ce4bhbh2rcd13ifvqepg","pricing_plan_id":"cebpf4jnsgd1na2vs0mg"},{"bike_id":"92d66881-7bd9-4a9e-b511-c2ac315bdaf6","system_id":"levelo_inurba_marseille","lat":43.34142,"lon":5.40909,"is_reserved":false,"is_disabled":false,"rental_uris":{"android":"levelo://app?vid=92d66881-7bd9-4a9e-b511-c2ac315bdaf6","ios":"levelo://app?vid=92d66881-7bd9-4a9e-b511-c2ac315bdaf6"},"vehicle_type_id":"4","last_reported":1750702481,"current_range_meters":11200,"station_id":"ce4bhqh2rcd13ifvqhlg","pricing_plan_id":"cebpf4jnsgd1na2vs0mg"},{"bike_id":"723f5d56-ac33-4c94-8bb8-ee4c6dc93f60","system_id":"levelo_inurba_marseille","lat":43.22915,"lon":5.35384,"is_reserved":false,"is_disabled":false,"rental_uris":{"android":"levelo://app?vid=723f5d56-ac33-4c94-8bb8-ee4c6dc93f60","ios":"levelo://app?vid=723f5d56-ac33-4c94-8bb8-ee4c6dc93f60"},"vehicle_type_id":"4","last_reported":1750702481,"current_range_meters":11200,"station_id":"cpo3532slgdg3j2ikp40","pricing_plan_id":"cebpf4jnsgd1na2vs0mg"},{"bike_id":"1c203772-536d-40e7-9fba-13baabe6598e","system_id":"levelo_inurba_marseille","lat":43.299378,"lon":5.374615,"is_reserved":false,"is_disabled":false,"rental_uris":{"android":"levelo://app?vid=1c203772-536d-40e7-9fba-13baabe6598e","ios":"levelo://app?vid=1c203772-536d-40e7-9fba-13baabe6598e"},"vehicle_type_id":"4","last_reported":1750702481,"current_range_meters":11600,"station_id":"ce4bgjh2rcd13ifvqbg0","pricing_plan_id":"cebpf4jnsgd1na2vs0mg"},{"bike_id":"a15dea6e-5180-4d61-a1e9-2f4a5a994078","system_id":"levelo_inurba_marseille","lat":43.24078,"lon":5.37743,"is_reserved":false,"is_disabled":false,"rental_uris":{"android":"levelo://app?vid=a15dea6e-5180-4d61-a1e9-2f4a5a994078","ios":"levelo://app?vid=a15dea6e-5180-4d61-a1e9-2f4a5a994078"},"vehicle_type_id":"4","last_reported":1750702481,"current_range_meters":11600,"station_id":"ce4bhnp2rcd13ifvqgvg","pricing_plan_id":"cebpf4jnsgd1na2vs0mg"},{"bike_id":"96549ad6-8370-42db-a38d-5badf2c18441","system_id":"levelo_inurba_marseille","lat":43.31521,"lon":5.38039,"is_reserved":false,"is_disabled":false,"rental_uris":{"android":"levelo://app?vid=96549ad6-8370-42db-a38d-5badf2c18441","ios":"levelo://app?vid=96549ad6-8370-42db-a38d-5badf2c18441"},"vehicle_type_id":"4","last_reported":1750702481,"current_range_meters":11600,"station_id":"ce4bhsp2rcd13ifvqi50","pricing_plan_id":"cebpf4jnsgd1na2vs0mg"},{"bike_id":"0145151d-5297-41d4-a427-db04e3506dfa","system_id":"levelo_inurba_marseille","lat":43.21748,"lon":5.34606,"is_reserved":false,"is_disabled":false,"rental_uris":{"android":"levelo://app?vid=0145151d-5297-41d4-a427-db04e3506dfa","ios":"levelo://app?vid=0145151d-5297-41d4-a427-db04e3506dfa"},"vehicle_type_id":"4","last_reported":1750702481,"current_range_meters":11600,"station_id":"st_cvj6r9ubvosntc0bgbag","pricing_plan_id":"cebpf4jnsgd1na2vs0mg"},{"bike_id":"2bfb3fbf-5eae-47a0-b377-0c574e2039f7","system_id":"levelo_inurba_marseille","lat":43.29024,"lon":5.38633,"is_reserved":false,"is_disabled":false,"rental_uris":{"android":"levelo://app?vid=2bfb3fbf-5eae-47a0-b377-0c574e2039f7","ios":"levelo://app?vid=2bfb3fbf-5eae-47a0-b377-0c574e2039f7"},"vehicle_type_id":"4","last_reported":1750702481,"current_range_meters":12000,"station_id":"ce4bh4p2rcd13ifvqe0g","pricing_plan_id":"cebpf4jnsgd1na2vs0mg"},{"bike_id":"bb655025-1fa6-4b73-a5c9-0aa281c97c1a","system_id":"levelo_inurba_marseille","lat":43.31533,"lon":5.38033,"is_reserved":false,"is_disabled":false,"rental_uris":{"android":"levelo://app?vid=bb655025-1fa6-4b73-a5c9-0aa281c97c1a","ios":"levelo://app?vid=bb655025-1fa6-4b73-a5c9-0aa281c97c1a"},"vehicle_type_id":"4","last_reported":1750702481,"current_range_meters":12000,"station_id":"ce4bhsp2rcd13ifvqi50","pricing_plan_id":"cebpf4jnsgd1na2vs0mg"},{"bike_id":"a69156ca-7afd-4760-8d18-8e2581fdad03","system_id":"levelo_inurba_marseille","lat":43.22941,"lon":5.35371,"is_reserved":false,"is_disabled":false,"rental_uris":{"android":"levelo://app?vid=a69156ca-7afd-4760-8d18-8e2581fdad03","ios":"levelo://app?vid=a69156ca-7afd-4760-8d18-8e2581fdad03"},"vehicle_type_id":"4","last_reported":1750702481,"current_range_meters":12400,"station_id":"cpo3532slgdg3j2ikp40","pricing_plan_id":"cebpf4jnsgd1na2vs0mg"},{"bike_id":"99f71b9b-0005-4d8a-927f-d4f3316e024a","system_id":"levelo_inurba_marseille","lat":43.21751,"lon":5.34604,"is_reserved":false,"is_disabled":false,"rental_uris":{"android":"levelo://app?vid=99f71b9b-0005-4d8a-927f-d4f3316e024a","ios":"levelo://app?vid=99f71b9b-0005-4d8a-927f-d4f3316e024a"},"vehicle_type_id":"4","last_reported":1750702481,"current_range_meters":12800,"station_id":"","pricing_plan_id":"cebpf4jnsgd1na2vs0mg"},{"bike_id":"9ad43fe6-1b49-4ea3-9f06-a5733a9a82aa","system_id":"levelo_inurba_marseille","lat":43.21206,"lon":5.35085,"is_reserved":false,"is_disabled":false,"rental_uris":{"android":"levelo://app?vid=9ad43fe6-1b49-4ea3-9f06-a5733a9a82aa","ios":"levelo://app?vid=9ad43fe6-1b49-4ea3-9f06-a5733a9a82aa"},"vehicle_type_id":"4","last_reported":1750702481,"current_range_meters":12800,"station_id":"","pricing_plan_id":"cebpf4jnsgd1na2vs0mg"},{"bike_id":"996203fc-d472-49ec-91af-4d5febc53eee","system_id":"levelo_inurba_marseille","lat":43.27613,"lon":5.36107,"is_reserved":false,"is_disabled":false,"rental_uris":{"android":"levelo://app?vid=996203fc-d472-49ec-91af-4d5febc53eee","ios":"levelo://app?vid=996203fc-d472-49ec-91af-4d5febc53eee"},"vehicle_type_id":"4","last_reported":1750702481,"current_range_meters":12800,"station_id":"ce4bgj92rcd13ifvqbe0","pricing_plan_id":"cebpf4jnsgd1na2vs0mg"},{"bike_id":"90fdd0ec-ab6e-4d41-bb75-e4636fa94dfd","system_id":"levelo_inurba_marseille","lat":43.284088,"lon":5.349756,"is_reserved":false,"is_disabled":false,"rental_uris":{"android":"levelo://app?vid=90fdd0ec-ab6e-4d41-bb75-e4636fa94dfd","ios":"levelo://app?vid=90fdd0ec-ab6e-4d41-bb75-e4636fa94dfd"},"vehicle_type_id":"4","last_reported":1750702481,"current_range_meters":13600,"station_id":"ce4bhbh2rcd13ifvqepg","pricing_plan_id":"cebpf4jnsgd1na2vs0mg"},{"bike_id":"a28cf66c-3632-4564-9155-0d5e46e9d369","system_id":"levelo_inurba_marseille","lat":43.27994,"lon":5.40024,"is_reserved":false,"is_disabled":false,"rental_uris":{"android":"levelo://app?vid=a28cf66c-3632-4564-9155-0d5e46e9d369","ios":"levelo://app?vid=a28cf66c-3632-4564-9155-0d5e46e9d369"},"vehicle_type_id":"4","last_reported":1750702481,"current_range_meters":13600,"station_id":"ce4bho92rcd13ifvqh4g","pricing_plan_id":"cebpf4jnsgd1na2vs0mg"},{"bike_id":"695acd82-ae0d-4f72-8385-183d1feea454","system_id":"levelo_inurba_marseille","lat":43.22941,"lon":5.35379,"is_reserved":false,"is_disabled":false,"rental_uris":{"android":"levelo://app?vid=695acd82-ae0d-4f72-8385-183d1feea454","ios":"levelo://app?vid=695acd82-ae0d-4f72-8385-183d1feea454"},"vehicle_type_id":"4","last_reported":1750702481,"current_range_meters":13600,"station_id":"cpo3532slgdg3j2ikp40","pricing_plan_id":"cebpf4jnsgd1na2vs0mg"},{"bike_id":"f06ab9c8-88a3-4b76-a708-f4ea2ff0ac7d","system_id":"levelo_inurba_marseille","lat":43.302293,"lon":5.385797,"is_reserved":false,"is_disabled":false,"rental_uris":{"android":"levelo://app?vid=f06ab9c8-88a3-4b76-a708-f4ea2ff0ac7d","ios":"levelo://app?vid=f06ab9c8-88a3-4b76-a708-f4ea2ff0ac7d"},"vehicle_type_id":"4","last_reported":1750702481,"current_range_meters":14000,"station_id":"","pricing_plan_id":"cebpf4jnsgd1na2vs0mg"},{"bike_id":"d1e50195-3b98-4355-8033-d7cc97e2d52d","system_id":"levelo_inurba_marseille","lat":43.34655,"lon":5.36653,"is_reserved":false,"is_disabled":false,"rental_uris":{"android":"levelo://app?vid=d1e50195-3b98-4355-8033-d7cc97e2d52d","ios":"levelo://app?vid=d1e50195-3b98-4355-8033-d7cc97e2d52d"},"vehicle_type_id":"4","last_reported":1750702481,"current_range_meters":14000,"station_id":"","pricing_plan_id":"cebpf4jnsgd1na2vs0mg"},{"bike_id":"db490380-a789-4f87-8345-03053cafe8eb","system_id":"levelo_inurba_marseille","lat":43.28422,"lon":5.35002,"is_reserved":false,"is_disabled":false,"rental_uris":{"android":"levelo://app?vid=db490380-a789-4f87-8345-03053cafe8eb","ios":"levelo://app?vid=db490380-a789-4f87-8345-03053cafe8eb"},"vehicle_type_id":"4","last_reported":1750702481,"current_range_meters":14000,"station_id":"ce4bhbh2rcd13ifvqepg","pricing_plan_id":"cebpf4jnsgd1na2vs0mg"},{"bike_id":"909cebf8-f278-4b4d-a6c7-c54f4cc7dcba","system_id":"levelo_inurba_marseille","lat":43.28435,"lon":5.35008,"is_reserved":false,"is_disabled":false,"rental_uris":{"android":"levelo://app?vid=909cebf8-f278-4b4d-a6c7-c54f4cc7dcba","ios":"levelo://app?vid=909cebf8-f278-4b4d-a6c7-c54f4cc7dcba"},"vehicle_type_id":"4","last_reported":1750702481,"current_range_meters":14000,"station_id":"ce4bhbh2rcd13ifvqepg","pricing_plan_id":"cebpf4jnsgd1na2vs0mg"},{"bike_id":"dcb10811-af0c-4a83-a2ce-c0bcfa4230a2","system_id":"levelo_inurba_marseille","lat":43.2841,"lon":5.34989,"is_reserved":false,"is_disabled":false,"rental_uris":{"android":"levelo://app?vid=dcb10811-af0c-4a83-a2ce-c0bcfa4230a2","ios":"levelo://app?vid=dcb10811-af0c-4a83-a2ce-c0bcfa4230a2"},"vehicle_type_id":"4","last_reported":1750702481,"current_range_meters":14000,"station_id":"ce4bhbh2rcd13ifvqepg","pricing_plan_id":"cebpf4jnsgd1na2vs0mg"},{"bike_id":"a077c35b-d5f4-4dd1-9c9f-58000b5962d5","system_id":"levelo_inurba_marseille","lat":43.30364,"lon":5.41889,"is_reserved":false,"is_disabled":false,"rental_uris":{"android":"levelo://app?vid=a077c35b-d5f4-4dd1-9c9f-58000b5962d5","ios":"levelo://app?vid=a077c35b-d5f4-4dd1-9c9f-58000b5962d5"},"vehicle_type_id":"4","last_reported":1750702481,"current_range_meters":14000,"station_id":"ce4bhop2rcd13ifvqh7g","pricing_plan_id":"cebpf4jnsgd1na2vs0mg"},{"bike_id":"e3c98ea9-5ede-4f57-8f11-2e25041a9538","system_id":"levelo_inurba_marseille","lat":43.29892,"lon":5.43663,"is_reserved":false,"is_disabled":false,"rental_uris":{"android":"levelo://app?vid=e3c98ea9-5ede-4f57-8f11-2e25041a9538","ios":"levelo://app?vid=e3c98ea9-5ede-4f57-8f11-2e25041a9538"},"vehicle_type_id":"4","last_reported":1750702481,"current_range_meters":14000,"station_id":"ce4bhpp2rcd13ifvqhfg","pricing_plan_id":"cebpf4jnsgd1na2vs0mg"},{"bike_id":"2b1248f6-bbed-4971-afb2-758b0c7fb03e","system_id":"levelo_inurba_marseille","lat":43.24654,"lon":5.38898,"is_reserved":false,"is_disabled":false,"rental_uris":{"android":"levelo://app?vid=2b1248f6-bbed-4971-afb2-758b0c7fb03e","ios":"levelo://app?vid=2b1248f6-bbed-4971-afb2-758b0c7fb03e"},"vehicle_type_id":"4","last_reported":1750702481,"current_range_meters":14400,"station_id":"ce4bhg12rcd13ifvqf60","pricing_plan_id":"cebpf4jnsgd1na2vs0mg"},{"bike_id":"9213f417-38fe-4ac6-ba73-fa7495d6b748","system_id":"levelo_inurba_marseille","lat":43.24168,"lon":5.36402,"is_reserved":false,"is_disabled":false,"rental_uris":{"android":"levelo://app?vid=9213f417-38fe-4ac6-ba73-fa7495d6b748","ios":"levelo://app?vid=9213f417-38fe-4ac6-ba73-fa7495d6b748"},"vehicle_type_id":"4","last_reported":1750702481,"current_range_meters":14400,"station_id":"cpo36qri1sfpv3e86is0","pricing_plan_id":"cebpf4jnsgd1na2vs0mg"},{"bike_id":"ffcda6b9-8153-4737-9814-c54983eb2e20","system_id":"levelo_inurba_marseille","lat":43.29524,"lon":5.375105,"is_reserved":false,"is_disabled":false,"rental_uris":{"android":"levelo://app?vid=ffcda6b9-8153-4737-9814-c54983eb2e20","ios":"levelo://app?vid=ffcda6b9-8153-4737-9814-c54983eb2e20"},"vehicle_type_id":"4","last_reported":1750702481,"current_range_meters":14800,"station_id":"ce4bgkp2rcd13ifvqbmg","pricing_plan_id":"cebpf4jnsgd1na2vs0mg"},{"bike_id":"9b3fd137-b235-4129-88dc-8e0db25a25fa","system_id":"levelo_inurba_marseille","lat":43.28458,"lon":5.35891,"is_reserved":false,"is_disabled":false,"rental_uris":{"android":"levelo://app?vid=9b3fd137-b235-4129-88dc-8e0db25a25fa","ios":"levelo://app?vid=9b3fd137-b235-4129-88dc-8e0db25a25fa"},"vehicle_type_id":"4","last_reported":1750702481,"current_range_meters":14800,"station_id":"ce4bhah2rcd13ifvqei0","pricing_plan_id":"cebpf4jnsgd1na2vs0mg"},{"bike_id":"59fd6ead-67bc-4562-a496-35193d1c17a5","system_id":"levelo_inurba_marseille","lat":43.28938,"lon":5.36641,"is_reserved":false,"is_disabled":false,"rental_uris":{"android":"levelo://app?vid=59fd6ead-67bc-4562-a496-35193d1c17a5","ios":"levelo://app?vid=59fd6ead-67bc-4562-a496-35193d1c17a5"},"vehicle_type_id":"4","last_reported":1750702481,"current_range_meters":14800,"station_id":"ce4bhap2rcd13ifvqek0","pricing_plan_id":"cebpf4jnsgd1na2vs0mg"},{"bike_id":"53578321-2228-43fa-835f-81e03522db06","system_id":"levelo_inurba_marseille","lat":43.26215,"lon":5.3744,"is_reserved":false,"is_disabled":false,"rental_uris":{"android":"levelo://app?vid=53578321-2228-43fa-835f-81e03522db06","ios":"levelo://app?vid=53578321-2228-43fa-835f-81e03522db06"},"vehicle_type_id":"4","last_reported":1750702481,"current_range_meters":14800,"station_id":"ce4bhgp2rcd13ifvqfc0","pricing_plan_id":"cebpf4jnsgd1na2vs0mg"},{"bike_id":"eaa2bbf8-f8f9-4481-ac63-c4df479b947b","system_id":"levelo_inurba_marseille","lat":43.25002,"lon":5.38925,"is_reserved":false,"is_disabled":false,"rental_uris":{"android":"levelo://app?vid=eaa2bbf8-f8f9-4481-ac63-c4df479b947b","ios":"levelo://app?vid=eaa2bbf8-f8f9-4481-ac63-c4df479b947b"},"vehicle_type_id":"4","last_reported":1750702481,"current_range_meters":14800,"station_id":"ce4bhgp2rcd13ifvqfd0","pricing_plan_id":"cebpf4jnsgd1na2vs0mg"},{"bike_id":"fcd2a295-bf84-45c3-9b2e-b0d3cc855cb2","system_id":"levelo_inurba_marseille","lat":43.27069,"lon":5.42283,"is_reserved":false,"is_disabled":false,"rental_uris":{"android":"levelo://app?vid=fcd2a295-bf84-45c3-9b2e-b0d3cc855cb2","ios":"levelo://app?vid=fcd2a295-bf84-45c3-9b2e-b0d3cc855cb2"},"vehicle_type_id":"4","last_reported":1750702481,"current_range_meters":14800,"station_id":"ce4bhk92rcd13ifvqgb0","pricing_plan_id":"cebpf4jnsgd1na2vs0mg"},{"bike_id":"708a5153-e9eb-4b8c-828a-f2918a7ff712","system_id":"levelo_inurba_marseille","lat":43.337204,"lon":5.391756,"is_reserved":false,"is_disabled":false,"rental_uris":{"android":"levelo://app?vid=708a5153-e9eb-4b8c-828a-f2918a7ff712","ios":"levelo://app?vid=708a5153-e9eb-4b8c-828a-f2918a7ff712"},"vehicle_type_id":"4","last_reported":1750702481,"current_range_meters":14800,"station_id":"ce4bhr92rcd13ifvqhsg","pricing_plan_id":"cebpf4jnsgd1na2vs0mg"},{"bike_id":"3017d580-a2db-4c57-be82-db98bdfa5236","system_id":"levelo_inurba_marseille","lat":43.31492,"lon":5.37308,"is_reserved":false,"is_disabled":false,"rental_uris":{"android":"levelo://app?vid=3017d580-a2db-4c57-be82-db98bdfa5236","ios":"levelo://app?vid=3017d580-a2db-4c57-be82-db98bdfa5236"},"vehicle_type_id":"4","last_reported":1750702481,"current_range_meters":15200,"station_id":"ce4bgt12rcd13ifvqcd0","pricing_plan_id":"cebpf4jnsgd1na2vs0mg"},{"bike_id":"c0bdd773-acc1-45de-b11b-c26213d7a3d0","system_id":"levelo_inurba_marseille","lat":43.23958,"lon":5.36643,"is_reserved":false,"is_disabled":false,"rental_uris":{"android":"levelo://app?vid=c0bdd773-acc1-45de-b11b-c26213d7a3d0","ios":"levelo://app?vid=c0bdd773-acc1-45de-b11b-c26213d7a3d0"},"vehicle_type_id":"4","last_reported":1750702481,"current_range_meters":15200,"station_id":"ce4bhi12rcd13ifvqfp0","pricing_plan_id":"cebpf4jnsgd1na2vs0mg"},{"bike_id":"d9c124d1-0f01-415c-9e7f-ea6ff67d13fa","system_id":"levelo_inurba_marseille","lat":43.27812,"lon":5.40713,"is_reserved":false,"is_disabled":false,"rental_uris":{"android":"levelo://app?vid=d9c124d1-0f01-415c-9e7f-ea6ff67d13fa","ios":"levelo://app?vid=d9c124d1-0f01-415c-9e7f-ea6ff67d13fa"},"vehicle_type_id":"4","last_reported":1750702481,"current_range_meters":15200,"station_id":"ce4bhnh2rcd13ifvqgtg","pricing_plan_id":"cebpf4jnsgd1na2vs0mg"},{"bike_id":"b639f948-6413-4eb8-9e87-a25b3e5fe145","system_id":"levelo_inurba_marseille","lat":43.287018,"lon":5.399986,"is_reserved":false,"is_disabled":false,"rental_uris":{"android":"levelo://app?vid=b639f948-6413-4eb8-9e87-a25b3e5fe145","ios":"levelo://app?vid=b639f948-6413-4eb8-9e87-a25b3e5fe145"},"vehicle_type_id":"4","last_reported":1750702481,"current_range_meters":15200,"station_id":"ce4bho92rcd13ifvqh3g","pricing_plan_id":"cebpf4jnsgd1na2vs0mg"},{"bike_id":"2dc54638-263b-48ea-ab1f-3ace50bf72b9","system_id":"levelo_inurba_marseille","lat":43.26945,"lon":5.39739,"is_reserved":false,"is_disabled":false,"rental_uris":{"android":"levelo://app?vid=2dc54638-263b-48ea-ab1f-3ace50bf72b9","ios":"levelo://app?vid=2dc54638-263b-48ea-ab1f-3ace50bf72b9"},"vehicle_type_id":"4","last_reported":1750702481,"current_range_meters":16000,"station_id":"","pricing_plan_id":"cebpf4jnsgd1na2vs0mg"},{"bike_id":"d3b4acd1-475d-43e1-bb04-3b5b22c96457","system_id":"levelo_inurba_marseille","lat":43.29912,"lon":5.43687,"is_reserved":false,"is_disabled":false,"rental_uris":{"android":"levelo://app?vid=d3b4acd1-475d-43e1-bb04-3b5b22c96457","ios":"levelo://app?vid=d3b4acd1-475d-43e1-bb04-3b5b22c96457"},"vehicle_type_id":"4","last_reported":1750702481,"current_range_meters":16000,"station_id":"","pricing_plan_id":"cebpf4jnsgd1na2vs0mg"},{"bike_id":"83d20a8b-bd5e-4812-bd7f-e74c3a807be2","system_id":"levelo_inurba_marseille","lat":43.291979,"lon":5.358054,"is_reserved":false,"is_disabled":false,"rental_uris":{"android":"levelo://app?vid=83d20a8b-bd5e-4812-bd7f-e74c3a807be2","ios":"levelo://app?vid=83d20a8b-bd5e-4812-bd7f-e74c3a807be2"},"vehicle_type_id":"4","last_reported":1750702481,"current_range_meters":16000,"station_id":"","pricing_plan_id":"cebpf4jnsgd1na2vs0mg"},{"bike_id":"e08da042-2ee7-4437-b55c-8edc2a27256c","system_id":"levelo_inurba_marseille","lat":43.28462,"lon":5.35891,"is_reserved":false,"is_disabled":false,"rental_uris":{"android":"levelo://app?vid=e08da042-2ee7-4437-b55c-8edc2a27256c","ios":"levelo://app?vid=e08da042-2ee7-4437-b55c-8edc2a27256c"},"vehicle_type_id":"4","last_reported":1750702481,"current_range_meters":16000,"station_id":"ce4bhah2rcd13ifvqei0","pricing_plan_id":"cebpf4jnsgd1na2vs0mg"},{"bike_id":"a160023e-4db7-47ee-b81c-320748e28009","system_id":"levelo_inurba_marseille","lat":43.2816,"lon":5.42638,"is_reserved":false,"is_disabled":false,"rental_uris":{"android":"levelo://app?vid=a160023e-4db7-47ee-b81c-320748e28009","ios":"levelo://app?vid=a160023e-4db7-47ee-b81c-320748e28009"},"vehicle_type_id":"4","last_reported":1750702481,"current_range_meters":16000,"station_id":"ce4bhnh2rcd13ifvqgug","pricing_plan_id":"cebpf4jnsgd1na2vs0mg"},{"bike_id":"3bae62f4-995a-427b-8151-b86157cee952","system_id":"levelo_inurba_marseille","lat":43.33026,"lon":5.39044,"is_reserved":false,"is_disabled":false,"rental_uris":{"android":"levelo://app?vid=3bae62f4-995a-427b-8151-b86157cee952","ios":"levelo://app?vid=3bae62f4-995a-427b-8151-b86157cee952"},"vehicle_type_id":"4","last_reported":1750702481,"current_range_meters":16000,"station_id":"ce4bhr92rcd13ifvqhrg","pricing_plan_id":"cebpf4jnsgd1na2vs0mg"},{"bike_id":"66fe660e-bbbe-4cd1-b5fb-9344c71cb66e","system_id":"levelo_inurba_marseille","lat":43.21205,"lon":5.3505,"is_reserved":false,"is_disabled":false,"rental_uris":{"android":"levelo://app?vid=66fe660e-bbbe-4cd1-b5fb-9344c71cb66e","ios":"levelo://app?vid=66fe660e-bbbe-4cd1-b5fb-9344c71cb66e"},"vehicle_type_id":"4","last_reported":1750702481,"current_range_meters":16000,"station_id":"st_cvj6sg6p6f1abm77japg","pricing_plan_id":"cebpf4jnsgd1na2vs0mg"},{"bike_id":"095eabd1-5dcf-4106-9219-bdac4470d970","system_id":"levelo_inurba_marseille","lat":43.328247,"lon":5.433577,"is_reserved":false,"is_disabled":false,"rental_uris":{"android":"levelo://app?vid=095eabd1-5dcf-4106-9219-bdac4470d970","ios":"levelo://app?vid=095eabd1-5dcf-4106-9219-bdac4470d970"},"vehicle_type_id":"4","last_reported":1750702481,"current_range_meters":16400,"station_id":"","pricing_plan_id":"cebpf4jnsgd1na2vs0mg"},{"bike_id":"4b3fbd21-b94e-4d83-b345-0dc96ab8dba8","system_id":"levelo_inurba_marseille","lat":43.295307,"lon":5.385433,"is_reserved":false,"is_disabled":false,"rental_uris":{"android":"levelo://app?vid=4b3fbd21-b94e-4d83-b345-0dc96ab8dba8","ios":"levelo://app?vid=4b3fbd21-b94e-4d83-b345-0dc96ab8dba8"},"vehicle_type_id":"4","last_reported":1750702481,"current_range_meters":16400,"station_id":"ce4bgih2rcd13ifvqba0","pricing_plan_id":"cebpf4jnsgd1na2vs0mg"},{"bike_id":"82663e39-f6ca-4ea5-b659-1d532286c6d3","system_id":"levelo_inurba_marseille","lat":43.30251,"lon":5.40054,"is_reserved":false,"is_disabled":false,"rental_uris":{"android":"levelo://app?vid=82663e39-f6ca-4ea5-b659-1d532286c6d3","ios":"levelo://app?vid=82663e39-f6ca-4ea5-b659-1d532286c6d3"},"vehicle_type_id":"4","last_reported":1750702481,"current_range_meters":16400,"station_id":"ce4bgvh2rcd13ifvqcs0","pricing_plan_id":"cebpf4jnsgd1na2vs0mg"},{"bike_id":"af8ac115-b126-43d0-8dc2-1ca55684e741","system_id":"levelo_inurba_marseille","lat":43.28419,"lon":5.35009,"is_reserved":false,"is_disabled":false,"rental_uris":{"android":"levelo://app?vid=af8ac115-b126-43d0-8dc2-1ca55684e741","ios":"levelo://app?vid=af8ac115-b126-43d0-8dc2-1ca55684e741"},"vehicle_type_id":"4","last_reported":1750702481,"current_range_meters":16400,"station_id":"ce4bhbh2rcd13ifvqepg","pricing_plan_id":"cebpf4jnsgd1na2vs0mg"},{"bike_id":"12f6b162-6559-405b-97ba-5632bcad717b","system_id":"levelo_inurba_marseille","lat":43.24071,"lon":5.3776,"is_reserved":false,"is_disabled":false,"rental_uris":{"android":"levelo://app?vid=12f6b162-6559-405b-97ba-5632bcad717b","ios":"levelo://app?vid=12f6b162-6559-405b-97ba-5632bcad717b"},"vehicle_type_id":"4","last_reported":1750702481,"current_range_meters":16400,"station_id":"ce4bhnp2rcd13ifvqgvg","pricing_plan_id":"cebpf4jnsgd1na2vs0mg"},{"bike_id":"ad3e889a-bac1-4758-ab23-d9ed2bf53d98","system_id":"levelo_inurba_marseille","lat":43.29559,"lon":5.4229,"is_reserved":false,"is_disabled":false,"rental_uris":{"android":"levelo://app?vid=ad3e889a-bac1-4758-ab23-d9ed2bf53d98","ios":"levelo://app?vid=ad3e889a-bac1-4758-ab23-d9ed2bf53d98"},"vehicle_type_id":"4","last_reported":1750702481,"current_range_meters":16400,"station_id":"ce4bhph2rcd13ifvqhdg","pricing_plan_id":"cebpf4jnsgd1na2vs0mg"},{"bike_id":"a5dae22d-de01-4486-86a8-993d3f78071b","system_id":"levelo_inurba_marseille","lat":43.33019,"lon":5.39036,"is_reserved":false,"is_disabled":false,"rental_uris":{"android":"levelo://app?vid=a5dae22d-de01-4486-86a8-993d3f78071b","ios":"levelo://app?vid=a5dae22d-de01-4486-86a8-993d3f78071b"},"vehicle_type_id":"4","last_reported":1750702481,"current_range_meters":16400,"station_id":"ce4bhr92rcd13ifvqhrg","pricing_plan_id":"cebpf4jnsgd1na2vs0mg"},{"bike_id":"c3b67a3c-755c-43da-b7f2-a4d8a045bf9d","system_id":"levelo_inurba_marseille","lat":43.211963,"lon":5.350786,"is_reserved":false,"is_disabled":false,"rental_uris":{"android":"levelo://app?vid=c3b67a3c-755c-43da-b7f2-a4d8a045bf9d","ios":"levelo://app?vid=c3b67a3c-755c-43da-b7f2-a4d8a045bf9d"},"vehicle_type_id":"4","last_reported":1750702481,"current_range_meters":16400,"station_id":"st_cvj6sg6p6f1abm77japg","pricing_plan_id":"cebpf4jnsgd1na2vs0mg"},{"bike_id":"ff359b06-e82b-4518-b602-f9c62162a27d","system_id":"levelo_inurba_marseille","lat":43.21192,"lon":5.35064,"is_reserved":false,"is_disabled":false,"rental_uris":{"android":"levelo://app?vid=ff359b06-e82b-4518-b602-f9c62162a27d","ios":"levelo://app?vid=ff359b06-e82b-4518-b602-f9c62162a27d"},"vehicle_type_id":"4","last_reported":1750702481,"current_range_meters":16400,"station_id":"st_cvj6sg6p6f1abm77japg","pricing_plan_id":"cebpf4jnsgd1na2vs0mg"},{"bike_id":"b6b861fa-fd27-43ad-89fb-4be1a264be92","system_id":"levelo_inurba_marseille","lat":43.25307,"lon":5.37497,"is_reserved":false,"is_disabled":false,"rental_uris":{"android":"levelo://app?vid=b6b861fa-fd27-43ad-89fb-4be1a264be92","ios":"levelo://app?vid=b6b861fa-fd27-43ad-89fb-4be1a264be92"},"vehicle_type_id":"4","last_reported":1750702481,"current_range_meters":16800,"station_id":"","pricing_plan_id":"cebpf4jnsgd1na2vs0mg"},{"bike_id":"7c3f6852-4f29-42a9-a8c1-e2b82bb43fcf","system_id":"levelo_inurba_marseille","lat":43.29262,"lon":5.42655,"is_reserved":false,"is_disabled":false,"rental_uris":{"android":"levelo://app?vid=7c3f6852-4f29-42a9-a8c1-e2b82bb43fcf","ios":"levelo://app?vid=7c3f6852-4f29-42a9-a8c1-e2b82bb43fcf"},"vehicle_type_id":"4","last_reported":1750702481,"current_range_meters":16800,"station_id":"","pricing_plan_id":"cebpf4jnsgd1na2vs0mg"},{"bike_id":"f7c00105-0276-47aa-9c87-c86cd7159f18","system_id":"levelo_inurba_marseille","lat":43.309,"lon":5.36841,"is_reserved":false,"is_disabled":false,"rental_uris":{"android":"levelo://app?vid=f7c00105-0276-47aa-9c87-c86cd7159f18","ios":"levelo://app?vid=f7c00105-0276-47aa-9c87-c86cd7159f18"},"vehicle_type_id":"4","last_reported":1750702481,"current_range_meters":16800,"station_id":"ce4bgn92rcd13ifvqbvg","pricing_plan_id":"cebpf4jnsgd1na2vs0mg"},{"bike_id":"1552e1f9-2678-4227-a8e4-efeea9faec4b","system_id":"levelo_inurba_marseille","lat":43.310685,"lon":5.383343,"is_reserved":false,"is_disabled":false,"rental_uris":{"android":"levelo://app?vid=1552e1f9-2678-4227-a8e4-efeea9faec4b","ios":"levelo://app?vid=1552e1f9-2678-4227-a8e4-efeea9faec4b"},"vehicle_type_id":"4","last_reported":1750702481,"current_range_meters":16800,"station_id":"ce4bgv92rcd13ifvqcr0","pricing_plan_id":"cebpf4jnsgd1na2vs0mg"},{"bike_id":"b9288c8b-566a-44e8-84b6-0c5781064171","system_id":"levelo_inurba_marseille","lat":43.28425,"lon":5.34977,"is_reserved":false,"is_disabled":false,"rental_uris":{"android":"levelo://app?vid=b9288c8b-566a-44e8-84b6-0c5781064171","ios":"levelo://app?vid=b9288c8b-566a-44e8-84b6-0c5781064171"},"vehicle_type_id":"4","last_reported":1750702481,"current_range_meters":16800,"station_id":"ce4bhbh2rcd13ifvqepg","pricing_plan_id":"cebpf4jnsgd1na2vs0mg"},{"bike_id":"5991acb3-1bb5-4edc-b4ea-0ceed9f388ba","system_id":"levelo_inurba_marseille","lat":43.271682,"lon":5.409929,"is_reserved":false,"is_disabled":false,"rental_uris":{"android":"levelo://app?vid=5991acb3-1bb5-4edc-b4ea-0ceed9f388ba","ios":"levelo://app?vid=5991acb3-1bb5-4edc-b4ea-0ceed9f388ba"},"vehicle_type_id":"4","last_reported":1750702481,"current_range_meters":16800,"station_id":"ce4bhl12rcd13ifvqgf0","pricing_plan_id":"cebpf4jnsgd1na2vs0mg"},{"bike_id":"9e469cbd-90a9-4b30-b7a6-e007b5217883","system_id":"levelo_inurba_marseille","lat":43.25113,"lon":5.40323,"is_reserved":false,"is_disabled":false,"rental_uris":{"android":"levelo://app?vid=9e469cbd-90a9-4b30-b7a6-e007b5217883","ios":"levelo://app?vid=9e469cbd-90a9-4b30-b7a6-e007b5217883"},"vehicle_type_id":"4","last_reported":1750702481,"current_range_meters":16800,"station_id":"ce4bhlh2rcd13ifvqgig","pricing_plan_id":"cebpf4jnsgd1na2vs0mg"},{"bike_id":"01ed5d92-2639-4790-aeb2-49439d77fd8b","system_id":"levelo_inurba_marseille","lat":43.28142,"lon":5.42642,"is_reserved":false,"is_disabled":false,"rental_uris":{"android":"levelo://app?vid=01ed5d92-2639-4790-aeb2-49439d77fd8b","ios":"levelo://app?vid=01ed5d92-2639-4790-aeb2-49439d77fd8b"},"vehicle_type_id":"4","last_reported":1750702481,"current_range_meters":16800,"station_id":"ce4bhnh2rcd13ifvqgug","pricing_plan_id":"cebpf4jnsgd1na2vs0mg"},{"bike_id":"6b4a2ed3-16e9-4e8f-9720-818d4f649f0f","system_id":"levelo_inurba_marseille","lat":43.307968,"lon":5.435273,"is_reserved":false,"is_disabled":false,"rental_uris":{"android":"levelo://app?vid=6b4a2ed3-16e9-4e8f-9720-818d4f649f0f","ios":"levelo://app?vid=6b4a2ed3-16e9-4e8f-9720-818d4f649f0f"},"vehicle_type_id":"4","last_reported":1750702481,"current_range_meters":16800,"station_id":"ce4bhph2rcd13ifvqheg","pricing_plan_id":"cebpf4jnsgd1na2vs0mg"},{"bike_id":"e6e1ec66-36d4-41d2-872a-c2836e7851fd","system_id":"levelo_inurba_marseille","lat":43.21761,"lon":5.34603,"is_reserved":false,"is_disabled":false,"rental_uris":{"android":"levelo://app?vid=e6e1ec66-36d4-41d2-872a-c2836e7851fd","ios":"levelo://app?vid=e6e1ec66-36d4-41d2-872a-c2836e7851fd"},"vehicle_type_id":"4","last_reported":1750702481,"current_range_meters":16800,"station_id":"st_cvj6r9ubvosntc0bgbag","pricing_plan_id":"cebpf4jnsgd1na2vs0mg"},{"bike_id":"c13861af-49cb-4628-a826-9ed443f0ec69","system_id":"levelo_inurba_marseille","lat":43.28035,"lon":5.36943,"is_reserved":false,"is_disabled":false,"rental_uris":{"android":"levelo://app?vid=c13861af-49cb-4628-a826-9ed443f0ec69","ios":"levelo://app?vid=c13861af-49cb-4628-a826-9ed443f0ec69"},"vehicle_type_id":"4","last_reported":1750702481,"current_range_meters":17200,"station_id":"ce4bha12rcd13ifvqef0","pricing_plan_id":"cebpf4jnsgd1na2vs0mg"},{"bike_id":"2f07b810-8949-46c4-a7d1-2876ec3c6856","system_id":"levelo_inurba_marseille","lat":43.28434,"lon":5.34972,"is_reserved":false,"is_disabled":false,"rental_uris":{"android":"levelo://app?vid=2f07b810-8949-46c4-a7d1-2876ec3c6856","ios":"levelo://app?vid=2f07b810-8949-46c4-a7d1-2876ec3c6856"},"vehicle_type_id":"4","last_reported":1750702481,"current_range_meters":17200,"station_id":"ce4bhbh2rcd13ifvqepg","pricing_plan_id":"cebpf4jnsgd1na2vs0mg"},{"bike_id":"15bd695a-9ca5-4a9a-baad-f88187a333a1","system_id":"levelo_inurba_marseille","lat":43.28618,"lon":5.35096,"is_reserved":false,"is_disabled":false,"rental_uris":{"android":"levelo://app?vid=15bd695a-9ca5-4a9a-baad-f88187a333a1","ios":"levelo://app?vid=15bd695a-9ca5-4a9a-baad-f88187a333a1"},"vehicle_type_id":"4","last_reported":1750702481,"current_range_meters":17200,"station_id":"ce4bhch2rcd13ifvqeug","pricing_plan_id":"cebpf4jnsgd1na2vs0mg"},{"bike_id":"bfa4c6fb-d60c-4436-b8c2-03f65aa2ee78","system_id":"levelo_inurba_marseille","lat":43.27683,"lon":5.38873,"is_reserved":false,"is_disabled":false,"rental_uris":{"android":"levelo://app?vid=bfa4c6fb-d60c-4436-b8c2-03f65aa2ee78","ios":"levelo://app?vid=bfa4c6fb-d60c-4436-b8c2-03f65aa2ee78"},"vehicle_type_id":"4","last_reported":1750702481,"current_range_meters":17200,"station_id":"ce4bhi12rcd13ifvqfo0","pricing_plan_id":"cebpf4jnsgd1na2vs0mg"},{"bike_id":"d9984571-be4a-4a61-b034-addaa30aa360","system_id":"levelo_inurba_marseille","lat":43.27071,"lon":5.42286,"is_reserved":false,"is_disabled":false,"rental_uris":{"android":"levelo://app?vid=d9984571-be4a-4a61-b034-addaa30aa360","ios":"levelo://app?vid=d9984571-be4a-4a61-b034-addaa30aa360"},"vehicle_type_id":"4","last_reported":1750702481,"current_range_meters":17200,"station_id":"ce4bhk92rcd13ifvqgb0","pricing_plan_id":"cebpf4jnsgd1na2vs0mg"},{"bike_id":"fbe5a9da-e106-4e61-9154-d846dbf9444a","system_id":"levelo_inurba_marseille","lat":43.2307,"lon":5.35487,"is_reserved":false,"is_disabled":false,"rental_uris":{"android":"levelo://app?vid=fbe5a9da-e106-4e61-9154-d846dbf9444a","ios":"levelo://app?vid=fbe5a9da-e106-4e61-9154-d846dbf9444a"},"vehicle_type_id":"4","last_reported":1750702481,"current_range_meters":17200,"station_id":"cpo3342slgdg3j2ifvpg","pricing_plan_id":"cebpf4jnsgd1na2vs0mg"},{"bike_id":"ee74c4f3-ac91-4e31-9fd1-309020c69184","system_id":"levelo_inurba_marseille","lat":43.284208,"lon":5.349876,"is_reserved":false,"is_disabled":false,"rental_uris":{"android":"levelo://app?vid=ee74c4f3-ac91-4e31-9fd1-309020c69184","ios":"levelo://app?vid=ee74c4f3-ac91-4e31-9fd1-309020c69184"},"vehicle_type_id":"4","last_reported":1750702481,"current_range_meters":17600,"station_id":"","pricing_plan_id":"cebpf4jnsgd1na2vs0mg"},{"bike_id":"11ebf4fb-e752-44af-81e3-7d28e8eee9cc","system_id":"levelo_inurba_marseille","lat":43.28124,"lon":5.43182,"is_reserved":false,"is_disabled":false,"rental_uris":{"android":"levelo://app?vid=11ebf4fb-e752-44af-81e3-7d28e8eee9cc","ios":"levelo://app?vid=11ebf4fb-e752-44af-81e3-7d28e8eee9cc"},"vehicle_type_id":"4","last_reported":1750702481,"current_range_meters":17600,"station_id":"","pricing_plan_id":"cebpf4jnsgd1na2vs0mg"},{"bike_id":"5a185500-82c1-4b97-a74f-e1589736e1a4","system_id":"levelo_inurba_marseille","lat":43.30923,"lon":5.40149,"is_reserved":false,"is_disabled":false,"rental_uris":{"android":"levelo://app?vid=5a185500-82c1-4b97-a74f-e1589736e1a4","ios":"levelo://app?vid=5a185500-82c1-4b97-a74f-e1589736e1a4"},"vehicle_type_id":"4","last_reported":1750702481,"current_range_meters":17600,"station_id":"ce4bgvp2rcd13ifvqct0","pricing_plan_id":"cebpf4jnsgd1na2vs0mg"},{"bike_id":"930055bb-9881-4952-9303-cb8643e1da28","system_id":"levelo_inurba_marseille","lat":43.28601,"lon":5.35094,"is_reserved":false,"is_disabled":false,"rental_uris":{"android":"levelo://app?vid=930055bb-9881-4952-9303-cb8643e1da28","ios":"levelo://app?vid=930055bb-9881-4952-9303-cb8643e1da28"},"vehicle_type_id":"4","last_reported":1750702481,"current_range_meters":17600,"station_id":"ce4bhch2rcd13ifvqeug","pricing_plan_id":"cebpf4jnsgd1na2vs0mg"},{"bike_id":"092eaa9b-252b-425c-bacd-75ec9a41e9e9","system_id":"levelo_inurba_marseille","lat":43.24062,"lon":5.37742,"is_reserved":false,"is_disabled":false,"rental_uris":{"android":"levelo://app?vid=092eaa9b-252b-425c-bacd-75ec9a41e9e9","ios":"levelo://app?vid=092eaa9b-252b-425c-bacd-75ec9a41e9e9"},"vehicle_type_id":"4","last_reported":1750702481,"current_range_meters":17600,"station_id":"ce4bhnp2rcd13ifvqgvg","pricing_plan_id":"cebpf4jnsgd1na2vs0mg"},{"bike_id":"801c2515-e061-4ec1-b305-97c3a566a070","system_id":"levelo_inurba_marseille","lat":43.21205,"lon":5.35048,"is_reserved":false,"is_disabled":false,"rental_uris":{"android":"levelo://app?vid=801c2515-e061-4ec1-b305-97c3a566a070","ios":"levelo://app?vid=801c2515-e061-4ec1-b305-97c3a566a070"},"vehicle_type_id":"4","last_reported":1750702481,"current_range_meters":17600,"station_id":"st_cvj6sg6p6f1abm77japg","pricing_plan_id":"cebpf4jnsgd1na2vs0mg"},{"bike_id":"cef721fd-afe4-48d0-89b0-0777a634e87f","system_id":"levelo_inurba_marseille","lat":43.24409,"lon":5.3716,"is_reserved":false,"is_disabled":false,"rental_uris":{"android":"levelo://app?vid=cef721fd-afe4-48d0-89b0-0777a634e87f","ios":"levelo://app?vid=cef721fd-afe4-48d0-89b0-0777a634e87f"},"vehicle_type_id":"4","last_reported":1750702481,"current_range_meters":18000,"station_id":"","pricing_plan_id":"cebpf4jnsgd1na2vs0mg"},{"bike_id":"2cbe2879-fabd-4464-8bdb-fb7a05fa97d5","system_id":"levelo_inurba_marseille","lat":43.27611,"lon":5.36111,"is_reserved":false,"is_disabled":false,"rental_uris":{"android":"levelo://app?vid=2cbe2879-fabd-4464-8bdb-fb7a05fa97d5","ios":"levelo://app?vid=2cbe2879-fabd-4464-8bdb-fb7a05fa97d5"},"vehicle_type_id":"4","last_reported":1750702481,"current_range_meters":18000,"station_id":"ce4bgj92rcd13ifvqbe0","pricing_plan_id":"cebpf4jnsgd1na2vs0mg"},{"bike_id":"7b288338-30b0-41b8-8c9c-0c8ae113a5b7","system_id":"levelo_inurba_marseille","lat":43.29841,"lon":5.3627,"is_reserved":false,"is_disabled":false,"rental_uris":{"android":"levelo://app?vid=7b288338-30b0-41b8-8c9c-0c8ae113a5b7","ios":"levelo://app?vid=7b288338-30b0-41b8-8c9c-0c8ae113a5b7"},"vehicle_type_id":"4","last_reported":1750702481,"current_range_meters":18000,"station_id":"ce4bgpp2rcd13ifvqc3g","pricing_plan_id":"cebpf4jnsgd1na2vs0mg"},{"bike_id":"37032d8f-0e74-4f75-812d-08a324fddb43","system_id":"levelo_inurba_marseille","lat":43.28417,"lon":5.34977,"is_reserved":false,"is_disabled":false,"rental_uris":{"android":"levelo://app?vid=37032d8f-0e74-4f75-812d-08a324fddb43","ios":"levelo://app?vid=37032d8f-0e74-4f75-812d-08a324fddb43"},"vehicle_type_id":"4","last_reported":1750702481,"current_range_meters":18000,"station_id":"ce4bhbh2rcd13ifvqepg","pricing_plan_id":"cebpf4jnsgd1na2vs0mg"},{"bike_id":"8786a82e-593c-4c2c-aa32-8467261f7581","system_id":"levelo_inurba_marseille","lat":43.270686,"lon":5.422806,"is_reserved":false,"is_disabled":false,"rental_uris":{"android":"levelo://app?vid=8786a82e-593c-4c2c-aa32-8467261f7581","ios":"levelo://app?vid=8786a82e-593c-4c2c-aa32-8467261f7581"},"vehicle_type_id":"4","last_reported":1750702481,"current_range_meters":18000,"station_id":"ce4bhk92rcd13ifvqgb0","pricing_plan_id":"cebpf4jnsgd1na2vs0mg"},{"bike_id":"a4365bd1-db43-4600-a930-539ba9831134","system_id":"levelo_inurba_marseille","lat":43.27058,"lon":5.40262,"is_reserved":false,"is_disabled":false,"rental_uris":{"android":"levelo://app?vid=a4365bd1-db43-4600-a930-539ba9831134","ios":"levelo://app?vid=a4365bd1-db43-4600-a930-539ba9831134"},"vehicle_type_id":"4","last_reported":1750702481,"current_range_meters":18000,"station_id":"ce4bhk92rcd13ifvqgc0","pricing_plan_id":"cebpf4jnsgd1na2vs0mg"},{"bike_id":"f4e7a039-1267-4e96-a024-13b69cc9c6e7","system_id":"levelo_inurba_marseille","lat":43.251057,"lon":5.403293,"is_reserved":false,"is_disabled":false,"rental_uris":{"android":"levelo://app?vid=f4e7a039-1267-4e96-a024-13b69cc9c6e7","ios":"levelo://app?vid=f4e7a039-1267-4e96-a024-13b69cc9c6e7"},"vehicle_type_id":"4","last_reported":1750702481,"current_range_meters":18000,"station_id":"ce4bhlh2rcd13ifvqgig","pricing_plan_id":"cebpf4jnsgd1na2vs0mg"},{"bike_id":"f79d172a-8e1d-485c-a97c-f416a2837800","system_id":"levelo_inurba_marseille","lat":43.32661,"lon":5.42112,"is_reserved":false,"is_disabled":false,"rental_uris":{"android":"levelo://app?vid=f79d172a-8e1d-485c-a97c-f416a2837800","ios":"levelo://app?vid=f79d172a-8e1d-485c-a97c-f416a2837800"},"vehicle_type_id":"4","last_reported":1750702481,"current_range_meters":18800,"station_id":"","pricing_plan_id":"cebpf4jnsgd1na2vs0mg"},{"bike_id":"ff1500cc-ac8f-45c9-881c-9fd6595094a3","system_id":"levelo_inurba_marseille","lat":43.31805,"lon":5.4018,"is_reserved":false,"is_disabled":false,"rental_uris":{"android":"levelo://app?vid=ff1500cc-ac8f-45c9-881c-9fd6595094a3","ios":"levelo://app?vid=ff1500cc-ac8f-45c9-881c-9fd6595094a3"},"vehicle_type_id":"4","last_reported":1750702481,"current_range_meters":18800,"station_id":"","pricing_plan_id":"cebpf4jnsgd1na2vs0mg"},{"bike_id":"e9d8d249-4f91-4510-ad5b-4da06a8917d5","system_id":"levelo_inurba_marseille","lat":43.3112,"lon":5.37764,"is_reserved":false,"is_disabled":false,"rental_uris":{"android":"levelo://app?vid=e9d8d249-4f91-4510-ad5b-4da06a8917d5","ios":"levelo://app?vid=e9d8d249-4f91-4510-ad5b-4da06a8917d5"},"vehicle_type_id":"4","last_reported":1750702481,"current_range_meters":18800,"station_id":"ce4bgt92rcd13ifvqcg0","pricing_plan_id":"cebpf4jnsgd1na2vs0mg"},{"bike_id":"8da5d167-a956-4b6f-b80d-1162023c715e","system_id":"levelo_inurba_marseille","lat":43.282786,"lon":5.350688,"is_reserved":false,"is_disabled":false,"rental_uris":{"android":"levelo://app?vid=8da5d167-a956-4b6f-b80d-1162023c715e","ios":"levelo://app?vid=8da5d167-a956-4b6f-b80d-1162023c715e"},"vehicle_type_id":"4","last_reported":1750702481,"current_range_meters":18800,"station_id":"ce4bhbp2rcd13ifvqerg","pricing_plan_id":"cebpf4jnsgd1na2vs0mg"},{"bike_id":"996bd21e-6c8a-44b2-be98-011ed8ae22aa","system_id":"levelo_inurba_marseille","lat":43.262123,"lon":5.374446,"is_reserved":false,"is_disabled":false,"rental_uris":{"android":"levelo://app?vid=996bd21e-6c8a-44b2-be98-011ed8ae22aa","ios":"levelo://app?vid=996bd21e-6c8a-44b2-be98-011ed8ae22aa"},"vehicle_type_id":"4","last_reported":1750702481,"current_range_meters":18800,"station_id":"ce4bhgp2rcd13ifvqfc0","pricing_plan_id":"cebpf4jnsgd1na2vs0mg"},{"bike_id":"38b8ac0b-f03e-475a-92f2-d7265d9fbd15","system_id":"levelo_inurba_marseille","lat":43.27073,"lon":5.42285,"is_reserved":false,"is_disabled":false,"rental_uris":{"android":"levelo://app?vid=38b8ac0b-f03e-475a-92f2-d7265d9fbd15","ios":"levelo://app?vid=38b8ac0b-f03e-475a-92f2-d7265d9fbd15"},"vehicle_type_id":"4","last_reported":1750702481,"current_range_meters":18800,"station_id":"ce4bhk92rcd13ifvqgb0","pricing_plan_id":"cebpf4jnsgd1na2vs0mg"},{"bike_id":"6bf0fb3d-c4f9-404a-a416-1560f7fa7c5b","system_id":"levelo_inurba_marseille","lat":43.24179,"lon":5.3639,"is_reserved":false,"is_disabled":false,"rental_uris":{"android":"levelo://app?vid=6bf0fb3d-c4f9-404a-a416-1560f7fa7c5b","ios":"levelo://app?vid=6bf0fb3d-c4f9-404a-a416-1560f7fa7c5b"},"vehicle_type_id":"4","last_reported":1750702481,"current_range_meters":18800,"station_id":"cpo36qri1sfpv3e86is0","pricing_plan_id":"cebpf4jnsgd1na2vs0mg"},{"bike_id":"51b217be-9488-41c1-b083-6d728251b280","system_id":"levelo_inurba_marseille","lat":43.24396,"lon":5.3677,"is_reserved":false,"is_disabled":false,"rental_uris":{"android":"levelo://app?vid=51b217be-9488-41c1-b083-6d728251b280","ios":"levelo://app?vid=51b217be-9488-41c1-b083-6d728251b280"},"vehicle_type_id":"4","last_reported":1750702481,"current_range_meters":19200,"station_id":"","pricing_plan_id":"cebpf4jnsgd1na2vs0mg"},{"bike_id":"f1a68fbd-7f64-4701-8ba6-74cefe2eb8ff","system_id":"levelo_inurba_marseille","lat":43.31176,"lon":5.38722,"is_reserved":false,"is_disabled":false,"rental_uris":{"android":"levelo://app?vid=f1a68fbd-7f64-4701-8ba6-74cefe2eb8ff","ios":"levelo://app?vid=f1a68fbd-7f64-4701-8ba6-74cefe2eb8ff"},"vehicle_type_id":"4","last_reported":1750702481,"current_range_meters":19200,"station_id":"ce4bgv12rcd13ifvqcp0","pricing_plan_id":"cebpf4jnsgd1na2vs0mg"},{"bike_id":"6da14543-eace-48db-9cc8-e8aac2f5aff1","system_id":"levelo_inurba_marseille","lat":43.27374,"lon":5.36254,"is_reserved":false,"is_disabled":false,"rental_uris":{"android":"levelo://app?vid=6da14543-eace-48db-9cc8-e8aac2f5aff1","ios":"levelo://app?vid=6da14543-eace-48db-9cc8-e8aac2f5aff1"},"vehicle_type_id":"4","last_reported":1750702481,"current_range_meters":19200,"station_id":"ce4bhbh2rcd13ifvqeo0","pricing_plan_id":"cebpf4jnsgd1na2vs0mg"},{"bike_id":"9ac8315f-2320-418a-83f8-08d52ee811e6","system_id":"levelo_inurba_marseille","lat":43.28422,"lon":5.34977,"is_reserved":false,"is_disabled":false,"rental_uris":{"android":"levelo://app?vid=9ac8315f-2320-418a-83f8-08d52ee811e6","ios":"levelo://app?vid=9ac8315f-2320-418a-83f8-08d52ee811e6"},"vehicle_type_id":"4","last_reported":1750702481,"current_range_meters":19200,"station_id":"ce4bhbh2rcd13ifvqepg","pricing_plan_id":"cebpf4jnsgd1na2vs0mg"},{"bike_id":"e91f78c5-9265-464c-9b92-3b43cf24be46","system_id":"levelo_inurba_marseille","lat":43.28431,"lon":5.34992,"is_reserved":false,"is_disabled":false,"rental_uris":{"android":"levelo://app?vid=e91f78c5-9265-464c-9b92-3b43cf24be46","ios":"levelo://app?vid=e91f78c5-9265-464c-9b92-3b43cf24be46"},"vehicle_type_id":"4","last_reported":1750702481,"current_range_meters":19200,"station_id":"ce4bhbh2rcd13ifvqepg","pricing_plan_id":"cebpf4jnsgd1na2vs0mg"},{"bike_id":"844c8b41-f923-48aa-990d-f3cc22da735e","system_id":"levelo_inurba_marseille","lat":43.28607,"lon":5.35105,"is_reserved":false,"is_disabled":false,"rental_uris":{"android":"levelo://app?vid=844c8b41-f923-48aa-990d-f3cc22da735e","ios":"levelo://app?vid=844c8b41-f923-48aa-990d-f3cc22da735e"},"vehicle_type_id":"4","last_reported":1750702481,"current_range_meters":19200,"station_id":"ce4bhch2rcd13ifvqeug","pricing_plan_id":"cebpf4jnsgd1na2vs0mg"},{"bike_id":"61cb135a-3f2e-4011-b9ad-591e94745e84","system_id":"levelo_inurba_marseille","lat":43.2573,"lon":5.41107,"is_reserved":false,"is_disabled":false,"rental_uris":{"android":"levelo://app?vid=61cb135a-3f2e-4011-b9ad-591e94745e84","ios":"levelo://app?vid=61cb135a-3f2e-4011-b9ad-591e94745e84"},"vehicle_type_id":"4","last_reported":1750702481,"current_range_meters":19200,"station_id":"ce4bhkp2rcd13ifvqgd0","pricing_plan_id":"cebpf4jnsgd1na2vs0mg"},{"bike_id":"0bde3a21-a25d-4846-b62d-794143df3635","system_id":"levelo_inurba_marseille","lat":43.26811,"lon":5.40276,"is_reserved":false,"is_disabled":false,"rental_uris":{"android":"levelo://app?vid=0bde3a21-a25d-4846-b62d-794143df3635","ios":"levelo://app?vid=0bde3a21-a25d-4846-b62d-794143df3635"},"vehicle_type_id":"4","last_reported":1750702481,"current_range_meters":19200,"station_id":"ce501612rcd8frsf0b60","pricing_plan_id":"cebpf4jnsgd1na2vs0mg"},{"bike_id":"af112b62-19de-41d4-b8d7-e14d0172315d","system_id":"levelo_inurba_marseille","lat":43.32733,"lon":5.39244,"is_reserved":false,"is_disabled":false,"rental_uris":{"android":"levelo://app?vid=af112b62-19de-41d4-b8d7-e14d0172315d","ios":"levelo://app?vid=af112b62-19de-41d4-b8d7-e14d0172315d"},"vehicle_type_id":"4","last_reported":1750702481,"current_range_meters":19600,"station_id":"","pricing_plan_id":"cebpf4jnsgd1na2vs0mg"},{"bike_id":"3499a886-617e-4add-bc79-7d776e7943e6","system_id":"levelo_inurba_marseille","lat":43.33786,"lon":5.37418,"is_reserved":false,"is_disabled":false,"rental_uris":{"android":"levelo://app?vid=3499a886-617e-4add-bc79-7d776e7943e6","ios":"levelo://app?vid=3499a886-617e-4add-bc79-7d776e7943e6"},"vehicle_type_id":"4","last_reported":1750702481,"current_range_meters":19600,"station_id":"","pricing_plan_id":"cebpf4jnsgd1na2vs0mg"},{"bike_id":"27e5f23b-d3bd-45d8-b9b8-2792bcafc99f","system_id":"levelo_inurba_marseille","lat":43.2953,"lon":5.38542,"is_reserved":false,"is_disabled":false,"rental_uris":{"android":"levelo://app?vid=27e5f23b-d3bd-45d8-b9b8-2792bcafc99f","ios":"levelo://app?vid=27e5f23b-d3bd-45d8-b9b8-2792bcafc99f"},"vehicle_type_id":"4","last_reported":1750702481,"current_range_meters":19600,"station_id":"ce4bgih2rcd13ifvqba0","pricing_plan_id":"cebpf4jnsgd1na2vs0mg"},{"bike_id":"4f978807-8f6f-412c-8b2a-3532858a7c35","system_id":"levelo_inurba_marseille","lat":43.29689,"lon":5.37289,"is_reserved":false,"is_disabled":false,"rental_uris":{"android":"levelo://app?vid=4f978807-8f6f-412c-8b2a-3532858a7c35","ios":"levelo://app?vid=4f978807-8f6f-412c-8b2a-3532858a7c35"},"vehicle_type_id":"4","last_reported":1750702481,"current_range_meters":19600,"station_id":"ce4bgk12rcd13ifvqbj0","pricing_plan_id":"cebpf4jnsgd1na2vs0mg"},{"bike_id":"0e4cd220-3675-4804-b827-9acb3398c191","system_id":"levelo_inurba_marseille","lat":43.28697,"lon":5.37396,"is_reserved":false,"is_disabled":false,"rental_uris":{"android":"levelo://app?vid=0e4cd220-3675-4804-b827-9acb3398c191","ios":"levelo://app?vid=0e4cd220-3675-4804-b827-9acb3398c191"},"vehicle_type_id":"4","last_reported":1750702481,"current_range_meters":19600,"station_id":"ce4bh3p2rcd13ifvqdq0","pricing_plan_id":"cebpf4jnsgd1na2vs0mg"},{"bike_id":"e46dd448-1597-45e2-8770-aef53f327b33","system_id":"levelo_inurba_marseille","lat":43.292684,"lon":5.384343,"is_reserved":false,"is_disabled":false,"rental_uris":{"android":"levelo://app?vid=e46dd448-1597-45e2-8770-aef53f327b33","ios":"levelo://app?vid=e46dd448-1597-45e2-8770-aef53f327b33"},"vehicle_type_id":"4","last_reported":1750702481,"current_range_meters":19600,"station_id":"ce4bh692rcd13ifvqea0","pricing_plan_id":"cebpf4jnsgd1na2vs0mg"},{"bike_id":"1a8d5b15-2aac-4c86-8dbb-14c9332d584c","system_id":"levelo_inurba_marseille","lat":43.28427,"lon":5.34986,"is_reserved":false,"is_disabled":false,"rental_uris":{"android":"levelo://app?vid=1a8d5b15-2aac-4c86-8dbb-14c9332d584c","ios":"levelo://app?vid=1a8d5b15-2aac-4c86-8dbb-14c9332d584c"},