{"last_updated":1745266280,"ttl":60,"version":"2.2","data":{"bikes":[{"bike_id":"7ec59f3a-cca3-419d-bad2-9a533c42686c","system_id":"levelo_inurba_marseille","lat":43.32364,"lon":5.38886,"is_reserved":false,"is_disabled":false,"rental_uris":{"android":"levelo://app?vid=7ec59f3a-cca3-419d-bad2-9a533c42686c","ios":"levelo://app?vid=7ec59f3a-cca3-419d-bad2-9a533c42686c"},"vehicle_type_id":"4","last_reported":1745266280,"current_range_meters":2800,"station_id":"ce4bhqp2rcd13ifvqhog","pricing_plan_id":"cebpf4jnsgd1na2vs0mg"},{"bike_id":"dcf6d2bf-a79f-4f03-8e62-f22297319cc3","system_id":"levelo_inurba_marseille","lat":43.22918,"lon":5.3538,"is_reserved":false,"is_disabled":true,"rental_uris":{"android":"levelo://app?vid=dcf6d2bf-a79f-4f03-8e62-f22297319cc3","ios":"levelo://app?vid=dcf6d2bf-a79f-4f03-8e62-f22297319cc3"},"vehicle_type_id":"4","last_reported":1745266280,"current_range_meters":2800,"station_id":"cpo3532slgdg3j2ikp40","pricing_plan_id":"cebpf4jnsgd1na2vs0mg"},{"bike_id":"9c06a180-252b-4d26-bd9a-cc00400e88af","system_id":"levelo_inurba_marseille","lat":43.30311,"lon":5.39208,"is_reserved":false,"is_disabled":true,"rental_uris":{"android":"levelo://app?vid=9c06a180-252b-4d26-bd9a-cc00400e88af","ios":"levelo://app?vid=9c06a180-252b-4d26-bd9a-cc00400e88af"},"vehicle_type_id":"4","last_reported":1745266280,"current_range_meters":3200,"station_id":"ce4bgkh2rcd13ifvqbk0","pricing_plan_id":"cebpf4jnsgd1na2vs0mg"},{"bike_id":"dea4c88b-2c2f-43a7-bd81-9c9b914276fd","system_id":"levelo_inurba_marseille","lat":43.23182,"lon":5.35562,"is_reserved":false,"is_disabled":true,"rental_uris":{"android":"levelo://app?vid=dea4c88b-2c2f-43a7-bd81-9c9b914276fd","ios":"levelo://app?vid=dea4c88b-2c2f-43a7-bd81-9c9b914276fd"},"vehicle_type_id":"4","last_reported":1745266280,"current_range_meters":3200,"station_id":"ce4bhu92rcd13ifvqi70","pricing_plan_id":"cebpf4jnsgd1na2vs0mg"},{"bike_id":"db63ef2b-f795-4461-841e-4a88a18bc5c9","system_id":"levelo_inurba_marseille","lat":43.2945,"lon":5.39755,"is_reserved":false,"is_disabled":true,"rental_uris":{"android":"levelo://app?vid=db63ef2b-f795-4461-841e-4a88a18bc5c9","ios":"levelo://app?vid=db63ef2b-f795-4461-841e-4a88a18bc5c9"},"vehicle_type_id":"4","last_reported":1745266280,"current_range_meters":3600,"station_id":"ce4bh3h2rcd13ifvqdo0","pricing_plan_id":"cebpf4jnsgd1na2vs0mg"},{"bike_id":"213fb158-06bd-4e42-8510-0aa3f7eaae67","system_id":"levelo_inurba_marseille","lat":43.23204,"lon":5.35557,"is_reserved":false,"is_disabled":true,"rental_uris":{"android":"levelo://app?vid=213fb158-06bd-4e42-8510-0aa3f7eaae67","ios":"levelo://app?vid=213fb158-06bd-4e42-8510-0aa3f7eaae67"},"vehicle_type_id":"4","last_reported":1745266280,"current_range_meters":3600,"station_id":"ce4bhu92rcd13ifvqi70","pricing_plan_id":"cebpf4jnsgd1na2vs0mg"},{"bike_id":"c6023d7b-0c8f-4a5e-8eb4-dd919f7bc1c0","system_id":"levelo_inurba_marseille","lat":43.27375,"lon":5.36271,"is_reserved":false,"is_disabled":true,"rental_uris":{"android":"levelo://app?vid=c6023d7b-0c8f-4a5e-8eb4-dd919f7bc1c0","ios":"levelo://app?vid=c6023d7b-0c8f-4a5e-8eb4-dd919f7bc1c0"},"vehicle_type_id":"4","last_reported":1745266280,"current_range_meters":3600,"station_id":"ce4bhbh2rcd13ifvqeo0","pricing_plan_id":"cebpf4jnsgd1na2vs0mg"},{"bike_id":"fc3312cf-0fd5-4970-b770-7d8b0ddcaf00","system_id":"levelo_inurba_marseille","lat":43.28445,"lon":5.35898,"is_reserved":false,"is_disabled":false,"rental_uris":{"android":"levelo://app?vid=fc3312cf-0fd5-4970-b770-7d8b0ddcaf00","ios":"levelo://app?vid=fc3312cf-0fd5-4970-b770-7d8b0ddcaf00"},"vehicle_type_id":"4","last_reported":1745266280,"current_range_meters":3600,"station_id":"ce4bhah2rcd13ifvqei0","pricing_plan_id":"cebpf4jnsgd1na2vs0mg"},{"bike_id":"cbd0da17-392b-428e-bff1-a7ede41c159a","system_id":"levelo_inurba_marseille","lat":43.28846,"lon":5.39304,"is_reserved":false,"is_disabled":false,"rental_uris":{"android":"levelo://app?vid=cbd0da17-392b-428e-bff1-a7ede41c159a","ios":"levelo://app?vid=cbd0da17-392b-428e-bff1-a7ede41c159a"},"vehicle_type_id":"4","last_reported":1745266280,"current_range_meters":4000,"station_id":"ce4bh2p2rcd13ifvqdi0","pricing_plan_id":"cebpf4jnsgd1na2vs0mg"},{"bike_id":"c1c8a22c-941a-4cd0-91ab-917b1055c823","system_id":"levelo_inurba_marseille","lat":43.30144,"lon":5.38086,"is_reserved":false,"is_disabled":true,"rental_uris":{"android":"levelo://app?vid=c1c8a22c-941a-4cd0-91ab-917b1055c823","ios":"levelo://app?vid=c1c8a22c-941a-4cd0-91ab-917b1055c823"},"vehicle_type_id":"4","last_reported":1745266280,"current_range_meters":4000,"station_id":"ce4bgjp2rcd13ifvqbh0","pricing_plan_id":"cebpf4jnsgd1na2vs0mg"},{"bike_id":"d857e1aa-cf98-49eb-93ac-a99be2ceae3b","system_id":"levelo_inurba_marseille","lat":43.27058,"lon":5.40261,"is_reserved":false,"is_disabled":false,"rental_uris":{"android":"levelo://app?vid=d857e1aa-cf98-49eb-93ac-a99be2ceae3b","ios":"levelo://app?vid=d857e1aa-cf98-49eb-93ac-a99be2ceae3b"},"vehicle_type_id":"4","last_reported":1745266280,"current_range_meters":4400,"station_id":"ce4bhk92rcd13ifvqgc0","pricing_plan_id":"cebpf4jnsgd1na2vs0mg"},{"bike_id":"95f73772-e355-4534-b118-e050b1cf6b18","system_id":"levelo_inurba_marseille","lat":43.2928,"lon":5.36846,"is_reserved":false,"is_disabled":false,"rental_uris":{"android":"levelo://app?vid=95f73772-e355-4534-b118-e050b1cf6b18","ios":"levelo://app?vid=95f73772-e355-4534-b118-e050b1cf6b18"},"vehicle_type_id":"4","last_reported":1745266280,"current_range_meters":4400,"station_id":"ce4bhbp2rcd13ifvqesg","pricing_plan_id":"cebpf4jnsgd1na2vs0mg"},{"bike_id":"7cd384a8-9bf8-4185-954e-cd4be8774e72","system_id":"levelo_inurba_marseille","lat":43.2807,"lon":5.39636,"is_reserved":false,"is_disabled":false,"rental_uris":{"android":"levelo://app?vid=7cd384a8-9bf8-4185-954e-cd4be8774e72","ios":"levelo://app?vid=7cd384a8-9bf8-4185-954e-cd4be8774e72"},"vehicle_type_id":"4","last_reported":1745266280,"current_range_meters":4400,"station_id":"ce4bho12rcd13ifvqh2g","pricing_plan_id":"cebpf4jnsgd1na2vs0mg"},{"bike_id":"a4588adf-f566-403b-8425-988c3b82f4a0","system_id":"levelo_inurba_marseille","lat":43.287201,"lon":5.360884,"is_reserved":false,"is_disabled":false,"rental_uris":{"android":"levelo://app?vid=a4588adf-f566-403b-8425-988c3b82f4a0","ios":"levelo://app?vid=a4588adf-f566-403b-8425-988c3b82f4a0"},"vehicle_type_id":"4","last_reported":1745266280,"current_range_meters":4400,"station_id":"cki0cbj6b192h4jlfktg","pricing_plan_id":"cebpf4jnsgd1na2vs0mg"},{"bike_id":"1d3ad12c-49e9-4321-8cc9-f689e02a3e54","system_id":"levelo_inurba_marseille","lat":43.25026,"lon":5.38919,"is_reserved":false,"is_disabled":false,"rental_uris":{"android":"levelo://app?vid=1d3ad12c-49e9-4321-8cc9-f689e02a3e54","ios":"levelo://app?vid=1d3ad12c-49e9-4321-8cc9-f689e02a3e54"},"vehicle_type_id":"4","last_reported":1745266280,"current_range_meters":4800,"station_id":"ce4bhgp2rcd13ifvqfd0","pricing_plan_id":"cebpf4jnsgd1na2vs0mg"},{"bike_id":"d912ab3c-5874-4483-b62f-9a7bb0c626e0","system_id":"levelo_inurba_marseille","lat":43.28567,"lon":5.39501,"is_reserved":false,"is_disabled":false,"rental_uris":{"android":"levelo://app?vid=d912ab3c-5874-4483-b62f-9a7bb0c626e0","ios":"levelo://app?vid=d912ab3c-5874-4483-b62f-9a7bb0c626e0"},"vehicle_type_id":"4","last_reported":1745266280,"current_range_meters":4800,"station_id":"ce4bh292rcd13ifvqdg0","pricing_plan_id":"cebpf4jnsgd1na2vs0mg"},{"bike_id":"13dcc10c-4cac-4cf2-9318-07e242720dc9","system_id":"levelo_inurba_marseille","lat":43.312,"lon":5.37715,"is_reserved":false,"is_disabled":false,"rental_uris":{"android":"levelo://app?vid=13dcc10c-4cac-4cf2-9318-07e242720dc9","ios":"levelo://app?vid=13dcc10c-4cac-4cf2-9318-07e242720dc9"},"vehicle_type_id":"4","last_reported":1745266280,"current_range_meters":4800,"station_id":"","pricing_plan_id":"cebpf4jnsgd1na2vs0mg"},{"bike_id":"b1edf6d0-1ee9-48dc-840a-fb8fa4348e00","system_id":"levelo_inurba_marseille","lat":43.303031,"lon":5.368793,"is_reserved":false,"is_disabled":false,"rental_uris":{"android":"levelo://app?vid=b1edf6d0-1ee9-48dc-840a-fb8fa4348e00","ios":"levelo://app?vid=b1edf6d0-1ee9-48dc-840a-fb8fa4348e00"},"vehicle_type_id":"4","last_reported":1745266280,"current_range_meters":4800,"station_id":"ce4bgqh2rcd13ifvqc5g","pricing_plan_id":"cebpf4jnsgd1na2vs0mg"},{"bike_id":"4f0b25c3-2f51-4c00-9f56-69333455e756","system_id":"levelo_inurba_marseille","lat":43.27861,"lon":5.39297,"is_reserved":false,"is_disabled":false,"rental_uris":{"android":"levelo://app?vid=4f0b25c3-2f51-4c00-9f56-69333455e756","ios":"levelo://app?vid=4f0b25c3-2f51-4c00-9f56-69333455e756"},"vehicle_type_id":"4","last_reported":1745266280,"current_range_meters":4800,"station_id":"","pricing_plan_id":"cebpf4jnsgd1na2vs0mg"},{"bike_id":"e39d68e1-d581-42b4-beaf-9a00f5ac5bac","system_id":"levelo_inurba_marseille","lat":43.21191,"lon":5.35062,"is_reserved":false,"is_disabled":true,"rental_uris":{"android":"levelo://app?vid=e39d68e1-d581-42b4-beaf-9a00f5ac5bac","ios":"levelo://app?vid=e39d68e1-d581-42b4-beaf-9a00f5ac5bac"},"vehicle_type_id":"4","last_reported":1745266280,"current_range_meters":4800,"station_id":"st_cvj6sg6p6f1abm77japg","pricing_plan_id":"cebpf4jnsgd1na2vs0mg"},{"bike_id":"949a3b98-b3d0-4b58-9e5c-50967c540964","system_id":"levelo_inurba_marseille","lat":43.29697,"lon":5.40082,"is_reserved":false,"is_disabled":false,"rental_uris":{"android":"levelo://app?vid=949a3b98-b3d0-4b58-9e5c-50967c540964","ios":"levelo://app?vid=949a3b98-b3d0-4b58-9e5c-50967c540964"},"vehicle_type_id":"4","last_reported":1745266280,"current_range_meters":4800,"station_id":"","pricing_plan_id":"cebpf4jnsgd1na2vs0mg"},{"bike_id":"45153191-45c4-445e-976e-05a0742d263d","system_id":"levelo_inurba_marseille","lat":43.2901,"lon":5.38618,"is_reserved":false,"is_disabled":false,"rental_uris":{"android":"levelo://app?vid=45153191-45c4-445e-976e-05a0742d263d","ios":"levelo://app?vid=45153191-45c4-445e-976e-05a0742d263d"},"vehicle_type_id":"4","last_reported":1745266280,"current_range_meters":5600,"station_id":"ce4bh4p2rcd13ifvqe0g","pricing_plan_id":"cebpf4jnsgd1na2vs0mg"},{"bike_id":"27a40fa6-b404-4262-851e-c42c1e946532","system_id":"levelo_inurba_marseille","lat":43.33602,"lon":5.41033,"is_reserved":false,"is_disabled":false,"rental_uris":{"android":"levelo://app?vid=27a40fa6-b404-4262-851e-c42c1e946532","ios":"levelo://app?vid=27a40fa6-b404-4262-851e-c42c1e946532"},"vehicle_type_id":"4","last_reported":1745266280,"current_range_meters":5600,"station_id":"ce4bhqh2rcd13ifvqhmg","pricing_plan_id":"cebpf4jnsgd1na2vs0mg"},{"bike_id":"a4a7cedc-c786-47df-8d14-a6a6acce591a","system_id":"levelo_inurba_marseille","lat":43.30551,"lon":5.38419,"is_reserved":false,"is_disabled":false,"rental_uris":{"android":"levelo://app?vid=a4a7cedc-c786-47df-8d14-a6a6acce591a","ios":"levelo://app?vid=a4a7cedc-c786-47df-8d14-a6a6acce591a"},"vehicle_type_id":"4","last_reported":1745266280,"current_range_meters":5600,"station_id":"ce4bgg92rcd13ifvqb30","pricing_plan_id":"cebpf4jnsgd1na2vs0mg"},{"bike_id":"54c9d24f-0d4e-40d4-a6a8-461b9872d166","system_id":"levelo_inurba_marseille","lat":43.29092,"lon":5.38132,"is_reserved":false,"is_disabled":false,"rental_uris":{"android":"levelo://app?vid=54c9d24f-0d4e-40d4-a6a8-461b9872d166","ios":"levelo://app?vid=54c9d24f-0d4e-40d4-a6a8-461b9872d166"},"vehicle_type_id":"4","last_reported":1745266280,"current_range_meters":5600,"station_id":"ce4bh512rcd13ifvqe2g","pricing_plan_id":"cebpf4jnsgd1na2vs0mg"},{"bike_id":"ed825042-82e5-45e2-ab72-98341c75fc30","system_id":"levelo_inurba_marseille","lat":43.25091,"lon":5.3952,"is_reserved":false,"is_disabled":false,"rental_uris":{"android":"levelo://app?vid=ed825042-82e5-45e2-ab72-98341c75fc30","ios":"levelo://app?vid=ed825042-82e5-45e2-ab72-98341c75fc30"},"vehicle_type_id":"4","last_reported":1745266280,"current_range_meters":6000,"station_id":"ce4bhm12rcd13ifvqgkg","pricing_plan_id":"cebpf4jnsgd1na2vs0mg"},{"bike_id":"2bdde4a3-7509-460a-b2c7-d172c5297380","system_id":"levelo_inurba_marseille","lat":43.21188,"lon":5.3509,"is_reserved":false,"is_disabled":true,"rental_uris":{"android":"levelo://app?vid=2bdde4a3-7509-460a-b2c7-d172c5297380","ios":"levelo://app?vid=2bdde4a3-7509-460a-b2c7-d172c5297380"},"vehicle_type_id":"4","last_reported":1745266280,"current_range_meters":6000,"station_id":"st_cvj6sg6p6f1abm77japg","pricing_plan_id":"cebpf4jnsgd1na2vs0mg"},{"bike_id":"49225d49-9260-47b2-a782-7d3d21b08c48","system_id":"levelo_inurba_marseille","lat":43.295342,"lon":5.378851,"is_reserved":false,"is_disabled":false,"rental_uris":{"android":"levelo://app?vid=49225d49-9260-47b2-a782-7d3d21b08c48","ios":"levelo://app?vid=49225d49-9260-47b2-a782-7d3d21b08c48"},"vehicle_type_id":"4","last_reported":1745266280,"current_range_meters":6000,"station_id":"","pricing_plan_id":"cebpf4jnsgd1na2vs0mg"},{"bike_id":"bfefb57c-154e-4cbc-90d7-24ac4b95745f","system_id":"levelo_inurba_marseille","lat":43.31007,"lon":5.37092,"is_reserved":false,"is_disabled":false,"rental_uris":{"android":"levelo://app?vid=bfefb57c-154e-4cbc-90d7-24ac4b95745f","ios":"levelo://app?vid=bfefb57c-154e-4cbc-90d7-24ac4b95745f"},"vehicle_type_id":"4","last_reported":1745266280,"current_range_meters":6000,"station_id":"","pricing_plan_id":"cebpf4jnsgd1na2vs0mg"},{"bike_id":"f3a6c5f6-add9-4287-b8b4-ad84f23fb64d","system_id":"levelo_inurba_marseille","lat":43.31489,"lon":5.37309,"is_reserved":false,"is_disabled":false,"rental_uris":{"android":"levelo://app?vid=f3a6c5f6-add9-4287-b8b4-ad84f23fb64d","ios":"levelo://app?vid=f3a6c5f6-add9-4287-b8b4-ad84f23fb64d"},"vehicle_type_id":"4","last_reported":1745266280,"current_range_meters":6000,"station_id":"ce4bgt12rcd13ifvqcd0","pricing_plan_id":"cebpf4jnsgd1na2vs0mg"},{"bike_id":"86e4372a-5b33-4f25-8e82-c6259ad77bf0","system_id":"levelo_inurba_marseille","lat":43.28344,"lon":5.38109,"is_reserved":false,"is_disabled":false,"rental_uris":{"android":"levelo://app?vid=86e4372a-5b33-4f25-8e82-c6259ad77bf0","ios":"levelo://app?vid=86e4372a-5b33-4f25-8e82-c6259ad77bf0"},"vehicle_type_id":"4","last_reported":1745266280,"current_range_meters":6400,"station_id":"ce4bh412rcd13ifvqdr0","pricing_plan_id":"cebpf4jnsgd1na2vs0mg"},{"bike_id":"092387f3-0c22-4c28-9512-4e664c29bb1d","system_id":"levelo_inurba_marseille","lat":43.32499,"lon":5.36577,"is_reserved":false,"is_disabled":false,"rental_uris":{"android":"levelo://app?vid=092387f3-0c22-4c28-9512-4e664c29bb1d","ios":"levelo://app?vid=092387f3-0c22-4c28-9512-4e664c29bb1d"},"vehicle_type_id":"4","last_reported":1745266280,"current_range_meters":6400,"station_id":"ce4bhs12rcd13ifvqhvg","pricing_plan_id":"cebpf4jnsgd1na2vs0mg"},{"bike_id":"9f354094-8daa-47e9-a771-5877caf7e8d3","system_id":"levelo_inurba_marseille","lat":43.28413,"lon":5.37523,"is_reserved":false,"is_disabled":false,"rental_uris":{"android":"levelo://app?vid=9f354094-8daa-47e9-a771-5877caf7e8d3","ios":"levelo://app?vid=9f354094-8daa-47e9-a771-5877caf7e8d3"},"vehicle_type_id":"4","last_reported":1745266280,"current_range_meters":6400,"station_id":"ce4bh412rcd13ifvqds0","pricing_plan_id":"cebpf4jnsgd1na2vs0mg"},{"bike_id":"901518be-3c90-4e14-ada4-9071cd926d8b","system_id":"levelo_inurba_marseille","lat":43.27492,"lon":5.42455,"is_reserved":false,"is_disabled":true,"rental_uris":{"android":"levelo://app?vid=901518be-3c90-4e14-ada4-9071cd926d8b","ios":"levelo://app?vid=901518be-3c90-4e14-ada4-9071cd926d8b"},"vehicle_type_id":"4","last_reported":1745266280,"current_range_meters":6400,"station_id":"ce4bhn92rcd13ifvqgrg","pricing_plan_id":"cebpf4jnsgd1na2vs0mg"},{"bike_id":"8a7ec3da-38e6-4187-9266-c9d5e220963c","system_id":"levelo_inurba_marseille","lat":43.24636,"lon":5.38913,"is_reserved":false,"is_disabled":false,"rental_uris":{"android":"levelo://app?vid=8a7ec3da-38e6-4187-9266-c9d5e220963c","ios":"levelo://app?vid=8a7ec3da-38e6-4187-9266-c9d5e220963c"},"vehicle_type_id":"4","last_reported":1745266280,"current_range_meters":6400,"station_id":"ce4bhg12rcd13ifvqf60","pricing_plan_id":"cebpf4jnsgd1na2vs0mg"},{"bike_id":"4bf257ff-5181-40fc-87ed-08d661564e4c","system_id":"levelo_inurba_marseille","lat":43.29533,"lon":5.38537,"is_reserved":false,"is_disabled":false,"rental_uris":{"android":"levelo://app?vid=4bf257ff-5181-40fc-87ed-08d661564e4c","ios":"levelo://app?vid=4bf257ff-5181-40fc-87ed-08d661564e4c"},"vehicle_type_id":"4","last_reported":1745266280,"current_range_meters":6800,"station_id":"ce4bgih2rcd13ifvqba0","pricing_plan_id":"cebpf4jnsgd1na2vs0mg"},{"bike_id":"3c0476d8-b593-4070-8824-6a6cc60791d1","system_id":"levelo_inurba_marseille","lat":43.27995,"lon":5.40015,"is_reserved":false,"is_disabled":false,"rental_uris":{"android":"levelo://app?vid=3c0476d8-b593-4070-8824-6a6cc60791d1","ios":"levelo://app?vid=3c0476d8-b593-4070-8824-6a6cc60791d1"},"vehicle_type_id":"4","last_reported":1745266280,"current_range_meters":6800,"station_id":"ce4bho92rcd13ifvqh4g","pricing_plan_id":"cebpf4jnsgd1na2vs0mg"},{"bike_id":"3a6d009e-2e7e-4c02-9f51-08d9aaf56ce6","system_id":"levelo_inurba_marseille","lat":43.3032,"lon":5.39172,"is_reserved":false,"is_disabled":true,"rental_uris":{"android":"levelo://app?vid=3a6d009e-2e7e-4c02-9f51-08d9aaf56ce6","ios":"levelo://app?vid=3a6d009e-2e7e-4c02-9f51-08d9aaf56ce6"},"vehicle_type_id":"4","last_reported":1745266280,"current_range_meters":6800,"station_id":"ce4bgkh2rcd13ifvqbk0","pricing_plan_id":"cebpf4jnsgd1na2vs0mg"},{"bike_id":"6d0b1e09-0778-4875-a9ec-ebd4ab3c5c71","system_id":"levelo_inurba_marseille","lat":43.21217,"lon":5.35058,"is_reserved":false,"is_disabled":true,"rental_uris":{"android":"levelo://app?vid=6d0b1e09-0778-4875-a9ec-ebd4ab3c5c71","ios":"levelo://app?vid=6d0b1e09-0778-4875-a9ec-ebd4ab3c5c71"},"vehicle_type_id":"4","last_reported":1745266280,"current_range_meters":6800,"station_id":"st_cvj6sg6p6f1abm77japg","pricing_plan_id":"cebpf4jnsgd1na2vs0mg"},{"bike_id":"a373f1b2-c1f8-4d57-bca1-4c97514ea92c","system_id":"levelo_inurba_marseille","lat":43.31182,"lon":5.36858,"is_reserved":false,"is_disabled":true,"rental_uris":{"android":"levelo://app?vid=a373f1b2-c1f8-4d57-bca1-4c97514ea92c","ios":"levelo://app?vid=a373f1b2-c1f8-4d57-bca1-4c97514ea92c"},"vehicle_type_id":"4","last_reported":1745266280,"current_range_meters":6800,"station_id":"ce4bgl92rcd13ifvqbq0","pricing_plan_id":"cebpf4jnsgd1na2vs0mg"},{"bike_id":"f984d1c9-94d7-48d1-9f06-f702edb8335d","system_id":"levelo_inurba_marseille","lat":43.24197,"lon":5.36384,"is_reserved":false,"is_disabled":true,"rental_uris":{"android":"levelo://app?vid=f984d1c9-94d7-48d1-9f06-f702edb8335d","ios":"levelo://app?vid=f984d1c9-94d7-48d1-9f06-f702edb8335d"},"vehicle_type_id":"4","last_reported":1745266280,"current_range_meters":6800,"station_id":"cpo36qri1sfpv3e86is0","pricing_plan_id":"cebpf4jnsgd1na2vs0mg"},{"bike_id":"fce42aed-2209-4249-9139-b16de87552a7","system_id":"levelo_inurba_marseille","lat":43.30983,"lon":5.39048,"is_reserved":false,"is_disabled":false,"rental_uris":{"android":"levelo://app?vid=fce42aed-2209-4249-9139-b16de87552a7","ios":"levelo://app?vid=fce42aed-2209-4249-9139-b16de87552a7"},"vehicle_type_id":"4","last_reported":1745266280,"current_range_meters":7200,"station_id":"ce4bgup2rcd13ifvqco0","pricing_plan_id":"cebpf4jnsgd1na2vs0mg"},{"bike_id":"5e089099-a8de-4eac-a40d-6bbf192c5e01","system_id":"levelo_inurba_marseille","lat":43.29417,"lon":5.3863,"is_reserved":false,"is_disabled":false,"rental_uris":{"android":"levelo://app?vid=5e089099-a8de-4eac-a40d-6bbf192c5e01","ios":"levelo://app?vid=5e089099-a8de-4eac-a40d-6bbf192c5e01"},"vehicle_type_id":"4","last_reported":1745266280,"current_range_meters":7200,"station_id":"ce4bh2h2rcd13ifvqdh0","pricing_plan_id":"cebpf4jnsgd1na2vs0mg"},{"bike_id":"f8a4dedb-ece2-49f2-82c0-8ba3b30d7a70","system_id":"levelo_inurba_marseille","lat":43.31387,"lon":5.38503,"is_reserved":false,"is_disabled":false,"rental_uris":{"android":"levelo://app?vid=f8a4dedb-ece2-49f2-82c0-8ba3b30d7a70","ios":"levelo://app?vid=f8a4dedb-ece2-49f2-82c0-8ba3b30d7a70"},"vehicle_type_id":"4","last_reported":1745266280,"current_range_meters":7200,"station_id":"ce4bgt92rcd13ifvqcf0","pricing_plan_id":"cebpf4jnsgd1na2vs0mg"},{"bike_id":"bea197fe-622f-4f95-a064-e6ff03983c80","system_id":"levelo_inurba_marseille","lat":43.29335,"lon":5.40203,"is_reserved":false,"is_disabled":false,"rental_uris":{"android":"levelo://app?vid=bea197fe-622f-4f95-a064-e6ff03983c80","ios":"levelo://app?vid=bea197fe-622f-4f95-a064-e6ff03983c80"},"vehicle_type_id":"4","last_reported":1745266280,"current_range_meters":7200,"station_id":"","pricing_plan_id":"cebpf4jnsgd1na2vs0mg"},{"bike_id":"e9b40b8c-aa8b-493b-9704-ac204b4fdb74","system_id":"levelo_inurba_marseille","lat":43.22504,"lon":5.34778,"is_reserved":false,"is_disabled":true,"rental_uris":{"android":"levelo://app?vid=e9b40b8c-aa8b-493b-9704-ac204b4fdb74","ios":"levelo://app?vid=e9b40b8c-aa8b-493b-9704-ac204b4fdb74"},"vehicle_type_id":"4","last_reported":1745266280,"current_range_meters":7200,"station_id":"","pricing_plan_id":"cebpf4jnsgd1na2vs0mg"},{"bike_id":"d5254860-01e9-48cf-aa1d-c9230eea6296","system_id":"levelo_inurba_marseille","lat":43.31689,"lon":5.40472,"is_reserved":false,"is_disabled":false,"rental_uris":{"android":"levelo://app?vid=d5254860-01e9-48cf-aa1d-c9230eea6296","ios":"levelo://app?vid=d5254860-01e9-48cf-aa1d-c9230eea6296"},"vehicle_type_id":"4","last_reported":1745266280,"current_range_meters":7200,"station_id":"ce4bh012rcd13ifvqd00","pricing_plan_id":"cebpf4jnsgd1na2vs0mg"},{"bike_id":"0e3f01e5-c3de-4476-9321-0ae8ce1ce1f2","system_id":"levelo_inurba_marseille","lat":43.28367,"lon":5.38619,"is_reserved":false,"is_disabled":false,"rental_uris":{"android":"levelo://app?vid=0e3f01e5-c3de-4476-9321-0ae8ce1ce1f2","ios":"levelo://app?vid=0e3f01e5-c3de-4476-9321-0ae8ce1ce1f2"},"vehicle_type_id":"4","last_reported":1745266280,"current_range_meters":7200,"station_id":"ce4bh492rcd13ifvqdvg","pricing_plan_id":"cebpf4jnsgd1na2vs0mg"},{"bike_id":"0d5ea7b1-dddf-43fe-aea2-a6db5036338d","system_id":"levelo_inurba_marseille","lat":43.290255,"lon":5.38641,"is_reserved":false,"is_disabled":true,"rental_uris":{"android":"levelo://app?vid=0d5ea7b1-dddf-43fe-aea2-a6db5036338d","ios":"levelo://app?vid=0d5ea7b1-dddf-43fe-aea2-a6db5036338d"},"vehicle_type_id":"4","last_reported":1745266280,"current_range_meters":8000,"station_id":"ce4bh4p2rcd13ifvqe0g","pricing_plan_id":"cebpf4jnsgd1na2vs0mg"},{"bike_id":"47ece7d5-b83c-4f4c-9b4f-37709ab677b7","system_id":"levelo_inurba_marseille","lat":43.29229,"lon":5.40904,"is_reserved":false,"is_disabled":false,"rental_uris":{"android":"levelo://app?vid=47ece7d5-b83c-4f4c-9b4f-37709ab677b7","ios":"levelo://app?vid=47ece7d5-b83c-4f4c-9b4f-37709ab677b7"},"vehicle_type_id":"4","last_reported":1745266280,"current_range_meters":8000,"station_id":"ce4bh192rcd13ifvqdc0","pricing_plan_id":"cebpf4jnsgd1na2vs0mg"},{"bike_id":"3be8363e-85d5-4418-bd40-fd2496f282a2","system_id":"levelo_inurba_marseille","lat":43.31689,"lon":5.40454,"is_reserved":false,"is_disabled":false,"rental_uris":{"android":"levelo://app?vid=3be8363e-85d5-4418-bd40-fd2496f282a2","ios":"levelo://app?vid=3be8363e-85d5-4418-bd40-fd2496f282a2"},"vehicle_type_id":"4","last_reported":1745266280,"current_range_meters":8000,"station_id":"ce4bh012rcd13ifvqd00","pricing_plan_id":"cebpf4jnsgd1na2vs0mg"},{"bike_id":"d2ad2d5d-49f3-4cbf-9a85-e6db35cbb04d","system_id":"levelo_inurba_marseille","lat":43.25709,"lon":5.41108,"is_reserved":false,"is_disabled":false,"rental_uris":{"android":"levelo://app?vid=d2ad2d5d-49f3-4cbf-9a85-e6db35cbb04d","ios":"levelo://app?vid=d2ad2d5d-49f3-4cbf-9a85-e6db35cbb04d"},"vehicle_type_id":"4","last_reported":1745266280,"current_range_meters":8000,"station_id":"ce4bhkp2rcd13ifvqgd0","pricing_plan_id":"cebpf4jnsgd1na2vs0mg"},{"bike_id":"5be67c99-ebef-4c1b-9545-b444ef6dd709","system_id":"levelo_inurba_marseille","lat":43.29889,"lon":5.38886,"is_reserved":false,"is_disabled":false,"rental_uris":{"android":"levelo://app?vid=5be67c99-ebef-4c1b-9545-b444ef6dd709","ios":"levelo://app?vid=5be67c99-ebef-4c1b-9545-b444ef6dd709"},"vehicle_type_id":"4","last_reported":1745266280,"current_range_meters":7200,"station_id":"ce4bh392rcd13ifvqdl0","pricing_plan_id":"cebpf4jnsgd1na2vs0mg"},{"bike_id":"6c767b6c-fd34-48f7-9213-69360594bf57","system_id":"levelo_inurba_marseille","lat":43.305917,"lon":5.393462,"is_reserved":false,"is_disabled":false,"rental_uris":{"android":"levelo://app?vid=6c767b6c-fd34-48f7-9213-69360594bf57","ios":"levelo://app?vid=6c767b6c-fd34-48f7-9213-69360594bf57"},"vehicle_type_id":"4","last_reported":1745266280,"current_range_meters":8800,"station_id":"ce4bh0p2rcd13ifvqd80","pricing_plan_id":"cebpf4jnsgd1na2vs0mg"},{"bike_id":"9bc886cd-f9c7-491e-94f3-12f2b6b04b10","system_id":"levelo_inurba_marseille","lat":43.313599,"lon":5.384894,"is_reserved":false,"is_disabled":false,"rental_uris":{"android":"levelo://app?vid=9bc886cd-f9c7-491e-94f3-12f2b6b04b10","ios":"levelo://app?vid=9bc886cd-f9c7-491e-94f3-12f2b6b04b10"},"vehicle_type_id":"4","last_reported":1745266280,"current_range_meters":8000,"station_id":"ce4bgt92rcd13ifvqcf0","pricing_plan_id":"cebpf4jnsgd1na2vs0mg"},{"bike_id":"4ded19ea-e166-47c6-abee-aeab528e9710","system_id":"levelo_inurba_marseille","lat":43.28927,"lon":5.36635,"is_reserved":false,"is_disabled":false,"rental_uris":{"android":"levelo://app?vid=4ded19ea-e166-47c6-abee-aeab528e9710","ios":"levelo://app?vid=4ded19ea-e166-47c6-abee-aeab528e9710"},"vehicle_type_id":"4","last_reported":1745266280,"current_range_meters":8000,"station_id":"ce4bhap2rcd13ifvqek0","pricing_plan_id":"cebpf4jnsgd1na2vs0mg"},{"bike_id":"d2593559-2e52-4a7b-b169-6ce8704e96ae","system_id":"levelo_inurba_marseille","lat":43.29883,"lon":5.39747,"is_reserved":false,"is_disabled":false,"rental_uris":{"android":"levelo://app?vid=d2593559-2e52-4a7b-b169-6ce8704e96ae","ios":"levelo://app?vid=d2593559-2e52-4a7b-b169-6ce8704e96ae"},"vehicle_type_id":"4","last_reported":1745266280,"current_range_meters":8000,"station_id":"ce4bh0h2rcd13ifvqd50","pricing_plan_id":"cebpf4jnsgd1na2vs0mg"},{"bike_id":"dacb9310-ef47-42d4-82c3-6f67b29ded17","system_id":"levelo_inurba_marseille","lat":43.31966,"lon":5.3816,"is_reserved":false,"is_disabled":true,"rental_uris":{"android":"levelo://app?vid=dacb9310-ef47-42d4-82c3-6f67b29ded17","ios":"levelo://app?vid=dacb9310-ef47-42d4-82c3-6f67b29ded17"},"vehicle_type_id":"4","last_reported":1745266280,"current_range_meters":8400,"station_id":"ce4bhr12rcd13ifvqhpg","pricing_plan_id":"cebpf4jnsgd1na2vs0mg"},{"bike_id":"2eae6397-3f35-48cb-91a4-97f36e4dda21","system_id":"levelo_inurba_marseille","lat":43.21736,"lon":5.34608,"is_reserved":false,"is_disabled":true,"rental_uris":{"android":"levelo://app?vid=2eae6397-3f35-48cb-91a4-97f36e4dda21","ios":"levelo://app?vid=2eae6397-3f35-48cb-91a4-97f36e4dda21"},"vehicle_type_id":"4","last_reported":1745266280,"current_range_meters":8400,"station_id":"","pricing_plan_id":"cebpf4jnsgd1na2vs0mg"},{"bike_id":"53119217-6b02-4fc2-b1a6-cca085edf441","system_id":"levelo_inurba_marseille","lat":43.29589,"lon":5.38117,"is_reserved":false,"is_disabled":false,"rental_uris":{"android":"levelo://app?vid=53119217-6b02-4fc2-b1a6-cca085edf441","ios":"levelo://app?vid=53119217-6b02-4fc2-b1a6-cca085edf441"},"vehicle_type_id":"4","last_reported":1745266280,"current_range_meters":8400,"station_id":"ce4bgl12rcd13ifvqbo0","pricing_plan_id":"cebpf4jnsgd1na2vs0mg"},{"bike_id":"d2ee2ac3-0edb-437f-ab20-14dfef68fef0","system_id":"levelo_inurba_marseille","lat":43.27048,"lon":5.40288,"is_reserved":false,"is_disabled":false,"rental_uris":{"android":"levelo://app?vid=d2ee2ac3-0edb-437f-ab20-14dfef68fef0","ios":"levelo://app?vid=d2ee2ac3-0edb-437f-ab20-14dfef68fef0"},"vehicle_type_id":"4","last_reported":1745266280,"current_range_meters":8400,"station_id":"ce4bhk92rcd13ifvqgc0","pricing_plan_id":"cebpf4jnsgd1na2vs0mg"},{"bike_id":"84532e5f-ad43-4b0d-b733-59fabcc7080d","system_id":"levelo_inurba_marseille","lat":43.30785,"lon":5.37633,"is_reserved":false,"is_disabled":false,"rental_uris":{"android":"levelo://app?vid=84532e5f-ad43-4b0d-b733-59fabcc7080d","ios":"levelo://app?vid=84532e5f-ad43-4b0d-b733-59fabcc7080d"},"vehicle_type_id":"4","last_reported":1745266280,"current_range_meters":8400,"station_id":"ce4bgv92rcd13ifvqcq0","pricing_plan_id":"cebpf4jnsgd1na2vs0mg"},{"bike_id":"08adba7b-eac3-4cfc-9923-2ccf0cc4ffef","system_id":"levelo_inurba_marseille","lat":43.24539,"lon":5.41298,"is_reserved":false,"is_disabled":false,"rental_uris":{"android":"levelo://app?vid=08adba7b-eac3-4cfc-9923-2ccf0cc4ffef","ios":"levelo://app?vid=08adba7b-eac3-4cfc-9923-2ccf0cc4ffef"},"vehicle_type_id":"4","last_reported":1745266280,"current_range_meters":8800,"station_id":"","pricing_plan_id":"cebpf4jnsgd1na2vs0mg"},{"bike_id":"1f84f51f-d2f4-4d4c-982d-d184ffe24a02","system_id":"levelo_inurba_marseille","lat":43.32316,"lon":5.38894,"is_reserved":false,"is_disabled":true,"rental_uris":{"android":"levelo://app?vid=1f84f51f-d2f4-4d4c-982d-d184ffe24a02","ios":"levelo://app?vid=1f84f51f-d2f4-4d4c-982d-d184ffe24a02"},"vehicle_type_id":"4","last_reported":1745266280,"current_range_meters":8800,"station_id":"","pricing_plan_id":"cebpf4jnsgd1na2vs0mg"},{"bike_id":"d7323cc1-013d-43e0-bb47-a978b4402b6a","system_id":"levelo_inurba_marseille","lat":43.3089,"lon":5.39643,"is_reserved":false,"is_disabled":false,"rental_uris":{"android":"levelo://app?vid=d7323cc1-013d-43e0-bb47-a978b4402b6a","ios":"levelo://app?vid=d7323cc1-013d-43e0-bb47-a978b4402b6a"},"vehicle_type_id":"4","last_reported":1745266280,"current_range_meters":8800,"station_id":"ce4bh012rcd13ifvqcv0","pricing_plan_id":"cebpf4jnsgd1na2vs0mg"},{"bike_id":"5eb689d0-1a02-480e-898e-4fbf2c8b1899","system_id":"levelo_inurba_marseille","lat":43.26534,"lon":5.390513,"is_reserved":false,"is_disabled":false,"rental_uris":{"android":"levelo://app?vid=5eb689d0-1a02-480e-898e-4fbf2c8b1899","ios":"levelo://app?vid=5eb689d0-1a02-480e-898e-4fbf2c8b1899"},"vehicle_type_id":"4","last_reported":1745266280,"current_range_meters":8800,"station_id":"ce4bhe12rcd13ifvqf30","pricing_plan_id":"cebpf4jnsgd1na2vs0mg"},{"bike_id":"d373b03a-6100-48c8-9be0-57715ffa475e","system_id":"levelo_inurba_marseille","lat":43.29254,"lon":5.40905,"is_reserved":false,"is_disabled":false,"rental_uris":{"android":"levelo://app?vid=d373b03a-6100-48c8-9be0-57715ffa475e","ios":"levelo://app?vid=d373b03a-6100-48c8-9be0-57715ffa475e"},"vehicle_type_id":"4","last_reported":1745266280,"current_range_meters":8800,"station_id":"ce4bh192rcd13ifvqdc0","pricing_plan_id":"cebpf4jnsgd1na2vs0mg"},{"bike_id":"438d1e89-5733-4db9-af08-5dbae4801333","system_id":"levelo_inurba_marseille","lat":43.32365,"lon":5.3676,"is_reserved":false,"is_disabled":false,"rental_uris":{"android":"levelo://app?vid=438d1e89-5733-4db9-af08-5dbae4801333","ios":"levelo://app?vid=438d1e89-5733-4db9-af08-5dbae4801333"},"vehicle_type_id":"4","last_reported":1745266280,"current_range_meters":9200,"station_id":"ce4bhsh2rcd13ifvqi2g","pricing_plan_id":"cebpf4jnsgd1na2vs0mg"},{"bike_id":"34166cb2-24d1-48d4-88e5-65264e3a037d","system_id":"levelo_inurba_marseille","lat":43.31028,"lon":5.371,"is_reserved":false,"is_disabled":false,"rental_uris":{"android":"levelo://app?vid=34166cb2-24d1-48d4-88e5-65264e3a037d","ios":"levelo://app?vid=34166cb2-24d1-48d4-88e5-65264e3a037d"},"vehicle_type_id":"4","last_reported":1745266280,"current_range_meters":9200,"station_id":"","pricing_plan_id":"cebpf4jnsgd1na2vs0mg"},{"bike_id":"035c6e00-681b-45b2-b210-66c9f863176a","system_id":"levelo_inurba_marseille","lat":43.28568,"lon":5.39496,"is_reserved":false,"is_disabled":false,"rental_uris":{"android":"levelo://app?vid=035c6e00-681b-45b2-b210-66c9f863176a","ios":"levelo://app?vid=035c6e00-681b-45b2-b210-66c9f863176a"},"vehicle_type_id":"4","last_reported":1745266280,"current_range_meters":9200,"station_id":"ce4bh292rcd13ifvqdg0","pricing_plan_id":"cebpf4jnsgd1na2vs0mg"},{"bike_id":"5cca747e-23ae-49d6-9ba3-1c7939696a15","system_id":"levelo_inurba_marseille","lat":43.25125,"lon":5.40337,"is_reserved":false,"is_disabled":false,"rental_uris":{"android":"levelo://app?vid=5cca747e-23ae-49d6-9ba3-1c7939696a15","ios":"levelo://app?vid=5cca747e-23ae-49d6-9ba3-1c7939696a15"},"vehicle_type_id":"4","last_reported":1745266280,"current_range_meters":9600,"station_id":"ce4bhlh2rcd13ifvqgig","pricing_plan_id":"cebpf4jnsgd1na2vs0mg"},{"bike_id":"5d71f84a-10ca-4e55-9806-002e8068abd8","system_id":"levelo_inurba_marseille","lat":43.27922,"lon":5.39586,"is_reserved":false,"is_disabled":false,"rental_uris":{"android":"levelo://app?vid=5d71f84a-10ca-4e55-9806-002e8068abd8","ios":"levelo://app?vid=5d71f84a-10ca-4e55-9806-002e8068abd8"},"vehicle_type_id":"4","last_reported":1745266280,"current_range_meters":9600,"station_id":"ce4bhf92rcd13ifvqf40","pricing_plan_id":"cebpf4jnsgd1na2vs0mg"},{"bike_id":"1813cc78-ad5e-46e0-b963-70ce894e6aa3","system_id":"levelo_inurba_marseille","lat":43.30145,"lon":5.38779,"is_reserved":false,"is_disabled":false,"rental_uris":{"android":"levelo://app?vid=1813cc78-ad5e-46e0-b963-70ce894e6aa3","ios":"levelo://app?vid=1813cc78-ad5e-46e0-b963-70ce894e6aa3"},"vehicle_type_id":"4","last_reported":1745266280,"current_range_meters":9600,"station_id":"ce4bghh2rcd13ifvqb60","pricing_plan_id":"cebpf4jnsgd1na2vs0mg"},{"bike_id":"b09a0f3d-c48b-475b-8346-07998bdf0685","system_id":"levelo_inurba_marseille","lat":43.240716,"lon":5.37762,"is_reserved":false,"is_disabled":false,"rental_uris":{"android":"levelo://app?vid=b09a0f3d-c48b-475b-8346-07998bdf0685","ios":"levelo://app?vid=b09a0f3d-c48b-475b-8346-07998bdf0685"},"vehicle_type_id":"4","last_reported":1745266280,"current_range_meters":9600,"station_id":"ce4bhnp2rcd13ifvqgvg","pricing_plan_id":"cebpf4jnsgd1na2vs0mg"},{"bike_id":"89cfd28b-0c7c-4079-955f-194e937acbb9","system_id":"levelo_inurba_marseille","lat":43.29949,"lon":5.36339,"is_reserved":false,"is_disabled":false,"rental_uris":{"android":"levelo://app?vid=89cfd28b-0c7c-4079-955f-194e937acbb9","ios":"levelo://app?vid=89cfd28b-0c7c-4079-955f-194e937acbb9"},"vehicle_type_id":"4","last_reported":1745266280,"current_range_meters":9600,"station_id":"","pricing_plan_id":"cebpf4jnsgd1na2vs0mg"},{"bike_id":"e6db9924-58e0-40de-b15f-4b349bad09ad","system_id":"levelo_inurba_marseille","lat":43.28952,"lon":5.36645,"is_reserved":false,"is_disabled":true,"rental_uris":{"android":"levelo://app?vid=e6db9924-58e0-40de-b15f-4b349bad09ad","ios":"levelo://app?vid=e6db9924-58e0-40de-b15f-4b349bad09ad"},"vehicle_type_id":"4","last_reported":1745266280,"current_range_meters":10000,"station_id":"ce4bhap2rcd13ifvqek0","pricing_plan_id":"cebpf4jnsgd1na2vs0mg"},{"bike_id":"35f2a906-9ed9-4281-a569-57111b51db28","system_id":"levelo_inurba_marseille","lat":43.25006,"lon":5.38921,"is_reserved":false,"is_disabled":false,"rental_uris":{"android":"levelo://app?vid=35f2a906-9ed9-4281-a569-57111b51db28","ios":"levelo://app?vid=35f2a906-9ed9-4281-a569-57111b51db28"},"vehicle_type_id":"4","last_reported":1745266280,"current_range_meters":10000,"station_id":"ce4bhgp2rcd13ifvqfd0","pricing_plan_id":"cebpf4jnsgd1na2vs0mg"},{"bike_id":"91e08a4b-ddcc-4b67-9353-958cd7ae2dab","system_id":"levelo_inurba_marseille","lat":43.294223,"lon":5.386231,"is_reserved":false,"is_disabled":false,"rental_uris":{"android":"levelo://app?vid=91e08a4b-ddcc-4b67-9353-958cd7ae2dab","ios":"levelo://app?vid=91e08a4b-ddcc-4b67-9353-958cd7ae2dab"},"vehicle_type_id":"4","last_reported":1745266280,"current_range_meters":10000,"station_id":"ce4bh2h2rcd13ifvqdh0","pricing_plan_id":"cebpf4jnsgd1na2vs0mg"},{"bike_id":"fdbf53dc-c001-4cbc-9204-4aaa3f39f340","system_id":"levelo_inurba_marseille","lat":43.29516,"lon":5.39043,"is_reserved":false,"is_disabled":false,"rental_uris":{"android":"levelo://app?vid=fdbf53dc-c001-4cbc-9204-4aaa3f39f340","ios":"levelo://app?vid=fdbf53dc-c001-4cbc-9204-4aaa3f39f340"},"vehicle_type_id":"4","last_reported":1745266280,"current_range_meters":10000,"station_id":"ce4bh3p2rcd13ifvqdp0","pricing_plan_id":"cebpf4jnsgd1na2vs0mg"},{"bike_id":"564e6d52-4e3b-481e-8d1f-acc2c792f2f3","system_id":"levelo_inurba_marseille","lat":43.305836,"lon":5.372386,"is_reserved":false,"is_disabled":false,"rental_uris":{"android":"levelo://app?vid=564e6d52-4e3b-481e-8d1f-acc2c792f2f3","ios":"levelo://app?vid=564e6d52-4e3b-481e-8d1f-acc2c792f2f3"},"vehicle_type_id":"4","last_reported":1745266280,"current_range_meters":10000,"station_id":"ce4bgqh2rcd13ifvqc4g","pricing_plan_id":"cebpf4jnsgd1na2vs0mg"},{"bike_id":"c633ffb6-a2e4-43ee-bc04-55b3730fd199","system_id":"levelo_inurba_marseille","lat":43.29414,"lon":5.38621,"is_reserved":false,"is_disabled":true,"rental_uris":{"android":"levelo://app?vid=c633ffb6-a2e4-43ee-bc04-55b3730fd199","ios":"levelo://app?vid=c633ffb6-a2e4-43ee-bc04-55b3730fd199"},"vehicle_type_id":"4","last_reported":1745266280,"current_range_meters":10000,"station_id":"ce4bh2h2rcd13ifvqdh0","pricing_plan_id":"cebpf4jnsgd1na2vs0mg"},{"bike_id":"62801924-329e-46ea-aa72-be8e28d87636","system_id":"levelo_inurba_marseille","lat":43.26664,"lon":5.3998,"is_reserved":false,"is_disabled":false,"rental_uris":{"android":"levelo://app?vid=62801924-329e-46ea-aa72-be8e28d87636","ios":"levelo://app?vid=62801924-329e-46ea-aa72-be8e28d87636"},"vehicle_type_id":"4","last_reported":1745266280,"current_range_meters":10000,"station_id":"","pricing_plan_id":"cebpf4jnsgd1na2vs0mg"},{"bike_id":"d1be1167-d8d0-444d-93f2-ba551cf54cdb","system_id":"levelo_inurba_marseille","lat":43.29555,"lon":5.38525,"is_reserved":false,"is_disabled":false,"rental_uris":{"android":"levelo://app?vid=d1be1167-d8d0-444d-93f2-ba551cf54cdb","ios":"levelo://app?vid=d1be1167-d8d0-444d-93f2-ba551cf54cdb"},"vehicle_type_id":"4","last_reported":1745266280,"current_range_meters":10000,"station_id":"ce4bgih2rcd13ifvqba0","pricing_plan_id":"cebpf4jnsgd1na2vs0mg"},{"bike_id":"5990f7db-e1fa-4fb0-961a-bc55a60c43b5","system_id":"levelo_inurba_marseille","lat":43.304123,"lon":5.412852,"is_reserved":false,"is_disabled":false,"rental_uris":{"android":"levelo://app?vid=5990f7db-e1fa-4fb0-961a-bc55a60c43b5","ios":"levelo://app?vid=5990f7db-e1fa-4fb0-961a-bc55a60c43b5"},"vehicle_type_id":"4","last_reported":1745266280,"current_range_meters":10800,"station_id":"ce4bh0h2rcd13ifvqd50","pricing_plan_id":"cebpf4jnsgd1na2vs0mg"},{"bike_id":"1c755526-7610-4241-9257-348acde561d3","system_id":"levelo_inurba_marseille","lat":43.24852,"lon":5.38206,"is_reserved":false,"is_disabled":false,"rental_uris":{"android":"levelo://app?vid=1c755526-7610-4241-9257-348acde561d3","ios":"levelo://app?vid=1c755526-7610-4241-9257-348acde561d3"},"vehicle_type_id":"4","last_reported":1745266280,"current_range_meters":10800,"station_id":"","pricing_plan_id":"cebpf4jnsgd1na2vs0mg"},{"bike_id":"43fc777f-db94-447a-a033-7e97f2f52314","system_id":"levelo_inurba_marseille","lat":43.30894,"lon":5.39634,"is_reserved":false,"is_disabled":false,"rental_uris":{"android":"levelo://app?vid=43fc777f-db94-447a-a033-7e97f2f52314","ios":"levelo://app?vid=43fc777f-db94-447a-a033-7e97f2f52314"},"vehicle_type_id":"4","last_reported":1745266280,"current_range_meters":10800,"station_id":"ce4bh012rcd13ifvqcv0","pricing_plan_id":"cebpf4jnsgd1na2vs0mg"},{"bike_id":"af062bcb-c0d8-4f82-b254-b3dfb315e067","system_id":"levelo_inurba_marseille","lat":43.32986,"lon":5.39044,"is_reserved":false,"is_disabled":false,"rental_uris":{"android":"levelo://app?vid=af062bcb-c0d8-4f82-b254-b3dfb315e067","ios":"levelo://app?vid=af062bcb-c0d8-4f82-b254-b3dfb315e067"},"vehicle_type_id":"4","last_reported":1745266280,"current_range_meters":10800,"station_id":"ce4bhr92rcd13ifvqhrg","pricing_plan_id":"cebpf4jnsgd1na2vs0mg"},{"bike_id":"d75a6bec-0f09-4f69-bc60-4398b7dc3aa3","system_id":"levelo_inurba_marseille","lat":43.28722,"lon":5.3997,"is_reserved":false,"is_disabled":false,"rental_uris":{"android":"levelo://app?vid=d75a6bec-0f09-4f69-bc60-4398b7dc3aa3","ios":"levelo://app?vid=d75a6bec-0f09-4f69-bc60-4398b7dc3aa3"},"vehicle_type_id":"4","last_reported":1745266280,"current_range_meters":10800,"station_id":"ce4bho92rcd13ifvqh3g","pricing_plan_id":"cebpf4jnsgd1na2vs0mg"},{"bike_id":"1a57b1c2-bcaf-40e3-9f37-692fe17e9a12","system_id":"levelo_inurba_marseille","lat":43.30252,"lon":5.40084,"is_reserved":false,"is_disabled":false,"rental_uris":{"android":"levelo://app?vid=1a57b1c2-bcaf-40e3-9f37-692fe17e9a12","ios":"levelo://app?vid=1a57b1c2-bcaf-40e3-9f37-692fe17e9a12"},"vehicle_type_id":"4","last_reported":1745266280,"current_range_meters":10800,"station_id":"ce4bgvh2rcd13ifvqcs0","pricing_plan_id":"cebpf4jnsgd1na2vs0mg"},{"bike_id":"38496ab1-dcd9-47e1-88de-12902fbdc1d3","system_id":"levelo_inurba_marseille","lat":43.29026,"lon":5.38633,"is_reserved":false,"is_disabled":false,"rental_uris":{"android":"levelo://app?vid=38496ab1-dcd9-47e1-88de-12902fbdc1d3","ios":"levelo://app?vid=38496ab1-dcd9-47e1-88de-12902fbdc1d3"},"vehicle_type_id":"4","last_reported":1745266280,"current_range_meters":10800,"station_id":"ce4bh4p2rcd13ifvqe0g","pricing_plan_id":"cebpf4jnsgd1na2vs0mg"},{"bike_id":"b187e78d-1724-4b31-8cf0-6bdebd0684ee","system_id":"levelo_inurba_marseille","lat":43.289698,"lon":5.378317,"is_reserved":false,"is_disabled":true,"rental_uris":{"android":"levelo://app?vid=b187e78d-1724-4b31-8cf0-6bdebd0684ee","ios":"levelo://app?vid=b187e78d-1724-4b31-8cf0-6bdebd0684ee"},"vehicle_type_id":"4","last_reported":1745266280,"current_range_meters":11200,"station_id":"ce4bh9p2rcd13ifvqed0","pricing_plan_id":"cebpf4jnsgd1na2vs0mg"},{"bike_id":"fb06bb97-0beb-4259-a4bd-a70e9de2e0bb","system_id":"levelo_inurba_marseille","lat":43.288435,"lon":5.392872,"is_reserved":false,"is_disabled":false,"rental_uris":{"android":"levelo://app?vid=fb06bb97-0beb-4259-a4bd-a70e9de2e0bb","ios":"levelo://app?vid=fb06bb97-0beb-4259-a4bd-a70e9de2e0bb"},"vehicle_type_id":"4","last_reported":1745266280,"current_range_meters":11200,"station_id":"ce4bh2p2rcd13ifvqdi0","pricing_plan_id":"cebpf4jnsgd1na2vs0mg"},{"bike_id":"243a4a85-c3f1-4b9b-889f-4e1324fed610","system_id":"levelo_inurba_marseille","lat":43.297087,"lon":5.366063,"is_reserved":false,"is_disabled":false,"rental_uris":{"android":"levelo://app?vid=243a4a85-c3f1-4b9b-889f-4e1324fed610","ios":"levelo://app?vid=243a4a85-c3f1-4b9b-889f-4e1324fed610"},"vehicle_type_id":"4","last_reported":1745266280,"current_range_meters":10800,"station_id":"ce4bgn12rcd13ifvqbt0","pricing_plan_id":"cebpf4jnsgd1na2vs0mg"},{"bike_id":"01266c23-b5d9-4a4c-b514-387024ed5b86","system_id":"levelo_inurba_marseille","lat":43.29538,"lon":5.39397,"is_reserved":false,"is_disabled":false,"rental_uris":{"android":"levelo://app?vid=01266c23-b5d9-4a4c-b514-387024ed5b86","ios":"levelo://app?vid=01266c23-b5d9-4a4c-b514-387024ed5b86"},"vehicle_type_id":"4","last_reported":1745266280,"current_range_meters":11200,"station_id":"ce4bh292rcd13ifvqdf0","pricing_plan_id":"cebpf4jnsgd1na2vs0mg"},{"bike_id":"98bb5fbf-6f36-4f60-9412-0dcd0922c2df","system_id":"levelo_inurba_marseille","lat":43.29518,"lon":5.39033,"is_reserved":false,"is_disabled":false,"rental_uris":{"android":"levelo://app?vid=98bb5fbf-6f36-4f60-9412-0dcd0922c2df","ios":"levelo://app?vid=98bb5fbf-6f36-4f60-9412-0dcd0922c2df"},"vehicle_type_id":"4","last_reported":1745266280,"current_range_meters":11600,"station_id":"ce4bh3p2rcd13ifvqdp0","pricing_plan_id":"cebpf4jnsgd1na2vs0mg"},{"bike_id":"b9990b0b-23ad-461b-a2d8-df7e2af72eca","system_id":"levelo_inurba_marseille","lat":43.30715,"lon":5.38065,"is_reserved":false,"is_disabled":false,"rental_uris":{"android":"levelo://app?vid=b9990b0b-23ad-461b-a2d8-df7e2af72eca","ios":"levelo://app?vid=b9990b0b-23ad-461b-a2d8-df7e2af72eca"},"vehicle_type_id":"4","last_reported":1745266280,"current_range_meters":11200,"station_id":"","pricing_plan_id":"cebpf4jnsgd1na2vs0mg"},{"bike_id":"e7c416a1-d3d4-4a43-927c-145ae605d8a0","system_id":"levelo_inurba_marseille","lat":43.24076,"lon":5.37757,"is_reserved":false,"is_disabled":false,"rental_uris":{"android":"levelo://app?vid=e7c416a1-d3d4-4a43-927c-145ae605d8a0","ios":"levelo://app?vid=e7c416a1-d3d4-4a43-927c-145ae605d8a0"},"vehicle_type_id":"4","last_reported":1745266280,"current_range_meters":11200,"station_id":"ce4bhnp2rcd13ifvqgvg","pricing_plan_id":"cebpf4jnsgd1na2vs0mg"},{"bike_id":"0cd4670c-b87b-4f49-b23f-4279ff19f79c","system_id":"levelo_inurba_marseille","lat":43.29252,"lon":5.40905,"is_reserved":false,"is_disabled":false,"rental_uris":{"android":"levelo://app?vid=0cd4670c-b87b-4f49-b23f-4279ff19f79c","ios":"levelo://app?vid=0cd4670c-b87b-4f49-b23f-4279ff19f79c"},"vehicle_type_id":"4","last_reported":1745266280,"current_range_meters":11200,"station_id":"ce4bh192rcd13ifvqdc0","pricing_plan_id":"cebpf4jnsgd1na2vs0mg"},{"bike_id":"50f6dc04-17ec-4940-9332-8f3db38b7ab2","system_id":"levelo_inurba_marseille","lat":43.28699,"lon":5.39987,"is_reserved":false,"is_disabled":false,"rental_uris":{"android":"levelo://app?vid=50f6dc04-17ec-4940-9332-8f3db38b7ab2","ios":"levelo://app?vid=50f6dc04-17ec-4940-9332-8f3db38b7ab2"},"vehicle_type_id":"4","last_reported":1745266280,"current_range_meters":11600,"station_id":"ce4bho92rcd13ifvqh3g","pricing_plan_id":"cebpf4jnsgd1na2vs0mg"},{"bike_id":"8a5e469e-8f73-4295-9e2a-f7c916d70e3e","system_id":"levelo_inurba_marseille","lat":43.27918,"lon":5.39572,"is_reserved":false,"is_disabled":false,"rental_uris":{"android":"levelo://app?vid=8a5e469e-8f73-4295-9e2a-f7c916d70e3e","ios":"levelo://app?vid=8a5e469e-8f73-4295-9e2a-f7c916d70e3e"},"vehicle_type_id":"4","last_reported":1745266280,"current_range_meters":11600,"station_id":"ce4bhf92rcd13ifvqf40","pricing_plan_id":"cebpf4jnsgd1na2vs0mg"},{"bike_id":"0473ed2f-5039-4e71-8f48-2421954e8490","system_id":"levelo_inurba_marseille","lat":43.28729,"lon":5.39957,"is_reserved":false,"is_disabled":false,"rental_uris":{"android":"levelo://app?vid=0473ed2f-5039-4e71-8f48-2421954e8490","ios":"levelo://app?vid=0473ed2f-5039-4e71-8f48-2421954e8490"},"vehicle_type_id":"4","last_reported":1745266280,"current_range_meters":11600,"station_id":"ce4bho92rcd13ifvqh3g","pricing_plan_id":"cebpf4jnsgd1na2vs0mg"},{"bike_id":"66a9a378-d232-4166-a630-37e48fa18f9f","system_id":"levelo_inurba_marseille","lat":43.31999,"lon":5.38155,"is_reserved":false,"is_disabled":false,"rental_uris":{"android":"levelo://app?vid=66a9a378-d232-4166-a630-37e48fa18f9f","ios":"levelo://app?vid=66a9a378-d232-4166-a630-37e48fa18f9f"},"vehicle_type_id":"4","last_reported":1745266280,"current_range_meters":11600,"station_id":"ce4bhr12rcd13ifvqhpg","pricing_plan_id":"cebpf4jnsgd1na2vs0mg"},{"bike_id":"f4b7679c-b4b8-4f40-8343-5ff5738ed382","system_id":"levelo_inurba_marseille","lat":43.29248,"lon":5.38439,"is_reserved":false,"is_disabled":false,"rental_uris":{"android":"levelo://app?vid=f4b7679c-b4b8-4f40-8343-5ff5738ed382","ios":"levelo://app?vid=f4b7679c-b4b8-4f40-8343-5ff5738ed382"},"vehicle_type_id":"4","last_reported":1745266280,"current_range_meters":11600,"station_id":"ce4bh692rcd13ifvqea0","pricing_plan_id":"cebpf4jnsgd1na2vs0mg"},{"bike_id":"5651431b-db7d-46f1-ba47-9c260ae40481","system_id":"levelo_inurba_marseille","lat":43.29867,"lon":5.39728,"is_reserved":false,"is_disabled":false,"rental_uris":{"android":"levelo://app?vid=5651431b-db7d-46f1-ba47-9c260ae40481","ios":"levelo://app?vid=5651431b-db7d-46f1-ba47-9c260ae40481"},"vehicle_type_id":"4","last_reported":1745266280,"current_range_meters":11600,"station_id":"ce4bh0h2rcd13ifvqd50","pricing_plan_id":"cebpf4jnsgd1na2vs0mg"},{"bike_id":"e9da63aa-8f92-4958-806a-3d11d648be93","system_id":"levelo_inurba_marseille","lat":43.28695,"lon":5.39971,"is_reserved":false,"is_disabled":false,"rental_uris":{"android":"levelo://app?vid=e9da63aa-8f92-4958-806a-3d11d648be93","ios":"levelo://app?vid=e9da63aa-8f92-4958-806a-3d11d648be93"},"vehicle_type_id":"4","last_reported":1745266280,"current_range_meters":12000,"station_id":"ce4bho92rcd13ifvqh3g","pricing_plan_id":"cebpf4jnsgd1na2vs0mg"},{"bike_id":"2249a72e-8033-49c8-a4a8-ac9e3dde063c","system_id":"levelo_inurba_marseille","lat":43.32291,"lon":5.38253,"is_reserved":false,"is_disabled":false,"rental_uris":{"android":"levelo://app?vid=2249a72e-8033-49c8-a4a8-ac9e3dde063c","ios":"levelo://app?vid=2249a72e-8033-49c8-a4a8-ac9e3dde063c"},"vehicle_type_id":"4","last_reported":1745266280,"current_range_meters":11600,"station_id":"ce4bhr12rcd13ifvqhqg","pricing_plan_id":"cebpf4jnsgd1na2vs0mg"},{"bike_id":"ae426aff-dab8-48da-aece-a07401c06655","system_id":"levelo_inurba_marseille","lat":43.28079,"lon":5.39663,"is_reserved":false,"is_disabled":false,"rental_uris":{"android":"levelo://app?vid=ae426aff-dab8-48da-aece-a07401c06655","ios":"levelo://app?vid=ae426aff-dab8-48da-aece-a07401c06655"},"vehicle_type_id":"4","last_reported":1745266280,"current_range_meters":12000,"station_id":"ce4bho12rcd13ifvqh2g","pricing_plan_id":"cebpf4jnsgd1na2vs0mg"},{"bike_id":"97b5301b-7f92-4673-aaeb-cee1feaf34d3","system_id":"levelo_inurba_marseille","lat":43.2794,"lon":5.41034,"is_reserved":false,"is_disabled":false,"rental_uris":{"android":"levelo://app?vid=97b5301b-7f92-4673-aaeb-cee1feaf34d3","ios":"levelo://app?vid=97b5301b-7f92-4673-aaeb-cee1feaf34d3"},"vehicle_type_id":"4","last_reported":1745266280,"current_range_meters":12000,"station_id":"ce4bhnp2rcd13ifvqh0g","pricing_plan_id":"cebpf4jnsgd1na2vs0mg"},{"bike_id":"21917916-4faf-4a68-958e-ef1fcba4e701","system_id":"levelo_inurba_marseille","lat":43.31493,"lon":5.3731,"is_reserved":false,"is_disabled":false,"rental_uris":{"android":"levelo://app?vid=21917916-4faf-4a68-958e-ef1fcba4e701","ios":"levelo://app?vid=21917916-4faf-4a68-958e-ef1fcba4e701"},"vehicle_type_id":"4","last_reported":1745266280,"current_range_meters":12000,"station_id":"ce4bgt12rcd13ifvqcd0","pricing_plan_id":"cebpf4jnsgd1na2vs0mg"},{"bike_id":"d5aaf7b9-7fe4-4e49-ab5f-5b64544b07d5","system_id":"levelo_inurba_marseille","lat":43.25018,"lon":5.38941,"is_reserved":false,"is_disabled":false,"rental_uris":{"android":"levelo://app?vid=d5aaf7b9-7fe4-4e49-ab5f-5b64544b07d5","ios":"levelo://app?vid=d5aaf7b9-7fe4-4e49-ab5f-5b64544b07d5"},"vehicle_type_id":"4","last_reported":1745266280,"current_range_meters":12400,"station_id":"ce4bhgp2rcd13ifvqfd0","pricing_plan_id":"cebpf4jnsgd1na2vs0mg"},{"bike_id":"5bc52f99-c488-4886-bf7e-6d74b0ab5e69","system_id":"levelo_inurba_marseille","lat":43.27952,"lon":5.41046,"is_reserved":false,"is_disabled":false,"rental_uris":{"android":"levelo://app?vid=5bc52f99-c488-4886-bf7e-6d74b0ab5e69","ios":"levelo://app?vid=5bc52f99-c488-4886-bf7e-6d74b0ab5e69"},"vehicle_type_id":"4","last_reported":1745266280,"current_range_meters":12400,"station_id":"ce4bhnp2rcd13ifvqh0g","pricing_plan_id":"cebpf4jnsgd1na2vs0mg"},{"bike_id":"98b68dbf-f678-49a8-8d86-20fb3b452c2b","system_id":"levelo_inurba_marseille","lat":43.29778,"lon":5.39342,"is_reserved":false,"is_disabled":false,"rental_uris":{"android":"levelo://app?vid=98b68dbf-f678-49a8-8d86-20fb3b452c2b","ios":"levelo://app?vid=98b68dbf-f678-49a8-8d86-20fb3b452c2b"},"vehicle_type_id":"4","last_reported":1745266280,"current_range_meters":12400,"station_id":"chh1huq6cuj3fo74tm60","pricing_plan_id":"cebpf4jnsgd1na2vs0mg"},{"bike_id":"9e8f6a42-bb7c-4318-b1d3-c59226687a6c","system_id":"levelo_inurba_marseille","lat":43.28488,"lon":5.38414,"is_reserved":false,"is_disabled":false,"rental_uris":{"android":"levelo://app?vid=9e8f6a42-bb7c-4318-b1d3-c59226687a6c","ios":"levelo://app?vid=9e8f6a42-bb7c-4318-b1d3-c59226687a6c"},"vehicle_type_id":"4","last_reported":1745266280,"current_range_meters":12400,"station_id":"ce4bh512rcd13ifvqe3g","pricing_plan_id":"cebpf4jnsgd1na2vs0mg"},{"bike_id":"f4b7a7f2-0d5e-41f4-8959-ca288a5714d9","system_id":"levelo_inurba_marseille","lat":43.28608,"lon":5.37062,"is_reserved":false,"is_disabled":false,"rental_uris":{"android":"levelo://app?vid=f4b7a7f2-0d5e-41f4-8959-ca288a5714d9","ios":"levelo://app?vid=f4b7a7f2-0d5e-41f4-8959-ca288a5714d9"},"vehicle_type_id":"4","last_reported":1745266280,"current_range_meters":12800,"station_id":"ce4bht12rcd13ifvqi60","pricing_plan_id":"cebpf4jnsgd1na2vs0mg"},{"bike_id":"2dc4e79a-33a8-48b0-bf03-f6328f1dc1f6","system_id":"levelo_inurba_marseille","lat":43.32364,"lon":5.38933,"is_reserved":false,"is_disabled":true,"rental_uris":{"android":"levelo://app?vid=2dc4e79a-33a8-48b0-bf03-f6328f1dc1f6","ios":"levelo://app?vid=2dc4e79a-33a8-48b0-bf03-f6328f1dc1f6"},"vehicle_type_id":"4","last_reported":1745266280,"current_range_meters":12800,"station_id":"ce4bhqp2rcd13ifvqhog","pricing_plan_id":"cebpf4jnsgd1na2vs0mg"},{"bike_id":"70313b9e-da0f-451b-b6d0-252d8447c127","system_id":"levelo_inurba_marseille","lat":43.28722,"lon":5.37412,"is_reserved":false,"is_disabled":false,"rental_uris":{"android":"levelo://app?vid=70313b9e-da0f-451b-b6d0-252d8447c127","ios":"levelo://app?vid=70313b9e-da0f-451b-b6d0-252d8447c127"},"vehicle_type_id":"4","last_reported":1745266280,"current_range_meters":12400,"station_id":"ce4bh3p2rcd13ifvqdq0","pricing_plan_id":"cebpf4jnsgd1na2vs0mg"},{"bike_id":"4eb3e58f-17bb-4007-b6f7-ead627ffb500","system_id":"levelo_inurba_marseille","lat":43.29246,"lon":5.38437,"is_reserved":false,"is_disabled":true,"rental_uris":{"android":"levelo://app?vid=4eb3e58f-17bb-4007-b6f7-ead627ffb500","ios":"levelo://app?vid=4eb3e58f-17bb-4007-b6f7-ead627ffb500"},"vehicle_type_id":"4","last_reported":1745266280,"current_range_meters":12800,"station_id":"ce4bh692rcd13ifvqea0","pricing_plan_id":"cebpf4jnsgd1na2vs0mg"},{"bike_id":"2118672d-b962-419d-b54b-f9eed6f77cab","system_id":"levelo_inurba_marseille","lat":43.27558,"lon":5.38429,"is_reserved":false,"is_disabled":false,"rental_uris":{"android":"levelo://app?vid=2118672d-b962-419d-b54b-f9eed6f77cab","ios":"levelo://app?vid=2118672d-b962-419d-b54b-f9eed6f77cab"},"vehicle_type_id":"4","last_reported":1745266280,"current_range_meters":13600,"station_id":"ce4bhh92rcd13ifvqfi0","pricing_plan_id":"cebpf4jnsgd1na2vs0mg"},{"bike_id":"f9df3a38-46c8-43ba-baa8-fd1c3fd5ea8d","system_id":"levelo_inurba_marseille","lat":43.26804,"lon":5.40272,"is_reserved":false,"is_disabled":false,"rental_uris":{"android":"levelo://app?vid=f9df3a38-46c8-43ba-baa8-fd1c3fd5ea8d","ios":"levelo://app?vid=f9df3a38-46c8-43ba-baa8-fd1c3fd5ea8d"},"vehicle_type_id":"4","last_reported":1745266280,"current_range_meters":13600,"station_id":"ce501612rcd8frsf0b60","pricing_plan_id":"cebpf4jnsgd1na2vs0mg"},{"bike_id":"43ea2697-003d-4975-8a5e-6da0f8df830d","system_id":"levelo_inurba_marseille","lat":43.31999,"lon":5.38142,"is_reserved":false,"is_disabled":false,"rental_uris":{"android":"levelo://app?vid=43ea2697-003d-4975-8a5e-6da0f8df830d","ios":"levelo://app?vid=43ea2697-003d-4975-8a5e-6da0f8df830d"},"vehicle_type_id":"4","last_reported":1745266280,"current_range_meters":13600,"station_id":"ce4bhr12rcd13ifvqhpg","pricing_plan_id":"cebpf4jnsgd1na2vs0mg"},{"bike_id":"8fd43598-927a-4b0c-abdc-ee6ebcc379cd","system_id":"levelo_inurba_marseille","lat":43.30803,"lon":5.38154,"is_reserved":false,"is_disabled":false,"rental_uris":{"android":"levelo://app?vid=8fd43598-927a-4b0c-abdc-ee6ebcc379cd","ios":"levelo://app?vid=8fd43598-927a-4b0c-abdc-ee6ebcc379cd"},"vehicle_type_id":"4","last_reported":1745266280,"current_range_meters":13600,"station_id":"ce4bgt12rcd13ifvqce0","pricing_plan_id":"cebpf4jnsgd1na2vs0mg"},{"bike_id":"a23fb5f1-9060-4e69-abeb-7993a668c16a","system_id":"levelo_inurba_marseille","lat":43.26571,"lon":5.39009,"is_reserved":false,"is_disabled":false,"rental_uris":{"android":"levelo://app?vid=a23fb5f1-9060-4e69-abeb-7993a668c16a","ios":"levelo://app?vid=a23fb5f1-9060-4e69-abeb-7993a668c16a"},"vehicle_type_id":"4","last_reported":1745266280,"current_range_meters":13600,"station_id":"ce4bhe12rcd13ifvqf30","pricing_plan_id":"cebpf4jnsgd1na2vs0mg"},{"bike_id":"844b1b42-0ebc-4bb4-ad76-f30db3175df5","system_id":"levelo_inurba_marseille","lat":43.28414,"lon":5.37525,"is_reserved":false,"is_disabled":false,"rental_uris":{"android":"levelo://app?vid=844b1b42-0ebc-4bb4-ad76-f30db3175df5","ios":"levelo://app?vid=844b1b42-0ebc-4bb4-ad76-f30db3175df5"},"vehicle_type_id":"4","last_reported":1745266280,"current_range_meters":14000,"station_id":"","pricing_plan_id":"cebpf4jnsgd1na2vs0mg"},{"bike_id":"52ee74cb-0882-42d0-9d38-f566662588d1","system_id":"levelo_inurba_marseille","lat":43.28566,"lon":5.39494,"is_reserved":false,"is_disabled":false,"rental_uris":{"android":"levelo://app?vid=52ee74cb-0882-42d0-9d38-f566662588d1","ios":"levelo://app?vid=52ee74cb-0882-42d0-9d38-f566662588d1"},"vehicle_type_id":"4","last_reported":1745266280,"current_range_meters":14000,"station_id":"ce4bh292rcd13ifvqdg0","pricing_plan_id":"cebpf4jnsgd1na2vs0mg"},{"bike_id":"213da5e8-23e1-4c9c-89ed-8256ec571fc4","system_id":"levelo_inurba_marseille","lat":43.283625,"lon":5.386205,"is_reserved":false,"is_disabled":false,"rental_uris":{"android":"levelo://app?vid=213da5e8-23e1-4c9c-89ed-8256ec571fc4","ios":"levelo://app?vid=213da5e8-23e1-4c9c-89ed-8256ec571fc4"},"vehicle_type_id":"4","last_reported":1745266280,"current_range_meters":14000,"station_id":"ce4bh492rcd13ifvqdvg","pricing_plan_id":"cebpf4jnsgd1na2vs0mg"},{"bike_id":"fa6fb692-3c02-45e3-ae8b-7fd21c19ed5f","system_id":"levelo_inurba_marseille","lat":43.28647,"lon":5.38356,"is_reserved":false,"is_disabled":false,"rental_uris":{"android":"levelo://app?vid=fa6fb692-3c02-45e3-ae8b-7fd21c19ed5f","ios":"levelo://app?vid=fa6fb692-3c02-45e3-ae8b-7fd21c19ed5f"},"vehicle_type_id":"4","last_reported":1745266280,"current_range_meters":14000,"station_id":"","pricing_plan_id":"cebpf4jnsgd1na2vs0mg"},{"bike_id":"e07c446c-794c-4c7e-8983-08bcf88741d7","system_id":"levelo_inurba_marseille","lat":43.30893,"lon":5.39621,"is_reserved":false,"is_disabled":false,"rental_uris":{"android":"levelo://app?vid=e07c446c-794c-4c7e-8983-08bcf88741d7","ios":"levelo://app?vid=e07c446c-794c-4c7e-8983-08bcf88741d7"},"vehicle_type_id":"4","last_reported":1745266280,"current_range_meters":14400,"station_id":"ce4bh012rcd13ifvqcv0","pricing_plan_id":"cebpf4jnsgd1na2vs0mg"},{"bike_id":"c7173aae-9028-4efc-b238-34e430d7ab2a","system_id":"levelo_inurba_marseille","lat":43.29604,"lon":5.38098,"is_reserved":false,"is_disabled":false,"rental_uris":{"android":"levelo://app?vid=c7173aae-9028-4efc-b238-34e430d7ab2a","ios":"levelo://app?vid=c7173aae-9028-4efc-b238-34e430d7ab2a"},"vehicle_type_id":"4","last_reported":1745266280,"current_range_meters":14400,"station_id":"ce4bgl12rcd13ifvqbo0","pricing_plan_id":"cebpf4jnsgd1na2vs0mg"},{"bike_id":"e9befd13-4e06-47a9-99c7-a3aac5e3ed6a","system_id":"levelo_inurba_marseille","lat":43.28835,"lon":5.39305,"is_reserved":false,"is_disabled":false,"rental_uris":{"android":"levelo://app?vid=e9befd13-4e06-47a9-99c7-a3aac5e3ed6a","ios":"levelo://app?vid=e9befd13-4e06-47a9-99c7-a3aac5e3ed6a"},"vehicle_type_id":"4","last_reported":1745266280,"current_range_meters":14400,"station_id":"ce4bh2p2rcd13ifvqdi0","pricing_plan_id":"cebpf4jnsgd1na2vs0mg"},{"bike_id":"b373a9fc-b19f-49e6-9414-e3e614041e34","system_id":"levelo_inurba_marseille","lat":43.27069,"lon":5.4228,"is_reserved":false,"is_disabled":true,"rental_uris":{"android":"levelo://app?vid=b373a9fc-b19f-49e6-9414-e3e614041e34","ios":"levelo://app?vid=b373a9fc-b19f-49e6-9414-e3e614041e34"},"vehicle_type_id":"4","last_reported":1745266280,"current_range_meters":14400,"station_id":"ce4bhk92rcd13ifvqgb0","pricing_plan_id":"cebpf4jnsgd1na2vs0mg"},{"bike_id":"7ff24c92-6bad-4230-894e-2141c892966f","system_id":"levelo_inurba_marseille","lat":43.29253,"lon":5.40906,"is_reserved":false,"is_disabled":false,"rental_uris":{"android":"levelo://app?vid=7ff24c92-6bad-4230-894e-2141c892966f","ios":"levelo://app?vid=7ff24c92-6bad-4230-894e-2141c892966f"},"vehicle_type_id":"4","last_reported":1745266280,"current_range_meters":14400,"station_id":"ce4bh192rcd13ifvqdc0","pricing_plan_id":"cebpf4jnsgd1na2vs0mg"},{"bike_id":"0cc8691f-a082-4a9b-944f-91ae0092fb38","system_id":"levelo_inurba_marseille","lat":43.29329,"lon":5.40116,"is_reserved":false,"is_disabled":false,"rental_uris":{"android":"levelo://app?vid=0cc8691f-a082-4a9b-944f-91ae0092fb38","ios":"levelo://app?vid=0cc8691f-a082-4a9b-944f-91ae0092fb38"},"vehicle_type_id":"4","last_reported":1745266280,"current_range_meters":14400,"station_id":"","pricing_plan_id":"cebpf4jnsgd1na2vs0mg"},{"bike_id":"393f69a7-29ef-4af6-9586-f11f88b87f63","system_id":"levelo_inurba_marseille","lat":43.28045,"lon":5.36962,"is_reserved":false,"is_disabled":false,"rental_uris":{"android":"levelo://app?vid=393f69a7-29ef-4af6-9586-f11f88b87f63","ios":"levelo://app?vid=393f69a7-29ef-4af6-9586-f11f88b87f63"},"vehicle_type_id":"4","last_reported":1745266280,"current_range_meters":14400,"station_id":"ce4bha12rcd13ifvqef0","pricing_plan_id":"cebpf4jnsgd1na2vs0mg"},{"bike_id":"08f7e739-732b-440a-8f8f-2302adaf2bb2","system_id":"levelo_inurba_marseille","lat":43.28569,"lon":5.39498,"is_reserved":false,"is_disabled":false,"rental_uris":{"android":"levelo://app?vid=08f7e739-732b-440a-8f8f-2302adaf2bb2","ios":"levelo://app?vid=08f7e739-732b-440a-8f8f-2302adaf2bb2"},"vehicle_type_id":"4","last_reported":1745266280,"current_range_meters":14800,"station_id":"ce4bh292rcd13ifvqdg0","pricing_plan_id":"cebpf4jnsgd1na2vs0mg"},{"bike_id":"2568281a-34e3-44a1-8733-80292791fc14","system_id":"levelo_inurba_marseille","lat":43.28709,"lon":5.39984,"is_reserved":false,"is_disabled":false,"rental_uris":{"android":"levelo://app?vid=2568281a-34e3-44a1-8733-80292791fc14","ios":"levelo://app?vid=2568281a-34e3-44a1-8733-80292791fc14"},"vehicle_type_id":"4","last_reported":1745266280,"current_range_meters":14800,"station_id":"ce4bho92rcd13ifvqh3g","pricing_plan_id":"cebpf4jnsgd1na2vs0mg"},{"bike_id":"8986e290-fbc3-4bd4-9658-3e11f23b0575","system_id":"levelo_inurba_marseille","lat":43.29253,"lon":5.40906,"is_reserved":false,"is_disabled":false,"rental_uris":{"android":"levelo://app?vid=8986e290-fbc3-4bd4-9658-3e11f23b0575","ios":"levelo://app?vid=8986e290-fbc3-4bd4-9658-3e11f23b0575"},"vehicle_type_id":"4","last_reported":1745266280,"current_range_meters":14800,"station_id":"ce4bh192rcd13ifvqdc0","pricing_plan_id":"cebpf4jnsgd1na2vs0mg"},{"bike_id":"e3f2ff94-19f7-4b16-a506-885772f72f4c","system_id":"levelo_inurba_marseille","lat":43.24167,"lon":5.36402,"is_reserved":false,"is_disabled":true,"rental_uris":{"android":"levelo://app?vid=e3f2ff94-19f7-4b16-a506-885772f72f4c","ios":"levelo://app?vid=e3f2ff94-19f7-4b16-a506-885772f72f4c"},"vehicle_type_id":"4","last_reported":1745266280,"current_range_meters":14800,"station_id":"cpo36qri1sfpv3e86is0","pricing_plan_id":"cebpf4jnsgd1na2vs0mg"},{"bike_id":"7d087470-cc3d-43c0-8b5c-ce438e667988","system_id":"levelo_inurba_marseille","lat":43.31213,"lon":5.36869,"is_reserved":false,"is_disabled":false,"rental_uris":{"android":"levelo://app?vid=7d087470-cc3d-43c0-8b5c-ce438e667988","ios":"levelo://app?vid=7d087470-cc3d-43c0-8b5c-ce438e667988"},"vehicle_type_id":"4","last_reported":1745266280,"current_range_meters":15200,"station_id":"ce4bgl92rcd13ifvqbq0","pricing_plan_id":"cebpf4jnsgd1na2vs0mg"},{"bike_id":"35c9b79c-d4e9-4a15-a3ed-480756ed24db","system_id":"levelo_inurba_marseille","lat":43.31491,"lon":5.373,"is_reserved":false,"is_disabled":false,"rental_uris":{"android":"levelo://app?vid=35c9b79c-d4e9-4a15-a3ed-480756ed24db","ios":"levelo://app?vid=35c9b79c-d4e9-4a15-a3ed-480756ed24db"},"vehicle_type_id":"4","last_reported":1745266280,"current_range_meters":14800,"station_id":"ce4bgt12rcd13ifvqcd0","pricing_plan_id":"cebpf4jnsgd1na2vs0mg"},{"bike_id":"afca05cb-9dea-4e13-bae3-b0bd83251e29","system_id":"levelo_inurba_marseille","lat":43.33799,"lon":5.37437,"is_reserved":false,"is_disabled":false,"rental_uris":{"android":"levelo://app?vid=afca05cb-9dea-4e13-bae3-b0bd83251e29","ios":"levelo://app?vid=afca05cb-9dea-4e13-bae3-b0bd83251e29"},"vehicle_type_id":"4","last_reported":1745266280,"current_range_meters":15200,"station_id":"","pricing_plan_id":"cebpf4jnsgd1na2vs0mg"},{"bike_id":"93aaedf8-24b1-493d-ae06-5b55c1f9ece1","system_id":"levelo_inurba_marseille","lat":43.27053,"lon":5.40258,"is_reserved":false,"is_disabled":false,"rental_uris":{"android":"levelo://app?vid=93aaedf8-24b1-493d-ae06-5b55c1f9ece1","ios":"levelo://app?vid=93aaedf8-24b1-493d-ae06-5b55c1f9ece1"},"vehicle_type_id":"4","last_reported":1745266280,"current_range_meters":15200,"station_id":"ce4bhk92rcd13ifvqgc0","pricing_plan_id":"cebpf4jnsgd1na2vs0mg"},{"bike_id":"a597aa79-a9e7-446e-9f8d-ad8e32781eda","system_id":"levelo_inurba_marseille","lat":43.25923,"lon":5.4087,"is_reserved":false,"is_disabled":false,"rental_uris":{"android":"levelo://app?vid=a597aa79-a9e7-446e-9f8d-ad8e32781eda","ios":"levelo://app?vid=a597aa79-a9e7-446e-9f8d-ad8e32781eda"},"vehicle_type_id":"4","last_reported":1745266280,"current_range_meters":15200,"station_id":"ce4bhm92rcd13ifvqglg","pricing_plan_id":"cebpf4jnsgd1na2vs0mg"},{"bike_id":"d9e79c39-e7f5-4230-a287-0d676fda5550","system_id":"levelo_inurba_marseille","lat":43.2926,"lon":5.40166,"is_reserved":false,"is_disabled":false,"rental_uris":{"android":"levelo://app?vid=d9e79c39-e7f5-4230-a287-0d676fda5550","ios":"levelo://app?vid=d9e79c39-e7f5-4230-a287-0d676fda5550"},"vehicle_type_id":"4","last_reported":1745266280,"current_range_meters":16000,"station_id":"ce4bh312rcd13ifvqdk0","pricing_plan_id":"cebpf4jnsgd1na2vs0mg"},{"bike_id":"31dad1ac-0f84-44f8-a969-f5f6007b9b50","system_id":"levelo_inurba_marseille","lat":43.25006,"lon":5.38938,"is_reserved":false,"is_disabled":true,"rental_uris":{"android":"levelo://app?vid=31dad1ac-0f84-44f8-a969-f5f6007b9b50","ios":"levelo://app?vid=31dad1ac-0f84-44f8-a969-f5f6007b9b50"},"vehicle_type_id":"4","last_reported":1745266280,"current_range_meters":16000,"station_id":"ce4bhgp2rcd13ifvqfd0","pricing_plan_id":"cebpf4jnsgd1na2vs0mg"},{"bike_id":"a7aa4f0d-dbae-40db-a193-3ad158f70ff8","system_id":"levelo_inurba_marseille","lat":43.31106,"lon":5.37128,"is_reserved":false,"is_disabled":false,"rental_uris":{"android":"levelo://app?vid=a7aa4f0d-dbae-40db-a193-3ad158f70ff8","ios":"levelo://app?vid=a7aa4f0d-dbae-40db-a193-3ad158f70ff8"},"vehicle_type_id":"4","last_reported":1745266280,"current_range_meters":16000,"station_id":"","pricing_plan_id":"cebpf4jnsgd1na2vs0mg"},{"bike_id":"b101afbf-59d1-496d-8034-1c01b9f4a24e","system_id":"levelo_inurba_marseille","lat":43.29188,"lon":5.39331,"is_reserved":false,"is_disabled":false,"rental_uris":{"android":"levelo://app?vid=b101afbf-59d1-496d-8034-1c01b9f4a24e","ios":"levelo://app?vid=b101afbf-59d1-496d-8034-1c01b9f4a24e"},"vehicle_type_id":"4","last_reported":1745266280,"current_range_meters":16000,"station_id":"ce4bh192rcd13ifvqdd0","pricing_plan_id":"cebpf4jnsgd1na2vs0mg"},{"bike_id":"13a47ec2-9bd8-49fa-b6e7-fd3d397adaa1","system_id":"levelo_inurba_marseille","lat":43.28004,"lon":5.40001,"is_reserved":false,"is_disabled":false,"rental_uris":{"android":"levelo://app?vid=13a47ec2-9bd8-49fa-b6e7-fd3d397adaa1","ios":"levelo://app?vid=13a47ec2-9bd8-49fa-b6e7-fd3d397adaa1"},"vehicle_type_id":"4","last_reported":1745266280,"current_range_meters":16000,"station_id":"ce4bho92rcd13ifvqh4g","pricing_plan_id":"cebpf4jnsgd1na2vs0mg"},{"bike_id":"e0984a65-d243-4f77-a1cb-254126487ba4","system_id":"levelo_inurba_marseille","lat":43.29531,"lon":5.38541,"is_reserved":false,"is_disabled":false,"rental_uris":{"android":"levelo://app?vid=e0984a65-d243-4f77-a1cb-254126487ba4","ios":"levelo://app?vid=e0984a65-d243-4f77-a1cb-254126487ba4"},"vehicle_type_id":"4","last_reported":1745266280,"current_range_meters":16000,"station_id":"ce4bgih2rcd13ifvqba0","pricing_plan_id":"cebpf4jnsgd1na2vs0mg"},{"bike_id":"24899145-0ca4-4c18-9d4a-a07581aa429d","system_id":"levelo_inurba_marseille","lat":43.29223,"lon":5.38443,"is_reserved":false,"is_disabled":false,"rental_uris":{"android":"levelo://app?vid=24899145-0ca4-4c18-9d4a-a07581aa429d","ios":"levelo://app?vid=24899145-0ca4-4c18-9d4a-a07581aa429d"},"vehicle_type_id":"4","last_reported":1745266280,"current_range_meters":16000,"station_id":"ce4bh692rcd13ifvqea0","pricing_plan_id":"cebpf4jnsgd1na2vs0mg"},{"bike_id":"19bdf40e-ce17-4477-9c87-815068b2b0ca","system_id":"levelo_inurba_marseille","lat":43.28934,"lon":5.39627,"is_reserved":false,"is_disabled":false,"rental_uris":{"android":"levelo://app?vid=19bdf40e-ce17-4477-9c87-815068b2b0ca","ios":"levelo://app?vid=19bdf40e-ce17-4477-9c87-815068b2b0ca"},"vehicle_type_id":"4","last_reported":1745266280,"current_range_meters":16000,"station_id":"ce4bh3h2rcd13ifvqdn0","pricing_plan_id":"cebpf4jnsgd1na2vs0mg"},{"bike_id":"217bc09c-9054-444f-b0a6-1a91698bbf60","system_id":"levelo_inurba_marseille","lat":43.26205,"lon":5.37433,"is_reserved":false,"is_disabled":true,"rental_uris":{"android":"levelo://app?vid=217bc09c-9054-444f-b0a6-1a91698bbf60","ios":"levelo://app?vid=217bc09c-9054-444f-b0a6-1a91698bbf60"},"vehicle_type_id":"4","last_reported":1745266280,"current_range_meters":16000,"station_id":"ce4bhgp2rcd13ifvqfc0","pricing_plan_id":"cebpf4jnsgd1na2vs0mg"},{"bike_id":"8e83c5b2-a197-423b-adee-b8a5d9068476","system_id":"levelo_inurba_marseille","lat":43.29411,"lon":5.38628,"is_reserved":false,"is_disabled":false,"rental_uris":{"android":"levelo://app?vid=8e83c5b2-a197-423b-adee-b8a5d9068476","ios":"levelo://app?vid=8e83c5b2-a197-423b-adee-b8a5d9068476"},"vehicle_type_id":"4","last_reported":1745266280,"current_range_meters":16400,"station_id":"ce4bh2h2rcd13ifvqdh0","pricing_plan_id":"cebpf4jnsgd1na2vs0mg"},{"bike_id":"b80ff78e-a74b-4985-afe3-790db9257846","system_id":"levelo_inurba_marseille","lat":43.2954,"lon":5.38551,"is_reserved":false,"is_disabled":false,"rental_uris":{"android":"levelo://app?vid=b80ff78e-a74b-4985-afe3-790db9257846","ios":"levelo://app?vid=b80ff78e-a74b-4985-afe3-790db9257846"},"vehicle_type_id":"4","last_reported":1745266280,"current_range_meters":16400,"station_id":"ce4bgih2rcd13ifvqba0","pricing_plan_id":"cebpf4jnsgd1na2vs0mg"},{"bike_id":"6b4282bc-9432-4c95-847b-7452cf13e716","system_id":"levelo_inurba_marseille","lat":43.29328,"lon":5.37113,"is_reserved":false,"is_disabled":true,"rental_uris":{"android":"levelo://app?vid=6b4282bc-9432-4c95-847b-7452cf13e716","ios":"levelo://app?vid=6b4282bc-9432-4c95-847b-7452cf13e716"},"vehicle_type_id":"4","last_reported":1745266280,"current_range_meters":16400,"station_id":"","pricing_plan_id":"cebpf4jnsgd1na2vs0mg"},{"bike_id":"2a35ab10-f416-439f-a4fa-784873cd587f","system_id":"levelo_inurba_marseille","lat":43.26948,"lon":5.38635,"is_reserved":false,"is_disabled":true,"rental_uris":{"android":"levelo://app?vid=2a35ab10-f416-439f-a4fa-784873cd587f","ios":"levelo://app?vid=2a35ab10-f416-439f-a4fa-784873cd587f"},"vehicle_type_id":"4","last_reported":1745266280,"current_range_meters":16400,"station_id":"ce4bhh92rcd13ifvqfh0","pricing_plan_id":"cebpf4jnsgd1na2vs0mg"},{"bike_id":"e67493be-90d1-453e-bdde-ef8f6fd8f9f8","system_id":"levelo_inurba_marseille","lat":43.292664,"lon":5.384387,"is_reserved":false,"is_disabled":false,"rental_uris":{"android":"levelo://app?vid=e67493be-90d1-453e-bdde-ef8f6fd8f9f8","ios":"levelo://app?vid=e67493be-90d1-453e-bdde-ef8f6fd8f9f8"},"vehicle_type_id":"4","last_reported":1745266280,"current_range_meters":16400,"station_id":"ce4bh192rcd13ifvqdc0","pricing_plan_id":"cebpf4jnsgd1na2vs0mg"},{"bike_id":"d58e580d-a07a-4ccb-8f68-250bb0d42615","system_id":"levelo_inurba_marseille","lat":43.28439,"lon":5.39175,"is_reserved":false,"is_disabled":false,"rental_uris":{"android":"levelo://app?vid=d58e580d-a07a-4ccb-8f68-250bb0d42615","ios":"levelo://app?vid=d58e580d-a07a-4ccb-8f68-250bb0d42615"},"vehicle_type_id":"4","last_reported":1745266280,"current_range_meters":16400,"station_id":"ce4bhoh2rcd13ifvqh5g","pricing_plan_id":"cebpf4jnsgd1na2vs0mg"},{"bike_id":"80a2ab3b-2595-4a1f-abcc-783f02da5d82","system_id":"levelo_inurba_marseille","lat":43.29404,"lon":5.38643,"is_reserved":false,"is_disabled":false,"rental_uris":{"android":"levelo://app?vid=80a2ab3b-2595-4a1f-abcc-783f02da5d82","ios":"levelo://app?vid=80a2ab3b-2595-4a1f-abcc-783f02da5d82"},"vehicle_type_id":"4","last_reported":1745266280,"current_range_meters":16400,"station_id":"ce4bh2h2rcd13ifvqdh0","pricing_plan_id":"cebpf4jnsgd1na2vs0mg"},{"bike_id":"fa15de24-cca3-4579-a312-f78f5ae8f6e1","system_id":"levelo_inurba_marseille","lat":43.24076,"lon":5.37756,"is_reserved":false,"is_disabled":false,"rental_uris":{"android":"levelo://app?vid=fa15de24-cca3-4579-a312-f78f5ae8f6e1","ios":"levelo://app?vid=fa15de24-cca3-4579-a312-f78f5ae8f6e1"},"vehicle_type_id":"4","last_reported":1745266280,"current_range_meters":16400,"station_id":"ce4bhnp2rcd13ifvqgvg","pricing_plan_id":"cebpf4jnsgd1na2vs0mg"},{"bike_id":"0e5415be-0b93-4421-a124-d4e5f7e6ecfa","system_id":"levelo_inurba_marseille","lat":43.31484,"lon":5.37312,"is_reserved":false,"is_disabled":false,"rental_uris":{"android":"levelo://app?vid=0e5415be-0b93-4421-a124-d4e5f7e6ecfa","ios":"levelo://app?vid=0e5415be-0b93-4421-a124-d4e5f7e6ecfa"},"vehicle_type_id":"4","last_reported":1745266280,"current_range_meters":16400,"station_id":"ce4bgt12rcd13ifvqcd0","pricing_plan_id":"cebpf4jnsgd1na2vs0mg"},{"bike_id":"d1bab3a3-d105-4848-95e6-766bc72e11df","system_id":"levelo_inurba_marseille","lat":43.30883,"lon":5.39629,"is_reserved":false,"is_disabled":false,"rental_uris":{"android":"levelo://app?vid=d1bab3a3-d105-4848-95e6-766bc72e11df","ios":"levelo://app?vid=d1bab3a3-d105-4848-95e6-766bc72e11df"},"vehicle_type_id":"4","last_reported":1745266280,"current_range_meters":8800,"station_id":"ce4bh012rcd13ifvqcv0","pricing_plan_id":"cebpf4jnsgd1na2vs0mg"},{"bike_id":"b21c73ab-4359-4f8e-bb95-e8439a292e7b","system_id":"levelo_inurba_marseille","lat":43.27172,"lon":5.40989,"is_reserved":false,"is_disabled":false,"rental_uris":{"android":"levelo://app?vid=b21c73ab-4359-4f8e-bb95-e8439a292e7b","ios":"levelo://app?vid=b21c73ab-4359-4f8e-bb95-e8439a292e7b"},"vehicle_type_id":"4","last_reported":1745266280,"current_range_meters":16400,"station_id":"ce4bhl12rcd13ifvqgf0","pricing_plan_id":"cebpf4jnsgd1na2vs0mg"},{"bike_id":"81abce37-a682-4871-838f-8b696993e474","system_id":"levelo_inurba_marseille","lat":43.28033,"lon":5.36947,"is_reserved":false,"is_disabled":false,"rental_uris":{"android":"levelo://app?vid=81abce37-a682-4871-838f-8b696993e474","ios":"levelo://app?vid=81abce37-a682-4871-838f-8b696993e474"},"vehicle_type_id":"4","last_reported":1745266280,"current_range_meters":16400,"station_id":"ce4bha12rcd13ifvqef0","pricing_plan_id":"cebpf4jnsgd1na2vs0mg"},{"bike_id":"45480439-b5c3-4e5a-9735-d67e2b5e8704","system_id":"levelo_inurba_marseille","lat":43.28705,"lon":5.37375,"is_reserved":false,"is_disabled":false,"rental_uris":{"android":"levelo://app?vid=45480439-b5c3-4e5a-9735-d67e2b5e8704","ios":"levelo://app?vid=45480439-b5c3-4e5a-9735-d67e2b5e8704"},"vehicle_type_id":"4","last_reported":1745266280,"current_range_meters":16400,"station_id":"ce4bh3p2rcd13ifvqdq0","pricing_plan_id":"cebpf4jnsgd1na2vs0mg"},{"bike_id":"f25d8672-7640-4033-8cc4-f80944c4dd44","system_id":"levelo_inurba_marseille","lat":43.2723,"lon":5.40104,"is_reserved":false,"is_disabled":false,"rental_uris":{"android":"levelo://app?vid=f25d8672-7640-4033-8cc4-f80944c4dd44","ios":"levelo://app?vid=f25d8672-7640-4033-8cc4-f80944c4dd44"},"vehicle_type_id":"4","last_reported":1745266280,"current_range_meters":16800,"station_id":"","pricing_plan_id":"cebpf4jnsgd1na2vs0mg"},{"bike_id":"a756bae3-49c1-4d6c-89e8-fcb7b0e7d2e2","system_id":"levelo_inurba_marseille","lat":43.29018,"lon":5.35901,"is_reserved":false,"is_disabled":true,"rental_uris":{"android":"levelo://app?vid=a756bae3-49c1-4d6c-89e8-fcb7b0e7d2e2","ios":"levelo://app?vid=a756bae3-49c1-4d6c-89e8-fcb7b0e7d2e2"},"vehicle_type_id":"4","last_reported":1745266280,"current_range_meters":16800,"station_id":"ce4bha92rcd13ifvqeg0","pricing_plan_id":"cebpf4jnsgd1na2vs0mg"},{"bike_id":"dac5d92e-a5f9-4eee-bb90-aa50137eb314","system_id":"levelo_inurba_marseille","lat":43.302816,"lon":5.377215,"is_reserved":false,"is_disabled":false,"rental_uris":{"android":"levelo://app?vid=dac5d92e-a5f9-4eee-bb90-aa50137eb314","ios":"levelo://app?vid=dac5d92e-a5f9-4eee-bb90-aa50137eb314"},"vehicle_type_id":"4","last_reported":1745266280,"current_range_meters":16800,"station_id":"ce4bguh2rcd13ifvqcj0","pricing_plan_id":"cebpf4jnsgd1na2vs0mg"},{"bike_id":"3067d9f3-f516-4c47-adbb-35ce2d205179","system_id":"levelo_inurba_marseille","lat":43.254376,"lon":5.394402,"is_reserved":false,"is_disabled":false,"rental_uris":{"android":"levelo://app?vid=3067d9f3-f516-4c47-adbb-35ce2d205179","ios":"levelo://app?vid=3067d9f3-f516-4c47-adbb-35ce2d205179"},"vehicle_type_id":"4","last_reported":1745266280,"current_range_meters":16800,"station_id":"ce4bhm12rcd13ifvqgkg","pricing_plan_id":"cebpf4jnsgd1na2vs0mg"},{"bike_id":"4498d547-34c3-46ea-ad7a-cd866b8a575b","system_id":"levelo_inurba_marseille","lat":43.30331,"lon":5.40422,"is_reserved":false,"is_disabled":false,"rental_uris":{"android":"levelo://app?vid=4498d547-34c3-46ea-ad7a-cd866b8a575b","ios":"levelo://app?vid=4498d547-34c3-46ea-ad7a-cd866b8a575b"},"vehicle_type_id":"4","last_reported":1745266280,"current_range_meters":16800,"station_id":"ce4bh012rcd13ifvqd10","pricing_plan_id":"cebpf4jnsgd1na2vs0mg"},{"bike_id":"12505a0a-b14f-4f59-9be1-55ce43130db1","system_id":"levelo_inurba_marseille","lat":43.29594,"lon":5.38091,"is_reserved":false,"is_disabled":true,"rental_uris":{"android":"levelo://app?vid=12505a0a-b14f-4f59-9be1-55ce43130db1","ios":"levelo://app?vid=12505a0a-b14f-4f59-9be1-55ce43130db1"},"vehicle_type_id":"4","last_reported":1745266280,"current_range_meters":16800,"station_id":"ce4bgl12rcd13ifvqbo0","pricing_plan_id":"cebpf4jnsgd1na2vs0mg"},{"bike_id":"0f64adcb-2459-42cc-b90e-1e660a23ec79","system_id":"levelo_inurba_marseille","lat":43.29318,"lon":5.40148,"is_reserved":false,"is_disabled":false,"rental_uris":{"android":"levelo://app?vid=0f64adcb-2459-42cc-b90e-1e660a23ec79","ios":"levelo://app?vid=0f64adcb-2459-42cc-b90e-1e660a23ec79"},"vehicle_type_id":"4","last_reported":1745266280,"current_range_meters":16800,"station_id":"","pricing_plan_id":"cebpf4jnsgd1na2vs0mg"},{"bike_id":"6ed7806b-5f1b-4b5b-bc2d-fd3f2ee474ba","system_id":"levelo_inurba_marseille","lat":43.265,"lon":5.39533,"is_reserved":false,"is_disabled":false,"rental_uris":{"android":"levelo://app?vid=6ed7806b-5f1b-4b5b-bc2d-fd3f2ee474ba","ios":"levelo://app?vid=6ed7806b-5f1b-4b5b-bc2d-fd3f2ee474ba"},"vehicle_type_id":"4","last_reported":1745266280,"current_range_meters":16800,"station_id":"ce4bhi12rcd13ifvqfq0","pricing_plan_id":"cebpf4jnsgd1na2vs0mg"},{"bike_id":"fd664fd5-7a15-4bf3-a82e-3036400dc26b","system_id":"levelo_inurba_marseille","lat":43.30606,"lon":5.37222,"is_reserved":false,"is_disabled":false,"rental_uris":{"android":"levelo://app?vid=fd664fd5-7a15-4bf3-a82e-3036400dc26b","ios":"levelo://app?vid=fd664fd5-7a15-4bf3-a82e-3036400dc26b"},"vehicle_type_id":"4","last_reported":1745266280,"current_range_meters":17200,"station_id":"ce4bgqh2rcd13ifvqc4g","pricing_plan_id":"cebpf4jnsgd1na2vs0mg"},{"bike_id":"013b0bba-3a8e-4176-aec5-9b030be1a006","system_id":"levelo_inurba_marseille","lat":43.31731,"lon":5.37776,"is_reserved":false,"is_disabled":false,"rental_uris":{"android":"levelo://app?vid=013b0bba-3a8e-4176-aec5-9b030be1a006","ios":"levelo://app?vid=013b0bba-3a8e-4176-aec5-9b030be1a006"},"vehicle_type_id":"4","last_reported":1745266280,"current_range_meters":17200,"station_id":"ce4bgth2rcd13ifvqch0","pricing_plan_id":"cebpf4jnsgd1na2vs0mg"},{"bike_id":"7b2dc864-a4e9-468c-9cee-f3075a20977d","system_id":"levelo_inurba_marseille","lat":43.31435,"lon":5.37383,"is_reserved":false,"is_disabled":true,"rental_uris":{"android":"levelo://app?vid=7b2dc864-a4e9-468c-9cee-f3075a20977d","ios":"levelo://app?vid=7b2dc864-a4e9-468c-9cee-f3075a20977d"},"vehicle_type_id":"4","last_reported":1745266280,"current_range_meters":17200,"station_id":"","pricing_plan_id":"cebpf4jnsgd1na2vs0mg"},{"bike_id":"a5255d90-225f-40e7-9173-60478be8a6fd","system_id":"levelo_inurba_marseille","lat":43.29526,"lon":5.3854,"is_reserved":false,"is_disabled":false,"rental_uris":{"android":"levelo://app?vid=a5255d90-225f-40e7-9173-60478be8a6fd","ios":"levelo://app?vid=a5255d90-225f-40e7-9173-60478be8a6fd"},"vehicle_type_id":"4","last_reported":1745266280,"current_range_meters":17200,"station_id":"ce4bgih2rcd13ifvqba0","pricing_plan_id":"cebpf4jnsgd1na2vs0mg"},{"bike_id":"f636cdb2-5148-422d-8b36-0c7f297df0b7","system_id":"levelo_inurba_marseille","lat":43.28344,"lon":5.38092,"is_reserved":false,"is_disabled":false,"rental_uris":{"android":"levelo://app?vid=f636cdb2-5148-422d-8b36-0c7f297df0b7","ios":"levelo://app?vid=f636cdb2-5148-422d-8b36-0c7f297df0b7"},"vehicle_type_id":"4","last_reported":1745266280,"current_range_meters":17200,"station_id":"ce4bh412rcd13ifvqdr0","pricing_plan_id":"cebpf4jnsgd1na2vs0mg"},{"bike_id":"994e5b25-68e1-44ae-9d07-1f64fa26102f","system_id":"levelo_inurba_marseille","lat":43.23191,"lon":5.35557,"is_reserved":false,"is_disabled":false,"rental_uris":{"android":"levelo://app?vid=994e5b25-68e1-44ae-9d07-1f64fa26102f","ios":"levelo://app?vid=994e5b25-68e1-44ae-9d07-1f64fa26102f"},"vehicle_type_id":"4","last_reported":1745266280,"current_range_meters":17200,"station_id":"ce4bhu92rcd13ifvqi70","pricing_plan_id":"cebpf4jnsgd1na2vs0mg"},{"bike_id":"5da9ce03-b9eb-40a3-8b3b-38c436fa8161","system_id":"levelo_inurba_marseille","lat":43.28943,"lon":5.36615,"is_reserved":false,"is_disabled":false,"rental_uris":{"android":"levelo://app?vid=5da9ce03-b9eb-40a3-8b3b-38c436fa8161","ios":"levelo://app?vid=5da9ce03-b9eb-40a3-8b3b-38c436fa8161"},"vehicle_type_id":"4","last_reported":1745266280,"current_range_meters":17200,"station_id":"ce4bhap2rcd13ifvqek0","pricing_plan_id":"cebpf4jnsgd1na2vs0mg"},{"bike_id":"1bd87cd0-e75e-490a-a473-d2925ce35f29","system_id":"levelo_inurba_marseille","lat":43.2944,"lon":5.39749,"is_reserved":false,"is_disabled":false,"rental_uris":{"android":"levelo://app?vid=1bd87cd0-e75e-490a-a473-d2925ce35f29","ios":"levelo://app?vid=1bd87cd0-e75e-490a-a473-d2925ce35f29"},"vehicle_type_id":"4","last_reported":1745266280,"current_range_meters":17200,"station_id":"ce4bh3h2rcd13ifvqdo0","pricing_plan_id":"cebpf4jnsgd1na2vs0mg"},{"bike_id":"322cb3bd-1b2c-4ec8-9cd5-563729b64d42","system_id":"levelo_inurba_marseille","lat":43.240851,"lon":5.377366,"is_reserved":false,"is_disabled":false,"rental_uris":{"android":"levelo://app?vid=322cb3bd-1b2c-4ec8-9cd5-563729b64d42","ios":"levelo://app?vid=322cb3bd-1b2c-4ec8-9cd5-563729b64d42"},"vehicle_type_id":"4","last_reported":1745266280,"current_range_meters":17600,"station_id":"ce4bhnp2rcd13ifvqgvg","pricing_plan_id":"cebpf4jnsgd1na2vs0mg"},{"bike_id":"976a77da-d038-460a-8130-595b4879b966","system_id":"levelo_inurba_marseille","lat":43.27982,"lon":5.41677,"is_reserved":false,"is_disabled":false,"rental_uris":{"android":"levelo://app?vid=976a77da-d038-460a-8130-595b4879b966","ios":"levelo://app?vid=976a77da-d038-460a-8130-595b4879b966"},"vehicle_type_id":"4","last_reported":1745266280,"current_range_meters":17200,"station_id":"ce4bho12rcd13ifvqh1g","pricing_plan_id":"cebpf4jnsgd1na2vs0mg"},{"bike_id":"5a968a37-0ff6-48cf-b3d3-0e5a96c4904f","system_id":"levelo_inurba_marseille","lat":43.29264,"lon":5.37624,"is_reserved":false,"is_disabled":false,"rental_uris":{"android":"levelo://app?vid=5a968a37-0ff6-48cf-b3d3-0e5a96c4904f","ios":"levelo://app?vid=5a968a37-0ff6-48cf-b3d3-0e5a96c4904f"},"vehicle_type_id":"4","last_reported":1745266280,"current_range_meters":17600,"station_id":"ce4bgi12rcd13ifvqb80","pricing_plan_id":"cebpf4jnsgd1na2vs0mg"},{"bike_id":"507a4428-65f1-4eec-89dd-5d33cbf30eac","system_id":"levelo_inurba_marseille","lat":43.28346,"lon":5.38119,"is_reserved":false,"is_disabled":false,"rental_uris":{"android":"levelo://app?vid=507a4428-65f1-4eec-89dd-5d33cbf30eac","ios":"levelo://app?vid=507a4428-65f1-4eec-89dd-5d33cbf30eac"},"vehicle_type_id":"4","last_reported":1745266280,"current_range_meters":17600,"station_id":"ce4bh412rcd13ifvqdr0","pricing_plan_id":"cebpf4jnsgd1na2vs0mg"},{"bike_id":"1f1f9885-6e62-4243-a5b0-45be9ddf4073","system_id":"levelo_inurba_marseille","lat":43.2396,"lon":5.36623,"is_reserved":false,"is_disabled":true,"rental_uris":{"android":"levelo://app?vid=1f1f9885-6e62-4243-a5b0-45be9ddf4073","ios":"levelo://app?vid=1f1f9885-6e62-4243-a5b0-45be9ddf4073"},"vehicle_type_id":"4","last_reported":1745266280,"current_range_meters":17600,"station_id":"ce4bhi12rcd13ifvqfp0","pricing_plan_id":"cebpf4jnsgd1na2vs0mg"},{"bike_id":"1b06bef2-142e-4557-810a-fc865fa25a0b","system_id":"levelo_inurba_marseille","lat":43.265485,"lon":5.37309,"is_reserved":false,"is_disabled":true,"rental_uris":{"android":"levelo://app?vid=1b06bef2-142e-4557-810a-fc865fa25a0b","ios":"levelo://app?vid=1b06bef2-142e-4557-810a-fc865fa25a0b"},"vehicle_type_id":"4","last_reported":1745266280,"current_range_meters":18000,"station_id":"ce4bhg12rcd13ifvqf70","pricing_plan_id":"cebpf4jnsgd1na2vs0mg"},{"bike_id":"b94ce143-5dd7-45a3-b111-19f8d55c0056","system_id":"levelo_inurba_marseille","lat":43.30199,"lon":5.43776,"is_reserved":false,"is_disabled":false,"rental_uris":{"android":"levelo://app?vid=b94ce143-5dd7-45a3-b111-19f8d55c0056","ios":"levelo://app?vid=b94ce143-5dd7-45a3-b111-19f8d55c0056"},"vehicle_type_id":"4","last_reported":1745266280,"current_range_meters":18000,"station_id":"","pricing_plan_id":"cebpf4jnsgd1na2vs0mg"},{"bike_id":"fd6d8e9a-b52a-4934-9d8c-c1c3c182e275","system_id":"levelo_inurba_marseille","lat":43.2926,"lon":5.38433,"is_reserved":false,"is_disabled":false,"rental_uris":{"android":"levelo://app?vid=fd6d8e9a-b52a-4934-9d8c-c1c3c182e275","ios":"levelo://app?vid=fd6d8e9a-b52a-4934-9d8c-c1c3c182e275"},"vehicle_type_id":"4","last_reported":1745266280,"current_range_meters":18000,"station_id":"ce4bh692rcd13ifvqea0","pricing_plan_id":"cebpf4jnsgd1na2vs0mg"},{"bike_id":"b5cf075f-c406-4235-9a4b-71a16ebad57a","system_id":"levelo_inurba_marseille","lat":43.29578,"lon":5.36735,"is_reserved":false,"is_disabled":false,"rental_uris":{"android":"levelo://app?vid=b5cf075f-c406-4235-9a4b-71a16ebad57a","ios":"levelo://app?vid=b5cf075f-c406-4235-9a4b-71a16ebad57a"},"vehicle_type_id":"4","last_reported":1745266280,"current_range_meters":17600,"station_id":"ce4bgph2rcd13ifvqc2g","pricing_plan_id":"cebpf4jnsgd1na2vs0mg"},{"bike_id":"48dda090-77a6-4d79-a3ef-6b0aebd79809","system_id":"levelo_inurba_marseille","lat":43.29555,"lon":5.42283,"is_reserved":false,"is_disabled":false,"rental_uris":{"android":"levelo://app?vid=48dda090-77a6-4d79-a3ef-6b0aebd79809","ios":"levelo://app?vid=48dda090-77a6-4d79-a3ef-6b0aebd79809"},"vehicle_type_id":"4","last_reported":1745266280,"current_range_meters":18000,"station_id":"ce4bhph2rcd13ifvqhdg","pricing_plan_id":"cebpf4jnsgd1na2vs0mg"},{"bike_id":"88d28b4a-86aa-45b0-8a4b-66593392c29c","system_id":"levelo_inurba_marseille","lat":43.29527,"lon":5.38542,"is_reserved":false,"is_disabled":false,"rental_uris":{"android":"levelo://app?vid=88d28b4a-86aa-45b0-8a4b-66593392c29c","ios":"levelo://app?vid=88d28b4a-86aa-45b0-8a4b-66593392c29c"},"vehicle_type_id":"4","last_reported":1745266280,"current_range_meters":18000,"station_id":"ce4bgih2rcd13ifvqba0","pricing_plan_id":"cebpf4jnsgd1na2vs0mg"},{"bike_id":"de9704f9-bc65-4f5a-9c6b-e4c83851fc93","system_id":"levelo_inurba_marseille","lat":43.21771,"lon":5.346,"is_reserved":false,"is_disabled":true,"rental_uris":{"android":"levelo://app?vid=de9704f9-bc65-4f5a-9c6b-e4c83851fc93","ios":"levelo://app?vid=de9704f9-bc65-4f5a-9c6b-e4c83851fc93"},"vehicle_type_id":"4","last_reported":1745266280,"current_range_meters":18000,"station_id":"","pricing_plan_id":"cebpf4jnsgd1na2vs0mg"},{"bike_id":"d86d7dbe-9d8d-4c4e-833b-0dfbdb06af8c","system_id":"levelo_inurba_marseille","lat":43.26499,"lon":5.39535,"is_reserved":false,"is_disabled":false,"rental_uris":{"android":"levelo://app?vid=d86d7dbe-9d8d-4c4e-833b-0dfbdb06af8c","ios":"levelo://app?vid=d86d7dbe-9d8d-4c4e-833b-0dfbdb06af8c"},"vehicle_type_id":"4","last_reported":1745266280,"current_range_meters":18000,"station_id":"ce4bhi12rcd13ifvqfq0","pricing_plan_id":"cebpf4jnsgd1na2vs0mg"},{"bike_id":"de2978e4-2860-475d-9b19-8da1b00905b5","system_id":"levelo_inurba_marseille","lat":43.26189,"lon":5.37898,"is_reserved":false,"is_disabled":false,"rental_uris":{"android":"levelo://app?vid=de2978e4-2860-475d-9b19-8da1b00905b5","ios":"levelo://app?vid=de2978e4-2860-475d-9b19-8da1b00905b5"},"vehicle_type_id":"4","last_reported":1745266280,"current_range_meters":18000,"station_id":"ce4bhjp2rcd13ifvqg90","pricing_plan_id":"cebpf4jnsgd1na2vs0mg"},{"bike_id":"c606d62b-3df2-4cf6-9ac4-4e10d863e825","system_id":"levelo_inurba_marseille","lat":43.29525,"lon":5.38552,"is_reserved":false,"is_disabled":false,"rental_uris":{"android":"levelo://app?vid=c606d62b-3df2-4cf6-9ac4-4e10d863e825","ios":"levelo://app?vid=c606d62b-3df2-4cf6-9ac4-4e10d863e825"},"vehicle_type_id":"4","last_reported":1745266280,"current_range_meters":18800,"station_id":"ce4bgih2rcd13ifvqba0","pricing_plan_id":"cebpf4jnsgd1na2vs0mg"},{"bike_id":"0ee39544-a63a-48db-bfcc-30ca560e3cfa","system_id":"levelo_inurba_marseille","lat":43.28116,"lon":5.37855,"is_reserved":false,"is_disabled":false,"rental_uris":{"android":"levelo://app?vid=0ee39544-a63a-48db-bfcc-30ca560e3cfa","ios":"levelo://app?vid=0ee39544-a63a-48db-bfcc-30ca560e3cfa"},"vehicle_type_id":"4","last_reported":1745266280,"current_range_meters":18800,"station_id":"ce4bha12rcd13ifvqee0","pricing_plan_id":"cebpf4jnsgd1na2vs0mg"},{"bike_id":"2d06edc9-2063-47f4-99ca-0de3774d3ecc","system_id":"levelo_inurba_marseille","lat":43.31683,"lon":5.40461,"is_reserved":false,"is_disabled":false,"rental_uris":{"android":"levelo://app?vid=2d06edc9-2063-47f4-99ca-0de3774d3ecc","ios":"levelo://app?vid=2d06edc9-2063-47f4-99ca-0de3774d3ecc"},"vehicle_type_id":"4","last_reported":1745266280,"current_range_meters":18800,"station_id":"ce4bh012rcd13ifvqd00","pricing_plan_id":"cebpf4jnsgd1na2vs0mg"},{"bike_id":"b25bc8bc-25db-412e-aca2-733761ae01c4","system_id":"levelo_inurba_marseille","lat":43.2904,"lon":5.39958,"is_reserved":false,"is_disabled":false,"rental_uris":{"android":"levelo://app?vid=b25bc8bc-25db-412e-aca2-733761ae01c4","ios":"levelo://app?vid=b25bc8bc-25db-412e-aca2-733761ae01c4"},"vehicle_type_id":"4","last_reported":1745266280,"current_range_meters":18800,"station_id":"ce4bh392rcd13ifvqdm0","pricing_plan_id":"cebpf4jnsgd1na2vs0mg"},{"bike_id":"895a56a6-79e4-46da-830b-f51ebd573d90","system_id":"levelo_inurba_marseille","lat":43.27599,"lon":5.38417,"is_reserved":false,"is_disabled":false,"rental_uris":{"android":"levelo://app?vid=895a56a6-79e4-46da-830b-f51ebd573d90","ios":"levelo://app?vid=895a56a6-79e4-46da-830b-f51ebd573d90"},"vehicle_type_id":"4","last_reported":1745266280,"current_range_meters":18800,"station_id":"ce4bhh92rcd13ifvqfi0","pricing_plan_id":"cebpf4jnsgd1na2vs0mg"},{"bike_id":"ee3cc48b-30d9-4634-b2f9-6cf1d2b85d03","system_id":"levelo_inurba_marseille","lat":43.28443,"lon":5.374966,"is_reserved":false,"is_disabled":false,"rental_uris":{"android":"levelo://app?vid=ee3cc48b-30d9-4634-b2f9-6cf1d2b85d03","ios":"levelo://app?vid=ee3cc48b-30d9-4634-b2f9-6cf1d2b85d03"},"vehicle_type_id":"4","last_reported":1745266280,"current_range_meters":18000,"station_id":"ce4bgjh2rcd13ifvqbf0","pricing_plan_id":"cebpf4jnsgd1na2vs0mg"},{"bike_id":"457b4425-2143-4d8d-ab07-86e97485e358","system_id":"levelo_inurba_marseille","lat":43.32003,"lon":5.38162,"is_reserved":false,"is_disabled":false,"rental_uris":{"android":"levelo://app?vid=457b4425-2143-4d8d-ab07-86e97485e358","ios":"levelo://app?vid=457b4425-2143-4d8d-ab07-86e97485e358"},"vehicle_type_id":"4","last_reported":1745266280,"current_range_meters":19200,"station_id":"ce4bhr12rcd13ifvqhpg","pricing_plan_id":"cebpf4jnsgd1na2vs0mg"},{"bike_id":"7b5053a1-6abc-494a-aa95-a321d1070bc6","system_id":"levelo_inurba_marseille","lat":43.28077,"lon":5.3966,"is_reserved":false,"is_disabled":false,"rental_uris":{"android":"levelo://app?vid=7b5053a1-6abc-494a-aa95-a321d1070bc6","ios":"levelo://app?vid=7b5053a1-6abc-494a-aa95-a321d1070bc6"},"vehicle_type_id":"4","last_reported":1745266280,"current_range_meters":19200,"station_id":"ce4bho12rcd13ifvqh2g","pricing_plan_id":"cebpf4jnsgd1na2vs0mg"},{"bike_id":"25867f99-56e8-45af-9b15-6f18b27a58b2","system_id":"levelo_inurba_marseille","lat":43.30135,"lon":5.39859,"is_reserved":false,"is_disabled":false,"rental_uris":{"android":"levelo://app?vid=25867f99-56e8-45af-9b15-6f18b27a58b2","ios":"levelo://app?vid=25867f99-56e8-45af-9b15-6f18b27a58b2"},"vehicle_type_id":"4","last_reported":1745266280,"current_range_meters":18800,"station_id":"ce4bh0h2rcd13ifvqd40","pricing_plan_id":"cebpf4jnsgd1na2vs0mg"},{"bike_id":"6d76b210-7504-4ab7-9924-a2b767be8850","system_id":"levelo_inurba_marseille","lat":43.29522,"lon":5.38566,"is_reserved":false,"is_disabled":false,"rental_uris":{"android":"levelo://app?vid=6d76b210-7504-4ab7-9924-a2b767be8850","ios":"levelo://app?vid=6d76b210-7504-4ab7-9924-a2b767be8850"},"vehicle_type_id":"4","last_reported":1745266280,"current_range_meters":19200,"station_id":"ce4bgih2rcd13ifvqba0","pricing_plan_id":"cebpf4jnsgd1na2vs0mg"},{"bike_id":"4f750d7b-66e9-4360-bedf-9116f4f068dc","system_id":"levelo_inurba_marseille","lat":43.29187,"lon":5.39325,"is_reserved":false,"is_disabled":false,"rental_uris":{"android":"levelo://app?vid=4f750d7b-66e9-4360-bedf-9116f4f068dc","ios":"levelo://app?vid=4f750d7b-66e9-4360-bedf-9116f4f068dc"},"vehicle_type_id":"4","last_reported":1745266280,"current_range_meters":19200,"station_id":"ce4bh192rcd13ifvqdd0","pricing_plan_id":"cebpf4jnsgd1na2vs0mg"},{"bike_id":"ee56bb0d-f391-445b-8456-6e98a45f328e","system_id":"levelo_inurba_marseille","lat":43.24073,"lon":5.37755,"is_reserved":false,"is_disabled":false,"rental_uris":{"android":"levelo://app?vid=ee56bb0d-f391-445b-8456-6e98a45f328e","ios":"levelo://app?vid=ee56bb0d-f391-445b-8456-6e98a45f328e"},"vehicle_type_id":"4","last_reported":1745266280,"current_range_meters":19200,"station_id":"ce4bhnp2rcd13ifvqgvg","pricing_plan_id":"cebpf4jnsgd1na2vs0mg"},{"bike_id":"0e322624-b7df-4033-8ebe-82e42107466d","system_id":"levelo_inurba_marseille","lat":43.29528,"lon":5.38546,"is_reserved":false,"is_disabled":false,"rental_uris":{"android":"levelo://app?vid=0e322624-b7df-4033-8ebe-82e42107466d","ios":"levelo://app?vid=0e322624-b7df-4033-8ebe-82e42107466d"},"vehicle_type_id":"4","last_reported":1745266280,"current_range_meters":19200,"station_id":"ce4bgih2rcd13ifvqba0","pricing_plan_id":"cebpf4jnsgd1na2vs0mg"},{"bike_id":"512f77ee-8db8-41b8-b142-3d14b2d5b2c9","system_id":"levelo_inurba_marseille","lat":43.286005,"lon":5.360396,"is_reserved":false,"is_disabled":false,"rental_uris":{"android":"levelo://app?vid=512f77ee-8db8-41b8-b142-3d14b2d5b2c9","ios":"levelo://app?vid=512f77ee-8db8-41b8-b142-3d14b2d5b2c9"},"vehicle_type_id":"4","last_reported":1745266280,"current_range_meters":19600,"station_id":"ce4bhah2rcd13ifvqei0","pricing_plan_id":"cebpf4jnsgd1na2vs0mg"},{"bike_id":"f8ea6dfd-2e64-471a-8869-45f6eb008a1e","system_id":"levelo_inurba_marseille","lat":43.303218,"lon":5.392159,"is_reserved":false,"is_disabled":false,"rental_uris":{"android":"levelo://app?vid=f8ea6dfd-2e64-471a-8869-45f6eb008a1e","ios":"levelo://app?vid=f8ea6dfd-2e64-471a-8869-45f6eb008a1e"},"vehicle_type_id":"4","last_reported":1745266280,"current_range_meters":19200,"station_id":"ce4bgvh2rcd13ifvqcs0","pricing_plan_id":"cebpf4jnsgd1na2vs0mg"},{"bike_id":"3f60bb88-040b-47d0-b1b3-cc0b33ae64a0","system_id":"levelo_inurba_marseille","lat":43.29869,"lon":5.38914,"is_reserved":false,"is_disabled":false,"rental_uris":{"android":"levelo://app?vid=3f60bb88-040b-47d0-b1b3-cc0b33ae64a0","ios":"levelo://app?vid=3f60bb88-040b-47d0-b1b3-cc0b33ae64a0"},"vehicle_type_id":"4","last_reported":1745266280,"current_range_meters":19600,"station_id":"ce4bh392rcd13ifvqdl0","pricing_plan_id":"cebpf4jnsgd1na2vs0mg"},{"bike_id":"619ec361-2562-4f7e-8b7c-174dc8026364","system_id":"levelo_inurba_marseille","lat":43.2846,"lon":5.39189,"is_reserved":false,"is_disabled":false,"rental_uris":{"android":"levelo://app?vid=619ec361-2562-4f7e-8b7c-174dc8026364","ios":"levelo://app?vid=619ec361-2562-4f7e-8b7c-174dc8026364"},"vehicle_type_id":"4","last_reported":1745266280,"current_range_meters":19600,"station_id":"ce4bhoh2rcd13ifvqh5g","pricing_plan_id":"cebpf4jnsgd1na2vs0mg"},{"bike_id":"5aee7c73-e3ed-4c26-aa0f-d214150e67e5","system_id":"levelo_inurba_marseille","lat":43.23958,"lon":5.36663,"is_reserved":false,"is_disabled":true,"rental_uris":{"android":"levelo://app?vid=5aee7c73-e3ed-4c26-aa0f-d214150e67e5","ios":"levelo://app?vid=5aee7c73-e3ed-4c26-aa0f-d214150e67e5"},"vehicle_type_id":"4","last_reported":1745266280,"current_range_meters":19600,"station_id":"ce4bhi12rcd13ifvqfp0","pricing_plan_id":"cebpf4jnsgd1na2vs0mg"},{"bike_id":"715a53fc-97af-4408-a068-070cbb637f16","system_id":"levelo_inurba_marseille","lat":43.29718,"lon":5.38385,"is_reserved":false,"is_disabled":false,"rental_uris":{"android":"levelo://app?vid=715a53fc-97af-4408-a068-070cbb637f16","ios":"levelo://app?vid=715a53fc-97af-4408-a068-070cbb637f16"},"vehicle_type_id":"4","last_reported":1745266280,"current_range_meters":19600,"station_id":"","pricing_plan_id":"cebpf4jnsgd1na2vs0mg"},{"bike_id":"d5df48b0-2cc7-4df6-b9c9-e1a2b35169ea","system_id":"levelo_inurba_marseille","lat":43.280978,"lon":5.378514,"is_reserved":false,"is_disabled":false,"rental_uris":{"android":"levelo://app?vid=d5df48b0-2cc7-4df6-b9c9-e1a2b35169ea","ios":"levelo://app?vid=d5df48b0-2cc7-4df6-b9c9-e1a2b35169ea"},"vehicle_type_id":"4","last_reported":1745266280,"current_range_meters":20000,"station_id":"ce4bha12rcd13ifvqee0","pricing_plan_id":"cebpf4jnsgd1na2vs0mg"},{"bike_id":"9e6c8233-0c25-4acd-a7a8-029b3138d66a","system_id":"levelo_inurba_marseille","lat":43.29539,"lon":5.38542,"is_reserved":false,"is_disabled":false,"rental_uris":{"android":"levelo://app?vid=9e6c8233-0c25-4acd-a7a8-029b3138d66a","ios":"levelo://app?vid=9e6c8233-0c25-4acd-a7a8-029b3138d66a"},"vehicle_type_id":"4","last_reported":1745266280,"current_range_meters":20000,"station_id":"ce4bgih2rcd13ifvqba0","pricing_plan_id":"cebpf4jnsgd1na2vs0mg"},{"bike_id":"d01df6a6-b745-430f-aed3-8244c27e3204","system_id":"levelo_inurba_marseille","lat":43.28341,"lon":5.38108,"is_reserved":false,"is_disabled":false,"rental_uris":{"android":"levelo://app?vid=d01df6a6-b745-430f-aed3-8244c27e3204","ios":"levelo://app?vid=d01df6a6-b745-430f-aed3-8244c27e3204"},"vehicle_type_id":"4","last_reported":1745266280,"current_range_meters":20000,"station_id":"ce4bh412rcd13ifvqdr0","pricing_plan_id":"cebpf4jnsgd1na2vs0mg"},{"bike_id":"f67e3b1c-54af-481e-a2fd-00f2534f65a4","system_id":"levelo_inurba_marseille","lat":43.30956,"lon":5.40154,"is_reserved":false,"is_disabled":false,"rental_uris":{"android":"levelo://app?vid=f67e3b1c-54af-481e-a2fd-00f2534f65a4","ios":"levelo://app?vid=f67e3b1c-54af-481e-a2fd-00f2534f65a4"},"vehicle_type_id":"4","last_reported":1745266280,"current_range_meters":20000,"station_id":"ce4bgvp2rcd13ifvqct0","pricing_plan_id":"cebpf4jnsgd1na2vs0mg"},{"bike_id":"8ffc6bc0-feb5-4366-ae32-5db0b209e174","system_id":"levelo_inurba_marseille","lat":43.30552,"lon":5.38422,"is_reserved":false,"is_disabled":false,"rental_uris":{"android":"levelo://app?vid=8ffc6bc0-feb5-4366-ae32-5db0b209e174","ios":"levelo://app?vid=8ffc6bc0-feb5-4366-ae32-5db0b209e174"},"vehicle_type_id":"4","last_reported":1745266280,"current_range_meters":20000,"station_id":"ce4bgg92rcd13ifvqb30","pricing_plan_id":"cebpf4jnsgd1na2vs0mg"},{"bike_id":"178a8772-42ae-427d-97c6-cb956128d797","system_id":"levelo_inurba_marseille","lat":43.28034,"lon":5.36946,"is_reserved":false,"is_disabled":false,"rental_uris":{"android":"levelo://app?vid=178a8772-42ae-427d-97c6-cb956128d797","ios":"levelo://app?vid=178a8772-42ae-427d-97c6-cb956128d797"},"vehicle_type_id":"4","last_reported":1745266280,"current_range_meters":20000,"station_id":"ce4bha12rcd13ifvqef0","pricing_plan_id":"cebpf4jnsgd1na2vs0mg"},{"bike_id":"0b7fa7c6-944f-4107-81a8-ac6bfe64d453","system_id":"levelo_inurba_marseille","lat":43.29414,"lon":5.38605,"is_reserved":false,"is_disabled":false,"rental_uris":{"android":"levelo://app?vid=0b7fa7c6-944f-4107-81a8-ac6bfe64d453","ios":"levelo://app?vid=0b7fa7c6-944f-4107-81a8-ac6bfe64d453"},"vehicle_type_id":"4","last_reported":1745266280,"current_range_meters":20000,"station_id":"ce4bh2h2rcd13ifvqdh0","pricing_plan_id":"cebpf4jnsgd1na2vs0mg"},