{"last_updated":1752307984,"ttl":60,"version":"2.2","data":{"bikes":[{"bike_id":"bb63a97f-4460-4930-a5cf-ea9eb345d406","system_id":"levelo_inurba_marseille","lat":43.29655,"lon":5.37224,"is_reserved":false,"is_disabled":true,"rental_uris":{"android":"levelo://app?vid=bb63a97f-4460-4930-a5cf-ea9eb345d406","ios":"levelo://app?vid=bb63a97f-4460-4930-a5cf-ea9eb345d406"},"vehicle_type_id":"4","last_reported":1752307984,"current_range_meters":2800,"station_id":"","pricing_plan_id":"cebpf4jnsgd1na2vs0mg"},{"bike_id":"583a81bf-d828-42b4-9aae-b537f3f7c20c","system_id":"levelo_inurba_marseille","lat":43.26193,"lon":5.37446,"is_reserved":false,"is_disabled":false,"rental_uris":{"android":"levelo://app?vid=583a81bf-d828-42b4-9aae-b537f3f7c20c","ios":"levelo://app?vid=583a81bf-d828-42b4-9aae-b537f3f7c20c"},"vehicle_type_id":"4","last_reported":1752307984,"current_range_meters":5600,"station_id":"ce4bhgp2rcd13ifvqfc0","pricing_plan_id":"cebpf4jnsgd1na2vs0mg"},{"bike_id":"46398dfb-c483-4a99-82e0-09eb86052d5b","system_id":"levelo_inurba_marseille","lat":43.28501,"lon":5.38565,"is_reserved":false,"is_disabled":false,"rental_uris":{"android":"levelo://app?vid=46398dfb-c483-4a99-82e0-09eb86052d5b","ios":"levelo://app?vid=46398dfb-c483-4a99-82e0-09eb86052d5b"},"vehicle_type_id":"4","last_reported":1752307984,"current_range_meters":6000,"station_id":"ce4bh8p2rcd13ifvqeb0","pricing_plan_id":"cebpf4jnsgd1na2vs0mg"},{"bike_id":"d8f33195-93cb-4919-8fab-bd796498b905","system_id":"levelo_inurba_marseille","lat":43.265675,"lon":5.390076,"is_reserved":false,"is_disabled":true,"rental_uris":{"android":"levelo://app?vid=d8f33195-93cb-4919-8fab-bd796498b905","ios":"levelo://app?vid=d8f33195-93cb-4919-8fab-bd796498b905"},"vehicle_type_id":"4","last_reported":1752307984,"current_range_meters":6400,"station_id":"ce4bhe12rcd13ifvqf30","pricing_plan_id":"cebpf4jnsgd1na2vs0mg"},{"bike_id":"a2339d9d-6be4-415d-a160-f9b9822722fc","system_id":"levelo_inurba_marseille","lat":43.31061,"lon":5.3834,"is_reserved":false,"is_disabled":true,"rental_uris":{"android":"levelo://app?vid=a2339d9d-6be4-415d-a160-f9b9822722fc","ios":"levelo://app?vid=a2339d9d-6be4-415d-a160-f9b9822722fc"},"vehicle_type_id":"4","last_reported":1752307984,"current_range_meters":6400,"station_id":"ce4bgv92rcd13ifvqcr0","pricing_plan_id":"cebpf4jnsgd1na2vs0mg"},{"bike_id":"8a8548c8-5024-4ee6-ba3e-a02d35e313f5","system_id":"levelo_inurba_marseille","lat":43.28617,"lon":5.3705,"is_reserved":false,"is_disabled":false,"rental_uris":{"android":"levelo://app?vid=8a8548c8-5024-4ee6-ba3e-a02d35e313f5","ios":"levelo://app?vid=8a8548c8-5024-4ee6-ba3e-a02d35e313f5"},"vehicle_type_id":"4","last_reported":1752307984,"current_range_meters":6800,"station_id":"ce4bht12rcd13ifvqi60","pricing_plan_id":"cebpf4jnsgd1na2vs0mg"},{"bike_id":"b4544312-64e4-4dd2-bd6d-e1d3f6243b40","system_id":"levelo_inurba_marseille","lat":43.28878,"lon":5.3845,"is_reserved":false,"is_disabled":false,"rental_uris":{"android":"levelo://app?vid=b4544312-64e4-4dd2-bd6d-e1d3f6243b40","ios":"levelo://app?vid=b4544312-64e4-4dd2-bd6d-e1d3f6243b40"},"vehicle_type_id":"4","last_reported":1752307984,"current_range_meters":6800,"station_id":"","pricing_plan_id":"cebpf4jnsgd1na2vs0mg"},{"bike_id":"ac6fa144-a58e-4c9c-88eb-747201fb9c31","system_id":"levelo_inurba_marseille","lat":43.30775,"lon":5.393,"is_reserved":false,"is_disabled":false,"rental_uris":{"android":"levelo://app?vid=ac6fa144-a58e-4c9c-88eb-747201fb9c31","ios":"levelo://app?vid=ac6fa144-a58e-4c9c-88eb-747201fb9c31"},"vehicle_type_id":"4","last_reported":1752307984,"current_range_meters":7200,"station_id":"","pricing_plan_id":"cebpf4jnsgd1na2vs0mg"},{"bike_id":"a36977c7-cfd8-47f2-b91e-43b63daa0fe7","system_id":"levelo_inurba_marseille","lat":43.26938,"lon":5.40252,"is_reserved":false,"is_disabled":false,"rental_uris":{"android":"levelo://app?vid=a36977c7-cfd8-47f2-b91e-43b63daa0fe7","ios":"levelo://app?vid=a36977c7-cfd8-47f2-b91e-43b63daa0fe7"},"vehicle_type_id":"4","last_reported":1752307984,"current_range_meters":7200,"station_id":"cjm6bp8fraef2m0cb0m0","pricing_plan_id":"cebpf4jnsgd1na2vs0mg"},{"bike_id":"eea44b83-c165-49dd-a23a-29cb59d8d866","system_id":"levelo_inurba_marseille","lat":43.308356,"lon":5.37398,"is_reserved":false,"is_disabled":false,"rental_uris":{"android":"levelo://app?vid=eea44b83-c165-49dd-a23a-29cb59d8d866","ios":"levelo://app?vid=eea44b83-c165-49dd-a23a-29cb59d8d866"},"vehicle_type_id":"4","last_reported":1752307984,"current_range_meters":8000,"station_id":"","pricing_plan_id":"cebpf4jnsgd1na2vs0mg"},{"bike_id":"e3e456c4-b90b-4273-a549-897888733807","system_id":"levelo_inurba_marseille","lat":43.33022,"lon":5.39043,"is_reserved":false,"is_disabled":false,"rental_uris":{"android":"levelo://app?vid=e3e456c4-b90b-4273-a549-897888733807","ios":"levelo://app?vid=e3e456c4-b90b-4273-a549-897888733807"},"vehicle_type_id":"4","last_reported":1752307984,"current_range_meters":8000,"station_id":"","pricing_plan_id":"cebpf4jnsgd1na2vs0mg"},{"bike_id":"534ed68d-5ceb-43a8-968b-be30f01dfa74","system_id":"levelo_inurba_marseille","lat":43.28208,"lon":5.39059,"is_reserved":false,"is_disabled":false,"rental_uris":{"android":"levelo://app?vid=534ed68d-5ceb-43a8-968b-be30f01dfa74","ios":"levelo://app?vid=534ed68d-5ceb-43a8-968b-be30f01dfa74"},"vehicle_type_id":"4","last_reported":1752307984,"current_range_meters":8800,"station_id":"","pricing_plan_id":"cebpf4jnsgd1na2vs0mg"},{"bike_id":"233b50cf-5c26-48c2-95f6-25c3fb030ed9","system_id":"levelo_inurba_marseille","lat":43.290077,"lon":5.399394,"is_reserved":false,"is_disabled":false,"rental_uris":{"android":"levelo://app?vid=233b50cf-5c26-48c2-95f6-25c3fb030ed9","ios":"levelo://app?vid=233b50cf-5c26-48c2-95f6-25c3fb030ed9"},"vehicle_type_id":"4","last_reported":1752307984,"current_range_meters":8800,"station_id":"ce4bh392rcd13ifvqdm0","pricing_plan_id":"cebpf4jnsgd1na2vs0mg"},{"bike_id":"f6379f47-d054-43a8-bf41-72c2d3a2fa59","system_id":"levelo_inurba_marseille","lat":43.23965,"lon":5.36632,"is_reserved":false,"is_disabled":false,"rental_uris":{"android":"levelo://app?vid=f6379f47-d054-43a8-bf41-72c2d3a2fa59","ios":"levelo://app?vid=f6379f47-d054-43a8-bf41-72c2d3a2fa59"},"vehicle_type_id":"4","last_reported":1752307984,"current_range_meters":8800,"station_id":"ce4bhi12rcd13ifvqfp0","pricing_plan_id":"cebpf4jnsgd1na2vs0mg"},{"bike_id":"bc3d0d62-ca07-4efb-845b-9af3ae5ba5e6","system_id":"levelo_inurba_marseille","lat":43.2867,"lon":5.36347,"is_reserved":false,"is_disabled":false,"rental_uris":{"android":"levelo://app?vid=bc3d0d62-ca07-4efb-845b-9af3ae5ba5e6","ios":"levelo://app?vid=bc3d0d62-ca07-4efb-845b-9af3ae5ba5e6"},"vehicle_type_id":"4","last_reported":1752307984,"current_range_meters":8800,"station_id":"ce4bhah2rcd13ifvqej0","pricing_plan_id":"cebpf4jnsgd1na2vs0mg"},{"bike_id":"e83614b7-1234-4bc3-b14a-b5635492649e","system_id":"levelo_inurba_marseille","lat":43.28657,"lon":5.38501,"is_reserved":false,"is_disabled":false,"rental_uris":{"android":"levelo://app?vid=e83614b7-1234-4bc3-b14a-b5635492649e","ios":"levelo://app?vid=e83614b7-1234-4bc3-b14a-b5635492649e"},"vehicle_type_id":"4","last_reported":1752307984,"current_range_meters":8800,"station_id":"","pricing_plan_id":"cebpf4jnsgd1na2vs0mg"},{"bike_id":"d849a247-c2c0-4619-bac8-f5a6994e0014","system_id":"levelo_inurba_marseille","lat":43.32033,"lon":5.41555,"is_reserved":false,"is_disabled":true,"rental_uris":{"android":"levelo://app?vid=d849a247-c2c0-4619-bac8-f5a6994e0014","ios":"levelo://app?vid=d849a247-c2c0-4619-bac8-f5a6994e0014"},"vehicle_type_id":"4","last_reported":1752307984,"current_range_meters":9200,"station_id":"","pricing_plan_id":"cebpf4jnsgd1na2vs0mg"},{"bike_id":"a105c0c6-6fb2-4348-a250-f82e4e3e3272","system_id":"levelo_inurba_marseille","lat":43.21189,"lon":5.35071,"is_reserved":false,"is_disabled":false,"rental_uris":{"android":"levelo://app?vid=a105c0c6-6fb2-4348-a250-f82e4e3e3272","ios":"levelo://app?vid=a105c0c6-6fb2-4348-a250-f82e4e3e3272"},"vehicle_type_id":"4","last_reported":1752307984,"current_range_meters":9200,"station_id":"st_cvj6sg6p6f1abm77japg","pricing_plan_id":"cebpf4jnsgd1na2vs0mg"},{"bike_id":"12962c22-c999-46c4-b70d-26925ea9fc72","system_id":"levelo_inurba_marseille","lat":43.297386,"lon":5.383671,"is_reserved":false,"is_disabled":false,"rental_uris":{"android":"levelo://app?vid=12962c22-c999-46c4-b70d-26925ea9fc72","ios":"levelo://app?vid=12962c22-c999-46c4-b70d-26925ea9fc72"},"vehicle_type_id":"4","last_reported":1752307984,"current_range_meters":9200,"station_id":"","pricing_plan_id":"cebpf4jnsgd1na2vs0mg"},{"bike_id":"a6428eee-7d87-40d5-a154-abcfc3859c00","system_id":"levelo_inurba_marseille","lat":43.28418,"lon":5.3498,"is_reserved":false,"is_disabled":false,"rental_uris":{"android":"levelo://app?vid=a6428eee-7d87-40d5-a154-abcfc3859c00","ios":"levelo://app?vid=a6428eee-7d87-40d5-a154-abcfc3859c00"},"vehicle_type_id":"4","last_reported":1752307984,"current_range_meters":9600,"station_id":"ce4bhbh2rcd13ifvqepg","pricing_plan_id":"cebpf4jnsgd1na2vs0mg"},{"bike_id":"5767dfd7-a686-40ed-a2f4-e296aaf3473c","system_id":"levelo_inurba_marseille","lat":43.243888,"lon":5.370582,"is_reserved":false,"is_disabled":false,"rental_uris":{"android":"levelo://app?vid=5767dfd7-a686-40ed-a2f4-e296aaf3473c","ios":"levelo://app?vid=5767dfd7-a686-40ed-a2f4-e296aaf3473c"},"vehicle_type_id":"4","last_reported":1752307984,"current_range_meters":9600,"station_id":"ce4bhhh2rcd13ifvqfk0","pricing_plan_id":"cebpf4jnsgd1na2vs0mg"},{"bike_id":"e80e9a57-5e81-4b14-8bfd-dc924ee16f86","system_id":"levelo_inurba_marseille","lat":43.33632,"lon":5.4098,"is_reserved":false,"is_disabled":false,"rental_uris":{"android":"levelo://app?vid=e80e9a57-5e81-4b14-8bfd-dc924ee16f86","ios":"levelo://app?vid=e80e9a57-5e81-4b14-8bfd-dc924ee16f86"},"vehicle_type_id":"4","last_reported":1752307984,"current_range_meters":9600,"station_id":"ce4bhqh2rcd13ifvqhmg","pricing_plan_id":"cebpf4jnsgd1na2vs0mg"},{"bike_id":"e87ebf92-9f2a-47b1-a4d2-d4688fefaa87","system_id":"levelo_inurba_marseille","lat":43.30325,"lon":5.40428,"is_reserved":false,"is_disabled":false,"rental_uris":{"android":"levelo://app?vid=e87ebf92-9f2a-47b1-a4d2-d4688fefaa87","ios":"levelo://app?vid=e87ebf92-9f2a-47b1-a4d2-d4688fefaa87"},"vehicle_type_id":"4","last_reported":1752307984,"current_range_meters":10000,"station_id":"ce4bh012rcd13ifvqd10","pricing_plan_id":"cebpf4jnsgd1na2vs0mg"},{"bike_id":"24408ebf-8612-4df2-b491-b3f77a991042","system_id":"levelo_inurba_marseille","lat":43.31763,"lon":5.39012,"is_reserved":false,"is_disabled":false,"rental_uris":{"android":"levelo://app?vid=24408ebf-8612-4df2-b491-b3f77a991042","ios":"levelo://app?vid=24408ebf-8612-4df2-b491-b3f77a991042"},"vehicle_type_id":"4","last_reported":1752307984,"current_range_meters":10000,"station_id":"ce4bhqp2rcd13ifvqhng","pricing_plan_id":"cebpf4jnsgd1na2vs0mg"},{"bike_id":"6e44525d-ed45-445a-a877-081b94eb5813","system_id":"levelo_inurba_marseille","lat":43.303531,"lon":5.418809,"is_reserved":false,"is_disabled":true,"rental_uris":{"android":"levelo://app?vid=6e44525d-ed45-445a-a877-081b94eb5813","ios":"levelo://app?vid=6e44525d-ed45-445a-a877-081b94eb5813"},"vehicle_type_id":"4","last_reported":1752307984,"current_range_meters":10000,"station_id":"ce4bhop2rcd13ifvqh7g","pricing_plan_id":"cebpf4jnsgd1na2vs0mg"},{"bike_id":"fd9f5c27-5d58-42e5-badc-a12a0344229e","system_id":"levelo_inurba_marseille","lat":43.289098,"lon":5.360608,"is_reserved":false,"is_disabled":false,"rental_uris":{"android":"levelo://app?vid=fd9f5c27-5d58-42e5-badc-a12a0344229e","ios":"levelo://app?vid=fd9f5c27-5d58-42e5-badc-a12a0344229e"},"vehicle_type_id":"4","last_reported":1752307984,"current_range_meters":10800,"station_id":"","pricing_plan_id":"cebpf4jnsgd1na2vs0mg"},{"bike_id":"4d4b9e28-a4f6-4d45-ac6b-64a63a768bd8","system_id":"levelo_inurba_marseille","lat":43.315149,"lon":5.374129,"is_reserved":false,"is_disabled":false,"rental_uris":{"android":"levelo://app?vid=4d4b9e28-a4f6-4d45-ac6b-64a63a768bd8","ios":"levelo://app?vid=4d4b9e28-a4f6-4d45-ac6b-64a63a768bd8"},"vehicle_type_id":"4","last_reported":1752307984,"current_range_meters":10800,"station_id":"","pricing_plan_id":"cebpf4jnsgd1na2vs0mg"},{"bike_id":"595e9351-a7ce-45de-8995-771f7d9fe86e","system_id":"levelo_inurba_marseille","lat":43.309243,"lon":5.378088,"is_reserved":false,"is_disabled":false,"rental_uris":{"android":"levelo://app?vid=595e9351-a7ce-45de-8995-771f7d9fe86e","ios":"levelo://app?vid=595e9351-a7ce-45de-8995-771f7d9fe86e"},"vehicle_type_id":"4","last_reported":1752307984,"current_range_meters":10800,"station_id":"","pricing_plan_id":"cebpf4jnsgd1na2vs0mg"},{"bike_id":"0ea4f350-9ee0-439c-b2c4-3d0dc3282507","system_id":"levelo_inurba_marseille","lat":43.28476,"lon":5.3842,"is_reserved":false,"is_disabled":false,"rental_uris":{"android":"levelo://app?vid=0ea4f350-9ee0-439c-b2c4-3d0dc3282507","ios":"levelo://app?vid=0ea4f350-9ee0-439c-b2c4-3d0dc3282507"},"vehicle_type_id":"4","last_reported":1752307984,"current_range_meters":10800,"station_id":"ce4bh512rcd13ifvqe3g","pricing_plan_id":"cebpf4jnsgd1na2vs0mg"},{"bike_id":"395cc0f2-d8ba-4b1e-996e-4ac92fbd7b6d","system_id":"levelo_inurba_marseille","lat":43.295317,"lon":5.390375,"is_reserved":false,"is_disabled":false,"rental_uris":{"android":"levelo://app?vid=395cc0f2-d8ba-4b1e-996e-4ac92fbd7b6d","ios":"levelo://app?vid=395cc0f2-d8ba-4b1e-996e-4ac92fbd7b6d"},"vehicle_type_id":"4","last_reported":1752307984,"current_range_meters":10800,"station_id":"ce4bh3p2rcd13ifvqdp0","pricing_plan_id":"cebpf4jnsgd1na2vs0mg"},{"bike_id":"01a56c28-b964-4b7a-bf5e-79b3f0debff4","system_id":"levelo_inurba_marseille","lat":43.303094,"lon":5.369017,"is_reserved":false,"is_disabled":false,"rental_uris":{"android":"levelo://app?vid=01a56c28-b964-4b7a-bf5e-79b3f0debff4","ios":"levelo://app?vid=01a56c28-b964-4b7a-bf5e-79b3f0debff4"},"vehicle_type_id":"4","last_reported":1752307984,"current_range_meters":11200,"station_id":"ce4bh312rcd13ifvqdj0","pricing_plan_id":"cebpf4jnsgd1na2vs0mg"},{"bike_id":"080f57f3-a8d5-4466-97ef-f4f40d547d09","system_id":"levelo_inurba_marseille","lat":43.31372,"lon":5.38489,"is_reserved":false,"is_disabled":false,"rental_uris":{"android":"levelo://app?vid=080f57f3-a8d5-4466-97ef-f4f40d547d09","ios":"levelo://app?vid=080f57f3-a8d5-4466-97ef-f4f40d547d09"},"vehicle_type_id":"4","last_reported":1752307984,"current_range_meters":11200,"station_id":"ce4bgt92rcd13ifvqcf0","pricing_plan_id":"cebpf4jnsgd1na2vs0mg"},{"bike_id":"3a412b79-4549-47a1-bc20-dde24e0c4d99","system_id":"levelo_inurba_marseille","lat":43.30531,"lon":5.36711,"is_reserved":false,"is_disabled":false,"rental_uris":{"android":"levelo://app?vid=3a412b79-4549-47a1-bc20-dde24e0c4d99","ios":"levelo://app?vid=3a412b79-4549-47a1-bc20-dde24e0c4d99"},"vehicle_type_id":"4","last_reported":1752307984,"current_range_meters":10800,"station_id":"ce4bgrp2rcd13ifvqc9g","pricing_plan_id":"cebpf4jnsgd1na2vs0mg"},{"bike_id":"e27815df-8ab3-4bff-8d30-5b4183fc513f","system_id":"levelo_inurba_marseille","lat":43.28416,"lon":5.34978,"is_reserved":false,"is_disabled":false,"rental_uris":{"android":"levelo://app?vid=e27815df-8ab3-4bff-8d30-5b4183fc513f","ios":"levelo://app?vid=e27815df-8ab3-4bff-8d30-5b4183fc513f"},"vehicle_type_id":"4","last_reported":1752307984,"current_range_meters":11200,"station_id":"ce4bhbh2rcd13ifvqepg","pricing_plan_id":"cebpf4jnsgd1na2vs0mg"},{"bike_id":"65715245-ae22-4c14-a440-90c4c1db5a80","system_id":"levelo_inurba_marseille","lat":43.29307,"lon":5.37168,"is_reserved":false,"is_disabled":false,"rental_uris":{"android":"levelo://app?vid=65715245-ae22-4c14-a440-90c4c1db5a80","ios":"levelo://app?vid=65715245-ae22-4c14-a440-90c4c1db5a80"},"vehicle_type_id":"4","last_reported":1752307984,"current_range_meters":11200,"station_id":"ce4bgh92rcd13ifvqb40","pricing_plan_id":"cebpf4jnsgd1na2vs0mg"},{"bike_id":"2711aaaf-3805-4804-9329-3207cf061148","system_id":"levelo_inurba_marseille","lat":43.28412,"lon":5.34971,"is_reserved":false,"is_disabled":false,"rental_uris":{"android":"levelo://app?vid=2711aaaf-3805-4804-9329-3207cf061148","ios":"levelo://app?vid=2711aaaf-3805-4804-9329-3207cf061148"},"vehicle_type_id":"4","last_reported":1752307984,"current_range_meters":11200,"station_id":"ce4bhbh2rcd13ifvqepg","pricing_plan_id":"cebpf4jnsgd1na2vs0mg"},{"bike_id":"e3a75ee9-c614-467b-8cc2-f813bcef2ab1","system_id":"levelo_inurba_marseille","lat":43.33743,"lon":5.3919,"is_reserved":false,"is_disabled":false,"rental_uris":{"android":"levelo://app?vid=e3a75ee9-c614-467b-8cc2-f813bcef2ab1","ios":"levelo://app?vid=e3a75ee9-c614-467b-8cc2-f813bcef2ab1"},"vehicle_type_id":"4","last_reported":1752307984,"current_range_meters":11200,"station_id":"ce4bhr92rcd13ifvqhsg","pricing_plan_id":"cebpf4jnsgd1na2vs0mg"},{"bike_id":"eda0ea69-6404-43e6-9ede-2655d170d444","system_id":"levelo_inurba_marseille","lat":43.288513,"lon":5.358364,"is_reserved":false,"is_disabled":true,"rental_uris":{"android":"levelo://app?vid=eda0ea69-6404-43e6-9ede-2655d170d444","ios":"levelo://app?vid=eda0ea69-6404-43e6-9ede-2655d170d444"},"vehicle_type_id":"4","last_reported":1752307984,"current_range_meters":11200,"station_id":"ce4bhb12rcd13ifvqem0","pricing_plan_id":"cebpf4jnsgd1na2vs0mg"},{"bike_id":"b3c2b8ae-4d73-4d70-9c8b-8c0f04ab5b06","system_id":"levelo_inurba_marseille","lat":43.30545,"lon":5.3842,"is_reserved":false,"is_disabled":false,"rental_uris":{"android":"levelo://app?vid=b3c2b8ae-4d73-4d70-9c8b-8c0f04ab5b06","ios":"levelo://app?vid=b3c2b8ae-4d73-4d70-9c8b-8c0f04ab5b06"},"vehicle_type_id":"4","last_reported":1752307984,"current_range_meters":11600,"station_id":"ce4bgg92rcd13ifvqb30","pricing_plan_id":"cebpf4jnsgd1na2vs0mg"},{"bike_id":"ef698040-cffd-4a0c-9a91-bf557274de35","system_id":"levelo_inurba_marseille","lat":43.317118,"lon":5.377684,"is_reserved":false,"is_disabled":false,"rental_uris":{"android":"levelo://app?vid=ef698040-cffd-4a0c-9a91-bf557274de35","ios":"levelo://app?vid=ef698040-cffd-4a0c-9a91-bf557274de35"},"vehicle_type_id":"4","last_reported":1752307984,"current_range_meters":11600,"station_id":"ce4bgth2rcd13ifvqch0","pricing_plan_id":"cebpf4jnsgd1na2vs0mg"},{"bike_id":"dafa5a87-b26d-4379-9a6b-1f02133b78a6","system_id":"levelo_inurba_marseille","lat":43.21191,"lon":5.35065,"is_reserved":false,"is_disabled":false,"rental_uris":{"android":"levelo://app?vid=dafa5a87-b26d-4379-9a6b-1f02133b78a6","ios":"levelo://app?vid=dafa5a87-b26d-4379-9a6b-1f02133b78a6"},"vehicle_type_id":"4","last_reported":1752307984,"current_range_meters":11600,"station_id":"","pricing_plan_id":"cebpf4jnsgd1na2vs0mg"},{"bike_id":"7b5cd6ce-df57-4328-854d-cb2d1407ab18","system_id":"levelo_inurba_marseille","lat":43.33019,"lon":5.3904,"is_reserved":false,"is_disabled":false,"rental_uris":{"android":"levelo://app?vid=7b5cd6ce-df57-4328-854d-cb2d1407ab18","ios":"levelo://app?vid=7b5cd6ce-df57-4328-854d-cb2d1407ab18"},"vehicle_type_id":"4","last_reported":1752307984,"current_range_meters":11600,"station_id":"ce4bhr92rcd13ifvqhrg","pricing_plan_id":"cebpf4jnsgd1na2vs0mg"},{"bike_id":"ceb8bcf8-9e11-4102-bd78-9a687c0c96d2","system_id":"levelo_inurba_marseille","lat":43.289292,"lon":5.383988,"is_reserved":false,"is_disabled":false,"rental_uris":{"android":"levelo://app?vid=ceb8bcf8-9e11-4102-bd78-9a687c0c96d2","ios":"levelo://app?vid=ceb8bcf8-9e11-4102-bd78-9a687c0c96d2"},"vehicle_type_id":"4","last_reported":1752307984,"current_range_meters":12000,"station_id":"ce4bh612rcd13ifvqe6g","pricing_plan_id":"cebpf4jnsgd1na2vs0mg"},{"bike_id":"8929c1bf-fd4d-44e4-aa66-b3eb6538c998","system_id":"levelo_inurba_marseille","lat":43.28567,"lon":5.42963,"is_reserved":false,"is_disabled":false,"rental_uris":{"android":"levelo://app?vid=8929c1bf-fd4d-44e4-aa66-b3eb6538c998","ios":"levelo://app?vid=8929c1bf-fd4d-44e4-aa66-b3eb6538c998"},"vehicle_type_id":"4","last_reported":1752307984,"current_range_meters":12000,"station_id":"","pricing_plan_id":"cebpf4jnsgd1na2vs0mg"},{"bike_id":"97d4bafb-1703-482a-9af9-9c0328bf232e","system_id":"levelo_inurba_marseille","lat":43.29528,"lon":5.37489,"is_reserved":false,"is_disabled":false,"rental_uris":{"android":"levelo://app?vid=97d4bafb-1703-482a-9af9-9c0328bf232e","ios":"levelo://app?vid=97d4bafb-1703-482a-9af9-9c0328bf232e"},"vehicle_type_id":"4","last_reported":1752307984,"current_range_meters":12000,"station_id":"ce4bgkp2rcd13ifvqbmg","pricing_plan_id":"cebpf4jnsgd1na2vs0mg"},{"bike_id":"abb0acc4-71df-4998-bb59-1e7e60195447","system_id":"levelo_inurba_marseille","lat":43.294208,"lon":5.38601,"is_reserved":false,"is_disabled":false,"rental_uris":{"android":"levelo://app?vid=abb0acc4-71df-4998-bb59-1e7e60195447","ios":"levelo://app?vid=abb0acc4-71df-4998-bb59-1e7e60195447"},"vehicle_type_id":"4","last_reported":1752307984,"current_range_meters":12000,"station_id":"ce4bh2h2rcd13ifvqdh0","pricing_plan_id":"cebpf4jnsgd1na2vs0mg"},{"bike_id":"4a92b34b-1d43-4830-8a92-a24d5fc4e5ca","system_id":"levelo_inurba_marseille","lat":43.29569,"lon":5.37503,"is_reserved":false,"is_disabled":false,"rental_uris":{"android":"levelo://app?vid=4a92b34b-1d43-4830-8a92-a24d5fc4e5ca","ios":"levelo://app?vid=4a92b34b-1d43-4830-8a92-a24d5fc4e5ca"},"vehicle_type_id":"4","last_reported":1752307984,"current_range_meters":12400,"station_id":"ce4bgh92rcd13ifvqb50","pricing_plan_id":"cebpf4jnsgd1na2vs0mg"},{"bike_id":"43b90c82-97e0-4fa7-8b67-2448f07d529e","system_id":"levelo_inurba_marseille","lat":43.212,"lon":5.35078,"is_reserved":false,"is_disabled":false,"rental_uris":{"android":"levelo://app?vid=43b90c82-97e0-4fa7-8b67-2448f07d529e","ios":"levelo://app?vid=43b90c82-97e0-4fa7-8b67-2448f07d529e"},"vehicle_type_id":"4","last_reported":1752307984,"current_range_meters":12400,"station_id":"","pricing_plan_id":"cebpf4jnsgd1na2vs0mg"},{"bike_id":"2711e2df-4467-499e-8fe3-b15ecca6968c","system_id":"levelo_inurba_marseille","lat":43.30656,"lon":5.40092,"is_reserved":false,"is_disabled":false,"rental_uris":{"android":"levelo://app?vid=2711e2df-4467-499e-8fe3-b15ecca6968c","ios":"levelo://app?vid=2711e2df-4467-499e-8fe3-b15ecca6968c"},"vehicle_type_id":"4","last_reported":1752307984,"current_range_meters":12000,"station_id":"ce4bh112rcd13ifvqda0","pricing_plan_id":"cebpf4jnsgd1na2vs0mg"},{"bike_id":"268003ee-cd1a-4936-8ec6-74ec3b1dda1d","system_id":"levelo_inurba_marseille","lat":43.24173,"lon":5.39728,"is_reserved":false,"is_disabled":false,"rental_uris":{"android":"levelo://app?vid=268003ee-cd1a-4936-8ec6-74ec3b1dda1d","ios":"levelo://app?vid=268003ee-cd1a-4936-8ec6-74ec3b1dda1d"},"vehicle_type_id":"4","last_reported":1752307984,"current_range_meters":12800,"station_id":"ce4bhn12rcd13ifvqgpg","pricing_plan_id":"cebpf4jnsgd1na2vs0mg"},{"bike_id":"8fccf46e-4269-459a-bd9a-cdd93f6b32bc","system_id":"levelo_inurba_marseille","lat":43.303574,"lon":5.418811,"is_reserved":false,"is_disabled":true,"rental_uris":{"android":"levelo://app?vid=8fccf46e-4269-459a-bd9a-cdd93f6b32bc","ios":"levelo://app?vid=8fccf46e-4269-459a-bd9a-cdd93f6b32bc"},"vehicle_type_id":"4","last_reported":1752307984,"current_range_meters":12800,"station_id":"ce4bhop2rcd13ifvqh7g","pricing_plan_id":"cebpf4jnsgd1na2vs0mg"},{"bike_id":"5cd74eda-833d-42c9-9173-69f518999a0c","system_id":"levelo_inurba_marseille","lat":43.341391,"lon":5.409032,"is_reserved":false,"is_disabled":false,"rental_uris":{"android":"levelo://app?vid=5cd74eda-833d-42c9-9173-69f518999a0c","ios":"levelo://app?vid=5cd74eda-833d-42c9-9173-69f518999a0c"},"vehicle_type_id":"4","last_reported":1752307984,"current_range_meters":12800,"station_id":"ce4bhqh2rcd13ifvqhlg","pricing_plan_id":"cebpf4jnsgd1na2vs0mg"},{"bike_id":"e9fd0cf8-573b-4177-88a6-f1faf33e8aca","system_id":"levelo_inurba_marseille","lat":43.28991,"lon":5.35615,"is_reserved":false,"is_disabled":false,"rental_uris":{"android":"levelo://app?vid=e9fd0cf8-573b-4177-88a6-f1faf33e8aca","ios":"levelo://app?vid=e9fd0cf8-573b-4177-88a6-f1faf33e8aca"},"vehicle_type_id":"4","last_reported":1752307984,"current_range_meters":12800,"station_id":"ce4bhb92rcd13ifvqen0","pricing_plan_id":"cebpf4jnsgd1na2vs0mg"},{"bike_id":"37b84a38-055a-4a6e-a56a-8ff3d0c1b2ec","system_id":"levelo_inurba_marseille","lat":43.21179,"lon":5.35066,"is_reserved":false,"is_disabled":false,"rental_uris":{"android":"levelo://app?vid=37b84a38-055a-4a6e-a56a-8ff3d0c1b2ec","ios":"levelo://app?vid=37b84a38-055a-4a6e-a56a-8ff3d0c1b2ec"},"vehicle_type_id":"4","last_reported":1752307984,"current_range_meters":12800,"station_id":"st_cvj6sg6p6f1abm77japg","pricing_plan_id":"cebpf4jnsgd1na2vs0mg"},{"bike_id":"59abd4c4-8a4d-4cab-8aea-7cfc8564355e","system_id":"levelo_inurba_marseille","lat":43.21191,"lon":5.35067,"is_reserved":false,"is_disabled":false,"rental_uris":{"android":"levelo://app?vid=59abd4c4-8a4d-4cab-8aea-7cfc8564355e","ios":"levelo://app?vid=59abd4c4-8a4d-4cab-8aea-7cfc8564355e"},"vehicle_type_id":"4","last_reported":1752307984,"current_range_meters":13600,"station_id":"st_cvj6sg6p6f1abm77japg","pricing_plan_id":"cebpf4jnsgd1na2vs0mg"},{"bike_id":"61198919-e72c-4fce-bc96-126627987dc0","system_id":"levelo_inurba_marseille","lat":43.29578,"lon":5.37861,"is_reserved":false,"is_disabled":false,"rental_uris":{"android":"levelo://app?vid=61198919-e72c-4fce-bc96-126627987dc0","ios":"levelo://app?vid=61198919-e72c-4fce-bc96-126627987dc0"},"vehicle_type_id":"4","last_reported":1752307984,"current_range_meters":13600,"station_id":"","pricing_plan_id":"cebpf4jnsgd1na2vs0mg"},{"bike_id":"452e8211-4f44-45d0-814a-3e9e25b8c44e","system_id":"levelo_inurba_marseille","lat":43.211926,"lon":5.350726,"is_reserved":false,"is_disabled":false,"rental_uris":{"android":"levelo://app?vid=452e8211-4f44-45d0-814a-3e9e25b8c44e","ios":"levelo://app?vid=452e8211-4f44-45d0-814a-3e9e25b8c44e"},"vehicle_type_id":"4","last_reported":1752307984,"current_range_meters":13600,"station_id":"st_cvj6sg6p6f1abm77japg","pricing_plan_id":"cebpf4jnsgd1na2vs0mg"},{"bike_id":"dbba3321-20c7-4989-a7b5-ea9ab2c4b3e8","system_id":"levelo_inurba_marseille","lat":43.261935,"lon":5.374477,"is_reserved":false,"is_disabled":false,"rental_uris":{"android":"levelo://app?vid=dbba3321-20c7-4989-a7b5-ea9ab2c4b3e8","ios":"levelo://app?vid=dbba3321-20c7-4989-a7b5-ea9ab2c4b3e8"},"vehicle_type_id":"4","last_reported":1752307984,"current_range_meters":13600,"station_id":"ce4bhgp2rcd13ifvqfc0","pricing_plan_id":"cebpf4jnsgd1na2vs0mg"},{"bike_id":"e86ba8c9-208d-482c-a826-4c100938472a","system_id":"levelo_inurba_marseille","lat":43.211922,"lon":5.35071,"is_reserved":false,"is_disabled":false,"rental_uris":{"android":"levelo://app?vid=e86ba8c9-208d-482c-a826-4c100938472a","ios":"levelo://app?vid=e86ba8c9-208d-482c-a826-4c100938472a"},"vehicle_type_id":"4","last_reported":1752307984,"current_range_meters":13600,"station_id":"st_cvj6sg6p6f1abm77japg","pricing_plan_id":"cebpf4jnsgd1na2vs0mg"},{"bike_id":"c453155a-5220-48fc-922b-600ca54f8ab5","system_id":"levelo_inurba_marseille","lat":43.286598,"lon":5.363506,"is_reserved":false,"is_disabled":true,"rental_uris":{"android":"levelo://app?vid=c453155a-5220-48fc-922b-600ca54f8ab5","ios":"levelo://app?vid=c453155a-5220-48fc-922b-600ca54f8ab5"},"vehicle_type_id":"4","last_reported":1752307984,"current_range_meters":13600,"station_id":"ce4bhah2rcd13ifvqej0","pricing_plan_id":"cebpf4jnsgd1na2vs0mg"},{"bike_id":"9ebca4be-7c13-46b2-85ed-fd57a4cd9c32","system_id":"levelo_inurba_marseille","lat":43.308927,"lon":5.396193,"is_reserved":false,"is_disabled":false,"rental_uris":{"android":"levelo://app?vid=9ebca4be-7c13-46b2-85ed-fd57a4cd9c32","ios":"levelo://app?vid=9ebca4be-7c13-46b2-85ed-fd57a4cd9c32"},"vehicle_type_id":"4","last_reported":1752307984,"current_range_meters":14000,"station_id":"ce4bh012rcd13ifvqcv0","pricing_plan_id":"cebpf4jnsgd1na2vs0mg"},{"bike_id":"4edff1c0-26ae-4c39-9bc5-1e6f32f2d248","system_id":"levelo_inurba_marseille","lat":43.2795,"lon":5.38717,"is_reserved":false,"is_disabled":false,"rental_uris":{"android":"levelo://app?vid=4edff1c0-26ae-4c39-9bc5-1e6f32f2d248","ios":"levelo://app?vid=4edff1c0-26ae-4c39-9bc5-1e6f32f2d248"},"vehicle_type_id":"4","last_reported":1752307984,"current_range_meters":14000,"station_id":"ce4bhg12rcd13ifvqf80","pricing_plan_id":"cebpf4jnsgd1na2vs0mg"},{"bike_id":"04dd5a1d-7832-415b-b31c-65f5ae7a9766","system_id":"levelo_inurba_marseille","lat":43.29097,"lon":5.38134,"is_reserved":false,"is_disabled":false,"rental_uris":{"android":"levelo://app?vid=04dd5a1d-7832-415b-b31c-65f5ae7a9766","ios":"levelo://app?vid=04dd5a1d-7832-415b-b31c-65f5ae7a9766"},"vehicle_type_id":"4","last_reported":1752307984,"current_range_meters":14000,"station_id":"ce4bh512rcd13ifvqe2g","pricing_plan_id":"cebpf4jnsgd1na2vs0mg"},{"bike_id":"042461e1-66c6-43d1-9f02-79b7d6b213c2","system_id":"levelo_inurba_marseille","lat":43.31373,"lon":5.38498,"is_reserved":false,"is_disabled":false,"rental_uris":{"android":"levelo://app?vid=042461e1-66c6-43d1-9f02-79b7d6b213c2","ios":"levelo://app?vid=042461e1-66c6-43d1-9f02-79b7d6b213c2"},"vehicle_type_id":"4","last_reported":1752307984,"current_range_meters":14400,"station_id":"ce4bgt92rcd13ifvqcf0","pricing_plan_id":"cebpf4jnsgd1na2vs0mg"},{"bike_id":"a581eef9-f0fb-4e5d-8be0-84b96bfd2d41","system_id":"levelo_inurba_marseille","lat":43.293748,"lon":5.378468,"is_reserved":false,"is_disabled":false,"rental_uris":{"android":"levelo://app?vid=a581eef9-f0fb-4e5d-8be0-84b96bfd2d41","ios":"levelo://app?vid=a581eef9-f0fb-4e5d-8be0-84b96bfd2d41"},"vehicle_type_id":"4","last_reported":1752307984,"current_range_meters":14400,"station_id":"ce4bgjh2rcd13ifvqbf0","pricing_plan_id":"cebpf4jnsgd1na2vs0mg"},{"bike_id":"a100566b-d122-47f7-b059-1aae620ff9b3","system_id":"levelo_inurba_marseille","lat":43.24072,"lon":5.37737,"is_reserved":false,"is_disabled":false,"rental_uris":{"android":"levelo://app?vid=a100566b-d122-47f7-b059-1aae620ff9b3","ios":"levelo://app?vid=a100566b-d122-47f7-b059-1aae620ff9b3"},"vehicle_type_id":"4","last_reported":1752307984,"current_range_meters":14400,"station_id":"ce4bhnp2rcd13ifvqgvg","pricing_plan_id":"cebpf4jnsgd1na2vs0mg"},{"bike_id":"58c86ff8-b444-4637-8b8c-414b4195493a","system_id":"levelo_inurba_marseille","lat":43.280867,"lon":5.396631,"is_reserved":false,"is_disabled":false,"rental_uris":{"android":"levelo://app?vid=58c86ff8-b444-4637-8b8c-414b4195493a","ios":"levelo://app?vid=58c86ff8-b444-4637-8b8c-414b4195493a"},"vehicle_type_id":"4","last_reported":1752307984,"current_range_meters":14800,"station_id":"ce4bho12rcd13ifvqh2g","pricing_plan_id":"cebpf4jnsgd1na2vs0mg"},{"bike_id":"96776fb0-71ae-4084-b5af-7fbce3f17df2","system_id":"levelo_inurba_marseille","lat":43.29169,"lon":5.37141,"is_reserved":false,"is_disabled":true,"rental_uris":{"android":"levelo://app?vid=96776fb0-71ae-4084-b5af-7fbce3f17df2","ios":"levelo://app?vid=96776fb0-71ae-4084-b5af-7fbce3f17df2"},"vehicle_type_id":"4","last_reported":1752307984,"current_range_meters":14800,"station_id":"ce4bha92rcd13ifvqeh0","pricing_plan_id":"cebpf4jnsgd1na2vs0mg"},{"bike_id":"aaa3b10e-8c10-48cf-933e-220b9a468a85","system_id":"levelo_inurba_marseille","lat":43.217554,"lon":5.345949,"is_reserved":false,"is_disabled":false,"rental_uris":{"android":"levelo://app?vid=aaa3b10e-8c10-48cf-933e-220b9a468a85","ios":"levelo://app?vid=aaa3b10e-8c10-48cf-933e-220b9a468a85"},"vehicle_type_id":"4","last_reported":1752307984,"current_range_meters":14800,"station_id":"","pricing_plan_id":"cebpf4jnsgd1na2vs0mg"},{"bike_id":"ad3a92a9-aac6-4694-a2f3-20c935fef2b6","system_id":"levelo_inurba_marseille","lat":43.292986,"lon":5.374656,"is_reserved":false,"is_disabled":false,"rental_uris":{"android":"levelo://app?vid=ad3a92a9-aac6-4694-a2f3-20c935fef2b6","ios":"levelo://app?vid=ad3a92a9-aac6-4694-a2f3-20c935fef2b6"},"vehicle_type_id":"4","last_reported":1752307984,"current_range_meters":14800,"station_id":"","pricing_plan_id":"cebpf4jnsgd1na2vs0mg"},{"bike_id":"25e5f971-a9c9-4b07-bb3b-bff8f5b484ea","system_id":"levelo_inurba_marseille","lat":43.30919,"lon":5.40163,"is_reserved":false,"is_disabled":false,"rental_uris":{"android":"levelo://app?vid=25e5f971-a9c9-4b07-bb3b-bff8f5b484ea","ios":"levelo://app?vid=25e5f971-a9c9-4b07-bb3b-bff8f5b484ea"},"vehicle_type_id":"4","last_reported":1752307984,"current_range_meters":14800,"station_id":"ce4bgvp2rcd13ifvqct0","pricing_plan_id":"cebpf4jnsgd1na2vs0mg"},{"bike_id":"604fb57c-6d91-4998-944b-2009a925e977","system_id":"levelo_inurba_marseille","lat":43.29305,"lon":5.37164,"is_reserved":false,"is_disabled":false,"rental_uris":{"android":"levelo://app?vid=604fb57c-6d91-4998-944b-2009a925e977","ios":"levelo://app?vid=604fb57c-6d91-4998-944b-2009a925e977"},"vehicle_type_id":"4","last_reported":1752307984,"current_range_meters":15200,"station_id":"ce4bgh92rcd13ifvqb40","pricing_plan_id":"cebpf4jnsgd1na2vs0mg"},{"bike_id":"f05b8bfe-6934-41c1-8e7b-6912b26dbed6","system_id":"levelo_inurba_marseille","lat":43.26536,"lon":5.38999,"is_reserved":false,"is_disabled":false,"rental_uris":{"android":"levelo://app?vid=f05b8bfe-6934-41c1-8e7b-6912b26dbed6","ios":"levelo://app?vid=f05b8bfe-6934-41c1-8e7b-6912b26dbed6"},"vehicle_type_id":"4","last_reported":1752307984,"current_range_meters":15200,"station_id":"ce4bhe12rcd13ifvqf30","pricing_plan_id":"cebpf4jnsgd1na2vs0mg"},{"bike_id":"bcdbf84b-b5d9-4c85-af62-794400e27703","system_id":"levelo_inurba_marseille","lat":43.2987,"lon":5.39722,"is_reserved":false,"is_disabled":false,"rental_uris":{"android":"levelo://app?vid=bcdbf84b-b5d9-4c85-af62-794400e27703","ios":"levelo://app?vid=bcdbf84b-b5d9-4c85-af62-794400e27703"},"vehicle_type_id":"4","last_reported":1752307984,"current_range_meters":15200,"station_id":"ce4bh0h2rcd13ifvqd50","pricing_plan_id":"cebpf4jnsgd1na2vs0mg"},{"bike_id":"ba7e3217-8069-471e-8907-7c5152d45243","system_id":"levelo_inurba_marseille","lat":43.262295,"lon":5.404605,"is_reserved":false,"is_disabled":false,"rental_uris":{"android":"levelo://app?vid=ba7e3217-8069-471e-8907-7c5152d45243","ios":"levelo://app?vid=ba7e3217-8069-471e-8907-7c5152d45243"},"vehicle_type_id":"4","last_reported":1752307984,"current_range_meters":16000,"station_id":"ce4bhmh2rcd13ifvqgmg","pricing_plan_id":"cebpf4jnsgd1na2vs0mg"},{"bike_id":"cfee0657-6493-4e9d-b55a-affdef745be3","system_id":"levelo_inurba_marseille","lat":43.29847,"lon":5.37657,"is_reserved":false,"is_disabled":false,"rental_uris":{"android":"levelo://app?vid=cfee0657-6493-4e9d-b55a-affdef745be3","ios":"levelo://app?vid=cfee0657-6493-4e9d-b55a-affdef745be3"},"vehicle_type_id":"4","last_reported":1752307984,"current_range_meters":16000,"station_id":"","pricing_plan_id":"cebpf4jnsgd1na2vs0mg"},{"bike_id":"ad023729-3d33-44a6-99ca-a047715b7f88","system_id":"levelo_inurba_marseille","lat":43.211978,"lon":5.350689,"is_reserved":false,"is_disabled":false,"rental_uris":{"android":"levelo://app?vid=ad023729-3d33-44a6-99ca-a047715b7f88","ios":"levelo://app?vid=ad023729-3d33-44a6-99ca-a047715b7f88"},"vehicle_type_id":"4","last_reported":1752307984,"current_range_meters":16000,"station_id":"st_cvj6sg6p6f1abm77japg","pricing_plan_id":"cebpf4jnsgd1na2vs0mg"},{"bike_id":"37efeb5c-06ef-458e-a6fc-e2e8b4e1669f","system_id":"levelo_inurba_marseille","lat":43.24405,"lon":5.3704,"is_reserved":false,"is_disabled":false,"rental_uris":{"android":"levelo://app?vid=37efeb5c-06ef-458e-a6fc-e2e8b4e1669f","ios":"levelo://app?vid=37efeb5c-06ef-458e-a6fc-e2e8b4e1669f"},"vehicle_type_id":"4","last_reported":1752307984,"current_range_meters":16000,"station_id":"ce4bhhh2rcd13ifvqfk0","pricing_plan_id":"cebpf4jnsgd1na2vs0mg"},{"bike_id":"f062f3f8-6747-4d90-b0fe-3c9e94933ab7","system_id":"levelo_inurba_marseille","lat":43.270663,"lon":5.422829,"is_reserved":false,"is_disabled":false,"rental_uris":{"android":"levelo://app?vid=f062f3f8-6747-4d90-b0fe-3c9e94933ab7","ios":"levelo://app?vid=f062f3f8-6747-4d90-b0fe-3c9e94933ab7"},"vehicle_type_id":"4","last_reported":1752307984,"current_range_meters":16000,"station_id":"ce4bhk92rcd13ifvqgb0","pricing_plan_id":"cebpf4jnsgd1na2vs0mg"},{"bike_id":"470d1e9d-8c05-40b8-a6b2-039f183b9f6a","system_id":"levelo_inurba_marseille","lat":43.23192,"lon":5.35546,"is_reserved":false,"is_disabled":true,"rental_uris":{"android":"levelo://app?vid=470d1e9d-8c05-40b8-a6b2-039f183b9f6a","ios":"levelo://app?vid=470d1e9d-8c05-40b8-a6b2-039f183b9f6a"},"vehicle_type_id":"4","last_reported":1752307984,"current_range_meters":16000,"station_id":"ce4bhu92rcd13ifvqi70","pricing_plan_id":"cebpf4jnsgd1na2vs0mg"},{"bike_id":"dfb324bb-b3fa-42ac-af97-fcb3ac59c854","system_id":"levelo_inurba_marseille","lat":43.297657,"lon":5.371131,"is_reserved":false,"is_disabled":false,"rental_uris":{"android":"levelo://app?vid=dfb324bb-b3fa-42ac-af97-fcb3ac59c854","ios":"levelo://app?vid=dfb324bb-b3fa-42ac-af97-fcb3ac59c854"},"vehicle_type_id":"4","last_reported":1752307984,"current_range_meters":16400,"station_id":"ce4bgop2rcd13ifvqc1g","pricing_plan_id":"cebpf4jnsgd1na2vs0mg"},{"bike_id":"888bd7d8-4ec5-4282-97cb-63503f2485c0","system_id":"levelo_inurba_marseille","lat":43.308058,"lon":5.381394,"is_reserved":false,"is_disabled":false,"rental_uris":{"android":"levelo://app?vid=888bd7d8-4ec5-4282-97cb-63503f2485c0","ios":"levelo://app?vid=888bd7d8-4ec5-4282-97cb-63503f2485c0"},"vehicle_type_id":"4","last_reported":1752307984,"current_range_meters":16400,"station_id":"ce4bgt12rcd13ifvqce0","pricing_plan_id":"cebpf4jnsgd1na2vs0mg"},{"bike_id":"412afb4e-4f76-4025-a6ca-7f64bda83e72","system_id":"levelo_inurba_marseille","lat":43.245506,"lon":5.395269,"is_reserved":false,"is_disabled":false,"rental_uris":{"android":"levelo://app?vid=412afb4e-4f76-4025-a6ca-7f64bda83e72","ios":"levelo://app?vid=412afb4e-4f76-4025-a6ca-7f64bda83e72"},"vehicle_type_id":"4","last_reported":1752307984,"current_range_meters":16400,"station_id":"ce4bhlp2rcd13ifvqgjg","pricing_plan_id":"cebpf4jnsgd1na2vs0mg"},{"bike_id":"f20dc79a-7198-418a-9671-1d3f28b0b615","system_id":"levelo_inurba_marseille","lat":43.251066,"lon":5.403214,"is_reserved":false,"is_disabled":false,"rental_uris":{"android":"levelo://app?vid=f20dc79a-7198-418a-9671-1d3f28b0b615","ios":"levelo://app?vid=f20dc79a-7198-418a-9671-1d3f28b0b615"},"vehicle_type_id":"4","last_reported":1752307984,"current_range_meters":16400,"station_id":"ce4bhlh2rcd13ifvqgig","pricing_plan_id":"cebpf4jnsgd1na2vs0mg"},{"bike_id":"919e600e-ebda-4ca0-9126-38ed65a36143","system_id":"levelo_inurba_marseille","lat":43.21211,"lon":5.35052,"is_reserved":false,"is_disabled":false,"rental_uris":{"android":"levelo://app?vid=919e600e-ebda-4ca0-9126-38ed65a36143","ios":"levelo://app?vid=919e600e-ebda-4ca0-9126-38ed65a36143"},"vehicle_type_id":"4","last_reported":1752307984,"current_range_meters":16400,"station_id":"st_cvj6sg6p6f1abm77japg","pricing_plan_id":"cebpf4jnsgd1na2vs0mg"},{"bike_id":"c1e31621-0aed-4b5e-af3d-40677b8cf3e0","system_id":"levelo_inurba_marseille","lat":43.29307,"lon":5.37182,"is_reserved":false,"is_disabled":false,"rental_uris":{"android":"levelo://app?vid=c1e31621-0aed-4b5e-af3d-40677b8cf3e0","ios":"levelo://app?vid=c1e31621-0aed-4b5e-af3d-40677b8cf3e0"},"vehicle_type_id":"4","last_reported":1752307984,"current_range_meters":16400,"station_id":"ce4bgh92rcd13ifvqb40","pricing_plan_id":"cebpf4jnsgd1na2vs0mg"},{"bike_id":"407b1e77-51dc-4983-95cf-04f962d77eac","system_id":"levelo_inurba_marseille","lat":43.27963,"lon":5.38672,"is_reserved":false,"is_disabled":false,"rental_uris":{"android":"levelo://app?vid=407b1e77-51dc-4983-95cf-04f962d77eac","ios":"levelo://app?vid=407b1e77-51dc-4983-95cf-04f962d77eac"},"vehicle_type_id":"4","last_reported":1752307984,"current_range_meters":16800,"station_id":"ce4bhg12rcd13ifvqf80","pricing_plan_id":"cebpf4jnsgd1na2vs0mg"},{"bike_id":"607eff80-7879-4cd4-802a-27da59b17290","system_id":"levelo_inurba_marseille","lat":43.308788,"lon":5.39638,"is_reserved":false,"is_disabled":false,"rental_uris":{"android":"levelo://app?vid=607eff80-7879-4cd4-802a-27da59b17290","ios":"levelo://app?vid=607eff80-7879-4cd4-802a-27da59b17290"},"vehicle_type_id":"4","last_reported":1752307984,"current_range_meters":16800,"station_id":"ce4bh012rcd13ifvqcv0","pricing_plan_id":"cebpf4jnsgd1na2vs0mg"},{"bike_id":"51890362-46b0-4ee7-9f02-afbf036d064e","system_id":"levelo_inurba_marseille","lat":43.211976,"lon":5.350717,"is_reserved":false,"is_disabled":false,"rental_uris":{"android":"levelo://app?vid=51890362-46b0-4ee7-9f02-afbf036d064e","ios":"levelo://app?vid=51890362-46b0-4ee7-9f02-afbf036d064e"},"vehicle_type_id":"4","last_reported":1752307984,"current_range_meters":16800,"station_id":"st_cvj6sg6p6f1abm77japg","pricing_plan_id":"cebpf4jnsgd1na2vs0mg"},{"bike_id":"c6f7dabd-b092-4554-a710-07eb4af96a4c","system_id":"levelo_inurba_marseille","lat":43.211909,"lon":5.350703,"is_reserved":false,"is_disabled":false,"rental_uris":{"android":"levelo://app?vid=c6f7dabd-b092-4554-a710-07eb4af96a4c","ios":"levelo://app?vid=c6f7dabd-b092-4554-a710-07eb4af96a4c"},"vehicle_type_id":"4","last_reported":1752307984,"current_range_meters":16800,"station_id":"st_cvj6sg6p6f1abm77japg","pricing_plan_id":"cebpf4jnsgd1na2vs0mg"},{"bike_id":"a88ad0f9-4dc9-4f3f-841b-ae01ad57516a","system_id":"levelo_inurba_marseille","lat":43.26685,"lon":5.38267,"is_reserved":false,"is_disabled":false,"rental_uris":{"android":"levelo://app?vid=a88ad0f9-4dc9-4f3f-841b-ae01ad57516a","ios":"levelo://app?vid=a88ad0f9-4dc9-4f3f-841b-ae01ad57516a"},"vehicle_type_id":"4","last_reported":1752307984,"current_range_meters":17200,"station_id":"ce4bhg92rcd13ifvqf90","pricing_plan_id":"cebpf4jnsgd1na2vs0mg"},{"bike_id":"517eb8c9-5adc-462d-8984-d4c51fd725cd","system_id":"levelo_inurba_marseille","lat":43.30421,"lon":5.41286,"is_reserved":false,"is_disabled":false,"rental_uris":{"android":"levelo://app?vid=517eb8c9-5adc-462d-8984-d4c51fd725cd","ios":"levelo://app?vid=517eb8c9-5adc-462d-8984-d4c51fd725cd"},"vehicle_type_id":"4","last_reported":1752307984,"current_range_meters":17200,"station_id":"ce4bhop2rcd13ifvqh8g","pricing_plan_id":"cebpf4jnsgd1na2vs0mg"},{"bike_id":"00bc0b3b-e317-4a17-a011-a3a9a29d816a","system_id":"levelo_inurba_marseille","lat":43.211909,"lon":5.350699,"is_reserved":false,"is_disabled":false,"rental_uris":{"android":"levelo://app?vid=00bc0b3b-e317-4a17-a011-a3a9a29d816a","ios":"levelo://app?vid=00bc0b3b-e317-4a17-a011-a3a9a29d816a"},"vehicle_type_id":"4","last_reported":1752307984,"current_range_meters":17200,"station_id":"st_cvj6sg6p6f1abm77japg","pricing_plan_id":"cebpf4jnsgd1na2vs0mg"},{"bike_id":"fe9d49e1-a07a-4343-a1f5-cbcd31489875","system_id":"levelo_inurba_marseille","lat":43.2512,"lon":5.4033,"is_reserved":false,"is_disabled":false,"rental_uris":{"android":"levelo://app?vid=fe9d49e1-a07a-4343-a1f5-cbcd31489875","ios":"levelo://app?vid=fe9d49e1-a07a-4343-a1f5-cbcd31489875"},"vehicle_type_id":"4","last_reported":1752307984,"current_range_meters":17200,"station_id":"ce4bhlh2rcd13ifvqgig","pricing_plan_id":"cebpf4jnsgd1na2vs0mg"},{"bike_id":"b9494217-ca23-439e-a529-c38f9a6095be","system_id":"levelo_inurba_marseille","lat":43.28689,"lon":5.3867,"is_reserved":false,"is_disabled":false,"rental_uris":{"android":"levelo://app?vid=b9494217-ca23-439e-a529-c38f9a6095be","ios":"levelo://app?vid=b9494217-ca23-439e-a529-c38f9a6095be"},"vehicle_type_id":"4","last_reported":1752307984,"current_range_meters":17200,"station_id":"ce4bh492rcd13ifvqdug","pricing_plan_id":"cebpf4jnsgd1na2vs0mg"},{"bike_id":"53b2e3fb-77f4-44bd-9b1f-4c6e207a18dc","system_id":"levelo_inurba_marseille","lat":43.26491,"lon":5.39542,"is_reserved":false,"is_disabled":false,"rental_uris":{"android":"levelo://app?vid=53b2e3fb-77f4-44bd-9b1f-4c6e207a18dc","ios":"levelo://app?vid=53b2e3fb-77f4-44bd-9b1f-4c6e207a18dc"},"vehicle_type_id":"4","last_reported":1752307984,"current_range_meters":17200,"station_id":"ce4bhi12rcd13ifvqfq0","pricing_plan_id":"cebpf4jnsgd1na2vs0mg"},{"bike_id":"a862a812-a4e3-41db-bffe-dc440146afeb","system_id":"levelo_inurba_marseille","lat":43.27053,"lon":5.40273,"is_reserved":false,"is_disabled":false,"rental_uris":{"android":"levelo://app?vid=a862a812-a4e3-41db-bffe-dc440146afeb","ios":"levelo://app?vid=a862a812-a4e3-41db-bffe-dc440146afeb"},"vehicle_type_id":"4","last_reported":1752307984,"current_range_meters":17200,"station_id":"ce4bhk92rcd13ifvqgc0","pricing_plan_id":"cebpf4jnsgd1na2vs0mg"},{"bike_id":"486ee436-dc2c-4cbf-b133-565f554ddb1e","system_id":"levelo_inurba_marseille","lat":43.251219,"lon":5.403294,"is_reserved":false,"is_disabled":false,"rental_uris":{"android":"levelo://app?vid=486ee436-dc2c-4cbf-b133-565f554ddb1e","ios":"levelo://app?vid=486ee436-dc2c-4cbf-b133-565f554ddb1e"},"vehicle_type_id":"4","last_reported":1752307984,"current_range_meters":17200,"station_id":"ce4bhlh2rcd13ifvqgig","pricing_plan_id":"cebpf4jnsgd1na2vs0mg"},{"bike_id":"8e96cc1c-7c1c-42f1-8e93-5f09751459d9","system_id":"levelo_inurba_marseille","lat":43.293,"lon":5.37443,"is_reserved":false,"is_disabled":false,"rental_uris":{"android":"levelo://app?vid=8e96cc1c-7c1c-42f1-8e93-5f09751459d9","ios":"levelo://app?vid=8e96cc1c-7c1c-42f1-8e93-5f09751459d9"},"vehicle_type_id":"4","last_reported":1752307984,"current_range_meters":17200,"station_id":"ce4bgi12rcd13ifvqb70","pricing_plan_id":"cebpf4jnsgd1na2vs0mg"},{"bike_id":"a0137104-c9f4-434a-a5e3-80725cd5a2b4","system_id":"levelo_inurba_marseille","lat":43.211914,"lon":5.350736,"is_reserved":false,"is_disabled":false,"rental_uris":{"android":"levelo://app?vid=a0137104-c9f4-434a-a5e3-80725cd5a2b4","ios":"levelo://app?vid=a0137104-c9f4-434a-a5e3-80725cd5a2b4"},"vehicle_type_id":"4","last_reported":1752307984,"current_range_meters":17200,"station_id":"st_cvj6sg6p6f1abm77japg","pricing_plan_id":"cebpf4jnsgd1na2vs0mg"},{"bike_id":"ded1613d-37f4-4636-b9a1-5b3ab463f128","system_id":"levelo_inurba_marseille","lat":43.30138,"lon":5.39885,"is_reserved":false,"is_disabled":false,"rental_uris":{"android":"levelo://app?vid=ded1613d-37f4-4636-b9a1-5b3ab463f128","ios":"levelo://app?vid=ded1613d-37f4-4636-b9a1-5b3ab463f128"},"vehicle_type_id":"4","last_reported":1752307984,"current_range_meters":17200,"station_id":"ce4bh0h2rcd13ifvqd40","pricing_plan_id":"cebpf4jnsgd1na2vs0mg"},{"bike_id":"2a66106d-d0c2-4fdb-a0d3-33bcad5edb0d","system_id":"levelo_inurba_marseille","lat":43.321079,"lon":5.367751,"is_reserved":false,"is_disabled":false,"rental_uris":{"android":"levelo://app?vid=2a66106d-d0c2-4fdb-a0d3-33bcad5edb0d","ios":"levelo://app?vid=2a66106d-d0c2-4fdb-a0d3-33bcad5edb0d"},"vehicle_type_id":"4","last_reported":1752307984,"current_range_meters":17200,"station_id":"ce4bhrh2rcd13ifvqhug","pricing_plan_id":"cebpf4jnsgd1na2vs0mg"},{"bike_id":"5317c2d5-8f2b-4656-91f8-8999951f296c","system_id":"levelo_inurba_marseille","lat":43.30903,"lon":5.36842,"is_reserved":false,"is_disabled":false,"rental_uris":{"android":"levelo://app?vid=5317c2d5-8f2b-4656-91f8-8999951f296c","ios":"levelo://app?vid=5317c2d5-8f2b-4656-91f8-8999951f296c"},"vehicle_type_id":"4","last_reported":1752307984,"current_range_meters":17600,"station_id":"ce4bgn92rcd13ifvqbvg","pricing_plan_id":"cebpf4jnsgd1na2vs0mg"},{"bike_id":"ee5338dd-18a1-4b48-a5b0-f8c72f7b1319","system_id":"levelo_inurba_marseille","lat":43.31808,"lon":5.36862,"is_reserved":false,"is_disabled":false,"rental_uris":{"android":"levelo://app?vid=ee5338dd-18a1-4b48-a5b0-f8c72f7b1319","ios":"levelo://app?vid=ee5338dd-18a1-4b48-a5b0-f8c72f7b1319"},"vehicle_type_id":"4","last_reported":1752307984,"current_range_meters":17600,"station_id":"","pricing_plan_id":"cebpf4jnsgd1na2vs0mg"},{"bike_id":"3e01e98e-784c-40cc-9a58-943021295c96","system_id":"levelo_inurba_marseille","lat":43.264995,"lon":5.39534,"is_reserved":false,"is_disabled":false,"rental_uris":{"android":"levelo://app?vid=3e01e98e-784c-40cc-9a58-943021295c96","ios":"levelo://app?vid=3e01e98e-784c-40cc-9a58-943021295c96"},"vehicle_type_id":"4","last_reported":1752307984,"current_range_meters":17600,"station_id":"ce4bhi12rcd13ifvqfq0","pricing_plan_id":"cebpf4jnsgd1na2vs0mg"},{"bike_id":"8b37f03f-f226-4bbc-8648-b109da7ba145","system_id":"levelo_inurba_marseille","lat":43.30536,"lon":5.366999,"is_reserved":false,"is_disabled":false,"rental_uris":{"android":"levelo://app?vid=8b37f03f-f226-4bbc-8648-b109da7ba145","ios":"levelo://app?vid=8b37f03f-f226-4bbc-8648-b109da7ba145"},"vehicle_type_id":"4","last_reported":1752307984,"current_range_meters":18000,"station_id":"","pricing_plan_id":"cebpf4jnsgd1na2vs0mg"},{"bike_id":"d9d1fd9b-ea93-4b1d-b937-5a9fe33714df","system_id":"levelo_inurba_marseille","lat":43.239624,"lon":5.366298,"is_reserved":false,"is_disabled":false,"rental_uris":{"android":"levelo://app?vid=d9d1fd9b-ea93-4b1d-b937-5a9fe33714df","ios":"levelo://app?vid=d9d1fd9b-ea93-4b1d-b937-5a9fe33714df"},"vehicle_type_id":"4","last_reported":1752307984,"current_range_meters":17600,"station_id":"ce4bhi12rcd13ifvqfp0","pricing_plan_id":"cebpf4jnsgd1na2vs0mg"},{"bike_id":"5d70b047-14f1-4779-a5ba-fbe84c8ac9c7","system_id":"levelo_inurba_marseille","lat":43.29524,"lon":5.37504,"is_reserved":false,"is_disabled":false,"rental_uris":{"android":"levelo://app?vid=5d70b047-14f1-4779-a5ba-fbe84c8ac9c7","ios":"levelo://app?vid=5d70b047-14f1-4779-a5ba-fbe84c8ac9c7"},"vehicle_type_id":"4","last_reported":1752307984,"current_range_meters":17200,"station_id":"ce4bgkp2rcd13ifvqbmg","pricing_plan_id":"cebpf4jnsgd1na2vs0mg"},{"bike_id":"38e70852-2f7a-4b34-a55f-7175aa6a06f9","system_id":"levelo_inurba_marseille","lat":43.27921,"lon":5.379872,"is_reserved":false,"is_disabled":false,"rental_uris":{"android":"levelo://app?vid=38e70852-2f7a-4b34-a55f-7175aa6a06f9","ios":"levelo://app?vid=38e70852-2f7a-4b34-a55f-7175aa6a06f9"},"vehicle_type_id":"4","last_reported":1752307984,"current_range_meters":18000,"station_id":"ce4bhf92rcd13ifvqf50","pricing_plan_id":"cebpf4jnsgd1na2vs0mg"},{"bike_id":"df87bdcd-46a7-4b0e-8da7-fe811f9445f8","system_id":"levelo_inurba_marseille","lat":43.27063,"lon":5.40264,"is_reserved":false,"is_disabled":false,"rental_uris":{"android":"levelo://app?vid=df87bdcd-46a7-4b0e-8da7-fe811f9445f8","ios":"levelo://app?vid=df87bdcd-46a7-4b0e-8da7-fe811f9445f8"},"vehicle_type_id":"4","last_reported":1752307984,"current_range_meters":18000,"station_id":"ce4bhk92rcd13ifvqgc0","pricing_plan_id":"cebpf4jnsgd1na2vs0mg"},{"bike_id":"775fc0d3-6cde-492b-b703-b78970571f1a","system_id":"levelo_inurba_marseille","lat":43.32355,"lon":5.36747,"is_reserved":false,"is_disabled":false,"rental_uris":{"android":"levelo://app?vid=775fc0d3-6cde-492b-b703-b78970571f1a","ios":"levelo://app?vid=775fc0d3-6cde-492b-b703-b78970571f1a"},"vehicle_type_id":"4","last_reported":1752307984,"current_range_meters":18000,"station_id":"ce4bhsh2rcd13ifvqi2g","pricing_plan_id":"cebpf4jnsgd1na2vs0mg"},{"bike_id":"15c005ca-52e7-4b89-8afe-4bc56f68590a","system_id":"levelo_inurba_marseille","lat":43.26564,"lon":5.390073,"is_reserved":false,"is_disabled":false,"rental_uris":{"android":"levelo://app?vid=15c005ca-52e7-4b89-8afe-4bc56f68590a","ios":"levelo://app?vid=15c005ca-52e7-4b89-8afe-4bc56f68590a"},"vehicle_type_id":"4","last_reported":1752307984,"current_range_meters":18000,"station_id":"ce4bhe12rcd13ifvqf30","pricing_plan_id":"cebpf4jnsgd1na2vs0mg"},{"bike_id":"715646cc-87aa-466c-a34b-df843b8622d4","system_id":"levelo_inurba_marseille","lat":43.29559,"lon":5.3751,"is_reserved":false,"is_disabled":false,"rental_uris":{"android":"levelo://app?vid=715646cc-87aa-466c-a34b-df843b8622d4","ios":"levelo://app?vid=715646cc-87aa-466c-a34b-df843b8622d4"},"vehicle_type_id":"4","last_reported":1752307984,"current_range_meters":18000,"station_id":"ce4bgh92rcd13ifvqb50","pricing_plan_id":"cebpf4jnsgd1na2vs0mg"},{"bike_id":"ed387e25-1565-45a2-bc50-3d9ebbd60ae1","system_id":"levelo_inurba_marseille","lat":43.32695,"lon":5.37638,"is_reserved":false,"is_disabled":false,"rental_uris":{"android":"levelo://app?vid=ed387e25-1565-45a2-bc50-3d9ebbd60ae1","ios":"levelo://app?vid=ed387e25-1565-45a2-bc50-3d9ebbd60ae1"},"vehicle_type_id":"4","last_reported":1752307984,"current_range_meters":18000,"station_id":"","pricing_plan_id":"cebpf4jnsgd1na2vs0mg"},{"bike_id":"b59e51ca-d910-4846-ae9d-c6b0b3ae1ac3","system_id":"levelo_inurba_marseille","lat":43.28328,"lon":5.35058,"is_reserved":false,"is_disabled":false,"rental_uris":{"android":"levelo://app?vid=b59e51ca-d910-4846-ae9d-c6b0b3ae1ac3","ios":"levelo://app?vid=b59e51ca-d910-4846-ae9d-c6b0b3ae1ac3"},"vehicle_type_id":"4","last_reported":1752307984,"current_range_meters":18000,"station_id":"","pricing_plan_id":"cebpf4jnsgd1na2vs0mg"},{"bike_id":"f23760ff-ab61-4853-aa67-28aac93822c1","system_id":"levelo_inurba_marseille","lat":43.337444,"lon":5.374475,"is_reserved":false,"is_disabled":false,"rental_uris":{"android":"levelo://app?vid=f23760ff-ab61-4853-aa67-28aac93822c1","ios":"levelo://app?vid=f23760ff-ab61-4853-aa67-28aac93822c1"},"vehicle_type_id":"4","last_reported":1752307984,"current_range_meters":18000,"station_id":"","pricing_plan_id":"cebpf4jnsgd1na2vs0mg"},{"bike_id":"d799b321-3a7d-4201-b46e-ffe2ad124f19","system_id":"levelo_inurba_marseille","lat":43.328818,"lon":5.383928,"is_reserved":false,"is_disabled":false,"rental_uris":{"android":"levelo://app?vid=d799b321-3a7d-4201-b46e-ffe2ad124f19","ios":"levelo://app?vid=d799b321-3a7d-4201-b46e-ffe2ad124f19"},"vehicle_type_id":"4","last_reported":1752307984,"current_range_meters":18000,"station_id":"","pricing_plan_id":"cebpf4jnsgd1na2vs0mg"},{"bike_id":"844b44b6-4e33-4917-878d-a3c647561239","system_id":"levelo_inurba_marseille","lat":43.30754,"lon":5.4243,"is_reserved":false,"is_disabled":false,"rental_uris":{"android":"levelo://app?vid=844b44b6-4e33-4917-878d-a3c647561239","ios":"levelo://app?vid=844b44b6-4e33-4917-878d-a3c647561239"},"vehicle_type_id":"4","last_reported":1752307984,"current_range_meters":18800,"station_id":"st_cvj6ca6bvosntc0bfgr0","pricing_plan_id":"cebpf4jnsgd1na2vs0mg"},{"bike_id":"4b8da722-ee9e-48a4-a5e5-3a8a10364708","system_id":"levelo_inurba_marseille","lat":43.31239,"lon":5.378058,"is_reserved":false,"is_disabled":false,"rental_uris":{"android":"levelo://app?vid=4b8da722-ee9e-48a4-a5e5-3a8a10364708","ios":"levelo://app?vid=4b8da722-ee9e-48a4-a5e5-3a8a10364708"},"vehicle_type_id":"4","last_reported":1752307984,"current_range_meters":18800,"station_id":"","pricing_plan_id":"cebpf4jnsgd1na2vs0mg"},{"bike_id":"57692aae-9841-41ad-bc01-254866eaf8b0","system_id":"levelo_inurba_marseille","lat":43.32335,"lon":5.40619,"is_reserved":false,"is_disabled":false,"rental_uris":{"android":"levelo://app?vid=57692aae-9841-41ad-bc01-254866eaf8b0","ios":"levelo://app?vid=57692aae-9841-41ad-bc01-254866eaf8b0"},"vehicle_type_id":"4","last_reported":1752307984,"current_range_meters":18800,"station_id":"ce4bhq92rcd13ifvqhjg","pricing_plan_id":"cebpf4jnsgd1na2vs0mg"},{"bike_id":"5af35bc3-c835-45dc-8089-0d78e9c38b02","system_id":"levelo_inurba_marseille","lat":43.27895,"lon":5.38018,"is_reserved":false,"is_disabled":false,"rental_uris":{"android":"levelo://app?vid=5af35bc3-c835-45dc-8089-0d78e9c38b02","ios":"levelo://app?vid=5af35bc3-c835-45dc-8089-0d78e9c38b02"},"vehicle_type_id":"4","last_reported":1752307984,"current_range_meters":18800,"station_id":"ce4bhf92rcd13ifvqf50","pricing_plan_id":"cebpf4jnsgd1na2vs0mg"},{"bike_id":"e817dbcf-1eb6-4edb-9c23-a648f327672e","system_id":"levelo_inurba_marseille","lat":43.30331,"lon":5.40424,"is_reserved":false,"is_disabled":false,"rental_uris":{"android":"levelo://app?vid=e817dbcf-1eb6-4edb-9c23-a648f327672e","ios":"levelo://app?vid=e817dbcf-1eb6-4edb-9c23-a648f327672e"},"vehicle_type_id":"4","last_reported":1752307984,"current_range_meters":18800,"station_id":"ce4bh012rcd13ifvqd10","pricing_plan_id":"cebpf4jnsgd1na2vs0mg"},{"bike_id":"a46b9dfb-4db3-4551-a2f5-a8c981c35f1f","system_id":"levelo_inurba_marseille","lat":43.28866,"lon":5.39297,"is_reserved":false,"is_disabled":true,"rental_uris":{"android":"levelo://app?vid=a46b9dfb-4db3-4551-a2f5-a8c981c35f1f","ios":"levelo://app?vid=a46b9dfb-4db3-4551-a2f5-a8c981c35f1f"},"vehicle_type_id":"4","last_reported":1752307984,"current_range_meters":19200,"station_id":"ce4bh2p2rcd13ifvqdi0","pricing_plan_id":"cebpf4jnsgd1na2vs0mg"},{"bike_id":"4bb97859-243c-494a-8a37-9d1cdf2f07ce","system_id":"levelo_inurba_marseille","lat":43.27323,"lon":5.39042,"is_reserved":false,"is_disabled":false,"rental_uris":{"android":"levelo://app?vid=4bb97859-243c-494a-8a37-9d1cdf2f07ce","ios":"levelo://app?vid=4bb97859-243c-494a-8a37-9d1cdf2f07ce"},"vehicle_type_id":"4","last_reported":1752307984,"current_range_meters":19200,"station_id":"ce4bhgp2rcd13ifvqfe0","pricing_plan_id":"cebpf4jnsgd1na2vs0mg"},{"bike_id":"e4b01130-c276-45b9-9b9f-527fcfb706f7","system_id":"levelo_inurba_marseille","lat":43.30149,"lon":5.38078,"is_reserved":false,"is_disabled":false,"rental_uris":{"android":"levelo://app?vid=e4b01130-c276-45b9-9b9f-527fcfb706f7","ios":"levelo://app?vid=e4b01130-c276-45b9-9b9f-527fcfb706f7"},"vehicle_type_id":"4","last_reported":1752307984,"current_range_meters":19200,"station_id":"ce4bgjp2rcd13ifvqbh0","pricing_plan_id":"cebpf4jnsgd1na2vs0mg"},{"bike_id":"745d88f6-d063-471e-85d6-b02fddb5773b","system_id":"levelo_inurba_marseille","lat":43.26569,"lon":5.39008,"is_reserved":false,"is_disabled":false,"rental_uris":{"android":"levelo://app?vid=745d88f6-d063-471e-85d6-b02fddb5773b","ios":"levelo://app?vid=745d88f6-d063-471e-85d6-b02fddb5773b"},"vehicle_type_id":"4","last_reported":1752307984,"current_range_meters":19200,"station_id":"ce4bhe12rcd13ifvqf30","pricing_plan_id":"cebpf4jnsgd1na2vs0mg"},{"bike_id":"18ce6dd4-9b2d-4252-8ca9-d20fdc796639","system_id":"levelo_inurba_marseille","lat":43.287245,"lon":5.360818,"is_reserved":false,"is_disabled":false,"rental_uris":{"android":"levelo://app?vid=18ce6dd4-9b2d-4252-8ca9-d20fdc796639","ios":"levelo://app?vid=18ce6dd4-9b2d-4252-8ca9-d20fdc796639"},"vehicle_type_id":"4","last_reported":1752307984,"current_range_meters":19200,"station_id":"cki0cbj6b192h4jlfktg","pricing_plan_id":"cebpf4jnsgd1na2vs0mg"},{"bike_id":"c6a8feb4-6823-4a2b-9599-dbfcc793a999","system_id":"levelo_inurba_marseille","lat":43.29257,"lon":5.37627,"is_reserved":false,"is_disabled":false,"rental_uris":{"android":"levelo://app?vid=c6a8feb4-6823-4a2b-9599-dbfcc793a999","ios":"levelo://app?vid=c6a8feb4-6823-4a2b-9599-dbfcc793a999"},"vehicle_type_id":"4","last_reported":1752307984,"current_range_meters":19600,"station_id":"ce4bgi12rcd13ifvqb80","pricing_plan_id":"cebpf4jnsgd1na2vs0mg"},{"bike_id":"f9924005-c8ac-4086-8e25-9a21391f65ea","system_id":"levelo_inurba_marseille","lat":43.211911,"lon":5.350746,"is_reserved":false,"is_disabled":false,"rental_uris":{"android":"levelo://app?vid=f9924005-c8ac-4086-8e25-9a21391f65ea","ios":"levelo://app?vid=f9924005-c8ac-4086-8e25-9a21391f65ea"},"vehicle_type_id":"4","last_reported":1752307984,"current_range_meters":19600,"station_id":"st_cvj6sg6p6f1abm77japg","pricing_plan_id":"cebpf4jnsgd1na2vs0mg"},{"bike_id":"2afd10ce-5f23-4122-9c7a-a3416be941b2","system_id":"levelo_inurba_marseille","lat":43.26024,"lon":5.37549,"is_reserved":false,"is_disabled":true,"rental_uris":{"android":"levelo://app?vid=2afd10ce-5f23-4122-9c7a-a3416be941b2","ios":"levelo://app?vid=2afd10ce-5f23-4122-9c7a-a3416be941b2"},"vehicle_type_id":"4","last_reported":1752307984,"current_range_meters":19600,"station_id":"ce4bhgh2rcd13ifvqfa0","pricing_plan_id":"cebpf4jnsgd1na2vs0mg"},{"bike_id":"93736004-e478-41dc-b796-7360599bf429","system_id":"levelo_inurba_marseille","lat":43.3202,"lon":5.41568,"is_reserved":false,"is_disabled":true,"rental_uris":{"android":"levelo://app?vid=93736004-e478-41dc-b796-7360599bf429","ios":"levelo://app?vid=93736004-e478-41dc-b796-7360599bf429"},"vehicle_type_id":"4","last_reported":1752307984,"current_range_meters":19600,"station_id":"ce4bhq92rcd13ifvqhkg","pricing_plan_id":"cebpf4jnsgd1na2vs0mg"},{"bike_id":"14b914a7-ac81-4524-a358-77b861ff3535","system_id":"levelo_inurba_marseille","lat":43.276174,"lon":5.361006,"is_reserved":false,"is_disabled":false,"rental_uris":{"android":"levelo://app?vid=14b914a7-ac81-4524-a358-77b861ff3535","ios":"levelo://app?vid=14b914a7-ac81-4524-a358-77b861ff3535"},"vehicle_type_id":"4","last_reported":1752307984,"current_range_meters":19600,"station_id":"ce4bgj92rcd13ifvqbe0","pricing_plan_id":"cebpf4jnsgd1na2vs0mg"},{"bike_id":"81a7968c-76d4-40a6-9015-2ce2ddcae4c6","system_id":"levelo_inurba_marseille","lat":43.28436,"lon":5.39188,"is_reserved":false,"is_disabled":false,"rental_uris":{"android":"levelo://app?vid=81a7968c-76d4-40a6-9015-2ce2ddcae4c6","ios":"levelo://app?vid=81a7968c-76d4-40a6-9015-2ce2ddcae4c6"},"vehicle_type_id":"4","last_reported":1752307984,"current_range_meters":20000,"station_id":"ce4bhoh2rcd13ifvqh5g","pricing_plan_id":"cebpf4jnsgd1na2vs0mg"},{"bike_id":"ece5e006-0a29-4a34-88d5-2dde675964aa","system_id":"levelo_inurba_marseille","lat":43.27618,"lon":5.36105,"is_reserved":false,"is_disabled":false,"rental_uris":{"android":"levelo://app?vid=ece5e006-0a29-4a34-88d5-2dde675964aa","ios":"levelo://app?vid=ece5e006-0a29-4a34-88d5-2dde675964aa"},"vehicle_type_id":"4","last_reported":1752307984,"current_range_meters":20000,"station_id":"ce4bgj92rcd13ifvqbe0","pricing_plan_id":"cebpf4jnsgd1na2vs0mg"},{"bike_id":"71ffafe8-ba4f-4329-9795-1b18b71c34dd","system_id":"levelo_inurba_marseille","lat":43.297779,"lon":5.371053,"is_reserved":false,"is_disabled":false,"rental_uris":{"android":"levelo://app?vid=71ffafe8-ba4f-4329-9795-1b18b71c34dd","ios":"levelo://app?vid=71ffafe8-ba4f-4329-9795-1b18b71c34dd"},"vehicle_type_id":"4","last_reported":1752307984,"current_range_meters":20400,"station_id":"ce4bgop2rcd13ifvqc1g","pricing_plan_id":"cebpf4jnsgd1na2vs0mg"},{"bike_id":"9b40dc73-509b-4d2f-8a27-44696719b175","system_id":"levelo_inurba_marseille","lat":43.27074,"lon":5.42277,"is_reserved":false,"is_disabled":false,"rental_uris":{"android":"levelo://app?vid=9b40dc73-509b-4d2f-8a27-44696719b175","ios":"levelo://app?vid=9b40dc73-509b-4d2f-8a27-44696719b175"},"vehicle_type_id":"4","last_reported":1752307984,"current_range_meters":20400,"station_id":"ce4bhk92rcd13ifvqgb0","pricing_plan_id":"cebpf4jnsgd1na2vs0mg"},{"bike_id":"a97283a8-00c1-4a88-b765-2d0c83f0c3b3","system_id":"levelo_inurba_marseille","lat":43.24987,"lon":5.38906,"is_reserved":false,"is_disabled":false,"rental_uris":{"android":"levelo://app?vid=a97283a8-00c1-4a88-b765-2d0c83f0c3b3","ios":"levelo://app?vid=a97283a8-00c1-4a88-b765-2d0c83f0c3b3"},"vehicle_type_id":"4","last_reported":1752307984,"current_range_meters":20400,"station_id":"ce4bhgp2rcd13ifvqfd0","pricing_plan_id":"cebpf4jnsgd1na2vs0mg"},{"bike_id":"7170d66e-3ada-451b-8fe3-a06b113d4837","system_id":"levelo_inurba_marseille","lat":43.30902,"lon":5.36837,"is_reserved":false,"is_disabled":false,"rental_uris":{"android":"levelo://app?vid=7170d66e-3ada-451b-8fe3-a06b113d4837","ios":"levelo://app?vid=7170d66e-3ada-451b-8fe3-a06b113d4837"},"vehicle_type_id":"4","last_reported":1752307984,"current_range_meters":20400,"station_id":"ce4bgn92rcd13ifvqbvg","pricing_plan_id":"cebpf4jnsgd1na2vs0mg"},{"bike_id":"f3326164-4cf8-42be-a110-82071611e164","system_id":"levelo_inurba_marseille","lat":43.29571,"lon":5.37529,"is_reserved":false,"is_disabled":false,"rental_uris":{"android":"levelo://app?vid=f3326164-4cf8-42be-a110-82071611e164","ios":"levelo://app?vid=f3326164-4cf8-42be-a110-82071611e164"},"vehicle_type_id":"4","last_reported":1752307984,"current_range_meters":20800,"station_id":"ce4bgh92rcd13ifvqb50","pricing_plan_id":"cebpf4jnsgd1na2vs0mg"},{"bike_id":"02c71304-9c4f-4ebf-b265-2eb94afb5a95","system_id":"levelo_inurba_marseille","lat":43.30932,"lon":5.36832,"is_reserved":false,"is_disabled":false,"rental_uris":{"android":"levelo://app?vid=02c71304-9c4f-4ebf-b265-2eb94afb5a95","ios":"levelo://app?vid=02c71304-9c4f-4ebf-b265-2eb94afb5a95"},"vehicle_type_id":"4","last_reported":1752307984,"current_range_meters":20800,"station_id":"","pricing_plan_id":"cebpf4jnsgd1na2vs0mg"},{"bike_id":"45be3528-fd16-498e-8434-e30e29d5ac2e","system_id":"levelo_inurba_marseille","lat":43.30405,"lon":5.39778,"is_reserved":false,"is_disabled":false,"rental_uris":{"android":"levelo://app?vid=45be3528-fd16-498e-8434-e30e29d5ac2e","ios":"levelo://app?vid=45be3528-fd16-498e-8434-e30e29d5ac2e"},"vehicle_type_id":"4","last_reported":1752307984,"current_range_meters":20800,"station_id":"ce4bh092rcd13ifvqd20","pricing_plan_id":"cebpf4jnsgd1na2vs0mg"},{"bike_id":"2d5ece50-7b5e-4b8c-b259-cb04f9b7d133","system_id":"levelo_inurba_marseille","lat":43.31374,"lon":5.38495,"is_reserved":false,"is_disabled":false,"rental_uris":{"android":"levelo://app?vid=2d5ece50-7b5e-4b8c-b259-cb04f9b7d133","ios":"levelo://app?vid=2d5ece50-7b5e-4b8c-b259-cb04f9b7d133"},"vehicle_type_id":"4","last_reported":1752307984,"current_range_meters":20800,"station_id":"ce4bgt92rcd13ifvqcf0","pricing_plan_id":"cebpf4jnsgd1na2vs0mg"},{"bike_id":"760e7858-c0b8-4554-a613-7f2d68de507f","system_id":"levelo_inurba_marseille","lat":43.30143,"lon":5.37202,"is_reserved":false,"is_disabled":false,"rental_uris":{"android":"levelo://app?vid=760e7858-c0b8-4554-a613-7f2d68de507f","ios":"levelo://app?vid=760e7858-c0b8-4554-a613-7f2d68de507f"},"vehicle_type_id":"4","last_reported":1752307984,"current_range_meters":20800,"station_id":"","pricing_plan_id":"cebpf4jnsgd1na2vs0mg"},{"bike_id":"abe5e67c-a0c0-4e85-b71a-5d1ca18f6753","system_id":"levelo_inurba_marseille","lat":43.279026,"lon":5.37988,"is_reserved":false,"is_disabled":false,"rental_uris":{"android":"levelo://app?vid=abe5e67c-a0c0-4e85-b71a-5d1ca18f6753","ios":"levelo://app?vid=abe5e67c-a0c0-4e85-b71a-5d1ca18f6753"},"vehicle_type_id":"4","last_reported":1752307984,"current_range_meters":20800,"station_id":"ce4bhf92rcd13ifvqf50","pricing_plan_id":"cebpf4jnsgd1na2vs0mg"},{"bike_id":"dc47e28b-4d2c-4cc0-9dcc-30f47829d9cb","system_id":"levelo_inurba_marseille","lat":43.25007,"lon":5.3891,"is_reserved":false,"is_disabled":false,"rental_uris":{"android":"levelo://app?vid=dc47e28b-4d2c-4cc0-9dcc-30f47829d9cb","ios":"levelo://app?vid=dc47e28b-4d2c-4cc0-9dcc-30f47829d9cb"},"vehicle_type_id":"4","last_reported":1752307984,"current_range_meters":20800,"station_id":"ce4bhgp2rcd13ifvqfd0","pricing_plan_id":"cebpf4jnsgd1na2vs0mg"},{"bike_id":"c35b2c01-0717-4a19-a3fc-fc581bde10ae","system_id":"levelo_inurba_marseille","lat":43.308067,"lon":5.381571,"is_reserved":false,"is_disabled":false,"rental_uris":{"android":"levelo://app?vid=c35b2c01-0717-4a19-a3fc-fc581bde10ae","ios":"levelo://app?vid=c35b2c01-0717-4a19-a3fc-fc581bde10ae"},"vehicle_type_id":"4","last_reported":1752307984,"current_range_meters":21600,"station_id":"ce4bgt12rcd13ifvqce0","pricing_plan_id":"cebpf4jnsgd1na2vs0mg"},{"bike_id":"c5d7bffd-d661-4f88-bba2-18971e5e79a1","system_id":"levelo_inurba_marseille","lat":43.25112,"lon":5.4032,"is_reserved":false,"is_disabled":false,"rental_uris":{"android":"levelo://app?vid=c5d7bffd-d661-4f88-bba2-18971e5e79a1","ios":"levelo://app?vid=c5d7bffd-d661-4f88-bba2-18971e5e79a1"},"vehicle_type_id":"4","last_reported":1752307984,"current_range_meters":21600,"station_id":"ce4bhlh2rcd13ifvqgig","pricing_plan_id":"cebpf4jnsgd1na2vs0mg"},{"bike_id":"69e04c82-feaa-4455-a918-fbb51efec30e","system_id":"levelo_inurba_marseille","lat":43.305406,"lon":5.381355,"is_reserved":false,"is_disabled":false,"rental_uris":{"android":"levelo://app?vid=69e04c82-feaa-4455-a918-fbb51efec30e","ios":"levelo://app?vid=69e04c82-feaa-4455-a918-fbb51efec30e"},"vehicle_type_id":"4","last_reported":1752307984,"current_range_meters":21600,"station_id":"","pricing_plan_id":"cebpf4jnsgd1na2vs0mg"},{"bike_id":"7f8239f6-49ce-42e0-a2e5-983000e48522","system_id":"levelo_inurba_marseille","lat":43.25108,"lon":5.40313,"is_reserved":false,"is_disabled":false,"rental_uris":{"android":"levelo://app?vid=7f8239f6-49ce-42e0-a2e5-983000e48522","ios":"levelo://app?vid=7f8239f6-49ce-42e0-a2e5-983000e48522"},"vehicle_type_id":"4","last_reported":1752307984,"current_range_meters":21600,"station_id":"ce4bhlh2rcd13ifvqgig","pricing_plan_id":"cebpf4jnsgd1na2vs0mg"},{"bike_id":"71ea5274-97ba-425e-bd96-22790cee7703","system_id":"levelo_inurba_marseille","lat":43.28481,"lon":5.38408,"is_reserved":false,"is_disabled":false,"rental_uris":{"android":"levelo://app?vid=71ea5274-97ba-425e-bd96-22790cee7703","ios":"levelo://app?vid=71ea5274-97ba-425e-bd96-22790cee7703"},"vehicle_type_id":"4","last_reported":1752307984,"current_range_meters":20800,"station_id":"ce4bh512rcd13ifvqe3g","pricing_plan_id":"cebpf4jnsgd1na2vs0mg"},{"bike_id":"05646134-6914-494e-8d1c-40622b9209bf","system_id":"levelo_inurba_marseille","lat":43.26561,"lon":5.37279,"is_reserved":false,"is_disabled":false,"rental_uris":{"android":"levelo://app?vid=05646134-6914-494e-8d1c-40622b9209bf","ios":"levelo://app?vid=05646134-6914-494e-8d1c-40622b9209bf"},"vehicle_type_id":"4","last_reported":1752307984,"current_range_meters":21600,"station_id":"ce4bhg12rcd13ifvqf70","pricing_plan_id":"cebpf4jnsgd1na2vs0mg"},{"bike_id":"f7c7122e-fee2-4594-81dd-c31e7ffe626e","system_id":"levelo_inurba_marseille","lat":43.30146,"lon":5.38066,"is_reserved":false,"is_disabled":false,"rental_uris":{"android":"levelo://app?vid=f7c7122e-fee2-4594-81dd-c31e7ffe626e","ios":"levelo://app?vid=f7c7122e-fee2-4594-81dd-c31e7ffe626e"},"vehicle_type_id":"4","last_reported":1752307984,"current_range_meters":22000,"station_id":"ce4bgjp2rcd13ifvqbh0","pricing_plan_id":"cebpf4jnsgd1na2vs0mg"},{"bike_id":"91a5348d-1996-4338-8fbd-12c576d3f361","system_id":"levelo_inurba_marseille","lat":43.30797,"lon":5.3815,"is_reserved":false,"is_disabled":false,"rental_uris":{"android":"levelo://app?vid=91a5348d-1996-4338-8fbd-12c576d3f361","ios":"levelo://app?vid=91a5348d-1996-4338-8fbd-12c576d3f361"},"vehicle_type_id":"4","last_reported":1752307984,"current_range_meters":22000,"station_id":"ce4bgt12rcd13ifvqce0","pricing_plan_id":"cebpf4jnsgd1na2vs0mg"},{"bike_id":"80706ed8-34fd-4666-9e3e-8aacbb0a19ea","system_id":"levelo_inurba_marseille","lat":43.267966,"lon":5.402679,"is_reserved":false,"is_disabled":true,"rental_uris":{"android":"levelo://app?vid=80706ed8-34fd-4666-9e3e-8aacbb0a19ea","ios":"levelo://app?vid=80706ed8-34fd-4666-9e3e-8aacbb0a19ea"},"vehicle_type_id":"4","last_reported":1752307984,"current_range_meters":22000,"station_id":"ce501612rcd8frsf0b60","pricing_plan_id":"cebpf4jnsgd1na2vs0mg"},{"bike_id":"5a79b171-58ec-4578-8dca-26e9d9833cf4","system_id":"levelo_inurba_marseille","lat":43.28487,"lon":5.38553,"is_reserved":false,"is_disabled":false,"rental_uris":{"android":"levelo://app?vid=5a79b171-58ec-4578-8dca-26e9d9833cf4","ios":"levelo://app?vid=5a79b171-58ec-4578-8dca-26e9d9833cf4"},"vehicle_type_id":"4","last_reported":1752307984,"current_range_meters":22000,"station_id":"ce4bh8p2rcd13ifvqeb0","pricing_plan_id":"cebpf4jnsgd1na2vs0mg"},{"bike_id":"f5a47db5-6fb2-46bd-a2de-efa4ad13bf60","system_id":"levelo_inurba_marseille","lat":43.21192,"lon":5.350731,"is_reserved":false,"is_disabled":false,"rental_uris":{"android":"levelo://app?vid=f5a47db5-6fb2-46bd-a2de-efa4ad13bf60","ios":"levelo://app?vid=f5a47db5-6fb2-46bd-a2de-efa4ad13bf60"},"vehicle_type_id":"4","last_reported":1752307984,"current_range_meters":22400,"station_id":"st_cvj6sg6p6f1abm77japg","pricing_plan_id":"cebpf4jnsgd1na2vs0mg"},{"bike_id":"579c9257-e9d2-4fed-8af3-001a27548604","system_id":"levelo_inurba_marseille","lat":43.21189,"lon":5.35065,"is_reserved":false,"is_disabled":false,"rental_uris":{"android":"levelo://app?vid=579c9257-e9d2-4fed-8af3-001a27548604","ios":"levelo://app?vid=579c9257-e9d2-4fed-8af3-001a27548604"},"vehicle_type_id":"4","last_reported":1752307984,"current_range_meters":22400,"station_id":"st_cvj6sg6p6f1abm77japg","pricing_plan_id":"cebpf4jnsgd1na2vs0mg"},{"bike_id":"58375fde-ca97-4dab-be52-59caf98323d3","system_id":"levelo_inurba_marseille","lat":43.26552,"lon":5.37276,"is_reserved":false,"is_disabled":true,"rental_uris":{"android":"levelo://app?vid=58375fde-ca97-4dab-be52-59caf98323d3","ios":"levelo://app?vid=58375fde-ca97-4dab-be52-59caf98323d3"},"vehicle_type_id":"4","last_reported":1752307984,"current_range_meters":22400,"station_id":"ce4bhg12rcd13ifvqf70","pricing_plan_id":"cebpf4jnsgd1na2vs0mg"},{"bike_id":"2c0e2d00-03d4-4afe-b49f-b1e911f303f6","system_id":"levelo_inurba_marseille","lat":43.287265,"lon":5.360816,"is_reserved":false,"is_disabled":false,"rental_uris":{"android":"levelo://app?vid=2c0e2d00-03d4-4afe-b49f-b1e911f303f6","ios":"levelo://app?vid=2c0e2d00-03d4-4afe-b49f-b1e911f303f6"},"vehicle_type_id":"4","last_reported":1752307984,"current_range_meters":22000,"station_id":"","pricing_plan_id":"cebpf4jnsgd1na2vs0mg"},{"bike_id":"37e04037-4751-45cc-9e56-db1728107dad","system_id":"levelo_inurba_marseille","lat":43.311122,"lon":5.377629,"is_reserved":false,"is_disabled":false,"rental_uris":{"android":"levelo://app?vid=37e04037-4751-45cc-9e56-db1728107dad","ios":"levelo://app?vid=37e04037-4751-45cc-9e56-db1728107dad"},"vehicle_type_id":"4","last_reported":1752307984,"current_range_meters":22400,"station_id":"ce4bgt92rcd13ifvqcg0","pricing_plan_id":"cebpf4jnsgd1na2vs0mg"},{"bike_id":"9f7a8926-fe00-41e0-80a0-ac3ffcc68741","system_id":"levelo_inurba_marseille","lat":43.24073,"lon":5.37753,"is_reserved":false,"is_disabled":false,"rental_uris":{"android":"levelo://app?vid=9f7a8926-fe00-41e0-80a0-ac3ffcc68741","ios":"levelo://app?vid=9f7a8926-fe00-41e0-80a0-ac3ffcc68741"},"vehicle_type_id":"4","last_reported":1752307984,"current_range_meters":22800,"station_id":"ce4bhnp2rcd13ifvqgvg","pricing_plan_id":"cebpf4jnsgd1na2vs0mg"},{"bike_id":"10666549-7ebc-45b0-9816-8cedb6235d7b","system_id":"levelo_inurba_marseille","lat":43.28614,"lon":5.3702,"is_reserved":false,"is_disabled":false,"rental_uris":{"android":"levelo://app?vid=10666549-7ebc-45b0-9816-8cedb6235d7b","ios":"levelo://app?vid=10666549-7ebc-45b0-9816-8cedb6235d7b"},"vehicle_type_id":"4","last_reported":1752307984,"current_range_meters":22800,"station_id":"ce4bht12rcd13ifvqi60","pricing_plan_id":"cebpf4jnsgd1na2vs0mg"},{"bike_id":"d2501d8a-17a4-488b-92ac-71df945193d6","system_id":"levelo_inurba_marseille","lat":43.27052,"lon":5.42237,"is_reserved":false,"is_disabled":false,"rental_uris":{"android":"levelo://app?vid=d2501d8a-17a4-488b-92ac-71df945193d6","ios":"levelo://app?vid=d2501d8a-17a4-488b-92ac-71df945193d6"},"vehicle_type_id":"4","last_reported":1752307984,"current_range_meters":22800,"station_id":"ce4bhk92rcd13ifvqgb0","pricing_plan_id":"cebpf4jnsgd1na2vs0mg"},{"bike_id":"c1b25357-5d0b-4895-b90e-dff6a6d44ad5","system_id":"levelo_inurba_marseille","lat":43.31285,"lon":5.40167,"is_reserved":false,"is_disabled":false,"rental_uris":{"android":"levelo://app?vid=c1b25357-5d0b-4895-b90e-dff6a6d44ad5","ios":"levelo://app?vid=c1b25357-5d0b-4895-b90e-dff6a6d44ad5"},"vehicle_type_id":"4","last_reported":1752307984,"current_range_meters":22800,"station_id":"ce4bh092rcd13ifvqd30","pricing_plan_id":"cebpf4jnsgd1na2vs0mg"},{"bike_id":"7d23fe79-d591-4b18-b214-7a734c0f723c","system_id":"levelo_inurba_marseille","lat":43.24387,"lon":5.370549,"is_reserved":false,"is_disabled":false,"rental_uris":{"android":"levelo://app?vid=7d23fe79-d591-4b18-b214-7a734c0f723c","ios":"levelo://app?vid=7d23fe79-d591-4b18-b214-7a734c0f723c"},"vehicle_type_id":"4","last_reported":1752307984,"current_range_meters":22400,"station_id":"ce4bhhh2rcd13ifvqfk0","pricing_plan_id":"cebpf4jnsgd1na2vs0mg"},{"bike_id":"8c43e66d-8f1d-49ad-97a0-48c7425eb74e","system_id":"levelo_inurba_marseille","lat":43.29625,"lon":5.37713,"is_reserved":false,"is_disabled":false,"rental_uris":{"android":"levelo://app?vid=8c43e66d-8f1d-49ad-97a0-48c7425eb74e","ios":"levelo://app?vid=8c43e66d-8f1d-49ad-97a0-48c7425eb74e"},"vehicle_type_id":"4","last_reported":1752307984,"current_range_meters":22800,"station_id":"ce4bgi92rcd13ifvqb90","pricing_plan_id":"cebpf4jnsgd1na2vs0mg"},{"bike_id":"cc6260c7-e588-42d7-afef-96c409802ccc","system_id":"levelo_inurba_marseille","lat":43.211928,"lon":5.350704,"is_reserved":false,"is_disabled":false,"rental_uris":{"android":"levelo://app?vid=cc6260c7-e588-42d7-afef-96c409802ccc","ios":"levelo://app?vid=cc6260c7-e588-42d7-afef-96c409802ccc"},"vehicle_type_id":"4","last_reported":1752307984,"current_range_meters":22800,"station_id":"st_cvj6sg6p6f1abm77japg","pricing_plan_id":"cebpf4jnsgd1na2vs0mg"},{"bike_id":"9bfc7d3d-4e60-4f8a-9c32-ef3d0e77ec5b","system_id":"levelo_inurba_marseille","lat":43.211921,"lon":5.350731,"is_reserved":false,"is_disabled":false,"rental_uris":{"android":"levelo://app?vid=9bfc7d3d-4e60-4f8a-9c32-ef3d0e77ec5b","ios":"levelo://app?vid=9bfc7d3d-4e60-4f8a-9c32-ef3d0e77ec5b"},"vehicle_type_id":"4","last_reported":1752307984,"current_range_meters":22800,"station_id":"st_cvj6sg6p6f1abm77japg","pricing_plan_id":"cebpf4jnsgd1na2vs0mg"},{"bike_id":"c29daf6f-b01d-4b41-8a36-cca0d3358d23","system_id":"levelo_inurba_marseille","lat":43.29048,"lon":5.39959,"is_reserved":false,"is_disabled":false,"rental_uris":{"android":"levelo://app?vid=c29daf6f-b01d-4b41-8a36-cca0d3358d23","ios":"levelo://app?vid=c29daf6f-b01d-4b41-8a36-cca0d3358d23"},"vehicle_type_id":"4","last_reported":1752307984,"current_range_meters":23200,"station_id":"ce4bh392rcd13ifvqdm0","pricing_plan_id":"cebpf4jnsgd1na2vs0mg"},{"bike_id":"4e3865ac-ec3b-4016-b73c-615c0ebc7deb","system_id":"levelo_inurba_marseille","lat":43.28421,"lon":5.34978,"is_reserved":false,"is_disabled":false,"rental_uris":{"android":"levelo://app?vid=4e3865ac-ec3b-4016-b73c-615c0ebc7deb","ios":"levelo://app?vid=4e3865ac-ec3b-4016-b73c-615c0ebc7deb"},"vehicle_type_id":"4","last_reported":1752307984,"current_range_meters":23200,"station_id":"ce4bhbh2rcd13ifvqepg","pricing_plan_id":"cebpf4jnsgd1na2vs0mg"},{"bike_id":"b19e4fa3-3382-434e-9489-64bd5f12534e","system_id":"levelo_inurba_marseille","lat":43.24164,"lon":5.36394,"is_reserved":false,"is_disabled":false,"rental_uris":{"android":"levelo://app?vid=b19e4fa3-3382-434e-9489-64bd5f12534e","ios":"levelo://app?vid=b19e4fa3-3382-434e-9489-64bd5f12534e"},"vehicle_type_id":"4","last_reported":1752307984,"current_range_meters":23200,"station_id":"cpo36qri1sfpv3e86is0","pricing_plan_id":"cebpf4jnsgd1na2vs0mg"},{"bike_id":"c8c4de1a-846f-4f5b-aace-9fb14bf7ad52","system_id":"levelo_inurba_marseille","lat":43.211934,"lon":5.350729,"is_reserved":false,"is_disabled":false,"rental_uris":{"android":"levelo://app?vid=c8c4de1a-846f-4f5b-aace-9fb14bf7ad52","ios":"levelo://app?vid=c8c4de1a-846f-4f5b-aace-9fb14bf7ad52"},"vehicle_type_id":"4","last_reported":1752307984,"current_range_meters":23200,"station_id":"st_cvj6sg6p6f1abm77japg","pricing_plan_id":"cebpf4jnsgd1na2vs0mg"},{"bike_id":"7b49c975-458d-4b6e-820c-0a946d3491f2","system_id":"levelo_inurba_marseille","lat":43.29143,"lon":5.37146,"is_reserved":false,"is_disabled":true,"rental_uris":{"android":"levelo://app?vid=7b49c975-458d-4b6e-820c-0a946d3491f2","ios":"levelo://app?vid=7b49c975-458d-4b6e-820c-0a946d3491f2"},"vehicle_type_id":"4","last_reported":1752307984,"current_range_meters":23200,"station_id":"ce4bha92rcd13ifvqeh0","pricing_plan_id":"cebpf4jnsgd1na2vs0mg"},{"bike_id":"99ae43ef-9981-41ec-907c-f94f73cc9ad2","system_id":"levelo_inurba_marseille","lat":43.29985,"lon":5.38484,"is_reserved":false,"is_disabled":false,"rental_uris":{"android":"levelo://app?vid=99ae43ef-9981-41ec-907c-f94f73cc9ad2","ios":"levelo://app?vid=99ae43ef-9981-41ec-907c-f94f73cc9ad2"},"vehicle_type_id":"4","last_reported":1752307984,"current_range_meters":23200,"station_id":"ce4bgj92rcd13ifvqbd0","pricing_plan_id":"cebpf4jnsgd1na2vs0mg"},{"bike_id":"e551c81f-beb8-4535-a76a-0860bd6c5653","system_id":"levelo_inurba_marseille","lat":43.294181,"lon":5.386019,"is_reserved":false,"is_disabled":true,"rental_uris":{"android":"levelo://app?vid=e551c81f-beb8-4535-a76a-0860bd6c5653","ios":"levelo://app?vid=e551c81f-beb8-4535-a76a-0860bd6c5653"},"vehicle_type_id":"4","last_reported":1752307984,"current_range_meters":24000,"station_id":"ce4bh2h2rcd13ifvqdh0","pricing_plan_id":"cebpf4jnsgd1na2vs0mg"},{"bike_id":"fb76ffbe-c9ca-4171-9d82-f00c3931fbea","system_id":"levelo_inurba_marseille","lat":43.29916,"lon":5.38138,"is_reserved":false,"is_disabled":true,"rental_uris":{"android":"levelo://app?vid=fb76ffbe-c9ca-4171-9d82-f00c3931fbea","ios":"levelo://app?vid=fb76ffbe-c9ca-4171-9d82-f00c3931fbea"},"vehicle_type_id":"4","last_reported":1752307984,"current_range_meters":24000,"station_id":"","pricing_plan_id":"cebpf4jnsgd1na2vs0mg"},{"bike_id":"4840a500-316c-452a-8619-2a7792ea3551","system_id":"levelo_inurba_marseille","lat":43.282757,"lon":5.35069,"is_reserved":false,"is_disabled":true,"rental_uris":{"android":"levelo://app?vid=4840a500-316c-452a-8619-2a7792ea3551","ios":"levelo://app?vid=4840a500-316c-452a-8619-2a7792ea3551"},"vehicle_type_id":"4","last_reported":1752307984,"current_range_meters":24000,"station_id":"ce4bhbp2rcd13ifvqerg","pricing_plan_id":"cebpf4jnsgd1na2vs0mg"},{"bike_id":"87f4d08c-d866-46bb-8313-04d86abb80f7","system_id":"levelo_inurba_marseille","lat":43.248,"lon":5.37442,"is_reserved":false,"is_disabled":false,"rental_uris":{"android":"levelo://app?vid=87f4d08c-d866-46bb-8313-04d86abb80f7","ios":"levelo://app?vid=87f4d08c-d866-46bb-8313-04d86abb80f7"},"vehicle_type_id":"4","last_reported":1752307984,"current_range_meters":24000,"station_id":"ce4bhgh2rcd13ifvqfb0","pricing_plan_id":"cebpf4jnsgd1na2vs0mg"},{"bike_id":"07d14d86-a176-4665-a495-26ba7e0009ea","system_id":"levelo_inurba_marseille","lat":43.282734,"lon":5.350624,"is_reserved":false,"is_disabled":true,"rental_uris":{"android":"levelo://app?vid=07d14d86-a176-4665-a495-26ba7e0009ea","ios":"levelo://app?vid=07d14d86-a176-4665-a495-26ba7e0009ea"},"vehicle_type_id":"4","last_reported":1752307984,"current_range_meters":24000,"station_id":"ce4bhbp2rcd13ifvqerg","pricing_plan_id":"cebpf4jnsgd1na2vs0mg"},{"bike_id":"0812d093-8e54-4ac3-897c-b1868e2f1926","system_id":"levelo_inurba_marseille","lat":43.28907,"lon":5.39518,"is_reserved":false,"is_disabled":false,"rental_uris":{"android":"levelo://app?vid=0812d093-8e54-4ac3-897c-b1868e2f1926","ios":"levelo://app?vid=0812d093-8e54-4ac3-897c-b1868e2f1926"},"vehicle_type_id":"4","last_reported":1752307984,"current_range_meters":24000,"station_id":"","pricing_plan_id":"cebpf4jnsgd1na2vs0mg"},{"bike_id":"98b61a34-3a02-483f-984c-3e47405f4f04","system_id":"levelo_inurba_marseille","lat":43.302771,"lon":5.377202,"is_reserved":false,"is_disabled":false,"rental_uris":{"android":"levelo://app?vid=98b61a34-3a02-483f-984c-3e47405f4f04","ios":"levelo://app?vid=98b61a34-3a02-483f-984c-3e47405f4f04"},"vehicle_type_id":"4","last_reported":1752307984,"current_range_meters":24000,"station_id":"ce4bguh2rcd13ifvqcj0","pricing_plan_id":"cebpf4jnsgd1na2vs0mg"},{"bike_id":"697d5fc4-b988-4a4e-8323-c1ce5ed61a61","system_id":"levelo_inurba_marseille","lat":43.21189,"lon":5.35075,"is_reserved":false,"is_disabled":false,"rental_uris":{"android":"levelo://app?vid=697d5fc4-b988-4a4e-8323-c1ce5ed61a61","ios":"levelo://app?vid=697d5fc4-b988-4a4e-8323-c1ce5ed61a61"},"vehicle_type_id":"4","last_reported":1752307984,"current_range_meters":24400,"station_id":"st_cvj6sg6p6f1abm77japg","pricing_plan_id":"cebpf4jnsgd1na2vs0mg"},{"bike_id":"0270543d-32ab-42aa-b4bc-7455a70a4154","system_id":"levelo_inurba_marseille","lat":43.29217,"lon":5.36053,"is_reserved":false,"is_disabled":false,"rental_uris":{"android":"levelo://app?vid=0270543d-32ab-42aa-b4bc-7455a70a4154","ios":"levelo://app?vid=0270543d-32ab-42aa-b4bc-7455a70a4154"},"vehicle_type_id":"4","last_reported":1752307984,"current_range_meters":24400,"station_id":"ce4bhbh2rcd13ifvqeqg","pricing_plan_id":"cebpf4jnsgd1na2vs0mg"},{"bike_id":"6ac174d4-75c5-4a9c-9699-97cd631c6e65","system_id":"levelo_inurba_marseille","lat":43.2546,"lon":5.39926,"is_reserved":false,"is_disabled":false,"rental_uris":{"android":"levelo://app?vid=6ac174d4-75c5-4a9c-9699-97cd631c6e65","ios":"levelo://app?vid=6ac174d4-75c5-4a9c-9699-97cd631c6e65"},"vehicle_type_id":"4","last_reported":1752307984,"current_range_meters":24400,"station_id":"","pricing_plan_id":"cebpf4jnsgd1na2vs0mg"},{"bike_id":"b29c635f-9f64-466c-a57c-b8a3bc4058b4","system_id":"levelo_inurba_marseille","lat":43.30832,"lon":5.400328,"is_reserved":false,"is_disabled":false,"rental_uris":{"android":"levelo://app?vid=b29c635f-9f64-466c-a57c-b8a3bc4058b4","ios":"levelo://app?vid=b29c635f-9f64-466c-a57c-b8a3bc4058b4"},"vehicle_type_id":"4","last_reported":1752307984,"current_range_meters":24400,"station_id":"","pricing_plan_id":"cebpf4jnsgd1na2vs0mg"},{"bike_id":"80955d0f-8669-4c02-b90f-c6fe20790c37","system_id":"levelo_inurba_marseille","lat":43.23195,"lon":5.35058,"is_reserved":false,"is_disabled":false,"rental_uris":{"android":"levelo://app?vid=80955d0f-8669-4c02-b90f-c6fe20790c37","ios":"levelo://app?vid=80955d0f-8669-4c02-b90f-c6fe20790c37"},"vehicle_type_id":"4","last_reported":1752307984,"current_range_meters":24400,"station_id":"","pricing_plan_id":"cebpf4jnsgd1na2vs0mg"},{"bike_id":"f59f6657-f62a-42fc-a273-bf50a25645d6","system_id":"levelo_inurba_marseille","lat":43.273685,"lon":5.362725,"is_reserved":false,"is_disabled":false,"rental_uris":{"android":"levelo://app?vid=f59f6657-f62a-42fc-a273-bf50a25645d6","ios":"levelo://app?vid=f59f6657-f62a-42fc-a273-bf50a25645d6"},"vehicle_type_id":"4","last_reported":1752307984,"current_range_meters":24400,"station_id":"ce4bhbh2rcd13ifvqeo0","pricing_plan_id":"cebpf4jnsgd1na2vs0mg"},{"bike_id":"06c941b6-ccf0-438e-96c1-752265e3672d","system_id":"levelo_inurba_marseille","lat":43.312808,"lon":5.401641,"is_reserved":false,"is_disabled":false,"rental_uris":{"android":"levelo://app?vid=06c941b6-ccf0-438e-96c1-752265e3672d","ios":"levelo://app?vid=06c941b6-ccf0-438e-96c1-752265e3672d"},"vehicle_type_id":"4","last_reported":1752307984,"current_range_meters":24400,"station_id":"ce4bh092rcd13ifvqd30","pricing_plan_id":"cebpf4jnsgd1na2vs0mg"},{"bike_id":"c9131229-fc26-406d-9791-d9ba8a95b1f4","system_id":"levelo_inurba_marseille","lat":43.337444,"lon":5.374475,"is_reserved":false,"is_disabled":false,"rental_uris":{"android":"levelo://app?vid=c9131229-fc26-406d-9791-d9ba8a95b1f4","ios":"levelo://app?vid=c9131229-fc26-406d-9791-d9ba8a95b1f4"},"vehicle_type_id":"4","last_reported":1752307984,"current_range_meters":24400,"station_id":"","pricing_plan_id":"cebpf4jnsgd1na2vs0mg"},{"bike_id":"9928d297-b595-4aa0-af92-3f76c8d3fc60","system_id":"levelo_inurba_marseille","lat":43.31711,"lon":5.37753,"is_reserved":false,"is_disabled":false,"rental_uris":{"android":"levelo://app?vid=9928d297-b595-4aa0-af92-3f76c8d3fc60","ios":"levelo://app?vid=9928d297-b595-4aa0-af92-3f76c8d3fc60"},"vehicle_type_id":"4","last_reported":1752307984,"current_range_meters":24400,"station_id":"ce4bgth2rcd13ifvqch0","pricing_plan_id":"cebpf4jnsgd1na2vs0mg"},{"bike_id":"bbaecf5c-c043-4427-831b-e9b9f93743bc","system_id":"levelo_inurba_marseille","lat":43.28182,"lon":5.42637,"is_reserved":false,"is_disabled":false,"rental_uris":{"android":"levelo://app?vid=bbaecf5c-c043-4427-831b-e9b9f93743bc","ios":"levelo://app?vid=bbaecf5c-c043-4427-831b-e9b9f93743bc"},"vehicle_type_id":"4","last_reported":1752307984,"current_range_meters":24400,"station_id":"ce4bhnh2rcd13ifvqgug","pricing_plan_id":"cebpf4jnsgd1na2vs0mg"},{"bike_id":"b799f899-220f-4d7e-bfad-6862bab05a50","system_id":"levelo_inurba_marseille","lat":43.24724,"lon":5.41171,"is_reserved":false,"is_disabled":false,"rental_uris":{"android":"levelo://app?vid=b799f899-220f-4d7e-bfad-6862bab05a50","ios":"levelo://app?vid=b799f899-220f-4d7e-bfad-6862bab05a50"},"vehicle_type_id":"4","last_reported":1752307984,"current_range_meters":24400,"station_id":"","pricing_plan_id":"cebpf4jnsgd1na2vs0mg"},{"bike_id":"da983724-2189-4fc3-8aaf-a6ee9bbfd66a","system_id":"levelo_inurba_marseille","lat":43.269301,"lon":5.402531,"is_reserved":false,"is_disabled":false,"rental_uris":{"android":"levelo://app?vid=da983724-2189-4fc3-8aaf-a6ee9bbfd66a","ios":"levelo://app?vid=da983724-2189-4fc3-8aaf-a6ee9bbfd66a"},"vehicle_type_id":"4","last_reported":1752307984,"current_range_meters":24800,"station_id":"cjm6bp8fraef2m0cb0m0","pricing_plan_id":"cebpf4jnsgd1na2vs0mg"},{"bike_id":"b640c36c-6c5a-408e-8ac7-d6548dede463","system_id":"levelo_inurba_marseille","lat":43.240681,"lon":5.37759,"is_reserved":false,"is_disabled":false,"rental_uris":{"android":"levelo://app?vid=b640c36c-6c5a-408e-8ac7-d6548dede463","ios":"levelo://app?vid=b640c36c-6c5a-408e-8ac7-d6548dede463"},"vehicle_type_id":"4","last_reported":1752307984,"current_range_meters":24800,"station_id":"ce4bhnp2rcd13ifvqgvg","pricing_plan_id":"cebpf4jnsgd1na2vs0mg"},{"bike_id":"1382cc17-0d20-4077-8e01-39a921d0617f","system_id":"levelo_inurba_marseille","lat":43.32341,"lon":5.40614,"is_reserved":false,"is_disabled":false,"rental_uris":{"android":"levelo://app?vid=1382cc17-0d20-4077-8e01-39a921d0617f","ios":"levelo://app?vid=1382cc17-0d20-4077-8e01-39a921d0617f"},"vehicle_type_id":"4","last_reported":1752307984,"current_range_meters":24800,"station_id":"ce4bhq92rcd13ifvqhjg","pricing_plan_id":"cebpf4jnsgd1na2vs0mg"},{"bike_id":"a4d07f45-19f9-4df9-9728-be6623530a64","system_id":"levelo_inurba_marseille","lat":43.23701,"lon":5.3882,"is_reserved":false,"is_disabled":false,"rental_uris":{"android":"levelo://app?vid=a4d07f45-19f9-4df9-9728-be6623530a64","ios":"levelo://app?vid=a4d07f45-19f9-4df9-9728-be6623530a64"},"vehicle_type_id":"4","last_reported":1752307984,"current_range_meters":24800,"station_id":"","pricing_plan_id":"cebpf4jnsgd1na2vs0mg"},{"bike_id":"8ad58758-a996-4b15-9696-9e763ae6ed1e","system_id":"levelo_inurba_marseille","lat":43.29306,"lon":5.37442,"is_reserved":false,"is_disabled":false,"rental_uris":{"android":"levelo://app?vid=8ad58758-a996-4b15-9696-9e763ae6ed1e","ios":"levelo://app?vid=8ad58758-a996-4b15-9696-9e763ae6ed1e"},"vehicle_type_id":"4","last_reported":1752307984,"current_range_meters":24800,"station_id":"ce4bgi12rcd13ifvqb70","pricing_plan_id":"cebpf4jnsgd1na2vs0mg"},{"bike_id":"b181a375-3cb3-4dab-b821-244d6c428038","system_id":"levelo_inurba_marseille","lat":43.29,"lon":5.3562,"is_reserved":false,"is_disabled":false,"rental_uris":{"android":"levelo://app?vid=b181a375-3cb3-4dab-b821-244d6c428038","ios":"levelo://app?vid=b181a375-3cb3-4dab-b821-244d6c428038"},"vehicle_type_id":"4","last_reported":1752307984,"current_range_meters":24400,"station_id":"ce4bhb92rcd13ifvqen0","pricing_plan_id":"cebpf4jnsgd1na2vs0mg"},{"bike_id":"8a01e88a-8371-4085-9838-47ae11897cd3","system_id":"levelo_inurba_marseille","lat":43.281611,"lon":5.426358,"is_reserved":false,"is_disabled":true,"rental_uris":{"android":"levelo://app?vid=8a01e88a-8371-4085-9838-47ae11897cd3","ios":"levelo://app?vid=8a01e88a-8371-4085-9838-47ae11897cd3"},"vehicle_type_id":"4","last_reported":1752307984,"current_range_meters":24800,"station_id":"ce4bhnh2rcd13ifvqgug","pricing_plan_id":"cebpf4jnsgd1na2vs0mg"},{"bike_id":"20d37ed8-3532-4e6d-ba29-6abdde3b6fb4","system_id":"levelo_inurba_marseille","lat":43.306458,"lon":5.400735,"is_reserved":false,"is_disabled":false,"rental_uris":{"android":"levelo://app?vid=20d37ed8-3532-4e6d-ba29-6abdde3b6fb4","ios":"levelo://app?vid=20d37ed8-3532-4e6d-ba29-6abdde3b6fb4"},"vehicle_type_id":"4","last_reported":1752307984,"current_range_meters":24800,"station_id":"ce4bh112rcd13ifvqda0","pricing_plan_id":"cebpf4jnsgd1na2vs0mg"},{"bike_id":"5cb9f2ff-e30c-4f3f-a74a-22aaa10f216c","system_id":"levelo_inurba_marseille","lat":43.27896,"lon":5.38005,"is_reserved":false,"is_disabled":false,"rental_uris":{"android":"levelo://app?vid=5cb9f2ff-e30c-4f3f-a74a-22aaa10f216c","ios":"levelo://app?vid=5cb9f2ff-e30c-4f3f-a74a-22aaa10f216c"},"vehicle_type_id":"4","last_reported":1752307984,"current_range_meters":25200,"station_id":"ce4bhf92rcd13ifvqf50","pricing_plan_id":"cebpf4jnsgd1na2vs0mg"},{"bike_id":"d754a5d6-c2f8-467c-9c96-51a295bacd59","system_id":"levelo_inurba_marseille","lat":43.300241,"lon":5.388889,"is_reserved":false,"is_disabled":false,"rental_uris":{"android":"levelo://app?vid=d754a5d6-c2f8-467c-9c96-51a295bacd59","ios":"levelo://app?vid=d754a5d6-c2f8-467c-9c96-51a295bacd59"},"vehicle_type_id":"4","last_reported":1752307984,"current_range_meters":25200,"station_id":"","pricing_plan_id":"cebpf4jnsgd1na2vs0mg"},{"bike_id":"af9d06e6-2107-496d-9af7-649025158b4d","system_id":"levelo_inurba_marseille","lat":43.255,"lon":5.3765,"is_reserved":false,"is_disabled":false,"rental_uris":{"android":"levelo://app?vid=af9d06e6-2107-496d-9af7-649025158b4d","ios":"levelo://app?vid=af9d06e6-2107-496d-9af7-649025158b4d"},"vehicle_type_id":"4","last_reported":1752307984,"current_range_meters":24800,"station_id":"ce4bhh12rcd13ifvqff0","pricing_plan_id":"cebpf4jnsgd1na2vs0mg"},{"bike_id":"6a994415-0713-47a6-a5af-53a40f71eca0","system_id":"levelo_inurba_marseille","lat":43.30601,"lon":5.39358,"is_reserved":false,"is_disabled":false,"rental_uris":{"android":"levelo://app?vid=6a994415-0713-47a6-a5af-53a40f71eca0","ios":"levelo://app?vid=6a994415-0713-47a6-a5af-53a40f71eca0"},"vehicle_type_id":"4","last_reported":1752307984,"current_range_meters":25200,"station_id":"ce4bh0p2rcd13ifvqd80","pricing_plan_id":"cebpf4jnsgd1na2vs0mg"},{"bike_id":"d1a6a13b-a088-4b49-87ce-a173fa5a1ecd","system_id":"levelo_inurba_marseille","lat":43.284376,"lon":5.391789,"is_reserved":false,"is_disabled":false,"rental_uris":{"android":"levelo://app?vid=d1a6a13b-a088-4b49-87ce-a173fa5a1ecd","ios":"levelo://app?vid=d1a6a13b-a088-4b49-87ce-a173fa5a1ecd"},"vehicle_type_id":"4","last_reported":1752307984,"current_range_meters":25200,"station_id":"ce4bhoh2rcd13ifvqh5g","pricing_plan_id":"cebpf4jnsgd1na2vs0mg"},{"bike_id":"0a98ef1b-cd0c-4340-a7f6-90a5f31d83e8","system_id":"levelo_inurba_marseille","lat":43.279068,"lon":5.380158,"is_reserved":false,"is_disabled":false,"rental_uris":{"android":"levelo://app?vid=0a98ef1b-cd0c-4340-a7f6-90a5f31d83e8","ios":"levelo://app?vid=0a98ef1b-cd0c-4340-a7f6-90a5f31d83e8"},"vehicle_type_id":"4","last_reported":1752307984,"current_range_meters":25200,"station_id":"ce4bhf92rcd13ifvqf50","pricing_plan_id":"cebpf4jnsgd1na2vs0mg"},{"bike_id":"242c47ad-00b1-468a-a9aa-f014b86fd0c6","system_id":"levelo_inurba_marseille","lat":43.28732,"lon":5.36077,"is_reserved":false,"is_disabled":false,"rental_uris":{"android":"levelo://app?vid=242c47ad-00b1-468a-a9aa-f014b86fd0c6","ios":"levelo://app?vid=242c47ad-00b1-468a-a9aa-f014b86fd0c6"},"vehicle_type_id":"4","last_reported":1752307984,"current_range_meters":25200,"station_id":"cki0cbj6b192h4jlfktg","pricing_plan_id":"cebpf4jnsgd1na2vs0mg"},{"bike_id":"47d41b24-5c41-49b5-b17b-2dcc3a39700b","system_id":"levelo_inurba_marseille","lat":43.30919,"lon":5.40139,"is_reserved":false,"is_disabled":false,"rental_uris":{"android":"levelo://app?vid=47d41b24-5c41-49b5-b17b-2dcc3a39700b","ios":"levelo://app?vid=47d41b24-5c41-49b5-b17b-2dcc3a39700b"},"vehicle_type_id":"4","last_reported":1752307984,"current_range_meters":25200,"station_id":"ce4bgvp2rcd13ifvqct0","pricing_plan_id":"cebpf4jnsgd1na2vs0mg"},{"bike_id":"c498e986-cb97-47dd-96a9-84b9685a14d2","system_id":"levelo_inurba_marseille","lat":43.2925,"lon":5.37615,"is_reserved":false,"is_disabled":false,"rental_uris":{"android":"levelo://app?vid=c498e986-cb97-47dd-96a9-84b9685a14d2","ios":"levelo://app?vid=c498e986-cb97-47dd-96a9-84b9685a14d2"},"vehicle_type_id":"4","last_reported":1752307984,"current_range_meters":25200,"station_id":"ce4bgi12rcd13ifvqb80","pricing_plan_id":"cebpf4jnsgd1na2vs0mg"},{"bike_id":"dc0934c9-b1c6-46fc-a8df-2220bd2a37cd","system_id":"levelo_inurba_marseille","lat":43.28152,"lon":5.42644,"is_reserved":false,"is_disabled":false,"rental_uris":{"android":"levelo://app?vid=dc0934c9-b1c6-46fc-a8df-2220bd2a37cd","ios":"levelo://app?vid=dc0934c9-b1c6-46fc-a8df-2220bd2a37cd"},"vehicle_type_id":"4","last_reported":1752307984,"current_range_meters":25200,"station_id":"ce4bhnh2rcd13ifvqgug","pricing_plan_id":"cebpf4jnsgd1na2vs0mg"},{"bike_id":"83934ab4-a6c5-4c21-8285-f107a00aeec6","system_id":"levelo_inurba_marseille","lat":43.30209,"lon":5.39462,"is_reserved":false,"is_disabled":false,"rental_uris":{"android":"levelo://app?vid=83934ab4-a6c5-4c21-8285-f107a00aeec6","ios":"levelo://app?vid=83934ab4-a6c5-4c21-8285-f107a00aeec6"},"vehicle_type_id":"4","last_reported":1752307984,"current_range_meters":25600,"station_id":"ce4bh0p2rcd13ifvqd70","pricing_plan_id":"cebpf4jnsgd1na2vs0mg"},{"bike_id":"276f9de1-8774-4587-a770-7d2c3b06d6a6","system_id":"levelo_inurba_marseille","lat":43.22503,"lon":5.34779,"is_reserved":false,"is_disabled":false,"rental_uris":{"android":"levelo://app?vid=276f9de1-8774-4587-a770-7d2c3b06d6a6","ios":"levelo://app?vid=276f9de1-8774-4587-a770-7d2c3b06d6a6"},"vehicle_type_id":"4","last_reported":1752307984,"current_range_meters":25600,"station_id":"st_cvj5dfep6f1abm77gieg","pricing_plan_id":"cebpf4jnsgd1na2vs0mg"},{"bike_id":"d6bbaae0-e18b-401f-9cac-70bc957296e7","system_id":"levelo_inurba_marseille","lat":43.29792,"lon":5.3711,"is_reserved":false,"is_disabled":false,"rental_uris":{"android":"levelo://app?vid=d6bbaae0-e18b-401f-9cac-70bc957296e7","ios":"levelo://app?vid=d6bbaae0-e18b-401f-9cac-70bc957296e7"},"vehicle_type_id":"4","last_reported":1752307984,"current_range_meters":25600,"station_id":"ce4bgop2rcd13ifvqc1g","pricing_plan_id":"cebpf4jnsgd1na2vs0mg"},{"bike_id":"c70f7e4a-428b-4d76-8d33-710f6eb1d465","system_id":"levelo_inurba_marseille","lat":43.28991,"lon":5.35614,"is_reserved":false,"is_disabled":false,"rental_uris":{"android":"levelo://app?vid=c70f7e4a-428b-4d76-8d33-710f6eb1d465","ios":"levelo://app?vid=c70f7e4a-428b-4d76-8d33-710f6eb1d465"},"vehicle_type_id":"4","last_reported":1752307984,"current_range_meters":25600,"station_id":"ce4bhb92rcd13ifvqen0","pricing_plan_id":"cebpf4jnsgd1na2vs0mg"},{"bike_id":"83700415-ce46-4475-8f56-1f4b237d6934","system_id":"levelo_inurba_marseille","lat":43.30149,"lon":5.38083,"is_reserved":false,"is_disabled":false,"rental_uris":{"android":"levelo://app?vid=83700415-ce46-4475-8f56-1f4b237d6934","ios":"levelo://app?vid=83700415-ce46-4475-8f56-1f4b237d6934"},"vehicle_type_id":"4","last_reported":1752307984,"current_range_meters":25600,"station_id":"ce4bgjp2rcd13ifvqbh0","pricing_plan_id":"cebpf4jnsgd1na2vs0mg"},{"bike_id":"2cd2706c-e07c-4de1-ba52-2f674c2ddd54","system_id":"levelo_inurba_marseille","lat":43.29788,"lon":5.38088,"is_reserved":false,"is_disabled":false,"rental_uris":{"android":"levelo://app?vid=2cd2706c-e07c-4de1-ba52-2f674c2ddd54","ios":"levelo://app?vid=2cd2706c-e07c-4de1-ba52-2f674c2ddd54"},"vehicle_type_id":"4","last_reported":1752307984,"current_range_meters":25600,"station_id":"ce4bgip2rcd13ifvqbb0","pricing_plan_id":"cebpf4jnsgd1na2vs0mg"},{"bike_id":"b66f3974-39c3-4f79-a4b2-f84811ec09f2","system_id":"levelo_inurba_marseille","lat":43.21184,"lon":5.35068,"is_reserved":false,"is_disabled":false,"rental_uris":{"android":"levelo://app?vid=b66f3974-39c3-4f79-a4b2-f84811ec09f2","ios":"levelo://app?vid=b66f3974-39c3-4f79-a4b2-f84811ec09f2"},"vehicle_type_id":"4","last_reported":1752307984,"current_range_meters":25600,"station_id":"st_cvj6sg6p6f1abm77japg","pricing_plan_id":"cebpf4jnsgd1na2vs0mg"},{"bike_id":"66ba76a5-2659-49bb-ad8b-578932663c56","system_id":"levelo_inurba_marseille","lat":43.30864,"lon":5.39607,"is_reserved":false,"is_disabled":false,"rental_uris":{"android":"levelo://app?vid=66ba76a5-2659-49bb-ad8b-578932663c56","ios":"levelo://app?vid=66ba76a5-2659-49bb-ad8b-578932663c56"},"vehicle_type_id":"4","last_reported":1752307984,"current_range_meters":26000,"station_id":"","pricing_plan_id":"cebpf4jnsgd1na2vs0mg"},{"bike_id":"d8bc965b-943e-4571-aa9a-3618ab2d7a09","system_id":"levelo_inurba_marseille","lat":43.24181,"lon":5.39725,"is_reserved":false,"is_disabled":false,"rental_uris":{"android":"levelo://app?vid=d8bc965b-943e-4571-aa9a-3618ab2d7a09","ios":"levelo://app?vid=d8bc965b-943e-4571-aa9a-3618ab2d7a09"},"vehicle_type_id":"4","last_reported":1752307984,"current_range_meters":26000,"station_id":"ce4bhn12rcd13ifvqgpg","pricing_plan_id":"cebpf4jnsgd1na2vs0mg"},{"bike_id":"0b8f2e29-e45d-46b3-8f3b-f4d8617b13e0","system_id":"levelo_inurba_marseille","lat":43.28716,"lon":5.39966,"is_reserved":false,"is_disabled":false,"rental_uris":{"android":"levelo://app?vid=0b8f2e29-e45d-46b3-8f3b-f4d8617b13e0","ios":"levelo://app?vid=0b8f2e29-e45d-46b3-8f3b-f4d8617b13e0"},"vehicle_type_id":"4","last_reported":1752307984,"current_range_meters":26000,"station_id":"ce4bho92rcd13ifvqh3g","pricing_plan_id":"cebpf4jnsgd1na2vs0mg"},