{"last_updated":1738782419,"ttl":60,"version":"2.2","data":{"bikes":[{"bike_id":"82d5170c-9699-418d-ad8c-5f7fb8976221","system_id":"levelo_inurba_marseille","lat":43.29255,"lon":5.36842,"is_reserved":false,"is_disabled":false,"rental_uris":{"android":"levelo://app?vid=82d5170c-9699-418d-ad8c-5f7fb8976221","ios":"levelo://app?vid=82d5170c-9699-418d-ad8c-5f7fb8976221"},"vehicle_type_id":"4","last_reported":1738782419,"current_range_meters":35200,"station_id":"ce4bhbp2rcd13ifvqesg","pricing_plan_id":"cebpf4jnsgd1na2vs0mg"},{"bike_id":"4927017d-00a4-41ad-adcc-553dace88671","system_id":"levelo_inurba_marseille","lat":43.33619,"lon":5.41014,"is_reserved":false,"is_disabled":true,"rental_uris":{"android":"levelo://app?vid=4927017d-00a4-41ad-adcc-553dace88671","ios":"levelo://app?vid=4927017d-00a4-41ad-adcc-553dace88671"},"vehicle_type_id":"4","last_reported":1738782419,"current_range_meters":38800,"station_id":"ce4bhqh2rcd13ifvqhmg","pricing_plan_id":"cebpf4jnsgd1na2vs0mg"},{"bike_id":"eaaf8654-8746-4687-b134-6cab9927ea37","system_id":"levelo_inurba_marseille","lat":43.29028,"lon":5.38635,"is_reserved":false,"is_disabled":false,"rental_uris":{"android":"levelo://app?vid=eaaf8654-8746-4687-b134-6cab9927ea37","ios":"levelo://app?vid=eaaf8654-8746-4687-b134-6cab9927ea37"},"vehicle_type_id":"4","last_reported":1738782419,"current_range_meters":20000,"station_id":"ce4bh4p2rcd13ifvqe0g","pricing_plan_id":"cebpf4jnsgd1na2vs0mg"},{"bike_id":"28e210b1-e961-42d1-9697-bd7c07688d0e","system_id":"levelo_inurba_marseille","lat":43.26238,"lon":5.40459,"is_reserved":false,"is_disabled":false,"rental_uris":{"android":"levelo://app?vid=28e210b1-e961-42d1-9697-bd7c07688d0e","ios":"levelo://app?vid=28e210b1-e961-42d1-9697-bd7c07688d0e"},"vehicle_type_id":"4","last_reported":1738782419,"current_range_meters":9600,"station_id":"ce4bhmh2rcd13ifvqgmg","pricing_plan_id":"cebpf4jnsgd1na2vs0mg"},{"bike_id":"22072124-3fc8-4458-8fd2-fef60edb4e69","system_id":"levelo_inurba_marseille","lat":43.29541,"lon":5.38541,"is_reserved":false,"is_disabled":false,"rental_uris":{"android":"levelo://app?vid=22072124-3fc8-4458-8fd2-fef60edb4e69","ios":"levelo://app?vid=22072124-3fc8-4458-8fd2-fef60edb4e69"},"vehicle_type_id":"4","last_reported":1738782419,"current_range_meters":24800,"station_id":"ce4bgih2rcd13ifvqba0","pricing_plan_id":"cebpf4jnsgd1na2vs0mg"},{"bike_id":"083fcc09-f963-46ec-a4ea-9d563d3af997","system_id":"levelo_inurba_marseille","lat":43.26208,"lon":5.37923,"is_reserved":false,"is_disabled":false,"rental_uris":{"android":"levelo://app?vid=083fcc09-f963-46ec-a4ea-9d563d3af997","ios":"levelo://app?vid=083fcc09-f963-46ec-a4ea-9d563d3af997"},"vehicle_type_id":"4","last_reported":1738782419,"current_range_meters":16800,"station_id":"ce4bhjp2rcd13ifvqg90","pricing_plan_id":"cebpf4jnsgd1na2vs0mg"},{"bike_id":"9562af2d-cd07-4335-b473-b0e9fcb99436","system_id":"levelo_inurba_marseille","lat":43.30142,"lon":5.39873,"is_reserved":false,"is_disabled":false,"rental_uris":{"android":"levelo://app?vid=9562af2d-cd07-4335-b473-b0e9fcb99436","ios":"levelo://app?vid=9562af2d-cd07-4335-b473-b0e9fcb99436"},"vehicle_type_id":"4","last_reported":1738782419,"current_range_meters":27200,"station_id":"ce4bh0h2rcd13ifvqd40","pricing_plan_id":"cebpf4jnsgd1na2vs0mg"},{"bike_id":"3fccfffc-1769-4c42-a537-3863d44ec3c1","system_id":"levelo_inurba_marseille","lat":43.29743,"lon":5.38056,"is_reserved":false,"is_disabled":false,"rental_uris":{"android":"levelo://app?vid=3fccfffc-1769-4c42-a537-3863d44ec3c1","ios":"levelo://app?vid=3fccfffc-1769-4c42-a537-3863d44ec3c1"},"vehicle_type_id":"4","last_reported":1738782419,"current_range_meters":27600,"station_id":"ce4bgkh2rcd13ifvqbk0","pricing_plan_id":"cebpf4jnsgd1na2vs0mg"},{"bike_id":"695c8903-2a1f-4f36-ae79-da101aaac2a2","system_id":"levelo_inurba_marseille","lat":43.23207,"lon":5.39947,"is_reserved":false,"is_disabled":false,"rental_uris":{"android":"levelo://app?vid=695c8903-2a1f-4f36-ae79-da101aaac2a2","ios":"levelo://app?vid=695c8903-2a1f-4f36-ae79-da101aaac2a2"},"vehicle_type_id":"4","last_reported":1738782419,"current_range_meters":20400,"station_id":"ce4bhn12rcd13ifvqgqg","pricing_plan_id":"cebpf4jnsgd1na2vs0mg"},{"bike_id":"60efba71-1f79-4331-8e03-d1cbb62a05fd","system_id":"levelo_inurba_marseille","lat":43.23193,"lon":5.39979,"is_reserved":false,"is_disabled":false,"rental_uris":{"android":"levelo://app?vid=60efba71-1f79-4331-8e03-d1cbb62a05fd","ios":"levelo://app?vid=60efba71-1f79-4331-8e03-d1cbb62a05fd"},"vehicle_type_id":"4","last_reported":1738782419,"current_range_meters":21600,"station_id":"ce4bhn12rcd13ifvqgqg","pricing_plan_id":"cebpf4jnsgd1na2vs0mg"},{"bike_id":"efb747f6-3c89-496a-9a3b-f329231cdef1","system_id":"levelo_inurba_marseille","lat":43.30222,"lon":5.39464,"is_reserved":false,"is_disabled":false,"rental_uris":{"android":"levelo://app?vid=efb747f6-3c89-496a-9a3b-f329231cdef1","ios":"levelo://app?vid=efb747f6-3c89-496a-9a3b-f329231cdef1"},"vehicle_type_id":"4","last_reported":1738782419,"current_range_meters":18000,"station_id":"ce4bh0p2rcd13ifvqd70","pricing_plan_id":"cebpf4jnsgd1na2vs0mg"},{"bike_id":"991c7de2-eee4-4288-bb1b-b211acf198b1","system_id":"levelo_inurba_marseille","lat":43.2952,"lon":5.38538,"is_reserved":false,"is_disabled":false,"rental_uris":{"android":"levelo://app?vid=991c7de2-eee4-4288-bb1b-b211acf198b1","ios":"levelo://app?vid=991c7de2-eee4-4288-bb1b-b211acf198b1"},"vehicle_type_id":"4","last_reported":1738782419,"current_range_meters":10800,"station_id":"ce4bgih2rcd13ifvqba0","pricing_plan_id":"cebpf4jnsgd1na2vs0mg"},{"bike_id":"767ebf90-f2e1-4748-b445-4c19d1519f1b","system_id":"levelo_inurba_marseille","lat":43.29253,"lon":5.38449,"is_reserved":false,"is_disabled":false,"rental_uris":{"android":"levelo://app?vid=767ebf90-f2e1-4748-b445-4c19d1519f1b","ios":"levelo://app?vid=767ebf90-f2e1-4748-b445-4c19d1519f1b"},"vehicle_type_id":"4","last_reported":1738782419,"current_range_meters":29600,"station_id":"ce4bh692rcd13ifvqea0","pricing_plan_id":"cebpf4jnsgd1na2vs0mg"},{"bike_id":"96559f85-f0b0-4a89-9803-99a731c200eb","system_id":"levelo_inurba_marseille","lat":43.31626,"lon":5.3829,"is_reserved":false,"is_disabled":false,"rental_uris":{"android":"levelo://app?vid=96559f85-f0b0-4a89-9803-99a731c200eb","ios":"levelo://app?vid=96559f85-f0b0-4a89-9803-99a731c200eb"},"vehicle_type_id":"4","last_reported":1738782419,"current_range_meters":36800,"station_id":"","pricing_plan_id":"cebpf4jnsgd1na2vs0mg"},{"bike_id":"c47151b7-6300-4d10-af3b-e7f427fdce45","system_id":"levelo_inurba_marseille","lat":43.29735,"lon":5.37708,"is_reserved":false,"is_disabled":true,"rental_uris":{"android":"levelo://app?vid=c47151b7-6300-4d10-af3b-e7f427fdce45","ios":"levelo://app?vid=c47151b7-6300-4d10-af3b-e7f427fdce45"},"vehicle_type_id":"4","last_reported":1738782419,"current_range_meters":24400,"station_id":"ce4bgkh2rcd13ifvqbl0","pricing_plan_id":"cebpf4jnsgd1na2vs0mg"},{"bike_id":"fe4eda7a-df34-4c44-bd35-a4db53885b6b","system_id":"levelo_inurba_marseille","lat":43.30096,"lon":5.39075,"is_reserved":false,"is_disabled":false,"rental_uris":{"android":"levelo://app?vid=fe4eda7a-df34-4c44-bd35-a4db53885b6b","ios":"levelo://app?vid=fe4eda7a-df34-4c44-bd35-a4db53885b6b"},"vehicle_type_id":"4","last_reported":1738782419,"current_range_meters":22800,"station_id":"ce4bh192rcd13ifvqdb0","pricing_plan_id":"cebpf4jnsgd1na2vs0mg"},{"bike_id":"5096573c-91b5-4931-902e-4b97b22bd12d","system_id":"levelo_inurba_marseille","lat":43.25121,"lon":5.40312,"is_reserved":false,"is_disabled":false,"rental_uris":{"android":"levelo://app?vid=5096573c-91b5-4931-902e-4b97b22bd12d","ios":"levelo://app?vid=5096573c-91b5-4931-902e-4b97b22bd12d"},"vehicle_type_id":"4","last_reported":1738782419,"current_range_meters":7200,"station_id":"ce4bhlh2rcd13ifvqgig","pricing_plan_id":"cebpf4jnsgd1na2vs0mg"},{"bike_id":"af7d62a3-9dd4-4a14-8ce3-460ca17c81d5","system_id":"levelo_inurba_marseille","lat":43.33041,"lon":5.39045,"is_reserved":false,"is_disabled":false,"rental_uris":{"android":"levelo://app?vid=af7d62a3-9dd4-4a14-8ce3-460ca17c81d5","ios":"levelo://app?vid=af7d62a3-9dd4-4a14-8ce3-460ca17c81d5"},"vehicle_type_id":"4","last_reported":1738782419,"current_range_meters":28400,"station_id":"ce4bhr92rcd13ifvqhrg","pricing_plan_id":"cebpf4jnsgd1na2vs0mg"},{"bike_id":"29734b6f-ef62-4506-813a-78030c06b50a","system_id":"levelo_inurba_marseille","lat":43.28447,"lon":5.3921,"is_reserved":false,"is_disabled":false,"rental_uris":{"android":"levelo://app?vid=29734b6f-ef62-4506-813a-78030c06b50a","ios":"levelo://app?vid=29734b6f-ef62-4506-813a-78030c06b50a"},"vehicle_type_id":"4","last_reported":1738782419,"current_range_meters":14400,"station_id":"ce4bhoh2rcd13ifvqh5g","pricing_plan_id":"cebpf4jnsgd1na2vs0mg"},{"bike_id":"7eaacd34-10f9-4246-8aa1-4a22e07a7c06","system_id":"levelo_inurba_marseille","lat":43.31675,"lon":5.37389,"is_reserved":false,"is_disabled":false,"rental_uris":{"android":"levelo://app?vid=7eaacd34-10f9-4246-8aa1-4a22e07a7c06","ios":"levelo://app?vid=7eaacd34-10f9-4246-8aa1-4a22e07a7c06"},"vehicle_type_id":"4","last_reported":1738782419,"current_range_meters":25600,"station_id":"","pricing_plan_id":"cebpf4jnsgd1na2vs0mg"},{"bike_id":"b85d0f36-4ceb-47ae-b932-72d8372ef081","system_id":"levelo_inurba_marseille","lat":43.23234,"lon":5.39876,"is_reserved":false,"is_disabled":false,"rental_uris":{"android":"levelo://app?vid=b85d0f36-4ceb-47ae-b932-72d8372ef081","ios":"levelo://app?vid=b85d0f36-4ceb-47ae-b932-72d8372ef081"},"vehicle_type_id":"4","last_reported":1738782419,"current_range_meters":38800,"station_id":"","pricing_plan_id":"cebpf4jnsgd1na2vs0mg"},{"bike_id":"695c8159-ac4a-408d-a3d5-26e203af1693","system_id":"levelo_inurba_marseille","lat":43.33022,"lon":5.39036,"is_reserved":false,"is_disabled":false,"rental_uris":{"android":"levelo://app?vid=695c8159-ac4a-408d-a3d5-26e203af1693","ios":"levelo://app?vid=695c8159-ac4a-408d-a3d5-26e203af1693"},"vehicle_type_id":"4","last_reported":1738782419,"current_range_meters":36800,"station_id":"ce4bhr92rcd13ifvqhrg","pricing_plan_id":"cebpf4jnsgd1na2vs0mg"},{"bike_id":"19cfb078-9854-4658-91b7-e1746e55420c","system_id":"levelo_inurba_marseille","lat":43.31536,"lon":5.38035,"is_reserved":false,"is_disabled":false,"rental_uris":{"android":"levelo://app?vid=19cfb078-9854-4658-91b7-e1746e55420c","ios":"levelo://app?vid=19cfb078-9854-4658-91b7-e1746e55420c"},"vehicle_type_id":"4","last_reported":1738782419,"current_range_meters":38800,"station_id":"ce4bhsp2rcd13ifvqi50","pricing_plan_id":"cebpf4jnsgd1na2vs0mg"},{"bike_id":"321a7fe4-6953-4c8f-9479-aca227879548","system_id":"levelo_inurba_marseille","lat":43.23968,"lon":5.3664,"is_reserved":false,"is_disabled":false,"rental_uris":{"android":"levelo://app?vid=321a7fe4-6953-4c8f-9479-aca227879548","ios":"levelo://app?vid=321a7fe4-6953-4c8f-9479-aca227879548"},"vehicle_type_id":"4","last_reported":1738782419,"current_range_meters":38400,"station_id":"ce4bhi12rcd13ifvqfp0","pricing_plan_id":"cebpf4jnsgd1na2vs0mg"},{"bike_id":"11c556d6-c6b7-4156-aeb0-e99ce30fdcd7","system_id":"levelo_inurba_marseille","lat":43.24826,"lon":5.37454,"is_reserved":false,"is_disabled":false,"rental_uris":{"android":"levelo://app?vid=11c556d6-c6b7-4156-aeb0-e99ce30fdcd7","ios":"levelo://app?vid=11c556d6-c6b7-4156-aeb0-e99ce30fdcd7"},"vehicle_type_id":"4","last_reported":1738782419,"current_range_meters":22800,"station_id":"ce4bhgh2rcd13ifvqfb0","pricing_plan_id":"cebpf4jnsgd1na2vs0mg"},{"bike_id":"bd42563d-6ded-4a27-8446-f13fff32889d","system_id":"levelo_inurba_marseille","lat":43.31761,"lon":5.39015,"is_reserved":false,"is_disabled":false,"rental_uris":{"android":"levelo://app?vid=bd42563d-6ded-4a27-8446-f13fff32889d","ios":"levelo://app?vid=bd42563d-6ded-4a27-8446-f13fff32889d"},"vehicle_type_id":"4","last_reported":1738782419,"current_range_meters":39200,"station_id":"ce4bhqp2rcd13ifvqhng","pricing_plan_id":"cebpf4jnsgd1na2vs0mg"},{"bike_id":"2158d990-2fb6-4cd8-83b9-d6e0ea3ec7e7","system_id":"levelo_inurba_marseille","lat":43.29274,"lon":5.40112,"is_reserved":false,"is_disabled":false,"rental_uris":{"android":"levelo://app?vid=2158d990-2fb6-4cd8-83b9-d6e0ea3ec7e7","ios":"levelo://app?vid=2158d990-2fb6-4cd8-83b9-d6e0ea3ec7e7"},"vehicle_type_id":"4","last_reported":1738782419,"current_range_meters":25200,"station_id":"ce4bh312rcd13ifvqdk0","pricing_plan_id":"cebpf4jnsgd1na2vs0mg"},{"bike_id":"85506d97-0f87-4df9-ad07-8dd2dedad0b3","system_id":"levelo_inurba_marseille","lat":43.27236,"lon":5.39164,"is_reserved":false,"is_disabled":true,"rental_uris":{"android":"levelo://app?vid=85506d97-0f87-4df9-ad07-8dd2dedad0b3","ios":"levelo://app?vid=85506d97-0f87-4df9-ad07-8dd2dedad0b3"},"vehicle_type_id":"4","last_reported":1738782419,"current_range_meters":36800,"station_id":"ce4bhhp2rcd13ifvqfm0","pricing_plan_id":"cebpf4jnsgd1na2vs0mg"},{"bike_id":"a1a7079b-68b5-45ca-9af8-b6bc9f7cd559","system_id":"levelo_inurba_marseille","lat":43.22925,"lon":5.35381,"is_reserved":false,"is_disabled":false,"rental_uris":{"android":"levelo://app?vid=a1a7079b-68b5-45ca-9af8-b6bc9f7cd559","ios":"levelo://app?vid=a1a7079b-68b5-45ca-9af8-b6bc9f7cd559"},"vehicle_type_id":"4","last_reported":1738782419,"current_range_meters":39200,"station_id":"cpo3532slgdg3j2ikp40","pricing_plan_id":"cebpf4jnsgd1na2vs0mg"},{"bike_id":"e76be20c-9015-465c-9eee-e0b85ab2de66","system_id":"levelo_inurba_marseille","lat":43.30302,"lon":5.39187,"is_reserved":false,"is_disabled":false,"rental_uris":{"android":"levelo://app?vid=e76be20c-9015-465c-9eee-e0b85ab2de66","ios":"levelo://app?vid=e76be20c-9015-465c-9eee-e0b85ab2de66"},"vehicle_type_id":"4","last_reported":1738782419,"current_range_meters":39200,"station_id":"ce4bgkh2rcd13ifvqbk0","pricing_plan_id":"cebpf4jnsgd1na2vs0mg"},{"bike_id":"b2660fa8-4e11-4fe9-a0db-a5dbdd15312e","system_id":"levelo_inurba_marseille","lat":43.24391,"lon":5.37056,"is_reserved":false,"is_disabled":false,"rental_uris":{"android":"levelo://app?vid=b2660fa8-4e11-4fe9-a0db-a5dbdd15312e","ios":"levelo://app?vid=b2660fa8-4e11-4fe9-a0db-a5dbdd15312e"},"vehicle_type_id":"4","last_reported":1738782419,"current_range_meters":8000,"station_id":"ce4bhhh2rcd13ifvqfk0","pricing_plan_id":"cebpf4jnsgd1na2vs0mg"},{"bike_id":"b5a42769-cb7c-4f74-b744-34ef9279a48b","system_id":"levelo_inurba_marseille","lat":43.24806,"lon":5.37456,"is_reserved":false,"is_disabled":false,"rental_uris":{"android":"levelo://app?vid=b5a42769-cb7c-4f74-b744-34ef9279a48b","ios":"levelo://app?vid=b5a42769-cb7c-4f74-b744-34ef9279a48b"},"vehicle_type_id":"4","last_reported":1738782419,"current_range_meters":16000,"station_id":"ce4bhgh2rcd13ifvqfb0","pricing_plan_id":"cebpf4jnsgd1na2vs0mg"},{"bike_id":"9bed730f-1adf-4444-a5ac-fa2d282ef048","system_id":"levelo_inurba_marseille","lat":43.3082,"lon":5.43533,"is_reserved":false,"is_disabled":false,"rental_uris":{"android":"levelo://app?vid=9bed730f-1adf-4444-a5ac-fa2d282ef048","ios":"levelo://app?vid=9bed730f-1adf-4444-a5ac-fa2d282ef048"},"vehicle_type_id":"4","last_reported":1738782419,"current_range_meters":7200,"station_id":"ce4bhph2rcd13ifvqheg","pricing_plan_id":"cebpf4jnsgd1na2vs0mg"},{"bike_id":"90a632dc-8770-4ff7-bcdd-5fa1aee85843","system_id":"levelo_inurba_marseille","lat":43.29525,"lon":5.37494,"is_reserved":false,"is_disabled":false,"rental_uris":{"android":"levelo://app?vid=90a632dc-8770-4ff7-bcdd-5fa1aee85843","ios":"levelo://app?vid=90a632dc-8770-4ff7-bcdd-5fa1aee85843"},"vehicle_type_id":"4","last_reported":1738782419,"current_range_meters":36800,"station_id":"ce4bgkp2rcd13ifvqbmg","pricing_plan_id":"cebpf4jnsgd1na2vs0mg"},{"bike_id":"f423adf0-93aa-4c47-9d8a-b1e2e7e85005","system_id":"levelo_inurba_marseille","lat":43.284321,"lon":5.350004,"is_reserved":false,"is_disabled":true,"rental_uris":{"android":"levelo://app?vid=f423adf0-93aa-4c47-9d8a-b1e2e7e85005","ios":"levelo://app?vid=f423adf0-93aa-4c47-9d8a-b1e2e7e85005"},"vehicle_type_id":"4","last_reported":1738782419,"current_range_meters":9600,"station_id":"ce4bhbh2rcd13ifvqepg","pricing_plan_id":"cebpf4jnsgd1na2vs0mg"},{"bike_id":"28e814d5-4407-4077-a3f3-b04d77aefc7f","system_id":"levelo_inurba_marseille","lat":43.28614,"lon":5.35104,"is_reserved":false,"is_disabled":false,"rental_uris":{"android":"levelo://app?vid=28e814d5-4407-4077-a3f3-b04d77aefc7f","ios":"levelo://app?vid=28e814d5-4407-4077-a3f3-b04d77aefc7f"},"vehicle_type_id":"4","last_reported":1738782419,"current_range_meters":15200,"station_id":"ce4bhch2rcd13ifvqeug","pricing_plan_id":"cebpf4jnsgd1na2vs0mg"},{"bike_id":"92cb1359-6ba2-4a7e-87ab-429c4cdcfede","system_id":"levelo_inurba_marseille","lat":43.29523,"lon":5.39041,"is_reserved":false,"is_disabled":false,"rental_uris":{"android":"levelo://app?vid=92cb1359-6ba2-4a7e-87ab-429c4cdcfede","ios":"levelo://app?vid=92cb1359-6ba2-4a7e-87ab-429c4cdcfede"},"vehicle_type_id":"4","last_reported":1738782419,"current_range_meters":35200,"station_id":"ce4bh3p2rcd13ifvqdp0","pricing_plan_id":"cebpf4jnsgd1na2vs0mg"},{"bike_id":"f3bafdbf-8244-4697-a11a-b058f3121200","system_id":"levelo_inurba_marseille","lat":43.292624,"lon":5.384443,"is_reserved":false,"is_disabled":false,"rental_uris":{"android":"levelo://app?vid=f3bafdbf-8244-4697-a11a-b058f3121200","ios":"levelo://app?vid=f3bafdbf-8244-4697-a11a-b058f3121200"},"vehicle_type_id":"4","last_reported":1738782419,"current_range_meters":6400,"station_id":"ce4bh692rcd13ifvqea0","pricing_plan_id":"cebpf4jnsgd1na2vs0mg"},{"bike_id":"fc5e7914-d569-4a06-83ba-595cdcc60603","system_id":"levelo_inurba_marseille","lat":43.30299,"lon":5.39207,"is_reserved":false,"is_disabled":false,"rental_uris":{"android":"levelo://app?vid=fc5e7914-d569-4a06-83ba-595cdcc60603","ios":"levelo://app?vid=fc5e7914-d569-4a06-83ba-595cdcc60603"},"vehicle_type_id":"4","last_reported":1738782419,"current_range_meters":29600,"station_id":"ce4bgkh2rcd13ifvqbk0","pricing_plan_id":"cebpf4jnsgd1na2vs0mg"},{"bike_id":"22d7d5c8-23b1-4a29-9d97-2595194d451f","system_id":"levelo_inurba_marseille","lat":43.28104,"lon":5.37833,"is_reserved":false,"is_disabled":false,"rental_uris":{"android":"levelo://app?vid=22d7d5c8-23b1-4a29-9d97-2595194d451f","ios":"levelo://app?vid=22d7d5c8-23b1-4a29-9d97-2595194d451f"},"vehicle_type_id":"4","last_reported":1738782419,"current_range_meters":39200,"station_id":"ce4bha12rcd13ifvqee0","pricing_plan_id":"cebpf4jnsgd1na2vs0mg"},{"bike_id":"6bba36c7-75a6-4b1b-96cb-c03d219a6faa","system_id":"levelo_inurba_marseille","lat":43.33029,"lon":5.39035,"is_reserved":false,"is_disabled":false,"rental_uris":{"android":"levelo://app?vid=6bba36c7-75a6-4b1b-96cb-c03d219a6faa","ios":"levelo://app?vid=6bba36c7-75a6-4b1b-96cb-c03d219a6faa"},"vehicle_type_id":"4","last_reported":1738782419,"current_range_meters":36800,"station_id":"ce4bhr92rcd13ifvqhrg","pricing_plan_id":"cebpf4jnsgd1na2vs0mg"},{"bike_id":"5010ca19-df83-42ac-9a06-ec42d2768688","system_id":"levelo_inurba_marseille","lat":43.2606,"lon":5.39404,"is_reserved":false,"is_disabled":false,"rental_uris":{"android":"levelo://app?vid=5010ca19-df83-42ac-9a06-ec42d2768688","ios":"levelo://app?vid=5010ca19-df83-42ac-9a06-ec42d2768688"},"vehicle_type_id":"4","last_reported":1738782419,"current_range_meters":3600,"station_id":"ce4bhh92rcd13ifvqfj0","pricing_plan_id":"cebpf4jnsgd1na2vs0mg"},{"bike_id":"1af63a99-36b1-4f29-8c78-2e71539c52b6","system_id":"levelo_inurba_marseille","lat":43.28106,"lon":5.37848,"is_reserved":false,"is_disabled":false,"rental_uris":{"android":"levelo://app?vid=1af63a99-36b1-4f29-8c78-2e71539c52b6","ios":"levelo://app?vid=1af63a99-36b1-4f29-8c78-2e71539c52b6"},"vehicle_type_id":"4","last_reported":1738782419,"current_range_meters":28800,"station_id":"ce4bha12rcd13ifvqee0","pricing_plan_id":"cebpf4jnsgd1na2vs0mg"},{"bike_id":"40e17bf3-1935-4b88-92e4-5eee35fae096","system_id":"levelo_inurba_marseille","lat":43.30213,"lon":5.39464,"is_reserved":false,"is_disabled":false,"rental_uris":{"android":"levelo://app?vid=40e17bf3-1935-4b88-92e4-5eee35fae096","ios":"levelo://app?vid=40e17bf3-1935-4b88-92e4-5eee35fae096"},"vehicle_type_id":"4","last_reported":1738782419,"current_range_meters":24400,"station_id":"ce4bh0p2rcd13ifvqd70","pricing_plan_id":"cebpf4jnsgd1na2vs0mg"},{"bike_id":"c90bee22-93e6-4769-a402-7c2dd626c38f","system_id":"levelo_inurba_marseille","lat":43.27634,"lon":5.36116,"is_reserved":false,"is_disabled":false,"rental_uris":{"android":"levelo://app?vid=c90bee22-93e6-4769-a402-7c2dd626c38f","ios":"levelo://app?vid=c90bee22-93e6-4769-a402-7c2dd626c38f"},"vehicle_type_id":"4","last_reported":1738782419,"current_range_meters":36800,"station_id":"ce4bgj92rcd13ifvqbe0","pricing_plan_id":"cebpf4jnsgd1na2vs0mg"},{"bike_id":"56ec3037-73f2-4dea-95b9-0161b73a13cd","system_id":"levelo_inurba_marseille","lat":43.28159,"lon":5.42637,"is_reserved":false,"is_disabled":false,"rental_uris":{"android":"levelo://app?vid=56ec3037-73f2-4dea-95b9-0161b73a13cd","ios":"levelo://app?vid=56ec3037-73f2-4dea-95b9-0161b73a13cd"},"vehicle_type_id":"4","last_reported":1738782419,"current_range_meters":16800,"station_id":"ce4bhnh2rcd13ifvqgug","pricing_plan_id":"cebpf4jnsgd1na2vs0mg"},{"bike_id":"865da38e-7662-4cd0-8259-ddab14436918","system_id":"levelo_inurba_marseille","lat":43.28436,"lon":5.39178,"is_reserved":false,"is_disabled":false,"rental_uris":{"android":"levelo://app?vid=865da38e-7662-4cd0-8259-ddab14436918","ios":"levelo://app?vid=865da38e-7662-4cd0-8259-ddab14436918"},"vehicle_type_id":"4","last_reported":1738782419,"current_range_meters":38800,"station_id":"ce4bhoh2rcd13ifvqh5g","pricing_plan_id":"cebpf4jnsgd1na2vs0mg"},{"bike_id":"f62e4731-8fd1-4067-b60f-8f9cb91092e5","system_id":"levelo_inurba_marseille","lat":43.31122,"lon":5.37773,"is_reserved":false,"is_disabled":false,"rental_uris":{"android":"levelo://app?vid=f62e4731-8fd1-4067-b60f-8f9cb91092e5","ios":"levelo://app?vid=f62e4731-8fd1-4067-b60f-8f9cb91092e5"},"vehicle_type_id":"4","last_reported":1738782419,"current_range_meters":20800,"station_id":"ce4bgt92rcd13ifvqcg0","pricing_plan_id":"cebpf4jnsgd1na2vs0mg"},{"bike_id":"934d774b-675f-4d9b-9eed-3a29b86466f7","system_id":"levelo_inurba_marseille","lat":43.28937,"lon":5.36624,"is_reserved":false,"is_disabled":false,"rental_uris":{"android":"levelo://app?vid=934d774b-675f-4d9b-9eed-3a29b86466f7","ios":"levelo://app?vid=934d774b-675f-4d9b-9eed-3a29b86466f7"},"vehicle_type_id":"4","last_reported":1738782419,"current_range_meters":35600,"station_id":"ce4bhap2rcd13ifvqek0","pricing_plan_id":"cebpf4jnsgd1na2vs0mg"},{"bike_id":"585829b3-6401-45a0-8835-1ef0bbd3a57c","system_id":"levelo_inurba_marseille","lat":43.28147,"lon":5.42636,"is_reserved":false,"is_disabled":false,"rental_uris":{"android":"levelo://app?vid=585829b3-6401-45a0-8835-1ef0bbd3a57c","ios":"levelo://app?vid=585829b3-6401-45a0-8835-1ef0bbd3a57c"},"vehicle_type_id":"4","last_reported":1738782419,"current_range_meters":28000,"station_id":"ce4bhnh2rcd13ifvqgug","pricing_plan_id":"cebpf4jnsgd1na2vs0mg"},{"bike_id":"4a71a176-eb41-4410-abfa-fed6dcd64cff","system_id":"levelo_inurba_marseille","lat":43.31177,"lon":5.38708,"is_reserved":false,"is_disabled":false,"rental_uris":{"android":"levelo://app?vid=4a71a176-eb41-4410-abfa-fed6dcd64cff","ios":"levelo://app?vid=4a71a176-eb41-4410-abfa-fed6dcd64cff"},"vehicle_type_id":"4","last_reported":1738782419,"current_range_meters":24000,"station_id":"ce4bgv12rcd13ifvqcp0","pricing_plan_id":"cebpf4jnsgd1na2vs0mg"},{"bike_id":"2cd60774-c2f8-4e8f-9236-a6b0c03a1062","system_id":"levelo_inurba_marseille","lat":43.28083,"lon":5.39643,"is_reserved":false,"is_disabled":false,"rental_uris":{"android":"levelo://app?vid=2cd60774-c2f8-4e8f-9236-a6b0c03a1062","ios":"levelo://app?vid=2cd60774-c2f8-4e8f-9236-a6b0c03a1062"},"vehicle_type_id":"4","last_reported":1738782419,"current_range_meters":12400,"station_id":"ce4bho12rcd13ifvqh2g","pricing_plan_id":"cebpf4jnsgd1na2vs0mg"},{"bike_id":"26224e4b-c230-413d-a160-7493a0237940","system_id":"levelo_inurba_marseille","lat":43.29418,"lon":5.38624,"is_reserved":false,"is_disabled":false,"rental_uris":{"android":"levelo://app?vid=26224e4b-c230-413d-a160-7493a0237940","ios":"levelo://app?vid=26224e4b-c230-413d-a160-7493a0237940"},"vehicle_type_id":"4","last_reported":1738782419,"current_range_meters":22800,"station_id":"ce4bh2h2rcd13ifvqdh0","pricing_plan_id":"cebpf4jnsgd1na2vs0mg"},{"bike_id":"58ab78f5-67e4-4251-b69d-a8899c0ee627","system_id":"levelo_inurba_marseille","lat":43.2795,"lon":5.41045,"is_reserved":false,"is_disabled":false,"rental_uris":{"android":"levelo://app?vid=58ab78f5-67e4-4251-b69d-a8899c0ee627","ios":"levelo://app?vid=58ab78f5-67e4-4251-b69d-a8899c0ee627"},"vehicle_type_id":"4","last_reported":1738782419,"current_range_meters":24000,"station_id":"ce4bhnp2rcd13ifvqh0g","pricing_plan_id":"cebpf4jnsgd1na2vs0mg"},{"bike_id":"6712f04b-f35d-4e3a-a70d-c89aec85d9b2","system_id":"levelo_inurba_marseille","lat":43.22937,"lon":5.35361,"is_reserved":false,"is_disabled":false,"rental_uris":{"android":"levelo://app?vid=6712f04b-f35d-4e3a-a70d-c89aec85d9b2","ios":"levelo://app?vid=6712f04b-f35d-4e3a-a70d-c89aec85d9b2"},"vehicle_type_id":"4","last_reported":1738782419,"current_range_meters":38800,"station_id":"cpo3532slgdg3j2ikp40","pricing_plan_id":"cebpf4jnsgd1na2vs0mg"},{"bike_id":"9470dd73-7393-47ca-8f05-fd76cdac2879","system_id":"levelo_inurba_marseille","lat":43.24068,"lon":5.37756,"is_reserved":false,"is_disabled":false,"rental_uris":{"android":"levelo://app?vid=9470dd73-7393-47ca-8f05-fd76cdac2879","ios":"levelo://app?vid=9470dd73-7393-47ca-8f05-fd76cdac2879"},"vehicle_type_id":"4","last_reported":1738782419,"current_range_meters":39200,"station_id":"ce4bhnp2rcd13ifvqgvg","pricing_plan_id":"cebpf4jnsgd1na2vs0mg"},{"bike_id":"c8193f61-b798-45ec-afd5-ed0015f66360","system_id":"levelo_inurba_marseille","lat":43.29527,"lon":5.39048,"is_reserved":false,"is_disabled":false,"rental_uris":{"android":"levelo://app?vid=c8193f61-b798-45ec-afd5-ed0015f66360","ios":"levelo://app?vid=c8193f61-b798-45ec-afd5-ed0015f66360"},"vehicle_type_id":"4","last_reported":1738782419,"current_range_meters":34800,"station_id":"ce4bh3p2rcd13ifvqdp0","pricing_plan_id":"cebpf4jnsgd1na2vs0mg"},{"bike_id":"cb2e142b-8956-4e08-816f-7dc7ab66ecae","system_id":"levelo_inurba_marseille","lat":43.31715,"lon":5.377465,"is_reserved":false,"is_disabled":false,"rental_uris":{"android":"levelo://app?vid=cb2e142b-8956-4e08-816f-7dc7ab66ecae","ios":"levelo://app?vid=cb2e142b-8956-4e08-816f-7dc7ab66ecae"},"vehicle_type_id":"4","last_reported":1738782419,"current_range_meters":39200,"station_id":"ce4bgth2rcd13ifvqch0","pricing_plan_id":"cebpf4jnsgd1na2vs0mg"},{"bike_id":"dd390747-ee54-48ac-8c84-ed3e510827d1","system_id":"levelo_inurba_marseille","lat":43.291679,"lon":5.371558,"is_reserved":false,"is_disabled":false,"rental_uris":{"android":"levelo://app?vid=dd390747-ee54-48ac-8c84-ed3e510827d1","ios":"levelo://app?vid=dd390747-ee54-48ac-8c84-ed3e510827d1"},"vehicle_type_id":"4","last_reported":1738782419,"current_range_meters":38800,"station_id":"ce4bha92rcd13ifvqeh0","pricing_plan_id":"cebpf4jnsgd1na2vs0mg"},{"bike_id":"73fce39a-9295-4170-b814-54a116608c46","system_id":"levelo_inurba_marseille","lat":43.3189,"lon":5.40754,"is_reserved":false,"is_disabled":false,"rental_uris":{"android":"levelo://app?vid=73fce39a-9295-4170-b814-54a116608c46","ios":"levelo://app?vid=73fce39a-9295-4170-b814-54a116608c46"},"vehicle_type_id":"4","last_reported":1738782419,"current_range_meters":38800,"station_id":"ce4bhq12rcd13ifvqhig","pricing_plan_id":"cebpf4jnsgd1na2vs0mg"},{"bike_id":"0a340a50-c9b3-4c87-88da-a62208ff40c7","system_id":"levelo_inurba_marseille","lat":43.30556,"lon":5.36699,"is_reserved":false,"is_disabled":false,"rental_uris":{"android":"levelo://app?vid=0a340a50-c9b3-4c87-88da-a62208ff40c7","ios":"levelo://app?vid=0a340a50-c9b3-4c87-88da-a62208ff40c7"},"vehicle_type_id":"4","last_reported":1738782419,"current_range_meters":36800,"station_id":"ce4bgrp2rcd13ifvqc9g","pricing_plan_id":"cebpf4jnsgd1na2vs0mg"},{"bike_id":"d2883f5c-c74b-4794-a67e-fcb675612689","system_id":"levelo_inurba_marseille","lat":43.29875,"lon":5.39741,"is_reserved":false,"is_disabled":false,"rental_uris":{"android":"levelo://app?vid=d2883f5c-c74b-4794-a67e-fcb675612689","ios":"levelo://app?vid=d2883f5c-c74b-4794-a67e-fcb675612689"},"vehicle_type_id":"4","last_reported":1738782419,"current_range_meters":37600,"station_id":"ce4bh0h2rcd13ifvqd50","pricing_plan_id":"cebpf4jnsgd1na2vs0mg"},{"bike_id":"63c4f6ea-34fd-4775-9317-71a688c6e1d3","system_id":"levelo_inurba_marseille","lat":43.28671,"lon":5.38675,"is_reserved":false,"is_disabled":false,"rental_uris":{"android":"levelo://app?vid=63c4f6ea-34fd-4775-9317-71a688c6e1d3","ios":"levelo://app?vid=63c4f6ea-34fd-4775-9317-71a688c6e1d3"},"vehicle_type_id":"4","last_reported":1738782419,"current_range_meters":38400,"station_id":"ce4bh492rcd13ifvqdug","pricing_plan_id":"cebpf4jnsgd1na2vs0mg"},{"bike_id":"0cb9786e-4e78-420f-9e41-3b8b8774ff4c","system_id":"levelo_inurba_marseille","lat":43.29868,"lon":5.38896,"is_reserved":false,"is_disabled":false,"rental_uris":{"android":"levelo://app?vid=0cb9786e-4e78-420f-9e41-3b8b8774ff4c","ios":"levelo://app?vid=0cb9786e-4e78-420f-9e41-3b8b8774ff4c"},"vehicle_type_id":"4","last_reported":1738782419,"current_range_meters":34800,"station_id":"ce4bh392rcd13ifvqdl0","pricing_plan_id":"cebpf4jnsgd1na2vs0mg"},{"bike_id":"6fa58392-3c6e-405d-9a0d-8612c55d9e3f","system_id":"levelo_inurba_marseille","lat":43.29251,"lon":5.38452,"is_reserved":false,"is_disabled":false,"rental_uris":{"android":"levelo://app?vid=6fa58392-3c6e-405d-9a0d-8612c55d9e3f","ios":"levelo://app?vid=6fa58392-3c6e-405d-9a0d-8612c55d9e3f"},"vehicle_type_id":"4","last_reported":1738782419,"current_range_meters":38800,"station_id":"ce4bh692rcd13ifvqea0","pricing_plan_id":"cebpf4jnsgd1na2vs0mg"},{"bike_id":"091d41d7-c1d3-4cdf-9b5c-052439e6b669","system_id":"levelo_inurba_marseille","lat":43.30494,"lon":5.36684,"is_reserved":false,"is_disabled":true,"rental_uris":{"android":"levelo://app?vid=091d41d7-c1d3-4cdf-9b5c-052439e6b669","ios":"levelo://app?vid=091d41d7-c1d3-4cdf-9b5c-052439e6b669"},"vehicle_type_id":"4","last_reported":1738782419,"current_range_meters":25600,"station_id":"","pricing_plan_id":"cebpf4jnsgd1na2vs0mg"},{"bike_id":"205283b2-a0b9-4a6f-b278-0f0a01187f2c","system_id":"levelo_inurba_marseille","lat":43.3089,"lon":5.39654,"is_reserved":false,"is_disabled":true,"rental_uris":{"android":"levelo://app?vid=205283b2-a0b9-4a6f-b278-0f0a01187f2c","ios":"levelo://app?vid=205283b2-a0b9-4a6f-b278-0f0a01187f2c"},"vehicle_type_id":"4","last_reported":1738782419,"current_range_meters":2000,"station_id":"ce4bh012rcd13ifvqcv0","pricing_plan_id":"cebpf4jnsgd1na2vs0mg"},{"bike_id":"44dde5cf-c2f0-4ca3-a927-e2c7152ee089","system_id":"levelo_inurba_marseille","lat":43.27813,"lon":5.40699,"is_reserved":false,"is_disabled":false,"rental_uris":{"android":"levelo://app?vid=44dde5cf-c2f0-4ca3-a927-e2c7152ee089","ios":"levelo://app?vid=44dde5cf-c2f0-4ca3-a927-e2c7152ee089"},"vehicle_type_id":"4","last_reported":1738782419,"current_range_meters":39200,"station_id":"ce4bhnh2rcd13ifvqgtg","pricing_plan_id":"cebpf4jnsgd1na2vs0mg"},{"bike_id":"015782d1-9091-4e98-bdb6-e10f48d06bd0","system_id":"levelo_inurba_marseille","lat":43.29545,"lon":5.39044,"is_reserved":false,"is_disabled":false,"rental_uris":{"android":"levelo://app?vid=015782d1-9091-4e98-bdb6-e10f48d06bd0","ios":"levelo://app?vid=015782d1-9091-4e98-bdb6-e10f48d06bd0"},"vehicle_type_id":"4","last_reported":1738782419,"current_range_meters":35600,"station_id":"ce4bh3p2rcd13ifvqdp0","pricing_plan_id":"cebpf4jnsgd1na2vs0mg"},{"bike_id":"a6b2428a-7d23-4892-a3bf-86cc25978b7a","system_id":"levelo_inurba_marseille","lat":43.25501,"lon":5.37649,"is_reserved":false,"is_disabled":true,"rental_uris":{"android":"levelo://app?vid=a6b2428a-7d23-4892-a3bf-86cc25978b7a","ios":"levelo://app?vid=a6b2428a-7d23-4892-a3bf-86cc25978b7a"},"vehicle_type_id":"4","last_reported":1738782419,"current_range_meters":25200,"station_id":"ce4bhh12rcd13ifvqff0","pricing_plan_id":"cebpf4jnsgd1na2vs0mg"},{"bike_id":"8f55a9a2-e3bf-4734-b1cd-752d8460ce0f","system_id":"levelo_inurba_marseille","lat":43.29519,"lon":5.39411,"is_reserved":false,"is_disabled":false,"rental_uris":{"android":"levelo://app?vid=8f55a9a2-e3bf-4734-b1cd-752d8460ce0f","ios":"levelo://app?vid=8f55a9a2-e3bf-4734-b1cd-752d8460ce0f"},"vehicle_type_id":"4","last_reported":1738782419,"current_range_meters":38800,"station_id":"ce4bh292rcd13ifvqdf0","pricing_plan_id":"cebpf4jnsgd1na2vs0mg"},{"bike_id":"9a449e8f-6f61-46f1-8791-42754d534c2c","system_id":"levelo_inurba_marseille","lat":43.2695,"lon":5.40258,"is_reserved":false,"is_disabled":false,"rental_uris":{"android":"levelo://app?vid=9a449e8f-6f61-46f1-8791-42754d534c2c","ios":"levelo://app?vid=9a449e8f-6f61-46f1-8791-42754d534c2c"},"vehicle_type_id":"4","last_reported":1738782419,"current_range_meters":21600,"station_id":"cjm6bp8fraef2m0cb0m0","pricing_plan_id":"cebpf4jnsgd1na2vs0mg"},{"bike_id":"c85a26e1-f53e-4ec1-b1ea-8b32d23f1f4d","system_id":"levelo_inurba_marseille","lat":43.23067,"lon":5.35498,"is_reserved":false,"is_disabled":false,"rental_uris":{"android":"levelo://app?vid=c85a26e1-f53e-4ec1-b1ea-8b32d23f1f4d","ios":"levelo://app?vid=c85a26e1-f53e-4ec1-b1ea-8b32d23f1f4d"},"vehicle_type_id":"4","last_reported":1738782419,"current_range_meters":21600,"station_id":"cpo3342slgdg3j2ifvpg","pricing_plan_id":"cebpf4jnsgd1na2vs0mg"},{"bike_id":"1368b82d-e5b6-4c03-95ce-b6cc44f0d8ef","system_id":"levelo_inurba_marseille","lat":43.28044,"lon":5.36941,"is_reserved":false,"is_disabled":false,"rental_uris":{"android":"levelo://app?vid=1368b82d-e5b6-4c03-95ce-b6cc44f0d8ef","ios":"levelo://app?vid=1368b82d-e5b6-4c03-95ce-b6cc44f0d8ef"},"vehicle_type_id":"4","last_reported":1738782419,"current_range_meters":28400,"station_id":"ce4bha12rcd13ifvqef0","pricing_plan_id":"cebpf4jnsgd1na2vs0mg"},{"bike_id":"68b2c66c-f566-47c6-83ba-ec30dc2cf83f","system_id":"levelo_inurba_marseille","lat":43.30302,"lon":5.39213,"is_reserved":false,"is_disabled":false,"rental_uris":{"android":"levelo://app?vid=68b2c66c-f566-47c6-83ba-ec30dc2cf83f","ios":"levelo://app?vid=68b2c66c-f566-47c6-83ba-ec30dc2cf83f"},"vehicle_type_id":"4","last_reported":1738782419,"current_range_meters":25600,"station_id":"ce4bgkh2rcd13ifvqbk0","pricing_plan_id":"cebpf4jnsgd1na2vs0mg"},{"bike_id":"8d5422fe-7af8-476d-aeb0-a39e5981dc5f","system_id":"levelo_inurba_marseille","lat":43.28721,"lon":5.37932,"is_reserved":false,"is_disabled":false,"rental_uris":{"android":"levelo://app?vid=8d5422fe-7af8-476d-aeb0-a39e5981dc5f","ios":"levelo://app?vid=8d5422fe-7af8-476d-aeb0-a39e5981dc5f"},"vehicle_type_id":"4","last_reported":1738782419,"current_range_meters":38800,"station_id":"ce4bh9p2rcd13ifvqec0","pricing_plan_id":"cebpf4jnsgd1na2vs0mg"},{"bike_id":"18346df9-43f2-4a93-8925-96a12828428d","system_id":"levelo_inurba_marseille","lat":43.29526,"lon":5.39409,"is_reserved":false,"is_disabled":false,"rental_uris":{"android":"levelo://app?vid=18346df9-43f2-4a93-8925-96a12828428d","ios":"levelo://app?vid=18346df9-43f2-4a93-8925-96a12828428d"},"vehicle_type_id":"4","last_reported":1738782419,"current_range_meters":22800,"station_id":"ce4bh292rcd13ifvqdf0","pricing_plan_id":"cebpf4jnsgd1na2vs0mg"},{"bike_id":"d514230b-01d1-4e6e-b07b-dd83ae518c95","system_id":"levelo_inurba_marseille","lat":43.25085,"lon":5.39495,"is_reserved":false,"is_disabled":false,"rental_uris":{"android":"levelo://app?vid=d514230b-01d1-4e6e-b07b-dd83ae518c95","ios":"levelo://app?vid=d514230b-01d1-4e6e-b07b-dd83ae518c95"},"vehicle_type_id":"4","last_reported":1738782419,"current_range_meters":38800,"station_id":"ce4bhm12rcd13ifvqgkg","pricing_plan_id":"cebpf4jnsgd1na2vs0mg"},{"bike_id":"9c207c45-ddb2-4217-8d34-079a5658cd14","system_id":"levelo_inurba_marseille","lat":43.322872,"lon":5.382688,"is_reserved":false,"is_disabled":false,"rental_uris":{"android":"levelo://app?vid=9c207c45-ddb2-4217-8d34-079a5658cd14","ios":"levelo://app?vid=9c207c45-ddb2-4217-8d34-079a5658cd14"},"vehicle_type_id":"4","last_reported":1738782419,"current_range_meters":37600,"station_id":"ce4bhr12rcd13ifvqhqg","pricing_plan_id":"cebpf4jnsgd1na2vs0mg"},{"bike_id":"ce32e641-6bf4-4f5a-bec6-bc9c7fe39286","system_id":"levelo_inurba_marseille","lat":43.31375,"lon":5.38492,"is_reserved":false,"is_disabled":false,"rental_uris":{"android":"levelo://app?vid=ce32e641-6bf4-4f5a-bec6-bc9c7fe39286","ios":"levelo://app?vid=ce32e641-6bf4-4f5a-bec6-bc9c7fe39286"},"vehicle_type_id":"4","last_reported":1738782419,"current_range_meters":39200,"station_id":"ce4bgt92rcd13ifvqcf0","pricing_plan_id":"cebpf4jnsgd1na2vs0mg"},{"bike_id":"24012808-30e9-47be-ab69-ae3ca5a0e31f","system_id":"levelo_inurba_marseille","lat":43.29982,"lon":5.3849,"is_reserved":false,"is_disabled":false,"rental_uris":{"android":"levelo://app?vid=24012808-30e9-47be-ab69-ae3ca5a0e31f","ios":"levelo://app?vid=24012808-30e9-47be-ab69-ae3ca5a0e31f"},"vehicle_type_id":"4","last_reported":1738782419,"current_range_meters":31200,"station_id":"ce4bgj92rcd13ifvqbd0","pricing_plan_id":"cebpf4jnsgd1na2vs0mg"},{"bike_id":"b87f95f4-86fe-47a7-9cc8-d43d290df340","system_id":"levelo_inurba_marseille","lat":43.32283,"lon":5.38275,"is_reserved":false,"is_disabled":false,"rental_uris":{"android":"levelo://app?vid=b87f95f4-86fe-47a7-9cc8-d43d290df340","ios":"levelo://app?vid=b87f95f4-86fe-47a7-9cc8-d43d290df340"},"vehicle_type_id":"4","last_reported":1738782419,"current_range_meters":28400,"station_id":"ce4bhr12rcd13ifvqhqg","pricing_plan_id":"cebpf4jnsgd1na2vs0mg"},{"bike_id":"d7d54da1-3dec-42c8-991b-c16bccc0ac6f","system_id":"levelo_inurba_marseille","lat":43.29259,"lon":5.36847,"is_reserved":false,"is_disabled":false,"rental_uris":{"android":"levelo://app?vid=d7d54da1-3dec-42c8-991b-c16bccc0ac6f","ios":"levelo://app?vid=d7d54da1-3dec-42c8-991b-c16bccc0ac6f"},"vehicle_type_id":"4","last_reported":1738782419,"current_range_meters":28000,"station_id":"ce4bhbp2rcd13ifvqesg","pricing_plan_id":"cebpf4jnsgd1na2vs0mg"},{"bike_id":"c27d8cef-128f-467e-8ca2-b33835376bb2","system_id":"levelo_inurba_marseille","lat":43.30656,"lon":5.40092,"is_reserved":false,"is_disabled":false,"rental_uris":{"android":"levelo://app?vid=c27d8cef-128f-467e-8ca2-b33835376bb2","ios":"levelo://app?vid=c27d8cef-128f-467e-8ca2-b33835376bb2"},"vehicle_type_id":"4","last_reported":1738782419,"current_range_meters":36800,"station_id":"ce4bh112rcd13ifvqda0","pricing_plan_id":"cebpf4jnsgd1na2vs0mg"},{"bike_id":"5eb45cce-6cfc-42e4-a64e-1d65efa9c178","system_id":"levelo_inurba_marseille","lat":43.31353,"lon":5.3848,"is_reserved":false,"is_disabled":false,"rental_uris":{"android":"levelo://app?vid=5eb45cce-6cfc-42e4-a64e-1d65efa9c178","ios":"levelo://app?vid=5eb45cce-6cfc-42e4-a64e-1d65efa9c178"},"vehicle_type_id":"4","last_reported":1738782419,"current_range_meters":38800,"station_id":"ce4bgt92rcd13ifvqcf0","pricing_plan_id":"cebpf4jnsgd1na2vs0mg"},{"bike_id":"1f60af65-67e4-4506-92ce-b099d71368bc","system_id":"levelo_inurba_marseille","lat":43.2736,"lon":5.36248,"is_reserved":false,"is_disabled":false,"rental_uris":{"android":"levelo://app?vid=1f60af65-67e4-4506-92ce-b099d71368bc","ios":"levelo://app?vid=1f60af65-67e4-4506-92ce-b099d71368bc"},"vehicle_type_id":"4","last_reported":1738782419,"current_range_meters":38800,"station_id":"ce4bhbh2rcd13ifvqeo0","pricing_plan_id":"cebpf4jnsgd1na2vs0mg"},{"bike_id":"4f81abf1-d5fa-41cf-aabd-458a56d988c7","system_id":"levelo_inurba_marseille","lat":43.29032,"lon":5.3865,"is_reserved":false,"is_disabled":false,"rental_uris":{"android":"levelo://app?vid=4f81abf1-d5fa-41cf-aabd-458a56d988c7","ios":"levelo://app?vid=4f81abf1-d5fa-41cf-aabd-458a56d988c7"},"vehicle_type_id":"4","last_reported":1738782419,"current_range_meters":24800,"station_id":"ce4bh4p2rcd13ifvqe0g","pricing_plan_id":"cebpf4jnsgd1na2vs0mg"},{"bike_id":"24014241-5b95-4a31-94b3-518cf14b5577","system_id":"levelo_inurba_marseille","lat":43.30786,"lon":5.37654,"is_reserved":false,"is_disabled":true,"rental_uris":{"android":"levelo://app?vid=24014241-5b95-4a31-94b3-518cf14b5577","ios":"levelo://app?vid=24014241-5b95-4a31-94b3-518cf14b5577"},"vehicle_type_id":"4","last_reported":1738782419,"current_range_meters":8800,"station_id":"ce4bgv92rcd13ifvqcq0","pricing_plan_id":"cebpf4jnsgd1na2vs0mg"},{"bike_id":"a9d2cdd8-e8cc-40c9-87d7-d5a1d12197b1","system_id":"levelo_inurba_marseille","lat":43.27483,"lon":5.42463,"is_reserved":false,"is_disabled":true,"rental_uris":{"android":"levelo://app?vid=a9d2cdd8-e8cc-40c9-87d7-d5a1d12197b1","ios":"levelo://app?vid=a9d2cdd8-e8cc-40c9-87d7-d5a1d12197b1"},"vehicle_type_id":"4","last_reported":1738782419,"current_range_meters":0,"station_id":"ce4bhn92rcd13ifvqgrg","pricing_plan_id":"cebpf4jnsgd1na2vs0mg"},{"bike_id":"053fe29b-8a6c-40a9-966e-365491a47db8","system_id":"levelo_inurba_marseille","lat":43.25824,"lon":5.39438,"is_reserved":false,"is_disabled":false,"rental_uris":{"android":"levelo://app?vid=053fe29b-8a6c-40a9-966e-365491a47db8","ios":"levelo://app?vid=053fe29b-8a6c-40a9-966e-365491a47db8"},"vehicle_type_id":"4","last_reported":1738782419,"current_range_meters":9200,"station_id":"ce4bhip2rcd13ifvqft0","pricing_plan_id":"cebpf4jnsgd1na2vs0mg"},{"bike_id":"cd49cf6c-ac96-433f-9e8f-f8c323ae20a3","system_id":"levelo_inurba_marseille","lat":43.3137,"lon":5.38488,"is_reserved":false,"is_disabled":false,"rental_uris":{"android":"levelo://app?vid=cd49cf6c-ac96-433f-9e8f-f8c323ae20a3","ios":"levelo://app?vid=cd49cf6c-ac96-433f-9e8f-f8c323ae20a3"},"vehicle_type_id":"4","last_reported":1738782419,"current_range_meters":30800,"station_id":"ce4bgt92rcd13ifvqcf0","pricing_plan_id":"cebpf4jnsgd1na2vs0mg"},{"bike_id":"76720be2-1f29-4768-9d43-346802e2ff78","system_id":"levelo_inurba_marseille","lat":43.298705,"lon":5.389135,"is_reserved":false,"is_disabled":false,"rental_uris":{"android":"levelo://app?vid=76720be2-1f29-4768-9d43-346802e2ff78","ios":"levelo://app?vid=76720be2-1f29-4768-9d43-346802e2ff78"},"vehicle_type_id":"4","last_reported":1738782419,"current_range_meters":27200,"station_id":"ce4bh392rcd13ifvqdl0","pricing_plan_id":"cebpf4jnsgd1na2vs0mg"},{"bike_id":"35b0fbe6-22db-46fb-a54a-76af362a8729","system_id":"levelo_inurba_marseille","lat":43.29977,"lon":5.41304,"is_reserved":false,"is_disabled":false,"rental_uris":{"android":"levelo://app?vid=35b0fbe6-22db-46fb-a54a-76af362a8729","ios":"levelo://app?vid=35b0fbe6-22db-46fb-a54a-76af362a8729"},"vehicle_type_id":"4","last_reported":1738782419,"current_range_meters":36800,"station_id":"ce4bhp12rcd13ifvqh9g","pricing_plan_id":"cebpf4jnsgd1na2vs0mg"},{"bike_id":"88ce7e1b-d6f8-4620-beef-be982f304f3e","system_id":"levelo_inurba_marseille","lat":43.32091,"lon":5.36791,"is_reserved":false,"is_disabled":false,"rental_uris":{"android":"levelo://app?vid=88ce7e1b-d6f8-4620-beef-be982f304f3e","ios":"levelo://app?vid=88ce7e1b-d6f8-4620-beef-be982f304f3e"},"vehicle_type_id":"4","last_reported":1738782419,"current_range_meters":7200,"station_id":"ce4bhrh2rcd13ifvqhug","pricing_plan_id":"cebpf4jnsgd1na2vs0mg"},{"bike_id":"eabb9936-397f-4ce6-8690-89ca8b14d83e","system_id":"levelo_inurba_marseille","lat":43.2397,"lon":5.36627,"is_reserved":false,"is_disabled":false,"rental_uris":{"android":"levelo://app?vid=eabb9936-397f-4ce6-8690-89ca8b14d83e","ios":"levelo://app?vid=eabb9936-397f-4ce6-8690-89ca8b14d83e"},"vehicle_type_id":"4","last_reported":1738782419,"current_range_meters":38800,"station_id":"ce4bhi12rcd13ifvqfp0","pricing_plan_id":"cebpf4jnsgd1na2vs0mg"},{"bike_id":"708f8f9e-18a1-4802-893a-04d77b904ada","system_id":"levelo_inurba_marseille","lat":43.28659,"lon":5.36344,"is_reserved":false,"is_disabled":false,"rental_uris":{"android":"levelo://app?vid=708f8f9e-18a1-4802-893a-04d77b904ada","ios":"levelo://app?vid=708f8f9e-18a1-4802-893a-04d77b904ada"},"vehicle_type_id":"4","last_reported":1738782419,"current_range_meters":34800,"station_id":"ce4bhah2rcd13ifvqej0","pricing_plan_id":"cebpf4jnsgd1na2vs0mg"},{"bike_id":"2f9a6647-bfb0-4c5f-b2d5-6b23d0794b76","system_id":"levelo_inurba_marseille","lat":43.25576,"lon":5.382328,"is_reserved":false,"is_disabled":true,"rental_uris":{"android":"levelo://app?vid=2f9a6647-bfb0-4c5f-b2d5-6b23d0794b76","ios":"levelo://app?vid=2f9a6647-bfb0-4c5f-b2d5-6b23d0794b76"},"vehicle_type_id":"4","last_reported":1738782419,"current_range_meters":37600,"station_id":"ce4bhih2rcd13ifvqfs0","pricing_plan_id":"cebpf4jnsgd1na2vs0mg"},{"bike_id":"d25a4504-17d4-4308-88f8-6085b6b06f28","system_id":"levelo_inurba_marseille","lat":43.28942,"lon":5.36397,"is_reserved":false,"is_disabled":false,"rental_uris":{"android":"levelo://app?vid=d25a4504-17d4-4308-88f8-6085b6b06f28","ios":"levelo://app?vid=d25a4504-17d4-4308-88f8-6085b6b06f28"},"vehicle_type_id":"4","last_reported":1738782419,"current_range_meters":20000,"station_id":"ce4bhc92rcd13ifvqetg","pricing_plan_id":"cebpf4jnsgd1na2vs0mg"},{"bike_id":"cdfd2b08-1a66-4a23-aae6-a69830d3d116","system_id":"levelo_inurba_marseille","lat":43.26935,"lon":5.40258,"is_reserved":false,"is_disabled":false,"rental_uris":{"android":"levelo://app?vid=cdfd2b08-1a66-4a23-aae6-a69830d3d116","ios":"levelo://app?vid=cdfd2b08-1a66-4a23-aae6-a69830d3d116"},"vehicle_type_id":"4","last_reported":1738782419,"current_range_meters":13600,"station_id":"cjm6bp8fraef2m0cb0m0","pricing_plan_id":"cebpf4jnsgd1na2vs0mg"},{"bike_id":"786af5a6-7181-4746-8e7c-5055a97f6274","system_id":"levelo_inurba_marseille","lat":43.2816,"lon":5.42638,"is_reserved":false,"is_disabled":true,"rental_uris":{"android":"levelo://app?vid=786af5a6-7181-4746-8e7c-5055a97f6274","ios":"levelo://app?vid=786af5a6-7181-4746-8e7c-5055a97f6274"},"vehicle_type_id":"4","last_reported":1738782419,"current_range_meters":31200,"station_id":"ce4bhnh2rcd13ifvqgug","pricing_plan_id":"cebpf4jnsgd1na2vs0mg"},{"bike_id":"93fbdf65-f816-41db-aa80-fd0a58c14346","system_id":"levelo_inurba_marseille","lat":43.27426,"lon":5.39414,"is_reserved":false,"is_disabled":true,"rental_uris":{"android":"levelo://app?vid=93fbdf65-f816-41db-aa80-fd0a58c14346","ios":"levelo://app?vid=93fbdf65-f816-41db-aa80-fd0a58c14346"},"vehicle_type_id":"4","last_reported":1738782419,"current_range_meters":0,"station_id":"ce4bhdp2rcd13ifvqf20","pricing_plan_id":"cebpf4jnsgd1na2vs0mg"},{"bike_id":"6c42d1f1-91cc-4cc9-ac3f-91a876fece96","system_id":"levelo_inurba_marseille","lat":43.29893,"lon":5.39748,"is_reserved":false,"is_disabled":false,"rental_uris":{"android":"levelo://app?vid=6c42d1f1-91cc-4cc9-ac3f-91a876fece96","ios":"levelo://app?vid=6c42d1f1-91cc-4cc9-ac3f-91a876fece96"},"vehicle_type_id":"4","last_reported":1738782419,"current_range_meters":38400,"station_id":"ce4bh0h2rcd13ifvqd50","pricing_plan_id":"cebpf4jnsgd1na2vs0mg"},{"bike_id":"50b15991-9296-4df6-b1a6-725aba7e366c","system_id":"levelo_inurba_marseille","lat":43.25855,"lon":5.39901,"is_reserved":false,"is_disabled":true,"rental_uris":{"android":"levelo://app?vid=50b15991-9296-4df6-b1a6-725aba7e366c","ios":"levelo://app?vid=50b15991-9296-4df6-b1a6-725aba7e366c"},"vehicle_type_id":"4","last_reported":1738782419,"current_range_meters":800,"station_id":"ce4bhl92rcd13ifvqghg","pricing_plan_id":"cebpf4jnsgd1na2vs0mg"},{"bike_id":"33b966ec-0749-4bb7-a3ef-4eb1e6f26acc","system_id":"levelo_inurba_marseille","lat":43.28363,"lon":5.38627,"is_reserved":false,"is_disabled":false,"rental_uris":{"android":"levelo://app?vid=33b966ec-0749-4bb7-a3ef-4eb1e6f26acc","ios":"levelo://app?vid=33b966ec-0749-4bb7-a3ef-4eb1e6f26acc"},"vehicle_type_id":"4","last_reported":1738782419,"current_range_meters":17200,"station_id":"ce4bh492rcd13ifvqdvg","pricing_plan_id":"cebpf4jnsgd1na2vs0mg"},{"bike_id":"05ef3b5a-0b29-498a-a266-9c36afccd5db","system_id":"levelo_inurba_marseille","lat":43.2799,"lon":5.40044,"is_reserved":false,"is_disabled":false,"rental_uris":{"android":"levelo://app?vid=05ef3b5a-0b29-498a-a266-9c36afccd5db","ios":"levelo://app?vid=05ef3b5a-0b29-498a-a266-9c36afccd5db"},"vehicle_type_id":"4","last_reported":1738782419,"current_range_meters":7200,"station_id":"ce4bho92rcd13ifvqh4g","pricing_plan_id":"cebpf4jnsgd1na2vs0mg"},{"bike_id":"43dbcacd-347c-4beb-a600-5c3d96b4b244","system_id":"levelo_inurba_marseille","lat":43.23186,"lon":5.39967,"is_reserved":false,"is_disabled":false,"rental_uris":{"android":"levelo://app?vid=43dbcacd-347c-4beb-a600-5c3d96b4b244","ios":"levelo://app?vid=43dbcacd-347c-4beb-a600-5c3d96b4b244"},"vehicle_type_id":"4","last_reported":1738782419,"current_range_meters":39200,"station_id":"ce4bhn12rcd13ifvqgqg","pricing_plan_id":"cebpf4jnsgd1na2vs0mg"},{"bike_id":"f5fe99b2-e419-4e02-93e0-0d8550db63d7","system_id":"levelo_inurba_marseille","lat":43.28043,"lon":5.36949,"is_reserved":false,"is_disabled":false,"rental_uris":{"android":"levelo://app?vid=f5fe99b2-e419-4e02-93e0-0d8550db63d7","ios":"levelo://app?vid=f5fe99b2-e419-4e02-93e0-0d8550db63d7"},"vehicle_type_id":"4","last_reported":1738782419,"current_range_meters":34000,"station_id":"ce4bha12rcd13ifvqef0","pricing_plan_id":"cebpf4jnsgd1na2vs0mg"},{"bike_id":"9b7355dc-7165-40f0-8cd2-81f22484ab5d","system_id":"levelo_inurba_marseille","lat":43.23966,"lon":5.36617,"is_reserved":false,"is_disabled":false,"rental_uris":{"android":"levelo://app?vid=9b7355dc-7165-40f0-8cd2-81f22484ab5d","ios":"levelo://app?vid=9b7355dc-7165-40f0-8cd2-81f22484ab5d"},"vehicle_type_id":"4","last_reported":1738782419,"current_range_meters":35600,"station_id":"ce4bhi12rcd13ifvqfp0","pricing_plan_id":"cebpf4jnsgd1na2vs0mg"},{"bike_id":"54c388f1-da5e-41c0-a224-46f29db2acb3","system_id":"levelo_inurba_marseille","lat":43.28941,"lon":5.36397,"is_reserved":false,"is_disabled":false,"rental_uris":{"android":"levelo://app?vid=54c388f1-da5e-41c0-a224-46f29db2acb3","ios":"levelo://app?vid=54c388f1-da5e-41c0-a224-46f29db2acb3"},"vehicle_type_id":"4","last_reported":1738782419,"current_range_meters":38800,"station_id":"ce4bhc92rcd13ifvqetg","pricing_plan_id":"cebpf4jnsgd1na2vs0mg"},{"bike_id":"0ece7ca6-712d-478c-be0d-4a27dfba11a6","system_id":"levelo_inurba_marseille","lat":43.29555,"lon":5.42289,"is_reserved":false,"is_disabled":false,"rental_uris":{"android":"levelo://app?vid=0ece7ca6-712d-478c-be0d-4a27dfba11a6","ios":"levelo://app?vid=0ece7ca6-712d-478c-be0d-4a27dfba11a6"},"vehicle_type_id":"4","last_reported":1738782419,"current_range_meters":18000,"station_id":"ce4bhph2rcd13ifvqhdg","pricing_plan_id":"cebpf4jnsgd1na2vs0mg"},{"bike_id":"4a574193-04fe-47ad-8100-b1eb971244f1","system_id":"levelo_inurba_marseille","lat":43.2972,"lon":5.37679,"is_reserved":false,"is_disabled":true,"rental_uris":{"android":"levelo://app?vid=4a574193-04fe-47ad-8100-b1eb971244f1","ios":"levelo://app?vid=4a574193-04fe-47ad-8100-b1eb971244f1"},"vehicle_type_id":"4","last_reported":1738782419,"current_range_meters":0,"station_id":"ce4bgkh2rcd13ifvqbl0","pricing_plan_id":"cebpf4jnsgd1na2vs0mg"},{"bike_id":"931c3b97-cce1-4ebe-a291-6c50a6f2810e","system_id":"levelo_inurba_marseille","lat":43.31781,"lon":5.37468,"is_reserved":false,"is_disabled":false,"rental_uris":{"android":"levelo://app?vid=931c3b97-cce1-4ebe-a291-6c50a6f2810e","ios":"levelo://app?vid=931c3b97-cce1-4ebe-a291-6c50a6f2810e"},"vehicle_type_id":"4","last_reported":1738782419,"current_range_meters":5600,"station_id":"","pricing_plan_id":"cebpf4jnsgd1na2vs0mg"},{"bike_id":"b9452b32-8f5d-4c98-bc11-fee58cf523e3","system_id":"levelo_inurba_marseille","lat":43.29906,"lon":5.43663,"is_reserved":false,"is_disabled":false,"rental_uris":{"android":"levelo://app?vid=b9452b32-8f5d-4c98-bc11-fee58cf523e3","ios":"levelo://app?vid=b9452b32-8f5d-4c98-bc11-fee58cf523e3"},"vehicle_type_id":"4","last_reported":1738782419,"current_range_meters":23200,"station_id":"ce4bhpp2rcd13ifvqhfg","pricing_plan_id":"cebpf4jnsgd1na2vs0mg"},{"bike_id":"d1d51ec2-e1ab-4b92-9a4b-f935b04ef436","system_id":"levelo_inurba_marseille","lat":43.25001,"lon":5.38928,"is_reserved":false,"is_disabled":false,"rental_uris":{"android":"levelo://app?vid=d1d51ec2-e1ab-4b92-9a4b-f935b04ef436","ios":"levelo://app?vid=d1d51ec2-e1ab-4b92-9a4b-f935b04ef436"},"vehicle_type_id":"4","last_reported":1738782419,"current_range_meters":23200,"station_id":"ce4bhgp2rcd13ifvqfd0","pricing_plan_id":"cebpf4jnsgd1na2vs0mg"},{"bike_id":"13b3b6a1-f920-47ec-ad77-f4e3fb2eb0d2","system_id":"levelo_inurba_marseille","lat":43.25821,"lon":5.39435,"is_reserved":false,"is_disabled":false,"rental_uris":{"android":"levelo://app?vid=13b3b6a1-f920-47ec-ad77-f4e3fb2eb0d2","ios":"levelo://app?vid=13b3b6a1-f920-47ec-ad77-f4e3fb2eb0d2"},"vehicle_type_id":"4","last_reported":1738782419,"current_range_meters":39200,"station_id":"ce4bhip2rcd13ifvqft0","pricing_plan_id":"cebpf4jnsgd1na2vs0mg"},{"bike_id":"b35814ac-8763-4dad-b68a-b4b0081f1c29","system_id":"levelo_inurba_marseille","lat":43.26216,"lon":5.40459,"is_reserved":false,"is_disabled":false,"rental_uris":{"android":"levelo://app?vid=b35814ac-8763-4dad-b68a-b4b0081f1c29","ios":"levelo://app?vid=b35814ac-8763-4dad-b68a-b4b0081f1c29"},"vehicle_type_id":"4","last_reported":1738782419,"current_range_meters":36800,"station_id":"ce4bhmh2rcd13ifvqgmg","pricing_plan_id":"cebpf4jnsgd1na2vs0mg"},{"bike_id":"910b1e33-531c-44b7-b584-1fde45af6212","system_id":"levelo_inurba_marseille","lat":43.29029,"lon":5.3865,"is_reserved":false,"is_disabled":false,"rental_uris":{"android":"levelo://app?vid=910b1e33-531c-44b7-b584-1fde45af6212","ios":"levelo://app?vid=910b1e33-531c-44b7-b584-1fde45af6212"},"vehicle_type_id":"4","last_reported":1738782419,"current_range_meters":4000,"station_id":"ce4bh4p2rcd13ifvqe0g","pricing_plan_id":"cebpf4jnsgd1na2vs0mg"},{"bike_id":"6100990f-c4b7-4419-ab12-3d9c2a9f7c81","system_id":"levelo_inurba_marseille","lat":43.28274,"lon":5.35074,"is_reserved":false,"is_disabled":false,"rental_uris":{"android":"levelo://app?vid=6100990f-c4b7-4419-ab12-3d9c2a9f7c81","ios":"levelo://app?vid=6100990f-c4b7-4419-ab12-3d9c2a9f7c81"},"vehicle_type_id":"4","last_reported":1738782419,"current_range_meters":37600,"station_id":"ce4bhbp2rcd13ifvqerg","pricing_plan_id":"cebpf4jnsgd1na2vs0mg"},{"bike_id":"48942296-1585-4679-ac47-d4a86af2d7a3","system_id":"levelo_inurba_marseille","lat":43.31716,"lon":5.43716,"is_reserved":false,"is_disabled":false,"rental_uris":{"android":"levelo://app?vid=48942296-1585-4679-ac47-d4a86af2d7a3","ios":"levelo://app?vid=48942296-1585-4679-ac47-d4a86af2d7a3"},"vehicle_type_id":"4","last_reported":1738782419,"current_range_meters":12000,"station_id":"ce4bhp92rcd13ifvqhcg","pricing_plan_id":"cebpf4jnsgd1na2vs0mg"},{"bike_id":"7511f9ed-d962-4672-a58d-1361ee830b06","system_id":"levelo_inurba_marseille","lat":43.28723,"lon":5.40004,"is_reserved":false,"is_disabled":false,"rental_uris":{"android":"levelo://app?vid=7511f9ed-d962-4672-a58d-1361ee830b06","ios":"levelo://app?vid=7511f9ed-d962-4672-a58d-1361ee830b06"},"vehicle_type_id":"4","last_reported":1738782419,"current_range_meters":38800,"station_id":"ce4bho92rcd13ifvqh3g","pricing_plan_id":"cebpf4jnsgd1na2vs0mg"},{"bike_id":"2b81159b-9997-4b68-bd02-00893c72da6c","system_id":"levelo_inurba_marseille","lat":43.29556,"lon":5.39038,"is_reserved":false,"is_disabled":false,"rental_uris":{"android":"levelo://app?vid=2b81159b-9997-4b68-bd02-00893c72da6c","ios":"levelo://app?vid=2b81159b-9997-4b68-bd02-00893c72da6c"},"vehicle_type_id":"4","last_reported":1738782419,"current_range_meters":38000,"station_id":"ce4bh3p2rcd13ifvqdp0","pricing_plan_id":"cebpf4jnsgd1na2vs0mg"},{"bike_id":"9e7ed56e-6161-417b-903e-3c3d0dd4efa8","system_id":"levelo_inurba_marseille","lat":43.279,"lon":5.38006,"is_reserved":false,"is_disabled":false,"rental_uris":{"android":"levelo://app?vid=9e7ed56e-6161-417b-903e-3c3d0dd4efa8","ios":"levelo://app?vid=9e7ed56e-6161-417b-903e-3c3d0dd4efa8"},"vehicle_type_id":"4","last_reported":1738782419,"current_range_meters":39200,"station_id":"ce4bhf92rcd13ifvqf50","pricing_plan_id":"cebpf4jnsgd1na2vs0mg"},{"bike_id":"7409b75d-c894-4948-9b86-45477902094a","system_id":"levelo_inurba_marseille","lat":43.24131,"lon":5.39711,"is_reserved":false,"is_disabled":true,"rental_uris":{"android":"levelo://app?vid=7409b75d-c894-4948-9b86-45477902094a","ios":"levelo://app?vid=7409b75d-c894-4948-9b86-45477902094a"},"vehicle_type_id":"4","last_reported":1738782419,"current_range_meters":0,"station_id":"","pricing_plan_id":"cebpf4jnsgd1na2vs0mg"},{"bike_id":"6877bcdf-3bf8-4c3e-bbe3-dc26e21a2ace","system_id":"levelo_inurba_marseille","lat":43.30412,"lon":5.39754,"is_reserved":false,"is_disabled":false,"rental_uris":{"android":"levelo://app?vid=6877bcdf-3bf8-4c3e-bbe3-dc26e21a2ace","ios":"levelo://app?vid=6877bcdf-3bf8-4c3e-bbe3-dc26e21a2ace"},"vehicle_type_id":"4","last_reported":1738782419,"current_range_meters":38400,"station_id":"ce4bh092rcd13ifvqd20","pricing_plan_id":"cebpf4jnsgd1na2vs0mg"},{"bike_id":"48d0d6c4-1c89-4ca3-9b50-d9e0c6561c2c","system_id":"levelo_inurba_marseille","lat":43.30407,"lon":5.41046,"is_reserved":false,"is_disabled":false,"rental_uris":{"android":"levelo://app?vid=48d0d6c4-1c89-4ca3-9b50-d9e0c6561c2c","ios":"levelo://app?vid=48d0d6c4-1c89-4ca3-9b50-d9e0c6561c2c"},"vehicle_type_id":"4","last_reported":1738782419,"current_range_meters":4400,"station_id":"ce4bhp92rcd13ifvqhag","pricing_plan_id":"cebpf4jnsgd1na2vs0mg"},{"bike_id":"585fe3f6-a722-4f6f-b2a6-5f7617e3a74b","system_id":"levelo_inurba_marseille","lat":43.25118,"lon":5.40319,"is_reserved":false,"is_disabled":false,"rental_uris":{"android":"levelo://app?vid=585fe3f6-a722-4f6f-b2a6-5f7617e3a74b","ios":"levelo://app?vid=585fe3f6-a722-4f6f-b2a6-5f7617e3a74b"},"vehicle_type_id":"4","last_reported":1738782419,"current_range_meters":30800,"station_id":"ce4bhlh2rcd13ifvqgig","pricing_plan_id":"cebpf4jnsgd1na2vs0mg"},{"bike_id":"bc4186b3-1073-492b-ab95-0326a7b12d0e","system_id":"levelo_inurba_marseille","lat":43.28426,"lon":5.35002,"is_reserved":false,"is_disabled":false,"rental_uris":{"android":"levelo://app?vid=bc4186b3-1073-492b-ab95-0326a7b12d0e","ios":"levelo://app?vid=bc4186b3-1073-492b-ab95-0326a7b12d0e"},"vehicle_type_id":"4","last_reported":1738782419,"current_range_meters":35600,"station_id":"ce4bhbh2rcd13ifvqepg","pricing_plan_id":"cebpf4jnsgd1na2vs0mg"},{"bike_id":"70fbe035-321d-404d-abb5-90c57c24fee3","system_id":"levelo_inurba_marseille","lat":43.299083,"lon":5.381381,"is_reserved":false,"is_disabled":true,"rental_uris":{"android":"levelo://app?vid=70fbe035-321d-404d-abb5-90c57c24fee3","ios":"levelo://app?vid=70fbe035-321d-404d-abb5-90c57c24fee3"},"vehicle_type_id":"4","last_reported":1738782419,"current_range_meters":3200,"station_id":"ce4bgj12rcd13ifvqbc0","pricing_plan_id":"cebpf4jnsgd1na2vs0mg"},{"bike_id":"ca548841-038a-498c-a964-8af9b79f0f47","system_id":"levelo_inurba_marseille","lat":43.28034,"lon":5.36941,"is_reserved":false,"is_disabled":false,"rental_uris":{"android":"levelo://app?vid=ca548841-038a-498c-a964-8af9b79f0f47","ios":"levelo://app?vid=ca548841-038a-498c-a964-8af9b79f0f47"},"vehicle_type_id":"4","last_reported":1738782419,"current_range_meters":38800,"station_id":"ce4bha12rcd13ifvqef0","pricing_plan_id":"cebpf4jnsgd1na2vs0mg"},{"bike_id":"2b52254f-933d-4903-ac07-21eb27a1e798","system_id":"levelo_inurba_marseille","lat":43.27204,"lon":5.40981,"is_reserved":false,"is_disabled":false,"rental_uris":{"android":"levelo://app?vid=2b52254f-933d-4903-ac07-21eb27a1e798","ios":"levelo://app?vid=2b52254f-933d-4903-ac07-21eb27a1e798"},"vehicle_type_id":"4","last_reported":1738782419,"current_range_meters":38800,"station_id":"ce4bhl12rcd13ifvqgf0","pricing_plan_id":"cebpf4jnsgd1na2vs0mg"},{"bike_id":"4fe67431-c1d0-4ddc-9828-cd820db1cbb7","system_id":"levelo_inurba_marseille","lat":43.2951,"lon":5.39033,"is_reserved":false,"is_disabled":false,"rental_uris":{"android":"levelo://app?vid=4fe67431-c1d0-4ddc-9828-cd820db1cbb7","ios":"levelo://app?vid=4fe67431-c1d0-4ddc-9828-cd820db1cbb7"},"vehicle_type_id":"4","last_reported":1738782419,"current_range_meters":35200,"station_id":"ce4bh3p2rcd13ifvqdp0","pricing_plan_id":"cebpf4jnsgd1na2vs0mg"},{"bike_id":"519caea6-9b30-4975-a4ae-deba5fdb06f0","system_id":"levelo_inurba_marseille","lat":43.28975,"lon":5.37832,"is_reserved":false,"is_disabled":false,"rental_uris":{"android":"levelo://app?vid=519caea6-9b30-4975-a4ae-deba5fdb06f0","ios":"levelo://app?vid=519caea6-9b30-4975-a4ae-deba5fdb06f0"},"vehicle_type_id":"4","last_reported":1738782419,"current_range_meters":38800,"station_id":"ce4bh9p2rcd13ifvqed0","pricing_plan_id":"cebpf4jnsgd1na2vs0mg"},{"bike_id":"254ee125-6b7a-4356-af81-935fd261e379","system_id":"levelo_inurba_marseille","lat":43.29305,"lon":5.37174,"is_reserved":false,"is_disabled":false,"rental_uris":{"android":"levelo://app?vid=254ee125-6b7a-4356-af81-935fd261e379","ios":"levelo://app?vid=254ee125-6b7a-4356-af81-935fd261e379"},"vehicle_type_id":"4","last_reported":1738782419,"current_range_meters":24000,"station_id":"ce4bgh92rcd13ifvqb40","pricing_plan_id":"cebpf4jnsgd1na2vs0mg"},{"bike_id":"52990ad3-a46b-4f6e-b6b0-37c9c50197a1","system_id":"levelo_inurba_marseille","lat":43.31755,"lon":5.39025,"is_reserved":false,"is_disabled":false,"rental_uris":{"android":"levelo://app?vid=52990ad3-a46b-4f6e-b6b0-37c9c50197a1","ios":"levelo://app?vid=52990ad3-a46b-4f6e-b6b0-37c9c50197a1"},"vehicle_type_id":"4","last_reported":1738782419,"current_range_meters":38000,"station_id":"ce4bhqp2rcd13ifvqhng","pricing_plan_id":"cebpf4jnsgd1na2vs0mg"},{"bike_id":"61c83f02-b8b4-497c-a822-a07e72cb75d7","system_id":"levelo_inurba_marseille","lat":43.23165,"lon":5.43706,"is_reserved":false,"is_disabled":true,"rental_uris":{"android":"levelo://app?vid=61c83f02-b8b4-497c-a822-a07e72cb75d7","ios":"levelo://app?vid=61c83f02-b8b4-497c-a822-a07e72cb75d7"},"vehicle_type_id":"4","last_reported":1738782419,"current_range_meters":0,"station_id":"ce4bhmp2rcd13ifvqgog","pricing_plan_id":"cebpf4jnsgd1na2vs0mg"},{"bike_id":"b0835b4d-5d4e-4b83-8d65-c34141a6bbbb","system_id":"levelo_inurba_marseille","lat":43.29053,"lon":5.35892,"is_reserved":false,"is_disabled":false,"rental_uris":{"android":"levelo://app?vid=b0835b4d-5d4e-4b83-8d65-c34141a6bbbb","ios":"levelo://app?vid=b0835b4d-5d4e-4b83-8d65-c34141a6bbbb"},"vehicle_type_id":"4","last_reported":1738782419,"current_range_meters":39200,"station_id":"ce4bha92rcd13ifvqeg0","pricing_plan_id":"cebpf4jnsgd1na2vs0mg"},{"bike_id":"ab37694f-5270-47c3-a70e-95203bef707a","system_id":"levelo_inurba_marseille","lat":43.29025,"lon":5.38132,"is_reserved":false,"is_disabled":false,"rental_uris":{"android":"levelo://app?vid=ab37694f-5270-47c3-a70e-95203bef707a","ios":"levelo://app?vid=ab37694f-5270-47c3-a70e-95203bef707a"},"vehicle_type_id":"4","last_reported":1738782419,"current_range_meters":38400,"station_id":"ce4bh4p2rcd13ifvqe1g","pricing_plan_id":"cebpf4jnsgd1na2vs0mg"},{"bike_id":"bc3a20aa-daf6-4c5e-ac1c-17a251997803","system_id":"levelo_inurba_marseille","lat":43.2455,"lon":5.39522,"is_reserved":false,"is_disabled":false,"rental_uris":{"android":"levelo://app?vid=bc3a20aa-daf6-4c5e-ac1c-17a251997803","ios":"levelo://app?vid=bc3a20aa-daf6-4c5e-ac1c-17a251997803"},"vehicle_type_id":"4","last_reported":1738782419,"current_range_meters":6800,"station_id":"ce4bhlp2rcd13ifvqgjg","pricing_plan_id":"cebpf4jnsgd1na2vs0mg"},{"bike_id":"403724e3-d720-4605-b60a-eb50d0ff6cdc","system_id":"levelo_inurba_marseille","lat":43.30412,"lon":5.41292,"is_reserved":false,"is_disabled":false,"rental_uris":{"android":"levelo://app?vid=403724e3-d720-4605-b60a-eb50d0ff6cdc","ios":"levelo://app?vid=403724e3-d720-4605-b60a-eb50d0ff6cdc"},"vehicle_type_id":"4","last_reported":1738782419,"current_range_meters":38000,"station_id":"ce4bhop2rcd13ifvqh8g","pricing_plan_id":"cebpf4jnsgd1na2vs0mg"},{"bike_id":"ededb620-623f-43da-9515-661b1d2e8866","system_id":"levelo_inurba_marseille","lat":43.293641,"lon":5.378577,"is_reserved":false,"is_disabled":false,"rental_uris":{"android":"levelo://app?vid=ededb620-623f-43da-9515-661b1d2e8866","ios":"levelo://app?vid=ededb620-623f-43da-9515-661b1d2e8866"},"vehicle_type_id":"4","last_reported":1738782419,"current_range_meters":38400,"station_id":"ce4bgjh2rcd13ifvqbf0","pricing_plan_id":"cebpf4jnsgd1na2vs0mg"},{"bike_id":"03253d8c-4097-49f1-9a00-b8ccecf3b429","system_id":"levelo_inurba_marseille","lat":43.2866,"lon":5.36336,"is_reserved":false,"is_disabled":false,"rental_uris":{"android":"levelo://app?vid=03253d8c-4097-49f1-9a00-b8ccecf3b429","ios":"levelo://app?vid=03253d8c-4097-49f1-9a00-b8ccecf3b429"},"vehicle_type_id":"4","last_reported":1738782419,"current_range_meters":31200,"station_id":"ce4bhah2rcd13ifvqej0","pricing_plan_id":"cebpf4jnsgd1na2vs0mg"},{"bike_id":"30e987d8-e798-49a4-87fe-fe17b7c58f53","system_id":"levelo_inurba_marseille","lat":43.2768,"lon":5.38907,"is_reserved":false,"is_disabled":false,"rental_uris":{"android":"levelo://app?vid=30e987d8-e798-49a4-87fe-fe17b7c58f53","ios":"levelo://app?vid=30e987d8-e798-49a4-87fe-fe17b7c58f53"},"vehicle_type_id":"4","last_reported":1738782419,"current_range_meters":34800,"station_id":"ce4bhi12rcd13ifvqfo0","pricing_plan_id":"cebpf4jnsgd1na2vs0mg"},{"bike_id":"8dcb5648-f815-40ee-a1ef-63cb7b60c563","system_id":"levelo_inurba_marseille","lat":43.31997,"lon":5.3815,"is_reserved":false,"is_disabled":false,"rental_uris":{"android":"levelo://app?vid=8dcb5648-f815-40ee-a1ef-63cb7b60c563","ios":"levelo://app?vid=8dcb5648-f815-40ee-a1ef-63cb7b60c563"},"vehicle_type_id":"4","last_reported":1738782419,"current_range_meters":32000,"station_id":"ce4bhr12rcd13ifvqhpg","pricing_plan_id":"cebpf4jnsgd1na2vs0mg"},{"bike_id":"a9ee38d0-21e8-4d99-8e3f-cc643e32473e","system_id":"levelo_inurba_marseille","lat":43.27803,"lon":5.40713,"is_reserved":false,"is_disabled":false,"rental_uris":{"android":"levelo://app?vid=a9ee38d0-21e8-4d99-8e3f-cc643e32473e","ios":"levelo://app?vid=a9ee38d0-21e8-4d99-8e3f-cc643e32473e"},"vehicle_type_id":"4","last_reported":1738782419,"current_range_meters":37600,"station_id":"ce4bhnh2rcd13ifvqgtg","pricing_plan_id":"cebpf4jnsgd1na2vs0mg"},{"bike_id":"2feb1925-8367-45d2-aa8e-2a37a8f7b6e4","system_id":"levelo_inurba_marseille","lat":43.30786,"lon":5.38151,"is_reserved":false,"is_disabled":false,"rental_uris":{"android":"levelo://app?vid=2feb1925-8367-45d2-aa8e-2a37a8f7b6e4","ios":"levelo://app?vid=2feb1925-8367-45d2-aa8e-2a37a8f7b6e4"},"vehicle_type_id":"4","last_reported":1738782419,"current_range_meters":31200,"station_id":"ce4bgt12rcd13ifvqce0","pricing_plan_id":"cebpf4jnsgd1na2vs0mg"},{"bike_id":"9c81c1b8-1b89-413e-855b-6a07871bc1e0","system_id":"levelo_inurba_marseille","lat":43.23967,"lon":5.36614,"is_reserved":false,"is_disabled":false,"rental_uris":{"android":"levelo://app?vid=9c81c1b8-1b89-413e-855b-6a07871bc1e0","ios":"levelo://app?vid=9c81c1b8-1b89-413e-855b-6a07871bc1e0"},"vehicle_type_id":"4","last_reported":1738782419,"current_range_meters":24400,"station_id":"ce4bhi12rcd13ifvqfp0","pricing_plan_id":"cebpf4jnsgd1na2vs0mg"},{"bike_id":"81dfdec4-f289-41f1-a4d8-0cbc0b2b5f40","system_id":"levelo_inurba_marseille","lat":43.28697,"lon":5.3737,"is_reserved":false,"is_disabled":false,"rental_uris":{"android":"levelo://app?vid=81dfdec4-f289-41f1-a4d8-0cbc0b2b5f40","ios":"levelo://app?vid=81dfdec4-f289-41f1-a4d8-0cbc0b2b5f40"},"vehicle_type_id":"4","last_reported":1738782419,"current_range_meters":18000,"station_id":"ce4bh3p2rcd13ifvqdq0","pricing_plan_id":"cebpf4jnsgd1na2vs0mg"},{"bike_id":"66c91f0e-d404-4399-99c9-77276ceb134d","system_id":"levelo_inurba_marseille","lat":43.30534,"lon":5.36521,"is_reserved":false,"is_disabled":true,"rental_uris":{"android":"levelo://app?vid=66c91f0e-d404-4399-99c9-77276ceb134d","ios":"levelo://app?vid=66c91f0e-d404-4399-99c9-77276ceb134d"},"vehicle_type_id":"4","last_reported":1738782419,"current_range_meters":38000,"station_id":"ce4bgs12rcd13ifvqcag","pricing_plan_id":"cebpf4jnsgd1na2vs0mg"},{"bike_id":"3d1d38d7-e37e-41a9-9885-0f5e96cdb53e","system_id":"levelo_inurba_marseille","lat":43.2847,"lon":5.35907,"is_reserved":false,"is_disabled":false,"rental_uris":{"android":"levelo://app?vid=3d1d38d7-e37e-41a9-9885-0f5e96cdb53e","ios":"levelo://app?vid=3d1d38d7-e37e-41a9-9885-0f5e96cdb53e"},"vehicle_type_id":"4","last_reported":1738782419,"current_range_meters":16400,"station_id":"ce4bhah2rcd13ifvqei0","pricing_plan_id":"cebpf4jnsgd1na2vs0mg"},{"bike_id":"bab07d03-5352-4a1b-80e4-e1f9df8edacd","system_id":"levelo_inurba_marseille","lat":43.23208,"lon":5.3552,"is_reserved":false,"is_disabled":false,"rental_uris":{"android":"levelo://app?vid=bab07d03-5352-4a1b-80e4-e1f9df8edacd","ios":"levelo://app?vid=bab07d03-5352-4a1b-80e4-e1f9df8edacd"},"vehicle_type_id":"4","last_reported":1738782419,"current_range_meters":36800,"station_id":"ce4bhu92rcd13ifvqi70","pricing_plan_id":"cebpf4jnsgd1na2vs0mg"},{"bike_id":"568b8612-9017-4880-b7d7-921a6af61f24","system_id":"levelo_inurba_marseille","lat":43.26489,"lon":5.39562,"is_reserved":false,"is_disabled":false,"rental_uris":{"android":"levelo://app?vid=568b8612-9017-4880-b7d7-921a6af61f24","ios":"levelo://app?vid=568b8612-9017-4880-b7d7-921a6af61f24"},"vehicle_type_id":"4","last_reported":1738782419,"current_range_meters":32400,"station_id":"ce4bhi12rcd13ifvqfq0","pricing_plan_id":"cebpf4jnsgd1na2vs0mg"},{"bike_id":"537e744e-4567-433f-aaae-70e980deab7a","system_id":"levelo_inurba_marseille","lat":43.29417,"lon":5.38631,"is_reserved":false,"is_disabled":false,"rental_uris":{"android":"levelo://app?vid=537e744e-4567-433f-aaae-70e980deab7a","ios":"levelo://app?vid=537e744e-4567-433f-aaae-70e980deab7a"},"vehicle_type_id":"4","last_reported":1738782419,"current_range_meters":39200,"station_id":"ce4bh2h2rcd13ifvqdh0","pricing_plan_id":"cebpf4jnsgd1na2vs0mg"},{"bike_id":"9810cd10-f0e3-4d42-bdb5-19d716dccec8","system_id":"levelo_inurba_marseille","lat":43.27812,"lon":5.40717,"is_reserved":false,"is_disabled":false,"rental_uris":{"android":"levelo://app?vid=9810cd10-f0e3-4d42-bdb5-19d716dccec8","ios":"levelo://app?vid=9810cd10-f0e3-4d42-bdb5-19d716dccec8"},"vehicle_type_id":"4","last_reported":1738782419,"current_range_meters":25200,"station_id":"ce4bhnh2rcd13ifvqgtg","pricing_plan_id":"cebpf4jnsgd1na2vs0mg"},{"bike_id":"f0f1bdbe-836b-40c4-81e1-95d9c846a826","system_id":"levelo_inurba_marseille","lat":43.33007,"lon":5.39043,"is_reserved":false,"is_disabled":false,"rental_uris":{"android":"levelo://app?vid=f0f1bdbe-836b-40c4-81e1-95d9c846a826","ios":"levelo://app?vid=f0f1bdbe-836b-40c4-81e1-95d9c846a826"},"vehicle_type_id":"4","last_reported":1738782419,"current_range_meters":38800,"station_id":"ce4bhr92rcd13ifvqhrg","pricing_plan_id":"cebpf4jnsgd1na2vs0mg"},{"bike_id":"7d01641d-15de-4c5c-999a-3807e9ecf13c","system_id":"levelo_inurba_marseille","lat":43.28253,"lon":5.35046,"is_reserved":false,"is_disabled":false,"rental_uris":{"android":"levelo://app?vid=7d01641d-15de-4c5c-999a-3807e9ecf13c","ios":"levelo://app?vid=7d01641d-15de-4c5c-999a-3807e9ecf13c"},"vehicle_type_id":"4","last_reported":1738782419,"current_range_meters":27200,"station_id":"ce4bho92rcd13ifvqh3g","pricing_plan_id":"cebpf4jnsgd1na2vs0mg"},{"bike_id":"ddb48a2e-0e7a-4db9-bb08-d15c6b7ecf4a","system_id":"levelo_inurba_marseille","lat":43.27626,"lon":5.36122,"is_reserved":false,"is_disabled":false,"rental_uris":{"android":"levelo://app?vid=ddb48a2e-0e7a-4db9-bb08-d15c6b7ecf4a","ios":"levelo://app?vid=ddb48a2e-0e7a-4db9-bb08-d15c6b7ecf4a"},"vehicle_type_id":"4","last_reported":1738782419,"current_range_meters":38800,"station_id":"ce4bgj92rcd13ifvqbe0","pricing_plan_id":"cebpf4jnsgd1na2vs0mg"},{"bike_id":"039d6344-780f-4135-a3ba-fc6df29ecbb3","system_id":"levelo_inurba_marseille","lat":43.27372,"lon":5.36257,"is_reserved":false,"is_disabled":false,"rental_uris":{"android":"levelo://app?vid=039d6344-780f-4135-a3ba-fc6df29ecbb3","ios":"levelo://app?vid=039d6344-780f-4135-a3ba-fc6df29ecbb3"},"vehicle_type_id":"4","last_reported":1738782419,"current_range_meters":38400,"station_id":"ce4bhbh2rcd13ifvqeo0","pricing_plan_id":"cebpf4jnsgd1na2vs0mg"},{"bike_id":"e7d31327-323a-443c-bb67-39186722e63f","system_id":"levelo_inurba_marseille","lat":43.33776,"lon":5.37431,"is_reserved":false,"is_disabled":false,"rental_uris":{"android":"levelo://app?vid=e7d31327-323a-443c-bb67-39186722e63f","ios":"levelo://app?vid=e7d31327-323a-443c-bb67-39186722e63f"},"vehicle_type_id":"4","last_reported":1738782419,"current_range_meters":11200,"station_id":"","pricing_plan_id":"cebpf4jnsgd1na2vs0mg"},{"bike_id":"c842f8d4-19ba-4cd9-ac26-ef3c81f0698f","system_id":"levelo_inurba_marseille","lat":43.29986,"lon":5.38471,"is_reserved":false,"is_disabled":false,"rental_uris":{"android":"levelo://app?vid=c842f8d4-19ba-4cd9-ac26-ef3c81f0698f","ios":"levelo://app?vid=c842f8d4-19ba-4cd9-ac26-ef3c81f0698f"},"vehicle_type_id":"4","last_reported":1738782419,"current_range_meters":38800,"station_id":"ce4bgj92rcd13ifvqbd0","pricing_plan_id":"cebpf4jnsgd1na2vs0mg"},{"bike_id":"93cab8cc-c77b-4201-82ee-38a96f1e3bc5","system_id":"levelo_inurba_marseille","lat":43.27977,"lon":5.41028,"is_reserved":false,"is_disabled":false,"rental_uris":{"android":"levelo://app?vid=93cab8cc-c77b-4201-82ee-38a96f1e3bc5","ios":"levelo://app?vid=93cab8cc-c77b-4201-82ee-38a96f1e3bc5"},"vehicle_type_id":"4","last_reported":1738782419,"current_range_meters":7200,"station_id":"ce4bhnp2rcd13ifvqh0g","pricing_plan_id":"cebpf4jnsgd1na2vs0mg"},{"bike_id":"f3b81975-5366-4b75-8300-38c9b071f842","system_id":"levelo_inurba_marseille","lat":43.29737,"lon":5.37998,"is_reserved":false,"is_disabled":false,"rental_uris":{"android":"levelo://app?vid=f3b81975-5366-4b75-8300-38c9b071f842","ios":"levelo://app?vid=f3b81975-5366-4b75-8300-38c9b071f842"},"vehicle_type_id":"4","last_reported":1738782419,"current_range_meters":20800,"station_id":"","pricing_plan_id":"cebpf4jnsgd1na2vs0mg"},{"bike_id":"aee3719b-ff75-435e-aa1c-24b4bddf333e","system_id":"levelo_inurba_marseille","lat":43.24071,"lon":5.37756,"is_reserved":false,"is_disabled":false,"rental_uris":{"android":"levelo://app?vid=aee3719b-ff75-435e-aa1c-24b4bddf333e","ios":"levelo://app?vid=aee3719b-ff75-435e-aa1c-24b4bddf333e"},"vehicle_type_id":"4","last_reported":1738782419,"current_range_meters":24000,"station_id":"ce4bhnp2rcd13ifvqgvg","pricing_plan_id":"cebpf4jnsgd1na2vs0mg"},{"bike_id":"218c6780-4913-4816-a406-0f459333ae5d","system_id":"levelo_inurba_marseille","lat":43.28464,"lon":5.35882,"is_reserved":false,"is_disabled":false,"rental_uris":{"android":"levelo://app?vid=218c6780-4913-4816-a406-0f459333ae5d","ios":"levelo://app?vid=218c6780-4913-4816-a406-0f459333ae5d"},"vehicle_type_id":"4","last_reported":1738782419,"current_range_meters":28800,"station_id":"ce4bhah2rcd13ifvqei0","pricing_plan_id":"cebpf4jnsgd1na2vs0mg"},{"bike_id":"a143f20b-1816-4499-90fb-743dde03b3eb","system_id":"levelo_inurba_marseille","lat":43.29274,"lon":5.36838,"is_reserved":false,"is_disabled":false,"rental_uris":{"android":"levelo://app?vid=a143f20b-1816-4499-90fb-743dde03b3eb","ios":"levelo://app?vid=a143f20b-1816-4499-90fb-743dde03b3eb"},"vehicle_type_id":"4","last_reported":1738782419,"current_range_meters":16000,"station_id":"ce4bhbp2rcd13ifvqesg","pricing_plan_id":"cebpf4jnsgd1na2vs0mg"},{"bike_id":"61857cc0-1da3-4716-a1df-4b82d2ea552c","system_id":"levelo_inurba_marseille","lat":43.25099,"lon":5.40311,"is_reserved":false,"is_disabled":false,"rental_uris":{"android":"levelo://app?vid=61857cc0-1da3-4716-a1df-4b82d2ea552c","ios":"levelo://app?vid=61857cc0-1da3-4716-a1df-4b82d2ea552c"},"vehicle_type_id":"4","last_reported":1738782419,"current_range_meters":8400,"station_id":"ce4bhlh2rcd13ifvqgig","pricing_plan_id":"cebpf4jnsgd1na2vs0mg"},{"bike_id":"cd07e062-2af1-406e-bcb9-5f1ec4730937","system_id":"levelo_inurba_marseille","lat":43.23068,"lon":5.3549,"is_reserved":false,"is_disabled":false,"rental_uris":{"android":"levelo://app?vid=cd07e062-2af1-406e-bcb9-5f1ec4730937","ios":"levelo://app?vid=cd07e062-2af1-406e-bcb9-5f1ec4730937"},"vehicle_type_id":"4","last_reported":1738782419,"current_range_meters":38000,"station_id":"cpo3342slgdg3j2ifvpg","pricing_plan_id":"cebpf4jnsgd1na2vs0mg"},{"bike_id":"c3644d12-8427-4602-9945-9ef42c46feca","system_id":"levelo_inurba_marseille","lat":43.241696,"lon":5.36396,"is_reserved":false,"is_disabled":false,"rental_uris":{"android":"levelo://app?vid=c3644d12-8427-4602-9945-9ef42c46feca","ios":"levelo://app?vid=c3644d12-8427-4602-9945-9ef42c46feca"},"vehicle_type_id":"4","last_reported":1738782419,"current_range_meters":38000,"station_id":"cpo36qri1sfpv3e86is0","pricing_plan_id":"cebpf4jnsgd1na2vs0mg"},{"bike_id":"6b38d43d-337c-4149-9167-ccfdd61c33a4","system_id":"levelo_inurba_marseille","lat":43.29224,"lon":5.36075,"is_reserved":false,"is_disabled":false,"rental_uris":{"android":"levelo://app?vid=6b38d43d-337c-4149-9167-ccfdd61c33a4","ios":"levelo://app?vid=6b38d43d-337c-4149-9167-ccfdd61c33a4"},"vehicle_type_id":"4","last_reported":1738782419,"current_range_meters":35600,"station_id":"ce4bhbh2rcd13ifvqeqg","pricing_plan_id":"cebpf4jnsgd1na2vs0mg"},{"bike_id":"274186d6-fcd1-4040-98ea-21465f7f35af","system_id":"levelo_inurba_marseille","lat":43.25005,"lon":5.38925,"is_reserved":false,"is_disabled":true,"rental_uris":{"android":"levelo://app?vid=274186d6-fcd1-4040-98ea-21465f7f35af","ios":"levelo://app?vid=274186d6-fcd1-4040-98ea-21465f7f35af"},"vehicle_type_id":"4","last_reported":1738782419,"current_range_meters":2000,"station_id":"ce4bhgp2rcd13ifvqfd0","pricing_plan_id":"cebpf4jnsgd1na2vs0mg"},{"bike_id":"1e7bde43-ab8f-4755-b59a-acd0a53ae759","system_id":"levelo_inurba_marseille","lat":43.31716,"lon":5.42385,"is_reserved":false,"is_disabled":true,"rental_uris":{"android":"levelo://app?vid=1e7bde43-ab8f-4755-b59a-acd0a53ae759","ios":"levelo://app?vid=1e7bde43-ab8f-4755-b59a-acd0a53ae759"},"vehicle_type_id":"4","last_reported":1738782419,"current_range_meters":0,"station_id":"ce4bhp92rcd13ifvqhbg","pricing_plan_id":"cebpf4jnsgd1na2vs0mg"},{"bike_id":"7e8a210f-046d-47e3-97a4-d2c4010a7eb4","system_id":"levelo_inurba_marseille","lat":43.32023,"lon":5.41518,"is_reserved":false,"is_disabled":false,"rental_uris":{"android":"levelo://app?vid=7e8a210f-046d-47e3-97a4-d2c4010a7eb4","ios":"levelo://app?vid=7e8a210f-046d-47e3-97a4-d2c4010a7eb4"},"vehicle_type_id":"4","last_reported":1738782419,"current_range_meters":26000,"station_id":"ce4bhq92rcd13ifvqhkg","pricing_plan_id":"cebpf4jnsgd1na2vs0mg"},{"bike_id":"51d0991b-a36d-4070-ab20-02bb6d1d0ac7","system_id":"levelo_inurba_marseille","lat":43.31367,"lon":5.38489,"is_reserved":false,"is_disabled":false,"rental_uris":{"android":"levelo://app?vid=51d0991b-a36d-4070-ab20-02bb6d1d0ac7","ios":"levelo://app?vid=51d0991b-a36d-4070-ab20-02bb6d1d0ac7"},"vehicle_type_id":"4","last_reported":1738782419,"current_range_meters":36800,"station_id":"ce4bgt92rcd13ifvqcf0","pricing_plan_id":"cebpf4jnsgd1na2vs0mg"},{"bike_id":"bd944b22-bdc4-45a8-9a31-0c38734abd7e","system_id":"levelo_inurba_marseille","lat":43.28978,"lon":5.36393,"is_reserved":false,"is_disabled":false,"rental_uris":{"android":"levelo://app?vid=bd944b22-bdc4-45a8-9a31-0c38734abd7e","ios":"levelo://app?vid=bd944b22-bdc4-45a8-9a31-0c38734abd7e"},"vehicle_type_id":"4","last_reported":1738782419,"current_range_meters":4400,"station_id":"ce4bhc92rcd13ifvqetg","pricing_plan_id":"cebpf4jnsgd1na2vs0mg"},{"bike_id":"693aada9-e6ba-426f-9e3c-422116f71ca4","system_id":"levelo_inurba_marseille","lat":43.2886,"lon":5.35856,"is_reserved":false,"is_disabled":false,"rental_uris":{"android":"levelo://app?vid=693aada9-e6ba-426f-9e3c-422116f71ca4","ios":"levelo://app?vid=693aada9-e6ba-426f-9e3c-422116f71ca4"},"vehicle_type_id":"4","last_reported":1738782419,"current_range_meters":25200,"station_id":"ce4bhb12rcd13ifvqem0","pricing_plan_id":"cebpf4jnsgd1na2vs0mg"},{"bike_id":"78a4c83f-4d73-437d-9527-15d2cb2bd443","system_id":"levelo_inurba_marseille","lat":43.28151,"lon":5.42655,"is_reserved":false,"is_disabled":false,"rental_uris":{"android":"levelo://app?vid=78a4c83f-4d73-437d-9527-15d2cb2bd443","ios":"levelo://app?vid=78a4c83f-4d73-437d-9527-15d2cb2bd443"},"vehicle_type_id":"4","last_reported":1738782419,"current_range_meters":20800,"station_id":"ce4bhnh2rcd13ifvqgug","pricing_plan_id":"cebpf4jnsgd1na2vs0mg"},{"bike_id":"d0b7f73e-4718-467f-b3a2-9d84e070e77d","system_id":"levelo_inurba_marseille","lat":43.29272,"lon":5.38423,"is_reserved":false,"is_disabled":false,"rental_uris":{"android":"levelo://app?vid=d0b7f73e-4718-467f-b3a2-9d84e070e77d","ios":"levelo://app?vid=d0b7f73e-4718-467f-b3a2-9d84e070e77d"},"vehicle_type_id":"4","last_reported":1738782419,"current_range_meters":16000,"station_id":"ce4bh692rcd13ifvqea0","pricing_plan_id":"cebpf4jnsgd1na2vs0mg"},{"bike_id":"45a7daa2-2a2e-4454-90c3-1009aaecc5bd","system_id":"levelo_inurba_marseille","lat":43.23209,"lon":5.35524,"is_reserved":false,"is_disabled":false,"rental_uris":{"android":"levelo://app?vid=45a7daa2-2a2e-4454-90c3-1009aaecc5bd","ios":"levelo://app?vid=45a7daa2-2a2e-4454-90c3-1009aaecc5bd"},"vehicle_type_id":"4","last_reported":1738782419,"current_range_meters":38800,"station_id":"ce4bhu92rcd13ifvqi70","pricing_plan_id":"cebpf4jnsgd1na2vs0mg"},{"bike_id":"ee005bae-497c-4312-9b03-99403b18d5fb","system_id":"levelo_inurba_marseille","lat":43.26036,"lon":5.37546,"is_reserved":false,"is_disabled":false,"rental_uris":{"android":"levelo://app?vid=ee005bae-497c-4312-9b03-99403b18d5fb","ios":"levelo://app?vid=ee005bae-497c-4312-9b03-99403b18d5fb"},"vehicle_type_id":"4","last_reported":1738782419,"current_range_meters":15200,"station_id":"ce4bhgh2rcd13ifvqfa0","pricing_plan_id":"cebpf4jnsgd1na2vs0mg"},{"bike_id":"aece1634-918f-4f68-8bc7-9a7b7abafc1f","system_id":"levelo_inurba_marseille","lat":43.28151,"lon":5.42612,"is_reserved":false,"is_disabled":true,"rental_uris":{"android":"levelo://app?vid=aece1634-918f-4f68-8bc7-9a7b7abafc1f","ios":"levelo://app?vid=aece1634-918f-4f68-8bc7-9a7b7abafc1f"},"vehicle_type_id":"4","last_reported":1738782419,"current_range_meters":28800,"station_id":"ce4bhnh2rcd13ifvqgug","pricing_plan_id":"cebpf4jnsgd1na2vs0mg"},{"bike_id":"72e458a9-2a04-4d7d-a6ed-4033588f5b60","system_id":"levelo_inurba_marseille","lat":43.32361,"lon":5.38891,"is_reserved":false,"is_disabled":false,"rental_uris":{"android":"levelo://app?vid=72e458a9-2a04-4d7d-a6ed-4033588f5b60","ios":"levelo://app?vid=72e458a9-2a04-4d7d-a6ed-4033588f5b60"},"vehicle_type_id":"4","last_reported":1738782419,"current_range_meters":24400,"station_id":"ce4bhqp2rcd13ifvqhog","pricing_plan_id":"cebpf4jnsgd1na2vs0mg"},{"bike_id":"e4fbacd2-2c44-4b78-b9fc-d346dc2a77d1","system_id":"levelo_inurba_marseille","lat":43.32374,"lon":5.38875,"is_reserved":false,"is_disabled":false,"rental_uris":{"android":"levelo://app?vid=e4fbacd2-2c44-4b78-b9fc-d346dc2a77d1","ios":"levelo://app?vid=e4fbacd2-2c44-4b78-b9fc-d346dc2a77d1"},"vehicle_type_id":"4","last_reported":1738782419,"current_range_meters":37600,"station_id":"ce4bhqp2rcd13ifvqhog","pricing_plan_id":"cebpf4jnsgd1na2vs0mg"},{"bike_id":"3b1d5f28-8e2f-4cd2-84ee-32e60c8bc1d4","system_id":"levelo_inurba_marseille","lat":43.27958,"lon":5.38706,"is_reserved":false,"is_disabled":true,"rental_uris":{"android":"levelo://app?vid=3b1d5f28-8e2f-4cd2-84ee-32e60c8bc1d4","ios":"levelo://app?vid=3b1d5f28-8e2f-4cd2-84ee-32e60c8bc1d4"},"vehicle_type_id":"4","last_reported":1738782419,"current_range_meters":0,"station_id":"ce4bhg12rcd13ifvqf80","pricing_plan_id":"cebpf4jnsgd1na2vs0mg"},{"bike_id":"a3ed45c0-701d-4cbe-b249-37e7c0d79896","system_id":"levelo_inurba_marseille","lat":43.28153,"lon":5.42658,"is_reserved":false,"is_disabled":true,"rental_uris":{"android":"levelo://app?vid=a3ed45c0-701d-4cbe-b249-37e7c0d79896","ios":"levelo://app?vid=a3ed45c0-701d-4cbe-b249-37e7c0d79896"},"vehicle_type_id":"4","last_reported":1738782419,"current_range_meters":0,"station_id":"ce4bhnh2rcd13ifvqgug","pricing_plan_id":"cebpf4jnsgd1na2vs0mg"},{"bike_id":"a17b902b-bafc-49d0-9389-2ce74253b3a1","system_id":"levelo_inurba_marseille","lat":43.27191,"lon":5.40993,"is_reserved":false,"is_disabled":true,"rental_uris":{"android":"levelo://app?vid=a17b902b-bafc-49d0-9389-2ce74253b3a1","ios":"levelo://app?vid=a17b902b-bafc-49d0-9389-2ce74253b3a1"},"vehicle_type_id":"4","last_reported":1738782419,"current_range_meters":31200,"station_id":"ce4bhl12rcd13ifvqgf0","pricing_plan_id":"cebpf4jnsgd1na2vs0mg"},{"bike_id":"82928581-7cae-4db3-9a68-a5b9ec34a9ee","system_id":"levelo_inurba_marseille","lat":43.31885,"lon":5.43372,"is_reserved":false,"is_disabled":true,"rental_uris":{"android":"levelo://app?vid=82928581-7cae-4db3-9a68-a5b9ec34a9ee","ios":"levelo://app?vid=82928581-7cae-4db3-9a68-a5b9ec34a9ee"},"vehicle_type_id":"4","last_reported":1738782419,"current_range_meters":400,"station_id":"","pricing_plan_id":"cebpf4jnsgd1na2vs0mg"},{"bike_id":"9d71d304-2002-4ef9-bd23-de48bc17ac77","system_id":"levelo_inurba_marseille","lat":43.24082,"lon":5.37737,"is_reserved":false,"is_disabled":false,"rental_uris":{"android":"levelo://app?vid=9d71d304-2002-4ef9-bd23-de48bc17ac77","ios":"levelo://app?vid=9d71d304-2002-4ef9-bd23-de48bc17ac77"},"vehicle_type_id":"4","last_reported":1738782419,"current_range_meters":38800,"station_id":"ce4bhnp2rcd13ifvqgvg","pricing_plan_id":"cebpf4jnsgd1na2vs0mg"},{"bike_id":"09bfd0b5-ea9d-40d2-b9e3-c178be46bfd6","system_id":"levelo_inurba_marseille","lat":43.27231,"lon":5.39151,"is_reserved":false,"is_disabled":true,"rental_uris":{"android":"levelo://app?vid=09bfd0b5-ea9d-40d2-b9e3-c178be46bfd6","ios":"levelo://app?vid=09bfd0b5-ea9d-40d2-b9e3-c178be46bfd6"},"vehicle_type_id":"4","last_reported":1738782419,"current_range_meters":1200,"station_id":"ce4bhhp2rcd13ifvqfm0","pricing_plan_id":"cebpf4jnsgd1na2vs0mg"},{"bike_id":"4a0f6893-fde6-49c6-a1ca-e86134e00597","system_id":"levelo_inurba_marseille","lat":43.2894,"lon":5.36603,"is_reserved":false,"is_disabled":false,"rental_uris":{"android":"levelo://app?vid=4a0f6893-fde6-49c6-a1ca-e86134e00597","ios":"levelo://app?vid=4a0f6893-fde6-49c6-a1ca-e86134e00597"},"vehicle_type_id":"4","last_reported":1738782419,"current_range_meters":38800,"station_id":"ce4bhap2rcd13ifvqek0","pricing_plan_id":"cebpf4jnsgd1na2vs0mg"},{"bike_id":"39e48cdd-1e81-47f1-8caa-7197be9aaab1","system_id":"levelo_inurba_marseille","lat":43.31758,"lon":5.3901,"is_reserved":false,"is_disabled":false,"rental_uris":{"android":"levelo://app?vid=39e48cdd-1e81-47f1-8caa-7197be9aaab1","ios":"levelo://app?vid=39e48cdd-1e81-47f1-8caa-7197be9aaab1"},"vehicle_type_id":"4","last_reported":1738782419,"current_range_meters":30000,"station_id":"ce4bhqp2rcd13ifvqhng","pricing_plan_id":"cebpf4jnsgd1na2vs0mg"},{"bike_id":"e7c1e588-17f4-4a84-9179-50c6166feadc","system_id":"levelo_inurba_marseille","lat":43.2942,"lon":5.38625,"is_reserved":false,"is_disabled":false,"rental_uris":{"android":"levelo://app?vid=e7c1e588-17f4-4a84-9179-50c6166feadc","ios":"levelo://app?vid=e7c1e588-17f4-4a84-9179-50c6166feadc"},"vehicle_type_id":"4","last_reported":1738782419,"current_range_meters":6400,"station_id":"ce4bh2h2rcd13ifvqdh0","pricing_plan_id":"cebpf4jnsgd1na2vs0mg"},{"bike_id":"2df554c2-bf8f-4631-8c11-540cdb6aeb93","system_id":"levelo_inurba_marseille","lat":43.26558,"lon":5.39034,"is_reserved":false,"is_disabled":false,"rental_uris":{"android":"levelo://app?vid=2df554c2-bf8f-4631-8c11-540cdb6aeb93","ios":"levelo://app?vid=2df554c2-bf8f-4631-8c11-540cdb6aeb93"},"vehicle_type_id":"4","last_reported":1738782419,"current_range_meters":10800,"station_id":"ce4bhe12rcd13ifvqf30","pricing_plan_id":"cebpf4jnsgd1na2vs0mg"},{"bike_id":"853c5528-321f-4078-9263-1a387120e184","system_id":"levelo_inurba_marseille","lat":43.28615,"lon":5.37061,"is_reserved":false,"is_disabled":false,"rental_uris":{"android":"levelo://app?vid=853c5528-321f-4078-9263-1a387120e184","ios":"levelo://app?vid=853c5528-321f-4078-9263-1a387120e184"},"vehicle_type_id":"4","last_reported":1738782419,"current_range_meters":38800,"station_id":"ce4bht12rcd13ifvqi60","pricing_plan_id":"cebpf4jnsgd1na2vs0mg"},{"bike_id":"554e5e02-8015-4d2a-aeb7-01f85173ce07","system_id":"levelo_inurba_marseille","lat":43.29047,"lon":5.35903,"is_reserved":false,"is_disabled":false,"rental_uris":{"android":"levelo://app?vid=554e5e02-8015-4d2a-aeb7-01f85173ce07","ios":"levelo://app?vid=554e5e02-8015-4d2a-aeb7-01f85173ce07"},"vehicle_type_id":"4","last_reported":1738782419,"current_range_meters":39200,"station_id":"ce4bha92rcd13ifvqeg0","pricing_plan_id":"cebpf4jnsgd1na2vs0mg"},{"bike_id":"2118c82d-0143-415d-aaf1-22408e5c55b9","system_id":"levelo_inurba_marseille","lat":43.28456,"lon":5.39172,"is_reserved":false,"is_disabled":false,"rental_uris":{"android":"levelo://app?vid=2118c82d-0143-415d-aaf1-22408e5c55b9","ios":"levelo://app?vid=2118c82d-0143-415d-aaf1-22408e5c55b9"},"vehicle_type_id":"4","last_reported":1738782419,"current_range_meters":36800,"station_id":"ce4bhoh2rcd13ifvqh5g","pricing_plan_id":"cebpf4jnsgd1na2vs0mg"},{"bike_id":"0a1d80a5-8567-473e-862c-e2d2e710157a","system_id":"levelo_inurba_marseille","lat":43.28428,"lon":5.34983,"is_reserved":false,"is_disabled":false,"rental_uris":{"android":"levelo://app?vid=0a1d80a5-8567-473e-862c-e2d2e710157a","ios":"levelo://app?vid=0a1d80a5-8567-473e-862c-e2d2e710157a"},"vehicle_type_id":"4","last_reported":1738782419,"current_range_meters":33200,"station_id":"ce4bhbh2rcd13ifvqepg","pricing_plan_id":"cebpf4jnsgd1na2vs0mg"},{"bike_id":"f8a4576c-8966-495c-b624-858315fd786c","system_id":"levelo_inurba_marseille","lat":43.29082,"lon":5.38109,"is_reserved":false,"is_disabled":false,"rental_uris":{"android":"levelo://app?vid=f8a4576c-8966-495c-b624-858315fd786c","ios":"levelo://app?vid=f8a4576c-8966-495c-b624-858315fd786c"},"vehicle_type_id":"4","last_reported":1738782419,"current_range_meters":14000,"station_id":"ce4bh512rcd13ifvqe2g","pricing_plan_id":"cebpf4jnsgd1na2vs0mg"},{"bike_id":"efc75f68-c0e7-4c38-a126-0f2ae1afe39d","system_id":"levelo_inurba_marseille","lat":43.27197,"lon":5.40987,"is_reserved":false,"is_disabled":false,"rental_uris":{"android":"levelo://app?vid=efc75f68-c0e7-4c38-a126-0f2ae1afe39d","ios":"levelo://app?vid=efc75f68-c0e7-4c38-a126-0f2ae1afe39d"},"vehicle_type_id":"4","last_reported":1738782419,"current_range_meters":38000,"station_id":"ce4bhl12rcd13ifvqgf0","pricing_plan_id":"cebpf4jnsgd1na2vs0mg"},{"bike_id":"c8867084-73b3-4ef6-939b-90719c3af5d4","system_id":"levelo_inurba_marseille","lat":43.241665,"lon":5.364125,"is_reserved":false,"is_disabled":true,"rental_uris":{"android":"levelo://app?vid=c8867084-73b3-4ef6-939b-90719c3af5d4","ios":"levelo://app?vid=c8867084-73b3-4ef6-939b-90719c3af5d4"},"vehicle_type_id":"4","last_reported":1738782419,"current_range_meters":4800,"station_id":"cpo36qri1sfpv3e86is0","pricing_plan_id":"cebpf4jnsgd1na2vs0mg"},{"bike_id":"8687cc3e-06d9-4f73-8631-54c89778e596","system_id":"levelo_inurba_marseille","lat":43.30425,"lon":5.39735,"is_reserved":false,"is_disabled":false,"rental_uris":{"android":"levelo://app?vid=8687cc3e-06d9-4f73-8631-54c89778e596","ios":"levelo://app?vid=8687cc3e-06d9-4f73-8631-54c89778e596"},"vehicle_type_id":"4","last_reported":1738782419,"current_range_meters":26800,"station_id":"ce4bh092rcd13ifvqd20","pricing_plan_id":"cebpf4jnsgd1na2vs0mg"},{"bike_id":"3ce9be42-ab76-43a9-bf8b-31b97f0d14a1","system_id":"levelo_inurba_marseille","lat":43.2847,"lon":5.35897,"is_reserved":false,"is_disabled":false,"rental_uris":{"android":"levelo://app?vid=3ce9be42-ab76-43a9-bf8b-31b97f0d14a1","ios":"levelo://app?vid=3ce9be42-ab76-43a9-bf8b-31b97f0d14a1"},"vehicle_type_id":"4","last_reported":1738782419,"current_range_meters":29600,"station_id":"ce4bhah2rcd13ifvqei0","pricing_plan_id":"cebpf4jnsgd1na2vs0mg"},{"bike_id":"25d556ce-3f32-408f-bbd6-29b976ef448a","system_id":"levelo_inurba_marseille","lat":43.232,"lon":5.39987,"is_reserved":false,"is_disabled":false,"rental_uris":{"android":"levelo://app?vid=25d556ce-3f32-408f-bbd6-29b976ef448a","ios":"levelo://app?vid=25d556ce-3f32-408f-bbd6-29b976ef448a"},"vehicle_type_id":"4","last_reported":1738782419,"current_range_meters":11200,"station_id":"ce4bhn12rcd13ifvqgqg","pricing_plan_id":"cebpf4jnsgd1na2vs0mg"},{"bike_id":"61448cdc-71a0-4a68-8574-d29e3ec30fef","system_id":"levelo_inurba_marseille","lat":43.31176,"lon":5.3871,"is_reserved":false,"is_disabled":false,"rental_uris":{"android":"levelo://app?vid=61448cdc-71a0-4a68-8574-d29e3ec30fef","ios":"levelo://app?vid=61448cdc-71a0-4a68-8574-d29e3ec30fef"},"vehicle_type_id":"4","last_reported":1738782419,"current_range_meters":35600,"station_id":"ce4bgv12rcd13ifvqcp0","pricing_plan_id":"cebpf4jnsgd1na2vs0mg"},{"bike_id":"edba70a9-b1f8-4bb5-bd02-f5669cf894f4","system_id":"levelo_inurba_marseille","lat":43.290119,"lon":5.386366,"is_reserved":false,"is_disabled":false,"rental_uris":{"android":"levelo://app?vid=edba70a9-b1f8-4bb5-bd02-f5669cf894f4","ios":"levelo://app?vid=edba70a9-b1f8-4bb5-bd02-f5669cf894f4"},"vehicle_type_id":"4","last_reported":1738782419,"current_range_meters":38800,"station_id":"ce4bh4p2rcd13ifvqe0g","pricing_plan_id":"cebpf4jnsgd1na2vs0mg"},{"bike_id":"97e3f16d-c680-499c-b7df-c4ab9d43861c","system_id":"levelo_inurba_marseille","lat":43.2317,"lon":5.39978,"is_reserved":false,"is_disabled":false,"rental_uris":{"android":"levelo://app?vid=97e3f16d-c680-499c-b7df-c4ab9d43861c","ios":"levelo://app?vid=97e3f16d-c680-499c-b7df-c4ab9d43861c"},"vehicle_type_id":"4","last_reported":1738782419,"current_range_meters":22800,"station_id":"ce4bhn12rcd13ifvqgqg","pricing_plan_id":"cebpf4jnsgd1na2vs0mg"},{"bike_id":"4d0c55d3-7ba5-4e2a-ba01-898e6e9d72e3","system_id":"levelo_inurba_marseille","lat":43.27956,"lon":5.4103,"is_reserved":false,"is_disabled":false,"rental_uris":{"android":"levelo://app?vid=4d0c55d3-7ba5-4e2a-ba01-898e6e9d72e3","ios":"levelo://app?vid=4d0c55d3-7ba5-4e2a-ba01-898e6e9d72e3"},"vehicle_type_id":"4","last_reported":1738782419,"current_range_meters":38400,"station_id":"ce4bhnp2rcd13ifvqh0g","pricing_plan_id":"cebpf4jnsgd1na2vs0mg"},{"bike_id":"1d39db26-f63e-47ca-96af-759972ec17a4","system_id":"levelo_inurba_marseille","lat":43.2738,"lon":5.36257,"is_reserved":false,"is_disabled":true,"rental_uris":{"android":"levelo://app?vid=1d39db26-f63e-47ca-96af-759972ec17a4","ios":"levelo://app?vid=1d39db26-f63e-47ca-96af-759972ec17a4"},"vehicle_type_id":"4","last_reported":1738782419,"current_range_meters":0,"station_id":"ce4bhbh2rcd13ifvqeo0","pricing_plan_id":"cebpf4jnsgd1na2vs0mg"},{"bike_id":"8c19e63a-8e6c-4a82-beba-0e1962f87bd3","system_id":"levelo_inurba_marseille","lat":43.28733,"lon":5.37948,"is_reserved":false,"is_disabled":true,"rental_uris":{"android":"levelo://app?vid=8c19e63a-8e6c-4a82-beba-0e1962f87bd3","ios":"levelo://app?vid=8c19e63a-8e6c-4a82-beba-0e1962f87bd3"},"vehicle_type_id":"4","last_reported":1738782419,"current_range_meters":36000,"station_id":"ce4bh9p2rcd13ifvqec0","pricing_plan_id":"cebpf4jnsgd1na2vs0mg"},{"bike_id":"023f65ff-462a-4a08-ba76-5409dc2ce057","system_id":"levelo_inurba_marseille","lat":43.24071,"lon":5.37761,"is_reserved":false,"is_disabled":false,"rental_uris":{"android":"levelo://app?vid=023f65ff-462a-4a08-ba76-5409dc2ce057","ios":"levelo://app?vid=023f65ff-462a-4a08-ba76-5409dc2ce057"},"vehicle_type_id":"4","last_reported":1738782419,"current_range_meters":28400,"station_id":"ce4bhnp2rcd13ifvqgvg","pricing_plan_id":"cebpf4jnsgd1na2vs0mg"},{"bike_id":"d63f0501-1e90-4a2f-b10b-a698490feee5","system_id":"levelo_inurba_marseille","lat":43.30593,"lon":5.37212,"is_reserved":false,"is_disabled":false,"rental_uris":{"android":"levelo://app?vid=d63f0501-1e90-4a2f-b10b-a698490feee5","ios":"levelo://app?vid=d63f0501-1e90-4a2f-b10b-a698490feee5"},"vehicle_type_id":"4","last_reported":1738782419,"current_range_meters":24800,"station_id":"ce4bgqh2rcd13ifvqc4g","pricing_plan_id":"cebpf4jnsgd1na2vs0mg"},{"bike_id":"6cdf22e8-4d98-4f8a-a5ae-6f835259610b","system_id":"levelo_inurba_marseille","lat":43.261968,"lon":5.379312,"is_reserved":false,"is_disabled":false,"rental_uris":{"android":"levelo://app?vid=6cdf22e8-4d98-4f8a-a5ae-6f835259610b","ios":"levelo://app?vid=6cdf22e8-4d98-4f8a-a5ae-6f835259610b"},"vehicle_type_id":"4","last_reported":1738782419,"current_range_meters":28000,"station_id":"ce4bhjp2rcd13ifvqg90","pricing_plan_id":"cebpf4jnsgd1na2vs0mg"},{"bike_id":"25ca2462-b268-4a34-84c6-6fb50e375245","system_id":"levelo_inurba_marseille","lat":43.299873,"lon":5.3662,"is_reserved":false,"is_disabled":false,"rental_uris":{"android":"levelo://app?vid=25ca2462-b268-4a34-84c6-6fb50e375245","ios":"levelo://app?vid=25ca2462-b268-4a34-84c6-6fb50e375245"},"vehicle_type_id":"4","last_reported":1738782419,"current_range_meters":5600,"station_id":"","pricing_plan_id":"cebpf4jnsgd1na2vs0mg"},{"bike_id":"836442a1-938f-439e-a9a4-189dc9205351","system_id":"levelo_inurba_marseille","lat":43.29265,"lon":5.38434,"is_reserved":false,"is_disabled":false,"rental_uris":{"android":"levelo://app?vid=836442a1-938f-439e-a9a4-189dc9205351","ios":"levelo://app?vid=836442a1-938f-439e-a9a4-189dc9205351"},"vehicle_type_id":"4","last_reported":1738782419,"current_range_meters":3200,"station_id":"ce4bh692rcd13ifvqea0","pricing_plan_id":"cebpf4jnsgd1na2vs0mg"},{"bike_id":"1489c8c8-a04b-479f-95b4-a81e60a2c685","system_id":"levelo_inurba_marseille","lat":43.31195,"lon":5.3871,"is_reserved":false,"is_disabled":false,"rental_uris":{"android":"levelo://app?vid=1489c8c8-a04b-479f-95b4-a81e60a2c685","ios":"levelo://app?vid=1489c8c8-a04b-479f-95b4-a81e60a2c685"},"vehicle_type_id":"4","last_reported":1738782419,"current_range_meters":36800,"station_id":"ce4bgv12rcd13ifvqcp0","pricing_plan_id":"cebpf4jnsgd1na2vs0mg"},{"bike_id":"2c9602bf-661c-4c0a-8dfe-79c2d64c5c28","system_id":"levelo_inurba_marseille","lat":43.2913,"lon":5.3561,"is_reserved":false,"is_disabled":false,"rental_uris":{"android":"levelo://app?vid=2c9602bf-661c-4c0a-8dfe-79c2d64c5c28","ios":"levelo://app?vid=2c9602bf-661c-4c0a-8dfe-79c2d64c5c28"},"vehicle_type_id":"4","last_reported":1738782419,"current_range_meters":34000,"station_id":"ce4bhb92rcd13ifvqen0","pricing_plan_id":"cebpf4jnsgd1na2vs0mg"},{"bike_id":"fc5f1fd1-c2a8-4691-94fe-d477702a6958","system_id":"levelo_inurba_marseille","lat":43.33126,"lon":5.38008,"is_reserved":false,"is_disabled":false,"rental_uris":{"android":"levelo://app?vid=fc5f1fd1-c2a8-4691-94fe-d477702a6958","ios":"levelo://app?vid=fc5f1fd1-c2a8-4691-94fe-d477702a6958"},"vehicle_type_id":"4","last_reported":1738782419,"current_range_meters":28000,"station_id":"","pricing_plan_id":"cebpf4jnsgd1na2vs0mg"},{"bike_id":"0cfb7601-ab78-4c7d-855e-190516b31e50","system_id":"levelo_inurba_marseille","lat":43.323425,"lon":5.406268,"is_reserved":false,"is_disabled":false,"rental_uris":{"android":"levelo://app?vid=0cfb7601-ab78-4c7d-855e-190516b31e50","ios":"levelo://app?vid=0cfb7601-ab78-4c7d-855e-190516b31e50"},"vehicle_type_id":"4","last_reported":1738782419,"current_range_meters":8400,"station_id":"ce4bhq92rcd13ifvqhjg","pricing_plan_id":"cebpf4jnsgd1na2vs0mg"},{"bike_id":"b6e8f4bc-8909-49df-b41a-7b01e8e6c85a","system_id":"levelo_inurba_marseille","lat":43.28678,"lon":5.36305,"is_reserved":false,"is_disabled":false,"rental_uris":{"android":"levelo://app?vid=b6e8f4bc-8909-49df-b41a-7b01e8e6c85a","ios":"levelo://app?vid=b6e8f4bc-8909-49df-b41a-7b01e8e6c85a"},"vehicle_type_id":"4","last_reported":1738782419,"current_range_meters":22400,"station_id":"ce4bhah2rcd13ifvqej0","pricing_plan_id":"cebpf4jnsgd1na2vs0mg"},{"bike_id":"cd603e46-cb29-4f84-93f3-9fe98a5e8786","system_id":"levelo_inurba_marseille","lat":43.24648,"lon":5.38903,"is_reserved":false,"is_disabled":false,"rental_uris":{"android":"levelo://app?vid=cd603e46-cb29-4f84-93f3-9fe98a5e8786","ios":"levelo://app?vid=cd603e46-cb29-4f84-93f3-9fe98a5e8786"},"vehicle_type_id":"4","last_reported":1738782419,"current_range_meters":36000,"station_id":"ce4bhg12rcd13ifvqf60","pricing_plan_id":"cebpf4jnsgd1na2vs0mg"},{"bike_id":"3c6f6af6-7e6e-4361-a33e-5cb553af9999","system_id":"levelo_inurba_marseille","lat":43.29979,"lon":5.38488,"is_reserved":false,"is_disabled":false,"rental_uris":{"android":"levelo://app?vid=3c6f6af6-7e6e-4361-a33e-5cb553af9999","ios":"levelo://app?vid=3c6f6af6-7e6e-4361-a33e-5cb553af9999"},"vehicle_type_id":"4","last_reported":1738782419,"current_range_meters":30800,"station_id":"ce4bgj92rcd13ifvqbd0","pricing_plan_id":"cebpf4jnsgd1na2vs0mg"},