{"last_updated":1745064986,"ttl":60,"version":"2.2","data":{"bikes":[{"bike_id":"95c151aa-843b-4661-8506-11d41698cb76","system_id":"levelo_inurba_marseille","lat":43.23067,"lon":5.35493,"is_reserved":false,"is_disabled":false,"rental_uris":{"android":"levelo://app?vid=95c151aa-843b-4661-8506-11d41698cb76","ios":"levelo://app?vid=95c151aa-843b-4661-8506-11d41698cb76"},"vehicle_type_id":"4","last_reported":1745064987,"current_range_meters":2800,"station_id":"cpo3342slgdg3j2ifvpg","pricing_plan_id":"cebpf4jnsgd1na2vs0mg"},{"bike_id":"5ad8dd6b-ee8a-4f3f-924e-6d10a631b0b3","system_id":"levelo_inurba_marseille","lat":43.26193,"lon":5.37919,"is_reserved":false,"is_disabled":true,"rental_uris":{"android":"levelo://app?vid=5ad8dd6b-ee8a-4f3f-924e-6d10a631b0b3","ios":"levelo://app?vid=5ad8dd6b-ee8a-4f3f-924e-6d10a631b0b3"},"vehicle_type_id":"4","last_reported":1745064987,"current_range_meters":3200,"station_id":"ce4bhjp2rcd13ifvqg90","pricing_plan_id":"cebpf4jnsgd1na2vs0mg"},{"bike_id":"4ffaa98a-856a-4a74-8527-03869d428fdf","system_id":"levelo_inurba_marseille","lat":43.28924,"lon":5.36607,"is_reserved":false,"is_disabled":false,"rental_uris":{"android":"levelo://app?vid=4ffaa98a-856a-4a74-8527-03869d428fdf","ios":"levelo://app?vid=4ffaa98a-856a-4a74-8527-03869d428fdf"},"vehicle_type_id":"4","last_reported":1745064987,"current_range_meters":3600,"station_id":"ce4bhap2rcd13ifvqek0","pricing_plan_id":"cebpf4jnsgd1na2vs0mg"},{"bike_id":"3cd954ab-6bf5-4e57-8b3c-8178061b38a2","system_id":"levelo_inurba_marseille","lat":43.282684,"lon":5.350604,"is_reserved":false,"is_disabled":false,"rental_uris":{"android":"levelo://app?vid=3cd954ab-6bf5-4e57-8b3c-8178061b38a2","ios":"levelo://app?vid=3cd954ab-6bf5-4e57-8b3c-8178061b38a2"},"vehicle_type_id":"4","last_reported":1745064987,"current_range_meters":4400,"station_id":"ce4bhbp2rcd13ifvqerg","pricing_plan_id":"cebpf4jnsgd1na2vs0mg"},{"bike_id":"7d46b598-8504-4ff8-a90a-bf6fe42a7dcf","system_id":"levelo_inurba_marseille","lat":43.298098,"lon":5.380966,"is_reserved":false,"is_disabled":false,"rental_uris":{"android":"levelo://app?vid=7d46b598-8504-4ff8-a90a-bf6fe42a7dcf","ios":"levelo://app?vid=7d46b598-8504-4ff8-a90a-bf6fe42a7dcf"},"vehicle_type_id":"4","last_reported":1745064987,"current_range_meters":4000,"station_id":"ce4bgip2rcd13ifvqbb0","pricing_plan_id":"cebpf4jnsgd1na2vs0mg"},{"bike_id":"c66bf4ad-07c5-4a49-9d03-35e1d25797da","system_id":"levelo_inurba_marseille","lat":43.23967,"lon":5.36621,"is_reserved":false,"is_disabled":false,"rental_uris":{"android":"levelo://app?vid=c66bf4ad-07c5-4a49-9d03-35e1d25797da","ios":"levelo://app?vid=c66bf4ad-07c5-4a49-9d03-35e1d25797da"},"vehicle_type_id":"4","last_reported":1745064987,"current_range_meters":4400,"station_id":"ce4bhi12rcd13ifvqfp0","pricing_plan_id":"cebpf4jnsgd1na2vs0mg"},{"bike_id":"07fd94ca-c9b9-4df8-b24b-c69428cc5a2a","system_id":"levelo_inurba_marseille","lat":43.28002,"lon":5.39999,"is_reserved":false,"is_disabled":false,"rental_uris":{"android":"levelo://app?vid=07fd94ca-c9b9-4df8-b24b-c69428cc5a2a","ios":"levelo://app?vid=07fd94ca-c9b9-4df8-b24b-c69428cc5a2a"},"vehicle_type_id":"4","last_reported":1745064987,"current_range_meters":8000,"station_id":"ce4bho92rcd13ifvqh4g","pricing_plan_id":"cebpf4jnsgd1na2vs0mg"},{"bike_id":"abd70e71-c44f-4ef5-962a-28e629079420","system_id":"levelo_inurba_marseille","lat":43.26689,"lon":5.38275,"is_reserved":false,"is_disabled":false,"rental_uris":{"android":"levelo://app?vid=abd70e71-c44f-4ef5-962a-28e629079420","ios":"levelo://app?vid=abd70e71-c44f-4ef5-962a-28e629079420"},"vehicle_type_id":"4","last_reported":1745064987,"current_range_meters":4400,"station_id":"ce4bhg92rcd13ifvqf90","pricing_plan_id":"cebpf4jnsgd1na2vs0mg"},{"bike_id":"ee9c4785-deb0-4723-b211-c65d218b2327","system_id":"levelo_inurba_marseille","lat":43.24389,"lon":5.37062,"is_reserved":false,"is_disabled":false,"rental_uris":{"android":"levelo://app?vid=ee9c4785-deb0-4723-b211-c65d218b2327","ios":"levelo://app?vid=ee9c4785-deb0-4723-b211-c65d218b2327"},"vehicle_type_id":"4","last_reported":1745064987,"current_range_meters":4400,"station_id":"ce4bhhh2rcd13ifvqfk0","pricing_plan_id":"cebpf4jnsgd1na2vs0mg"},{"bike_id":"ab288b2a-2e8f-40e6-a459-8a94e256c7b9","system_id":"levelo_inurba_marseille","lat":43.28346,"lon":5.38093,"is_reserved":false,"is_disabled":false,"rental_uris":{"android":"levelo://app?vid=ab288b2a-2e8f-40e6-a459-8a94e256c7b9","ios":"levelo://app?vid=ab288b2a-2e8f-40e6-a459-8a94e256c7b9"},"vehicle_type_id":"4","last_reported":1745064987,"current_range_meters":4800,"station_id":"ce4bh412rcd13ifvqdr0","pricing_plan_id":"cebpf4jnsgd1na2vs0mg"},{"bike_id":"0a7dbb4e-7bf1-4ba6-8b85-62925bf81141","system_id":"levelo_inurba_marseille","lat":43.28354,"lon":5.38107,"is_reserved":false,"is_disabled":false,"rental_uris":{"android":"levelo://app?vid=0a7dbb4e-7bf1-4ba6-8b85-62925bf81141","ios":"levelo://app?vid=0a7dbb4e-7bf1-4ba6-8b85-62925bf81141"},"vehicle_type_id":"4","last_reported":1745064987,"current_range_meters":3600,"station_id":"ce4bh412rcd13ifvqdr0","pricing_plan_id":"cebpf4jnsgd1na2vs0mg"},{"bike_id":"dbe788ad-d448-4150-a36f-09f8e72bc8fb","system_id":"levelo_inurba_marseille","lat":43.31164,"lon":5.38711,"is_reserved":false,"is_disabled":false,"rental_uris":{"android":"levelo://app?vid=dbe788ad-d448-4150-a36f-09f8e72bc8fb","ios":"levelo://app?vid=dbe788ad-d448-4150-a36f-09f8e72bc8fb"},"vehicle_type_id":"4","last_reported":1745064987,"current_range_meters":5600,"station_id":"ce4bgv12rcd13ifvqcp0","pricing_plan_id":"cebpf4jnsgd1na2vs0mg"},{"bike_id":"40cf7771-7bb3-48d5-838e-856dd72c19fd","system_id":"levelo_inurba_marseille","lat":43.21755,"lon":5.34602,"is_reserved":false,"is_disabled":false,"rental_uris":{"android":"levelo://app?vid=40cf7771-7bb3-48d5-838e-856dd72c19fd","ios":"levelo://app?vid=40cf7771-7bb3-48d5-838e-856dd72c19fd"},"vehicle_type_id":"4","last_reported":1745064987,"current_range_meters":5600,"station_id":"","pricing_plan_id":"cebpf4jnsgd1na2vs0mg"},{"bike_id":"8d46d099-626f-405c-b4a8-cb95e5016eb0","system_id":"levelo_inurba_marseille","lat":43.2997,"lon":5.37178,"is_reserved":false,"is_disabled":false,"rental_uris":{"android":"levelo://app?vid=8d46d099-626f-405c-b4a8-cb95e5016eb0","ios":"levelo://app?vid=8d46d099-626f-405c-b4a8-cb95e5016eb0"},"vehicle_type_id":"4","last_reported":1745064987,"current_range_meters":4800,"station_id":"ce4bgr92rcd13ifvqc7g","pricing_plan_id":"cebpf4jnsgd1na2vs0mg"},{"bike_id":"6987c513-b50c-45b1-80e3-356055d982d5","system_id":"levelo_inurba_marseille","lat":43.29953,"lon":5.37761,"is_reserved":false,"is_disabled":true,"rental_uris":{"android":"levelo://app?vid=6987c513-b50c-45b1-80e3-356055d982d5","ios":"levelo://app?vid=6987c513-b50c-45b1-80e3-356055d982d5"},"vehicle_type_id":"4","last_reported":1745064987,"current_range_meters":6000,"station_id":"","pricing_plan_id":"cebpf4jnsgd1na2vs0mg"},{"bike_id":"f80edf55-75b7-48f1-8770-a2827fd79913","system_id":"levelo_inurba_marseille","lat":43.28066,"lon":5.39646,"is_reserved":false,"is_disabled":false,"rental_uris":{"android":"levelo://app?vid=f80edf55-75b7-48f1-8770-a2827fd79913","ios":"levelo://app?vid=f80edf55-75b7-48f1-8770-a2827fd79913"},"vehicle_type_id":"4","last_reported":1745064987,"current_range_meters":6000,"station_id":"ce4bho12rcd13ifvqh2g","pricing_plan_id":"cebpf4jnsgd1na2vs0mg"},{"bike_id":"877d9c65-fa2f-41e3-bfdd-e82330908b36","system_id":"levelo_inurba_marseille","lat":43.293,"lon":5.37157,"is_reserved":false,"is_disabled":false,"rental_uris":{"android":"levelo://app?vid=877d9c65-fa2f-41e3-bfdd-e82330908b36","ios":"levelo://app?vid=877d9c65-fa2f-41e3-bfdd-e82330908b36"},"vehicle_type_id":"4","last_reported":1745064987,"current_range_meters":6000,"station_id":"ce4bgh92rcd13ifvqb40","pricing_plan_id":"cebpf4jnsgd1na2vs0mg"},{"bike_id":"4e4a61ac-e03c-47e8-b40a-334ea1322be5","system_id":"levelo_inurba_marseille","lat":43.23199,"lon":5.35549,"is_reserved":false,"is_disabled":false,"rental_uris":{"android":"levelo://app?vid=4e4a61ac-e03c-47e8-b40a-334ea1322be5","ios":"levelo://app?vid=4e4a61ac-e03c-47e8-b40a-334ea1322be5"},"vehicle_type_id":"4","last_reported":1745064987,"current_range_meters":6000,"station_id":"ce4bhu92rcd13ifvqi70","pricing_plan_id":"cebpf4jnsgd1na2vs0mg"},{"bike_id":"a4ee9808-c56f-429a-bd9e-2837e81985cb","system_id":"levelo_inurba_marseille","lat":43.27978,"lon":5.41654,"is_reserved":false,"is_disabled":true,"rental_uris":{"android":"levelo://app?vid=a4ee9808-c56f-429a-bd9e-2837e81985cb","ios":"levelo://app?vid=a4ee9808-c56f-429a-bd9e-2837e81985cb"},"vehicle_type_id":"4","last_reported":1745064987,"current_range_meters":6400,"station_id":"ce4bho12rcd13ifvqh1g","pricing_plan_id":"cebpf4jnsgd1na2vs0mg"},{"bike_id":"162fa927-b990-4d51-8714-4fbd992b5c21","system_id":"levelo_inurba_marseille","lat":43.27324,"lon":5.39078,"is_reserved":false,"is_disabled":false,"rental_uris":{"android":"levelo://app?vid=162fa927-b990-4d51-8714-4fbd992b5c21","ios":"levelo://app?vid=162fa927-b990-4d51-8714-4fbd992b5c21"},"vehicle_type_id":"4","last_reported":1745064987,"current_range_meters":6400,"station_id":"ce4bhgp2rcd13ifvqfe0","pricing_plan_id":"cebpf4jnsgd1na2vs0mg"},{"bike_id":"da3db9c9-2c3f-4308-ad4c-8d376df3948a","system_id":"levelo_inurba_marseille","lat":43.31708,"lon":5.37759,"is_reserved":false,"is_disabled":false,"rental_uris":{"android":"levelo://app?vid=da3db9c9-2c3f-4308-ad4c-8d376df3948a","ios":"levelo://app?vid=da3db9c9-2c3f-4308-ad4c-8d376df3948a"},"vehicle_type_id":"4","last_reported":1745064987,"current_range_meters":6400,"station_id":"ce4bgth2rcd13ifvqch0","pricing_plan_id":"cebpf4jnsgd1na2vs0mg"},{"bike_id":"a968bc14-c848-422a-b8e8-61f50cb7032f","system_id":"levelo_inurba_marseille","lat":43.30796,"lon":5.43538,"is_reserved":false,"is_disabled":false,"rental_uris":{"android":"levelo://app?vid=a968bc14-c848-422a-b8e8-61f50cb7032f","ios":"levelo://app?vid=a968bc14-c848-422a-b8e8-61f50cb7032f"},"vehicle_type_id":"4","last_reported":1745064987,"current_range_meters":6400,"station_id":"ce4bhph2rcd13ifvqheg","pricing_plan_id":"cebpf4jnsgd1na2vs0mg"},{"bike_id":"678d1aa7-dc7f-4ee1-a950-5a4f554ad695","system_id":"levelo_inurba_marseille","lat":43.2978,"lon":5.39366,"is_reserved":false,"is_disabled":true,"rental_uris":{"android":"levelo://app?vid=678d1aa7-dc7f-4ee1-a950-5a4f554ad695","ios":"levelo://app?vid=678d1aa7-dc7f-4ee1-a950-5a4f554ad695"},"vehicle_type_id":"4","last_reported":1745064987,"current_range_meters":6400,"station_id":"chh1huq6cuj3fo74tm60","pricing_plan_id":"cebpf4jnsgd1na2vs0mg"},{"bike_id":"d4d9b665-d4f4-49cf-9dcd-00e920a45b50","system_id":"levelo_inurba_marseille","lat":43.25829,"lon":5.39434,"is_reserved":false,"is_disabled":false,"rental_uris":{"android":"levelo://app?vid=d4d9b665-d4f4-49cf-9dcd-00e920a45b50","ios":"levelo://app?vid=d4d9b665-d4f4-49cf-9dcd-00e920a45b50"},"vehicle_type_id":"4","last_reported":1745064987,"current_range_meters":6400,"station_id":"ce4bhip2rcd13ifvqft0","pricing_plan_id":"cebpf4jnsgd1na2vs0mg"},{"bike_id":"bacb7911-fbdf-476f-906b-14dda2b9167d","system_id":"levelo_inurba_marseille","lat":43.25554,"lon":5.38298,"is_reserved":false,"is_disabled":false,"rental_uris":{"android":"levelo://app?vid=bacb7911-fbdf-476f-906b-14dda2b9167d","ios":"levelo://app?vid=bacb7911-fbdf-476f-906b-14dda2b9167d"},"vehicle_type_id":"4","last_reported":1745064987,"current_range_meters":6800,"station_id":"ce4bhih2rcd13ifvqfs0","pricing_plan_id":"cebpf4jnsgd1na2vs0mg"},{"bike_id":"bac712cc-62b8-4659-8779-99635c844a01","system_id":"levelo_inurba_marseille","lat":43.31113,"lon":5.3778,"is_reserved":false,"is_disabled":false,"rental_uris":{"android":"levelo://app?vid=bac712cc-62b8-4659-8779-99635c844a01","ios":"levelo://app?vid=bac712cc-62b8-4659-8779-99635c844a01"},"vehicle_type_id":"4","last_reported":1745064987,"current_range_meters":6800,"station_id":"ce4bgt92rcd13ifvqcg0","pricing_plan_id":"cebpf4jnsgd1na2vs0mg"},{"bike_id":"1210dc72-37b8-49f7-b249-6faa54daba28","system_id":"levelo_inurba_marseille","lat":43.32358,"lon":5.36764,"is_reserved":false,"is_disabled":false,"rental_uris":{"android":"levelo://app?vid=1210dc72-37b8-49f7-b249-6faa54daba28","ios":"levelo://app?vid=1210dc72-37b8-49f7-b249-6faa54daba28"},"vehicle_type_id":"4","last_reported":1745064987,"current_range_meters":6800,"station_id":"ce4bhsh2rcd13ifvqi2g","pricing_plan_id":"cebpf4jnsgd1na2vs0mg"},{"bike_id":"1b2fbc27-2bb6-45fc-9836-1b24b2218ed9","system_id":"levelo_inurba_marseille","lat":43.26192,"lon":5.37439,"is_reserved":false,"is_disabled":false,"rental_uris":{"android":"levelo://app?vid=1b2fbc27-2bb6-45fc-9836-1b24b2218ed9","ios":"levelo://app?vid=1b2fbc27-2bb6-45fc-9836-1b24b2218ed9"},"vehicle_type_id":"4","last_reported":1745064987,"current_range_meters":6800,"station_id":"ce4bhgp2rcd13ifvqfc0","pricing_plan_id":"cebpf4jnsgd1na2vs0mg"},{"bike_id":"3d654dca-3005-448b-8175-31fe1a7796d1","system_id":"levelo_inurba_marseille","lat":43.27374,"lon":5.36251,"is_reserved":false,"is_disabled":false,"rental_uris":{"android":"levelo://app?vid=3d654dca-3005-448b-8175-31fe1a7796d1","ios":"levelo://app?vid=3d654dca-3005-448b-8175-31fe1a7796d1"},"vehicle_type_id":"4","last_reported":1745064987,"current_range_meters":6800,"station_id":"ce4bhbh2rcd13ifvqeo0","pricing_plan_id":"cebpf4jnsgd1na2vs0mg"},{"bike_id":"8eb04380-c923-40ca-96f6-f75662afe34b","system_id":"levelo_inurba_marseille","lat":43.315,"lon":5.37311,"is_reserved":false,"is_disabled":false,"rental_uris":{"android":"levelo://app?vid=8eb04380-c923-40ca-96f6-f75662afe34b","ios":"levelo://app?vid=8eb04380-c923-40ca-96f6-f75662afe34b"},"vehicle_type_id":"4","last_reported":1745064987,"current_range_meters":7200,"station_id":"ce4bgt12rcd13ifvqcd0","pricing_plan_id":"cebpf4jnsgd1na2vs0mg"},{"bike_id":"6729891c-ed34-444d-aec1-c8e2578b1012","system_id":"levelo_inurba_marseille","lat":43.28925,"lon":5.38386,"is_reserved":false,"is_disabled":false,"rental_uris":{"android":"levelo://app?vid=6729891c-ed34-444d-aec1-c8e2578b1012","ios":"levelo://app?vid=6729891c-ed34-444d-aec1-c8e2578b1012"},"vehicle_type_id":"4","last_reported":1745064987,"current_range_meters":7200,"station_id":"ce4bh612rcd13ifvqe6g","pricing_plan_id":"cebpf4jnsgd1na2vs0mg"},{"bike_id":"d19d659c-11e5-4355-8fbd-768d4cdd35d9","system_id":"levelo_inurba_marseille","lat":43.29286,"lon":5.37138,"is_reserved":false,"is_disabled":false,"rental_uris":{"android":"levelo://app?vid=d19d659c-11e5-4355-8fbd-768d4cdd35d9","ios":"levelo://app?vid=d19d659c-11e5-4355-8fbd-768d4cdd35d9"},"vehicle_type_id":"4","last_reported":1745064987,"current_range_meters":7200,"station_id":"ce4bgh92rcd13ifvqb40","pricing_plan_id":"cebpf4jnsgd1na2vs0mg"},{"bike_id":"9fa215c3-83cf-4ec9-8a38-eb486eba3f11","system_id":"levelo_inurba_marseille","lat":43.29294,"lon":5.37425,"is_reserved":false,"is_disabled":false,"rental_uris":{"android":"levelo://app?vid=9fa215c3-83cf-4ec9-8a38-eb486eba3f11","ios":"levelo://app?vid=9fa215c3-83cf-4ec9-8a38-eb486eba3f11"},"vehicle_type_id":"4","last_reported":1745064987,"current_range_meters":7200,"station_id":"ce4bgi12rcd13ifvqb70","pricing_plan_id":"cebpf4jnsgd1na2vs0mg"},{"bike_id":"7c2d50c2-b691-4057-8d81-1f401f28e28d","system_id":"levelo_inurba_marseille","lat":43.29024,"lon":5.38134,"is_reserved":false,"is_disabled":false,"rental_uris":{"android":"levelo://app?vid=7c2d50c2-b691-4057-8d81-1f401f28e28d","ios":"levelo://app?vid=7c2d50c2-b691-4057-8d81-1f401f28e28d"},"vehicle_type_id":"4","last_reported":1745064987,"current_range_meters":7200,"station_id":"ce4bh4p2rcd13ifvqe1g","pricing_plan_id":"cebpf4jnsgd1na2vs0mg"},{"bike_id":"60191f64-97b4-4952-8216-9f626d4420e6","system_id":"levelo_inurba_marseille","lat":43.28074,"lon":5.3966,"is_reserved":false,"is_disabled":false,"rental_uris":{"android":"levelo://app?vid=60191f64-97b4-4952-8216-9f626d4420e6","ios":"levelo://app?vid=60191f64-97b4-4952-8216-9f626d4420e6"},"vehicle_type_id":"4","last_reported":1745064987,"current_range_meters":7200,"station_id":"ce4bho12rcd13ifvqh2g","pricing_plan_id":"cebpf4jnsgd1na2vs0mg"},{"bike_id":"38d71541-39fa-44bc-b9fa-dad7cbdc7434","system_id":"levelo_inurba_marseille","lat":43.28743,"lon":5.38659,"is_reserved":false,"is_disabled":false,"rental_uris":{"android":"levelo://app?vid=38d71541-39fa-44bc-b9fa-dad7cbdc7434","ios":"levelo://app?vid=38d71541-39fa-44bc-b9fa-dad7cbdc7434"},"vehicle_type_id":"4","last_reported":1745064987,"current_range_meters":7200,"station_id":"","pricing_plan_id":"cebpf4jnsgd1na2vs0mg"},{"bike_id":"5f518b85-4bc7-4fc9-b9c5-5ce31cf652ca","system_id":"levelo_inurba_marseille","lat":43.28476,"lon":5.38427,"is_reserved":false,"is_disabled":false,"rental_uris":{"android":"levelo://app?vid=5f518b85-4bc7-4fc9-b9c5-5ce31cf652ca","ios":"levelo://app?vid=5f518b85-4bc7-4fc9-b9c5-5ce31cf652ca"},"vehicle_type_id":"4","last_reported":1745064987,"current_range_meters":8000,"station_id":"ce4bh512rcd13ifvqe3g","pricing_plan_id":"cebpf4jnsgd1na2vs0mg"},{"bike_id":"3abcd8a1-bc4b-4780-96f7-c41259227a65","system_id":"levelo_inurba_marseille","lat":43.29891,"lon":5.38364,"is_reserved":false,"is_disabled":false,"rental_uris":{"android":"levelo://app?vid=3abcd8a1-bc4b-4780-96f7-c41259227a65","ios":"levelo://app?vid=3abcd8a1-bc4b-4780-96f7-c41259227a65"},"vehicle_type_id":"4","last_reported":1745064987,"current_range_meters":8400,"station_id":"","pricing_plan_id":"cebpf4jnsgd1na2vs0mg"},{"bike_id":"74cb11e3-b642-401a-97c9-6581ebbac2b8","system_id":"levelo_inurba_marseille","lat":43.21742,"lon":5.34608,"is_reserved":false,"is_disabled":false,"rental_uris":{"android":"levelo://app?vid=74cb11e3-b642-401a-97c9-6581ebbac2b8","ios":"levelo://app?vid=74cb11e3-b642-401a-97c9-6581ebbac2b8"},"vehicle_type_id":"4","last_reported":1745064987,"current_range_meters":8400,"station_id":"st_cvj6r9ubvosntc0bgbag","pricing_plan_id":"cebpf4jnsgd1na2vs0mg"},{"bike_id":"c42c97dc-851b-476d-ba23-67d0582febc0","system_id":"levelo_inurba_marseille","lat":43.30326,"lon":5.40441,"is_reserved":false,"is_disabled":true,"rental_uris":{"android":"levelo://app?vid=c42c97dc-851b-476d-ba23-67d0582febc0","ios":"levelo://app?vid=c42c97dc-851b-476d-ba23-67d0582febc0"},"vehicle_type_id":"4","last_reported":1745064987,"current_range_meters":8400,"station_id":"ce4bh012rcd13ifvqd10","pricing_plan_id":"cebpf4jnsgd1na2vs0mg"},{"bike_id":"4a86d0f8-ff65-4446-9521-1002867a3da0","system_id":"levelo_inurba_marseille","lat":43.24549,"lon":5.39517,"is_reserved":false,"is_disabled":true,"rental_uris":{"android":"levelo://app?vid=4a86d0f8-ff65-4446-9521-1002867a3da0","ios":"levelo://app?vid=4a86d0f8-ff65-4446-9521-1002867a3da0"},"vehicle_type_id":"4","last_reported":1745064987,"current_range_meters":8400,"station_id":"ce4bhlp2rcd13ifvqgjg","pricing_plan_id":"cebpf4jnsgd1na2vs0mg"},{"bike_id":"ebd79973-0c7b-4a81-ae02-df57068a0ad9","system_id":"levelo_inurba_marseille","lat":43.26958,"lon":5.38632,"is_reserved":false,"is_disabled":false,"rental_uris":{"android":"levelo://app?vid=ebd79973-0c7b-4a81-ae02-df57068a0ad9","ios":"levelo://app?vid=ebd79973-0c7b-4a81-ae02-df57068a0ad9"},"vehicle_type_id":"4","last_reported":1745064987,"current_range_meters":8400,"station_id":"ce4bhh92rcd13ifvqfh0","pricing_plan_id":"cebpf4jnsgd1na2vs0mg"},{"bike_id":"ceccb53e-f407-4874-bbec-f56a430aea7c","system_id":"levelo_inurba_marseille","lat":43.24801,"lon":5.37449,"is_reserved":false,"is_disabled":true,"rental_uris":{"android":"levelo://app?vid=ceccb53e-f407-4874-bbec-f56a430aea7c","ios":"levelo://app?vid=ceccb53e-f407-4874-bbec-f56a430aea7c"},"vehicle_type_id":"4","last_reported":1745064987,"current_range_meters":8400,"station_id":"ce4bhgh2rcd13ifvqfb0","pricing_plan_id":"cebpf4jnsgd1na2vs0mg"},{"bike_id":"934a8fc0-98f8-4aaf-a145-d485dee937c7","system_id":"levelo_inurba_marseille","lat":43.32348,"lon":5.36739,"is_reserved":false,"is_disabled":false,"rental_uris":{"android":"levelo://app?vid=934a8fc0-98f8-4aaf-a145-d485dee937c7","ios":"levelo://app?vid=934a8fc0-98f8-4aaf-a145-d485dee937c7"},"vehicle_type_id":"4","last_reported":1745064987,"current_range_meters":8400,"station_id":"ce4bhsh2rcd13ifvqi2g","pricing_plan_id":"cebpf4jnsgd1na2vs0mg"},{"bike_id":"8aef4d75-33ec-4f69-bf27-9f3e1ada5b09","system_id":"levelo_inurba_marseille","lat":43.273812,"lon":5.362582,"is_reserved":false,"is_disabled":false,"rental_uris":{"android":"levelo://app?vid=8aef4d75-33ec-4f69-bf27-9f3e1ada5b09","ios":"levelo://app?vid=8aef4d75-33ec-4f69-bf27-9f3e1ada5b09"},"vehicle_type_id":"4","last_reported":1745064987,"current_range_meters":8800,"station_id":"ce4bhbh2rcd13ifvqeo0","pricing_plan_id":"cebpf4jnsgd1na2vs0mg"},{"bike_id":"a0ddb0a5-f7f0-4281-aa27-9e82747cc573","system_id":"levelo_inurba_marseille","lat":43.33754,"lon":5.37491,"is_reserved":false,"is_disabled":false,"rental_uris":{"android":"levelo://app?vid=a0ddb0a5-f7f0-4281-aa27-9e82747cc573","ios":"levelo://app?vid=a0ddb0a5-f7f0-4281-aa27-9e82747cc573"},"vehicle_type_id":"4","last_reported":1745064987,"current_range_meters":8800,"station_id":"","pricing_plan_id":"cebpf4jnsgd1na2vs0mg"},{"bike_id":"3380ed0a-91f8-4430-98d5-1b26cda6cc90","system_id":"levelo_inurba_marseille","lat":43.255,"lon":5.37649,"is_reserved":false,"is_disabled":false,"rental_uris":{"android":"levelo://app?vid=3380ed0a-91f8-4430-98d5-1b26cda6cc90","ios":"levelo://app?vid=3380ed0a-91f8-4430-98d5-1b26cda6cc90"},"vehicle_type_id":"4","last_reported":1745064987,"current_range_meters":9200,"station_id":"ce4bhh12rcd13ifvqff0","pricing_plan_id":"cebpf4jnsgd1na2vs0mg"},{"bike_id":"da54d534-cdfc-4dbf-9f0d-6cfc2a37323d","system_id":"levelo_inurba_marseille","lat":43.2335,"lon":5.36148,"is_reserved":false,"is_disabled":false,"rental_uris":{"android":"levelo://app?vid=da54d534-cdfc-4dbf-9f0d-6cfc2a37323d","ios":"levelo://app?vid=da54d534-cdfc-4dbf-9f0d-6cfc2a37323d"},"vehicle_type_id":"4","last_reported":1745064987,"current_range_meters":9200,"station_id":"","pricing_plan_id":"cebpf4jnsgd1na2vs0mg"},{"bike_id":"47f61380-525c-4579-bd6a-f53078658c39","system_id":"levelo_inurba_marseille","lat":43.26559,"lon":5.37284,"is_reserved":false,"is_disabled":false,"rental_uris":{"android":"levelo://app?vid=47f61380-525c-4579-bd6a-f53078658c39","ios":"levelo://app?vid=47f61380-525c-4579-bd6a-f53078658c39"},"vehicle_type_id":"4","last_reported":1745064987,"current_range_meters":10000,"station_id":"ce4bhg12rcd13ifvqf70","pricing_plan_id":"cebpf4jnsgd1na2vs0mg"},{"bike_id":"c6292fe8-fb44-4ac8-91ab-fd748c611a2e","system_id":"levelo_inurba_marseille","lat":43.295624,"lon":5.375071,"is_reserved":false,"is_disabled":false,"rental_uris":{"android":"levelo://app?vid=c6292fe8-fb44-4ac8-91ab-fd748c611a2e","ios":"levelo://app?vid=c6292fe8-fb44-4ac8-91ab-fd748c611a2e"},"vehicle_type_id":"4","last_reported":1745064987,"current_range_meters":12000,"station_id":"ce4bgk12rcd13ifvqbi0","pricing_plan_id":"cebpf4jnsgd1na2vs0mg"},{"bike_id":"2792b611-4531-4bad-8b15-dc37d2520528","system_id":"levelo_inurba_marseille","lat":43.30543,"lon":5.36695,"is_reserved":false,"is_disabled":false,"rental_uris":{"android":"levelo://app?vid=2792b611-4531-4bad-8b15-dc37d2520528","ios":"levelo://app?vid=2792b611-4531-4bad-8b15-dc37d2520528"},"vehicle_type_id":"4","last_reported":1745064987,"current_range_meters":9600,"station_id":"ce4bgih2rcd13ifvqba0","pricing_plan_id":"cebpf4jnsgd1na2vs0mg"},{"bike_id":"de08492d-ffa5-4976-a30b-573408cffcfb","system_id":"levelo_inurba_marseille","lat":43.26216,"lon":5.37426,"is_reserved":false,"is_disabled":false,"rental_uris":{"android":"levelo://app?vid=de08492d-ffa5-4976-a30b-573408cffcfb","ios":"levelo://app?vid=de08492d-ffa5-4976-a30b-573408cffcfb"},"vehicle_type_id":"4","last_reported":1745064987,"current_range_meters":10800,"station_id":"ce4bhgp2rcd13ifvqfc0","pricing_plan_id":"cebpf4jnsgd1na2vs0mg"},{"bike_id":"4afbb993-3a66-4342-8cb4-322d4b63dffe","system_id":"levelo_inurba_marseille","lat":43.29612,"lon":5.37711,"is_reserved":false,"is_disabled":false,"rental_uris":{"android":"levelo://app?vid=4afbb993-3a66-4342-8cb4-322d4b63dffe","ios":"levelo://app?vid=4afbb993-3a66-4342-8cb4-322d4b63dffe"},"vehicle_type_id":"4","last_reported":1745064987,"current_range_meters":10000,"station_id":"ce4bgi92rcd13ifvqb90","pricing_plan_id":"cebpf4jnsgd1na2vs0mg"},{"bike_id":"1eaca8f5-0017-418a-9bfc-52185bf67513","system_id":"levelo_inurba_marseille","lat":43.33713,"lon":5.3921,"is_reserved":false,"is_disabled":false,"rental_uris":{"android":"levelo://app?vid=1eaca8f5-0017-418a-9bfc-52185bf67513","ios":"levelo://app?vid=1eaca8f5-0017-418a-9bfc-52185bf67513"},"vehicle_type_id":"4","last_reported":1745064987,"current_range_meters":10800,"station_id":"ce4bhr92rcd13ifvqhsg","pricing_plan_id":"cebpf4jnsgd1na2vs0mg"},{"bike_id":"e5cc7175-5ea7-42df-8bec-7c7918e0cdb2","system_id":"levelo_inurba_marseille","lat":43.2467,"lon":5.38149,"is_reserved":false,"is_disabled":false,"rental_uris":{"android":"levelo://app?vid=e5cc7175-5ea7-42df-8bec-7c7918e0cdb2","ios":"levelo://app?vid=e5cc7175-5ea7-42df-8bec-7c7918e0cdb2"},"vehicle_type_id":"4","last_reported":1745064987,"current_range_meters":10800,"station_id":"ce4bhih2rcd13ifvqfr0","pricing_plan_id":"cebpf4jnsgd1na2vs0mg"},{"bike_id":"bd252512-7aef-49a5-b319-c1c41d41e1eb","system_id":"levelo_inurba_marseille","lat":43.27494,"lon":5.42457,"is_reserved":false,"is_disabled":false,"rental_uris":{"android":"levelo://app?vid=bd252512-7aef-49a5-b319-c1c41d41e1eb","ios":"levelo://app?vid=bd252512-7aef-49a5-b319-c1c41d41e1eb"},"vehicle_type_id":"4","last_reported":1745064987,"current_range_meters":10800,"station_id":"ce4bhn92rcd13ifvqgrg","pricing_plan_id":"cebpf4jnsgd1na2vs0mg"},{"bike_id":"7eb8853e-3665-40f5-8308-1299f0674652","system_id":"levelo_inurba_marseille","lat":43.30378,"lon":5.42487,"is_reserved":false,"is_disabled":false,"rental_uris":{"android":"levelo://app?vid=7eb8853e-3665-40f5-8308-1299f0674652","ios":"levelo://app?vid=7eb8853e-3665-40f5-8308-1299f0674652"},"vehicle_type_id":"4","last_reported":1745064987,"current_range_meters":10800,"station_id":"ce4bhoh2rcd13ifvqh6g","pricing_plan_id":"cebpf4jnsgd1na2vs0mg"},{"bike_id":"ec7bba35-a1f9-4225-ae92-fe8e9af6fb8b","system_id":"levelo_inurba_marseille","lat":43.29303,"lon":5.37172,"is_reserved":false,"is_disabled":false,"rental_uris":{"android":"levelo://app?vid=ec7bba35-a1f9-4225-ae92-fe8e9af6fb8b","ios":"levelo://app?vid=ec7bba35-a1f9-4225-ae92-fe8e9af6fb8b"},"vehicle_type_id":"4","last_reported":1745064987,"current_range_meters":10800,"station_id":"ce4bgh92rcd13ifvqb40","pricing_plan_id":"cebpf4jnsgd1na2vs0mg"},{"bike_id":"3bb521f2-b608-4f06-8825-5c752ee9eccd","system_id":"levelo_inurba_marseille","lat":43.25493,"lon":5.37647,"is_reserved":false,"is_disabled":false,"rental_uris":{"android":"levelo://app?vid=3bb521f2-b608-4f06-8825-5c752ee9eccd","ios":"levelo://app?vid=3bb521f2-b608-4f06-8825-5c752ee9eccd"},"vehicle_type_id":"4","last_reported":1745064987,"current_range_meters":10800,"station_id":"ce4bhh12rcd13ifvqff0","pricing_plan_id":"cebpf4jnsgd1na2vs0mg"},{"bike_id":"186380b9-3dab-457b-b648-71d123fa0368","system_id":"levelo_inurba_marseille","lat":43.25141,"lon":5.40346,"is_reserved":false,"is_disabled":true,"rental_uris":{"android":"levelo://app?vid=186380b9-3dab-457b-b648-71d123fa0368","ios":"levelo://app?vid=186380b9-3dab-457b-b648-71d123fa0368"},"vehicle_type_id":"4","last_reported":1745064987,"current_range_meters":10800,"station_id":"ce4bhlh2rcd13ifvqgig","pricing_plan_id":"cebpf4jnsgd1na2vs0mg"},{"bike_id":"3794c0c4-e9a7-43db-9cec-7ab10d3387e1","system_id":"levelo_inurba_marseille","lat":43.27335,"lon":5.39081,"is_reserved":false,"is_disabled":false,"rental_uris":{"android":"levelo://app?vid=3794c0c4-e9a7-43db-9cec-7ab10d3387e1","ios":"levelo://app?vid=3794c0c4-e9a7-43db-9cec-7ab10d3387e1"},"vehicle_type_id":"4","last_reported":1745064987,"current_range_meters":10800,"station_id":"ce4bhgp2rcd13ifvqfe0","pricing_plan_id":"cebpf4jnsgd1na2vs0mg"},{"bike_id":"7848b47d-0885-4ba1-a661-059fd5303cd6","system_id":"levelo_inurba_marseille","lat":43.28268,"lon":5.35057,"is_reserved":false,"is_disabled":false,"rental_uris":{"android":"levelo://app?vid=7848b47d-0885-4ba1-a661-059fd5303cd6","ios":"levelo://app?vid=7848b47d-0885-4ba1-a661-059fd5303cd6"},"vehicle_type_id":"4","last_reported":1745064987,"current_range_meters":10800,"station_id":"ce4bhbp2rcd13ifvqerg","pricing_plan_id":"cebpf4jnsgd1na2vs0mg"},{"bike_id":"67147e1d-7a51-498b-9675-9bf8ab1bc4b3","system_id":"levelo_inurba_marseille","lat":43.29618,"lon":5.37697,"is_reserved":false,"is_disabled":false,"rental_uris":{"android":"levelo://app?vid=67147e1d-7a51-498b-9675-9bf8ab1bc4b3","ios":"levelo://app?vid=67147e1d-7a51-498b-9675-9bf8ab1bc4b3"},"vehicle_type_id":"4","last_reported":1745064987,"current_range_meters":11200,"station_id":"ce4bgi92rcd13ifvqb90","pricing_plan_id":"cebpf4jnsgd1na2vs0mg"},{"bike_id":"22583896-a653-48d4-8b37-6cfca0e7be93","system_id":"levelo_inurba_marseille","lat":43.21189,"lon":5.3507,"is_reserved":false,"is_disabled":false,"rental_uris":{"android":"levelo://app?vid=22583896-a653-48d4-8b37-6cfca0e7be93","ios":"levelo://app?vid=22583896-a653-48d4-8b37-6cfca0e7be93"},"vehicle_type_id":"4","last_reported":1745064987,"current_range_meters":11200,"station_id":"st_cvj6sg6p6f1abm77japg","pricing_plan_id":"cebpf4jnsgd1na2vs0mg"},{"bike_id":"97e50bb0-9a70-481b-b370-e509345e710a","system_id":"levelo_inurba_marseille","lat":43.28034,"lon":5.36932,"is_reserved":false,"is_disabled":true,"rental_uris":{"android":"levelo://app?vid=97e50bb0-9a70-481b-b370-e509345e710a","ios":"levelo://app?vid=97e50bb0-9a70-481b-b370-e509345e710a"},"vehicle_type_id":"4","last_reported":1745064987,"current_range_meters":12000,"station_id":"ce4bha12rcd13ifvqef0","pricing_plan_id":"cebpf4jnsgd1na2vs0mg"},{"bike_id":"d202ca57-a645-4c02-ae80-fc111c96b580","system_id":"levelo_inurba_marseille","lat":43.24392,"lon":5.37062,"is_reserved":false,"is_disabled":false,"rental_uris":{"android":"levelo://app?vid=d202ca57-a645-4c02-ae80-fc111c96b580","ios":"levelo://app?vid=d202ca57-a645-4c02-ae80-fc111c96b580"},"vehicle_type_id":"4","last_reported":1745064987,"current_range_meters":11600,"station_id":"ce4bhhh2rcd13ifvqfk0","pricing_plan_id":"cebpf4jnsgd1na2vs0mg"},{"bike_id":"904fb01d-7241-46ce-a67c-332bfceba3ad","system_id":"levelo_inurba_marseille","lat":43.2842,"lon":5.34992,"is_reserved":false,"is_disabled":false,"rental_uris":{"android":"levelo://app?vid=904fb01d-7241-46ce-a67c-332bfceba3ad","ios":"levelo://app?vid=904fb01d-7241-46ce-a67c-332bfceba3ad"},"vehicle_type_id":"4","last_reported":1745064987,"current_range_meters":12000,"station_id":"ce4bhbh2rcd13ifvqepg","pricing_plan_id":"cebpf4jnsgd1na2vs0mg"},{"bike_id":"b7974e0c-2fc7-4c70-b248-039a4c339752","system_id":"levelo_inurba_marseille","lat":43.24185,"lon":5.3973,"is_reserved":false,"is_disabled":false,"rental_uris":{"android":"levelo://app?vid=b7974e0c-2fc7-4c70-b248-039a4c339752","ios":"levelo://app?vid=b7974e0c-2fc7-4c70-b248-039a4c339752"},"vehicle_type_id":"4","last_reported":1745064987,"current_range_meters":12000,"station_id":"ce4bhn12rcd13ifvqgpg","pricing_plan_id":"cebpf4jnsgd1na2vs0mg"},{"bike_id":"2a1802ad-fdb2-4af9-8abf-933ef64f30c7","system_id":"levelo_inurba_marseille","lat":43.2992,"lon":5.37488,"is_reserved":false,"is_disabled":false,"rental_uris":{"android":"levelo://app?vid=2a1802ad-fdb2-4af9-8abf-933ef64f30c7","ios":"levelo://app?vid=2a1802ad-fdb2-4af9-8abf-933ef64f30c7"},"vehicle_type_id":"4","last_reported":1745064987,"current_range_meters":12000,"station_id":"ce4bgjh2rcd13ifvqbg0","pricing_plan_id":"cebpf4jnsgd1na2vs0mg"},{"bike_id":"19cd9beb-adaf-4129-b085-f902dae7fe37","system_id":"levelo_inurba_marseille","lat":43.28617,"lon":5.37054,"is_reserved":false,"is_disabled":false,"rental_uris":{"android":"levelo://app?vid=19cd9beb-adaf-4129-b085-f902dae7fe37","ios":"levelo://app?vid=19cd9beb-adaf-4129-b085-f902dae7fe37"},"vehicle_type_id":"4","last_reported":1745064987,"current_range_meters":12000,"station_id":"ce4bht12rcd13ifvqi60","pricing_plan_id":"cebpf4jnsgd1na2vs0mg"},{"bike_id":"7f44b622-fe66-4447-98b6-d7912a7c91a6","system_id":"levelo_inurba_marseille","lat":43.252338,"lon":5.394617,"is_reserved":false,"is_disabled":false,"rental_uris":{"android":"levelo://app?vid=7f44b622-fe66-4447-98b6-d7912a7c91a6","ios":"levelo://app?vid=7f44b622-fe66-4447-98b6-d7912a7c91a6"},"vehicle_type_id":"4","last_reported":1745064987,"current_range_meters":12000,"station_id":"ce4bhm12rcd13ifvqgkg","pricing_plan_id":"cebpf4jnsgd1na2vs0mg"},{"bike_id":"2e01b58f-c7ff-4cdf-8b9e-68de9b92b9bd","system_id":"levelo_inurba_marseille","lat":43.22922,"lon":5.3538,"is_reserved":false,"is_disabled":false,"rental_uris":{"android":"levelo://app?vid=2e01b58f-c7ff-4cdf-8b9e-68de9b92b9bd","ios":"levelo://app?vid=2e01b58f-c7ff-4cdf-8b9e-68de9b92b9bd"},"vehicle_type_id":"4","last_reported":1745064987,"current_range_meters":12400,"station_id":"cpo3532slgdg3j2ikp40","pricing_plan_id":"cebpf4jnsgd1na2vs0mg"},{"bike_id":"40b8da9a-962a-4cfd-9c79-c6121ec122f0","system_id":"levelo_inurba_marseille","lat":43.28685,"lon":5.38648,"is_reserved":false,"is_disabled":true,"rental_uris":{"android":"levelo://app?vid=40b8da9a-962a-4cfd-9c79-c6121ec122f0","ios":"levelo://app?vid=40b8da9a-962a-4cfd-9c79-c6121ec122f0"},"vehicle_type_id":"4","last_reported":1745064987,"current_range_meters":12400,"station_id":"ce4bh492rcd13ifvqdug","pricing_plan_id":"cebpf4jnsgd1na2vs0mg"},{"bike_id":"00c2f4d7-da07-489d-8b56-536cf2a498a3","system_id":"levelo_inurba_marseille","lat":43.24667,"lon":5.38162,"is_reserved":false,"is_disabled":false,"rental_uris":{"android":"levelo://app?vid=00c2f4d7-da07-489d-8b56-536cf2a498a3","ios":"levelo://app?vid=00c2f4d7-da07-489d-8b56-536cf2a498a3"},"vehicle_type_id":"4","last_reported":1745064987,"current_range_meters":12400,"station_id":"ce4bhih2rcd13ifvqfr0","pricing_plan_id":"cebpf4jnsgd1na2vs0mg"},{"bike_id":"03acd94d-bdec-42ea-bd4d-b4e2f4327c34","system_id":"levelo_inurba_marseille","lat":43.26682,"lon":5.38255,"is_reserved":false,"is_disabled":false,"rental_uris":{"android":"levelo://app?vid=03acd94d-bdec-42ea-bd4d-b4e2f4327c34","ios":"levelo://app?vid=03acd94d-bdec-42ea-bd4d-b4e2f4327c34"},"vehicle_type_id":"4","last_reported":1745064987,"current_range_meters":12400,"station_id":"ce4bhg92rcd13ifvqf90","pricing_plan_id":"cebpf4jnsgd1na2vs0mg"},{"bike_id":"1fe6919b-9282-4471-ade7-66b38e4e71a7","system_id":"levelo_inurba_marseille","lat":43.33024,"lon":5.39043,"is_reserved":false,"is_disabled":false,"rental_uris":{"android":"levelo://app?vid=1fe6919b-9282-4471-ade7-66b38e4e71a7","ios":"levelo://app?vid=1fe6919b-9282-4471-ade7-66b38e4e71a7"},"vehicle_type_id":"4","last_reported":1745064987,"current_range_meters":12800,"station_id":"ce4bhr92rcd13ifvqhrg","pricing_plan_id":"cebpf4jnsgd1na2vs0mg"},{"bike_id":"aa635b8e-1afd-4e77-a491-a27821e0f8d9","system_id":"levelo_inurba_marseille","lat":43.279506,"lon":5.395134,"is_reserved":false,"is_disabled":false,"rental_uris":{"android":"levelo://app?vid=aa635b8e-1afd-4e77-a491-a27821e0f8d9","ios":"levelo://app?vid=aa635b8e-1afd-4e77-a491-a27821e0f8d9"},"vehicle_type_id":"4","last_reported":1745064987,"current_range_meters":13600,"station_id":"ce4bh292rcd13ifvqdg0","pricing_plan_id":"cebpf4jnsgd1na2vs0mg"},{"bike_id":"a545a5e1-67ce-4f9a-8552-87dc314d354d","system_id":"levelo_inurba_marseille","lat":43.25494,"lon":5.37644,"is_reserved":false,"is_disabled":false,"rental_uris":{"android":"levelo://app?vid=a545a5e1-67ce-4f9a-8552-87dc314d354d","ios":"levelo://app?vid=a545a5e1-67ce-4f9a-8552-87dc314d354d"},"vehicle_type_id":"4","last_reported":1745064987,"current_range_meters":13600,"station_id":"ce4bhh12rcd13ifvqff0","pricing_plan_id":"cebpf4jnsgd1na2vs0mg"},{"bike_id":"ffc23a55-3c3f-4179-bc94-84e1d4ad80d6","system_id":"levelo_inurba_marseille","lat":43.22932,"lon":5.35378,"is_reserved":false,"is_disabled":false,"rental_uris":{"android":"levelo://app?vid=ffc23a55-3c3f-4179-bc94-84e1d4ad80d6","ios":"levelo://app?vid=ffc23a55-3c3f-4179-bc94-84e1d4ad80d6"},"vehicle_type_id":"4","last_reported":1745064987,"current_range_meters":13600,"station_id":"cpo3532slgdg3j2ikp40","pricing_plan_id":"cebpf4jnsgd1na2vs0mg"},{"bike_id":"a827af81-901c-418e-9cc3-237c30e51e4b","system_id":"levelo_inurba_marseille","lat":43.23965,"lon":5.3663,"is_reserved":false,"is_disabled":false,"rental_uris":{"android":"levelo://app?vid=a827af81-901c-418e-9cc3-237c30e51e4b","ios":"levelo://app?vid=a827af81-901c-418e-9cc3-237c30e51e4b"},"vehicle_type_id":"4","last_reported":1745064987,"current_range_meters":14000,"station_id":"ce4bhi12rcd13ifvqfp0","pricing_plan_id":"cebpf4jnsgd1na2vs0mg"},{"bike_id":"268f5777-401d-490f-89f2-e55a55f3f189","system_id":"levelo_inurba_marseille","lat":43.28039,"lon":5.36944,"is_reserved":false,"is_disabled":false,"rental_uris":{"android":"levelo://app?vid=268f5777-401d-490f-89f2-e55a55f3f189","ios":"levelo://app?vid=268f5777-401d-490f-89f2-e55a55f3f189"},"vehicle_type_id":"4","last_reported":1745064987,"current_range_meters":13600,"station_id":"ce4bha12rcd13ifvqef0","pricing_plan_id":"cebpf4jnsgd1na2vs0mg"},{"bike_id":"63fac410-2c95-4017-9803-b0fc2423e010","system_id":"levelo_inurba_marseille","lat":43.29441,"lon":5.39747,"is_reserved":false,"is_disabled":false,"rental_uris":{"android":"levelo://app?vid=63fac410-2c95-4017-9803-b0fc2423e010","ios":"levelo://app?vid=63fac410-2c95-4017-9803-b0fc2423e010"},"vehicle_type_id":"4","last_reported":1745064987,"current_range_meters":14000,"station_id":"ce4bh3h2rcd13ifvqdo0","pricing_plan_id":"cebpf4jnsgd1na2vs0mg"},{"bike_id":"1f10e9a3-da2f-4f5d-a18e-2f2b51e35556","system_id":"levelo_inurba_marseille","lat":43.281,"lon":5.37836,"is_reserved":false,"is_disabled":false,"rental_uris":{"android":"levelo://app?vid=1f10e9a3-da2f-4f5d-a18e-2f2b51e35556","ios":"levelo://app?vid=1f10e9a3-da2f-4f5d-a18e-2f2b51e35556"},"vehicle_type_id":"4","last_reported":1745064987,"current_range_meters":14000,"station_id":"ce4bha12rcd13ifvqee0","pricing_plan_id":"cebpf4jnsgd1na2vs0mg"},{"bike_id":"4b77ad30-d1ff-4dc1-abbf-112675e4bc66","system_id":"levelo_inurba_marseille","lat":43.29372,"lon":5.3785,"is_reserved":false,"is_disabled":false,"rental_uris":{"android":"levelo://app?vid=4b77ad30-d1ff-4dc1-abbf-112675e4bc66","ios":"levelo://app?vid=4b77ad30-d1ff-4dc1-abbf-112675e4bc66"},"vehicle_type_id":"4","last_reported":1745064987,"current_range_meters":14000,"station_id":"ce4bgjh2rcd13ifvqbf0","pricing_plan_id":"cebpf4jnsgd1na2vs0mg"},{"bike_id":"24213b37-b766-4d9c-a174-f6bf34920497","system_id":"levelo_inurba_marseille","lat":43.28469,"lon":5.384178,"is_reserved":false,"is_disabled":false,"rental_uris":{"android":"levelo://app?vid=24213b37-b766-4d9c-a174-f6bf34920497","ios":"levelo://app?vid=24213b37-b766-4d9c-a174-f6bf34920497"},"vehicle_type_id":"4","last_reported":1745064987,"current_range_meters":14400,"station_id":"ce4bh512rcd13ifvqe3g","pricing_plan_id":"cebpf4jnsgd1na2vs0mg"},{"bike_id":"d61de19d-d2c1-4522-9ef8-fb414bf1294c","system_id":"levelo_inurba_marseille","lat":43.28477,"lon":5.38434,"is_reserved":false,"is_disabled":true,"rental_uris":{"android":"levelo://app?vid=d61de19d-d2c1-4522-9ef8-fb414bf1294c","ios":"levelo://app?vid=d61de19d-d2c1-4522-9ef8-fb414bf1294c"},"vehicle_type_id":"4","last_reported":1745064987,"current_range_meters":14400,"station_id":"ce4bh512rcd13ifvqe3g","pricing_plan_id":"cebpf4jnsgd1na2vs0mg"},{"bike_id":"33a4463c-6587-4ec1-b93b-e9b62402d2be","system_id":"levelo_inurba_marseille","lat":43.29966,"lon":5.38493,"is_reserved":false,"is_disabled":false,"rental_uris":{"android":"levelo://app?vid=33a4463c-6587-4ec1-b93b-e9b62402d2be","ios":"levelo://app?vid=33a4463c-6587-4ec1-b93b-e9b62402d2be"},"vehicle_type_id":"4","last_reported":1745064987,"current_range_meters":16400,"station_id":"ce4bgj92rcd13ifvqbd0","pricing_plan_id":"cebpf4jnsgd1na2vs0mg"},{"bike_id":"4e6892ef-dbe3-43e4-bc69-b2da5d802c90","system_id":"levelo_inurba_marseille","lat":43.27374,"lon":5.36266,"is_reserved":false,"is_disabled":true,"rental_uris":{"android":"levelo://app?vid=4e6892ef-dbe3-43e4-bc69-b2da5d802c90","ios":"levelo://app?vid=4e6892ef-dbe3-43e4-bc69-b2da5d802c90"},"vehicle_type_id":"4","last_reported":1745064987,"current_range_meters":14800,"station_id":"ce4bhbh2rcd13ifvqeo0","pricing_plan_id":"cebpf4jnsgd1na2vs0mg"},{"bike_id":"96e74830-2b6f-480a-a7d0-c5e4b2d8cff2","system_id":"levelo_inurba_marseille","lat":43.26794,"lon":5.39417,"is_reserved":false,"is_disabled":false,"rental_uris":{"android":"levelo://app?vid=96e74830-2b6f-480a-a7d0-c5e4b2d8cff2","ios":"levelo://app?vid=96e74830-2b6f-480a-a7d0-c5e4b2d8cff2"},"vehicle_type_id":"4","last_reported":1745064987,"current_range_meters":14800,"station_id":"ce4bhh12rcd13ifvqfg0","pricing_plan_id":"cebpf4jnsgd1na2vs0mg"},{"bike_id":"6affe129-897f-4d56-81b1-155cca0b618c","system_id":"levelo_inurba_marseille","lat":43.24187,"lon":5.39731,"is_reserved":false,"is_disabled":false,"rental_uris":{"android":"levelo://app?vid=6affe129-897f-4d56-81b1-155cca0b618c","ios":"levelo://app?vid=6affe129-897f-4d56-81b1-155cca0b618c"},"vehicle_type_id":"4","last_reported":1745064987,"current_range_meters":14800,"station_id":"ce4bhn12rcd13ifvqgpg","pricing_plan_id":"cebpf4jnsgd1na2vs0mg"},{"bike_id":"95c4d4a5-c8ad-474c-88bc-319b48bcb440","system_id":"levelo_inurba_marseille","lat":43.3065,"lon":5.40095,"is_reserved":false,"is_disabled":false,"rental_uris":{"android":"levelo://app?vid=95c4d4a5-c8ad-474c-88bc-319b48bcb440","ios":"levelo://app?vid=95c4d4a5-c8ad-474c-88bc-319b48bcb440"},"vehicle_type_id":"4","last_reported":1745064987,"current_range_meters":14400,"station_id":"ce4bh112rcd13ifvqda0","pricing_plan_id":"cebpf4jnsgd1na2vs0mg"},{"bike_id":"1fad1949-da2d-4b93-9386-de1f3dc78d1f","system_id":"levelo_inurba_marseille","lat":43.30631,"lon":5.39365,"is_reserved":false,"is_disabled":true,"rental_uris":{"android":"levelo://app?vid=1fad1949-da2d-4b93-9386-de1f3dc78d1f","ios":"levelo://app?vid=1fad1949-da2d-4b93-9386-de1f3dc78d1f"},"vehicle_type_id":"4","last_reported":1745064987,"current_range_meters":15200,"station_id":"ce4bh0p2rcd13ifvqd80","pricing_plan_id":"cebpf4jnsgd1na2vs0mg"},{"bike_id":"77c7e1b8-a6e9-4af0-bd72-dc1be631223f","system_id":"levelo_inurba_marseille","lat":43.26682,"lon":5.3827,"is_reserved":false,"is_disabled":false,"rental_uris":{"android":"levelo://app?vid=77c7e1b8-a6e9-4af0-bd72-dc1be631223f","ios":"levelo://app?vid=77c7e1b8-a6e9-4af0-bd72-dc1be631223f"},"vehicle_type_id":"4","last_reported":1745064987,"current_range_meters":15200,"station_id":"ce4bhg92rcd13ifvqf90","pricing_plan_id":"cebpf4jnsgd1na2vs0mg"},{"bike_id":"49a1d797-b941-4171-af94-57eb3416bda4","system_id":"levelo_inurba_marseille","lat":43.30794,"lon":5.4351,"is_reserved":false,"is_disabled":false,"rental_uris":{"android":"levelo://app?vid=49a1d797-b941-4171-af94-57eb3416bda4","ios":"levelo://app?vid=49a1d797-b941-4171-af94-57eb3416bda4"},"vehicle_type_id":"4","last_reported":1745064987,"current_range_meters":15200,"station_id":"ce4bhph2rcd13ifvqheg","pricing_plan_id":"cebpf4jnsgd1na2vs0mg"},{"bike_id":"585dc1bf-e962-4c0c-94d3-bda040b0293a","system_id":"levelo_inurba_marseille","lat":43.2842,"lon":5.34974,"is_reserved":false,"is_disabled":false,"rental_uris":{"android":"levelo://app?vid=585dc1bf-e962-4c0c-94d3-bda040b0293a","ios":"levelo://app?vid=585dc1bf-e962-4c0c-94d3-bda040b0293a"},"vehicle_type_id":"4","last_reported":1745064987,"current_range_meters":15200,"station_id":"ce4bhbh2rcd13ifvqepg","pricing_plan_id":"cebpf4jnsgd1na2vs0mg"},{"bike_id":"13b31f8f-095e-4302-ac35-4cfd47f60cb0","system_id":"levelo_inurba_marseille","lat":43.29869,"lon":5.38923,"is_reserved":false,"is_disabled":true,"rental_uris":{"android":"levelo://app?vid=13b31f8f-095e-4302-ac35-4cfd47f60cb0","ios":"levelo://app?vid=13b31f8f-095e-4302-ac35-4cfd47f60cb0"},"vehicle_type_id":"4","last_reported":1745064987,"current_range_meters":15200,"station_id":"ce4bh392rcd13ifvqdl0","pricing_plan_id":"cebpf4jnsgd1na2vs0mg"},{"bike_id":"3268ab68-b35e-4bd9-95f2-122b2cbfb388","system_id":"levelo_inurba_marseille","lat":43.23201,"lon":5.35553,"is_reserved":false,"is_disabled":false,"rental_uris":{"android":"levelo://app?vid=3268ab68-b35e-4bd9-95f2-122b2cbfb388","ios":"levelo://app?vid=3268ab68-b35e-4bd9-95f2-122b2cbfb388"},"vehicle_type_id":"4","last_reported":1745064987,"current_range_meters":14800,"station_id":"ce4bhu92rcd13ifvqi70","pricing_plan_id":"cebpf4jnsgd1na2vs0mg"},{"bike_id":"6d4edd65-adec-46b7-b91e-cf2f5b834540","system_id":"levelo_inurba_marseille","lat":43.217482,"lon":5.346026,"is_reserved":false,"is_disabled":false,"rental_uris":{"android":"levelo://app?vid=6d4edd65-adec-46b7-b91e-cf2f5b834540","ios":"levelo://app?vid=6d4edd65-adec-46b7-b91e-cf2f5b834540"},"vehicle_type_id":"4","last_reported":1745064987,"current_range_meters":15200,"station_id":"st_cvj6r9ubvosntc0bgbag","pricing_plan_id":"cebpf4jnsgd1na2vs0mg"},{"bike_id":"1eb40805-65f9-42b4-a693-14584f48ae7c","system_id":"levelo_inurba_marseille","lat":43.28274,"lon":5.35071,"is_reserved":false,"is_disabled":false,"rental_uris":{"android":"levelo://app?vid=1eb40805-65f9-42b4-a693-14584f48ae7c","ios":"levelo://app?vid=1eb40805-65f9-42b4-a693-14584f48ae7c"},"vehicle_type_id":"4","last_reported":1745064987,"current_range_meters":15200,"station_id":"ce4bhbp2rcd13ifvqerg","pricing_plan_id":"cebpf4jnsgd1na2vs0mg"},{"bike_id":"6abcb801-25a7-41f8-8107-473096ed8048","system_id":"levelo_inurba_marseille","lat":43.29369,"lon":5.37842,"is_reserved":false,"is_disabled":false,"rental_uris":{"android":"levelo://app?vid=6abcb801-25a7-41f8-8107-473096ed8048","ios":"levelo://app?vid=6abcb801-25a7-41f8-8107-473096ed8048"},"vehicle_type_id":"4","last_reported":1745064987,"current_range_meters":15200,"station_id":"ce4bgjh2rcd13ifvqbf0","pricing_plan_id":"cebpf4jnsgd1na2vs0mg"},{"bike_id":"597236d8-ee38-4d6f-b6ab-d41b8c4bd7ed","system_id":"levelo_inurba_marseille","lat":43.28973,"lon":5.35584,"is_reserved":false,"is_disabled":false,"rental_uris":{"android":"levelo://app?vid=597236d8-ee38-4d6f-b6ab-d41b8c4bd7ed","ios":"levelo://app?vid=597236d8-ee38-4d6f-b6ab-d41b8c4bd7ed"},"vehicle_type_id":"4","last_reported":1745064987,"current_range_meters":15200,"station_id":"ce4bhb92rcd13ifvqen0","pricing_plan_id":"cebpf4jnsgd1na2vs0mg"},{"bike_id":"4f4fe79e-2fb5-4ccb-834e-219e0685c3f5","system_id":"levelo_inurba_marseille","lat":43.29624,"lon":5.37694,"is_reserved":false,"is_disabled":false,"rental_uris":{"android":"levelo://app?vid=4f4fe79e-2fb5-4ccb-834e-219e0685c3f5","ios":"levelo://app?vid=4f4fe79e-2fb5-4ccb-834e-219e0685c3f5"},"vehicle_type_id":"4","last_reported":1745064987,"current_range_meters":16000,"station_id":"ce4bgi92rcd13ifvqb90","pricing_plan_id":"cebpf4jnsgd1na2vs0mg"},{"bike_id":"8b386a13-d7ce-4797-850b-d66b405de4c3","system_id":"levelo_inurba_marseille","lat":43.29659,"lon":5.37535,"is_reserved":false,"is_disabled":false,"rental_uris":{"android":"levelo://app?vid=8b386a13-d7ce-4797-850b-d66b405de4c3","ios":"levelo://app?vid=8b386a13-d7ce-4797-850b-d66b405de4c3"},"vehicle_type_id":"4","last_reported":1745064987,"current_range_meters":16000,"station_id":"","pricing_plan_id":"cebpf4jnsgd1na2vs0mg"},{"bike_id":"44c2515b-ff63-4bac-a0f9-f4fef656ac10","system_id":"levelo_inurba_marseille","lat":43.28424,"lon":5.34976,"is_reserved":false,"is_disabled":false,"rental_uris":{"android":"levelo://app?vid=44c2515b-ff63-4bac-a0f9-f4fef656ac10","ios":"levelo://app?vid=44c2515b-ff63-4bac-a0f9-f4fef656ac10"},"vehicle_type_id":"4","last_reported":1745064987,"current_range_meters":16000,"station_id":"ce4bhbh2rcd13ifvqepg","pricing_plan_id":"cebpf4jnsgd1na2vs0mg"},{"bike_id":"b075c115-a3f9-4f40-83ed-cbc1e8e5f84e","system_id":"levelo_inurba_marseille","lat":43.30535,"lon":5.36698,"is_reserved":false,"is_disabled":true,"rental_uris":{"android":"levelo://app?vid=b075c115-a3f9-4f40-83ed-cbc1e8e5f84e","ios":"levelo://app?vid=b075c115-a3f9-4f40-83ed-cbc1e8e5f84e"},"vehicle_type_id":"4","last_reported":1745064987,"current_range_meters":16000,"station_id":"ce4bgrp2rcd13ifvqc9g","pricing_plan_id":"cebpf4jnsgd1na2vs0mg"},{"bike_id":"1c46e1ef-ecc2-40e9-bb84-3560d46edbc0","system_id":"levelo_inurba_marseille","lat":43.22925,"lon":5.35364,"is_reserved":false,"is_disabled":false,"rental_uris":{"android":"levelo://app?vid=1c46e1ef-ecc2-40e9-bb84-3560d46edbc0","ios":"levelo://app?vid=1c46e1ef-ecc2-40e9-bb84-3560d46edbc0"},"vehicle_type_id":"4","last_reported":1745064987,"current_range_meters":16000,"station_id":"cpo3532slgdg3j2ikp40","pricing_plan_id":"cebpf4jnsgd1na2vs0mg"},{"bike_id":"0fabe441-18a7-4ca5-b3d6-02a723f7cf99","system_id":"levelo_inurba_marseille","lat":43.22949,"lon":5.35381,"is_reserved":false,"is_disabled":false,"rental_uris":{"android":"levelo://app?vid=0fabe441-18a7-4ca5-b3d6-02a723f7cf99","ios":"levelo://app?vid=0fabe441-18a7-4ca5-b3d6-02a723f7cf99"},"vehicle_type_id":"4","last_reported":1745064987,"current_range_meters":16000,"station_id":"cpo3532slgdg3j2ikp40","pricing_plan_id":"cebpf4jnsgd1na2vs0mg"},{"bike_id":"15572984-94dd-404c-b34b-0eba775da91a","system_id":"levelo_inurba_marseille","lat":43.25014,"lon":5.38916,"is_reserved":false,"is_disabled":false,"rental_uris":{"android":"levelo://app?vid=15572984-94dd-404c-b34b-0eba775da91a","ios":"levelo://app?vid=15572984-94dd-404c-b34b-0eba775da91a"},"vehicle_type_id":"4","last_reported":1745064987,"current_range_meters":16400,"station_id":"ce4bhgp2rcd13ifvqfd0","pricing_plan_id":"cebpf4jnsgd1na2vs0mg"},{"bike_id":"ea02ba4b-4d4d-4f03-a88f-f51befdc85f2","system_id":"levelo_inurba_marseille","lat":43.25498,"lon":5.3765,"is_reserved":false,"is_disabled":false,"rental_uris":{"android":"levelo://app?vid=ea02ba4b-4d4d-4f03-a88f-f51befdc85f2","ios":"levelo://app?vid=ea02ba4b-4d4d-4f03-a88f-f51befdc85f2"},"vehicle_type_id":"4","last_reported":1745064987,"current_range_meters":14800,"station_id":"ce4bhh12rcd13ifvqff0","pricing_plan_id":"cebpf4jnsgd1na2vs0mg"},{"bike_id":"00879c1d-a962-4133-ba5d-8de0f524e6f5","system_id":"levelo_inurba_marseille","lat":43.27487,"lon":5.42463,"is_reserved":false,"is_disabled":false,"rental_uris":{"android":"levelo://app?vid=00879c1d-a962-4133-ba5d-8de0f524e6f5","ios":"levelo://app?vid=00879c1d-a962-4133-ba5d-8de0f524e6f5"},"vehicle_type_id":"4","last_reported":1745064987,"current_range_meters":16400,"station_id":"ce4bhn92rcd13ifvqgrg","pricing_plan_id":"cebpf4jnsgd1na2vs0mg"},{"bike_id":"92ca433d-7833-451a-a07b-624695168d96","system_id":"levelo_inurba_marseille","lat":43.29626,"lon":5.37697,"is_reserved":false,"is_disabled":false,"rental_uris":{"android":"levelo://app?vid=92ca433d-7833-451a-a07b-624695168d96","ios":"levelo://app?vid=92ca433d-7833-451a-a07b-624695168d96"},"vehicle_type_id":"4","last_reported":1745064987,"current_range_meters":16800,"station_id":"ce4bgi92rcd13ifvqb90","pricing_plan_id":"cebpf4jnsgd1na2vs0mg"},{"bike_id":"7b34292a-704c-4644-8c5b-8070a98f3cf7","system_id":"levelo_inurba_marseille","lat":43.24389,"lon":5.37066,"is_reserved":false,"is_disabled":false,"rental_uris":{"android":"levelo://app?vid=7b34292a-704c-4644-8c5b-8070a98f3cf7","ios":"levelo://app?vid=7b34292a-704c-4644-8c5b-8070a98f3cf7"},"vehicle_type_id":"4","last_reported":1745064987,"current_range_meters":16800,"station_id":"ce4bhhh2rcd13ifvqfk0","pricing_plan_id":"cebpf4jnsgd1na2vs0mg"},{"bike_id":"c33c5356-9ac8-4eae-a3ea-bb23f6c0f850","system_id":"levelo_inurba_marseille","lat":43.275035,"lon":5.424498,"is_reserved":false,"is_disabled":false,"rental_uris":{"android":"levelo://app?vid=c33c5356-9ac8-4eae-a3ea-bb23f6c0f850","ios":"levelo://app?vid=c33c5356-9ac8-4eae-a3ea-bb23f6c0f850"},"vehicle_type_id":"4","last_reported":1745064987,"current_range_meters":16800,"station_id":"ce4bhn92rcd13ifvqgrg","pricing_plan_id":"cebpf4jnsgd1na2vs0mg"},{"bike_id":"60beaaf4-85ef-46cb-aaa6-6030736c1c96","system_id":"levelo_inurba_marseille","lat":43.25865,"lon":5.3989,"is_reserved":false,"is_disabled":false,"rental_uris":{"android":"levelo://app?vid=60beaaf4-85ef-46cb-aaa6-6030736c1c96","ios":"levelo://app?vid=60beaaf4-85ef-46cb-aaa6-6030736c1c96"},"vehicle_type_id":"4","last_reported":1745064987,"current_range_meters":16800,"station_id":"ce4bhl92rcd13ifvqghg","pricing_plan_id":"cebpf4jnsgd1na2vs0mg"},{"bike_id":"04922e9f-ed80-46a4-bf1a-a7fe2683b15e","system_id":"levelo_inurba_marseille","lat":43.31495,"lon":5.37304,"is_reserved":false,"is_disabled":false,"rental_uris":{"android":"levelo://app?vid=04922e9f-ed80-46a4-bf1a-a7fe2683b15e","ios":"levelo://app?vid=04922e9f-ed80-46a4-bf1a-a7fe2683b15e"},"vehicle_type_id":"4","last_reported":1745064987,"current_range_meters":17200,"station_id":"ce4bgt12rcd13ifvqcd0","pricing_plan_id":"cebpf4jnsgd1na2vs0mg"},{"bike_id":"67a0abc2-45b2-4e20-b320-51fa3b21831e","system_id":"levelo_inurba_marseille","lat":43.29258,"lon":5.3761,"is_reserved":false,"is_disabled":false,"rental_uris":{"android":"levelo://app?vid=67a0abc2-45b2-4e20-b320-51fa3b21831e","ios":"levelo://app?vid=67a0abc2-45b2-4e20-b320-51fa3b21831e"},"vehicle_type_id":"4","last_reported":1745064987,"current_range_meters":17200,"station_id":"ce4bgi12rcd13ifvqb80","pricing_plan_id":"cebpf4jnsgd1na2vs0mg"},{"bike_id":"17838dcc-f3d4-409a-a81d-5606207b2e48","system_id":"levelo_inurba_marseille","lat":43.26197,"lon":5.37457,"is_reserved":false,"is_disabled":false,"rental_uris":{"android":"levelo://app?vid=17838dcc-f3d4-409a-a81d-5606207b2e48","ios":"levelo://app?vid=17838dcc-f3d4-409a-a81d-5606207b2e48"},"vehicle_type_id":"4","last_reported":1745064987,"current_range_meters":17200,"station_id":"ce4bhgp2rcd13ifvqfc0","pricing_plan_id":"cebpf4jnsgd1na2vs0mg"},{"bike_id":"3ce33f55-eaea-4767-9178-711f59e9f83b","system_id":"levelo_inurba_marseille","lat":43.21757,"lon":5.34602,"is_reserved":false,"is_disabled":false,"rental_uris":{"android":"levelo://app?vid=3ce33f55-eaea-4767-9178-711f59e9f83b","ios":"levelo://app?vid=3ce33f55-eaea-4767-9178-711f59e9f83b"},"vehicle_type_id":"4","last_reported":1745064987,"current_range_meters":17200,"station_id":"st_cvj6r9ubvosntc0bgbag","pricing_plan_id":"cebpf4jnsgd1na2vs0mg"},{"bike_id":"a5d5a898-74b6-4240-8b9f-5a2fbd6883bf","system_id":"levelo_inurba_marseille","lat":43.30467,"lon":5.37905,"is_reserved":false,"is_disabled":false,"rental_uris":{"android":"levelo://app?vid=a5d5a898-74b6-4240-8b9f-5a2fbd6883bf","ios":"levelo://app?vid=a5d5a898-74b6-4240-8b9f-5a2fbd6883bf"},"vehicle_type_id":"4","last_reported":1745064987,"current_range_meters":17200,"station_id":"ce4bgup2rcd13ifvqcn0","pricing_plan_id":"cebpf4jnsgd1na2vs0mg"},{"bike_id":"90aa4f1b-9f80-4926-8a6b-bb0dab6df0e1","system_id":"levelo_inurba_marseille","lat":43.26949,"lon":5.38652,"is_reserved":false,"is_disabled":false,"rental_uris":{"android":"levelo://app?vid=90aa4f1b-9f80-4926-8a6b-bb0dab6df0e1","ios":"levelo://app?vid=90aa4f1b-9f80-4926-8a6b-bb0dab6df0e1"},"vehicle_type_id":"4","last_reported":1745064987,"current_range_meters":17200,"station_id":"ce4bhh92rcd13ifvqfh0","pricing_plan_id":"cebpf4jnsgd1na2vs0mg"},{"bike_id":"3ea11281-c3e3-4ea5-a87e-5191ee3b2bc0","system_id":"levelo_inurba_marseille","lat":43.29804,"lon":5.38079,"is_reserved":false,"is_disabled":false,"rental_uris":{"android":"levelo://app?vid=3ea11281-c3e3-4ea5-a87e-5191ee3b2bc0","ios":"levelo://app?vid=3ea11281-c3e3-4ea5-a87e-5191ee3b2bc0"},"vehicle_type_id":"4","last_reported":1745064987,"current_range_meters":17600,"station_id":"ce4bgip2rcd13ifvqbb0","pricing_plan_id":"cebpf4jnsgd1na2vs0mg"},{"bike_id":"f3304b72-b653-427d-9fe9-eb6ee4e695d4","system_id":"levelo_inurba_marseille","lat":43.2827,"lon":5.350498,"is_reserved":false,"is_disabled":false,"rental_uris":{"android":"levelo://app?vid=f3304b72-b653-427d-9fe9-eb6ee4e695d4","ios":"levelo://app?vid=f3304b72-b653-427d-9fe9-eb6ee4e695d4"},"vehicle_type_id":"4","last_reported":1745064987,"current_range_meters":17600,"station_id":"ce4bhah2rcd13ifvqej0","pricing_plan_id":"cebpf4jnsgd1na2vs0mg"},{"bike_id":"11d4d34d-597c-427f-9431-106b5e64b136","system_id":"levelo_inurba_marseille","lat":43.22939,"lon":5.35375,"is_reserved":false,"is_disabled":false,"rental_uris":{"android":"levelo://app?vid=11d4d34d-597c-427f-9431-106b5e64b136","ios":"levelo://app?vid=11d4d34d-597c-427f-9431-106b5e64b136"},"vehicle_type_id":"4","last_reported":1745064987,"current_range_meters":17600,"station_id":"cpo3532slgdg3j2ikp40","pricing_plan_id":"cebpf4jnsgd1na2vs0mg"},{"bike_id":"1862e19c-bd64-4aff-b9f1-0272dbf85fa5","system_id":"levelo_inurba_marseille","lat":43.22926,"lon":5.35381,"is_reserved":false,"is_disabled":false,"rental_uris":{"android":"levelo://app?vid=1862e19c-bd64-4aff-b9f1-0272dbf85fa5","ios":"levelo://app?vid=1862e19c-bd64-4aff-b9f1-0272dbf85fa5"},"vehicle_type_id":"4","last_reported":1745064987,"current_range_meters":17600,"station_id":"cpo3532slgdg3j2ikp40","pricing_plan_id":"cebpf4jnsgd1na2vs0mg"},{"bike_id":"774da7e8-de26-4fcb-ab82-a5e762843d8c","system_id":"levelo_inurba_marseille","lat":43.26198,"lon":5.37932,"is_reserved":false,"is_disabled":false,"rental_uris":{"android":"levelo://app?vid=774da7e8-de26-4fcb-ab82-a5e762843d8c","ios":"levelo://app?vid=774da7e8-de26-4fcb-ab82-a5e762843d8c"},"vehicle_type_id":"4","last_reported":1745064987,"current_range_meters":17600,"station_id":"ce4bhjp2rcd13ifvqg90","pricing_plan_id":"cebpf4jnsgd1na2vs0mg"},{"bike_id":"ab4b78f0-90dd-40f8-aad8-3060c35ebd7c","system_id":"levelo_inurba_marseille","lat":43.29894,"lon":5.43657,"is_reserved":false,"is_disabled":false,"rental_uris":{"android":"levelo://app?vid=ab4b78f0-90dd-40f8-aad8-3060c35ebd7c","ios":"levelo://app?vid=ab4b78f0-90dd-40f8-aad8-3060c35ebd7c"},"vehicle_type_id":"4","last_reported":1745064987,"current_range_meters":17600,"station_id":"ce4bhpp2rcd13ifvqhfg","pricing_plan_id":"cebpf4jnsgd1na2vs0mg"},{"bike_id":"bba4b284-8312-47a6-a465-51cc90ac7ce2","system_id":"levelo_inurba_marseille","lat":43.27383,"lon":5.36266,"is_reserved":false,"is_disabled":false,"rental_uris":{"android":"levelo://app?vid=bba4b284-8312-47a6-a465-51cc90ac7ce2","ios":"levelo://app?vid=bba4b284-8312-47a6-a465-51cc90ac7ce2"},"vehicle_type_id":"4","last_reported":1745064987,"current_range_meters":17600,"station_id":"ce4bhbh2rcd13ifvqeo0","pricing_plan_id":"cebpf4jnsgd1na2vs0mg"},{"bike_id":"e421f1a7-30df-414f-a049-38e794db86ed","system_id":"levelo_inurba_marseille","lat":43.28934,"lon":5.36622,"is_reserved":false,"is_disabled":false,"rental_uris":{"android":"levelo://app?vid=e421f1a7-30df-414f-a049-38e794db86ed","ios":"levelo://app?vid=e421f1a7-30df-414f-a049-38e794db86ed"},"vehicle_type_id":"4","last_reported":1745064987,"current_range_meters":17600,"station_id":"ce4bhap2rcd13ifvqek0","pricing_plan_id":"cebpf4jnsgd1na2vs0mg"},{"bike_id":"a2f8ca27-025a-4fda-b417-04c4e00602c8","system_id":"levelo_inurba_marseille","lat":43.34139,"lon":5.40905,"is_reserved":false,"is_disabled":false,"rental_uris":{"android":"levelo://app?vid=a2f8ca27-025a-4fda-b417-04c4e00602c8","ios":"levelo://app?vid=a2f8ca27-025a-4fda-b417-04c4e00602c8"},"vehicle_type_id":"4","last_reported":1745064987,"current_range_meters":17600,"station_id":"ce4bhqh2rcd13ifvqhlg","pricing_plan_id":"cebpf4jnsgd1na2vs0mg"},{"bike_id":"138c8eef-0928-4f6d-9505-c8780b63f244","system_id":"levelo_inurba_marseille","lat":43.23211,"lon":5.35561,"is_reserved":false,"is_disabled":false,"rental_uris":{"android":"levelo://app?vid=138c8eef-0928-4f6d-9505-c8780b63f244","ios":"levelo://app?vid=138c8eef-0928-4f6d-9505-c8780b63f244"},"vehicle_type_id":"4","last_reported":1745064987,"current_range_meters":17600,"station_id":"ce4bhu92rcd13ifvqi70","pricing_plan_id":"cebpf4jnsgd1na2vs0mg"},{"bike_id":"65e1488e-5480-4b90-bd26-ada33787465d","system_id":"levelo_inurba_marseille","lat":43.29255,"lon":5.37621,"is_reserved":false,"is_disabled":false,"rental_uris":{"android":"levelo://app?vid=65e1488e-5480-4b90-bd26-ada33787465d","ios":"levelo://app?vid=65e1488e-5480-4b90-bd26-ada33787465d"},"vehicle_type_id":"4","last_reported":1745064987,"current_range_meters":17600,"station_id":"ce4bgi12rcd13ifvqb80","pricing_plan_id":"cebpf4jnsgd1na2vs0mg"},{"bike_id":"8e5893aa-9a98-4876-abe8-42f617fdf6d9","system_id":"levelo_inurba_marseille","lat":43.2985,"lon":5.36267,"is_reserved":false,"is_disabled":false,"rental_uris":{"android":"levelo://app?vid=8e5893aa-9a98-4876-abe8-42f617fdf6d9","ios":"levelo://app?vid=8e5893aa-9a98-4876-abe8-42f617fdf6d9"},"vehicle_type_id":"4","last_reported":1745064987,"current_range_meters":17600,"station_id":"ce4bgpp2rcd13ifvqc3g","pricing_plan_id":"cebpf4jnsgd1na2vs0mg"},{"bike_id":"c23e4650-201a-4338-92a3-b2f72947e748","system_id":"levelo_inurba_marseille","lat":43.2827,"lon":5.35064,"is_reserved":false,"is_disabled":false,"rental_uris":{"android":"levelo://app?vid=c23e4650-201a-4338-92a3-b2f72947e748","ios":"levelo://app?vid=c23e4650-201a-4338-92a3-b2f72947e748"},"vehicle_type_id":"4","last_reported":1745064987,"current_range_meters":18000,"station_id":"ce4bhbp2rcd13ifvqerg","pricing_plan_id":"cebpf4jnsgd1na2vs0mg"},{"bike_id":"aaffc078-ce64-42b3-a511-04ea178bc9a1","system_id":"levelo_inurba_marseille","lat":43.29521,"lon":5.37512,"is_reserved":false,"is_disabled":false,"rental_uris":{"android":"levelo://app?vid=aaffc078-ce64-42b3-a511-04ea178bc9a1","ios":"levelo://app?vid=aaffc078-ce64-42b3-a511-04ea178bc9a1"},"vehicle_type_id":"4","last_reported":1745064987,"current_range_meters":18000,"station_id":"ce4bgkp2rcd13ifvqbmg","pricing_plan_id":"cebpf4jnsgd1na2vs0mg"},{"bike_id":"f1117dda-62df-4f44-a115-3c374d1f6a1c","system_id":"levelo_inurba_marseille","lat":43.23957,"lon":5.36653,"is_reserved":false,"is_disabled":false,"rental_uris":{"android":"levelo://app?vid=f1117dda-62df-4f44-a115-3c374d1f6a1c","ios":"levelo://app?vid=f1117dda-62df-4f44-a115-3c374d1f6a1c"},"vehicle_type_id":"4","last_reported":1745064987,"current_range_meters":18000,"station_id":"ce4bhi12rcd13ifvqfp0","pricing_plan_id":"cebpf4jnsgd1na2vs0mg"},{"bike_id":"bc13e988-5248-4aa1-83de-ba0e22e6793d","system_id":"levelo_inurba_marseille","lat":43.27494,"lon":5.42463,"is_reserved":false,"is_disabled":false,"rental_uris":{"android":"levelo://app?vid=bc13e988-5248-4aa1-83de-ba0e22e6793d","ios":"levelo://app?vid=bc13e988-5248-4aa1-83de-ba0e22e6793d"},"vehicle_type_id":"4","last_reported":1745064987,"current_range_meters":18000,"station_id":"ce4bhn92rcd13ifvqgrg","pricing_plan_id":"cebpf4jnsgd1na2vs0mg"},{"bike_id":"a8023e9a-59ff-43db-8fc7-58ce295954d5","system_id":"levelo_inurba_marseille","lat":43.29937,"lon":5.3652,"is_reserved":false,"is_disabled":false,"rental_uris":{"android":"levelo://app?vid=a8023e9a-59ff-43db-8fc7-58ce295954d5","ios":"levelo://app?vid=a8023e9a-59ff-43db-8fc7-58ce295954d5"},"vehicle_type_id":"4","last_reported":1745064987,"current_range_meters":18000,"station_id":"ce4bgm92rcd13ifvqbr0","pricing_plan_id":"cebpf4jnsgd1na2vs0mg"},{"bike_id":"d35d0f85-f00c-4a65-b550-2fb004a0ef99","system_id":"levelo_inurba_marseille","lat":43.23959,"lon":5.36647,"is_reserved":false,"is_disabled":false,"rental_uris":{"android":"levelo://app?vid=d35d0f85-f00c-4a65-b550-2fb004a0ef99","ios":"levelo://app?vid=d35d0f85-f00c-4a65-b550-2fb004a0ef99"},"vehicle_type_id":"4","last_reported":1745064987,"current_range_meters":18000,"station_id":"ce4bhi12rcd13ifvqfp0","pricing_plan_id":"cebpf4jnsgd1na2vs0mg"},{"bike_id":"6019390b-7088-4c04-b80b-2acf1cb29041","system_id":"levelo_inurba_marseille","lat":43.29404,"lon":5.41246,"is_reserved":false,"is_disabled":false,"rental_uris":{"android":"levelo://app?vid=6019390b-7088-4c04-b80b-2acf1cb29041","ios":"levelo://app?vid=6019390b-7088-4c04-b80b-2acf1cb29041"},"vehicle_type_id":"4","last_reported":1745064987,"current_range_meters":18800,"station_id":"","pricing_plan_id":"cebpf4jnsgd1na2vs0mg"},{"bike_id":"2b6a9456-c0e9-4d8a-8093-af108bc0d476","system_id":"levelo_inurba_marseille","lat":43.28269,"lon":5.3506,"is_reserved":false,"is_disabled":false,"rental_uris":{"android":"levelo://app?vid=2b6a9456-c0e9-4d8a-8093-af108bc0d476","ios":"levelo://app?vid=2b6a9456-c0e9-4d8a-8093-af108bc0d476"},"vehicle_type_id":"4","last_reported":1745064987,"current_range_meters":18800,"station_id":"ce4bhbp2rcd13ifvqerg","pricing_plan_id":"cebpf4jnsgd1na2vs0mg"},{"bike_id":"f96cca1c-4e16-4641-baf8-26559b52afae","system_id":"levelo_inurba_marseille","lat":43.21751,"lon":5.34596,"is_reserved":false,"is_disabled":false,"rental_uris":{"android":"levelo://app?vid=f96cca1c-4e16-4641-baf8-26559b52afae","ios":"levelo://app?vid=f96cca1c-4e16-4641-baf8-26559b52afae"},"vehicle_type_id":"4","last_reported":1745064987,"current_range_meters":18800,"station_id":"st_cvj6r9ubvosntc0bgbag","pricing_plan_id":"cebpf4jnsgd1na2vs0mg"},{"bike_id":"d4568f5e-2175-4952-9266-96ad97bb20fe","system_id":"levelo_inurba_marseille","lat":43.29931,"lon":5.36552,"is_reserved":false,"is_disabled":false,"rental_uris":{"android":"levelo://app?vid=d4568f5e-2175-4952-9266-96ad97bb20fe","ios":"levelo://app?vid=d4568f5e-2175-4952-9266-96ad97bb20fe"},"vehicle_type_id":"4","last_reported":1745064987,"current_range_meters":18800,"station_id":"ce4bgm92rcd13ifvqbr0","pricing_plan_id":"cebpf4jnsgd1na2vs0mg"},{"bike_id":"262f4892-3aa3-43a8-ba54-69657a8aabe4","system_id":"levelo_inurba_marseille","lat":43.31184,"lon":5.38706,"is_reserved":false,"is_disabled":false,"rental_uris":{"android":"levelo://app?vid=262f4892-3aa3-43a8-ba54-69657a8aabe4","ios":"levelo://app?vid=262f4892-3aa3-43a8-ba54-69657a8aabe4"},"vehicle_type_id":"4","last_reported":1745064987,"current_range_meters":18800,"station_id":"ce4bgv12rcd13ifvqcp0","pricing_plan_id":"cebpf4jnsgd1na2vs0mg"},{"bike_id":"0408fe9d-748b-450e-95a2-63ab2f1cc657","system_id":"levelo_inurba_marseille","lat":43.28153,"lon":5.42648,"is_reserved":false,"is_disabled":false,"rental_uris":{"android":"levelo://app?vid=0408fe9d-748b-450e-95a2-63ab2f1cc657","ios":"levelo://app?vid=0408fe9d-748b-450e-95a2-63ab2f1cc657"},"vehicle_type_id":"4","last_reported":1745064987,"current_range_meters":18800,"station_id":"ce4bhnh2rcd13ifvqgug","pricing_plan_id":"cebpf4jnsgd1na2vs0mg"},{"bike_id":"38e209e6-af03-4f07-90b7-697565942270","system_id":"levelo_inurba_marseille","lat":43.29925,"lon":5.37482,"is_reserved":false,"is_disabled":false,"rental_uris":{"android":"levelo://app?vid=38e209e6-af03-4f07-90b7-697565942270","ios":"levelo://app?vid=38e209e6-af03-4f07-90b7-697565942270"},"vehicle_type_id":"4","last_reported":1745064987,"current_range_meters":18800,"station_id":"ce4bgjh2rcd13ifvqbg0","pricing_plan_id":"cebpf4jnsgd1na2vs0mg"},{"bike_id":"fe0d906c-18a4-47fa-96e1-6c88b9eb5396","system_id":"levelo_inurba_marseille","lat":43.24171,"lon":5.39728,"is_reserved":false,"is_disabled":false,"rental_uris":{"android":"levelo://app?vid=fe0d906c-18a4-47fa-96e1-6c88b9eb5396","ios":"levelo://app?vid=fe0d906c-18a4-47fa-96e1-6c88b9eb5396"},"vehicle_type_id":"4","last_reported":1745064987,"current_range_meters":18800,"station_id":"ce4bhn12rcd13ifvqgpg","pricing_plan_id":"cebpf4jnsgd1na2vs0mg"},{"bike_id":"dd35b89b-45e5-4c56-95c4-29569000f9f7","system_id":"levelo_inurba_marseille","lat":43.28939,"lon":5.36375,"is_reserved":false,"is_disabled":false,"rental_uris":{"android":"levelo://app?vid=dd35b89b-45e5-4c56-95c4-29569000f9f7","ios":"levelo://app?vid=dd35b89b-45e5-4c56-95c4-29569000f9f7"},"vehicle_type_id":"4","last_reported":1745064987,"current_range_meters":19200,"station_id":"ce4bhc92rcd13ifvqetg","pricing_plan_id":"cebpf4jnsgd1na2vs0mg"},{"bike_id":"7f0bc0d1-c9d8-4ae4-ba3b-8c6339295943","system_id":"levelo_inurba_marseille","lat":43.23155,"lon":5.43708,"is_reserved":false,"is_disabled":true,"rental_uris":{"android":"levelo://app?vid=7f0bc0d1-c9d8-4ae4-ba3b-8c6339295943","ios":"levelo://app?vid=7f0bc0d1-c9d8-4ae4-ba3b-8c6339295943"},"vehicle_type_id":"4","last_reported":1745064987,"current_range_meters":19200,"station_id":"ce4bhmp2rcd13ifvqgog","pricing_plan_id":"cebpf4jnsgd1na2vs0mg"},{"bike_id":"cccf4278-0b97-430d-8f0f-af7920d18c80","system_id":"levelo_inurba_marseille","lat":43.29609,"lon":5.37738,"is_reserved":false,"is_disabled":false,"rental_uris":{"android":"levelo://app?vid=cccf4278-0b97-430d-8f0f-af7920d18c80","ios":"levelo://app?vid=cccf4278-0b97-430d-8f0f-af7920d18c80"},"vehicle_type_id":"4","last_reported":1745064987,"current_range_meters":19200,"station_id":"ce4bgi92rcd13ifvqb90","pricing_plan_id":"cebpf4jnsgd1na2vs0mg"},{"bike_id":"cd1ec414-8cea-439d-92a4-869a42f9b2bd","system_id":"levelo_inurba_marseille","lat":43.28614,"lon":5.35106,"is_reserved":false,"is_disabled":false,"rental_uris":{"android":"levelo://app?vid=cd1ec414-8cea-439d-92a4-869a42f9b2bd","ios":"levelo://app?vid=cd1ec414-8cea-439d-92a4-869a42f9b2bd"},"vehicle_type_id":"4","last_reported":1745064987,"current_range_meters":19200,"station_id":"ce4bhch2rcd13ifvqeug","pricing_plan_id":"cebpf4jnsgd1na2vs0mg"},{"bike_id":"d5bf3e51-83b4-419b-b784-58ab0f4a9ad2","system_id":"levelo_inurba_marseille","lat":43.21726,"lon":5.34614,"is_reserved":false,"is_disabled":false,"rental_uris":{"android":"levelo://app?vid=d5bf3e51-83b4-419b-b784-58ab0f4a9ad2","ios":"levelo://app?vid=d5bf3e51-83b4-419b-b784-58ab0f4a9ad2"},"vehicle_type_id":"4","last_reported":1745064987,"current_range_meters":19200,"station_id":"","pricing_plan_id":"cebpf4jnsgd1na2vs0mg"},{"bike_id":"8199e302-7b4f-49e5-a95f-f097de738c0e","system_id":"levelo_inurba_marseille","lat":43.2175,"lon":5.34601,"is_reserved":false,"is_disabled":false,"rental_uris":{"android":"levelo://app?vid=8199e302-7b4f-49e5-a95f-f097de738c0e","ios":"levelo://app?vid=8199e302-7b4f-49e5-a95f-f097de738c0e"},"vehicle_type_id":"4","last_reported":1745064987,"current_range_meters":19200,"station_id":"st_cvj6r9ubvosntc0bgbag","pricing_plan_id":"cebpf4jnsgd1na2vs0mg"},{"bike_id":"54500c7a-a314-4b11-9350-bbc081e4f46c","system_id":"levelo_inurba_marseille","lat":43.29712,"lon":5.36588,"is_reserved":false,"is_disabled":false,"rental_uris":{"android":"levelo://app?vid=54500c7a-a314-4b11-9350-bbc081e4f46c","ios":"levelo://app?vid=54500c7a-a314-4b11-9350-bbc081e4f46c"},"vehicle_type_id":"4","last_reported":1745064987,"current_range_meters":19200,"station_id":"ce4bgn12rcd13ifvqbt0","pricing_plan_id":"cebpf4jnsgd1na2vs0mg"},{"bike_id":"8c506fc7-71d4-4e74-bc47-5296139b5802","system_id":"levelo_inurba_marseille","lat":43.30461,"lon":5.37905,"is_reserved":false,"is_disabled":false,"rental_uris":{"android":"levelo://app?vid=8c506fc7-71d4-4e74-bc47-5296139b5802","ios":"levelo://app?vid=8c506fc7-71d4-4e74-bc47-5296139b5802"},"vehicle_type_id":"4","last_reported":1745064987,"current_range_meters":19200,"station_id":"ce4bgup2rcd13ifvqcn0","pricing_plan_id":"cebpf4jnsgd1na2vs0mg"},{"bike_id":"7d28bf23-bfe0-45d0-a2d7-4f2ce3bcb384","system_id":"levelo_inurba_marseille","lat":43.28269,"lon":5.35053,"is_reserved":false,"is_disabled":false,"rental_uris":{"android":"levelo://app?vid=7d28bf23-bfe0-45d0-a2d7-4f2ce3bcb384","ios":"levelo://app?vid=7d28bf23-bfe0-45d0-a2d7-4f2ce3bcb384"},"vehicle_type_id":"4","last_reported":1745064987,"current_range_meters":19200,"station_id":"ce4bhbp2rcd13ifvqerg","pricing_plan_id":"cebpf4jnsgd1na2vs0mg"},{"bike_id":"20e1c3b0-02eb-4fb1-95f0-a9b273b7cd01","system_id":"levelo_inurba_marseille","lat":43.21752,"lon":5.34598,"is_reserved":false,"is_disabled":false,"rental_uris":{"android":"levelo://app?vid=20e1c3b0-02eb-4fb1-95f0-a9b273b7cd01","ios":"levelo://app?vid=20e1c3b0-02eb-4fb1-95f0-a9b273b7cd01"},"vehicle_type_id":"4","last_reported":1745064987,"current_range_meters":19200,"station_id":"st_cvj6r9ubvosntc0bgbag","pricing_plan_id":"cebpf4jnsgd1na2vs0mg"},{"bike_id":"be7485c2-56da-4037-bba2-07f1e6a753a1","system_id":"levelo_inurba_marseille","lat":43.24079,"lon":5.37748,"is_reserved":false,"is_disabled":false,"rental_uris":{"android":"levelo://app?vid=be7485c2-56da-4037-bba2-07f1e6a753a1","ios":"levelo://app?vid=be7485c2-56da-4037-bba2-07f1e6a753a1"},"vehicle_type_id":"4","last_reported":1745064987,"current_range_meters":18800,"station_id":"ce4bhnp2rcd13ifvqgvg","pricing_plan_id":"cebpf4jnsgd1na2vs0mg"},{"bike_id":"cd6d79ab-4a30-41da-9e56-d025950d257f","system_id":"levelo_inurba_marseille","lat":43.3095,"lon":5.39024,"is_reserved":false,"is_disabled":false,"rental_uris":{"android":"levelo://app?vid=cd6d79ab-4a30-41da-9e56-d025950d257f","ios":"levelo://app?vid=cd6d79ab-4a30-41da-9e56-d025950d257f"},"vehicle_type_id":"4","last_reported":1745064987,"current_range_meters":19600,"station_id":"ce4bgup2rcd13ifvqco0","pricing_plan_id":"cebpf4jnsgd1na2vs0mg"},{"bike_id":"d4b8b094-19dc-4fbf-a779-db91bc4f223f","system_id":"levelo_inurba_marseille","lat":43.29,"lon":5.35606,"is_reserved":false,"is_disabled":false,"rental_uris":{"android":"levelo://app?vid=d4b8b094-19dc-4fbf-a779-db91bc4f223f","ios":"levelo://app?vid=d4b8b094-19dc-4fbf-a779-db91bc4f223f"},"vehicle_type_id":"4","last_reported":1745064987,"current_range_meters":19600,"station_id":"ce4bhb92rcd13ifvqen0","pricing_plan_id":"cebpf4jnsgd1na2vs0mg"},{"bike_id":"c18778a1-76a4-44f3-ba2a-f9d3b7b6ae3b","system_id":"levelo_inurba_marseille","lat":43.33727,"lon":5.39182,"is_reserved":false,"is_disabled":false,"rental_uris":{"android":"levelo://app?vid=c18778a1-76a4-44f3-ba2a-f9d3b7b6ae3b","ios":"levelo://app?vid=c18778a1-76a4-44f3-ba2a-f9d3b7b6ae3b"},"vehicle_type_id":"4","last_reported":1745064987,"current_range_meters":19600,"station_id":"ce4bhr92rcd13ifvqhsg","pricing_plan_id":"cebpf4jnsgd1na2vs0mg"},{"bike_id":"c15f4688-df6d-4606-bbad-953324e15d6f","system_id":"levelo_inurba_marseille","lat":43.26064,"lon":5.39397,"is_reserved":false,"is_disabled":false,"rental_uris":{"android":"levelo://app?vid=c15f4688-df6d-4606-bbad-953324e15d6f","ios":"levelo://app?vid=c15f4688-df6d-4606-bbad-953324e15d6f"},"vehicle_type_id":"4","last_reported":1745064987,"current_range_meters":19600,"station_id":"ce4bhh92rcd13ifvqfj0","pricing_plan_id":"cebpf4jnsgd1na2vs0mg"},{"bike_id":"f7027e6a-48d2-4cae-b50c-97b01f670552","system_id":"levelo_inurba_marseille","lat":43.2397,"lon":5.3663,"is_reserved":false,"is_disabled":false,"rental_uris":{"android":"levelo://app?vid=f7027e6a-48d2-4cae-b50c-97b01f670552","ios":"levelo://app?vid=f7027e6a-48d2-4cae-b50c-97b01f670552"},"vehicle_type_id":"4","last_reported":1745064987,"current_range_meters":19600,"station_id":"ce4bhi12rcd13ifvqfp0","pricing_plan_id":"cebpf4jnsgd1na2vs0mg"},{"bike_id":"0ed64c53-3fe0-4b4c-9f5f-bb86a13a3b6c","system_id":"levelo_inurba_marseille","lat":43.29001,"lon":5.3559,"is_reserved":false,"is_disabled":false,"rental_uris":{"android":"levelo://app?vid=0ed64c53-3fe0-4b4c-9f5f-bb86a13a3b6c","ios":"levelo://app?vid=0ed64c53-3fe0-4b4c-9f5f-bb86a13a3b6c"},"vehicle_type_id":"4","last_reported":1745064987,"current_range_meters":19600,"station_id":"ce4bhb92rcd13ifvqen0","pricing_plan_id":"cebpf4jnsgd1na2vs0mg"},{"bike_id":"74d77368-14f1-41bc-ad95-cf0c5e62a9f0","system_id":"levelo_inurba_marseille","lat":43.284088,"lon":5.375115,"is_reserved":false,"is_disabled":false,"rental_uris":{"android":"levelo://app?vid=74d77368-14f1-41bc-ad95-cf0c5e62a9f0","ios":"levelo://app?vid=74d77368-14f1-41bc-ad95-cf0c5e62a9f0"},"vehicle_type_id":"4","last_reported":1745064987,"current_range_meters":20000,"station_id":"ce4bh3p2rcd13ifvqdq0","pricing_plan_id":"cebpf4jnsgd1na2vs0mg"},{"bike_id":"d53e964c-f934-484c-a259-3e8f23cdd819","system_id":"levelo_inurba_marseille","lat":43.337261,"lon":5.391816,"is_reserved":false,"is_disabled":false,"rental_uris":{"android":"levelo://app?vid=d53e964c-f934-484c-a259-3e8f23cdd819","ios":"levelo://app?vid=d53e964c-f934-484c-a259-3e8f23cdd819"},"vehicle_type_id":"4","last_reported":1745064987,"current_range_meters":20000,"station_id":"ce4bhr92rcd13ifvqhsg","pricing_plan_id":"cebpf4jnsgd1na2vs0mg"},{"bike_id":"4a8f366d-be90-4eb3-ad16-535274602f3d","system_id":"levelo_inurba_marseille","lat":43.29798,"lon":5.40404,"is_reserved":false,"is_disabled":false,"rental_uris":{"android":"levelo://app?vid=4a8f366d-be90-4eb3-ad16-535274602f3d","ios":"levelo://app?vid=4a8f366d-be90-4eb3-ad16-535274602f3d"},"vehicle_type_id":"4","last_reported":1745064987,"current_range_meters":20000,"station_id":"ce4bh112rcd13ifvqd90","pricing_plan_id":"cebpf4jnsgd1na2vs0mg"},{"bike_id":"db62476b-8041-4b68-add5-fd12a141d18b","system_id":"levelo_inurba_marseille","lat":43.291966,"lon":5.357887,"is_reserved":false,"is_disabled":false,"rental_uris":{"android":"levelo://app?vid=db62476b-8041-4b68-add5-fd12a141d18b","ios":"levelo://app?vid=db62476b-8041-4b68-add5-fd12a141d18b"},"vehicle_type_id":"4","last_reported":1745064987,"current_range_meters":20000,"station_id":"ce4bhb12rcd13ifvqel0","pricing_plan_id":"cebpf4jnsgd1na2vs0mg"},{"bike_id":"1eb72cd8-c364-4ad1-9966-5813f52de791","system_id":"levelo_inurba_marseille","lat":43.26791,"lon":5.39415,"is_reserved":false,"is_disabled":false,"rental_uris":{"android":"levelo://app?vid=1eb72cd8-c364-4ad1-9966-5813f52de791","ios":"levelo://app?vid=1eb72cd8-c364-4ad1-9966-5813f52de791"},"vehicle_type_id":"4","last_reported":1745064987,"current_range_meters":20000,"station_id":"ce4bhh12rcd13ifvqfg0","pricing_plan_id":"cebpf4jnsgd1na2vs0mg"},{"bike_id":"b8808bd5-b66c-42b1-8122-616501d1d082","system_id":"levelo_inurba_marseille","lat":43.21754,"lon":5.34604,"is_reserved":false,"is_disabled":false,"rental_uris":{"android":"levelo://app?vid=b8808bd5-b66c-42b1-8122-616501d1d082","ios":"levelo://app?vid=b8808bd5-b66c-42b1-8122-616501d1d082"},"vehicle_type_id":"4","last_reported":1745064987,"current_range_meters":20000,"station_id":"st_cvj6r9ubvosntc0bgbag","pricing_plan_id":"cebpf4jnsgd1na2vs0mg"},{"bike_id":"05d675b3-9f02-4a64-ac92-6f4109d9f482","system_id":"levelo_inurba_marseille","lat":43.225089,"lon":5.347953,"is_reserved":false,"is_disabled":false,"rental_uris":{"android":"levelo://app?vid=05d675b3-9f02-4a64-ac92-6f4109d9f482","ios":"levelo://app?vid=05d675b3-9f02-4a64-ac92-6f4109d9f482"},"vehicle_type_id":"4","last_reported":1745064987,"current_range_meters":20000,"station_id":"ce4bh492rcd13ifvqdvg","pricing_plan_id":"cebpf4jnsgd1na2vs0mg"},{"bike_id":"216fd791-bd27-43e0-81b0-8747d873bb99","system_id":"levelo_inurba_marseille","lat":43.24053,"lon":5.3774,"is_reserved":false,"is_disabled":false,"rental_uris":{"android":"levelo://app?vid=216fd791-bd27-43e0-81b0-8747d873bb99","ios":"levelo://app?vid=216fd791-bd27-43e0-81b0-8747d873bb99"},"vehicle_type_id":"4","last_reported":1745064987,"current_range_meters":20000,"station_id":"ce4bhnp2rcd13ifvqgvg","pricing_plan_id":"cebpf4jnsgd1na2vs0mg"},{"bike_id":"ce98f9ed-57b3-49be-88aa-3bcd8853be8c","system_id":"levelo_inurba_marseille","lat":43.21751,"lon":5.34599,"is_reserved":false,"is_disabled":false,"rental_uris":{"android":"levelo://app?vid=ce98f9ed-57b3-49be-88aa-3bcd8853be8c","ios":"levelo://app?vid=ce98f9ed-57b3-49be-88aa-3bcd8853be8c"},"vehicle_type_id":"4","last_reported":1745064987,"current_range_meters":20400,"station_id":"st_cvj6r9ubvosntc0bgbag","pricing_plan_id":"cebpf4jnsgd1na2vs0mg"},{"bike_id":"f187a741-29ec-4cdb-8bf9-0c04448b7a86","system_id":"levelo_inurba_marseille","lat":43.24162,"lon":5.39724,"is_reserved":false,"is_disabled":false,"rental_uris":{"android":"levelo://app?vid=f187a741-29ec-4cdb-8bf9-0c04448b7a86","ios":"levelo://app?vid=f187a741-29ec-4cdb-8bf9-0c04448b7a86"},"vehicle_type_id":"4","last_reported":1745064987,"current_range_meters":20400,"station_id":"ce4bhn12rcd13ifvqgpg","pricing_plan_id":"cebpf4jnsgd1na2vs0mg"},{"bike_id":"1dc4412a-ae53-4013-86b0-eed099ec5950","system_id":"levelo_inurba_marseille","lat":43.30962,"lon":5.39048,"is_reserved":false,"is_disabled":false,"rental_uris":{"android":"levelo://app?vid=1dc4412a-ae53-4013-86b0-eed099ec5950","ios":"levelo://app?vid=1dc4412a-ae53-4013-86b0-eed099ec5950"},"vehicle_type_id":"4","last_reported":1745064987,"current_range_meters":20400,"station_id":"ce4bgup2rcd13ifvqco0","pricing_plan_id":"cebpf4jnsgd1na2vs0mg"},{"bike_id":"210d3669-e710-4cfb-bac4-2059f4fa7eea","system_id":"levelo_inurba_marseille","lat":43.31331,"lon":5.39703,"is_reserved":false,"is_disabled":false,"rental_uris":{"android":"levelo://app?vid=210d3669-e710-4cfb-bac4-2059f4fa7eea","ios":"levelo://app?vid=210d3669-e710-4cfb-bac4-2059f4fa7eea"},"vehicle_type_id":"4","last_reported":1745064987,"current_range_meters":20400,"station_id":"ce4bh2h2rcd13ifvqdh0","pricing_plan_id":"cebpf4jnsgd1na2vs0mg"},{"bike_id":"9e3dffd8-a340-49e0-bc8d-1be46e50813c","system_id":"levelo_inurba_marseille","lat":43.31322,"lon":5.39696,"is_reserved":false,"is_disabled":false,"rental_uris":{"android":"levelo://app?vid=9e3dffd8-a340-49e0-bc8d-1be46e50813c","ios":"levelo://app?vid=9e3dffd8-a340-49e0-bc8d-1be46e50813c"},"vehicle_type_id":"4","last_reported":1745064987,"current_range_meters":20800,"station_id":"ce4bgvp2rcd13ifvqcu0","pricing_plan_id":"cebpf4jnsgd1na2vs0mg"},{"bike_id":"d56342d1-42a9-4a0d-8d32-7746fb6ef985","system_id":"levelo_inurba_marseille","lat":43.30156,"lon":5.38102,"is_reserved":false,"is_disabled":false,"rental_uris":{"android":"levelo://app?vid=d56342d1-42a9-4a0d-8d32-7746fb6ef985","ios":"levelo://app?vid=d56342d1-42a9-4a0d-8d32-7746fb6ef985"},"vehicle_type_id":"4","last_reported":1745064987,"current_range_meters":20800,"station_id":"ce4bgjp2rcd13ifvqbh0","pricing_plan_id":"cebpf4jnsgd1na2vs0mg"},{"bike_id":"f35c9a64-78ae-4e67-9110-954ddffedde1","system_id":"levelo_inurba_marseille","lat":43.29535,"lon":5.37507,"is_reserved":false,"is_disabled":false,"rental_uris":{"android":"levelo://app?vid=f35c9a64-78ae-4e67-9110-954ddffedde1","ios":"levelo://app?vid=f35c9a64-78ae-4e67-9110-954ddffedde1"},"vehicle_type_id":"4","last_reported":1745064987,"current_range_meters":20800,"station_id":"ce4bgkp2rcd13ifvqbmg","pricing_plan_id":"cebpf4jnsgd1na2vs0mg"},{"bike_id":"34475a93-01f8-4e78-b753-f5953c1b1a2e","system_id":"levelo_inurba_marseille","lat":43.305358,"lon":5.367141,"is_reserved":false,"is_disabled":false,"rental_uris":{"android":"levelo://app?vid=34475a93-01f8-4e78-b753-f5953c1b1a2e","ios":"levelo://app?vid=34475a93-01f8-4e78-b753-f5953c1b1a2e"},"vehicle_type_id":"4","last_reported":1745064987,"current_range_meters":20800,"station_id":"ce4bgrp2rcd13ifvqc9g","pricing_plan_id":"cebpf4jnsgd1na2vs0mg"},{"bike_id":"9e22dfb5-6645-4ef2-b4ee-675a89ca8c11","system_id":"levelo_inurba_marseille","lat":43.231859,"lon":5.355553,"is_reserved":false,"is_disabled":false,"rental_uris":{"android":"levelo://app?vid=9e22dfb5-6645-4ef2-b4ee-675a89ca8c11","ios":"levelo://app?vid=9e22dfb5-6645-4ef2-b4ee-675a89ca8c11"},"vehicle_type_id":"4","last_reported":1745064987,"current_range_meters":20800,"station_id":"ce4bhu92rcd13ifvqi70","pricing_plan_id":"cebpf4jnsgd1na2vs0mg"},{"bike_id":"20825b25-5827-4ad0-91b1-b7a46642db5f","system_id":"levelo_inurba_marseille","lat":43.22502,"lon":5.34777,"is_reserved":false,"is_disabled":false,"rental_uris":{"android":"levelo://app?vid=20825b25-5827-4ad0-91b1-b7a46642db5f","ios":"levelo://app?vid=20825b25-5827-4ad0-91b1-b7a46642db5f"},"vehicle_type_id":"4","last_reported":1745064987,"current_range_meters":20800,"station_id":"st_cvj5dfep6f1abm77gieg","pricing_plan_id":"cebpf4jnsgd1na2vs0mg"},{"bike_id":"be25a9ac-da60-452b-958d-e1274123ca63","system_id":"levelo_inurba_marseille","lat":43.26677,"lon":5.38268,"is_reserved":false,"is_disabled":false,"rental_uris":{"android":"levelo://app?vid=be25a9ac-da60-452b-958d-e1274123ca63","ios":"levelo://app?vid=be25a9ac-da60-452b-958d-e1274123ca63"},"vehicle_type_id":"4","last_reported":1745064987,"current_range_meters":20800,"station_id":"ce4bhg92rcd13ifvqf90","pricing_plan_id":"cebpf4jnsgd1na2vs0mg"},{"bike_id":"4658232a-77b6-4679-b12b-266752ae56a6","system_id":"levelo_inurba_marseille","lat":43.21726,"lon":5.3461,"is_reserved":false,"is_disabled":false,"rental_uris":{"android":"levelo://app?vid=4658232a-77b6-4679-b12b-266752ae56a6","ios":"levelo://app?vid=4658232a-77b6-4679-b12b-266752ae56a6"},"vehicle_type_id":"4","last_reported":1745064987,"current_range_meters":20800,"station_id":"","pricing_plan_id":"cebpf4jnsgd1na2vs0mg"},{"bike_id":"248f786f-bdfe-4fbc-b0a8-7c909734cf98","system_id":"levelo_inurba_marseille","lat":43.30323,"lon":5.40433,"is_reserved":false,"is_disabled":false,"rental_uris":{"android":"levelo://app?vid=248f786f-bdfe-4fbc-b0a8-7c909734cf98","ios":"levelo://app?vid=248f786f-bdfe-4fbc-b0a8-7c909734cf98"},"vehicle_type_id":"4","last_reported":1745064987,"current_range_meters":20800,"station_id":"ce4bh012rcd13ifvqd10","pricing_plan_id":"cebpf4jnsgd1na2vs0mg"},{"bike_id":"9852ecc3-47f8-4625-b58a-7cd521fc55f1","system_id":"levelo_inurba_marseille","lat":43.30951,"lon":5.39025,"is_reserved":false,"is_disabled":false,"rental_uris":{"android":"levelo://app?vid=9852ecc3-47f8-4625-b58a-7cd521fc55f1","ios":"levelo://app?vid=9852ecc3-47f8-4625-b58a-7cd521fc55f1"},"vehicle_type_id":"4","last_reported":1745064987,"current_range_meters":20800,"station_id":"ce4bgup2rcd13ifvqco0","pricing_plan_id":"cebpf4jnsgd1na2vs0mg"},{"bike_id":"2db7be56-84dd-4e2e-b47b-166058f6e3ea","system_id":"levelo_inurba_marseille","lat":43.29746,"lon":5.37693,"is_reserved":false,"is_disabled":false,"rental_uris":{"android":"levelo://app?vid=2db7be56-84dd-4e2e-b47b-166058f6e3ea","ios":"levelo://app?vid=2db7be56-84dd-4e2e-b47b-166058f6e3ea"},"vehicle_type_id":"4","last_reported":1745064987,"current_range_meters":20800,"station_id":"ce4bgkh2rcd13ifvqbl0","pricing_plan_id":"cebpf4jnsgd1na2vs0mg"},{"bike_id":"61e7a4fc-6f7c-4102-a5cd-a78a0decbd3a","system_id":"levelo_inurba_marseille","lat":43.231453,"lon":5.43717,"is_reserved":false,"is_disabled":false,"rental_uris":{"android":"levelo://app?vid=61e7a4fc-6f7c-4102-a5cd-a78a0decbd3a","ios":"levelo://app?vid=61e7a4fc-6f7c-4102-a5cd-a78a0decbd3a"},"vehicle_type_id":"4","last_reported":1745064987,"current_range_meters":20800,"station_id":"ce4bhmp2rcd13ifvqgog","pricing_plan_id":"cebpf4jnsgd1na2vs0mg"},{"bike_id":"d6a0043d-9d15-46b1-956b-baa52db459dc","system_id":"levelo_inurba_marseille","lat":43.217377,"lon":5.346039,"is_reserved":false,"is_disabled":false,"rental_uris":{"android":"levelo://app?vid=d6a0043d-9d15-46b1-956b-baa52db459dc","ios":"levelo://app?vid=d6a0043d-9d15-46b1-956b-baa52db459dc"},"vehicle_type_id":"4","last_reported":1745064987,"current_range_meters":20800,"station_id":"st_cvj6r9ubvosntc0bgbag","pricing_plan_id":"cebpf4jnsgd1na2vs0mg"},{"bike_id":"6d10d7a7-6c32-4e1e-8e59-bb1ff89e5fa7","system_id":"levelo_inurba_marseille","lat":43.32361,"lon":5.3675,"is_reserved":false,"is_disabled":false,"rental_uris":{"android":"levelo://app?vid=6d10d7a7-6c32-4e1e-8e59-bb1ff89e5fa7","ios":"levelo://app?vid=6d10d7a7-6c32-4e1e-8e59-bb1ff89e5fa7"},"vehicle_type_id":"4","last_reported":1745064987,"current_range_meters":20800,"station_id":"ce4bhsh2rcd13ifvqi2g","pricing_plan_id":"cebpf4jnsgd1na2vs0mg"},{"bike_id":"fc9e4a0b-cef4-449a-b7db-636c773d6309","system_id":"levelo_inurba_marseille","lat":43.27392,"lon":5.39807,"is_reserved":false,"is_disabled":false,"rental_uris":{"android":"levelo://app?vid=fc9e4a0b-cef4-449a-b7db-636c773d6309","ios":"levelo://app?vid=fc9e4a0b-cef4-449a-b7db-636c773d6309"},"vehicle_type_id":"4","last_reported":1745064987,"current_range_meters":21600,"station_id":"","pricing_plan_id":"cebpf4jnsgd1na2vs0mg"},{"bike_id":"1a54bb11-0d6d-4b8b-a42c-ad27c0d84e75","system_id":"levelo_inurba_marseille","lat":43.2989,"lon":5.43664,"is_reserved":false,"is_disabled":false,"rental_uris":{"android":"levelo://app?vid=1a54bb11-0d6d-4b8b-a42c-ad27c0d84e75","ios":"levelo://app?vid=1a54bb11-0d6d-4b8b-a42c-ad27c0d84e75"},"vehicle_type_id":"4","last_reported":1745064987,"current_range_meters":21600,"station_id":"ce4bhpp2rcd13ifvqhfg","pricing_plan_id":"cebpf4jnsgd1na2vs0mg"},{"bike_id":"b33678bf-d21a-4a36-bf94-3f23e93ab901","system_id":"levelo_inurba_marseille","lat":43.3205,"lon":5.41551,"is_reserved":false,"is_disabled":false,"rental_uris":{"android":"levelo://app?vid=b33678bf-d21a-4a36-bf94-3f23e93ab901","ios":"levelo://app?vid=b33678bf-d21a-4a36-bf94-3f23e93ab901"},"vehicle_type_id":"4","last_reported":1745064987,"current_range_meters":21600,"station_id":"ce4bhq92rcd13ifvqhkg","pricing_plan_id":"cebpf4jnsgd1na2vs0mg"},{"bike_id":"3ac7e93c-04b4-4c83-9320-1279b6b6e255","system_id":"levelo_inurba_marseille","lat":43.28997,"lon":5.35606,"is_reserved":false,"is_disabled":false,"rental_uris":{"android":"levelo://app?vid=3ac7e93c-04b4-4c83-9320-1279b6b6e255","ios":"levelo://app?vid=3ac7e93c-04b4-4c83-9320-1279b6b6e255"},"vehicle_type_id":"4","last_reported":1745064987,"current_range_meters":21600,"station_id":"ce4bhb92rcd13ifvqen0","pricing_plan_id":"cebpf4jnsgd1na2vs0mg"},{"bike_id":"5c110dea-9c99-40aa-b55b-cd0faacc5903","system_id":"levelo_inurba_marseille","lat":43.291991,"lon":5.35804,"is_reserved":false,"is_disabled":false,"rental_uris":{"android":"levelo://app?vid=5c110dea-9c99-40aa-b55b-cd0faacc5903","ios":"levelo://app?vid=5c110dea-9c99-40aa-b55b-cd0faacc5903"},"vehicle_type_id":"4","last_reported":1745064987,"current_range_meters":21600,"station_id":"ce4bhb12rcd13ifvqel0","pricing_plan_id":"cebpf4jnsgd1na2vs0mg"},{"bike_id":"9cd66f20-0974-44a3-a00c-3af08e74ebf2","system_id":"levelo_inurba_marseille","lat":43.25989,"lon":5.41719,"is_reserved":false,"is_disabled":false,"rental_uris":{"android":"levelo://app?vid=9cd66f20-0974-44a3-a00c-3af08e74ebf2","ios":"levelo://app?vid=9cd66f20-0974-44a3-a00c-3af08e74ebf2"},"vehicle_type_id":"4","last_reported":1745064987,"current_range_meters":21600,"station_id":"","pricing_plan_id":"cebpf4jnsgd1na2vs0mg"},{"bike_id":"4fde912f-4e03-4043-894c-523a3c3a5fd1","system_id":"levelo_inurba_marseille","lat":43.3046,"lon":5.37904,"is_reserved":false,"is_disabled":false,"rental_uris":{"android":"levelo://app?vid=4fde912f-4e03-4043-894c-523a3c3a5fd1","ios":"levelo://app?vid=4fde912f-4e03-4043-894c-523a3c3a5fd1"},"vehicle_type_id":"4","last_reported":1745064987,"current_range_meters":21600,"station_id":"ce4bgup2rcd13ifvqcn0","pricing_plan_id":"cebpf4jnsgd1na2vs0mg"},{"bike_id":"dae78058-ad5b-4797-b873-84e719215357","system_id":"levelo_inurba_marseille","lat":43.22507,"lon":5.34788,"is_reserved":false,"is_disabled":false,"rental_uris":{"android":"levelo://app?vid=dae78058-ad5b-4797-b873-84e719215357","ios":"levelo://app?vid=dae78058-ad5b-4797-b873-84e719215357"},"vehicle_type_id":"4","last_reported":1745064987,"current_range_meters":21600,"station_id":"st_cvj5dfep6f1abm77gieg","pricing_plan_id":"cebpf4jnsgd1na2vs0mg"},{"bike_id":"c666383b-605b-4d75-b847-23bf2ba6484e","system_id":"levelo_inurba_marseille","lat":43.29839,"lon":5.36266,"is_reserved":false,"is_disabled":false,"rental_uris":{"android":"levelo://app?vid=c666383b-605b-4d75-b847-23bf2ba6484e","ios":"levelo://app?vid=c666383b-605b-4d75-b847-23bf2ba6484e"},"vehicle_type_id":"4","last_reported":1745064987,"current_range_meters":21600,"station_id":"ce4bgpp2rcd13ifvqc3g","pricing_plan_id":"cebpf4jnsgd1na2vs0mg"},{"bike_id":"c02ae3e8-e568-4315-a2fb-e50a451d4679","system_id":"levelo_inurba_marseille","lat":43.23183,"lon":5.39987,"is_reserved":false,"is_disabled":false,"rental_uris":{"android":"levelo://app?vid=c02ae3e8-e568-4315-a2fb-e50a451d4679","ios":"levelo://app?vid=c02ae3e8-e568-4315-a2fb-e50a451d4679"},"vehicle_type_id":"4","last_reported":1745064987,"current_range_meters":22000,"station_id":"ce4bhn12rcd13ifvqgqg","pricing_plan_id":"cebpf4jnsgd1na2vs0mg"},{"bike_id":"ca5deaed-7bc1-4d21-b9ed-93c32e7d4223","system_id":"levelo_inurba_marseille","lat":43.24392,"lon":5.37058,"is_reserved":false,"is_disabled":false,"rental_uris":{"android":"levelo://app?vid=ca5deaed-7bc1-4d21-b9ed-93c32e7d4223","ios":"levelo://app?vid=ca5deaed-7bc1-4d21-b9ed-93c32e7d4223"},"vehicle_type_id":"4","last_reported":1745064987,"current_range_meters":22000,"station_id":"ce4bhhh2rcd13ifvqfk0","pricing_plan_id":"cebpf4jnsgd1na2vs0mg"},{"bike_id":"13457fb1-5d90-448b-bf7d-fdc175d0ae00","system_id":"levelo_inurba_marseille","lat":43.27677,"lon":5.38884,"is_reserved":false,"is_disabled":false,"rental_uris":{"android":"levelo://app?vid=13457fb1-5d90-448b-bf7d-fdc175d0ae00","ios":"levelo://app?vid=13457fb1-5d90-448b-bf7d-fdc175d0ae00"},"vehicle_type_id":"4","last_reported":1745064987,"current_range_meters":22000,"station_id":"ce4bhi12rcd13ifvqfo0","pricing_plan_id":"cebpf4jnsgd1na2vs0mg"},{"bike_id":"26d554f2-aaff-491b-b9e5-72a3aa02951f","system_id":"levelo_inurba_marseille","lat":43.291415,"lon":5.355872,"is_reserved":false,"is_disabled":false,"rental_uris":{"android":"levelo://app?vid=26d554f2-aaff-491b-b9e5-72a3aa02951f","ios":"levelo://app?vid=26d554f2-aaff-491b-b9e5-72a3aa02951f"},"vehicle_type_id":"4","last_reported":1745064987,"current_range_meters":22000,"station_id":"ce4bhch2rcd13ifvqeug","pricing_plan_id":"cebpf4jnsgd1na2vs0mg"},{"bike_id":"ce27d1c0-1a26-4b20-919b-84e9558e9dd0","system_id":"levelo_inurba_marseille","lat":43.28157,"lon":5.4264,"is_reserved":false,"is_disabled":false,"rental_uris":{"android":"levelo://app?vid=ce27d1c0-1a26-4b20-919b-84e9558e9dd0","ios":"levelo://app?vid=ce27d1c0-1a26-4b20-919b-84e9558e9dd0"},"vehicle_type_id":"4","last_reported":1745064987,"current_range_meters":22000,"station_id":"ce4bhnh2rcd13ifvqgug","pricing_plan_id":"cebpf4jnsgd1na2vs0mg"},{"bike_id":"43d16f90-36ad-4f55-8765-f7d472e03959","system_id":"levelo_inurba_marseille","lat":43.323709,"lon":5.367689,"is_reserved":false,"is_disabled":false,"rental_uris":{"android":"levelo://app?vid=43d16f90-36ad-4f55-8765-f7d472e03959","ios":"levelo://app?vid=43d16f90-36ad-4f55-8765-f7d472e03959"},"vehicle_type_id":"4","last_reported":1745064987,"current_range_meters":22000,"station_id":"ce4bhsh2rcd13ifvqi2g","pricing_plan_id":"cebpf4jnsgd1na2vs0mg"},{"bike_id":"d29b9c8d-6ed3-47c2-b5b4-6e69b9df6434","system_id":"levelo_inurba_marseille","lat":43.27617,"lon":5.36108,"is_reserved":false,"is_disabled":false,"rental_uris":{"android":"levelo://app?vid=d29b9c8d-6ed3-47c2-b5b4-6e69b9df6434","ios":"levelo://app?vid=d29b9c8d-6ed3-47c2-b5b4-6e69b9df6434"},"vehicle_type_id":"4","last_reported":1745064987,"current_range_meters":22400,"station_id":"ce4bgj92rcd13ifvqbe0","pricing_plan_id":"cebpf4jnsgd1na2vs0mg"},{"bike_id":"11b7f384-13b1-4483-b9a8-b00250ee2cd8","system_id":"levelo_inurba_marseille","lat":43.29264,"lon":5.40731,"is_reserved":false,"is_disabled":false,"rental_uris":{"android":"levelo://app?vid=11b7f384-13b1-4483-b9a8-b00250ee2cd8","ios":"levelo://app?vid=11b7f384-13b1-4483-b9a8-b00250ee2cd8"},"vehicle_type_id":"4","last_reported":1745064987,"current_range_meters":22400,"station_id":"","pricing_plan_id":"cebpf4jnsgd1na2vs0mg"},{"bike_id":"fdd2561d-6fe8-477b-a369-67c863d13125","system_id":"levelo_inurba_marseille","lat":43.29621,"lon":5.40547,"is_reserved":false,"is_disabled":true,"rental_uris":{"android":"levelo://app?vid=fdd2561d-6fe8-477b-a369-67c863d13125","ios":"levelo://app?vid=fdd2561d-6fe8-477b-a369-67c863d13125"},"vehicle_type_id":"4","last_reported":1745064987,"current_range_meters":22400,"station_id":"ce4bh0h2rcd13ifvqd60","pricing_plan_id":"cebpf4jnsgd1na2vs0mg"},{"bike_id":"6b756a6a-3e2a-4904-8a4d-c16a5babc7ae","system_id":"levelo_inurba_marseille","lat":43.32348,"lon":5.36744,"is_reserved":false,"is_disabled":false,"rental_uris":{"android":"levelo://app?vid=6b756a6a-3e2a-4904-8a4d-c16a5babc7ae","ios":"levelo://app?vid=6b756a6a-3e2a-4904-8a4d-c16a5babc7ae"},"vehicle_type_id":"4","last_reported":1745064987,"current_range_meters":22400,"station_id":"ce4bhsh2rcd13ifvqi2g","pricing_plan_id":"cebpf4jnsgd1na2vs0mg"},{"bike_id":"51bc3827-b153-4b7e-bc38-aa2d18b38c07","system_id":"levelo_inurba_marseille","lat":43.23962,"lon":5.36638,"is_reserved":false,"is_disabled":false,"rental_uris":{"android":"levelo://app?vid=51bc3827-b153-4b7e-bc38-aa2d18b38c07","ios":"levelo://app?vid=51bc3827-b153-4b7e-bc38-aa2d18b38c07"},"vehicle_type_id":"4","last_reported":1745064987,"current_range_meters":22400,"station_id":"ce4bhi12rcd13ifvqfp0","pricing_plan_id":"cebpf4jnsgd1na2vs0mg"},{"bike_id":"55b0d54d-7125-467d-8671-68a0cbf60dc3","system_id":"levelo_inurba_marseille","lat":43.29316,"lon":5.37173,"is_reserved":false,"is_disabled":false,"rental_uris":{"android":"levelo://app?vid=55b0d54d-7125-467d-8671-68a0cbf60dc3","ios":"levelo://app?vid=55b0d54d-7125-467d-8671-68a0cbf60dc3"},"vehicle_type_id":"4","last_reported":1745064987,"current_range_meters":22400,"station_id":"ce4bgh92rcd13ifvqb40","pricing_plan_id":"cebpf4jnsgd1na2vs0mg"},{"bike_id":"c0e0ba24-a93e-4d8f-ae3a-85a5a9197456","system_id":"levelo_inurba_marseille","lat":43.23964,"lon":5.36611,"is_reserved":false,"is_disabled":false,"rental_uris":{"android":"levelo://app?vid=c0e0ba24-a93e-4d8f-ae3a-85a5a9197456","ios":"levelo://app?vid=c0e0ba24-a93e-4d8f-ae3a-85a5a9197456"},"vehicle_type_id":"4","last_reported":1745064987,"current_range_meters":22400,"station_id":"ce4bhi12rcd13ifvqfp0","pricing_plan_id":"cebpf4jnsgd1na2vs0mg"},{"bike_id":"b533da40-1ac1-44f8-bd85-fc30198053a2","system_id":"levelo_inurba_marseille","lat":43.24077,"lon":5.37757,"is_reserved":false,"is_disabled":false,"rental_uris":{"android":"levelo://app?vid=b533da40-1ac1-44f8-bd85-fc30198053a2","ios":"levelo://app?vid=b533da40-1ac1-44f8-bd85-fc30198053a2"},"vehicle_type_id":"4","last_reported":1745064987,"current_range_meters":22400,"station_id":"ce4bhnp2rcd13ifvqgvg","pricing_plan_id":"cebpf4jnsgd1na2vs0mg"},{"bike_id":"06172e70-0cbd-405d-86c8-6ec998258388","system_id":"levelo_inurba_marseille","lat":43.2396,"lon":5.36631,"is_reserved":false,"is_disabled":false,"rental_uris":{"android":"levelo://app?vid=06172e70-0cbd-405d-86c8-6ec998258388","ios":"levelo://app?vid=06172e70-0cbd-405d-86c8-6ec998258388"},"vehicle_type_id":"4","last_reported":1745064987,"current_range_meters":22800,"station_id":"ce4bhi12rcd13ifvqfp0","pricing_plan_id":"cebpf4jnsgd1na2vs0mg"},{"bike_id":"68901910-2c56-4a9b-9e59-e04be84e9c7c","system_id":"levelo_inurba_marseille","lat":43.30135,"lon":5.38786,"is_reserved":false,"is_disabled":false,"rental_uris":{"android":"levelo://app?vid=68901910-2c56-4a9b-9e59-e04be84e9c7c","ios":"levelo://app?vid=68901910-2c56-4a9b-9e59-e04be84e9c7c"},"vehicle_type_id":"4","last_reported":1745064987,"current_range_meters":22800,"station_id":"ce4bghh2rcd13ifvqb60","pricing_plan_id":"cebpf4jnsgd1na2vs0mg"},{"bike_id":"48005c46-eabc-4ea8-b4de-e287d98d22b5","system_id":"levelo_inurba_marseille","lat":43.23199,"lon":5.35556,"is_reserved":false,"is_disabled":false,"rental_uris":{"android":"levelo://app?vid=48005c46-eabc-4ea8-b4de-e287d98d22b5","ios":"levelo://app?vid=48005c46-eabc-4ea8-b4de-e287d98d22b5"},"vehicle_type_id":"4","last_reported":1745064987,"current_range_meters":22800,"station_id":"ce4bhu92rcd13ifvqi70","pricing_plan_id":"cebpf4jnsgd1na2vs0mg"},{"bike_id":"c55ef4fb-f1b0-4791-971e-1e53e7c589be","system_id":"levelo_inurba_marseille","lat":43.26207,"lon":5.37924,"is_reserved":false,"is_disabled":false,"rental_uris":{"android":"levelo://app?vid=c55ef4fb-f1b0-4791-971e-1e53e7c589be","ios":"levelo://app?vid=c55ef4fb-f1b0-4791-971e-1e53e7c589be"},"vehicle_type_id":"4","last_reported":1745064987,"current_range_meters":23200,"station_id":"ce4bhjp2rcd13ifvqg90","pricing_plan_id":"cebpf4jnsgd1na2vs0mg"},{"bike_id":"9020ed66-a93d-4be1-ae4e-46841236d22a","system_id":"levelo_inurba_marseille","lat":43.28946,"lon":5.36411,"is_reserved":false,"is_disabled":false,"rental_uris":{"android":"levelo://app?vid=9020ed66-a93d-4be1-ae4e-46841236d22a","ios":"levelo://app?vid=9020ed66-a93d-4be1-ae4e-46841236d22a"},"vehicle_type_id":"4","last_reported":1745064987,"current_range_meters":23200,"station_id":"ce4bhc92rcd13ifvqetg","pricing_plan_id":"cebpf4jnsgd1na2vs0mg"},{"bike_id":"ee79e4bc-6137-4e1e-a20a-3f7e1c7f63ee","system_id":"levelo_inurba_marseille","lat":43.27669,"lon":5.38888,"is_reserved":false,"is_disabled":false,"rental_uris":{"android":"levelo://app?vid=ee79e4bc-6137-4e1e-a20a-3f7e1c7f63ee","ios":"levelo://app?vid=ee79e4bc-6137-4e1e-a20a-3f7e1c7f63ee"},"vehicle_type_id":"4","last_reported":1745064987,"current_range_meters":23200,"station_id":"ce4bhi12rcd13ifvqfo0","pricing_plan_id":"cebpf4jnsgd1na2vs0mg"},{"bike_id":"167ab478-5cf4-4113-91c5-04bcacfa862e","system_id":"levelo_inurba_marseille","lat":43.266785,"lon":5.38274,"is_reserved":false,"is_disabled":false,"rental_uris":{"android":"levelo://app?vid=167ab478-5cf4-4113-91c5-04bcacfa862e","ios":"levelo://app?vid=167ab478-5cf4-4113-91c5-04bcacfa862e"},"vehicle_type_id":"4","last_reported":1745064987,"current_range_meters":23200,"station_id":"ce4bhg92rcd13ifvqf90","pricing_plan_id":"cebpf4jnsgd1na2vs0mg"},