{"last_updated":1714075653,"ttl":30,"version":"2.2","data":{"bikes":[{"bike_id":"a1b9fb29-3d49-45b7-b449-a4582d997413","system_id":"levelo_inurba_marseille","lat":43.313391,"lon":5.36706,"is_reserved":false,"is_disabled":false,"rental_uris":{"android":"levelo://app?vid=a1b9fb29-3d49-45b7-b449-a4582d997413","ios":"levelo://app?vid=a1b9fb29-3d49-45b7-b449-a4582d997413"},"vehicle_type_id":"4","last_reported":1714075653,"current_range_meters":17200,"station_id":"ce4bgr92rcd13ifvqc6g","pricing_plan_id":"cebpf4jnsgd1na2vs0mg"},{"bike_id":"7f73ae10-7fd4-4caa-8fa3-577c885596ef","system_id":"levelo_inurba_marseille","lat":43.31341,"lon":5.367098,"is_reserved":false,"is_disabled":false,"rental_uris":{"android":"levelo://app?vid=7f73ae10-7fd4-4caa-8fa3-577c885596ef","ios":"levelo://app?vid=7f73ae10-7fd4-4caa-8fa3-577c885596ef"},"vehicle_type_id":"4","last_reported":1714075653,"current_range_meters":18800,"station_id":"ce4bgr92rcd13ifvqc6g","pricing_plan_id":"cebpf4jnsgd1na2vs0mg"},{"bike_id":"1a872476-553d-4fcc-ac5a-b67bc9a4c898","system_id":"levelo_inurba_marseille","lat":43.312239,"lon":5.368562,"is_reserved":false,"is_disabled":false,"rental_uris":{"android":"levelo://app?vid=1a872476-553d-4fcc-ac5a-b67bc9a4c898","ios":"levelo://app?vid=1a872476-553d-4fcc-ac5a-b67bc9a4c898"},"vehicle_type_id":"4","last_reported":1714075653,"current_range_meters":10000,"station_id":"ce4bgl92rcd13ifvqbq0","pricing_plan_id":"cebpf4jnsgd1na2vs0mg"},{"bike_id":"955856e3-fb3c-40f2-9e42-dd009654de0a","system_id":"levelo_inurba_marseille","lat":43.312239,"lon":5.368562,"is_reserved":false,"is_disabled":false,"rental_uris":{"android":"levelo://app?vid=955856e3-fb3c-40f2-9e42-dd009654de0a","ios":"levelo://app?vid=955856e3-fb3c-40f2-9e42-dd009654de0a"},"vehicle_type_id":"4","last_reported":1714075653,"current_range_meters":0,"station_id":"ce4bgl92rcd13ifvqbq0","pricing_plan_id":"cebpf4jnsgd1na2vs0mg"},{"bike_id":"bfe04d9a-7390-495a-bac4-4ec94aa03129","system_id":"levelo_inurba_marseille","lat":43.31222,"lon":5.36872,"is_reserved":false,"is_disabled":false,"rental_uris":{"android":"levelo://app?vid=bfe04d9a-7390-495a-bac4-4ec94aa03129","ios":"levelo://app?vid=bfe04d9a-7390-495a-bac4-4ec94aa03129"},"vehicle_type_id":"4","last_reported":1714075653,"current_range_meters":0,"station_id":"ce4bgl92rcd13ifvqbq0","pricing_plan_id":"cebpf4jnsgd1na2vs0mg"},{"bike_id":"89d5e278-9609-4e6c-946a-97ea946849af","system_id":"levelo_inurba_marseille","lat":43.31227,"lon":5.36882,"is_reserved":false,"is_disabled":false,"rental_uris":{"android":"levelo://app?vid=89d5e278-9609-4e6c-946a-97ea946849af","ios":"levelo://app?vid=89d5e278-9609-4e6c-946a-97ea946849af"},"vehicle_type_id":"4","last_reported":1714075653,"current_range_meters":0,"station_id":"ce4bgl92rcd13ifvqbq0","pricing_plan_id":"cebpf4jnsgd1na2vs0mg"},{"bike_id":"7533f2f2-156e-488b-9ae6-279d60e3f5e2","system_id":"levelo_inurba_marseille","lat":43.309076,"lon":5.368465,"is_reserved":false,"is_disabled":false,"rental_uris":{"android":"levelo://app?vid=7533f2f2-156e-488b-9ae6-279d60e3f5e2","ios":"levelo://app?vid=7533f2f2-156e-488b-9ae6-279d60e3f5e2"},"vehicle_type_id":"4","last_reported":1714075653,"current_range_meters":28000,"station_id":"ce4bgn92rcd13ifvqbvg","pricing_plan_id":"cebpf4jnsgd1na2vs0mg"},{"bike_id":"4cee523d-3892-4c32-a543-70eeaa819d19","system_id":"levelo_inurba_marseille","lat":43.314844,"lon":5.372997,"is_reserved":false,"is_disabled":false,"rental_uris":{"android":"levelo://app?vid=4cee523d-3892-4c32-a543-70eeaa819d19","ios":"levelo://app?vid=4cee523d-3892-4c32-a543-70eeaa819d19"},"vehicle_type_id":"4","last_reported":1714075653,"current_range_meters":0,"station_id":"ce4bgt12rcd13ifvqcd0","pricing_plan_id":"cebpf4jnsgd1na2vs0mg"},{"bike_id":"cfba13a7-fb3b-447d-9f46-3fc22d825b13","system_id":"levelo_inurba_marseille","lat":43.314811,"lon":5.373103,"is_reserved":false,"is_disabled":false,"rental_uris":{"android":"levelo://app?vid=cfba13a7-fb3b-447d-9f46-3fc22d825b13","ios":"levelo://app?vid=cfba13a7-fb3b-447d-9f46-3fc22d825b13"},"vehicle_type_id":"4","last_reported":1714075653,"current_range_meters":24000,"station_id":"ce4bgt12rcd13ifvqcd0","pricing_plan_id":"cebpf4jnsgd1na2vs0mg"},{"bike_id":"4cfd3343-c86c-457d-b5e1-68be2d4bbfac","system_id":"levelo_inurba_marseille","lat":43.314811,"lon":5.373103,"is_reserved":false,"is_disabled":false,"rental_uris":{"android":"levelo://app?vid=4cfd3343-c86c-457d-b5e1-68be2d4bbfac","ios":"levelo://app?vid=4cfd3343-c86c-457d-b5e1-68be2d4bbfac"},"vehicle_type_id":"4","last_reported":1714075653,"current_range_meters":2000,"station_id":"ce4bgt12rcd13ifvqcd0","pricing_plan_id":"cebpf4jnsgd1na2vs0mg"},{"bike_id":"83c503e6-5173-4632-a462-f0ea01372a88","system_id":"levelo_inurba_marseille","lat":43.314811,"lon":5.373103,"is_reserved":false,"is_disabled":false,"rental_uris":{"android":"levelo://app?vid=83c503e6-5173-4632-a462-f0ea01372a88","ios":"levelo://app?vid=83c503e6-5173-4632-a462-f0ea01372a88"},"vehicle_type_id":"4","last_reported":1714075653,"current_range_meters":13200,"station_id":"ce4bgt12rcd13ifvqcd0","pricing_plan_id":"cebpf4jnsgd1na2vs0mg"},{"bike_id":"fbbf3d97-15a2-422c-96dd-57b669b68ee6","system_id":"levelo_inurba_marseille","lat":43.314811,"lon":5.373103,"is_reserved":false,"is_disabled":false,"rental_uris":{"android":"levelo://app?vid=fbbf3d97-15a2-422c-96dd-57b669b68ee6","ios":"levelo://app?vid=fbbf3d97-15a2-422c-96dd-57b669b68ee6"},"vehicle_type_id":"4","last_reported":1714075653,"current_range_meters":24400,"station_id":"ce4bgt12rcd13ifvqcd0","pricing_plan_id":"cebpf4jnsgd1na2vs0mg"},{"bike_id":"2d5ca1d9-afe8-4103-bc71-0e2c97b365cb","system_id":"levelo_inurba_marseille","lat":43.314811,"lon":5.373103,"is_reserved":false,"is_disabled":false,"rental_uris":{"android":"levelo://app?vid=2d5ca1d9-afe8-4103-bc71-0e2c97b365cb","ios":"levelo://app?vid=2d5ca1d9-afe8-4103-bc71-0e2c97b365cb"},"vehicle_type_id":"4","last_reported":1714075653,"current_range_meters":5200,"station_id":"ce4bgt12rcd13ifvqcd0","pricing_plan_id":"cebpf4jnsgd1na2vs0mg"},{"bike_id":"89bbde7a-f7a8-4fe6-af20-efbf8ad7352a","system_id":"levelo_inurba_marseille","lat":43.314811,"lon":5.373103,"is_reserved":false,"is_disabled":false,"rental_uris":{"android":"levelo://app?vid=89bbde7a-f7a8-4fe6-af20-efbf8ad7352a","ios":"levelo://app?vid=89bbde7a-f7a8-4fe6-af20-efbf8ad7352a"},"vehicle_type_id":"4","last_reported":1714075653,"current_range_meters":12800,"station_id":"ce4bgt12rcd13ifvqcd0","pricing_plan_id":"cebpf4jnsgd1na2vs0mg"},{"bike_id":"8582670c-bea8-44c9-93f6-7e2462e5c74c","system_id":"levelo_inurba_marseille","lat":43.314811,"lon":5.373104,"is_reserved":false,"is_disabled":false,"rental_uris":{"android":"levelo://app?vid=8582670c-bea8-44c9-93f6-7e2462e5c74c","ios":"levelo://app?vid=8582670c-bea8-44c9-93f6-7e2462e5c74c"},"vehicle_type_id":"4","last_reported":1714075653,"current_range_meters":4400,"station_id":"ce4bgt12rcd13ifvqcd0","pricing_plan_id":"cebpf4jnsgd1na2vs0mg"},{"bike_id":"4b2b05c4-f5cd-46ae-a965-f1f19afcebee","system_id":"levelo_inurba_marseille","lat":43.314811,"lon":5.373104,"is_reserved":false,"is_disabled":false,"rental_uris":{"android":"levelo://app?vid=4b2b05c4-f5cd-46ae-a965-f1f19afcebee","ios":"levelo://app?vid=4b2b05c4-f5cd-46ae-a965-f1f19afcebee"},"vehicle_type_id":"4","last_reported":1714075653,"current_range_meters":14800,"station_id":"ce4bgt12rcd13ifvqcd0","pricing_plan_id":"cebpf4jnsgd1na2vs0mg"},{"bike_id":"d8cb0325-d5d5-4843-b2dd-ed36d3f7ef8f","system_id":"levelo_inurba_marseille","lat":43.309039,"lon":5.371797,"is_reserved":false,"is_disabled":false,"rental_uris":{"android":"levelo://app?vid=d8cb0325-d5d5-4843-b2dd-ed36d3f7ef8f","ios":"levelo://app?vid=d8cb0325-d5d5-4843-b2dd-ed36d3f7ef8f"},"vehicle_type_id":"4","last_reported":1714075653,"current_range_meters":31200,"station_id":"ce4bguh2rcd13ifvqckg","pricing_plan_id":"cebpf4jnsgd1na2vs0mg"},{"bike_id":"19cb6e2e-df35-4aeb-9552-45eb1c381056","system_id":"levelo_inurba_marseille","lat":43.309039,"lon":5.371797,"is_reserved":false,"is_disabled":false,"rental_uris":{"android":"levelo://app?vid=19cb6e2e-df35-4aeb-9552-45eb1c381056","ios":"levelo://app?vid=19cb6e2e-df35-4aeb-9552-45eb1c381056"},"vehicle_type_id":"4","last_reported":1714075653,"current_range_meters":29200,"station_id":"ce4bguh2rcd13ifvqckg","pricing_plan_id":"cebpf4jnsgd1na2vs0mg"},{"bike_id":"c5c79c5e-8298-405a-b6d1-58ce0423e7b9","system_id":"levelo_inurba_marseille","lat":43.30537,"lon":5.367345,"is_reserved":false,"is_disabled":false,"rental_uris":{"android":"levelo://app?vid=c5c79c5e-8298-405a-b6d1-58ce0423e7b9","ios":"levelo://app?vid=c5c79c5e-8298-405a-b6d1-58ce0423e7b9"},"vehicle_type_id":"4","last_reported":1714075653,"current_range_meters":10000,"station_id":"ce4bgrp2rcd13ifvqc9g","pricing_plan_id":"cebpf4jnsgd1na2vs0mg"},{"bike_id":"3690945c-2dca-47ec-b253-18fdefb0fe8e","system_id":"levelo_inurba_marseille","lat":43.305714,"lon":5.365633,"is_reserved":false,"is_disabled":false,"rental_uris":{"android":"levelo://app?vid=3690945c-2dca-47ec-b253-18fdefb0fe8e","ios":"levelo://app?vid=3690945c-2dca-47ec-b253-18fdefb0fe8e"},"vehicle_type_id":"4","last_reported":1714075653,"current_range_meters":9600,"station_id":"ce4bgs12rcd13ifvqcag","pricing_plan_id":"cebpf4jnsgd1na2vs0mg"},{"bike_id":"23835b05-32e8-492f-ae7b-7be8377a535d","system_id":"levelo_inurba_marseille","lat":43.30537,"lon":5.367345,"is_reserved":false,"is_disabled":false,"rental_uris":{"android":"levelo://app?vid=23835b05-32e8-492f-ae7b-7be8377a535d","ios":"levelo://app?vid=23835b05-32e8-492f-ae7b-7be8377a535d"},"vehicle_type_id":"4","last_reported":1714075653,"current_range_meters":31200,"station_id":"ce4bgrp2rcd13ifvqc9g","pricing_plan_id":"cebpf4jnsgd1na2vs0mg"},{"bike_id":"70fb18c1-72e2-4177-b1fa-4395787e9a80","system_id":"levelo_inurba_marseille","lat":43.305714,"lon":5.365633,"is_reserved":false,"is_disabled":false,"rental_uris":{"android":"levelo://app?vid=70fb18c1-72e2-4177-b1fa-4395787e9a80","ios":"levelo://app?vid=70fb18c1-72e2-4177-b1fa-4395787e9a80"},"vehicle_type_id":"4","last_reported":1714075653,"current_range_meters":29600,"station_id":"ce4bgs12rcd13ifvqcag","pricing_plan_id":"cebpf4jnsgd1na2vs0mg"},{"bike_id":"0a3b4d35-9d6c-441c-a514-0f35c3f92a89","system_id":"levelo_inurba_marseille","lat":43.305989,"lon":5.37225,"is_reserved":false,"is_disabled":false,"rental_uris":{"android":"levelo://app?vid=0a3b4d35-9d6c-441c-a514-0f35c3f92a89","ios":"levelo://app?vid=0a3b4d35-9d6c-441c-a514-0f35c3f92a89"},"vehicle_type_id":"4","last_reported":1714075653,"current_range_meters":0,"station_id":"ce4bgqh2rcd13ifvqc4g","pricing_plan_id":"cebpf4jnsgd1na2vs0mg"},{"bike_id":"34781ba3-bbdc-4cad-b66a-316f2e18ee0f","system_id":"levelo_inurba_marseille","lat":43.311131,"lon":5.377651,"is_reserved":false,"is_disabled":false,"rental_uris":{"android":"levelo://app?vid=34781ba3-bbdc-4cad-b66a-316f2e18ee0f","ios":"levelo://app?vid=34781ba3-bbdc-4cad-b66a-316f2e18ee0f"},"vehicle_type_id":"4","last_reported":1714075653,"current_range_meters":0,"station_id":"ce4bgt92rcd13ifvqcg0","pricing_plan_id":"cebpf4jnsgd1na2vs0mg"},{"bike_id":"e2b918bc-e14e-48f2-a504-d5c25ab215ec","system_id":"levelo_inurba_marseille","lat":43.311131,"lon":5.377651,"is_reserved":false,"is_disabled":false,"rental_uris":{"android":"levelo://app?vid=e2b918bc-e14e-48f2-a504-d5c25ab215ec","ios":"levelo://app?vid=e2b918bc-e14e-48f2-a504-d5c25ab215ec"},"vehicle_type_id":"4","last_reported":1714075653,"current_range_meters":3200,"station_id":"ce4bgt92rcd13ifvqcg0","pricing_plan_id":"cebpf4jnsgd1na2vs0mg"},{"bike_id":"28fb5c8c-059c-422c-8035-919852b16189","system_id":"levelo_inurba_marseille","lat":43.311131,"lon":5.377651,"is_reserved":false,"is_disabled":false,"rental_uris":{"android":"levelo://app?vid=28fb5c8c-059c-422c-8035-919852b16189","ios":"levelo://app?vid=28fb5c8c-059c-422c-8035-919852b16189"},"vehicle_type_id":"4","last_reported":1714075653,"current_range_meters":19600,"station_id":"ce4bgt92rcd13ifvqcg0","pricing_plan_id":"cebpf4jnsgd1na2vs0mg"},{"bike_id":"886eb646-d45e-4748-8378-4f23961b3489","system_id":"levelo_inurba_marseille","lat":43.311125,"lon":5.377624,"is_reserved":false,"is_disabled":false,"rental_uris":{"android":"levelo://app?vid=886eb646-d45e-4748-8378-4f23961b3489","ios":"levelo://app?vid=886eb646-d45e-4748-8378-4f23961b3489"},"vehicle_type_id":"4","last_reported":1714075653,"current_range_meters":10000,"station_id":"ce4bgt92rcd13ifvqcg0","pricing_plan_id":"cebpf4jnsgd1na2vs0mg"},{"bike_id":"c3a93fef-ce6f-43fc-8a57-72e9fe8b35ef","system_id":"levelo_inurba_marseille","lat":43.307945,"lon":5.376487,"is_reserved":false,"is_disabled":false,"rental_uris":{"android":"levelo://app?vid=c3a93fef-ce6f-43fc-8a57-72e9fe8b35ef","ios":"levelo://app?vid=c3a93fef-ce6f-43fc-8a57-72e9fe8b35ef"},"vehicle_type_id":"4","last_reported":1714075653,"current_range_meters":4000,"station_id":"ce4bgv92rcd13ifvqcq0","pricing_plan_id":"cebpf4jnsgd1na2vs0mg"},{"bike_id":"8f62dce1-a001-485a-9426-61a696914941","system_id":"levelo_inurba_marseille","lat":43.307945,"lon":5.376487,"is_reserved":false,"is_disabled":false,"rental_uris":{"android":"levelo://app?vid=8f62dce1-a001-485a-9426-61a696914941","ios":"levelo://app?vid=8f62dce1-a001-485a-9426-61a696914941"},"vehicle_type_id":"4","last_reported":1714075653,"current_range_meters":7200,"station_id":"ce4bgv92rcd13ifvqcq0","pricing_plan_id":"cebpf4jnsgd1na2vs0mg"},{"bike_id":"4dde0a25-66f8-446a-bbd7-59360b783bab","system_id":"levelo_inurba_marseille","lat":43.307909,"lon":5.376472,"is_reserved":false,"is_disabled":false,"rental_uris":{"android":"levelo://app?vid=4dde0a25-66f8-446a-bbd7-59360b783bab","ios":"levelo://app?vid=4dde0a25-66f8-446a-bbd7-59360b783bab"},"vehicle_type_id":"4","last_reported":1714075653,"current_range_meters":9200,"station_id":"ce4bgv92rcd13ifvqcq0","pricing_plan_id":"cebpf4jnsgd1na2vs0mg"},{"bike_id":"18382e17-6a6b-4a45-a3bc-0e5895473ddc","system_id":"levelo_inurba_marseille","lat":43.307945,"lon":5.376487,"is_reserved":false,"is_disabled":false,"rental_uris":{"android":"levelo://app?vid=18382e17-6a6b-4a45-a3bc-0e5895473ddc","ios":"levelo://app?vid=18382e17-6a6b-4a45-a3bc-0e5895473ddc"},"vehicle_type_id":"4","last_reported":1714075653,"current_range_meters":19200,"station_id":"ce4bgv92rcd13ifvqcq0","pricing_plan_id":"cebpf4jnsgd1na2vs0mg"},{"bike_id":"6cd0dc63-c6a9-4b70-a679-66b549ca9d01","system_id":"levelo_inurba_marseille","lat":43.307945,"lon":5.376487,"is_reserved":false,"is_disabled":false,"rental_uris":{"android":"levelo://app?vid=6cd0dc63-c6a9-4b70-a679-66b549ca9d01","ios":"levelo://app?vid=6cd0dc63-c6a9-4b70-a679-66b549ca9d01"},"vehicle_type_id":"4","last_reported":1714075653,"current_range_meters":14400,"station_id":"ce4bgv92rcd13ifvqcq0","pricing_plan_id":"cebpf4jnsgd1na2vs0mg"},{"bike_id":"ac22e92e-7e8c-40e6-a7f9-b5375690c624","system_id":"levelo_inurba_marseille","lat":43.30782,"lon":5.37657,"is_reserved":false,"is_disabled":false,"rental_uris":{"android":"levelo://app?vid=ac22e92e-7e8c-40e6-a7f9-b5375690c624","ios":"levelo://app?vid=ac22e92e-7e8c-40e6-a7f9-b5375690c624"},"vehicle_type_id":"4","last_reported":1714075653,"current_range_meters":31200,"station_id":"ce4bgv92rcd13ifvqcq0","pricing_plan_id":"cebpf4jnsgd1na2vs0mg"},{"bike_id":"01c8efeb-4fb7-4f8f-a731-f28ede50a3f2","system_id":"levelo_inurba_marseille","lat":43.31698,"lon":5.37741,"is_reserved":false,"is_disabled":false,"rental_uris":{"android":"levelo://app?vid=01c8efeb-4fb7-4f8f-a731-f28ede50a3f2","ios":"levelo://app?vid=01c8efeb-4fb7-4f8f-a731-f28ede50a3f2"},"vehicle_type_id":"4","last_reported":1714075653,"current_range_meters":0,"station_id":"ce4bgth2rcd13ifvqch0","pricing_plan_id":"cebpf4jnsgd1na2vs0mg"},{"bike_id":"4384296e-0b0b-42c2-b297-d14615187f1e","system_id":"levelo_inurba_marseille","lat":43.317075,"lon":5.377367,"is_reserved":false,"is_disabled":false,"rental_uris":{"android":"levelo://app?vid=4384296e-0b0b-42c2-b297-d14615187f1e","ios":"levelo://app?vid=4384296e-0b0b-42c2-b297-d14615187f1e"},"vehicle_type_id":"4","last_reported":1714075653,"current_range_meters":15600,"station_id":"ce4bgth2rcd13ifvqch0","pricing_plan_id":"cebpf4jnsgd1na2vs0mg"},{"bike_id":"62cc3093-b0ed-45d0-a60b-f041bb9bf822","system_id":"levelo_inurba_marseille","lat":43.317075,"lon":5.377367,"is_reserved":false,"is_disabled":false,"rental_uris":{"android":"levelo://app?vid=62cc3093-b0ed-45d0-a60b-f041bb9bf822","ios":"levelo://app?vid=62cc3093-b0ed-45d0-a60b-f041bb9bf822"},"vehicle_type_id":"4","last_reported":1714075653,"current_range_meters":16000,"station_id":"ce4bgth2rcd13ifvqch0","pricing_plan_id":"cebpf4jnsgd1na2vs0mg"},{"bike_id":"e2d0b750-c9d5-45e0-a95a-31e71f233d0a","system_id":"levelo_inurba_marseille","lat":43.283494,"lon":5.380945,"is_reserved":false,"is_disabled":false,"rental_uris":{"android":"levelo://app?vid=e2d0b750-c9d5-45e0-a95a-31e71f233d0a","ios":"levelo://app?vid=e2d0b750-c9d5-45e0-a95a-31e71f233d0a"},"vehicle_type_id":"4","last_reported":1714075653,"current_range_meters":22800,"station_id":"ce4bh412rcd13ifvqdr0","pricing_plan_id":"cebpf4jnsgd1na2vs0mg"},{"bike_id":"2c1ebe05-f5e8-4c5c-a618-1318eebe3aa1","system_id":"levelo_inurba_marseille","lat":43.30304,"lon":5.368987,"is_reserved":false,"is_disabled":false,"rental_uris":{"android":"levelo://app?vid=2c1ebe05-f5e8-4c5c-a618-1318eebe3aa1","ios":"levelo://app?vid=2c1ebe05-f5e8-4c5c-a618-1318eebe3aa1"},"vehicle_type_id":"4","last_reported":1714075653,"current_range_meters":29600,"station_id":"ce4bgqh2rcd13ifvqc5g","pricing_plan_id":"cebpf4jnsgd1na2vs0mg"},{"bike_id":"fb717603-9b0e-4b5e-97ea-5ff96a148b1c","system_id":"levelo_inurba_marseille","lat":43.303046,"lon":5.368981,"is_reserved":false,"is_disabled":false,"rental_uris":{"android":"levelo://app?vid=fb717603-9b0e-4b5e-97ea-5ff96a148b1c","ios":"levelo://app?vid=fb717603-9b0e-4b5e-97ea-5ff96a148b1c"},"vehicle_type_id":"4","last_reported":1714075653,"current_range_meters":8400,"station_id":"ce4bgqh2rcd13ifvqc5g","pricing_plan_id":"cebpf4jnsgd1na2vs0mg"},{"bike_id":"33e1abd5-80ff-4b2f-8654-e273c811afc3","system_id":"levelo_inurba_marseille","lat":43.299724,"lon":5.371829,"is_reserved":false,"is_disabled":false,"rental_uris":{"android":"levelo://app?vid=33e1abd5-80ff-4b2f-8654-e273c811afc3","ios":"levelo://app?vid=33e1abd5-80ff-4b2f-8654-e273c811afc3"},"vehicle_type_id":"4","last_reported":1714075653,"current_range_meters":11600,"station_id":"ce4bgr92rcd13ifvqc7g","pricing_plan_id":"cebpf4jnsgd1na2vs0mg"},{"bike_id":"6e392962-d6d0-4df9-abad-010e19086929","system_id":"levelo_inurba_marseille","lat":43.308012,"lon":5.381511,"is_reserved":false,"is_disabled":false,"rental_uris":{"android":"levelo://app?vid=6e392962-d6d0-4df9-abad-010e19086929","ios":"levelo://app?vid=6e392962-d6d0-4df9-abad-010e19086929"},"vehicle_type_id":"4","last_reported":1714075653,"current_range_meters":22000,"station_id":"ce4bgt12rcd13ifvqce0","pricing_plan_id":"cebpf4jnsgd1na2vs0mg"},{"bike_id":"803020ad-208e-4510-9ff9-fe634837ac82","system_id":"levelo_inurba_marseille","lat":43.308012,"lon":5.381511,"is_reserved":false,"is_disabled":false,"rental_uris":{"android":"levelo://app?vid=803020ad-208e-4510-9ff9-fe634837ac82","ios":"levelo://app?vid=803020ad-208e-4510-9ff9-fe634837ac82"},"vehicle_type_id":"4","last_reported":1714075653,"current_range_meters":14400,"station_id":"ce4bgt12rcd13ifvqce0","pricing_plan_id":"cebpf4jnsgd1na2vs0mg"},{"bike_id":"d61bd5e8-63b2-4ac5-8017-d55531bb3ad8","system_id":"levelo_inurba_marseille","lat":43.308012,"lon":5.381511,"is_reserved":false,"is_disabled":false,"rental_uris":{"android":"levelo://app?vid=d61bd5e8-63b2-4ac5-8017-d55531bb3ad8","ios":"levelo://app?vid=d61bd5e8-63b2-4ac5-8017-d55531bb3ad8"},"vehicle_type_id":"4","last_reported":1714075653,"current_range_meters":18400,"station_id":"ce4bgt12rcd13ifvqce0","pricing_plan_id":"cebpf4jnsgd1na2vs0mg"},{"bike_id":"c4733f54-8572-4ab7-8908-30d2acd6540f","system_id":"levelo_inurba_marseille","lat":43.308012,"lon":5.381511,"is_reserved":false,"is_disabled":false,"rental_uris":{"android":"levelo://app?vid=c4733f54-8572-4ab7-8908-30d2acd6540f","ios":"levelo://app?vid=c4733f54-8572-4ab7-8908-30d2acd6540f"},"vehicle_type_id":"4","last_reported":1714075653,"current_range_meters":0,"station_id":"ce4bgt12rcd13ifvqce0","pricing_plan_id":"cebpf4jnsgd1na2vs0mg"},{"bike_id":"9e778ca8-dc4d-4c31-9f81-7cdf4b66664d","system_id":"levelo_inurba_marseille","lat":43.308012,"lon":5.381511,"is_reserved":false,"is_disabled":false,"rental_uris":{"android":"levelo://app?vid=9e778ca8-dc4d-4c31-9f81-7cdf4b66664d","ios":"levelo://app?vid=9e778ca8-dc4d-4c31-9f81-7cdf4b66664d"},"vehicle_type_id":"4","last_reported":1714075653,"current_range_meters":28800,"station_id":"ce4bgt12rcd13ifvqce0","pricing_plan_id":"cebpf4jnsgd1na2vs0mg"},{"bike_id":"47119a5b-137a-43c8-9614-e3f5195c15c6","system_id":"levelo_inurba_marseille","lat":43.304606,"lon":5.379026,"is_reserved":false,"is_disabled":false,"rental_uris":{"android":"levelo://app?vid=47119a5b-137a-43c8-9614-e3f5195c15c6","ios":"levelo://app?vid=47119a5b-137a-43c8-9614-e3f5195c15c6"},"vehicle_type_id":"4","last_reported":1714075653,"current_range_meters":2400,"station_id":"ce4bgup2rcd13ifvqcn0","pricing_plan_id":"cebpf4jnsgd1na2vs0mg"},{"bike_id":"b8b3ff98-4ee1-4a4b-bd90-246463cc169b","system_id":"levelo_inurba_marseille","lat":43.304606,"lon":5.379026,"is_reserved":false,"is_disabled":false,"rental_uris":{"android":"levelo://app?vid=b8b3ff98-4ee1-4a4b-bd90-246463cc169b","ios":"levelo://app?vid=b8b3ff98-4ee1-4a4b-bd90-246463cc169b"},"vehicle_type_id":"4","last_reported":1714075653,"current_range_meters":16800,"station_id":"ce4bgup2rcd13ifvqcn0","pricing_plan_id":"cebpf4jnsgd1na2vs0mg"},{"bike_id":"368ecea6-d208-4355-89eb-3edd21cf2972","system_id":"levelo_inurba_marseille","lat":43.324771,"lon":5.36557,"is_reserved":false,"is_disabled":false,"rental_uris":{"android":"levelo://app?vid=368ecea6-d208-4355-89eb-3edd21cf2972","ios":"levelo://app?vid=368ecea6-d208-4355-89eb-3edd21cf2972"},"vehicle_type_id":"4","last_reported":1714075653,"current_range_meters":23200,"station_id":"ce4bhs12rcd13ifvqhvg","pricing_plan_id":"cebpf4jnsgd1na2vs0mg"},{"bike_id":"8f88d152-971d-4d2c-8874-d58372618b70","system_id":"levelo_inurba_marseille","lat":43.32479,"lon":5.36564,"is_reserved":false,"is_disabled":false,"rental_uris":{"android":"levelo://app?vid=8f88d152-971d-4d2c-8874-d58372618b70","ios":"levelo://app?vid=8f88d152-971d-4d2c-8874-d58372618b70"},"vehicle_type_id":"4","last_reported":1714075653,"current_range_meters":4800,"station_id":"ce4bhs12rcd13ifvqhvg","pricing_plan_id":"cebpf4jnsgd1na2vs0mg"},{"bike_id":"f49a684d-610a-4500-a8c0-16dc58fc4d13","system_id":"levelo_inurba_marseille","lat":43.324771,"lon":5.36557,"is_reserved":false,"is_disabled":false,"rental_uris":{"android":"levelo://app?vid=f49a684d-610a-4500-a8c0-16dc58fc4d13","ios":"levelo://app?vid=f49a684d-610a-4500-a8c0-16dc58fc4d13"},"vehicle_type_id":"4","last_reported":1714075653,"current_range_meters":12800,"station_id":"ce4bhs12rcd13ifvqhvg","pricing_plan_id":"cebpf4jnsgd1na2vs0mg"},{"bike_id":"e7467c82-0d42-4813-a3e5-8b0fe2f5bd7b","system_id":"levelo_inurba_marseille","lat":43.324771,"lon":5.36557,"is_reserved":false,"is_disabled":false,"rental_uris":{"android":"levelo://app?vid=e7467c82-0d42-4813-a3e5-8b0fe2f5bd7b","ios":"levelo://app?vid=e7467c82-0d42-4813-a3e5-8b0fe2f5bd7b"},"vehicle_type_id":"4","last_reported":1714075653,"current_range_meters":20800,"station_id":"ce4bhs12rcd13ifvqhvg","pricing_plan_id":"cebpf4jnsgd1na2vs0mg"},{"bike_id":"ca4ca187-799d-46f4-a1d1-32619e2f58ca","system_id":"levelo_inurba_marseille","lat":43.324771,"lon":5.36557,"is_reserved":false,"is_disabled":false,"rental_uris":{"android":"levelo://app?vid=ca4ca187-799d-46f4-a1d1-32619e2f58ca","ios":"levelo://app?vid=ca4ca187-799d-46f4-a1d1-32619e2f58ca"},"vehicle_type_id":"4","last_reported":1714075653,"current_range_meters":28800,"station_id":"ce4bhs12rcd13ifvqhvg","pricing_plan_id":"cebpf4jnsgd1na2vs0mg"},{"bike_id":"375b50fc-ac68-40dd-ad99-add96c82b6e9","system_id":"levelo_inurba_marseille","lat":43.324771,"lon":5.36557,"is_reserved":false,"is_disabled":false,"rental_uris":{"android":"levelo://app?vid=375b50fc-ac68-40dd-ad99-add96c82b6e9","ios":"levelo://app?vid=375b50fc-ac68-40dd-ad99-add96c82b6e9"},"vehicle_type_id":"4","last_reported":1714075653,"current_range_meters":6000,"station_id":"ce4bhs12rcd13ifvqhvg","pricing_plan_id":"cebpf4jnsgd1na2vs0mg"},{"bike_id":"d46c7698-787b-42d7-aca4-58e471af82c1","system_id":"levelo_inurba_marseille","lat":43.324771,"lon":5.36557,"is_reserved":false,"is_disabled":false,"rental_uris":{"android":"levelo://app?vid=d46c7698-787b-42d7-aca4-58e471af82c1","ios":"levelo://app?vid=d46c7698-787b-42d7-aca4-58e471af82c1"},"vehicle_type_id":"4","last_reported":1714075653,"current_range_meters":22800,"station_id":"ce4bhs12rcd13ifvqhvg","pricing_plan_id":"cebpf4jnsgd1na2vs0mg"},{"bike_id":"a3ddf27e-d8a4-4bfe-9231-bd3d4affe388","system_id":"levelo_inurba_marseille","lat":43.324771,"lon":5.36557,"is_reserved":false,"is_disabled":false,"rental_uris":{"android":"levelo://app?vid=a3ddf27e-d8a4-4bfe-9231-bd3d4affe388","ios":"levelo://app?vid=a3ddf27e-d8a4-4bfe-9231-bd3d4affe388"},"vehicle_type_id":"4","last_reported":1714075653,"current_range_meters":23600,"station_id":"ce4bhs12rcd13ifvqhvg","pricing_plan_id":"cebpf4jnsgd1na2vs0mg"},{"bike_id":"48791681-48d0-4948-be97-7a720fbe1e98","system_id":"levelo_inurba_marseille","lat":43.324771,"lon":5.36557,"is_reserved":false,"is_disabled":false,"rental_uris":{"android":"levelo://app?vid=48791681-48d0-4948-be97-7a720fbe1e98","ios":"levelo://app?vid=48791681-48d0-4948-be97-7a720fbe1e98"},"vehicle_type_id":"4","last_reported":1714075653,"current_range_meters":28400,"station_id":"ce4bhs12rcd13ifvqhvg","pricing_plan_id":"cebpf4jnsgd1na2vs0mg"},{"bike_id":"516e5cf7-9fd5-499c-ac13-c35246d1c116","system_id":"levelo_inurba_marseille","lat":43.324771,"lon":5.36557,"is_reserved":false,"is_disabled":false,"rental_uris":{"android":"levelo://app?vid=516e5cf7-9fd5-499c-ac13-c35246d1c116","ios":"levelo://app?vid=516e5cf7-9fd5-499c-ac13-c35246d1c116"},"vehicle_type_id":"4","last_reported":1714075653,"current_range_meters":10000,"station_id":"ce4bhs12rcd13ifvqhvg","pricing_plan_id":"cebpf4jnsgd1na2vs0mg"},{"bike_id":"40b666b2-30b2-4933-aaa5-d61dd1849f20","system_id":"levelo_inurba_marseille","lat":43.324771,"lon":5.36557,"is_reserved":false,"is_disabled":false,"rental_uris":{"android":"levelo://app?vid=40b666b2-30b2-4933-aaa5-d61dd1849f20","ios":"levelo://app?vid=40b666b2-30b2-4933-aaa5-d61dd1849f20"},"vehicle_type_id":"4","last_reported":1714075653,"current_range_meters":28800,"station_id":"ce4bhs12rcd13ifvqhvg","pricing_plan_id":"cebpf4jnsgd1na2vs0mg"},{"bike_id":"a8486839-3750-48ba-9549-14aa0e6b7c39","system_id":"levelo_inurba_marseille","lat":43.31078,"lon":5.38351,"is_reserved":false,"is_disabled":false,"rental_uris":{"android":"levelo://app?vid=a8486839-3750-48ba-9549-14aa0e6b7c39","ios":"levelo://app?vid=a8486839-3750-48ba-9549-14aa0e6b7c39"},"vehicle_type_id":"4","last_reported":1714075653,"current_range_meters":6000,"station_id":"ce4bgv92rcd13ifvqcr0","pricing_plan_id":"cebpf4jnsgd1na2vs0mg"},{"bike_id":"3b7b3feb-09b9-44bc-9646-c820c5dd160f","system_id":"levelo_inurba_marseille","lat":43.31074,"lon":5.38351,"is_reserved":false,"is_disabled":false,"rental_uris":{"android":"levelo://app?vid=3b7b3feb-09b9-44bc-9646-c820c5dd160f","ios":"levelo://app?vid=3b7b3feb-09b9-44bc-9646-c820c5dd160f"},"vehicle_type_id":"4","last_reported":1714075653,"current_range_meters":3200,"station_id":"ce4bgv92rcd13ifvqcr0","pricing_plan_id":"cebpf4jnsgd1na2vs0mg"},{"bike_id":"1150561a-f7d3-4014-9a17-5e7bf778604e","system_id":"levelo_inurba_marseille","lat":43.296935,"lon":5.376544,"is_reserved":false,"is_disabled":false,"rental_uris":{"android":"levelo://app?vid=1150561a-f7d3-4014-9a17-5e7bf778604e","ios":"levelo://app?vid=1150561a-f7d3-4014-9a17-5e7bf778604e"},"vehicle_type_id":"4","last_reported":1714075653,"current_range_meters":17200,"station_id":"ce4bgkh2rcd13ifvqbl0","pricing_plan_id":"cebpf4jnsgd1na2vs0mg"},{"bike_id":"e32e3623-424f-442a-baff-7c1fda8f3a64","system_id":"levelo_inurba_marseille","lat":43.31077,"lon":5.38358,"is_reserved":false,"is_disabled":false,"rental_uris":{"android":"levelo://app?vid=e32e3623-424f-442a-baff-7c1fda8f3a64","ios":"levelo://app?vid=e32e3623-424f-442a-baff-7c1fda8f3a64"},"vehicle_type_id":"4","last_reported":1714075653,"current_range_meters":31200,"station_id":"ce4bgv92rcd13ifvqcr0","pricing_plan_id":"cebpf4jnsgd1na2vs0mg"},{"bike_id":"5e5ea6c3-0dc7-4e84-8ad5-d8f4cdaffbb9","system_id":"levelo_inurba_marseille","lat":43.284462,"lon":5.392121,"is_reserved":false,"is_disabled":false,"rental_uris":{"android":"levelo://app?vid=5e5ea6c3-0dc7-4e84-8ad5-d8f4cdaffbb9","ios":"levelo://app?vid=5e5ea6c3-0dc7-4e84-8ad5-d8f4cdaffbb9"},"vehicle_type_id":"4","last_reported":1714075653,"current_range_meters":19200,"station_id":"ce4bhoh2rcd13ifvqh5g","pricing_plan_id":"cebpf4jnsgd1na2vs0mg"},{"bike_id":"49587430-d4a1-4231-85c4-9af5f0e154c2","system_id":"levelo_inurba_marseille","lat":43.302784,"lon":5.377158,"is_reserved":false,"is_disabled":false,"rental_uris":{"android":"levelo://app?vid=49587430-d4a1-4231-85c4-9af5f0e154c2","ios":"levelo://app?vid=49587430-d4a1-4231-85c4-9af5f0e154c2"},"vehicle_type_id":"4","last_reported":1714075653,"current_range_meters":0,"station_id":"ce4bguh2rcd13ifvqcj0","pricing_plan_id":"cebpf4jnsgd1na2vs0mg"},{"bike_id":"371ce480-326a-4569-8e56-9687cd2cf1f7","system_id":"levelo_inurba_marseille","lat":43.310804,"lon":5.38359,"is_reserved":false,"is_disabled":false,"rental_uris":{"android":"levelo://app?vid=371ce480-326a-4569-8e56-9687cd2cf1f7","ios":"levelo://app?vid=371ce480-326a-4569-8e56-9687cd2cf1f7"},"vehicle_type_id":"4","last_reported":1714075653,"current_range_meters":2800,"station_id":"ce4bgv92rcd13ifvqcr0","pricing_plan_id":"cebpf4jnsgd1na2vs0mg"},{"bike_id":"3139c589-f827-4c7d-8b51-78be3643ed27","system_id":"levelo_inurba_marseille","lat":43.30143,"lon":5.37413,"is_reserved":false,"is_disabled":false,"rental_uris":{"android":"levelo://app?vid=3139c589-f827-4c7d-8b51-78be3643ed27","ios":"levelo://app?vid=3139c589-f827-4c7d-8b51-78be3643ed27"},"vehicle_type_id":"4","last_reported":1714075653,"current_range_meters":22400,"station_id":"ce4bgs92rcd13ifvqcc0","pricing_plan_id":"cebpf4jnsgd1na2vs0mg"},{"bike_id":"c392d2a5-7b30-4977-9da0-86522e68a790","system_id":"levelo_inurba_marseille","lat":43.319935,"lon":5.381699,"is_reserved":false,"is_disabled":false,"rental_uris":{"android":"levelo://app?vid=c392d2a5-7b30-4977-9da0-86522e68a790","ios":"levelo://app?vid=c392d2a5-7b30-4977-9da0-86522e68a790"},"vehicle_type_id":"4","last_reported":1714075653,"current_range_meters":9600,"station_id":"ce4bhr12rcd13ifvqhpg","pricing_plan_id":"cebpf4jnsgd1na2vs0mg"},{"bike_id":"81f9b193-22d1-4841-88a9-1e6859aeb76b","system_id":"levelo_inurba_marseille","lat":43.319935,"lon":5.381699,"is_reserved":false,"is_disabled":false,"rental_uris":{"android":"levelo://app?vid=81f9b193-22d1-4841-88a9-1e6859aeb76b","ios":"levelo://app?vid=81f9b193-22d1-4841-88a9-1e6859aeb76b"},"vehicle_type_id":"4","last_reported":1714075653,"current_range_meters":21600,"station_id":"ce4bhr12rcd13ifvqhpg","pricing_plan_id":"cebpf4jnsgd1na2vs0mg"},{"bike_id":"d1af2310-1fd6-426a-8f0c-3d68394b8083","system_id":"levelo_inurba_marseille","lat":43.290336,"lon":5.386425,"is_reserved":false,"is_disabled":false,"rental_uris":{"android":"levelo://app?vid=d1af2310-1fd6-426a-8f0c-3d68394b8083","ios":"levelo://app?vid=d1af2310-1fd6-426a-8f0c-3d68394b8083"},"vehicle_type_id":"4","last_reported":1714075653,"current_range_meters":11600,"station_id":"ce4bh4p2rcd13ifvqe0g","pricing_plan_id":"cebpf4jnsgd1na2vs0mg"},{"bike_id":"d53eae9e-b044-41e3-99af-51b5321e4cc8","system_id":"levelo_inurba_marseille","lat":43.313571,"lon":5.384829,"is_reserved":false,"is_disabled":false,"rental_uris":{"android":"levelo://app?vid=d53eae9e-b044-41e3-99af-51b5321e4cc8","ios":"levelo://app?vid=d53eae9e-b044-41e3-99af-51b5321e4cc8"},"vehicle_type_id":"4","last_reported":1714075653,"current_range_meters":2800,"station_id":"ce4bgt92rcd13ifvqcf0","pricing_plan_id":"cebpf4jnsgd1na2vs0mg"},{"bike_id":"488c5e75-2b06-45c3-9e10-ff61d00eb31e","system_id":"levelo_inurba_marseille","lat":43.31356,"lon":5.38498,"is_reserved":false,"is_disabled":false,"rental_uris":{"android":"levelo://app?vid=488c5e75-2b06-45c3-9e10-ff61d00eb31e","ios":"levelo://app?vid=488c5e75-2b06-45c3-9e10-ff61d00eb31e"},"vehicle_type_id":"4","last_reported":1714075653,"current_range_meters":2000,"station_id":"ce4bgt92rcd13ifvqcf0","pricing_plan_id":"cebpf4jnsgd1na2vs0mg"},{"bike_id":"28e9be2b-9116-4ba3-a9f3-cf4df92a5ac1","system_id":"levelo_inurba_marseille","lat":43.313571,"lon":5.384829,"is_reserved":false,"is_disabled":false,"rental_uris":{"android":"levelo://app?vid=28e9be2b-9116-4ba3-a9f3-cf4df92a5ac1","ios":"levelo://app?vid=28e9be2b-9116-4ba3-a9f3-cf4df92a5ac1"},"vehicle_type_id":"4","last_reported":1714075653,"current_range_meters":3600,"station_id":"ce4bgt92rcd13ifvqcf0","pricing_plan_id":"cebpf4jnsgd1na2vs0mg"},{"bike_id":"dcebdfa2-bedd-4e4d-b09a-3e7b772166bc","system_id":"levelo_inurba_marseille","lat":43.299222,"lon":5.365554,"is_reserved":false,"is_disabled":false,"rental_uris":{"android":"levelo://app?vid=dcebdfa2-bedd-4e4d-b09a-3e7b772166bc","ios":"levelo://app?vid=dcebdfa2-bedd-4e4d-b09a-3e7b772166bc"},"vehicle_type_id":"4","last_reported":1714075653,"current_range_meters":6800,"station_id":"ce4bgm92rcd13ifvqbr0","pricing_plan_id":"cebpf4jnsgd1na2vs0mg"},{"bike_id":"9932a42c-7b11-42d4-9655-933ca8b493fc","system_id":"levelo_inurba_marseille","lat":43.29978,"lon":5.37174,"is_reserved":false,"is_disabled":false,"rental_uris":{"android":"levelo://app?vid=9932a42c-7b11-42d4-9655-933ca8b493fc","ios":"levelo://app?vid=9932a42c-7b11-42d4-9655-933ca8b493fc"},"vehicle_type_id":"4","last_reported":1714075653,"current_range_meters":13600,"station_id":"ce4bgr92rcd13ifvqc7g","pricing_plan_id":"cebpf4jnsgd1na2vs0mg"},{"bike_id":"611b25c5-36d8-45f8-86e7-2cfbfef14812","system_id":"levelo_inurba_marseille","lat":43.2995,"lon":5.37359,"is_reserved":false,"is_disabled":false,"rental_uris":{"android":"levelo://app?vid=611b25c5-36d8-45f8-86e7-2cfbfef14812","ios":"levelo://app?vid=611b25c5-36d8-45f8-86e7-2cfbfef14812"},"vehicle_type_id":"4","last_reported":1714075653,"current_range_meters":20000,"station_id":"","pricing_plan_id":"cebpf4jnsgd1na2vs0mg"},{"bike_id":"2564fea9-7739-447e-811b-a3c76df092fa","system_id":"levelo_inurba_marseille","lat":43.305353,"lon":5.384293,"is_reserved":false,"is_disabled":false,"rental_uris":{"android":"levelo://app?vid=2564fea9-7739-447e-811b-a3c76df092fa","ios":"levelo://app?vid=2564fea9-7739-447e-811b-a3c76df092fa"},"vehicle_type_id":"4","last_reported":1714075653,"current_range_meters":0,"station_id":"ce4bgg92rcd13ifvqb30","pricing_plan_id":"cebpf4jnsgd1na2vs0mg"},{"bike_id":"58166dda-a050-46df-b19f-e82a66a32f61","system_id":"levelo_inurba_marseille","lat":43.29842,"lon":5.36271,"is_reserved":false,"is_disabled":false,"rental_uris":{"android":"levelo://app?vid=58166dda-a050-46df-b19f-e82a66a32f61","ios":"levelo://app?vid=58166dda-a050-46df-b19f-e82a66a32f61"},"vehicle_type_id":"4","last_reported":1714075653,"current_range_meters":0,"station_id":"ce4bgpp2rcd13ifvqc3g","pricing_plan_id":"cebpf4jnsgd1na2vs0mg"},{"bike_id":"9c182342-6da1-49bc-8e1d-a2047ab01ff2","system_id":"levelo_inurba_marseille","lat":43.311722,"lon":5.387247,"is_reserved":false,"is_disabled":false,"rental_uris":{"android":"levelo://app?vid=9c182342-6da1-49bc-8e1d-a2047ab01ff2","ios":"levelo://app?vid=9c182342-6da1-49bc-8e1d-a2047ab01ff2"},"vehicle_type_id":"4","last_reported":1714075653,"current_range_meters":14800,"station_id":"ce4bgv12rcd13ifvqcp0","pricing_plan_id":"cebpf4jnsgd1na2vs0mg"},{"bike_id":"67a385e5-1ef9-4656-a06c-ad6b30169780","system_id":"levelo_inurba_marseille","lat":43.311716,"lon":5.387123,"is_reserved":false,"is_disabled":false,"rental_uris":{"android":"levelo://app?vid=67a385e5-1ef9-4656-a06c-ad6b30169780","ios":"levelo://app?vid=67a385e5-1ef9-4656-a06c-ad6b30169780"},"vehicle_type_id":"4","last_reported":1714075653,"current_range_meters":0,"station_id":"ce4bgv12rcd13ifvqcp0","pricing_plan_id":"cebpf4jnsgd1na2vs0mg"},{"bike_id":"45559035-6c24-4da3-a00f-2c6da08f30ec","system_id":"levelo_inurba_marseille","lat":43.31185,"lon":5.38716,"is_reserved":false,"is_disabled":false,"rental_uris":{"android":"levelo://app?vid=45559035-6c24-4da3-a00f-2c6da08f30ec","ios":"levelo://app?vid=45559035-6c24-4da3-a00f-2c6da08f30ec"},"vehicle_type_id":"4","last_reported":1714075653,"current_range_meters":0,"station_id":"ce4bgv12rcd13ifvqcp0","pricing_plan_id":"cebpf4jnsgd1na2vs0mg"},{"bike_id":"a91c2454-fa7c-4d54-95f3-4cb5ffa34c8f","system_id":"levelo_inurba_marseille","lat":43.311722,"lon":5.387247,"is_reserved":false,"is_disabled":false,"rental_uris":{"android":"levelo://app?vid=a91c2454-fa7c-4d54-95f3-4cb5ffa34c8f","ios":"levelo://app?vid=a91c2454-fa7c-4d54-95f3-4cb5ffa34c8f"},"vehicle_type_id":"4","last_reported":1714075653,"current_range_meters":14000,"station_id":"ce4bgv12rcd13ifvqcp0","pricing_plan_id":"cebpf4jnsgd1na2vs0mg"},{"bike_id":"f106f566-e6f9-4bad-b2be-45bc196a2864","system_id":"levelo_inurba_marseille","lat":43.29887,"lon":5.37521,"is_reserved":false,"is_disabled":false,"rental_uris":{"android":"levelo://app?vid=f106f566-e6f9-4bad-b2be-45bc196a2864","ios":"levelo://app?vid=f106f566-e6f9-4bad-b2be-45bc196a2864"},"vehicle_type_id":"4","last_reported":1714075653,"current_range_meters":16000,"station_id":"","pricing_plan_id":"cebpf4jnsgd1na2vs0mg"},{"bike_id":"410697d6-fc58-4df2-9c31-7c06563290f9","system_id":"levelo_inurba_marseille","lat":43.297794,"lon":5.370888,"is_reserved":false,"is_disabled":false,"rental_uris":{"android":"levelo://app?vid=410697d6-fc58-4df2-9c31-7c06563290f9","ios":"levelo://app?vid=410697d6-fc58-4df2-9c31-7c06563290f9"},"vehicle_type_id":"4","last_reported":1714075653,"current_range_meters":7600,"station_id":"ce4bgop2rcd13ifvqc1g","pricing_plan_id":"cebpf4jnsgd1na2vs0mg"},{"bike_id":"53f1b87e-8eac-41c2-ad76-f19fa21971b2","system_id":"levelo_inurba_marseille","lat":43.301536,"lon":5.381093,"is_reserved":false,"is_disabled":false,"rental_uris":{"android":"levelo://app?vid=53f1b87e-8eac-41c2-ad76-f19fa21971b2","ios":"levelo://app?vid=53f1b87e-8eac-41c2-ad76-f19fa21971b2"},"vehicle_type_id":"4","last_reported":1714075653,"current_range_meters":10400,"station_id":"","pricing_plan_id":"cebpf4jnsgd1na2vs0mg"},{"bike_id":"a8e2ca69-f699-47f0-8ae7-ac0a3630abe3","system_id":"levelo_inurba_marseille","lat":43.322872,"lon":5.382756,"is_reserved":false,"is_disabled":false,"rental_uris":{"android":"levelo://app?vid=a8e2ca69-f699-47f0-8ae7-ac0a3630abe3","ios":"levelo://app?vid=a8e2ca69-f699-47f0-8ae7-ac0a3630abe3"},"vehicle_type_id":"4","last_reported":1714075653,"current_range_meters":12000,"station_id":"ce4bhr12rcd13ifvqhqg","pricing_plan_id":"cebpf4jnsgd1na2vs0mg"},{"bike_id":"688ab85f-66af-4457-9211-0ffbe19bfef2","system_id":"levelo_inurba_marseille","lat":43.322872,"lon":5.382756,"is_reserved":false,"is_disabled":false,"rental_uris":{"android":"levelo://app?vid=688ab85f-66af-4457-9211-0ffbe19bfef2","ios":"levelo://app?vid=688ab85f-66af-4457-9211-0ffbe19bfef2"},"vehicle_type_id":"4","last_reported":1714075653,"current_range_meters":800,"station_id":"ce4bhr12rcd13ifvqhqg","pricing_plan_id":"cebpf4jnsgd1na2vs0mg"},{"bike_id":"3a030d44-086f-4717-80c1-f39d4835fb23","system_id":"levelo_inurba_marseille","lat":43.322872,"lon":5.382756,"is_reserved":false,"is_disabled":false,"rental_uris":{"android":"levelo://app?vid=3a030d44-086f-4717-80c1-f39d4835fb23","ios":"levelo://app?vid=3a030d44-086f-4717-80c1-f39d4835fb23"},"vehicle_type_id":"4","last_reported":1714075653,"current_range_meters":2400,"station_id":"ce4bhr12rcd13ifvqhqg","pricing_plan_id":"cebpf4jnsgd1na2vs0mg"},{"bike_id":"e47fb431-2897-499a-958a-373a9ab19ebb","system_id":"levelo_inurba_marseille","lat":43.322872,"lon":5.382756,"is_reserved":false,"is_disabled":false,"rental_uris":{"android":"levelo://app?vid=e47fb431-2897-499a-958a-373a9ab19ebb","ios":"levelo://app?vid=e47fb431-2897-499a-958a-373a9ab19ebb"},"vehicle_type_id":"4","last_reported":1714075653,"current_range_meters":5600,"station_id":"ce4bhr12rcd13ifvqhqg","pricing_plan_id":"cebpf4jnsgd1na2vs0mg"},{"bike_id":"b1fba622-dd6c-4ee5-b1ca-a89c50289df3","system_id":"levelo_inurba_marseille","lat":43.322872,"lon":5.382756,"is_reserved":false,"is_disabled":false,"rental_uris":{"android":"levelo://app?vid=b1fba622-dd6c-4ee5-b1ca-a89c50289df3","ios":"levelo://app?vid=b1fba622-dd6c-4ee5-b1ca-a89c50289df3"},"vehicle_type_id":"4","last_reported":1714075653,"current_range_meters":4800,"station_id":"ce4bhr12rcd13ifvqhqg","pricing_plan_id":"cebpf4jnsgd1na2vs0mg"},{"bike_id":"af01b064-90cb-45ce-ba16-abcd8fc35ded","system_id":"levelo_inurba_marseille","lat":43.322872,"lon":5.382756,"is_reserved":false,"is_disabled":false,"rental_uris":{"android":"levelo://app?vid=af01b064-90cb-45ce-ba16-abcd8fc35ded","ios":"levelo://app?vid=af01b064-90cb-45ce-ba16-abcd8fc35ded"},"vehicle_type_id":"4","last_reported":1714075653,"current_range_meters":20000,"station_id":"ce4bhr12rcd13ifvqhqg","pricing_plan_id":"cebpf4jnsgd1na2vs0mg"},{"bike_id":"71e3a9f2-64e7-4850-ab91-0ecc8e71cbb2","system_id":"levelo_inurba_marseille","lat":43.322872,"lon":5.382756,"is_reserved":false,"is_disabled":false,"rental_uris":{"android":"levelo://app?vid=71e3a9f2-64e7-4850-ab91-0ecc8e71cbb2","ios":"levelo://app?vid=71e3a9f2-64e7-4850-ab91-0ecc8e71cbb2"},"vehicle_type_id":"4","last_reported":1714075653,"current_range_meters":22800,"station_id":"ce4bhr12rcd13ifvqhqg","pricing_plan_id":"cebpf4jnsgd1na2vs0mg"},{"bike_id":"8b506ba7-9169-46bf-b217-6300b8bf2f5a","system_id":"levelo_inurba_marseille","lat":43.322872,"lon":5.382756,"is_reserved":false,"is_disabled":false,"rental_uris":{"android":"levelo://app?vid=8b506ba7-9169-46bf-b217-6300b8bf2f5a","ios":"levelo://app?vid=8b506ba7-9169-46bf-b217-6300b8bf2f5a"},"vehicle_type_id":"4","last_reported":1714075653,"current_range_meters":31200,"station_id":"ce4bhr12rcd13ifvqhqg","pricing_plan_id":"cebpf4jnsgd1na2vs0mg"},{"bike_id":"19b1322d-078d-42b4-8e35-303febda0b31","system_id":"levelo_inurba_marseille","lat":43.297163,"lon":5.365866,"is_reserved":false,"is_disabled":false,"rental_uris":{"android":"levelo://app?vid=19b1322d-078d-42b4-8e35-303febda0b31","ios":"levelo://app?vid=19b1322d-078d-42b4-8e35-303febda0b31"},"vehicle_type_id":"4","last_reported":1714075653,"current_range_meters":31200,"station_id":"ce4bgn12rcd13ifvqbt0","pricing_plan_id":"cebpf4jnsgd1na2vs0mg"},{"bike_id":"b8e0340d-f345-4f56-9ef0-5553ba51b72a","system_id":"levelo_inurba_marseille","lat":43.297163,"lon":5.365866,"is_reserved":false,"is_disabled":false,"rental_uris":{"android":"levelo://app?vid=b8e0340d-f345-4f56-9ef0-5553ba51b72a","ios":"levelo://app?vid=b8e0340d-f345-4f56-9ef0-5553ba51b72a"},"vehicle_type_id":"4","last_reported":1714075653,"current_range_meters":31200,"station_id":"ce4bgn12rcd13ifvqbt0","pricing_plan_id":"cebpf4jnsgd1na2vs0mg"},{"bike_id":"b8c81409-c793-488a-be9c-5783bd9478b1","system_id":"levelo_inurba_marseille","lat":43.29709,"lon":5.3661,"is_reserved":false,"is_disabled":false,"rental_uris":{"android":"levelo://app?vid=b8c81409-c793-488a-be9c-5783bd9478b1","ios":"levelo://app?vid=b8c81409-c793-488a-be9c-5783bd9478b1"},"vehicle_type_id":"4","last_reported":1714075653,"current_range_meters":0,"station_id":"ce4bgn12rcd13ifvqbt0","pricing_plan_id":"cebpf4jnsgd1na2vs0mg"},{"bike_id":"ad8127a9-2012-44eb-ae95-ab14116e4d01","system_id":"levelo_inurba_marseille","lat":43.2968,"lon":5.37291,"is_reserved":false,"is_disabled":false,"rental_uris":{"android":"levelo://app?vid=ad8127a9-2012-44eb-ae95-ab14116e4d01","ios":"levelo://app?vid=ad8127a9-2012-44eb-ae95-ab14116e4d01"},"vehicle_type_id":"4","last_reported":1714075653,"current_range_meters":21200,"station_id":"ce4bgk12rcd13ifvqbj0","pricing_plan_id":"cebpf4jnsgd1na2vs0mg"},{"bike_id":"22ee16ca-a245-4dc1-ad8a-db06da73955c","system_id":"levelo_inurba_marseille","lat":43.29599,"lon":5.36902,"is_reserved":false,"is_disabled":false,"rental_uris":{"android":"levelo://app?vid=22ee16ca-a245-4dc1-ad8a-db06da73955c","ios":"levelo://app?vid=22ee16ca-a245-4dc1-ad8a-db06da73955c"},"vehicle_type_id":"4","last_reported":1714075653,"current_range_meters":2000,"station_id":"","pricing_plan_id":"cebpf4jnsgd1na2vs0mg"},{"bike_id":"a9cddbcf-49b6-462d-bb9f-d68d503698c1","system_id":"levelo_inurba_marseille","lat":43.296129,"lon":5.370777,"is_reserved":false,"is_disabled":false,"rental_uris":{"android":"levelo://app?vid=a9cddbcf-49b6-462d-bb9f-d68d503698c1","ios":"levelo://app?vid=a9cddbcf-49b6-462d-bb9f-d68d503698c1"},"vehicle_type_id":"4","last_reported":1714075653,"current_range_meters":3600,"station_id":"ce4bgnh2rcd13ifvqc0g","pricing_plan_id":"cebpf4jnsgd1na2vs0mg"},{"bike_id":"cbe4f6d4-104b-4eca-9a91-739ae3826e31","system_id":"levelo_inurba_marseille","lat":43.296129,"lon":5.370777,"is_reserved":false,"is_disabled":false,"rental_uris":{"android":"levelo://app?vid=cbe4f6d4-104b-4eca-9a91-739ae3826e31","ios":"levelo://app?vid=cbe4f6d4-104b-4eca-9a91-739ae3826e31"},"vehicle_type_id":"4","last_reported":1714075653,"current_range_meters":24400,"station_id":"ce4bgnh2rcd13ifvqc0g","pricing_plan_id":"cebpf4jnsgd1na2vs0mg"},{"bike_id":"4dcd46f0-cc02-4470-a997-6834a1ea6723","system_id":"levelo_inurba_marseille","lat":43.296129,"lon":5.370777,"is_reserved":false,"is_disabled":false,"rental_uris":{"android":"levelo://app?vid=4dcd46f0-cc02-4470-a997-6834a1ea6723","ios":"levelo://app?vid=4dcd46f0-cc02-4470-a997-6834a1ea6723"},"vehicle_type_id":"4","last_reported":1714075653,"current_range_meters":31600,"station_id":"ce4bgnh2rcd13ifvqc0g","pricing_plan_id":"cebpf4jnsgd1na2vs0mg"},{"bike_id":"653edb9d-ce9a-433d-9403-f9eff8398017","system_id":"levelo_inurba_marseille","lat":43.2958,"lon":5.36766,"is_reserved":false,"is_disabled":false,"rental_uris":{"android":"levelo://app?vid=653edb9d-ce9a-433d-9403-f9eff8398017","ios":"levelo://app?vid=653edb9d-ce9a-433d-9403-f9eff8398017"},"vehicle_type_id":"4","last_reported":1714075653,"current_range_meters":2800,"station_id":"ce4bgph2rcd13ifvqc2g","pricing_plan_id":"cebpf4jnsgd1na2vs0mg"},{"bike_id":"3659fb7e-f92a-4bf1-b4fb-699654d4c455","system_id":"levelo_inurba_marseille","lat":43.296921,"lon":5.376579,"is_reserved":false,"is_disabled":false,"rental_uris":{"android":"levelo://app?vid=3659fb7e-f92a-4bf1-b4fb-699654d4c455","ios":"levelo://app?vid=3659fb7e-f92a-4bf1-b4fb-699654d4c455"},"vehicle_type_id":"4","last_reported":1714075653,"current_range_meters":26000,"station_id":"ce4bgkh2rcd13ifvqbl0","pricing_plan_id":"cebpf4jnsgd1na2vs0mg"},{"bike_id":"cabbdbad-2fdd-411e-917b-dc6fd06d5904","system_id":"levelo_inurba_marseille","lat":43.299028,"lon":5.381509,"is_reserved":false,"is_disabled":false,"rental_uris":{"android":"levelo://app?vid=cabbdbad-2fdd-411e-917b-dc6fd06d5904","ios":"levelo://app?vid=cabbdbad-2fdd-411e-917b-dc6fd06d5904"},"vehicle_type_id":"4","last_reported":1714075653,"current_range_meters":10000,"station_id":"ce4bgj12rcd13ifvqbc0","pricing_plan_id":"cebpf4jnsgd1na2vs0mg"},{"bike_id":"7040fc7c-e631-40d3-8f83-fd751fd33185","system_id":"levelo_inurba_marseille","lat":43.299028,"lon":5.381509,"is_reserved":false,"is_disabled":false,"rental_uris":{"android":"levelo://app?vid=7040fc7c-e631-40d3-8f83-fd751fd33185","ios":"levelo://app?vid=7040fc7c-e631-40d3-8f83-fd751fd33185"},"vehicle_type_id":"4","last_reported":1714075653,"current_range_meters":18000,"station_id":"ce4bgj12rcd13ifvqbc0","pricing_plan_id":"cebpf4jnsgd1na2vs0mg"},{"bike_id":"89171fcd-08bc-4f9a-9b2e-712fd044b03e","system_id":"levelo_inurba_marseille","lat":43.299028,"lon":5.381509,"is_reserved":false,"is_disabled":false,"rental_uris":{"android":"levelo://app?vid=89171fcd-08bc-4f9a-9b2e-712fd044b03e","ios":"levelo://app?vid=89171fcd-08bc-4f9a-9b2e-712fd044b03e"},"vehicle_type_id":"4","last_reported":1714075653,"current_range_meters":1600,"station_id":"ce4bgj12rcd13ifvqbc0","pricing_plan_id":"cebpf4jnsgd1na2vs0mg"},{"bike_id":"6168f8aa-62c2-4c8e-b7ed-45015c9dbe3e","system_id":"levelo_inurba_marseille","lat":43.296935,"lon":5.376544,"is_reserved":false,"is_disabled":false,"rental_uris":{"android":"levelo://app?vid=6168f8aa-62c2-4c8e-b7ed-45015c9dbe3e","ios":"levelo://app?vid=6168f8aa-62c2-4c8e-b7ed-45015c9dbe3e"},"vehicle_type_id":"4","last_reported":1714075653,"current_range_meters":6400,"station_id":"ce4bgkh2rcd13ifvqbl0","pricing_plan_id":"cebpf4jnsgd1na2vs0mg"},{"bike_id":"7be8c0a7-3629-4d5b-a48b-bef4b25ce70f","system_id":"levelo_inurba_marseille","lat":43.309523,"lon":5.390223,"is_reserved":false,"is_disabled":false,"rental_uris":{"android":"levelo://app?vid=7be8c0a7-3629-4d5b-a48b-bef4b25ce70f","ios":"levelo://app?vid=7be8c0a7-3629-4d5b-a48b-bef4b25ce70f"},"vehicle_type_id":"4","last_reported":1714075653,"current_range_meters":0,"station_id":"ce4bgup2rcd13ifvqco0","pricing_plan_id":"cebpf4jnsgd1na2vs0mg"},{"bike_id":"90aeb1a1-f984-46f9-9a17-13f815b9aaa3","system_id":"levelo_inurba_marseille","lat":43.299028,"lon":5.381509,"is_reserved":false,"is_disabled":false,"rental_uris":{"android":"levelo://app?vid=90aeb1a1-f984-46f9-9a17-13f815b9aaa3","ios":"levelo://app?vid=90aeb1a1-f984-46f9-9a17-13f815b9aaa3"},"vehicle_type_id":"4","last_reported":1714075653,"current_range_meters":14400,"station_id":"ce4bgj12rcd13ifvqbc0","pricing_plan_id":"cebpf4jnsgd1na2vs0mg"},{"bike_id":"26e42a3e-1b42-4f16-89a3-515a872aee90","system_id":"levelo_inurba_marseille","lat":43.298805,"lon":5.380971,"is_reserved":false,"is_disabled":false,"rental_uris":{"android":"levelo://app?vid=26e42a3e-1b42-4f16-89a3-515a872aee90","ios":"levelo://app?vid=26e42a3e-1b42-4f16-89a3-515a872aee90"},"vehicle_type_id":"4","last_reported":1714075653,"current_range_meters":4800,"station_id":"ce4bgj12rcd13ifvqbc0","pricing_plan_id":"cebpf4jnsgd1na2vs0mg"},{"bike_id":"90b67dae-e253-4319-adbd-acbe751e5caa","system_id":"levelo_inurba_marseille","lat":43.309589,"lon":5.390258,"is_reserved":false,"is_disabled":false,"rental_uris":{"android":"levelo://app?vid=90b67dae-e253-4319-adbd-acbe751e5caa","ios":"levelo://app?vid=90b67dae-e253-4319-adbd-acbe751e5caa"},"vehicle_type_id":"4","last_reported":1714075653,"current_range_meters":27200,"station_id":"ce4bgup2rcd13ifvqco0","pricing_plan_id":"cebpf4jnsgd1na2vs0mg"},{"bike_id":"970d4232-3cf2-429c-98c7-21b022adf491","system_id":"levelo_inurba_marseille","lat":43.299028,"lon":5.381509,"is_reserved":false,"is_disabled":false,"rental_uris":{"android":"levelo://app?vid=970d4232-3cf2-429c-98c7-21b022adf491","ios":"levelo://app?vid=970d4232-3cf2-429c-98c7-21b022adf491"},"vehicle_type_id":"4","last_reported":1714075653,"current_range_meters":30800,"station_id":"ce4bgj12rcd13ifvqbc0","pricing_plan_id":"cebpf4jnsgd1na2vs0mg"},{"bike_id":"a69d67ea-97bc-4b3b-8cfa-c3211eb9f2cc","system_id":"levelo_inurba_marseille","lat":43.30943,"lon":5.3904,"is_reserved":false,"is_disabled":false,"rental_uris":{"android":"levelo://app?vid=a69d67ea-97bc-4b3b-8cfa-c3211eb9f2cc","ios":"levelo://app?vid=a69d67ea-97bc-4b3b-8cfa-c3211eb9f2cc"},"vehicle_type_id":"4","last_reported":1714075653,"current_range_meters":16400,"station_id":"ce4bgup2rcd13ifvqco0","pricing_plan_id":"cebpf4jnsgd1na2vs0mg"},{"bike_id":"063d4b4a-56b5-4514-9a22-7b0412f68886","system_id":"levelo_inurba_marseille","lat":43.30943,"lon":5.39044,"is_reserved":false,"is_disabled":false,"rental_uris":{"android":"levelo://app?vid=063d4b4a-56b5-4514-9a22-7b0412f68886","ios":"levelo://app?vid=063d4b4a-56b5-4514-9a22-7b0412f68886"},"vehicle_type_id":"4","last_reported":1714075653,"current_range_meters":2400,"station_id":"ce4bgup2rcd13ifvqco0","pricing_plan_id":"cebpf4jnsgd1na2vs0mg"},{"bike_id":"e5772f92-a855-4044-a45b-292cd2168d34","system_id":"levelo_inurba_marseille","lat":43.31759,"lon":5.39014,"is_reserved":false,"is_disabled":false,"rental_uris":{"android":"levelo://app?vid=e5772f92-a855-4044-a45b-292cd2168d34","ios":"levelo://app?vid=e5772f92-a855-4044-a45b-292cd2168d34"},"vehicle_type_id":"4","last_reported":1714075653,"current_range_meters":18400,"station_id":"ce4bhqp2rcd13ifvqhng","pricing_plan_id":"cebpf4jnsgd1na2vs0mg"},{"bike_id":"229ba8f4-4963-4720-9d90-b26ff56420a5","system_id":"levelo_inurba_marseille","lat":43.295748,"lon":5.37522,"is_reserved":false,"is_disabled":false,"rental_uris":{"android":"levelo://app?vid=229ba8f4-4963-4720-9d90-b26ff56420a5","ios":"levelo://app?vid=229ba8f4-4963-4720-9d90-b26ff56420a5"},"vehicle_type_id":"4","last_reported":1714075653,"current_range_meters":6400,"station_id":"ce4bgh92rcd13ifvqb50","pricing_plan_id":"cebpf4jnsgd1na2vs0mg"},{"bike_id":"08862012-2de3-499e-9563-64210ecbf73c","system_id":"levelo_inurba_marseille","lat":43.298037,"lon":5.381066,"is_reserved":false,"is_disabled":false,"rental_uris":{"android":"levelo://app?vid=08862012-2de3-499e-9563-64210ecbf73c","ios":"levelo://app?vid=08862012-2de3-499e-9563-64210ecbf73c"},"vehicle_type_id":"4","last_reported":1714075653,"current_range_meters":31200,"station_id":"ce4bgip2rcd13ifvqbb0","pricing_plan_id":"cebpf4jnsgd1na2vs0mg"},{"bike_id":"9841000e-9d4a-4070-9011-01a4abe3254b","system_id":"levelo_inurba_marseille","lat":43.29807,"lon":5.38106,"is_reserved":false,"is_disabled":false,"rental_uris":{"android":"levelo://app?vid=9841000e-9d4a-4070-9011-01a4abe3254b","ios":"levelo://app?vid=9841000e-9d4a-4070-9011-01a4abe3254b"},"vehicle_type_id":"4","last_reported":1714075653,"current_range_meters":12000,"station_id":"ce4bgip2rcd13ifvqbb0","pricing_plan_id":"cebpf4jnsgd1na2vs0mg"},{"bike_id":"d420e42a-f2d0-4059-922f-c41f5f0f07d6","system_id":"levelo_inurba_marseille","lat":43.2936,"lon":5.37835,"is_reserved":false,"is_disabled":false,"rental_uris":{"android":"levelo://app?vid=d420e42a-f2d0-4059-922f-c41f5f0f07d6","ios":"levelo://app?vid=d420e42a-f2d0-4059-922f-c41f5f0f07d6"},"vehicle_type_id":"4","last_reported":1714075653,"current_range_meters":24400,"station_id":"ce4bgjh2rcd13ifvqbf0","pricing_plan_id":"cebpf4jnsgd1na2vs0mg"},{"bike_id":"5d1f3bc1-568a-4396-b8d5-03dea19f62e2","system_id":"levelo_inurba_marseille","lat":43.30438,"lon":5.38892,"is_reserved":false,"is_disabled":false,"rental_uris":{"android":"levelo://app?vid=5d1f3bc1-568a-4396-b8d5-03dea19f62e2","ios":"levelo://app?vid=5d1f3bc1-568a-4396-b8d5-03dea19f62e2"},"vehicle_type_id":"4","last_reported":1714075653,"current_range_meters":0,"station_id":"ce4bgk12rcd13ifvqbi0","pricing_plan_id":"cebpf4jnsgd1na2vs0mg"},{"bike_id":"de98a5be-f169-4cff-aefc-b03dc3e50567","system_id":"levelo_inurba_marseille","lat":43.295748,"lon":5.37522,"is_reserved":false,"is_disabled":false,"rental_uris":{"android":"levelo://app?vid=de98a5be-f169-4cff-aefc-b03dc3e50567","ios":"levelo://app?vid=de98a5be-f169-4cff-aefc-b03dc3e50567"},"vehicle_type_id":"4","last_reported":1714075653,"current_range_meters":3200,"station_id":"ce4bgh92rcd13ifvqb50","pricing_plan_id":"cebpf4jnsgd1na2vs0mg"},{"bike_id":"8430d3f5-d6dc-4d4e-84d6-0b6f8ba6274b","system_id":"levelo_inurba_marseille","lat":43.295748,"lon":5.37522,"is_reserved":false,"is_disabled":false,"rental_uris":{"android":"levelo://app?vid=8430d3f5-d6dc-4d4e-84d6-0b6f8ba6274b","ios":"levelo://app?vid=8430d3f5-d6dc-4d4e-84d6-0b6f8ba6274b"},"vehicle_type_id":"4","last_reported":1714075653,"current_range_meters":13200,"station_id":"ce4bgh92rcd13ifvqb50","pricing_plan_id":"cebpf4jnsgd1na2vs0mg"},{"bike_id":"ef789b78-003a-42f3-b80d-7cd8f4dd95fd","system_id":"levelo_inurba_marseille","lat":43.299707,"lon":5.384859,"is_reserved":false,"is_disabled":false,"rental_uris":{"android":"levelo://app?vid=ef789b78-003a-42f3-b80d-7cd8f4dd95fd","ios":"levelo://app?vid=ef789b78-003a-42f3-b80d-7cd8f4dd95fd"},"vehicle_type_id":"4","last_reported":1714075653,"current_range_meters":14800,"station_id":"ce4bgj92rcd13ifvqbd0","pricing_plan_id":"cebpf4jnsgd1na2vs0mg"},{"bike_id":"645aa85d-a28c-4b83-bf7f-6c5d9649913a","system_id":"levelo_inurba_marseille","lat":43.299759,"lon":5.384877,"is_reserved":false,"is_disabled":false,"rental_uris":{"android":"levelo://app?vid=645aa85d-a28c-4b83-bf7f-6c5d9649913a","ios":"levelo://app?vid=645aa85d-a28c-4b83-bf7f-6c5d9649913a"},"vehicle_type_id":"4","last_reported":1714075653,"current_range_meters":9200,"station_id":"ce4bgj92rcd13ifvqbd0","pricing_plan_id":"cebpf4jnsgd1na2vs0mg"},{"bike_id":"cb4c5bae-a321-4c60-966e-83d20aa9fd56","system_id":"levelo_inurba_marseille","lat":43.29528,"lon":5.37498,"is_reserved":false,"is_disabled":false,"rental_uris":{"android":"levelo://app?vid=cb4c5bae-a321-4c60-966e-83d20aa9fd56","ios":"levelo://app?vid=cb4c5bae-a321-4c60-966e-83d20aa9fd56"},"vehicle_type_id":"4","last_reported":1714075653,"current_range_meters":400,"station_id":"ce4bgkp2rcd13ifvqbmg","pricing_plan_id":"cebpf4jnsgd1na2vs0mg"},{"bike_id":"616b85b6-d729-41a6-bb81-d7d6374ec6b2","system_id":"levelo_inurba_marseille","lat":43.29975,"lon":5.38497,"is_reserved":false,"is_disabled":false,"rental_uris":{"android":"levelo://app?vid=616b85b6-d729-41a6-bb81-d7d6374ec6b2","ios":"levelo://app?vid=616b85b6-d729-41a6-bb81-d7d6374ec6b2"},"vehicle_type_id":"4","last_reported":1714075653,"current_range_meters":0,"station_id":"ce4bgj92rcd13ifvqbd0","pricing_plan_id":"cebpf4jnsgd1na2vs0mg"},{"bike_id":"85f36cd7-26c2-4628-97fb-a5afad27cc53","system_id":"levelo_inurba_marseille","lat":43.299724,"lon":5.384848,"is_reserved":false,"is_disabled":false,"rental_uris":{"android":"levelo://app?vid=85f36cd7-26c2-4628-97fb-a5afad27cc53","ios":"levelo://app?vid=85f36cd7-26c2-4628-97fb-a5afad27cc53"},"vehicle_type_id":"4","last_reported":1714075653,"current_range_meters":24400,"station_id":"ce4bgj92rcd13ifvqbd0","pricing_plan_id":"cebpf4jnsgd1na2vs0mg"},{"bike_id":"65464a6d-574f-4b92-b54c-bafd619a7a81","system_id":"levelo_inurba_marseille","lat":43.299724,"lon":5.384848,"is_reserved":false,"is_disabled":false,"rental_uris":{"android":"levelo://app?vid=65464a6d-574f-4b92-b54c-bafd619a7a81","ios":"levelo://app?vid=65464a6d-574f-4b92-b54c-bafd619a7a81"},"vehicle_type_id":"4","last_reported":1714075653,"current_range_meters":12400,"station_id":"ce4bgj92rcd13ifvqbd0","pricing_plan_id":"cebpf4jnsgd1na2vs0mg"},{"bike_id":"8527f5dd-5585-4749-a5a3-beb38dc707b3","system_id":"levelo_inurba_marseille","lat":43.29966,"lon":5.38496,"is_reserved":false,"is_disabled":false,"rental_uris":{"android":"levelo://app?vid=8527f5dd-5585-4749-a5a3-beb38dc707b3","ios":"levelo://app?vid=8527f5dd-5585-4749-a5a3-beb38dc707b3"},"vehicle_type_id":"4","last_reported":1714075653,"current_range_meters":0,"station_id":"ce4bgj92rcd13ifvqbd0","pricing_plan_id":"cebpf4jnsgd1na2vs0mg"},{"bike_id":"ec871360-6d75-4d40-9266-d8a7db4b33ea","system_id":"levelo_inurba_marseille","lat":43.299724,"lon":5.384848,"is_reserved":false,"is_disabled":false,"rental_uris":{"android":"levelo://app?vid=ec871360-6d75-4d40-9266-d8a7db4b33ea","ios":"levelo://app?vid=ec871360-6d75-4d40-9266-d8a7db4b33ea"},"vehicle_type_id":"4","last_reported":1714075653,"current_range_meters":22800,"station_id":"ce4bgj92rcd13ifvqbd0","pricing_plan_id":"cebpf4jnsgd1na2vs0mg"},{"bike_id":"1bc75699-a97e-40aa-8de8-da5726b38ac4","system_id":"levelo_inurba_marseille","lat":43.299724,"lon":5.384848,"is_reserved":false,"is_disabled":false,"rental_uris":{"android":"levelo://app?vid=1bc75699-a97e-40aa-8de8-da5726b38ac4","ios":"levelo://app?vid=1bc75699-a97e-40aa-8de8-da5726b38ac4"},"vehicle_type_id":"4","last_reported":1714075653,"current_range_meters":10000,"station_id":"ce4bgj92rcd13ifvqbd0","pricing_plan_id":"cebpf4jnsgd1na2vs0mg"},{"bike_id":"2c69e885-f39c-4d03-a88d-ba3b0a7e5f19","system_id":"levelo_inurba_marseille","lat":43.32367,"lon":5.388836,"is_reserved":false,"is_disabled":false,"rental_uris":{"android":"levelo://app?vid=2c69e885-f39c-4d03-a88d-ba3b0a7e5f19","ios":"levelo://app?vid=2c69e885-f39c-4d03-a88d-ba3b0a7e5f19"},"vehicle_type_id":"4","last_reported":1714075653,"current_range_meters":26400,"station_id":"ce4bhqp2rcd13ifvqhog","pricing_plan_id":"cebpf4jnsgd1na2vs0mg"},{"bike_id":"3cdf8111-33be-4fc1-b6ba-2d94d0edae13","system_id":"levelo_inurba_marseille","lat":43.32367,"lon":5.388836,"is_reserved":false,"is_disabled":false,"rental_uris":{"android":"levelo://app?vid=3cdf8111-33be-4fc1-b6ba-2d94d0edae13","ios":"levelo://app?vid=3cdf8111-33be-4fc1-b6ba-2d94d0edae13"},"vehicle_type_id":"4","last_reported":1714075653,"current_range_meters":11200,"station_id":"ce4bhqp2rcd13ifvqhog","pricing_plan_id":"cebpf4jnsgd1na2vs0mg"},{"bike_id":"037347e0-0bc9-43be-a94f-98de8a5626fc","system_id":"levelo_inurba_marseille","lat":43.29602,"lon":5.381084,"is_reserved":false,"is_disabled":false,"rental_uris":{"android":"levelo://app?vid=037347e0-0bc9-43be-a94f-98de8a5626fc","ios":"levelo://app?vid=037347e0-0bc9-43be-a94f-98de8a5626fc"},"vehicle_type_id":"4","last_reported":1714075653,"current_range_meters":16800,"station_id":"ce4bgl12rcd13ifvqbo0","pricing_plan_id":"cebpf4jnsgd1na2vs0mg"},{"bike_id":"2e193feb-045f-42e3-90c6-3d7835dc5f86","system_id":"levelo_inurba_marseille","lat":43.29604,"lon":5.38097,"is_reserved":false,"is_disabled":false,"rental_uris":{"android":"levelo://app?vid=2e193feb-045f-42e3-90c6-3d7835dc5f86","ios":"levelo://app?vid=2e193feb-045f-42e3-90c6-3d7835dc5f86"},"vehicle_type_id":"4","last_reported":1714075653,"current_range_meters":0,"station_id":"ce4bgl12rcd13ifvqbo0","pricing_plan_id":"cebpf4jnsgd1na2vs0mg"},{"bike_id":"69b81ecb-e108-4428-89ec-2d2c813b0e91","system_id":"levelo_inurba_marseille","lat":43.29603,"lon":5.38109,"is_reserved":false,"is_disabled":false,"rental_uris":{"android":"levelo://app?vid=69b81ecb-e108-4428-89ec-2d2c813b0e91","ios":"levelo://app?vid=69b81ecb-e108-4428-89ec-2d2c813b0e91"},"vehicle_type_id":"4","last_reported":1714075653,"current_range_meters":10800,"station_id":"ce4bgl12rcd13ifvqbo0","pricing_plan_id":"cebpf4jnsgd1na2vs0mg"},{"bike_id":"e318bfc9-90a9-423e-bf1b-04995180d9a0","system_id":"levelo_inurba_marseille","lat":43.29602,"lon":5.381084,"is_reserved":false,"is_disabled":false,"rental_uris":{"android":"levelo://app?vid=e318bfc9-90a9-423e-bf1b-04995180d9a0","ios":"levelo://app?vid=e318bfc9-90a9-423e-bf1b-04995180d9a0"},"vehicle_type_id":"4","last_reported":1714075653,"current_range_meters":16400,"station_id":"ce4bgl12rcd13ifvqbo0","pricing_plan_id":"cebpf4jnsgd1na2vs0mg"},{"bike_id":"a646e6c3-4eeb-4a9d-8705-deee8df0279d","system_id":"levelo_inurba_marseille","lat":43.29602,"lon":5.381084,"is_reserved":false,"is_disabled":false,"rental_uris":{"android":"levelo://app?vid=a646e6c3-4eeb-4a9d-8705-deee8df0279d","ios":"levelo://app?vid=a646e6c3-4eeb-4a9d-8705-deee8df0279d"},"vehicle_type_id":"4","last_reported":1714075653,"current_range_meters":17600,"station_id":"ce4bgl12rcd13ifvqbo0","pricing_plan_id":"cebpf4jnsgd1na2vs0mg"},{"bike_id":"a922152f-a510-4d01-8bb6-80b7d72e5fca","system_id":"levelo_inurba_marseille","lat":43.293249,"lon":5.371578,"is_reserved":false,"is_disabled":false,"rental_uris":{"android":"levelo://app?vid=a922152f-a510-4d01-8bb6-80b7d72e5fca","ios":"levelo://app?vid=a922152f-a510-4d01-8bb6-80b7d72e5fca"},"vehicle_type_id":"4","last_reported":1714075653,"current_range_meters":20800,"station_id":"ce4bgh92rcd13ifvqb40","pricing_plan_id":"cebpf4jnsgd1na2vs0mg"},{"bike_id":"b1c1bfdd-293a-448e-98b9-f4abaee03231","system_id":"levelo_inurba_marseille","lat":43.29313,"lon":5.37176,"is_reserved":false,"is_disabled":false,"rental_uris":{"android":"levelo://app?vid=b1c1bfdd-293a-448e-98b9-f4abaee03231","ios":"levelo://app?vid=b1c1bfdd-293a-448e-98b9-f4abaee03231"},"vehicle_type_id":"4","last_reported":1714075653,"current_range_meters":0,"station_id":"ce4bgh92rcd13ifvqb40","pricing_plan_id":"cebpf4jnsgd1na2vs0mg"},{"bike_id":"77fa9a90-c5b1-4aab-a90d-e2ec370a90ba","system_id":"levelo_inurba_marseille","lat":43.29313,"lon":5.37181,"is_reserved":false,"is_disabled":false,"rental_uris":{"android":"levelo://app?vid=77fa9a90-c5b1-4aab-a90d-e2ec370a90ba","ios":"levelo://app?vid=77fa9a90-c5b1-4aab-a90d-e2ec370a90ba"},"vehicle_type_id":"4","last_reported":1714075653,"current_range_meters":0,"station_id":"ce4bgh92rcd13ifvqb40","pricing_plan_id":"cebpf4jnsgd1na2vs0mg"},{"bike_id":"5ec59abb-f348-4212-a7d4-1a3dfb91b71d","system_id":"levelo_inurba_marseille","lat":43.293259,"lon":5.371586,"is_reserved":false,"is_disabled":false,"rental_uris":{"android":"levelo://app?vid=5ec59abb-f348-4212-a7d4-1a3dfb91b71d","ios":"levelo://app?vid=5ec59abb-f348-4212-a7d4-1a3dfb91b71d"},"vehicle_type_id":"4","last_reported":1714075653,"current_range_meters":11600,"station_id":"ce4bgh92rcd13ifvqb40","pricing_plan_id":"cebpf4jnsgd1na2vs0mg"},{"bike_id":"3190e011-9d54-48c3-8df4-24c375041388","system_id":"levelo_inurba_marseille","lat":43.292749,"lon":5.368402,"is_reserved":false,"is_disabled":false,"rental_uris":{"android":"levelo://app?vid=3190e011-9d54-48c3-8df4-24c375041388","ios":"levelo://app?vid=3190e011-9d54-48c3-8df4-24c375041388"},"vehicle_type_id":"4","last_reported":1714075653,"current_range_meters":18000,"station_id":"ce4bhbp2rcd13ifvqesg","pricing_plan_id":"cebpf4jnsgd1na2vs0mg"},{"bike_id":"dfb36066-65c6-4105-96bb-5d7376f5ca56","system_id":"levelo_inurba_marseille","lat":43.292749,"lon":5.368402,"is_reserved":false,"is_disabled":false,"rental_uris":{"android":"levelo://app?vid=dfb36066-65c6-4105-96bb-5d7376f5ca56","ios":"levelo://app?vid=dfb36066-65c6-4105-96bb-5d7376f5ca56"},"vehicle_type_id":"4","last_reported":1714075653,"current_range_meters":17600,"station_id":"ce4bhbp2rcd13ifvqesg","pricing_plan_id":"cebpf4jnsgd1na2vs0mg"},{"bike_id":"dfb04e16-d911-4e42-8da5-a593a152981e","system_id":"levelo_inurba_marseille","lat":43.292749,"lon":5.368402,"is_reserved":false,"is_disabled":false,"rental_uris":{"android":"levelo://app?vid=dfb04e16-d911-4e42-8da5-a593a152981e","ios":"levelo://app?vid=dfb04e16-d911-4e42-8da5-a593a152981e"},"vehicle_type_id":"4","last_reported":1714075653,"current_range_meters":29600,"station_id":"ce4bhbp2rcd13ifvqesg","pricing_plan_id":"cebpf4jnsgd1na2vs0mg"},{"bike_id":"d792517c-07d6-4161-8fb4-523d6c818e7c","system_id":"levelo_inurba_marseille","lat":43.293259,"lon":5.371586,"is_reserved":false,"is_disabled":false,"rental_uris":{"android":"levelo://app?vid=d792517c-07d6-4161-8fb4-523d6c818e7c","ios":"levelo://app?vid=d792517c-07d6-4161-8fb4-523d6c818e7c"},"vehicle_type_id":"4","last_reported":1714075653,"current_range_meters":28000,"station_id":"ce4bgh92rcd13ifvqb40","pricing_plan_id":"cebpf4jnsgd1na2vs0mg"},{"bike_id":"7d1045be-ba3a-4a4c-b448-3747ee21606f","system_id":"levelo_inurba_marseille","lat":43.292738,"lon":5.368395,"is_reserved":false,"is_disabled":false,"rental_uris":{"android":"levelo://app?vid=7d1045be-ba3a-4a4c-b448-3747ee21606f","ios":"levelo://app?vid=7d1045be-ba3a-4a4c-b448-3747ee21606f"},"vehicle_type_id":"4","last_reported":1714075653,"current_range_meters":31200,"station_id":"ce4bhbp2rcd13ifvqesg","pricing_plan_id":"cebpf4jnsgd1na2vs0mg"},{"bike_id":"f1c3cd3b-78d2-4a73-a734-07784176c18e","system_id":"levelo_inurba_marseille","lat":43.292749,"lon":5.368398,"is_reserved":false,"is_disabled":false,"rental_uris":{"android":"levelo://app?vid=f1c3cd3b-78d2-4a73-a734-07784176c18e","ios":"levelo://app?vid=f1c3cd3b-78d2-4a73-a734-07784176c18e"},"vehicle_type_id":"4","last_reported":1714075653,"current_range_meters":30800,"station_id":"ce4bhbp2rcd13ifvqesg","pricing_plan_id":"cebpf4jnsgd1na2vs0mg"},{"bike_id":"7c7ac130-f88e-42b3-ba55-9fb6cb8abd02","system_id":"levelo_inurba_marseille","lat":43.29272,"lon":5.36852,"is_reserved":false,"is_disabled":false,"rental_uris":{"android":"levelo://app?vid=7c7ac130-f88e-42b3-ba55-9fb6cb8abd02","ios":"levelo://app?vid=7c7ac130-f88e-42b3-ba55-9fb6cb8abd02"},"vehicle_type_id":"4","last_reported":1714075653,"current_range_meters":19200,"station_id":"ce4bhbp2rcd13ifvqesg","pricing_plan_id":"cebpf4jnsgd1na2vs0mg"},{"bike_id":"d45f125e-897e-4d5b-a97f-0bc59742550f","system_id":"levelo_inurba_marseille","lat":43.2927,"lon":5.36844,"is_reserved":false,"is_disabled":false,"rental_uris":{"android":"levelo://app?vid=d45f125e-897e-4d5b-a97f-0bc59742550f","ios":"levelo://app?vid=d45f125e-897e-4d5b-a97f-0bc59742550f"},"vehicle_type_id":"4","last_reported":1714075653,"current_range_meters":12400,"station_id":"ce4bhbp2rcd13ifvqesg","pricing_plan_id":"cebpf4jnsgd1na2vs0mg"},{"bike_id":"4706ec81-8520-400d-b878-cbbfa34d49ed","system_id":"levelo_inurba_marseille","lat":43.292749,"lon":5.368402,"is_reserved":false,"is_disabled":false,"rental_uris":{"android":"levelo://app?vid=4706ec81-8520-400d-b878-cbbfa34d49ed","ios":"levelo://app?vid=4706ec81-8520-400d-b878-cbbfa34d49ed"},"vehicle_type_id":"4","last_reported":1714075653,"current_range_meters":28400,"station_id":"ce4bhbp2rcd13ifvqesg","pricing_plan_id":"cebpf4jnsgd1na2vs0mg"},{"bike_id":"ae31ae64-46cc-4ff6-bfd8-cb453c0d2ed6","system_id":"levelo_inurba_marseille","lat":43.292749,"lon":5.368402,"is_reserved":false,"is_disabled":false,"rental_uris":{"android":"levelo://app?vid=ae31ae64-46cc-4ff6-bfd8-cb453c0d2ed6","ios":"levelo://app?vid=ae31ae64-46cc-4ff6-bfd8-cb453c0d2ed6"},"vehicle_type_id":"4","last_reported":1714075653,"current_range_meters":20800,"station_id":"ce4bhbp2rcd13ifvqesg","pricing_plan_id":"cebpf4jnsgd1na2vs0mg"},{"bike_id":"fda82c65-173c-4659-9b20-7fcfcae0f822","system_id":"levelo_inurba_marseille","lat":43.292749,"lon":5.368398,"is_reserved":false,"is_disabled":false,"rental_uris":{"android":"levelo://app?vid=fda82c65-173c-4659-9b20-7fcfcae0f822","ios":"levelo://app?vid=fda82c65-173c-4659-9b20-7fcfcae0f822"},"vehicle_type_id":"4","last_reported":1714075653,"current_range_meters":31200,"station_id":"ce4bhbp2rcd13ifvqesg","pricing_plan_id":"cebpf4jnsgd1na2vs0mg"},{"bike_id":"1a04ca9d-19ff-44f2-9428-caeb248e8d4d","system_id":"levelo_inurba_marseille","lat":43.292749,"lon":5.368398,"is_reserved":false,"is_disabled":false,"rental_uris":{"android":"levelo://app?vid=1a04ca9d-19ff-44f2-9428-caeb248e8d4d","ios":"levelo://app?vid=1a04ca9d-19ff-44f2-9428-caeb248e8d4d"},"vehicle_type_id":"4","last_reported":1714075653,"current_range_meters":31200,"station_id":"ce4bhbp2rcd13ifvqesg","pricing_plan_id":"cebpf4jnsgd1na2vs0mg"},{"bike_id":"2438202e-67ac-4f26-abe2-9e4e517f6857","system_id":"levelo_inurba_marseille","lat":43.31865,"lon":5.39359,"is_reserved":false,"is_disabled":false,"rental_uris":{"android":"levelo://app?vid=2438202e-67ac-4f26-abe2-9e4e517f6857","ios":"levelo://app?vid=2438202e-67ac-4f26-abe2-9e4e517f6857"},"vehicle_type_id":"4","last_reported":1714075653,"current_range_meters":23200,"station_id":"","pricing_plan_id":"cebpf4jnsgd1na2vs0mg"},{"bike_id":"5a8379bf-3ae4-4b87-adc0-ecb617255223","system_id":"levelo_inurba_marseille","lat":43.293009,"lon":5.374584,"is_reserved":false,"is_disabled":false,"rental_uris":{"android":"levelo://app?vid=5a8379bf-3ae4-4b87-adc0-ecb617255223","ios":"levelo://app?vid=5a8379bf-3ae4-4b87-adc0-ecb617255223"},"vehicle_type_id":"4","last_reported":1714075653,"current_range_meters":12800,"station_id":"ce4bgi12rcd13ifvqb70","pricing_plan_id":"cebpf4jnsgd1na2vs0mg"},{"bike_id":"7702f426-3b22-4505-9f6f-71c1af910757","system_id":"levelo_inurba_marseille","lat":43.293009,"lon":5.374584,"is_reserved":false,"is_disabled":false,"rental_uris":{"android":"levelo://app?vid=7702f426-3b22-4505-9f6f-71c1af910757","ios":"levelo://app?vid=7702f426-3b22-4505-9f6f-71c1af910757"},"vehicle_type_id":"4","last_reported":1714075653,"current_range_meters":4000,"station_id":"ce4bgi12rcd13ifvqb70","pricing_plan_id":"cebpf4jnsgd1na2vs0mg"},{"bike_id":"c77841c8-e6fc-4e11-95e7-8b419a5ab50d","system_id":"levelo_inurba_marseille","lat":43.30609,"lon":5.39361,"is_reserved":false,"is_disabled":false,"rental_uris":{"android":"levelo://app?vid=c77841c8-e6fc-4e11-95e7-8b419a5ab50d","ios":"levelo://app?vid=c77841c8-e6fc-4e11-95e7-8b419a5ab50d"},"vehicle_type_id":"4","last_reported":1714075653,"current_range_meters":0,"station_id":"ce4bh0p2rcd13ifvqd80","pricing_plan_id":"cebpf4jnsgd1na2vs0mg"},{"bike_id":"15331fb4-9a62-40fb-b13a-09adf713e79a","system_id":"levelo_inurba_marseille","lat":43.305994,"lon":5.393687,"is_reserved":false,"is_disabled":false,"rental_uris":{"android":"levelo://app?vid=15331fb4-9a62-40fb-b13a-09adf713e79a","ios":"levelo://app?vid=15331fb4-9a62-40fb-b13a-09adf713e79a"},"vehicle_type_id":"4","last_reported":1714075653,"current_range_meters":31200,"station_id":"ce4bh0p2rcd13ifvqd80","pricing_plan_id":"cebpf4jnsgd1na2vs0mg"},{"bike_id":"a087d067-127b-451d-8ed8-684ec31ba8a0","system_id":"levelo_inurba_marseille","lat":43.293009,"lon":5.374584,"is_reserved":false,"is_disabled":false,"rental_uris":{"android":"levelo://app?vid=a087d067-127b-451d-8ed8-684ec31ba8a0","ios":"levelo://app?vid=a087d067-127b-451d-8ed8-684ec31ba8a0"},"vehicle_type_id":"4","last_reported":1714075653,"current_range_meters":18800,"station_id":"ce4bgi12rcd13ifvqb70","pricing_plan_id":"cebpf4jnsgd1na2vs0mg"},{"bike_id":"a402c28d-23fd-4c06-9d67-2d3696127782","system_id":"levelo_inurba_marseille","lat":43.305994,"lon":5.393687,"is_reserved":false,"is_disabled":false,"rental_uris":{"android":"levelo://app?vid=a402c28d-23fd-4c06-9d67-2d3696127782","ios":"levelo://app?vid=a402c28d-23fd-4c06-9d67-2d3696127782"},"vehicle_type_id":"4","last_reported":1714075653,"current_range_meters":21200,"station_id":"ce4bh0p2rcd13ifvqd80","pricing_plan_id":"cebpf4jnsgd1na2vs0mg"},{"bike_id":"3d63e4bc-292f-4245-8e38-02deb101ed82","system_id":"levelo_inurba_marseille","lat":43.305994,"lon":5.393687,"is_reserved":false,"is_disabled":false,"rental_uris":{"android":"levelo://app?vid=3d63e4bc-292f-4245-8e38-02deb101ed82","ios":"levelo://app?vid=3d63e4bc-292f-4245-8e38-02deb101ed82"},"vehicle_type_id":"4","last_reported":1714075653,"current_range_meters":16800,"station_id":"ce4bh0p2rcd13ifvqd80","pricing_plan_id":"cebpf4jnsgd1na2vs0mg"},{"bike_id":"e53b1ddc-2862-421e-8f21-6bb3b089c40a","system_id":"levelo_inurba_marseille","lat":43.305994,"lon":5.393687,"is_reserved":false,"is_disabled":false,"rental_uris":{"android":"levelo://app?vid=e53b1ddc-2862-421e-8f21-6bb3b089c40a","ios":"levelo://app?vid=e53b1ddc-2862-421e-8f21-6bb3b089c40a"},"vehicle_type_id":"4","last_reported":1714075653,"current_range_meters":31200,"station_id":"ce4bh0p2rcd13ifvqd80","pricing_plan_id":"cebpf4jnsgd1na2vs0mg"},{"bike_id":"7d833653-a4fb-4a57-8b00-a40d0b81b55e","system_id":"levelo_inurba_marseille","lat":43.305994,"lon":5.393687,"is_reserved":false,"is_disabled":false,"rental_uris":{"android":"levelo://app?vid=7d833653-a4fb-4a57-8b00-a40d0b81b55e","ios":"levelo://app?vid=7d833653-a4fb-4a57-8b00-a40d0b81b55e"},"vehicle_type_id":"4","last_reported":1714075653,"current_range_meters":17600,"station_id":"ce4bh0p2rcd13ifvqd80","pricing_plan_id":"cebpf4jnsgd1na2vs0mg"},{"bike_id":"4d83f514-49ab-4f08-ae40-2bf3abf52213","system_id":"levelo_inurba_marseille","lat":43.305994,"lon":5.393687,"is_reserved":false,"is_disabled":false,"rental_uris":{"android":"levelo://app?vid=4d83f514-49ab-4f08-ae40-2bf3abf52213","ios":"levelo://app?vid=4d83f514-49ab-4f08-ae40-2bf3abf52213"},"vehicle_type_id":"4","last_reported":1714075653,"current_range_meters":6000,"station_id":"ce4bh0p2rcd13ifvqd80","pricing_plan_id":"cebpf4jnsgd1na2vs0mg"},{"bike_id":"e4c4084b-3ddd-47d6-b8e5-cb90518b885a","system_id":"levelo_inurba_marseille","lat":43.305994,"lon":5.393687,"is_reserved":false,"is_disabled":false,"rental_uris":{"android":"levelo://app?vid=e4c4084b-3ddd-47d6-b8e5-cb90518b885a","ios":"levelo://app?vid=e4c4084b-3ddd-47d6-b8e5-cb90518b885a"},"vehicle_type_id":"4","last_reported":1714075653,"current_range_meters":4400,"station_id":"ce4bh0p2rcd13ifvqd80","pricing_plan_id":"cebpf4jnsgd1na2vs0mg"},{"bike_id":"37dd76c5-59d5-4164-b89e-421573032396","system_id":"levelo_inurba_marseille","lat":43.305994,"lon":5.393687,"is_reserved":false,"is_disabled":false,"rental_uris":{"android":"levelo://app?vid=37dd76c5-59d5-4164-b89e-421573032396","ios":"levelo://app?vid=37dd76c5-59d5-4164-b89e-421573032396"},"vehicle_type_id":"4","last_reported":1714075653,"current_range_meters":31200,"station_id":"ce4bh0p2rcd13ifvqd80","pricing_plan_id":"cebpf4jnsgd1na2vs0mg"},{"bike_id":"c6b67cae-c352-411b-b2a8-4a812eb03e2e","system_id":"levelo_inurba_marseille","lat":43.305994,"lon":5.393687,"is_reserved":false,"is_disabled":false,"rental_uris":{"android":"levelo://app?vid=c6b67cae-c352-411b-b2a8-4a812eb03e2e","ios":"levelo://app?vid=c6b67cae-c352-411b-b2a8-4a812eb03e2e"},"vehicle_type_id":"4","last_reported":1714075653,"current_range_meters":8000,"station_id":"ce4bh0p2rcd13ifvqd80","pricing_plan_id":"cebpf4jnsgd1na2vs0mg"},{"bike_id":"1124513f-0f66-4503-a229-820f183db377","system_id":"levelo_inurba_marseille","lat":43.305994,"lon":5.393687,"is_reserved":false,"is_disabled":false,"rental_uris":{"android":"levelo://app?vid=1124513f-0f66-4503-a229-820f183db377","ios":"levelo://app?vid=1124513f-0f66-4503-a229-820f183db377"},"vehicle_type_id":"4","last_reported":1714075653,"current_range_meters":15600,"station_id":"ce4bh0p2rcd13ifvqd80","pricing_plan_id":"cebpf4jnsgd1na2vs0mg"},{"bike_id":"b947b593-9064-4653-b0c4-cb69839ec0a0","system_id":"levelo_inurba_marseille","lat":43.30601,"lon":5.39367,"is_reserved":false,"is_disabled":false,"rental_uris":{"android":"levelo://app?vid=b947b593-9064-4653-b0c4-cb69839ec0a0","ios":"levelo://app?vid=b947b593-9064-4653-b0c4-cb69839ec0a0"},"vehicle_type_id":"4","last_reported":1714075653,"current_range_meters":8000,"station_id":"ce4bh0p2rcd13ifvqd80","pricing_plan_id":"cebpf4jnsgd1na2vs0mg"},{"bike_id":"a95752b0-1329-4237-8cfb-f1b7b0c196b7","system_id":"levelo_inurba_marseille","lat":43.305994,"lon":5.393687,"is_reserved":false,"is_disabled":false,"rental_uris":{"android":"levelo://app?vid=a95752b0-1329-4237-8cfb-f1b7b0c196b7","ios":"levelo://app?vid=a95752b0-1329-4237-8cfb-f1b7b0c196b7"},"vehicle_type_id":"4","last_reported":1714075653,"current_range_meters":25200,"station_id":"ce4bh0p2rcd13ifvqd80","pricing_plan_id":"cebpf4jnsgd1na2vs0mg"},{"bike_id":"b1aa1c25-7766-4df8-af99-c99cdb2e2086","system_id":"levelo_inurba_marseille","lat":43.303002,"lon":5.392142,"is_reserved":false,"is_disabled":false,"rental_uris":{"android":"levelo://app?vid=b1aa1c25-7766-4df8-af99-c99cdb2e2086","ios":"levelo://app?vid=b1aa1c25-7766-4df8-af99-c99cdb2e2086"},"vehicle_type_id":"4","last_reported":1714075653,"current_range_meters":22400,"station_id":"ce4bgkh2rcd13ifvqbk0","pricing_plan_id":"cebpf4jnsgd1na2vs0mg"},{"bike_id":"4a329d7d-7546-4dc3-b42b-b780b34b6a2d","system_id":"levelo_inurba_marseille","lat":43.302992,"lon":5.392136,"is_reserved":false,"is_disabled":false,"rental_uris":{"android":"levelo://app?vid=4a329d7d-7546-4dc3-b42b-b780b34b6a2d","ios":"levelo://app?vid=4a329d7d-7546-4dc3-b42b-b780b34b6a2d"},"vehicle_type_id":"4","last_reported":1714075653,"current_range_meters":12400,"station_id":"ce4bgkh2rcd13ifvqbk0","pricing_plan_id":"cebpf4jnsgd1na2vs0mg"},{"bike_id":"a423735c-0d7d-438c-a2b9-bb57b6981401","system_id":"levelo_inurba_marseille","lat":43.303038,"lon":5.392178,"is_reserved":false,"is_disabled":false,"rental_uris":{"android":"levelo://app?vid=a423735c-0d7d-438c-a2b9-bb57b6981401","ios":"levelo://app?vid=a423735c-0d7d-438c-a2b9-bb57b6981401"},"vehicle_type_id":"4","last_reported":1714075653,"current_range_meters":17200,"station_id":"ce4bgkh2rcd13ifvqbk0","pricing_plan_id":"cebpf4jnsgd1na2vs0mg"},{"bike_id":"602bce24-4e3c-441e-bda8-a7d97f0378cb","system_id":"levelo_inurba_marseille","lat":43.302992,"lon":5.392136,"is_reserved":false,"is_disabled":false,"rental_uris":{"android":"levelo://app?vid=602bce24-4e3c-441e-bda8-a7d97f0378cb","ios":"levelo://app?vid=602bce24-4e3c-441e-bda8-a7d97f0378cb"},"vehicle_type_id":"4","last_reported":1714075653,"current_range_meters":30000,"station_id":"ce4bgkh2rcd13ifvqbk0","pricing_plan_id":"cebpf4jnsgd1na2vs0mg"},{"bike_id":"5e4b8906-0084-4f45-9017-3c64aea5b3dd","system_id":"levelo_inurba_marseille","lat":43.302992,"lon":5.392136,"is_reserved":false,"is_disabled":false,"rental_uris":{"android":"levelo://app?vid=5e4b8906-0084-4f45-9017-3c64aea5b3dd","ios":"levelo://app?vid=5e4b8906-0084-4f45-9017-3c64aea5b3dd"},"vehicle_type_id":"4","last_reported":1714075653,"current_range_meters":8400,"station_id":"ce4bgkh2rcd13ifvqbk0","pricing_plan_id":"cebpf4jnsgd1na2vs0mg"},{"bike_id":"8dc35038-b234-4485-a8c7-407ba9a0c98d","system_id":"levelo_inurba_marseille","lat":43.29366,"lon":5.37831,"is_reserved":false,"is_disabled":false,"rental_uris":{"android":"levelo://app?vid=8dc35038-b234-4485-a8c7-407ba9a0c98d","ios":"levelo://app?vid=8dc35038-b234-4485-a8c7-407ba9a0c98d"},"vehicle_type_id":"4","last_reported":1714075653,"current_range_meters":28400,"station_id":"ce4bgjh2rcd13ifvqbf0","pricing_plan_id":"cebpf4jnsgd1na2vs0mg"},{"bike_id":"6f42b5d6-add5-48df-92dc-f700f57aa431","system_id":"levelo_inurba_marseille","lat":43.303002,"lon":5.392142,"is_reserved":false,"is_disabled":false,"rental_uris":{"android":"levelo://app?vid=6f42b5d6-add5-48df-92dc-f700f57aa431","ios":"levelo://app?vid=6f42b5d6-add5-48df-92dc-f700f57aa431"},"vehicle_type_id":"4","last_reported":1714075653,"current_range_meters":13200,"station_id":"ce4bgkh2rcd13ifvqbk0","pricing_plan_id":"cebpf4jnsgd1na2vs0mg"},{"bike_id":"1c404ffe-c47b-4284-95c0-57818318bcf5","system_id":"levelo_inurba_marseille","lat":43.2936,"lon":5.37835,"is_reserved":false,"is_disabled":false,"rental_uris":{"android":"levelo://app?vid=1c404ffe-c47b-4284-95c0-57818318bcf5","ios":"levelo://app?vid=1c404ffe-c47b-4284-95c0-57818318bcf5"},"vehicle_type_id":"4","last_reported":1714075653,"current_range_meters":28400,"station_id":"ce4bgjh2rcd13ifvqbf0","pricing_plan_id":"cebpf4jnsgd1na2vs0mg"},{"bike_id":"7805857b-88ca-44ec-ae70-4a541ff907ee","system_id":"levelo_inurba_marseille","lat":43.2936,"lon":5.37835,"is_reserved":false,"is_disabled":false,"rental_uris":{"android":"levelo://app?vid=7805857b-88ca-44ec-ae70-4a541ff907ee","ios":"levelo://app?vid=7805857b-88ca-44ec-ae70-4a541ff907ee"},"vehicle_type_id":"4","last_reported":1714075653,"current_range_meters":15200,"station_id":"ce4bgjh2rcd13ifvqbf0","pricing_plan_id":"cebpf4jnsgd1na2vs0mg"},{"bike_id":"e6ff5412-6c5b-46be-9920-f948fa26c569","system_id":"levelo_inurba_marseille","lat":43.2936,"lon":5.37835,"is_reserved":false,"is_disabled":false,"rental_uris":{"android":"levelo://app?vid=e6ff5412-6c5b-46be-9920-f948fa26c569","ios":"levelo://app?vid=e6ff5412-6c5b-46be-9920-f948fa26c569"},"vehicle_type_id":"4","last_reported":1714075653,"current_range_meters":26400,"station_id":"ce4bgjh2rcd13ifvqbf0","pricing_plan_id":"cebpf4jnsgd1na2vs0mg"},{"bike_id":"2208c2c6-c991-47da-9f59-753be79eee3f","system_id":"levelo_inurba_marseille","lat":43.30097,"lon":5.39079,"is_reserved":false,"is_disabled":false,"rental_uris":{"android":"levelo://app?vid=2208c2c6-c991-47da-9f59-753be79eee3f","ios":"levelo://app?vid=2208c2c6-c991-47da-9f59-753be79eee3f"},"vehicle_type_id":"4","last_reported":1714075653,"current_range_meters":4000,"station_id":"ce4bh192rcd13ifvqdb0","pricing_plan_id":"cebpf4jnsgd1na2vs0mg"},{"bike_id":"b4988ccd-b6b7-4df5-8dd2-6261e0e327c0","system_id":"levelo_inurba_marseille","lat":43.292311,"lon":5.360731,"is_reserved":false,"is_disabled":false,"rental_uris":{"android":"levelo://app?vid=b4988ccd-b6b7-4df5-8dd2-6261e0e327c0","ios":"levelo://app?vid=b4988ccd-b6b7-4df5-8dd2-6261e0e327c0"},"vehicle_type_id":"4","last_reported":1714075653,"current_range_meters":30000,"station_id":"ce4bhbh2rcd13ifvqeqg","pricing_plan_id":"cebpf4jnsgd1na2vs0mg"},{"bike_id":"9600d761-551a-424e-82a7-096b8f31f589","system_id":"levelo_inurba_marseille","lat":43.29222,"lon":5.36075,"is_reserved":false,"is_disabled":false,"rental_uris":{"android":"levelo://app?vid=9600d761-551a-424e-82a7-096b8f31f589","ios":"levelo://app?vid=9600d761-551a-424e-82a7-096b8f31f589"},"vehicle_type_id":"4","last_reported":1714075653,"current_range_meters":0,"station_id":"ce4bgh92rcd13ifvqb40","pricing_plan_id":"cebpf4jnsgd1na2vs0mg"},{"bike_id":"aa8cdfc5-25cd-4569-b214-5aa1dc0b0b60","system_id":"levelo_inurba_marseille","lat":43.29224,"lon":5.36062,"is_reserved":false,"is_disabled":false,"rental_uris":{"android":"levelo://app?vid=aa8cdfc5-25cd-4569-b214-5aa1dc0b0b60","ios":"levelo://app?vid=aa8cdfc5-25cd-4569-b214-5aa1dc0b0b60"},"vehicle_type_id":"4","last_reported":1714075653,"current_range_meters":24400,"station_id":"ce4bhbh2rcd13ifvqeqg","pricing_plan_id":"cebpf4jnsgd1na2vs0mg"},{"bike_id":"141d7240-8076-4d62-b996-1a355559914f","system_id":"levelo_inurba_marseille","lat":43.29224,"lon":5.36058,"is_reserved":false,"is_disabled":false,"rental_uris":{"android":"levelo://app?vid=141d7240-8076-4d62-b996-1a355559914f","ios":"levelo://app?vid=141d7240-8076-4d62-b996-1a355559914f"},"vehicle_type_id":"4","last_reported":1714075653,"current_range_meters":25600,"station_id":"ce4bhbh2rcd13ifvqeqg","pricing_plan_id":"cebpf4jnsgd1na2vs0mg"},{"bike_id":"bec36c1e-a06c-44b2-9a5c-edaf108cb856","system_id":"levelo_inurba_marseille","lat":43.291735,"lon":5.368965,"is_reserved":false,"is_disabled":false,"rental_uris":{"android":"levelo://app?vid=bec36c1e-a06c-44b2-9a5c-edaf108cb856","ios":"levelo://app?vid=bec36c1e-a06c-44b2-9a5c-edaf108cb856"},"vehicle_type_id":"4","last_reported":1714075653,"current_range_meters":0,"station_id":"","pricing_plan_id":"cebpf4jnsgd1na2vs0mg"},{"bike_id":"b53afe13-27b2-45b7-8522-ea3780a4f4f7","system_id":"levelo_inurba_marseille","lat":43.292693,"lon":5.376231,"is_reserved":false,"is_disabled":false,"rental_uris":{"android":"levelo://app?vid=b53afe13-27b2-45b7-8522-ea3780a4f4f7","ios":"levelo://app?vid=b53afe13-27b2-45b7-8522-ea3780a4f4f7"},"vehicle_type_id":"4","last_reported":1714075653,"current_range_meters":0,"station_id":"","pricing_plan_id":"cebpf4jnsgd1na2vs0mg"},{"bike_id":"76e0122d-924d-4040-9e24-3001e861f245","system_id":"levelo_inurba_marseille","lat":43.292667,"lon":5.376153,"is_reserved":false,"is_disabled":false,"rental_uris":{"android":"levelo://app?vid=76e0122d-924d-4040-9e24-3001e861f245","ios":"levelo://app?vid=76e0122d-924d-4040-9e24-3001e861f245"},"vehicle_type_id":"4","last_reported":1714075653,"current_range_meters":18000,"station_id":"","pricing_plan_id":"cebpf4jnsgd1na2vs0mg"},{"bike_id":"381f976f-18d6-4bcb-92ca-8e782a1d1561","system_id":"levelo_inurba_marseille","lat":43.292653,"lon":5.376306,"is_reserved":false,"is_disabled":false,"rental_uris":{"android":"levelo://app?vid=381f976f-18d6-4bcb-92ca-8e782a1d1561","ios":"levelo://app?vid=381f976f-18d6-4bcb-92ca-8e782a1d1561"},"vehicle_type_id":"4","last_reported":1714075653,"current_range_meters":10000,"station_id":"","pricing_plan_id":"cebpf4jnsgd1na2vs0mg"},{"bike_id":"872170ac-6256-4512-97fc-7bc1da4c69d3","system_id":"levelo_inurba_marseille","lat":43.298764,"lon":5.388973,"is_reserved":false,"is_disabled":false,"rental_uris":{"android":"levelo://app?vid=872170ac-6256-4512-97fc-7bc1da4c69d3","ios":"levelo://app?vid=872170ac-6256-4512-97fc-7bc1da4c69d3"},"vehicle_type_id":"4","last_reported":1714075653,"current_range_meters":18800,"station_id":"ce4bh392rcd13ifvqdl0","pricing_plan_id":"cebpf4jnsgd1na2vs0mg"},{"bike_id":"3ca601fb-e588-4f13-8612-a70377c873fd","system_id":"levelo_inurba_marseille","lat":43.298764,"lon":5.388973,"is_reserved":false,"is_disabled":false,"rental_uris":{"android":"levelo://app?vid=3ca601fb-e588-4f13-8612-a70377c873fd","ios":"levelo://app?vid=3ca601fb-e588-4f13-8612-a70377c873fd"},"vehicle_type_id":"4","last_reported":1714075653,"current_range_meters":0,"station_id":"ce4bh392rcd13ifvqdl0","pricing_plan_id":"cebpf4jnsgd1na2vs0mg"},{"bike_id":"03206bb4-84f9-400b-b784-bf84ce68561a","system_id":"levelo_inurba_marseille","lat":43.291705,"lon":5.37157,"is_reserved":false,"is_disabled":false,"rental_uris":{"android":"levelo://app?vid=03206bb4-84f9-400b-b784-bf84ce68561a","ios":"levelo://app?vid=03206bb4-84f9-400b-b784-bf84ce68561a"},"vehicle_type_id":"4","last_reported":1714075653,"current_range_meters":14000,"station_id":"ce4bhjp2rcd13ifvqg90","pricing_plan_id":"cebpf4jnsgd1na2vs0mg"},{"bike_id":"c0aa8142-3d69-4be0-876b-b430ebc05242","system_id":"levelo_inurba_marseille","lat":43.291671,"lon":5.371575,"is_reserved":false,"is_disabled":false,"rental_uris":{"android":"levelo://app?vid=c0aa8142-3d69-4be0-876b-b430ebc05242","ios":"levelo://app?vid=c0aa8142-3d69-4be0-876b-b430ebc05242"},"vehicle_type_id":"4","last_reported":1714075653,"current_range_meters":14800,"station_id":"ce4bha92rcd13ifvqeh0","pricing_plan_id":"cebpf4jnsgd1na2vs0mg"},{"bike_id":"b7d1ad2a-9954-4335-8c0d-7e7ffe25f303","system_id":"levelo_inurba_marseille","lat":43.29881,"lon":5.3891,"is_reserved":false,"is_disabled":false,"rental_uris":{"android":"levelo://app?vid=b7d1ad2a-9954-4335-8c0d-7e7ffe25f303","ios":"levelo://app?vid=b7d1ad2a-9954-4335-8c0d-7e7ffe25f303"},"vehicle_type_id":"4","last_reported":1714075653,"current_range_meters":30400,"station_id":"","pricing_plan_id":"cebpf4jnsgd1na2vs0mg"},{"bike_id":"a594428d-037c-449f-91d1-7efc122a763c","system_id":"levelo_inurba_marseille","lat":43.298764,"lon":5.388973,"is_reserved":false,"is_disabled":false,"rental_uris":{"android":"levelo://app?vid=a594428d-037c-449f-91d1-7efc122a763c","ios":"levelo://app?vid=a594428d-037c-449f-91d1-7efc122a763c"},"vehicle_type_id":"4","last_reported":1714075653,"current_range_meters":25200,"station_id":"ce4bh392rcd13ifvqdl0","pricing_plan_id":"cebpf4jnsgd1na2vs0mg"},{"bike_id":"1e826bd9-1374-43f1-a8e6-766502ad5436","system_id":"levelo_inurba_marseille","lat":43.298764,"lon":5.388973,"is_reserved":false,"is_disabled":false,"rental_uris":{"android":"levelo://app?vid=1e826bd9-1374-43f1-a8e6-766502ad5436","ios":"levelo://app?vid=1e826bd9-1374-43f1-a8e6-766502ad5436"},"vehicle_type_id":"4","last_reported":1714075653,"current_range_meters":0,"station_id":"ce4bh392rcd13ifvqdl0","pricing_plan_id":"cebpf4jnsgd1na2vs0mg"},{"bike_id":"8065529b-791d-4fab-a617-3ce007c46bf3","system_id":"levelo_inurba_marseille","lat":43.298764,"lon":5.388973,"is_reserved":false,"is_disabled":false,"rental_uris":{"android":"levelo://app?vid=8065529b-791d-4fab-a617-3ce007c46bf3","ios":"levelo://app?vid=8065529b-791d-4fab-a617-3ce007c46bf3"},"vehicle_type_id":"4","last_reported":1714075653,"current_range_meters":31200,"station_id":"ce4bh392rcd13ifvqdl0","pricing_plan_id":"cebpf4jnsgd1na2vs0mg"},{"bike_id":"8675d7f9-61c6-47e4-b47f-da1fd35a028a","system_id":"levelo_inurba_marseille","lat":43.313291,"lon":5.396838,"is_reserved":false,"is_disabled":false,"rental_uris":{"android":"levelo://app?vid=8675d7f9-61c6-47e4-b47f-da1fd35a028a","ios":"levelo://app?vid=8675d7f9-61c6-47e4-b47f-da1fd35a028a"},"vehicle_type_id":"4","last_reported":1714075653,"current_range_meters":20800,"station_id":"ce4bgvp2rcd13ifvqcu0","pricing_plan_id":"cebpf4jnsgd1na2vs0mg"},{"bike_id":"20a9225a-c679-4123-b5ff-0a1feb52f227","system_id":"levelo_inurba_marseille","lat":43.31326,"lon":5.39692,"is_reserved":false,"is_disabled":false,"rental_uris":{"android":"levelo://app?vid=20a9225a-c679-4123-b5ff-0a1feb52f227","ios":"levelo://app?vid=20a9225a-c679-4123-b5ff-0a1feb52f227"},"vehicle_type_id":"4","last_reported":1714075653,"current_range_meters":0,"station_id":"ce4bgvp2rcd13ifvqcu0","pricing_plan_id":"cebpf4jnsgd1na2vs0mg"},{"bike_id":"6b976f9e-2a7c-4a91-bda7-6cfe873aa579","system_id":"levelo_inurba_marseille","lat":43.29188,"lon":5.35803,"is_reserved":false,"is_disabled":false,"rental_uris":{"android":"levelo://app?vid=6b976f9e-2a7c-4a91-bda7-6cfe873aa579","ios":"levelo://app?vid=6b976f9e-2a7c-4a91-bda7-6cfe873aa579"},"vehicle_type_id":"4","last_reported":1714075653,"current_range_meters":11200,"station_id":"ce4bhb12rcd13ifvqel0","pricing_plan_id":"cebpf4jnsgd1na2vs0mg"},{"bike_id":"9591bb35-df86-4dcb-bbc7-bf97530ed58c","system_id":"levelo_inurba_marseille","lat":43.30884,"lon":5.39648,"is_reserved":false,"is_disabled":false,"rental_uris":{"android":"levelo://app?vid=9591bb35-df86-4dcb-bbc7-bf97530ed58c","ios":"levelo://app?vid=9591bb35-df86-4dcb-bbc7-bf97530ed58c"},"vehicle_type_id":"4","last_reported":1714075653,"current_range_meters":4000,"station_id":"ce4bh012rcd13ifvqcv0","pricing_plan_id":"cebpf4jnsgd1na2vs0mg"},{"bike_id":"fc787e26-9ebb-4179-940d-73c995fd89c6","system_id":"levelo_inurba_marseille","lat":43.30892,"lon":5.39652,"is_reserved":false,"is_disabled":false,"rental_uris":{"android":"levelo://app?vid=fc787e26-9ebb-4179-940d-73c995fd89c6","ios":"levelo://app?vid=fc787e26-9ebb-4179-940d-73c995fd89c6"},"vehicle_type_id":"4","last_reported":1714075653,"current_range_meters":0,"station_id":"ce4bh012rcd13ifvqcv0","pricing_plan_id":"cebpf4jnsgd1na2vs0mg"},{"bike_id":"caef10bb-0c2c-45ae-8e0a-9055c0ef47d4","system_id":"levelo_inurba_marseille","lat":43.31326,"lon":5.39701,"is_reserved":false,"is_disabled":false,"rental_uris":{"android":"levelo://app?vid=caef10bb-0c2c-45ae-8e0a-9055c0ef47d4","ios":"levelo://app?vid=caef10bb-0c2c-45ae-8e0a-9055c0ef47d4"},"vehicle_type_id":"4","last_reported":1714075653,"current_range_meters":0,"station_id":"ce4bgvp2rcd13ifvqcu0","pricing_plan_id":"cebpf4jnsgd1na2vs0mg"},{"bike_id":"2b914b28-b9db-48c3-9415-742a14734ee9","system_id":"levelo_inurba_marseille","lat":43.29529,"lon":5.385581,"is_reserved":false,"is_disabled":false,"rental_uris":{"android":"levelo://app?vid=2b914b28-b9db-48c3-9415-742a14734ee9","ios":"levelo://app?vid=2b914b28-b9db-48c3-9415-742a14734ee9"},"vehicle_type_id":"4","last_reported":1714075653,"current_range_meters":3600,"station_id":"ce4bgih2rcd13ifvqba0","pricing_plan_id":"cebpf4jnsgd1na2vs0mg"},{"bike_id":"5b60b39c-13bf-4794-a47e-b0861b00db4a","system_id":"levelo_inurba_marseille","lat":43.29529,"lon":5.385581,"is_reserved":false,"is_disabled":false,"rental_uris":{"android":"levelo://app?vid=5b60b39c-13bf-4794-a47e-b0861b00db4a","ios":"levelo://app?vid=5b60b39c-13bf-4794-a47e-b0861b00db4a"},"vehicle_type_id":"4","last_reported":1714075653,"current_range_meters":0,"station_id":"ce4bgih2rcd13ifvqba0","pricing_plan_id":"cebpf4jnsgd1na2vs0mg"},{"bike_id":"a42fdd45-ea8a-4034-b7a9-ea199c5451e1","system_id":"levelo_inurba_marseille","lat":43.295416,"lon":5.38551,"is_reserved":false,"is_disabled":false,"rental_uris":{"android":"levelo://app?vid=a42fdd45-ea8a-4034-b7a9-ea199c5451e1","ios":"levelo://app?vid=a42fdd45-ea8a-4034-b7a9-ea199c5451e1"},"vehicle_type_id":"4","last_reported":1714075653,"current_range_meters":16800,"station_id":"ce4bgih2rcd13ifvqba0","pricing_plan_id":"cebpf4jnsgd1na2vs0mg"},{"bike_id":"b4d60d8b-a995-4f5e-ba8c-5df746ae33c4","system_id":"levelo_inurba_marseille","lat":43.29537,"lon":5.38543,"is_reserved":false,"is_disabled":false,"rental_uris":{"android":"levelo://app?vid=b4d60d8b-a995-4f5e-ba8c-5df746ae33c4","ios":"levelo://app?vid=b4d60d8b-a995-4f5e-ba8c-5df746ae33c4"},"vehicle_type_id":"4","last_reported":1714075653,"current_range_meters":15600,"station_id":"ce4bgih2rcd13ifvqba0","pricing_plan_id":"cebpf4jnsgd1na2vs0mg"},{"bike_id":"a0b17e9f-0ce1-4f3e-8b08-df245ac9a3c3","system_id":"levelo_inurba_marseille","lat":43.29529,"lon":5.385581,"is_reserved":false,"is_disabled":false,"rental_uris":{"android":"levelo://app?vid=a0b17e9f-0ce1-4f3e-8b08-df245ac9a3c3","ios":"levelo://app?vid=a0b17e9f-0ce1-4f3e-8b08-df245ac9a3c3"},"vehicle_type_id":"4","last_reported":1714075653,"current_range_meters":31600,"station_id":"ce4bgih2rcd13ifvqba0","pricing_plan_id":"cebpf4jnsgd1na2vs0mg"},{"bike_id":"b8aceaf1-f39e-4c93-b1ef-2c8e58c01f61","system_id":"levelo_inurba_marseille","lat":43.295333,"lon":5.385402,"is_reserved":false,"is_disabled":false,"rental_uris":{"android":"levelo://app?vid=b8aceaf1-f39e-4c93-b1ef-2c8e58c01f61","ios":"levelo://app?vid=b8aceaf1-f39e-4c93-b1ef-2c8e58c01f61"},"vehicle_type_id":"4","last_reported":1714075653,"current_range_meters":22800,"station_id":"","pricing_plan_id":"cebpf4jnsgd1na2vs0mg"},{"bike_id":"8daa5eb9-eebe-40d0-b650-0b751660bb69","system_id":"levelo_inurba_marseille","lat":43.295327,"lon":5.385407,"is_reserved":false,"is_disabled":false,"rental_uris":{"android":"levelo://app?vid=8daa5eb9-eebe-40d0-b650-0b751660bb69","ios":"levelo://app?vid=8daa5eb9-eebe-40d0-b650-0b751660bb69"},"vehicle_type_id":"4","last_reported":1714075653,"current_range_meters":8800,"station_id":"ce4bgih2rcd13ifvqba0","pricing_plan_id":"cebpf4jnsgd1na2vs0mg"},{"bike_id":"9ab65613-1250-4f7e-9368-539bbd83600c","system_id":"levelo_inurba_marseille","lat":43.29529,"lon":5.385581,"is_reserved":false,"is_disabled":false,"rental_uris":{"android":"levelo://app?vid=9ab65613-1250-4f7e-9368-539bbd83600c","ios":"levelo://app?vid=9ab65613-1250-4f7e-9368-539bbd83600c"},"vehicle_type_id":"4","last_reported":1714075653,"current_range_meters":22000,"station_id":"ce4bgih2rcd13ifvqba0","pricing_plan_id":"cebpf4jnsgd1na2vs0mg"},{"bike_id":"74f29d25-c741-4f73-a2d5-d4f1ae4f1c9e","system_id":"levelo_inurba_marseille","lat":43.29529,"lon":5.385581,"is_reserved":false,"is_disabled":false,"rental_uris":{"android":"levelo://app?vid=74f29d25-c741-4f73-a2d5-d4f1ae4f1c9e","ios":"levelo://app?vid=74f29d25-c741-4f73-a2d5-d4f1ae4f1c9e"},"vehicle_type_id":"4","last_reported":1714075653,"current_range_meters":0,"station_id":"ce4bgih2rcd13ifvqba0","pricing_plan_id":"cebpf4jnsgd1na2vs0mg"},{"bike_id":"b968b1fb-7c09-44ab-abe6-8e443562e162","system_id":"levelo_inurba_marseille","lat":43.2953,"lon":5.3854,"is_reserved":false,"is_disabled":false,"rental_uris":{"android":"levelo://app?vid=b968b1fb-7c09-44ab-abe6-8e443562e162","ios":"levelo://app?vid=b968b1fb-7c09-44ab-abe6-8e443562e162"},"vehicle_type_id":"4","last_reported":1714075653,"current_range_meters":20400,"station_id":"ce4bgih2rcd13ifvqba0","pricing_plan_id":"cebpf4jnsgd1na2vs0mg"},{"bike_id":"edbe2d35-ddc1-4125-99a6-1a0e79c8b9c0","system_id":"levelo_inurba_marseille","lat":43.29529,"lon":5.385581,"is_reserved":false,"is_disabled":false,"rental_uris":{"android":"levelo://app?vid=edbe2d35-ddc1-4125-99a6-1a0e79c8b9c0","ios":"levelo://app?vid=edbe2d35-ddc1-4125-99a6-1a0e79c8b9c0"},"vehicle_type_id":"4","last_reported":1714075653,"current_range_meters":3600,"station_id":"ce4bgih2rcd13ifvqba0","pricing_plan_id":"cebpf4jnsgd1na2vs0mg"},{"bike_id":"65682cc3-f564-4bc5-b5d5-901436515c4f","system_id":"levelo_inurba_marseille","lat":43.29529,"lon":5.385581,"is_reserved":false,"is_disabled":false,"rental_uris":{"android":"levelo://app?vid=65682cc3-f564-4bc5-b5d5-901436515c4f","ios":"levelo://app?vid=65682cc3-f564-4bc5-b5d5-901436515c4f"},"vehicle_type_id":"4","last_reported":1714075653,"current_range_meters":4400,"station_id":"ce4bgih2rcd13ifvqba0","pricing_plan_id":"cebpf4jnsgd1na2vs0mg"},{"bike_id":"ca27d366-e82d-4ad4-b9dc-a1081931c6c3","system_id":"levelo_inurba_marseille","lat":43.29529,"lon":5.385581,"is_reserved":false,"is_disabled":false,"rental_uris":{"android":"levelo://app?vid=ca27d366-e82d-4ad4-b9dc-a1081931c6c3","ios":"levelo://app?vid=ca27d366-e82d-4ad4-b9dc-a1081931c6c3"},"vehicle_type_id":"4","last_reported":1714075653,"current_range_meters":7200,"station_id":"ce4bgih2rcd13ifvqba0","pricing_plan_id":"cebpf4jnsgd1na2vs0mg"},{"bike_id":"bfd663a9-66ad-4741-b41d-932eacd5a0f9","system_id":"levelo_inurba_marseille","lat":43.29529,"lon":5.385581,"is_reserved":false,"is_disabled":false,"rental_uris":{"android":"levelo://app?vid=bfd663a9-66ad-4741-b41d-932eacd5a0f9","ios":"levelo://app?vid=bfd663a9-66ad-4741-b41d-932eacd5a0f9"},"vehicle_type_id":"4","last_reported":1714075653,"current_range_meters":28000,"station_id":"ce4bgih2rcd13ifvqba0","pricing_plan_id":"cebpf4jnsgd1na2vs0mg"},{"bike_id":"9e9b3c79-c3ed-48e0-9e6b-de6c2345b8fe","system_id":"levelo_inurba_marseille","lat":43.29529,"lon":5.385581,"is_reserved":false,"is_disabled":false,"rental_uris":{"android":"levelo://app?vid=9e9b3c79-c3ed-48e0-9e6b-de6c2345b8fe","ios":"levelo://app?vid=9e9b3c79-c3ed-48e0-9e6b-de6c2345b8fe"},"vehicle_type_id":"4","last_reported":1714075653,"current_range_meters":21600,"station_id":"ce4bgih2rcd13ifvqba0","pricing_plan_id":"cebpf4jnsgd1na2vs0mg"},{"bike_id":"36a1210f-0198-4a45-81f6-39c80c4d877c","system_id":"levelo_inurba_marseille","lat":43.29529,"lon":5.385581,"is_reserved":false,"is_disabled":false,"rental_uris":{"android":"levelo://app?vid=36a1210f-0198-4a45-81f6-39c80c4d877c","ios":"levelo://app?vid=36a1210f-0198-4a45-81f6-39c80c4d877c"},