{"last_updated":1686672498,"ttl":30,"version":"2.2","data":{"bikes":[{"bike_id":"a142fcc1-dd44-4e45-a4d3-f750f9811ffe","system_id":"levelo_inurba_marseille","lat":43.31206,"lon":5.36797,"is_reserved":false,"is_disabled":false,"rental_uris":{"android":"levelo://app?vid=a142fcc1-dd44-4e45-a4d3-f750f9811ffe","ios":"levelo://app?vid=a142fcc1-dd44-4e45-a4d3-f750f9811ffe"},"vehicle_type_id":"4","last_reported":1686672499,"current_range_meters":11600,"station_id":"","pricing_plan_id":"free"},{"bike_id":"5bf8b6b5-e4a6-4e54-9f23-7a2e4632bdfa","system_id":"levelo_inurba_marseille","lat":43.309076,"lon":5.368465,"is_reserved":false,"is_disabled":false,"rental_uris":{"android":"levelo://app?vid=5bf8b6b5-e4a6-4e54-9f23-7a2e4632bdfa","ios":"levelo://app?vid=5bf8b6b5-e4a6-4e54-9f23-7a2e4632bdfa"},"vehicle_type_id":"4","last_reported":1686672499,"current_range_meters":28800,"station_id":"ce4bgn92rcd13ifvqbvg","pricing_plan_id":"free"},{"bike_id":"2236174f-9b48-4e77-bc47-17f9275c2cb6","system_id":"levelo_inurba_marseille","lat":43.309076,"lon":5.368465,"is_reserved":false,"is_disabled":false,"rental_uris":{"android":"levelo://app?vid=2236174f-9b48-4e77-bc47-17f9275c2cb6","ios":"levelo://app?vid=2236174f-9b48-4e77-bc47-17f9275c2cb6"},"vehicle_type_id":"4","last_reported":1686672499,"current_range_meters":1600,"station_id":"ce4bgn92rcd13ifvqbvg","pricing_plan_id":"free"},{"bike_id":"b81f946f-64cf-4e0b-baa9-17ca19b957cb","system_id":"levelo_inurba_marseille","lat":43.30912,"lon":5.37289,"is_reserved":false,"is_disabled":false,"rental_uris":{"android":"levelo://app?vid=b81f946f-64cf-4e0b-baa9-17ca19b957cb","ios":"levelo://app?vid=b81f946f-64cf-4e0b-baa9-17ca19b957cb"},"vehicle_type_id":"4","last_reported":1686672499,"current_range_meters":20800,"station_id":"","pricing_plan_id":"free"},{"bike_id":"c467708f-edb2-41e1-9886-5f26b940ab77","system_id":"levelo_inurba_marseille","lat":43.3185,"lon":5.3729,"is_reserved":false,"is_disabled":false,"rental_uris":{"android":"levelo://app?vid=c467708f-edb2-41e1-9886-5f26b940ab77","ios":"levelo://app?vid=c467708f-edb2-41e1-9886-5f26b940ab77"},"vehicle_type_id":"4","last_reported":1686672499,"current_range_meters":25600,"station_id":"","pricing_plan_id":"free"},{"bike_id":"76f5681c-8d7c-4b1e-812c-d50673a300b9","system_id":"levelo_inurba_marseille","lat":43.30537,"lon":5.367345,"is_reserved":false,"is_disabled":false,"rental_uris":{"android":"levelo://app?vid=76f5681c-8d7c-4b1e-812c-d50673a300b9","ios":"levelo://app?vid=76f5681c-8d7c-4b1e-812c-d50673a300b9"},"vehicle_type_id":"4","last_reported":1686672499,"current_range_meters":26000,"station_id":"ce4bgrp2rcd13ifvqc9g","pricing_plan_id":"free"},{"bike_id":"b7e2df55-d9e4-4cf8-93b4-995d6eabd791","system_id":"levelo_inurba_marseille","lat":43.30625,"lon":5.37225,"is_reserved":false,"is_disabled":false,"rental_uris":{"android":"levelo://app?vid=b7e2df55-d9e4-4cf8-93b4-995d6eabd791","ios":"levelo://app?vid=b7e2df55-d9e4-4cf8-93b4-995d6eabd791"},"vehicle_type_id":"4","last_reported":1686672499,"current_range_meters":16400,"station_id":"ce4bgqh2rcd13ifvqc4g","pricing_plan_id":"free"},{"bike_id":"24b5a833-fbb4-41ab-a944-eef5346c8c23","system_id":"levelo_inurba_marseille","lat":43.31754,"lon":5.37521,"is_reserved":false,"is_disabled":false,"rental_uris":{"android":"levelo://app?vid=24b5a833-fbb4-41ab-a944-eef5346c8c23","ios":"levelo://app?vid=24b5a833-fbb4-41ab-a944-eef5346c8c23"},"vehicle_type_id":"4","last_reported":1686672499,"current_range_meters":10000,"station_id":"","pricing_plan_id":"free"},{"bike_id":"25f01d42-b32d-4e3e-b724-9b0a55e82783","system_id":"levelo_inurba_marseille","lat":43.305989,"lon":5.37225,"is_reserved":false,"is_disabled":false,"rental_uris":{"android":"levelo://app?vid=25f01d42-b32d-4e3e-b724-9b0a55e82783","ios":"levelo://app?vid=25f01d42-b32d-4e3e-b724-9b0a55e82783"},"vehicle_type_id":"4","last_reported":1686672499,"current_range_meters":31200,"station_id":"ce4bgqh2rcd13ifvqc4g","pricing_plan_id":"free"},{"bike_id":"76394e43-7524-488b-94f5-244a6246a859","system_id":"levelo_inurba_marseille","lat":43.311125,"lon":5.377624,"is_reserved":false,"is_disabled":false,"rental_uris":{"android":"levelo://app?vid=76394e43-7524-488b-94f5-244a6246a859","ios":"levelo://app?vid=76394e43-7524-488b-94f5-244a6246a859"},"vehicle_type_id":"4","last_reported":1686672499,"current_range_meters":2400,"station_id":"ce4bgt92rcd13ifvqcg0","pricing_plan_id":"free"},{"bike_id":"2424216c-0462-4ad0-b127-d0366c91b61c","system_id":"levelo_inurba_marseille","lat":43.317075,"lon":5.377367,"is_reserved":false,"is_disabled":false,"rental_uris":{"android":"levelo://app?vid=2424216c-0462-4ad0-b127-d0366c91b61c","ios":"levelo://app?vid=2424216c-0462-4ad0-b127-d0366c91b61c"},"vehicle_type_id":"4","last_reported":1686672499,"current_range_meters":29200,"station_id":"ce4bgth2rcd13ifvqch0","pricing_plan_id":"free"},{"bike_id":"4a754460-fadd-46aa-8025-e29151f697b6","system_id":"levelo_inurba_marseille","lat":43.31705,"lon":5.37766,"is_reserved":false,"is_disabled":false,"rental_uris":{"android":"levelo://app?vid=4a754460-fadd-46aa-8025-e29151f697b6","ios":"levelo://app?vid=4a754460-fadd-46aa-8025-e29151f697b6"},"vehicle_type_id":"4","last_reported":1686672499,"current_range_meters":31200,"station_id":"ce4bgth2rcd13ifvqch0","pricing_plan_id":"free"},{"bike_id":"ff78f526-10b8-468f-b250-f826397e5fbc","system_id":"levelo_inurba_marseille","lat":43.31874,"lon":5.37718,"is_reserved":false,"is_disabled":false,"rental_uris":{"android":"levelo://app?vid=ff78f526-10b8-468f-b250-f826397e5fbc","ios":"levelo://app?vid=ff78f526-10b8-468f-b250-f826397e5fbc"},"vehicle_type_id":"4","last_reported":1686672499,"current_range_meters":18000,"station_id":"","pricing_plan_id":"free"},{"bike_id":"2532ebae-5910-4d2d-a67e-2a60a8c73937","system_id":"levelo_inurba_marseille","lat":43.303046,"lon":5.368981,"is_reserved":false,"is_disabled":false,"rental_uris":{"android":"levelo://app?vid=2532ebae-5910-4d2d-a67e-2a60a8c73937","ios":"levelo://app?vid=2532ebae-5910-4d2d-a67e-2a60a8c73937"},"vehicle_type_id":"4","last_reported":1686672499,"current_range_meters":0,"station_id":"ce4bgqh2rcd13ifvqc5g","pricing_plan_id":"free"},{"bike_id":"09e2162d-8797-43ad-977d-8ed6ed96204e","system_id":"levelo_inurba_marseille","lat":43.30304,"lon":5.368987,"is_reserved":false,"is_disabled":false,"rental_uris":{"android":"levelo://app?vid=09e2162d-8797-43ad-977d-8ed6ed96204e","ios":"levelo://app?vid=09e2162d-8797-43ad-977d-8ed6ed96204e"},"vehicle_type_id":"4","last_reported":1686672499,"current_range_meters":17200,"station_id":"ce4bgqh2rcd13ifvqc5g","pricing_plan_id":"free"},{"bike_id":"53944e18-03fc-49e5-afa4-0a1cf9730447","system_id":"levelo_inurba_marseille","lat":43.31532,"lon":5.38033,"is_reserved":false,"is_disabled":false,"rental_uris":{"android":"levelo://app?vid=53944e18-03fc-49e5-afa4-0a1cf9730447","ios":"levelo://app?vid=53944e18-03fc-49e5-afa4-0a1cf9730447"},"vehicle_type_id":"4","last_reported":1686672499,"current_range_meters":14400,"station_id":"ce4bhsp2rcd13ifvqi50","pricing_plan_id":"free"},{"bike_id":"f6abd20f-e21b-4dbe-a6bc-709e43f579cc","system_id":"levelo_inurba_marseille","lat":43.31589,"lon":5.38064,"is_reserved":false,"is_disabled":false,"rental_uris":{"android":"levelo://app?vid=f6abd20f-e21b-4dbe-a6bc-709e43f579cc","ios":"levelo://app?vid=f6abd20f-e21b-4dbe-a6bc-709e43f579cc"},"vehicle_type_id":"4","last_reported":1686672499,"current_range_meters":30000,"station_id":"","pricing_plan_id":"free"},{"bike_id":"79cecae9-aa5e-46fa-a64d-376e38c043f2","system_id":"levelo_inurba_marseille","lat":43.30128,"lon":5.36601,"is_reserved":false,"is_disabled":false,"rental_uris":{"android":"levelo://app?vid=79cecae9-aa5e-46fa-a64d-376e38c043f2","ios":"levelo://app?vid=79cecae9-aa5e-46fa-a64d-376e38c043f2"},"vehicle_type_id":"4","last_reported":1686672499,"current_range_meters":28000,"station_id":"","pricing_plan_id":"free"},{"bike_id":"d55e35e5-91a4-4f82-9b23-c81cf2e87f3f","system_id":"levelo_inurba_marseille","lat":43.308012,"lon":5.381511,"is_reserved":false,"is_disabled":false,"rental_uris":{"android":"levelo://app?vid=d55e35e5-91a4-4f82-9b23-c81cf2e87f3f","ios":"levelo://app?vid=d55e35e5-91a4-4f82-9b23-c81cf2e87f3f"},"vehicle_type_id":"4","last_reported":1686672499,"current_range_meters":5200,"station_id":"ce4bgt12rcd13ifvqce0","pricing_plan_id":"free"},{"bike_id":"e6d5f0fb-c8b3-49d7-b92d-2ef531c05609","system_id":"levelo_inurba_marseille","lat":43.301429,"lon":5.37413,"is_reserved":false,"is_disabled":false,"rental_uris":{"android":"levelo://app?vid=e6d5f0fb-c8b3-49d7-b92d-2ef531c05609","ios":"levelo://app?vid=e6d5f0fb-c8b3-49d7-b92d-2ef531c05609"},"vehicle_type_id":"4","last_reported":1686672499,"current_range_meters":30000,"station_id":"ce4bgs92rcd13ifvqcc0","pricing_plan_id":"free"},{"bike_id":"87123e9d-ca4a-4a3d-85d1-aef6110110c1","system_id":"levelo_inurba_marseille","lat":43.313571,"lon":5.384829,"is_reserved":false,"is_disabled":false,"rental_uris":{"android":"levelo://app?vid=87123e9d-ca4a-4a3d-85d1-aef6110110c1","ios":"levelo://app?vid=87123e9d-ca4a-4a3d-85d1-aef6110110c1"},"vehicle_type_id":"4","last_reported":1686672499,"current_range_meters":5600,"station_id":"ce4bgt92rcd13ifvqcf0","pricing_plan_id":"free"},{"bike_id":"70c961ce-6759-4aff-9d8d-8168fe1ff3ac","system_id":"levelo_inurba_marseille","lat":43.299209,"lon":5.365547,"is_reserved":false,"is_disabled":false,"rental_uris":{"android":"levelo://app?vid=70c961ce-6759-4aff-9d8d-8168fe1ff3ac","ios":"levelo://app?vid=70c961ce-6759-4aff-9d8d-8168fe1ff3ac"},"vehicle_type_id":"4","last_reported":1686672499,"current_range_meters":17200,"station_id":"ce4bgm92rcd13ifvqbr0","pricing_plan_id":"free"},{"bike_id":"25171f5b-da66-448f-9ce6-33280d075263","system_id":"levelo_inurba_marseille","lat":43.297774,"lon":5.370875,"is_reserved":false,"is_disabled":false,"rental_uris":{"android":"levelo://app?vid=25171f5b-da66-448f-9ce6-33280d075263","ios":"levelo://app?vid=25171f5b-da66-448f-9ce6-33280d075263"},"vehicle_type_id":"4","last_reported":1686672499,"current_range_meters":25200,"station_id":"ce4bgop2rcd13ifvqc1g","pricing_plan_id":"free"},{"bike_id":"b008a40b-52ae-461d-9bb5-99a7bee05b7b","system_id":"levelo_inurba_marseille","lat":43.2985,"lon":5.37482,"is_reserved":false,"is_disabled":false,"rental_uris":{"android":"levelo://app?vid=b008a40b-52ae-461d-9bb5-99a7bee05b7b","ios":"levelo://app?vid=b008a40b-52ae-461d-9bb5-99a7bee05b7b"},"vehicle_type_id":"4","last_reported":1686672499,"current_range_meters":30800,"station_id":"","pricing_plan_id":"free"},{"bike_id":"8dd39784-33cd-4f4a-973a-c0235968b597","system_id":"levelo_inurba_marseille","lat":43.328371,"lon":5.366909,"is_reserved":false,"is_disabled":false,"rental_uris":{"android":"levelo://app?vid=8dd39784-33cd-4f4a-973a-c0235968b597","ios":"levelo://app?vid=8dd39784-33cd-4f4a-973a-c0235968b597"},"vehicle_type_id":"4","last_reported":1686672499,"current_range_meters":1200,"station_id":"ce4bhs92rcd13ifvqi0g","pricing_plan_id":"free"},{"bike_id":"3b9c5337-59b7-449b-a6fc-262e95ae8f17","system_id":"levelo_inurba_marseille","lat":43.2968,"lon":5.37291,"is_reserved":false,"is_disabled":false,"rental_uris":{"android":"levelo://app?vid=3b9c5337-59b7-449b-a6fc-262e95ae8f17","ios":"levelo://app?vid=3b9c5337-59b7-449b-a6fc-262e95ae8f17"},"vehicle_type_id":"4","last_reported":1686672499,"current_range_meters":5600,"station_id":"ce4bgk12rcd13ifvqbj0","pricing_plan_id":"free"},{"bike_id":"88d0330c-5bb0-4a19-9b65-d4683b42e015","system_id":"levelo_inurba_marseille","lat":43.29683,"lon":5.36046,"is_reserved":false,"is_disabled":false,"rental_uris":{"android":"levelo://app?vid=88d0330c-5bb0-4a19-9b65-d4683b42e015","ios":"levelo://app?vid=88d0330c-5bb0-4a19-9b65-d4683b42e015"},"vehicle_type_id":"4","last_reported":1686672499,"current_range_meters":21200,"station_id":"ce4bgpp2rcd13ifvqc3g","pricing_plan_id":"free"},{"bike_id":"5075f3e7-232c-462e-8d99-e4f44d51784f","system_id":"levelo_inurba_marseille","lat":43.296935,"lon":5.376544,"is_reserved":false,"is_disabled":false,"rental_uris":{"android":"levelo://app?vid=5075f3e7-232c-462e-8d99-e4f44d51784f","ios":"levelo://app?vid=5075f3e7-232c-462e-8d99-e4f44d51784f"},"vehicle_type_id":"4","last_reported":1686672499,"current_range_meters":30000,"station_id":"ce4bgkh2rcd13ifvqbl0","pricing_plan_id":"free"},{"bike_id":"ad13aada-ace7-4db6-afe0-a7b9ce456fd4","system_id":"levelo_inurba_marseille","lat":43.292663,"lon":5.376389,"is_reserved":false,"is_disabled":false,"rental_uris":{"android":"levelo://app?vid=ad13aada-ace7-4db6-afe0-a7b9ce456fd4","ios":"levelo://app?vid=ad13aada-ace7-4db6-afe0-a7b9ce456fd4"},"vehicle_type_id":"4","last_reported":1686672499,"current_range_meters":31200,"station_id":"ce4bgi12rcd13ifvqb80","pricing_plan_id":"free"},{"bike_id":"dae6bb5e-8140-4709-9df4-60ea135e879a","system_id":"levelo_inurba_marseille","lat":43.309589,"lon":5.390258,"is_reserved":false,"is_disabled":false,"rental_uris":{"android":"levelo://app?vid=dae6bb5e-8140-4709-9df4-60ea135e879a","ios":"levelo://app?vid=dae6bb5e-8140-4709-9df4-60ea135e879a"},"vehicle_type_id":"4","last_reported":1686672499,"current_range_meters":2400,"station_id":"ce4bgup2rcd13ifvqco0","pricing_plan_id":"free"},{"bike_id":"b08d70aa-0bba-4c7c-b130-c30175be3fd4","system_id":"levelo_inurba_marseille","lat":43.29706,"lon":5.37705,"is_reserved":false,"is_disabled":false,"rental_uris":{"android":"levelo://app?vid=b08d70aa-0bba-4c7c-b130-c30175be3fd4","ios":"levelo://app?vid=b08d70aa-0bba-4c7c-b130-c30175be3fd4"},"vehicle_type_id":"4","last_reported":1686672499,"current_range_meters":30800,"station_id":"","pricing_plan_id":"free"},{"bike_id":"637a93d2-6975-47c2-8805-017e4aac8916","system_id":"levelo_inurba_marseille","lat":43.31749,"lon":5.39015,"is_reserved":false,"is_disabled":false,"rental_uris":{"android":"levelo://app?vid=637a93d2-6975-47c2-8805-017e4aac8916","ios":"levelo://app?vid=637a93d2-6975-47c2-8805-017e4aac8916"},"vehicle_type_id":"4","last_reported":1686672499,"current_range_meters":14800,"station_id":"ce4bhqp2rcd13ifvqhng","pricing_plan_id":"free"},{"bike_id":"988784bf-6cf1-432b-a960-04d3365c0163","system_id":"levelo_inurba_marseille","lat":43.3176,"lon":5.39014,"is_reserved":false,"is_disabled":false,"rental_uris":{"android":"levelo://app?vid=988784bf-6cf1-432b-a960-04d3365c0163","ios":"levelo://app?vid=988784bf-6cf1-432b-a960-04d3365c0163"},"vehicle_type_id":"4","last_reported":1686672499,"current_range_meters":20800,"station_id":"ce4bhqp2rcd13ifvqhng","pricing_plan_id":"free"},{"bike_id":"d3f4d128-e3e0-42f3-90d4-976936865e13","system_id":"levelo_inurba_marseille","lat":43.31756,"lon":5.39018,"is_reserved":false,"is_disabled":false,"rental_uris":{"android":"levelo://app?vid=d3f4d128-e3e0-42f3-90d4-976936865e13","ios":"levelo://app?vid=d3f4d128-e3e0-42f3-90d4-976936865e13"},"vehicle_type_id":"4","last_reported":1686672499,"current_range_meters":9200,"station_id":"ce4bhqp2rcd13ifvqhng","pricing_plan_id":"free"},{"bike_id":"0f5ffe04-bc9f-442a-8eda-a961d5b28926","system_id":"levelo_inurba_marseille","lat":43.31759,"lon":5.39018,"is_reserved":false,"is_disabled":false,"rental_uris":{"android":"levelo://app?vid=0f5ffe04-bc9f-442a-8eda-a961d5b28926","ios":"levelo://app?vid=0f5ffe04-bc9f-442a-8eda-a961d5b28926"},"vehicle_type_id":"4","last_reported":1686672499,"current_range_meters":24000,"station_id":"ce4bhqp2rcd13ifvqhng","pricing_plan_id":"free"},{"bike_id":"3aeb5edb-6189-47cd-bb49-e2a928ab8142","system_id":"levelo_inurba_marseille","lat":43.31754,"lon":5.39024,"is_reserved":false,"is_disabled":false,"rental_uris":{"android":"levelo://app?vid=3aeb5edb-6189-47cd-bb49-e2a928ab8142","ios":"levelo://app?vid=3aeb5edb-6189-47cd-bb49-e2a928ab8142"},"vehicle_type_id":"4","last_reported":1686672499,"current_range_meters":18000,"station_id":"ce4bhqp2rcd13ifvqhng","pricing_plan_id":"free"},{"bike_id":"c53dc16d-2429-4c8e-bb40-2e14de4412e5","system_id":"levelo_inurba_marseille","lat":43.298037,"lon":5.381066,"is_reserved":false,"is_disabled":false,"rental_uris":{"android":"levelo://app?vid=c53dc16d-2429-4c8e-bb40-2e14de4412e5","ios":"levelo://app?vid=c53dc16d-2429-4c8e-bb40-2e14de4412e5"},"vehicle_type_id":"4","last_reported":1686672499,"current_range_meters":30000,"station_id":"ce4bgip2rcd13ifvqbb0","pricing_plan_id":"free"},{"bike_id":"0cbfb058-bd23-4cd3-b7b0-be2f1e5bdfce","system_id":"levelo_inurba_marseille","lat":43.29619,"lon":5.37738,"is_reserved":false,"is_disabled":false,"rental_uris":{"android":"levelo://app?vid=0cbfb058-bd23-4cd3-b7b0-be2f1e5bdfce","ios":"levelo://app?vid=0cbfb058-bd23-4cd3-b7b0-be2f1e5bdfce"},"vehicle_type_id":"4","last_reported":1686672499,"current_range_meters":31200,"station_id":"ce4bgi92rcd13ifvqb90","pricing_plan_id":"free"},{"bike_id":"f5afdfdd-3c2d-4bad-8043-814e0d6b2107","system_id":"levelo_inurba_marseille","lat":43.299724,"lon":5.384848,"is_reserved":false,"is_disabled":false,"rental_uris":{"android":"levelo://app?vid=f5afdfdd-3c2d-4bad-8043-814e0d6b2107","ios":"levelo://app?vid=f5afdfdd-3c2d-4bad-8043-814e0d6b2107"},"vehicle_type_id":"4","last_reported":1686672499,"current_range_meters":800,"station_id":"ce4bgj92rcd13ifvqbd0","pricing_plan_id":"free"},{"bike_id":"2c9ad911-25e0-4222-8751-d809dfadd582","system_id":"levelo_inurba_marseille","lat":43.32367,"lon":5.388836,"is_reserved":false,"is_disabled":false,"rental_uris":{"android":"levelo://app?vid=2c9ad911-25e0-4222-8751-d809dfadd582","ios":"levelo://app?vid=2c9ad911-25e0-4222-8751-d809dfadd582"},"vehicle_type_id":"4","last_reported":1686672499,"current_range_meters":20000,"station_id":"ce4bhqp2rcd13ifvqhog","pricing_plan_id":"free"},{"bike_id":"557e6f19-b01f-4da5-9a61-f16ab3863897","system_id":"levelo_inurba_marseille","lat":43.29532,"lon":5.38156,"is_reserved":false,"is_disabled":false,"rental_uris":{"android":"levelo://app?vid=557e6f19-b01f-4da5-9a61-f16ab3863897","ios":"levelo://app?vid=557e6f19-b01f-4da5-9a61-f16ab3863897"},"vehicle_type_id":"4","last_reported":1686672499,"current_range_meters":0,"station_id":"","pricing_plan_id":"free"},{"bike_id":"96e7baa7-b624-42d5-b7ee-77a1f2f0c8a8","system_id":"levelo_inurba_marseille","lat":43.305994,"lon":5.393687,"is_reserved":false,"is_disabled":false,"rental_uris":{"android":"levelo://app?vid=96e7baa7-b624-42d5-b7ee-77a1f2f0c8a8","ios":"levelo://app?vid=96e7baa7-b624-42d5-b7ee-77a1f2f0c8a8"},"vehicle_type_id":"4","last_reported":1686672499,"current_range_meters":5600,"station_id":"ce4bh0p2rcd13ifvqd80","pricing_plan_id":"free"},{"bike_id":"77b629c3-e314-4a62-b2de-8dba94fbf288","system_id":"levelo_inurba_marseille","lat":43.305994,"lon":5.393687,"is_reserved":false,"is_disabled":false,"rental_uris":{"android":"levelo://app?vid=77b629c3-e314-4a62-b2de-8dba94fbf288","ios":"levelo://app?vid=77b629c3-e314-4a62-b2de-8dba94fbf288"},"vehicle_type_id":"4","last_reported":1686672499,"current_range_meters":24400,"station_id":"ce4bh0p2rcd13ifvqd80","pricing_plan_id":"free"},{"bike_id":"4dc4d16e-256b-456e-a40c-9bf18374817e","system_id":"levelo_inurba_marseille","lat":43.302992,"lon":5.392136,"is_reserved":false,"is_disabled":false,"rental_uris":{"android":"levelo://app?vid=4dc4d16e-256b-456e-a40c-9bf18374817e","ios":"levelo://app?vid=4dc4d16e-256b-456e-a40c-9bf18374817e"},"vehicle_type_id":"4","last_reported":1686672499,"current_range_meters":400,"station_id":"ce4bgkh2rcd13ifvqbk0","pricing_plan_id":"free"},{"bike_id":"781c85d1-ea3a-4961-9aee-d8ac601fee2e","system_id":"levelo_inurba_marseille","lat":43.29261,"lon":5.35964,"is_reserved":false,"is_disabled":false,"rental_uris":{"android":"levelo://app?vid=781c85d1-ea3a-4961-9aee-d8ac601fee2e","ios":"levelo://app?vid=781c85d1-ea3a-4961-9aee-d8ac601fee2e"},"vehicle_type_id":"4","last_reported":1686672499,"current_range_meters":13600,"station_id":"","pricing_plan_id":"free"},{"bike_id":"77f33bd2-cb74-467b-aba1-86f85ea13750","system_id":"levelo_inurba_marseille","lat":43.292311,"lon":5.360731,"is_reserved":false,"is_disabled":false,"rental_uris":{"android":"levelo://app?vid=77f33bd2-cb74-467b-aba1-86f85ea13750","ios":"levelo://app?vid=77f33bd2-cb74-467b-aba1-86f85ea13750"},"vehicle_type_id":"4","last_reported":1686672499,"current_range_meters":28400,"station_id":"ce4bhbh2rcd13ifvqeqg","pricing_plan_id":"free"},{"bike_id":"283bc49d-571d-4529-9dee-c7c433f616b1","system_id":"levelo_inurba_marseille","lat":43.292311,"lon":5.360731,"is_reserved":false,"is_disabled":false,"rental_uris":{"android":"levelo://app?vid=283bc49d-571d-4529-9dee-c7c433f616b1","ios":"levelo://app?vid=283bc49d-571d-4529-9dee-c7c433f616b1"},"vehicle_type_id":"4","last_reported":1686672499,"current_range_meters":22000,"station_id":"ce4bhbh2rcd13ifvqeqg","pricing_plan_id":"free"},{"bike_id":"0422a97c-0c28-45a4-a03c-69a142a7e806","system_id":"levelo_inurba_marseille","lat":43.292311,"lon":5.360731,"is_reserved":false,"is_disabled":false,"rental_uris":{"android":"levelo://app?vid=0422a97c-0c28-45a4-a03c-69a142a7e806","ios":"levelo://app?vid=0422a97c-0c28-45a4-a03c-69a142a7e806"},"vehicle_type_id":"4","last_reported":1686672499,"current_range_meters":31200,"station_id":"ce4bhbh2rcd13ifvqeqg","pricing_plan_id":"free"},{"bike_id":"b42a82d1-730e-4145-bdc3-6ca6892c9aa3","system_id":"levelo_inurba_marseille","lat":43.292311,"lon":5.360731,"is_reserved":false,"is_disabled":false,"rental_uris":{"android":"levelo://app?vid=b42a82d1-730e-4145-bdc3-6ca6892c9aa3","ios":"levelo://app?vid=b42a82d1-730e-4145-bdc3-6ca6892c9aa3"},"vehicle_type_id":"4","last_reported":1686672499,"current_range_meters":27600,"station_id":"ce4bhbh2rcd13ifvqeqg","pricing_plan_id":"free"},{"bike_id":"57550ebc-b1d7-4933-8cf6-2e15999d71e4","system_id":"levelo_inurba_marseille","lat":43.292311,"lon":5.360731,"is_reserved":false,"is_disabled":false,"rental_uris":{"android":"levelo://app?vid=57550ebc-b1d7-4933-8cf6-2e15999d71e4","ios":"levelo://app?vid=57550ebc-b1d7-4933-8cf6-2e15999d71e4"},"vehicle_type_id":"4","last_reported":1686672499,"current_range_meters":27600,"station_id":"ce4bhbh2rcd13ifvqeqg","pricing_plan_id":"free"},{"bike_id":"f55f0630-4fa3-4dd2-8a56-ff4899e90da7","system_id":"levelo_inurba_marseille","lat":43.292311,"lon":5.360731,"is_reserved":false,"is_disabled":false,"rental_uris":{"android":"levelo://app?vid=f55f0630-4fa3-4dd2-8a56-ff4899e90da7","ios":"levelo://app?vid=f55f0630-4fa3-4dd2-8a56-ff4899e90da7"},"vehicle_type_id":"4","last_reported":1686672499,"current_range_meters":31200,"station_id":"ce4bhbh2rcd13ifvqeqg","pricing_plan_id":"free"},{"bike_id":"6eb7c271-4e10-4255-a788-8826cebe65f5","system_id":"levelo_inurba_marseille","lat":43.292311,"lon":5.360731,"is_reserved":false,"is_disabled":false,"rental_uris":{"android":"levelo://app?vid=6eb7c271-4e10-4255-a788-8826cebe65f5","ios":"levelo://app?vid=6eb7c271-4e10-4255-a788-8826cebe65f5"},"vehicle_type_id":"4","last_reported":1686672499,"current_range_meters":7600,"station_id":"ce4bhbh2rcd13ifvqeqg","pricing_plan_id":"free"},{"bike_id":"a2875f78-29b8-44ef-ab39-4c2711bff0b9","system_id":"levelo_inurba_marseille","lat":43.292663,"lon":5.376389,"is_reserved":false,"is_disabled":false,"rental_uris":{"android":"levelo://app?vid=a2875f78-29b8-44ef-ab39-4c2711bff0b9","ios":"levelo://app?vid=a2875f78-29b8-44ef-ab39-4c2711bff0b9"},"vehicle_type_id":"4","last_reported":1686672499,"current_range_meters":0,"station_id":"ce4bgi12rcd13ifvqb80","pricing_plan_id":"free"},{"bike_id":"8ad8b95a-d037-496f-8ff7-89255c7479c8","system_id":"levelo_inurba_marseille","lat":43.291994,"lon":5.357886,"is_reserved":false,"is_disabled":false,"rental_uris":{"android":"levelo://app?vid=8ad8b95a-d037-496f-8ff7-89255c7479c8","ios":"levelo://app?vid=8ad8b95a-d037-496f-8ff7-89255c7479c8"},"vehicle_type_id":"4","last_reported":1686672499,"current_range_meters":13600,"station_id":"ce4bhb12rcd13ifvqel0","pricing_plan_id":"free"},{"bike_id":"6f3b576b-7188-4f39-b614-5e39ce827d19","system_id":"levelo_inurba_marseille","lat":43.313291,"lon":5.396838,"is_reserved":false,"is_disabled":false,"rental_uris":{"android":"levelo://app?vid=6f3b576b-7188-4f39-b614-5e39ce827d19","ios":"levelo://app?vid=6f3b576b-7188-4f39-b614-5e39ce827d19"},"vehicle_type_id":"4","last_reported":1686672499,"current_range_meters":16800,"station_id":"ce4bgvp2rcd13ifvqcu0","pricing_plan_id":"free"},{"bike_id":"c28b12e5-1f99-433a-859f-feda85fc3b15","system_id":"levelo_inurba_marseille","lat":43.313291,"lon":5.396838,"is_reserved":false,"is_disabled":false,"rental_uris":{"android":"levelo://app?vid=c28b12e5-1f99-433a-859f-feda85fc3b15","ios":"levelo://app?vid=c28b12e5-1f99-433a-859f-feda85fc3b15"},"vehicle_type_id":"4","last_reported":1686672499,"current_range_meters":31200,"station_id":"ce4bgvp2rcd13ifvqcu0","pricing_plan_id":"free"},{"bike_id":"7485e773-a065-48bc-88c5-f0d8d4024a4f","system_id":"levelo_inurba_marseille","lat":43.309038,"lon":5.396546,"is_reserved":false,"is_disabled":false,"rental_uris":{"android":"levelo://app?vid=7485e773-a065-48bc-88c5-f0d8d4024a4f","ios":"levelo://app?vid=7485e773-a065-48bc-88c5-f0d8d4024a4f"},"vehicle_type_id":"4","last_reported":1686672499,"current_range_meters":12800,"station_id":"ce4bh012rcd13ifvqcv0","pricing_plan_id":"free"},{"bike_id":"59faa82a-3474-4d6b-a3cf-36ed686ce392","system_id":"levelo_inurba_marseille","lat":43.29532,"lon":5.38538,"is_reserved":false,"is_disabled":false,"rental_uris":{"android":"levelo://app?vid=59faa82a-3474-4d6b-a3cf-36ed686ce392","ios":"levelo://app?vid=59faa82a-3474-4d6b-a3cf-36ed686ce392"},"vehicle_type_id":"4","last_reported":1686672499,"current_range_meters":0,"station_id":"ce4bgih2rcd13ifvqba0","pricing_plan_id":"free"},{"bike_id":"003547b2-8ab7-4eb0-a9b3-1700708008d3","system_id":"levelo_inurba_marseille","lat":43.290779,"lon":5.371482,"is_reserved":false,"is_disabled":false,"rental_uris":{"android":"levelo://app?vid=003547b2-8ab7-4eb0-a9b3-1700708008d3","ios":"levelo://app?vid=003547b2-8ab7-4eb0-a9b3-1700708008d3"},"vehicle_type_id":"4","last_reported":1686672499,"current_range_meters":19200,"station_id":"ce4bh5p2rcd13ifvqe4g","pricing_plan_id":"free"},{"bike_id":"00a6a596-e590-4f6a-95ca-1e37360ddf1d","system_id":"levelo_inurba_marseille","lat":43.290624,"lon":5.359245,"is_reserved":false,"is_disabled":false,"rental_uris":{"android":"levelo://app?vid=00a6a596-e590-4f6a-95ca-1e37360ddf1d","ios":"levelo://app?vid=00a6a596-e590-4f6a-95ca-1e37360ddf1d"},"vehicle_type_id":"4","last_reported":1686672499,"current_range_meters":28000,"station_id":"ce4bha92rcd13ifvqeg0","pricing_plan_id":"free"},{"bike_id":"fa482456-1a12-4967-b972-4a9c386ce9cd","system_id":"levelo_inurba_marseille","lat":43.290631,"lon":5.359244,"is_reserved":false,"is_disabled":false,"rental_uris":{"android":"levelo://app?vid=fa482456-1a12-4967-b972-4a9c386ce9cd","ios":"levelo://app?vid=fa482456-1a12-4967-b972-4a9c386ce9cd"},"vehicle_type_id":"4","last_reported":1686672499,"current_range_meters":800,"station_id":"ce4bha92rcd13ifvqeg0","pricing_plan_id":"free"},{"bike_id":"2abd111f-02cb-4ed2-9154-f6ce7d0522ab","system_id":"levelo_inurba_marseille","lat":43.29415,"lon":5.38628,"is_reserved":false,"is_disabled":false,"rental_uris":{"android":"levelo://app?vid=2abd111f-02cb-4ed2-9154-f6ce7d0522ab","ios":"levelo://app?vid=2abd111f-02cb-4ed2-9154-f6ce7d0522ab"},"vehicle_type_id":"4","last_reported":1686672499,"current_range_meters":17600,"station_id":"ce4bh2h2rcd13ifvqdh0","pricing_plan_id":"free"},{"bike_id":"bf492882-395f-4cb1-880f-b08441ce8fe9","system_id":"levelo_inurba_marseille","lat":43.289184,"lon":5.366408,"is_reserved":false,"is_disabled":false,"rental_uris":{"android":"levelo://app?vid=bf492882-395f-4cb1-880f-b08441ce8fe9","ios":"levelo://app?vid=bf492882-395f-4cb1-880f-b08441ce8fe9"},"vehicle_type_id":"4","last_reported":1686672499,"current_range_meters":0,"station_id":"ce4bhap2rcd13ifvqek0","pricing_plan_id":"free"},{"bike_id":"0a4beee8-1d0b-40b6-a628-dd56857f4693","system_id":"levelo_inurba_marseille","lat":43.294032,"lon":5.386342,"is_reserved":false,"is_disabled":false,"rental_uris":{"android":"levelo://app?vid=0a4beee8-1d0b-40b6-a628-dd56857f4693","ios":"levelo://app?vid=0a4beee8-1d0b-40b6-a628-dd56857f4693"},"vehicle_type_id":"4","last_reported":1686672499,"current_range_meters":11600,"station_id":"","pricing_plan_id":"free"},{"bike_id":"16863f48-a4f9-4e32-9ad8-3521776f7134","system_id":"levelo_inurba_marseille","lat":43.31017,"lon":5.39913,"is_reserved":false,"is_disabled":false,"rental_uris":{"android":"levelo://app?vid=16863f48-a4f9-4e32-9ad8-3521776f7134","ios":"levelo://app?vid=16863f48-a4f9-4e32-9ad8-3521776f7134"},"vehicle_type_id":"4","last_reported":1686672499,"current_range_meters":11600,"station_id":"","pricing_plan_id":"free"},{"bike_id":"24b90d9d-6fa2-488a-8086-eea2ed0658ca","system_id":"levelo_inurba_marseille","lat":43.30428,"lon":5.39736,"is_reserved":false,"is_disabled":false,"rental_uris":{"android":"levelo://app?vid=24b90d9d-6fa2-488a-8086-eea2ed0658ca","ios":"levelo://app?vid=24b90d9d-6fa2-488a-8086-eea2ed0658ca"},"vehicle_type_id":"4","last_reported":1686672499,"current_range_meters":24000,"station_id":"ce4bh092rcd13ifvqd20","pricing_plan_id":"free"},{"bike_id":"932b7cd9-dff5-460a-84c9-e9fdc644efb4","system_id":"levelo_inurba_marseille","lat":43.30425,"lon":5.39742,"is_reserved":false,"is_disabled":false,"rental_uris":{"android":"levelo://app?vid=932b7cd9-dff5-460a-84c9-e9fdc644efb4","ios":"levelo://app?vid=932b7cd9-dff5-460a-84c9-e9fdc644efb4"},"vehicle_type_id":"4","last_reported":1686672499,"current_range_meters":23200,"station_id":"ce4bh092rcd13ifvqd20","pricing_plan_id":"free"},{"bike_id":"665b6112-9255-4f25-a49f-ac8807f19aa5","system_id":"levelo_inurba_marseille","lat":43.304296,"lon":5.397513,"is_reserved":false,"is_disabled":false,"rental_uris":{"android":"levelo://app?vid=665b6112-9255-4f25-a49f-ac8807f19aa5","ios":"levelo://app?vid=665b6112-9255-4f25-a49f-ac8807f19aa5"},"vehicle_type_id":"4","last_reported":1686672499,"current_range_meters":8800,"station_id":"ce4bh092rcd13ifvqd20","pricing_plan_id":"free"},{"bike_id":"f15f12ae-b5bb-4527-a799-9f84bc0ebe04","system_id":"levelo_inurba_marseille","lat":43.33041,"lon":5.38918,"is_reserved":false,"is_disabled":false,"rental_uris":{"android":"levelo://app?vid=f15f12ae-b5bb-4527-a799-9f84bc0ebe04","ios":"levelo://app?vid=f15f12ae-b5bb-4527-a799-9f84bc0ebe04"},"vehicle_type_id":"4","last_reported":1686672499,"current_range_meters":9200,"station_id":"ce4bhr92rcd13ifvqhrg","pricing_plan_id":"free"},{"bike_id":"73af8695-7c95-45b3-ad0b-11280d41fcbb","system_id":"levelo_inurba_marseille","lat":43.33042,"lon":5.3892,"is_reserved":false,"is_disabled":false,"rental_uris":{"android":"levelo://app?vid=73af8695-7c95-45b3-ad0b-11280d41fcbb","ios":"levelo://app?vid=73af8695-7c95-45b3-ad0b-11280d41fcbb"},"vehicle_type_id":"4","last_reported":1686672499,"current_range_meters":6400,"station_id":"ce4bhr92rcd13ifvqhrg","pricing_plan_id":"free"},{"bike_id":"2e4d34da-3612-4f37-b068-62992619a0a4","system_id":"levelo_inurba_marseille","lat":43.290104,"lon":5.356111,"is_reserved":false,"is_disabled":false,"rental_uris":{"android":"levelo://app?vid=2e4d34da-3612-4f37-b068-62992619a0a4","ios":"levelo://app?vid=2e4d34da-3612-4f37-b068-62992619a0a4"},"vehicle_type_id":"4","last_reported":1686672499,"current_range_meters":5600,"station_id":"ce4bhb92rcd13ifvqen0","pricing_plan_id":"free"},{"bike_id":"1fba7c9e-7997-4d9d-a9e4-5e390b45288c","system_id":"levelo_inurba_marseille","lat":43.290104,"lon":5.356111,"is_reserved":false,"is_disabled":false,"rental_uris":{"android":"levelo://app?vid=1fba7c9e-7997-4d9d-a9e4-5e390b45288c","ios":"levelo://app?vid=1fba7c9e-7997-4d9d-a9e4-5e390b45288c"},"vehicle_type_id":"4","last_reported":1686672499,"current_range_meters":22000,"station_id":"ce4bhb92rcd13ifvqen0","pricing_plan_id":"free"},{"bike_id":"233b1caa-0aae-4ae5-897a-ee5c7301c6df","system_id":"levelo_inurba_marseille","lat":43.290995,"lon":5.381361,"is_reserved":false,"is_disabled":false,"rental_uris":{"android":"levelo://app?vid=233b1caa-0aae-4ae5-897a-ee5c7301c6df","ios":"levelo://app?vid=233b1caa-0aae-4ae5-897a-ee5c7301c6df"},"vehicle_type_id":"4","last_reported":1686672499,"current_range_meters":10800,"station_id":"ce4bh512rcd13ifvqe2g","pricing_plan_id":"free"},{"bike_id":"48108c95-d878-4d2b-8cd9-c3b9ddc9f470","system_id":"levelo_inurba_marseille","lat":43.29096,"lon":5.38161,"is_reserved":false,"is_disabled":false,"rental_uris":{"android":"levelo://app?vid=48108c95-d878-4d2b-8cd9-c3b9ddc9f470","ios":"levelo://app?vid=48108c95-d878-4d2b-8cd9-c3b9ddc9f470"},"vehicle_type_id":"4","last_reported":1686672499,"current_range_meters":30400,"station_id":"ce4bh512rcd13ifvqe2g","pricing_plan_id":"free"},{"bike_id":"7a8ee1d0-0cf9-4ced-aea6-17bc4447d478","system_id":"levelo_inurba_marseille","lat":43.29523,"lon":5.39032,"is_reserved":false,"is_disabled":false,"rental_uris":{"android":"levelo://app?vid=7a8ee1d0-0cf9-4ced-aea6-17bc4447d478","ios":"levelo://app?vid=7a8ee1d0-0cf9-4ced-aea6-17bc4447d478"},"vehicle_type_id":"4","last_reported":1686672499,"current_range_meters":29200,"station_id":"ce4bh3p2rcd13ifvqdp0","pricing_plan_id":"free"},{"bike_id":"27109432-fad6-4262-84c1-53c250aa4d62","system_id":"levelo_inurba_marseille","lat":43.297814,"lon":5.393513,"is_reserved":false,"is_disabled":false,"rental_uris":{"android":"levelo://app?vid=27109432-fad6-4262-84c1-53c250aa4d62","ios":"levelo://app?vid=27109432-fad6-4262-84c1-53c250aa4d62"},"vehicle_type_id":"4","last_reported":1686672499,"current_range_meters":8400,"station_id":"chh1huq6cuj3fo74tm60","pricing_plan_id":"free"},{"bike_id":"8d00fd40-ee50-4fdf-a7cc-c5c22e44958c","system_id":"levelo_inurba_marseille","lat":43.295169,"lon":5.390426,"is_reserved":false,"is_disabled":false,"rental_uris":{"android":"levelo://app?vid=8d00fd40-ee50-4fdf-a7cc-c5c22e44958c","ios":"levelo://app?vid=8d00fd40-ee50-4fdf-a7cc-c5c22e44958c"},"vehicle_type_id":"4","last_reported":1686672499,"current_range_meters":27600,"station_id":"ce4bh3p2rcd13ifvqdp0","pricing_plan_id":"free"},{"bike_id":"2c054544-8721-46ab-b26c-f968aefd9acd","system_id":"levelo_inurba_marseille","lat":43.28856,"lon":5.358371,"is_reserved":false,"is_disabled":false,"rental_uris":{"android":"levelo://app?vid=2c054544-8721-46ab-b26c-f968aefd9acd","ios":"levelo://app?vid=2c054544-8721-46ab-b26c-f968aefd9acd"},"vehicle_type_id":"4","last_reported":1686672499,"current_range_meters":4000,"station_id":"ce4bhb12rcd13ifvqem0","pricing_plan_id":"free"},{"bike_id":"6485b115-9dfe-4b29-b1e3-d3afd704a8be","system_id":"levelo_inurba_marseille","lat":43.337317,"lon":5.374437,"is_reserved":false,"is_disabled":false,"rental_uris":{"android":"levelo://app?vid=6485b115-9dfe-4b29-b1e3-d3afd704a8be","ios":"levelo://app?vid=6485b115-9dfe-4b29-b1e3-d3afd704a8be"},"vehicle_type_id":"4","last_reported":1686672499,"current_range_meters":29200,"station_id":"","pricing_plan_id":"free"},{"bike_id":"c0fb8083-e02d-4dec-b1b9-fa095e6c5b75","system_id":"levelo_inurba_marseille","lat":43.337396,"lon":5.374526,"is_reserved":false,"is_disabled":false,"rental_uris":{"android":"levelo://app?vid=c0fb8083-e02d-4dec-b1b9-fa095e6c5b75","ios":"levelo://app?vid=c0fb8083-e02d-4dec-b1b9-fa095e6c5b75"},"vehicle_type_id":"4","last_reported":1686672499,"current_range_meters":12400,"station_id":"ce4bhp92rcd13ifvqhag","pricing_plan_id":"free"},{"bike_id":"5124f134-a7d1-440d-a796-04504f48d052","system_id":"levelo_inurba_marseille","lat":43.309371,"lon":5.401449,"is_reserved":false,"is_disabled":false,"rental_uris":{"android":"levelo://app?vid=5124f134-a7d1-440d-a796-04504f48d052","ios":"levelo://app?vid=5124f134-a7d1-440d-a796-04504f48d052"},"vehicle_type_id":"4","last_reported":1686672499,"current_range_meters":0,"station_id":"ce4bgvp2rcd13ifvqct0","pricing_plan_id":"free"},{"bike_id":"588e34a7-ba7a-48c7-91de-0e47ded90344","system_id":"levelo_inurba_marseille","lat":43.33756,"lon":5.37465,"is_reserved":false,"is_disabled":false,"rental_uris":{"android":"levelo://app?vid=588e34a7-ba7a-48c7-91de-0e47ded90344","ios":"levelo://app?vid=588e34a7-ba7a-48c7-91de-0e47ded90344"},"vehicle_type_id":"4","last_reported":1686672499,"current_range_meters":30800,"station_id":"","pricing_plan_id":"free"},{"bike_id":"b54d7825-53c3-4d57-b48f-bc67877c2517","system_id":"levelo_inurba_marseille","lat":43.337628,"lon":5.374598,"is_reserved":false,"is_disabled":false,"rental_uris":{"android":"levelo://app?vid=b54d7825-53c3-4d57-b48f-bc67877c2517","ios":"levelo://app?vid=b54d7825-53c3-4d57-b48f-bc67877c2517"},"vehicle_type_id":"4","last_reported":1686672499,"current_range_meters":31200,"station_id":"","pricing_plan_id":"free"},{"bike_id":"ea03c79d-f315-40db-8e1e-c8c7f4d4a21b","system_id":"levelo_inurba_marseille","lat":43.33767,"lon":5.37447,"is_reserved":false,"is_disabled":false,"rental_uris":{"android":"levelo://app?vid=ea03c79d-f315-40db-8e1e-c8c7f4d4a21b","ios":"levelo://app?vid=ea03c79d-f315-40db-8e1e-c8c7f4d4a21b"},"vehicle_type_id":"4","last_reported":1686672499,"current_range_meters":29600,"station_id":"","pricing_plan_id":"free"},{"bike_id":"af97aa7d-59a7-4809-a458-5d3c764bda04","system_id":"levelo_inurba_marseille","lat":43.306412,"lon":5.401035,"is_reserved":false,"is_disabled":false,"rental_uris":{"android":"levelo://app?vid=af97aa7d-59a7-4809-a458-5d3c764bda04","ios":"levelo://app?vid=af97aa7d-59a7-4809-a458-5d3c764bda04"},"vehicle_type_id":"4","last_reported":1686672499,"current_range_meters":28400,"station_id":"ce4bh112rcd13ifvqda0","pricing_plan_id":"free"},{"bike_id":"4f6573f7-7bd0-4e3d-a2f0-d189115fd45f","system_id":"levelo_inurba_marseille","lat":43.30134,"lon":5.39863,"is_reserved":false,"is_disabled":false,"rental_uris":{"android":"levelo://app?vid=4f6573f7-7bd0-4e3d-a2f0-d189115fd45f","ios":"levelo://app?vid=4f6573f7-7bd0-4e3d-a2f0-d189115fd45f"},"vehicle_type_id":"4","last_reported":1686672499,"current_range_meters":23200,"station_id":"","pricing_plan_id":"free"},{"bike_id":"7a947675-db0d-4faf-81fc-fa20a056f917","system_id":"levelo_inurba_marseille","lat":43.286591,"lon":5.363346,"is_reserved":false,"is_disabled":false,"rental_uris":{"android":"levelo://app?vid=7a947675-db0d-4faf-81fc-fa20a056f917","ios":"levelo://app?vid=7a947675-db0d-4faf-81fc-fa20a056f917"},"vehicle_type_id":"4","last_reported":1686672499,"current_range_meters":14400,"station_id":"ce4bhah2rcd13ifvqej0","pricing_plan_id":"free"},{"bike_id":"81e725ae-3147-47d0-b7a3-0c2dd218d30c","system_id":"levelo_inurba_marseille","lat":43.302759,"lon":5.400793,"is_reserved":false,"is_disabled":false,"rental_uris":{"android":"levelo://app?vid=81e725ae-3147-47d0-b7a3-0c2dd218d30c","ios":"levelo://app?vid=81e725ae-3147-47d0-b7a3-0c2dd218d30c"},"vehicle_type_id":"4","last_reported":1686672499,"current_range_meters":0,"station_id":"ce4bgvh2rcd13ifvqcs0","pricing_plan_id":"free"},{"bike_id":"51d6994e-83bc-499e-9be2-12bcb1b3988b","system_id":"levelo_inurba_marseille","lat":43.29514,"lon":5.39399,"is_reserved":false,"is_disabled":false,"rental_uris":{"android":"levelo://app?vid=51d6994e-83bc-499e-9be2-12bcb1b3988b","ios":"levelo://app?vid=51d6994e-83bc-499e-9be2-12bcb1b3988b"},"vehicle_type_id":"4","last_reported":1686672499,"current_range_meters":8400,"station_id":"ce4bh292rcd13ifvqdf0","pricing_plan_id":"free"},{"bike_id":"1b8163b4-27ac-4b3b-8722-4663c3ef502d","system_id":"levelo_inurba_marseille","lat":43.302759,"lon":5.400793,"is_reserved":false,"is_disabled":false,"rental_uris":{"android":"levelo://app?vid=1b8163b4-27ac-4b3b-8722-4663c3ef502d","ios":"levelo://app?vid=1b8163b4-27ac-4b3b-8722-4663c3ef502d"},"vehicle_type_id":"4","last_reported":1686672499,"current_range_meters":20000,"station_id":"ce4bgvh2rcd13ifvqcs0","pricing_plan_id":"free"},{"bike_id":"467c1b56-7fb1-4843-bd68-5cd0832313c1","system_id":"levelo_inurba_marseille","lat":43.302759,"lon":5.400793,"is_reserved":false,"is_disabled":false,"rental_uris":{"android":"levelo://app?vid=467c1b56-7fb1-4843-bd68-5cd0832313c1","ios":"levelo://app?vid=467c1b56-7fb1-4843-bd68-5cd0832313c1"},"vehicle_type_id":"4","last_reported":1686672499,"current_range_meters":4400,"station_id":"ce4bgvh2rcd13ifvqcs0","pricing_plan_id":"free"},{"bike_id":"55e6bc56-56dc-4c56-bdb8-7cea1b3aa9c5","system_id":"levelo_inurba_marseille","lat":43.302759,"lon":5.400793,"is_reserved":false,"is_disabled":false,"rental_uris":{"android":"levelo://app?vid=55e6bc56-56dc-4c56-bdb8-7cea1b3aa9c5","ios":"levelo://app?vid=55e6bc56-56dc-4c56-bdb8-7cea1b3aa9c5"},"vehicle_type_id":"4","last_reported":1686672499,"current_range_meters":4400,"station_id":"ce4bgvh2rcd13ifvqcs0","pricing_plan_id":"free"},{"bike_id":"f70b4a6c-b61e-45a9-88f5-12a4de3ec3a8","system_id":"levelo_inurba_marseille","lat":43.287184,"lon":5.37937,"is_reserved":false,"is_disabled":false,"rental_uris":{"android":"levelo://app?vid=f70b4a6c-b61e-45a9-88f5-12a4de3ec3a8","ios":"levelo://app?vid=f70b4a6c-b61e-45a9-88f5-12a4de3ec3a8"},"vehicle_type_id":"4","last_reported":1686672499,"current_range_meters":6400,"station_id":"ce4bh9p2rcd13ifvqec0","pricing_plan_id":"free"},{"bike_id":"1af46322-61f3-40a8-9a11-0f63d67026fc","system_id":"levelo_inurba_marseille","lat":43.2871,"lon":5.37928,"is_reserved":false,"is_disabled":false,"rental_uris":{"android":"levelo://app?vid=1af46322-61f3-40a8-9a11-0f63d67026fc","ios":"levelo://app?vid=1af46322-61f3-40a8-9a11-0f63d67026fc"},"vehicle_type_id":"4","last_reported":1686672499,"current_range_meters":12800,"station_id":"ce4bh9p2rcd13ifvqec0","pricing_plan_id":"free"},{"bike_id":"857cbf76-ce2b-451b-bfab-3bcbb3377fa1","system_id":"levelo_inurba_marseille","lat":43.287185,"lon":5.379373,"is_reserved":false,"is_disabled":false,"rental_uris":{"android":"levelo://app?vid=857cbf76-ce2b-451b-bfab-3bcbb3377fa1","ios":"levelo://app?vid=857cbf76-ce2b-451b-bfab-3bcbb3377fa1"},"vehicle_type_id":"4","last_reported":1686672499,"current_range_meters":25600,"station_id":"ce4bh9p2rcd13ifvqec0","pricing_plan_id":"free"},{"bike_id":"0fa22fee-2c7c-4d0a-88b3-f0fe4e89de14","system_id":"levelo_inurba_marseille","lat":43.316517,"lon":5.404375,"is_reserved":false,"is_disabled":false,"rental_uris":{"android":"levelo://app?vid=0fa22fee-2c7c-4d0a-88b3-f0fe4e89de14","ios":"levelo://app?vid=0fa22fee-2c7c-4d0a-88b3-f0fe4e89de14"},"vehicle_type_id":"4","last_reported":1686672499,"current_range_meters":2000,"station_id":"ce4bh012rcd13ifvqd00","pricing_plan_id":"free"},{"bike_id":"1b01c095-a5a0-4804-b3e5-c6b2842205d3","system_id":"levelo_inurba_marseille","lat":43.316517,"lon":5.404375,"is_reserved":false,"is_disabled":false,"rental_uris":{"android":"levelo://app?vid=1b01c095-a5a0-4804-b3e5-c6b2842205d3","ios":"levelo://app?vid=1b01c095-a5a0-4804-b3e5-c6b2842205d3"},"vehicle_type_id":"4","last_reported":1686672499,"current_range_meters":5600,"station_id":"ce4bh012rcd13ifvqd00","pricing_plan_id":"free"},{"bike_id":"08d6376a-930f-461c-9487-06de38c0dad8","system_id":"levelo_inurba_marseille","lat":43.316517,"lon":5.404375,"is_reserved":false,"is_disabled":false,"rental_uris":{"android":"levelo://app?vid=08d6376a-930f-461c-9487-06de38c0dad8","ios":"levelo://app?vid=08d6376a-930f-461c-9487-06de38c0dad8"},"vehicle_type_id":"4","last_reported":1686672499,"current_range_meters":10000,"station_id":"ce4bh012rcd13ifvqd00","pricing_plan_id":"free"},{"bike_id":"02ac17b2-3a49-4910-adb9-8c723775ab09","system_id":"levelo_inurba_marseille","lat":43.291994,"lon":5.392907,"is_reserved":false,"is_disabled":false,"rental_uris":{"android":"levelo://app?vid=02ac17b2-3a49-4910-adb9-8c723775ab09","ios":"levelo://app?vid=02ac17b2-3a49-4910-adb9-8c723775ab09"},"vehicle_type_id":"4","last_reported":1686672499,"current_range_meters":0,"station_id":"ce4bh192rcd13ifvqdd0","pricing_plan_id":"free"},{"bike_id":"8c46791f-34f2-4897-9653-4c3e8ed4ce3e","system_id":"levelo_inurba_marseille","lat":43.291994,"lon":5.392907,"is_reserved":false,"is_disabled":false,"rental_uris":{"android":"levelo://app?vid=8c46791f-34f2-4897-9653-4c3e8ed4ce3e","ios":"levelo://app?vid=8c46791f-34f2-4897-9653-4c3e8ed4ce3e"},"vehicle_type_id":"4","last_reported":1686672499,"current_range_meters":16400,"station_id":"ce4bh192rcd13ifvqdd0","pricing_plan_id":"free"},{"bike_id":"3a887048-684a-419d-9eeb-0665276ff1dc","system_id":"levelo_inurba_marseille","lat":43.285856,"lon":5.350771,"is_reserved":false,"is_disabled":false,"rental_uris":{"android":"levelo://app?vid=3a887048-684a-419d-9eeb-0665276ff1dc","ios":"levelo://app?vid=3a887048-684a-419d-9eeb-0665276ff1dc"},"vehicle_type_id":"4","last_reported":1686672499,"current_range_meters":23200,"station_id":"ce4bhch2rcd13ifvqeug","pricing_plan_id":"free"},{"bike_id":"986b54c8-687e-403f-a5dc-d11fbf35f36b","system_id":"levelo_inurba_marseille","lat":43.285848,"lon":5.350787,"is_reserved":false,"is_disabled":false,"rental_uris":{"android":"levelo://app?vid=986b54c8-687e-403f-a5dc-d11fbf35f36b","ios":"levelo://app?vid=986b54c8-687e-403f-a5dc-d11fbf35f36b"},"vehicle_type_id":"4","last_reported":1686672499,"current_range_meters":24800,"station_id":"ce4bhch2rcd13ifvqeug","pricing_plan_id":"free"},{"bike_id":"7b70015b-548f-4cb8-8e9c-19b529c82138","system_id":"levelo_inurba_marseille","lat":43.285856,"lon":5.350771,"is_reserved":false,"is_disabled":false,"rental_uris":{"android":"levelo://app?vid=7b70015b-548f-4cb8-8e9c-19b529c82138","ios":"levelo://app?vid=7b70015b-548f-4cb8-8e9c-19b529c82138"},"vehicle_type_id":"4","last_reported":1686672499,"current_range_meters":6000,"station_id":"ce4bhch2rcd13ifvqeug","pricing_plan_id":"free"},{"bike_id":"111b5a62-9b96-40b3-a477-ec351d3b00f2","system_id":"levelo_inurba_marseille","lat":43.285856,"lon":5.350771,"is_reserved":false,"is_disabled":false,"rental_uris":{"android":"levelo://app?vid=111b5a62-9b96-40b3-a477-ec351d3b00f2","ios":"levelo://app?vid=111b5a62-9b96-40b3-a477-ec351d3b00f2"},"vehicle_type_id":"4","last_reported":1686672499,"current_range_meters":16800,"station_id":"ce4bhch2rcd13ifvqeug","pricing_plan_id":"free"},{"bike_id":"f6ca54d7-fa35-4532-b7a6-37174d848380","system_id":"levelo_inurba_marseille","lat":43.285856,"lon":5.350771,"is_reserved":false,"is_disabled":false,"rental_uris":{"android":"levelo://app?vid=f6ca54d7-fa35-4532-b7a6-37174d848380","ios":"levelo://app?vid=f6ca54d7-fa35-4532-b7a6-37174d848380"},"vehicle_type_id":"4","last_reported":1686672499,"current_range_meters":0,"station_id":"ce4bhch2rcd13ifvqeug","pricing_plan_id":"free"},{"bike_id":"59e12282-327e-4d56-9ae8-0ecbe5e0b75d","system_id":"levelo_inurba_marseille","lat":43.285848,"lon":5.350787,"is_reserved":false,"is_disabled":false,"rental_uris":{"android":"levelo://app?vid=59e12282-327e-4d56-9ae8-0ecbe5e0b75d","ios":"levelo://app?vid=59e12282-327e-4d56-9ae8-0ecbe5e0b75d"},"vehicle_type_id":"4","last_reported":1686672499,"current_range_meters":29600,"station_id":"ce4bhch2rcd13ifvqeug","pricing_plan_id":"free"},{"bike_id":"a694226c-ec64-4eab-b1f1-01fc34a3c848","system_id":"levelo_inurba_marseille","lat":43.285856,"lon":5.350771,"is_reserved":false,"is_disabled":false,"rental_uris":{"android":"levelo://app?vid=a694226c-ec64-4eab-b1f1-01fc34a3c848","ios":"levelo://app?vid=a694226c-ec64-4eab-b1f1-01fc34a3c848"},"vehicle_type_id":"4","last_reported":1686672499,"current_range_meters":19200,"station_id":"ce4bhch2rcd13ifvqeug","pricing_plan_id":"free"},{"bike_id":"b2e5b5e4-9fa7-455b-9d2a-67d1c0085e7c","system_id":"levelo_inurba_marseille","lat":43.285856,"lon":5.350771,"is_reserved":false,"is_disabled":false,"rental_uris":{"android":"levelo://app?vid=b2e5b5e4-9fa7-455b-9d2a-67d1c0085e7c","ios":"levelo://app?vid=b2e5b5e4-9fa7-455b-9d2a-67d1c0085e7c"},"vehicle_type_id":"4","last_reported":1686672499,"current_range_meters":21600,"station_id":"ce4bhch2rcd13ifvqeug","pricing_plan_id":"free"},{"bike_id":"3d7445ce-1e57-4ea5-96ba-8a481bd511df","system_id":"levelo_inurba_marseille","lat":43.285856,"lon":5.350771,"is_reserved":false,"is_disabled":false,"rental_uris":{"android":"levelo://app?vid=3d7445ce-1e57-4ea5-96ba-8a481bd511df","ios":"levelo://app?vid=3d7445ce-1e57-4ea5-96ba-8a481bd511df"},"vehicle_type_id":"4","last_reported":1686672499,"current_range_meters":24800,"station_id":"ce4bhch2rcd13ifvqeug","pricing_plan_id":"free"},{"bike_id":"df4dd48b-2318-4ad0-9221-b2eaa0f62c6b","system_id":"levelo_inurba_marseille","lat":43.295713,"lon":5.399639,"is_reserved":false,"is_disabled":false,"rental_uris":{"android":"levelo://app?vid=df4dd48b-2318-4ad0-9221-b2eaa0f62c6b","ios":"levelo://app?vid=df4dd48b-2318-4ad0-9221-b2eaa0f62c6b"},"vehicle_type_id":"4","last_reported":1686672499,"current_range_meters":24000,"station_id":"ce4bh312rcd13ifvqdj0","pricing_plan_id":"free"},{"bike_id":"ccd8c4e9-901b-470f-8c31-bc7ebdf7d03a","system_id":"levelo_inurba_marseille","lat":43.28405,"lon":5.37509,"is_reserved":false,"is_disabled":false,"rental_uris":{"android":"levelo://app?vid=ccd8c4e9-901b-470f-8c31-bc7ebdf7d03a","ios":"levelo://app?vid=ccd8c4e9-901b-470f-8c31-bc7ebdf7d03a"},"vehicle_type_id":"4","last_reported":1686672499,"current_range_meters":13600,"station_id":"","pricing_plan_id":"free"},{"bike_id":"b2f350cf-da2c-4fc6-8890-933c02f9f293","system_id":"levelo_inurba_marseille","lat":43.295713,"lon":5.399639,"is_reserved":false,"is_disabled":false,"rental_uris":{"android":"levelo://app?vid=b2f350cf-da2c-4fc6-8890-933c02f9f293","ios":"levelo://app?vid=b2f350cf-da2c-4fc6-8890-933c02f9f293"},"vehicle_type_id":"4","last_reported":1686672499,"current_range_meters":4400,"station_id":"ce4bh312rcd13ifvqdj0","pricing_plan_id":"free"},{"bike_id":"7950a6a9-cf66-4bfa-905e-adf76da33e46","system_id":"levelo_inurba_marseille","lat":43.295713,"lon":5.399639,"is_reserved":false,"is_disabled":false,"rental_uris":{"android":"levelo://app?vid=7950a6a9-cf66-4bfa-905e-adf76da33e46","ios":"levelo://app?vid=7950a6a9-cf66-4bfa-905e-adf76da33e46"},"vehicle_type_id":"4","last_reported":1686672499,"current_range_meters":5200,"station_id":"ce4bh312rcd13ifvqdj0","pricing_plan_id":"free"},{"bike_id":"5edff5b9-a1ba-40bf-b372-7e34a865256f","system_id":"levelo_inurba_marseille","lat":43.296263,"lon":5.40601,"is_reserved":false,"is_disabled":false,"rental_uris":{"android":"levelo://app?vid=5edff5b9-a1ba-40bf-b372-7e34a865256f","ios":"levelo://app?vid=5edff5b9-a1ba-40bf-b372-7e34a865256f"},"vehicle_type_id":"4","last_reported":1686672499,"current_range_meters":12800,"station_id":"ce4bh0h2rcd13ifvqd60","pricing_plan_id":"free"},{"bike_id":"dd2ab380-bd05-4ee0-a345-2b01e7519c6f","system_id":"levelo_inurba_marseille","lat":43.286595,"lon":5.386795,"is_reserved":false,"is_disabled":false,"rental_uris":{"android":"levelo://app?vid=dd2ab380-bd05-4ee0-a345-2b01e7519c6f","ios":"levelo://app?vid=dd2ab380-bd05-4ee0-a345-2b01e7519c6f"},"vehicle_type_id":"4","last_reported":1686672499,"current_range_meters":2400,"station_id":"ce4bh492rcd13ifvqdug","pricing_plan_id":"free"},{"bike_id":"5dde5158-3b05-4209-92eb-0a1f29e8d418","system_id":"levelo_inurba_marseille","lat":43.286595,"lon":5.386795,"is_reserved":false,"is_disabled":false,"rental_uris":{"android":"levelo://app?vid=5dde5158-3b05-4209-92eb-0a1f29e8d418","ios":"levelo://app?vid=5dde5158-3b05-4209-92eb-0a1f29e8d418"},"vehicle_type_id":"4","last_reported":1686672499,"current_range_meters":0,"station_id":"ce4bh492rcd13ifvqdug","pricing_plan_id":"free"},{"bike_id":"16e5fedd-6e86-436a-a0a2-72c7cd60a6ea","system_id":"levelo_inurba_marseille","lat":43.32345,"lon":5.40616,"is_reserved":false,"is_disabled":false,"rental_uris":{"android":"levelo://app?vid=16e5fedd-6e86-436a-a0a2-72c7cd60a6ea","ios":"levelo://app?vid=16e5fedd-6e86-436a-a0a2-72c7cd60a6ea"},"vehicle_type_id":"4","last_reported":1686672499,"current_range_meters":31200,"station_id":"ce4bhq92rcd13ifvqhjg","pricing_plan_id":"free"},{"bike_id":"f62ba153-082f-40a0-996c-72d65e874915","system_id":"levelo_inurba_marseille","lat":43.323464,"lon":5.406297,"is_reserved":false,"is_disabled":false,"rental_uris":{"android":"levelo://app?vid=f62ba153-082f-40a0-996c-72d65e874915","ios":"levelo://app?vid=f62ba153-082f-40a0-996c-72d65e874915"},"vehicle_type_id":"4","last_reported":1686672499,"current_range_meters":13600,"station_id":"ce4bhq92rcd13ifvqhjg","pricing_plan_id":"free"},{"bike_id":"e2fc70b8-7548-494f-8e43-0c065153422e","system_id":"levelo_inurba_marseille","lat":43.323464,"lon":5.406297,"is_reserved":false,"is_disabled":false,"rental_uris":{"android":"levelo://app?vid=e2fc70b8-7548-494f-8e43-0c065153422e","ios":"levelo://app?vid=e2fc70b8-7548-494f-8e43-0c065153422e"},"vehicle_type_id":"4","last_reported":1686672499,"current_range_meters":28000,"station_id":"ce4bhq92rcd13ifvqhjg","pricing_plan_id":"free"},{"bike_id":"e9ba9697-2c8b-435d-abe0-cb1f1fa45420","system_id":"levelo_inurba_marseille","lat":43.28478,"lon":5.38409,"is_reserved":false,"is_disabled":false,"rental_uris":{"android":"levelo://app?vid=e9ba9697-2c8b-435d-abe0-cb1f1fa45420","ios":"levelo://app?vid=e9ba9697-2c8b-435d-abe0-cb1f1fa45420"},"vehicle_type_id":"4","last_reported":1686672499,"current_range_meters":3200,"station_id":"ce4bh512rcd13ifvqe3g","pricing_plan_id":"free"},{"bike_id":"5b857e2d-0931-4e9c-a565-7ed4e2d977ce","system_id":"levelo_inurba_marseille","lat":43.28472,"lon":5.38411,"is_reserved":false,"is_disabled":false,"rental_uris":{"android":"levelo://app?vid=5b857e2d-0931-4e9c-a565-7ed4e2d977ce","ios":"levelo://app?vid=5b857e2d-0931-4e9c-a565-7ed4e2d977ce"},"vehicle_type_id":"4","last_reported":1686672499,"current_range_meters":20400,"station_id":"ce4bh512rcd13ifvqe3g","pricing_plan_id":"free"},{"bike_id":"0d3b5797-4a3e-4f37-911c-a91ff97b98e6","system_id":"levelo_inurba_marseille","lat":43.284219,"lon":5.3497,"is_reserved":false,"is_disabled":false,"rental_uris":{"android":"levelo://app?vid=0d3b5797-4a3e-4f37-911c-a91ff97b98e6","ios":"levelo://app?vid=0d3b5797-4a3e-4f37-911c-a91ff97b98e6"},"vehicle_type_id":"4","last_reported":1686672499,"current_range_meters":17600,"station_id":"ce4bhbh2rcd13ifvqepg","pricing_plan_id":"free"},{"bike_id":"192726ee-3700-4cd2-8f68-af1311e246de","system_id":"levelo_inurba_marseille","lat":43.284219,"lon":5.3497,"is_reserved":false,"is_disabled":false,"rental_uris":{"android":"levelo://app?vid=192726ee-3700-4cd2-8f68-af1311e246de","ios":"levelo://app?vid=192726ee-3700-4cd2-8f68-af1311e246de"},"vehicle_type_id":"4","last_reported":1686672499,"current_range_meters":14400,"station_id":"ce4bhbh2rcd13ifvqepg","pricing_plan_id":"free"},{"bike_id":"53ac039e-90f1-4fb2-b1fc-416513ea3241","system_id":"levelo_inurba_marseille","lat":43.28424,"lon":5.34994,"is_reserved":false,"is_disabled":false,"rental_uris":{"android":"levelo://app?vid=53ac039e-90f1-4fb2-b1fc-416513ea3241","ios":"levelo://app?vid=53ac039e-90f1-4fb2-b1fc-416513ea3241"},"vehicle_type_id":"4","last_reported":1686672499,"current_range_meters":17200,"station_id":"ce4bhbh2rcd13ifvqepg","pricing_plan_id":"free"},{"bike_id":"41ad3bfa-744a-48b5-8f15-6635ee32b9df","system_id":"levelo_inurba_marseille","lat":43.284219,"lon":5.3497,"is_reserved":false,"is_disabled":false,"rental_uris":{"android":"levelo://app?vid=41ad3bfa-744a-48b5-8f15-6635ee32b9df","ios":"levelo://app?vid=41ad3bfa-744a-48b5-8f15-6635ee32b9df"},"vehicle_type_id":"4","last_reported":1686672499,"current_range_meters":24800,"station_id":"ce4bhbh2rcd13ifvqepg","pricing_plan_id":"free"},{"bike_id":"6ca178b8-46b5-4fe3-ba19-8d32e05338e4","system_id":"levelo_inurba_marseille","lat":43.284219,"lon":5.3497,"is_reserved":false,"is_disabled":false,"rental_uris":{"android":"levelo://app?vid=6ca178b8-46b5-4fe3-ba19-8d32e05338e4","ios":"levelo://app?vid=6ca178b8-46b5-4fe3-ba19-8d32e05338e4"},"vehicle_type_id":"4","last_reported":1686672499,"current_range_meters":24000,"station_id":"ce4bhbh2rcd13ifvqepg","pricing_plan_id":"free"},{"bike_id":"db59923e-cdfb-4ca7-a6d1-a7524d4a1a9c","system_id":"levelo_inurba_marseille","lat":43.284219,"lon":5.3497,"is_reserved":false,"is_disabled":false,"rental_uris":{"android":"levelo://app?vid=db59923e-cdfb-4ca7-a6d1-a7524d4a1a9c","ios":"levelo://app?vid=db59923e-cdfb-4ca7-a6d1-a7524d4a1a9c"},"vehicle_type_id":"4","last_reported":1686672499,"current_range_meters":31200,"station_id":"ce4bhbh2rcd13ifvqepg","pricing_plan_id":"free"},{"bike_id":"ce77a310-3a46-4ad9-91c3-94410e06b7f7","system_id":"levelo_inurba_marseille","lat":43.284219,"lon":5.3497,"is_reserved":false,"is_disabled":false,"rental_uris":{"android":"levelo://app?vid=ce77a310-3a46-4ad9-91c3-94410e06b7f7","ios":"levelo://app?vid=ce77a310-3a46-4ad9-91c3-94410e06b7f7"},"vehicle_type_id":"4","last_reported":1686672499,"current_range_meters":17200,"station_id":"ce4bhbh2rcd13ifvqepg","pricing_plan_id":"free"},{"bike_id":"58f08fb0-176a-4fd2-8276-da24a5841bd5","system_id":"levelo_inurba_marseille","lat":43.284219,"lon":5.3497,"is_reserved":false,"is_disabled":false,"rental_uris":{"android":"levelo://app?vid=58f08fb0-176a-4fd2-8276-da24a5841bd5","ios":"levelo://app?vid=58f08fb0-176a-4fd2-8276-da24a5841bd5"},"vehicle_type_id":"4","last_reported":1686672499,"current_range_meters":12800,"station_id":"ce4bhbh2rcd13ifvqepg","pricing_plan_id":"free"},{"bike_id":"507b3214-c6ff-4344-9a04-4a62a5587996","system_id":"levelo_inurba_marseille","lat":43.28415,"lon":5.34993,"is_reserved":false,"is_disabled":false,"rental_uris":{"android":"levelo://app?vid=507b3214-c6ff-4344-9a04-4a62a5587996","ios":"levelo://app?vid=507b3214-c6ff-4344-9a04-4a62a5587996"},"vehicle_type_id":"4","last_reported":1686672499,"current_range_meters":26800,"station_id":"ce4bhbh2rcd13ifvqepg","pricing_plan_id":"free"},{"bike_id":"e4c1470b-3009-4c6d-8ab9-32398cfbe1e8","system_id":"levelo_inurba_marseille","lat":43.28414,"lon":5.34973,"is_reserved":false,"is_disabled":false,"rental_uris":{"android":"levelo://app?vid=e4c1470b-3009-4c6d-8ab9-32398cfbe1e8","ios":"levelo://app?vid=e4c1470b-3009-4c6d-8ab9-32398cfbe1e8"},"vehicle_type_id":"4","last_reported":1686672499,"current_range_meters":9600,"station_id":"ce4bhbh2rcd13ifvqepg","pricing_plan_id":"free"},{"bike_id":"a4081a8c-e00c-42e5-a351-9928a354a74c","system_id":"levelo_inurba_marseille","lat":43.28407,"lon":5.34984,"is_reserved":false,"is_disabled":false,"rental_uris":{"android":"levelo://app?vid=a4081a8c-e00c-42e5-a351-9928a354a74c","ios":"levelo://app?vid=a4081a8c-e00c-42e5-a351-9928a354a74c"},"vehicle_type_id":"4","last_reported":1686672499,"current_range_meters":31200,"station_id":"ce4bhbh2rcd13ifvqepg","pricing_plan_id":"free"},{"bike_id":"8a1082f1-c614-475a-8d27-e1f1c1e08157","system_id":"levelo_inurba_marseille","lat":43.28407,"lon":5.34983,"is_reserved":false,"is_disabled":false,"rental_uris":{"android":"levelo://app?vid=8a1082f1-c614-475a-8d27-e1f1c1e08157","ios":"levelo://app?vid=8a1082f1-c614-475a-8d27-e1f1c1e08157"},"vehicle_type_id":"4","last_reported":1686672499,"current_range_meters":17600,"station_id":"ce4bhbh2rcd13ifvqepg","pricing_plan_id":"free"},{"bike_id":"e658bf8d-ead6-41d0-aa7d-26ed289d9fe6","system_id":"levelo_inurba_marseille","lat":43.28406,"lon":5.34968,"is_reserved":false,"is_disabled":false,"rental_uris":{"android":"levelo://app?vid=e658bf8d-ead6-41d0-aa7d-26ed289d9fe6","ios":"levelo://app?vid=e658bf8d-ead6-41d0-aa7d-26ed289d9fe6"},"vehicle_type_id":"4","last_reported":1686672499,"current_range_meters":1200,"station_id":"ce4bhbh2rcd13ifvqepg","pricing_plan_id":"free"},{"bike_id":"5c2608f2-bf49-4f21-a37c-7fd3e7ba59ae","system_id":"levelo_inurba_marseille","lat":43.292724,"lon":5.401131,"is_reserved":false,"is_disabled":false,"rental_uris":{"android":"levelo://app?vid=5c2608f2-bf49-4f21-a37c-7fd3e7ba59ae","ios":"levelo://app?vid=5c2608f2-bf49-4f21-a37c-7fd3e7ba59ae"},"vehicle_type_id":"4","last_reported":1686672499,"current_range_meters":0,"station_id":"ce4bh312rcd13ifvqdk0","pricing_plan_id":"free"},{"bike_id":"d9e98527-aa09-4d6b-ade7-e179c91d1aab","system_id":"levelo_inurba_marseille","lat":43.28271,"lon":5.35064,"is_reserved":false,"is_disabled":false,"rental_uris":{"android":"levelo://app?vid=d9e98527-aa09-4d6b-ade7-e179c91d1aab","ios":"levelo://app?vid=d9e98527-aa09-4d6b-ade7-e179c91d1aab"},"vehicle_type_id":"4","last_reported":1686672499,"current_range_meters":28400,"station_id":"ce4bhbp2rcd13ifvqerg","pricing_plan_id":"free"},{"bike_id":"e16feb3e-0ec3-41e0-8422-a31bbad52e33","system_id":"levelo_inurba_marseille","lat":43.280382,"lon":5.369291,"is_reserved":false,"is_disabled":false,"rental_uris":{"android":"levelo://app?vid=e16feb3e-0ec3-41e0-8422-a31bbad52e33","ios":"levelo://app?vid=e16feb3e-0ec3-41e0-8422-a31bbad52e33"},"vehicle_type_id":"4","last_reported":1686672499,"current_range_meters":22000,"station_id":"ce4bha12rcd13ifvqef0","pricing_plan_id":"free"},{"bike_id":"fd87fd70-d9ae-4a15-89a6-5e990c13c422","system_id":"levelo_inurba_marseille","lat":43.280382,"lon":5.369291,"is_reserved":false,"is_disabled":false,"rental_uris":{"android":"levelo://app?vid=fd87fd70-d9ae-4a15-89a6-5e990c13c422","ios":"levelo://app?vid=fd87fd70-d9ae-4a15-89a6-5e990c13c422"},"vehicle_type_id":"4","last_reported":1686672499,"current_range_meters":20400,"station_id":"ce4bha12rcd13ifvqef0","pricing_plan_id":"free"},{"bike_id":"71163962-ad67-4e6b-8366-d5b2c8cae856","system_id":"levelo_inurba_marseille","lat":43.281044,"lon":5.378308,"is_reserved":false,"is_disabled":false,"rental_uris":{"android":"levelo://app?vid=71163962-ad67-4e6b-8366-d5b2c8cae856","ios":"levelo://app?vid=71163962-ad67-4e6b-8366-d5b2c8cae856"},"vehicle_type_id":"4","last_reported":1686672499,"current_range_meters":8800,"station_id":"ce4bha12rcd13ifvqee0","pricing_plan_id":"free"},{"bike_id":"9d71ee18-5384-4a52-bb96-d9f4895bdbf4","system_id":"levelo_inurba_marseille","lat":43.284462,"lon":5.392121,"is_reserved":false,"is_disabled":false,"rental_uris":{"android":"levelo://app?vid=9d71ee18-5384-4a52-bb96-d9f4895bdbf4","ios":"levelo://app?vid=9d71ee18-5384-4a52-bb96-d9f4895bdbf4"},"vehicle_type_id":"4","last_reported":1686672499,"current_range_meters":16800,"station_id":"ce4bhoh2rcd13ifvqh5g","pricing_plan_id":"free"},{"bike_id":"c99eaf52-cba7-4e48-8fa5-ce6c38fb5733","system_id":"levelo_inurba_marseille","lat":43.326605,"lon":5.409903,"is_reserved":false,"is_disabled":false,"rental_uris":{"android":"levelo://app?vid=c99eaf52-cba7-4e48-8fa5-ce6c38fb5733","ios":"levelo://app?vid=c99eaf52-cba7-4e48-8fa5-ce6c38fb5733"},"vehicle_type_id":"4","last_reported":1686672499,"current_range_meters":18400,"station_id":"ce4bhpp2rcd13ifvqhgg","pricing_plan_id":"free"},{"bike_id":"15a911ef-f777-41e9-83d2-cc27465615a4","system_id":"levelo_inurba_marseille","lat":43.32039,"lon":5.41539,"is_reserved":false,"is_disabled":false,"rental_uris":{"android":"levelo://app?vid=15a911ef-f777-41e9-83d2-cc27465615a4","ios":"levelo://app?vid=15a911ef-f777-41e9-83d2-cc27465615a4"},"vehicle_type_id":"4","last_reported":1686672499,"current_range_meters":7600,"station_id":"","pricing_plan_id":"free"},{"bike_id":"22523b66-86c6-4ecb-83f9-1e09dd706759","system_id":"levelo_inurba_marseille","lat":43.320045,"lon":5.415048,"is_reserved":false,"is_disabled":false,"rental_uris":{"android":"levelo://app?vid=22523b66-86c6-4ecb-83f9-1e09dd706759","ios":"levelo://app?vid=22523b66-86c6-4ecb-83f9-1e09dd706759"},"vehicle_type_id":"4","last_reported":1686672499,"current_range_meters":17600,"station_id":"ce4bhq92rcd13ifvqhkg","pricing_plan_id":"free"},{"bike_id":"a5ad4602-8d45-4204-aaae-26cb32658964","system_id":"levelo_inurba_marseille","lat":43.290631,"lon":5.359244,"is_reserved":false,"is_disabled":false,"rental_uris":{"android":"levelo://app?vid=a5ad4602-8d45-4204-aaae-26cb32658964","ios":"levelo://app?vid=a5ad4602-8d45-4204-aaae-26cb32658964"},"vehicle_type_id":"4","last_reported":1686672499,"current_range_meters":24000,"station_id":"ce4bha92rcd13ifvqeg0","pricing_plan_id":"free"},{"bike_id":"9dc000b7-fa0a-4ba2-8f57-db38381e0b81","system_id":"levelo_inurba_marseille","lat":43.325233,"lon":5.414318,"is_reserved":false,"is_disabled":false,"rental_uris":{"android":"levelo://app?vid=9dc000b7-fa0a-4ba2-8f57-db38381e0b81","ios":"levelo://app?vid=9dc000b7-fa0a-4ba2-8f57-db38381e0b81"},"vehicle_type_id":"4","last_reported":1686672499,"current_range_meters":16400,"station_id":"ce4bhq12rcd13ifvqhhg","pricing_plan_id":"free"},{"bike_id":"84bc9374-7eaf-40c7-9d65-9a92b2818c4f","system_id":"levelo_inurba_marseille","lat":43.27618,"lon":5.361009,"is_reserved":false,"is_disabled":false,"rental_uris":{"android":"levelo://app?vid=84bc9374-7eaf-40c7-9d65-9a92b2818c4f","ios":"levelo://app?vid=84bc9374-7eaf-40c7-9d65-9a92b2818c4f"},"vehicle_type_id":"4","last_reported":1686672499,"current_range_meters":2800,"station_id":"ce4bgj92rcd13ifvqbe0","pricing_plan_id":"free"},{"bike_id":"2d490b68-816c-4e07-9d49-01e52dd68b13","system_id":"levelo_inurba_marseille","lat":43.325233,"lon":5.414318,"is_reserved":false,"is_disabled":false,"rental_uris":{"android":"levelo://app?vid=2d490b68-816c-4e07-9d49-01e52dd68b13","ios":"levelo://app?vid=2d490b68-816c-4e07-9d49-01e52dd68b13"},"vehicle_type_id":"4","last_reported":1686672499,"current_range_meters":31200,"station_id":"ce4bhq12rcd13ifvqhhg","pricing_plan_id":"free"},{"bike_id":"000f0432-1932-42f1-b1ce-750c3056db56","system_id":"levelo_inurba_marseille","lat":43.27617,"lon":5.36115,"is_reserved":false,"is_disabled":false,"rental_uris":{"android":"levelo://app?vid=000f0432-1932-42f1-b1ce-750c3056db56","ios":"levelo://app?vid=000f0432-1932-42f1-b1ce-750c3056db56"},"vehicle_type_id":"4","last_reported":1686672499,"current_range_meters":30400,"station_id":"ce4bgj92rcd13ifvqbe0","pricing_plan_id":"free"},{"bike_id":"ae39e40d-71b9-4312-8a15-c9263c849f97","system_id":"levelo_inurba_marseille","lat":43.29803,"lon":5.41335,"is_reserved":false,"is_disabled":false,"rental_uris":{"android":"levelo://app?vid=ae39e40d-71b9-4312-8a15-c9263c849f97","ios":"levelo://app?vid=ae39e40d-71b9-4312-8a15-c9263c849f97"},"vehicle_type_id":"4","last_reported":1686672499,"current_range_meters":20400,"station_id":"","pricing_plan_id":"free"},{"bike_id":"1cdc4c85-cb3d-4d96-aefa-f1c50f16c9f4","system_id":"levelo_inurba_marseille","lat":43.27613,"lon":5.36111,"is_reserved":false,"is_disabled":false,"rental_uris":{"android":"levelo://app?vid=1cdc4c85-cb3d-4d96-aefa-f1c50f16c9f4","ios":"levelo://app?vid=1cdc4c85-cb3d-4d96-aefa-f1c50f16c9f4"},"vehicle_type_id":"4","last_reported":1686672499,"current_range_meters":13600,"station_id":"ce4bgj92rcd13ifvqbe0","pricing_plan_id":"free"},{"bike_id":"05263c83-1735-4655-ab1a-1fab12f6a4b0","system_id":"levelo_inurba_marseille","lat":43.32537,"lon":5.41454,"is_reserved":false,"is_disabled":false,"rental_uris":{"android":"levelo://app?vid=05263c83-1735-4655-ab1a-1fab12f6a4b0","ios":"levelo://app?vid=05263c83-1735-4655-ab1a-1fab12f6a4b0"},"vehicle_type_id":"4","last_reported":1686672499,"current_range_meters":15600,"station_id":"ce4bhq12rcd13ifvqhhg","pricing_plan_id":"free"},{"bike_id":"109f659f-2795-42df-8a83-9d3f29a9793f","system_id":"levelo_inurba_marseille","lat":43.27842,"lon":5.392,"is_reserved":false,"is_disabled":false,"rental_uris":{"android":"levelo://app?vid=109f659f-2795-42df-8a83-9d3f29a9793f","ios":"levelo://app?vid=109f659f-2795-42df-8a83-9d3f29a9793f"},"vehicle_type_id":"4","last_reported":1686672499,"current_range_meters":31200,"station_id":"ce4bhjp2rcd13ifvqga0","pricing_plan_id":"free"},{"bike_id":"74f68783-a296-45f1-816e-77b658953a37","system_id":"levelo_inurba_marseille","lat":43.278401,"lon":5.392152,"is_reserved":false,"is_disabled":false,"rental_uris":{"android":"levelo://app?vid=74f68783-a296-45f1-816e-77b658953a37","ios":"levelo://app?vid=74f68783-a296-45f1-816e-77b658953a37"},"vehicle_type_id":"4","last_reported":1686672499,"current_range_meters":31200,"station_id":"ce4bhjp2rcd13ifvqga0","pricing_plan_id":"free"},{"bike_id":"f70faa8f-272e-48d2-b9b5-29ca99348113","system_id":"levelo_inurba_marseille","lat":43.28049,"lon":5.39712,"is_reserved":false,"is_disabled":false,"rental_uris":{"android":"levelo://app?vid=f70faa8f-272e-48d2-b9b5-29ca99348113","ios":"levelo://app?vid=f70faa8f-272e-48d2-b9b5-29ca99348113"},"vehicle_type_id":"4","last_reported":1686672499,"current_range_meters":8000,"station_id":"","pricing_plan_id":"free"},{"bike_id":"cf190657-93d7-458a-bcac-f5c223c27afb","system_id":"levelo_inurba_marseille","lat":43.273613,"lon":5.362705,"is_reserved":false,"is_disabled":false,"rental_uris":{"android":"levelo://app?vid=cf190657-93d7-458a-bcac-f5c223c27afb","ios":"levelo://app?vid=cf190657-93d7-458a-bcac-f5c223c27afb"},"vehicle_type_id":"4","last_reported":1686672499,"current_range_meters":30800,"station_id":"ce4bhbh2rcd13ifvqeo0","pricing_plan_id":"free"},{"bike_id":"4ad8a0f1-bc12-4026-8c63-a467a486b64c","system_id":"levelo_inurba_marseille","lat":43.273613,"lon":5.362705,"is_reserved":false,"is_disabled":false,"rental_uris":{"android":"levelo://app?vid=4ad8a0f1-bc12-4026-8c63-a467a486b64c","ios":"levelo://app?vid=4ad8a0f1-bc12-4026-8c63-a467a486b64c"},"vehicle_type_id":"4","last_reported":1686672499,"current_range_meters":30000,"station_id":"ce4bhbh2rcd13ifvqeo0","pricing_plan_id":"free"},{"bike_id":"0eb1c5c2-6359-424a-b812-7ce8929a9e13","system_id":"levelo_inurba_marseille","lat":43.273613,"lon":5.362705,"is_reserved":false,"is_disabled":false,"rental_uris":{"android":"levelo://app?vid=0eb1c5c2-6359-424a-b812-7ce8929a9e13","ios":"levelo://app?vid=0eb1c5c2-6359-424a-b812-7ce8929a9e13"},"vehicle_type_id":"4","last_reported":1686672499,"current_range_meters":26000,"station_id":"ce4bhbh2rcd13ifvqeo0","pricing_plan_id":"free"},{"bike_id":"e16b00fd-2cb2-4a13-b2d5-a7071934cdae","system_id":"levelo_inurba_marseille","lat":43.273613,"lon":5.362705,"is_reserved":false,"is_disabled":false,"rental_uris":{"android":"levelo://app?vid=e16b00fd-2cb2-4a13-b2d5-a7071934cdae","ios":"levelo://app?vid=e16b00fd-2cb2-4a13-b2d5-a7071934cdae"},"vehicle_type_id":"4","last_reported":1686672499,"current_range_meters":20800,"station_id":"ce4bhbh2rcd13ifvqeo0","pricing_plan_id":"free"},{"bike_id":"7b2f3068-e356-46b4-9974-b1ea454f71f2","system_id":"levelo_inurba_marseille","lat":43.273613,"lon":5.362705,"is_reserved":false,"is_disabled":false,"rental_uris":{"android":"levelo://app?vid=7b2f3068-e356-46b4-9974-b1ea454f71f2","ios":"levelo://app?vid=7b2f3068-e356-46b4-9974-b1ea454f71f2"},"vehicle_type_id":"4","last_reported":1686672499,"current_range_meters":31200,"station_id":"ce4bhbh2rcd13ifvqeo0","pricing_plan_id":"free"},{"bike_id":"e74a4f7d-b5f6-43ea-9161-36358c174ed8","system_id":"levelo_inurba_marseille","lat":43.273609,"lon":5.362708,"is_reserved":false,"is_disabled":false,"rental_uris":{"android":"levelo://app?vid=e74a4f7d-b5f6-43ea-9161-36358c174ed8","ios":"levelo://app?vid=e74a4f7d-b5f6-43ea-9161-36358c174ed8"},"vehicle_type_id":"4","last_reported":1686672499,"current_range_meters":21200,"station_id":"ce4bhbh2rcd13ifvqeo0","pricing_plan_id":"free"},{"bike_id":"78757055-ca15-4e5c-a101-bd4d6055774a","system_id":"levelo_inurba_marseille","lat":43.273609,"lon":5.362708,"is_reserved":false,"is_disabled":false,"rental_uris":{"android":"levelo://app?vid=78757055-ca15-4e5c-a101-bd4d6055774a","ios":"levelo://app?vid=78757055-ca15-4e5c-a101-bd4d6055774a"},"vehicle_type_id":"4","last_reported":1686672499,"current_range_meters":31200,"station_id":"ce4bhbh2rcd13ifvqeo0","pricing_plan_id":"free"},{"bike_id":"59dbc15b-bfbc-4292-8f63-65562ef27201","system_id":"levelo_inurba_marseille","lat":43.273609,"lon":5.362708,"is_reserved":false,"is_disabled":false,"rental_uris":{"android":"levelo://app?vid=59dbc15b-bfbc-4292-8f63-65562ef27201","ios":"levelo://app?vid=59dbc15b-bfbc-4292-8f63-65562ef27201"},"vehicle_type_id":"4","last_reported":1686672499,"current_range_meters":9200,"station_id":"ce4bhbh2rcd13ifvqeo0","pricing_plan_id":"free"},{"bike_id":"4a106eaf-ae30-4f13-879c-408b801b0988","system_id":"levelo_inurba_marseille","lat":43.273609,"lon":5.362708,"is_reserved":false,"is_disabled":false,"rental_uris":{"android":"levelo://app?vid=4a106eaf-ae30-4f13-879c-408b801b0988","ios":"levelo://app?vid=4a106eaf-ae30-4f13-879c-408b801b0988"},"vehicle_type_id":"4","last_reported":1686672499,"current_range_meters":20400,"station_id":"ce4bhbh2rcd13ifvqeo0","pricing_plan_id":"free"},{"bike_id":"c86109ce-6463-416a-8c8c-70ad462fd3de","system_id":"levelo_inurba_marseille","lat":43.273609,"lon":5.362708,"is_reserved":false,"is_disabled":false,"rental_uris":{"android":"levelo://app?vid=c86109ce-6463-416a-8c8c-70ad462fd3de","ios":"levelo://app?vid=c86109ce-6463-416a-8c8c-70ad462fd3de"},"vehicle_type_id":"4","last_reported":1686672499,"current_range_meters":18800,"station_id":"ce4bhbh2rcd13ifvqeo0","pricing_plan_id":"free"},{"bike_id":"b8600e97-df1e-44d5-a488-acbd81c5af67","system_id":"levelo_inurba_marseille","lat":43.273609,"lon":5.362708,"is_reserved":false,"is_disabled":false,"rental_uris":{"android":"levelo://app?vid=b8600e97-df1e-44d5-a488-acbd81c5af67","ios":"levelo://app?vid=b8600e97-df1e-44d5-a488-acbd81c5af67"},"vehicle_type_id":"4","last_reported":1686672499,"current_range_meters":13600,"station_id":"ce4bhbh2rcd13ifvqeo0","pricing_plan_id":"free"},{"bike_id":"a8f8b517-09b4-4197-94bb-6fa9d03dd022","system_id":"levelo_inurba_marseille","lat":43.2763,"lon":5.39181,"is_reserved":false,"is_disabled":false,"rental_uris":{"android":"levelo://app?vid=a8f8b517-09b4-4197-94bb-6fa9d03dd022","ios":"levelo://app?vid=a8f8b517-09b4-4197-94bb-6fa9d03dd022"},"vehicle_type_id":"4","last_reported":1686672499,"current_range_meters":27600,"station_id":"","pricing_plan_id":"free"},{"bike_id":"60369bb0-0d71-43b9-a915-5d4c7e589c53","system_id":"levelo_inurba_marseille","lat":43.317121,"lon":5.423936,"is_reserved":false,"is_disabled":false,"rental_uris":{"android":"levelo://app?vid=60369bb0-0d71-43b9-a915-5d4c7e589c53","ios":"levelo://app?vid=60369bb0-0d71-43b9-a915-5d4c7e589c53"},"vehicle_type_id":"4","last_reported":1686672499,"current_range_meters":31200,"station_id":"ce4bhp92rcd13ifvqhbg","pricing_plan_id":"free"},{"bike_id":"c135417b-40c4-4c04-943e-b7711837ba3c","system_id":"levelo_inurba_marseille","lat":43.317121,"lon":5.423936,"is_reserved":false,"is_disabled":false,"rental_uris":{"android":"levelo://app?vid=c135417b-40c4-4c04-943e-b7711837ba3c","ios":"levelo://app?vid=c135417b-40c4-4c04-943e-b7711837ba3c"},"vehicle_type_id":"4","last_reported":1686672499,"current_range_meters":26400,"station_id":"ce4bhp92rcd13ifvqhbg","pricing_plan_id":"free"},{"bike_id":"ffc5bc62-68dd-44d2-8618-bda22ad3a73e","system_id":"levelo_inurba_marseille","lat":43.317121,"lon":5.423936,"is_reserved":false,"is_disabled":false,"rental_uris":{"android":"levelo://app?vid=ffc5bc62-68dd-44d2-8618-bda22ad3a73e","ios":"levelo://app?vid=ffc5bc62-68dd-44d2-8618-bda22ad3a73e"},"vehicle_type_id":"4","last_reported":1686672499,"current_range_meters":31200,"station_id":"ce4bhp92rcd13ifvqhbg","pricing_plan_id":"free"},{"bike_id":"5a7b269b-2b02-4a20-952b-e6460f24f80b","system_id":"levelo_inurba_marseille","lat":43.317121,"lon":5.423936,"is_reserved":false,"is_disabled":false,"rental_uris":{"android":"levelo://app?vid=5a7b269b-2b02-4a20-952b-e6460f24f80b","ios":"levelo://app?vid=5a7b269b-2b02-4a20-952b-e6460f24f80b"},"vehicle_type_id":"4","last_reported":1686672499,"current_range_meters":29200,"station_id":"ce4bhp92rcd13ifvqhbg","pricing_plan_id":"free"},{"bike_id":"753c6b72-ca8a-45ae-bd9d-8eca801d7a1c","system_id":"levelo_inurba_marseille","lat":43.27614,"lon":5.39489,"is_reserved":false,"is_disabled":false,"rental_uris":{"android":"levelo://app?vid=753c6b72-ca8a-45ae-bd9d-8eca801d7a1c","ios":"levelo://app?vid=753c6b72-ca8a-45ae-bd9d-8eca801d7a1c"},"vehicle_type_id":"4","last_reported":1686672499,"current_range_meters":6000,"station_id":"","pricing_plan_id":"free"},{"bike_id":"f82c4e0b-ce86-4de4-962b-f266d6ba506e","system_id":"levelo_inurba_marseille","lat":43.273125,"lon":5.390731,"is_reserved":false,"is_disabled":false,"rental_uris":{"android":"levelo://app?vid=f82c4e0b-ce86-4de4-962b-f266d6ba506e","ios":"levelo://app?vid=f82c4e0b-ce86-4de4-962b-f266d6ba506e"},"vehicle_type_id":"4","last_reported":1686672499,"current_range_meters":26800,"station_id":"ce4bhgp2rcd13ifvqfe0","pricing_plan_id":"free"},{"bike_id":"9a129c7f-beb5-4d42-95a2-6eca48744e6a","system_id":"levelo_inurba_marseille","lat":43.27321,"lon":5.39102,"is_reserved":false,"is_disabled":false,"rental_uris":{"android":"levelo://app?vid=9a129c7f-beb5-4d42-95a2-6eca48744e6a","ios":"levelo://app?vid=9a129c7f-beb5-4d42-95a2-6eca48744e6a"},"vehicle_type_id":"4","last_reported":1686672499,"current_range_meters":27600,"station_id":"ce4bhgp2rcd13ifvqfe0","pricing_plan_id":"free"},{"bike_id":"f755f969-c809-4745-a00f-4190f077ecff","system_id":"levelo_inurba_marseille","lat":43.273125,"lon":5.390731,"is_reserved":false,"is_disabled":false,"rental_uris":{"android":"levelo://app?vid=f755f969-c809-4745-a00f-4190f077ecff","ios":"levelo://app?vid=f755f969-c809-4745-a00f-4190f077ecff"},"vehicle_type_id":"4","last_reported":1686672499,"current_range_meters":0,"station_id":"ce4bhgp2rcd13ifvqfe0","pricing_plan_id":"free"},{"bike_id":"85a54c3b-658d-49a6-a99a-46259b0f9d6a","system_id":"levelo_inurba_marseille","lat":43.27418,"lon":5.39411,"is_reserved":false,"is_disabled":false,"rental_uris":{"android":"levelo://app?vid=85a54c3b-658d-49a6-a99a-46259b0f9d6a","ios":"levelo://app?vid=85a54c3b-658d-49a6-a99a-46259b0f9d6a"},"vehicle_type_id":"4","last_reported":1686672499,"current_range_meters":0,"station_id":"","pricing_plan_id":"free"},{"bike_id":"b4558cdf-6599-4e35-82e4-012230a43127","system_id":"levelo_inurba_marseille","lat":43.304096,"lon":5.425385,"is_reserved":false,"is_disabled":false,"rental_uris":{"android":"levelo://app?vid=b4558cdf-6599-4e35-82e4-012230a43127","ios":"levelo://app?vid=b4558cdf-6599-4e35-82e4-012230a43127"},"vehicle_type_id":"4","last_reported":1686672499,"current_range_meters":11200,"station_id":"ce4bhoh2rcd13ifvqh6g","pricing_plan_id":"free"},{"bike_id":"712a663d-9d8b-4e24-b283-6c1a4bc8ee54","system_id":"levelo_inurba_marseille","lat":43.304096,"lon":5.425385,"is_reserved":false,"is_disabled":false,"rental_uris":{"android":"levelo://app?vid=712a663d-9d8b-4e24-b283-6c1a4bc8ee54","ios":"levelo://app?vid=712a663d-9d8b-4e24-b283-6c1a4bc8ee54"},"vehicle_type_id":"4","last_reported":1686672499,"current_range_meters":19600,"station_id":"ce4bhoh2rcd13ifvqh6g","pricing_plan_id":"free"},{"bike_id":"ef4d0498-bc72-48c4-9e2f-80d0e5f0848b","system_id":"levelo_inurba_marseille","lat":43.29546,"lon":5.42288,"is_reserved":false,"is_disabled":false,"rental_uris":{"android":"levelo://app?vid=ef4d0498-bc72-48c4-9e2f-80d0e5f0848b","ios":"levelo://app?vid=ef4d0498-bc72-48c4-9e2f-80d0e5f0848b"},"vehicle_type_id":"4","last_reported":1686672499,"current_range_meters":3200,"station_id":"ce4bhph2rcd13ifvqhdg","pricing_plan_id":"free"},{"bike_id":"6275aaca-a354-407f-be44-df40f2969d44","system_id":"levelo_inurba_marseille","lat":43.26681,"lon":5.382694,"is_reserved":false,"is_disabled":false,"rental_uris":{"android":"levelo://app?vid=6275aaca-a354-407f-be44-df40f2969d44","ios":"levelo://app?vid=6275aaca-a354-407f-be44-df40f2969d44"},"vehicle_type_id":"4","last_reported":1686672499,"current_range_meters":31200,"station_id":"ce4bhg92rcd13ifvqf90","pricing_plan_id":"free"},{"bike_id":"cfba2fbe-9ed5-423f-b411-8d6c38451715","system_id":"levelo_inurba_marseille","lat":43.26681,"lon":5.382694,"is_reserved":false,"is_disabled":false,"rental_uris":{"android":"levelo://app?vid=cfba2fbe-9ed5-423f-b411-8d6c38451715","ios":"levelo://app?vid=cfba2fbe-9ed5-423f-b411-8d6c38451715"},"vehicle_type_id":"4","last_reported":1686672499,"current_range_meters":31200,"station_id":"ce4bhg92rcd13ifvqf90","pricing_plan_id":"free"},{"bike_id":"9fa38242-22b2-4e58-beeb-64728c7bb024","system_id":"levelo_inurba_marseille","lat":43.27996,"lon":5.416624,"is_reserved":false,"is_disabled":false,"rental_uris":{"android":"levelo://app?vid=9fa38242-22b2-4e58-beeb-64728c7bb024","ios":"levelo://app?vid=9fa38242-22b2-4e58-beeb-64728c7bb024"},"vehicle_type_id":"4","last_reported":1686672499,"current_range_meters":23200,"station_id":"ce4bho12rcd13ifvqh1g","pricing_plan_id":"free"},{"bike_id":"544ecff3-03f7-4a66-96d9-f82d214679cd","system_id":"levelo_inurba_marseille","lat":43.27987,"lon":5.41659,"is_reserved":false,"is_disabled":false,"rental_uris":{"android":"levelo://app?vid=544ecff3-03f7-4a66-96d9-f82d214679cd","ios":"levelo://app?vid=544ecff3-03f7-4a66-96d9-f82d214679cd"},"vehicle_type_id":"4","last_reported":1686672499,"current_range_meters":29600,"station_id":"ce4bho12rcd13ifvqh1g","pricing_plan_id":"free"},{"bike_id":"7efd5955-4a84-4dec-891a-7cb9e4c8fe4e","system_id":"levelo_inurba_marseille","lat":43.27996,"lon":5.416624,"is_reserved":false,"is_disabled":false,"rental_uris":{"android":"levelo://app?vid=7efd5955-4a84-4dec-891a-7cb9e4c8fe4e","ios":"levelo://app?vid=7efd5955-4a84-4dec-891a-7cb9e4c8fe4e"},"vehicle_type_id":"4","last_reported":1686672499,"current_range_meters":13600,"station_id":"ce4bho12rcd13ifvqh1g","pricing_plan_id":"free"},{"bike_id":"0b20b5ea-9db5-401b-b2b1-fd07078c272c","system_id":"levelo_inurba_marseille","lat":43.27996,"lon":5.416624,"is_reserved":false,"is_disabled":false,"rental_uris":{"android":"levelo://app?vid=0b20b5ea-9db5-401b-b2b1-fd07078c272c","ios":"levelo://app?vid=0b20b5ea-9db5-401b-b2b1-fd07078c272c"},"vehicle_type_id":"4","last_reported":1686672499,"current_range_meters":15200,"station_id":"ce4bho12rcd13ifvqh1g","pricing_plan_id":"free"},{"bike_id":"3987290e-fd4b-4f2b-81c0-57fca98f9cde","system_id":"levelo_inurba_marseille","lat":43.267966,"lon":5.393976,"is_reserved":false,"is_disabled":false,"rental_uris":{"android":"levelo://app?vid=3987290e-fd4b-4f2b-81c0-57fca98f9cde","ios":"levelo://app?vid=3987290e-fd4b-4f2b-81c0-57fca98f9cde"},"vehicle_type_id":"4","last_reported":1686672499,"current_range_meters":29200,"station_id":"ce4bhh12rcd13ifvqfg0","pricing_plan_id":"free"},{"bike_id":"52b5ed0c-646f-46a8-968c-32572fc9905f","system_id":"levelo_inurba_marseille","lat":43.265571,"lon":5.390032,"is_reserved":false,"is_disabled":false,"rental_uris":{"android":"levelo://app?vid=52b5ed0c-646f-46a8-968c-32572fc9905f","ios":"levelo://app?vid=52b5ed0c-646f-46a8-968c-32572fc9905f"},"vehicle_type_id":"4","last_reported":1686672499,"current_range_meters":9600,"station_id":"ce4bhe12rcd13ifvqf30","pricing_plan_id":"free"},{"bike_id":"1c254732-7643-49c2-a385-645527bb2803","system_id":"levelo_inurba_marseille","lat":43.26562,"lon":5.39012,"is_reserved":false,"is_disabled":false,"rental_uris":{"android":"levelo://app?vid=1c254732-7643-49c2-a385-645527bb2803","ios":"levelo://app?vid=1c254732-7643-49c2-a385-645527bb2803"},"vehicle_type_id":"4","last_reported":1686672499,"current_range_meters":5200,"station_id":"ce4bhe12rcd13ifvqf30","pricing_plan_id":"free"},{"bike_id":"b1b6bc0a-3c09-44e0-9f6d-357d4bfa3d8d","system_id":"levelo_inurba_marseille","lat":43.28043,"lon":5.42115,"is_reserved":false,"is_disabled":false,"rental_uris":{"android":"levelo://app?vid=b1b6bc0a-3c09-44e0-9f6d-357d4bfa3d8d","ios":"levelo://app?vid=b1b6bc0a-3c09-44e0-9f6d-357d4bfa3d8d"},"vehicle_type_id":"4","last_reported":1686672499,"current_range_meters":16800,"station_id":"","pricing_plan_id":"free"},{"bike_id":"6454d3e3-8e72-45d5-ab77-8ac24ec64ff5","system_id":"levelo_inurba_marseille","lat":43.26188,"lon":5.37441,"is_reserved":false,"is_disabled":false,"rental_uris":{"android":"levelo://app?vid=6454d3e3-8e72-45d5-ab77-8ac24ec64ff5","ios":"levelo://app?vid=6454d3e3-8e72-45d5-ab77-8ac24ec64ff5"},"vehicle_type_id":"4","last_reported":1686672499,"current_range_meters":31200,"station_id":"ce4bhgp2rcd13ifvqfc0","pricing_plan_id":"free"},{"bike_id":"df452fae-8ba7-4985-bdeb-bd7aa1466086","system_id":"levelo_inurba_marseille","lat":43.26183,"lon":5.37442,"is_reserved":false,"is_disabled":false,"rental_uris":{"android":"levelo://app?vid=df452fae-8ba7-4985-bdeb-bd7aa1466086","ios":"levelo://app?vid=df452fae-8ba7-4985-bdeb-bd7aa1466086"},"vehicle_type_id":"4","last_reported":1686672499,"current_range_meters":31200,"station_id":"ce4bhgp2rcd13ifvqfc0","pricing_plan_id":"free"},{"bike_id":"54898245-53c7-4e00-a696-a427e941bfd8","system_id":"levelo_inurba_marseille","lat":43.31712,"lon":5.43705,"is_reserved":false,"is_disabled":false,"rental_uris":{"android":"levelo://app?vid=54898245-53c7-4e00-a696-a427e941bfd8","ios":"levelo://app?vid=54898245-53c7-4e00-a696-a427e941bfd8"},"vehicle_type_id":"4","last_reported":1686672499,"current_range_meters":16400,"station_id":"ce4bhp92rcd13ifvqhcg","pricing_plan_id":"free"},{"bike_id":"401e91f4-ea8b-4542-bb52-e2f4c9694054","system_id":"levelo_inurba_marseille","lat":43.31712,"lon":5.43706,"is_reserved":false,"is_disabled":false,"rental_uris":{"android":"levelo://app?vid=401e91f4-ea8b-4542-bb52-e2f4c9694054","ios":"levelo://app?vid=401e91f4-ea8b-4542-bb52-e2f4c9694054"},"vehicle_type_id":"4","last_reported":1686672499,"current_range_meters":5600,"station_id":"ce4bhp92rcd13ifvqhcg","pricing_plan_id":"free"},{"bike_id":"0156680e-f08f-4bbd-bdab-d42a7e1185a9","system_id":"levelo_inurba_marseille","lat":43.31712,"lon":5.43709,"is_reserved":false,"is_disabled":false,"rental_uris":{"android":"levelo://app?vid=0156680e-f08f-4bbd-bdab-d42a7e1185a9","ios":"levelo://app?vid=0156680e-f08f-4bbd-bdab-d42a7e1185a9"},"vehicle_type_id":"4","last_reported":1686672499,"current_range_meters":4800,"station_id":"ce4bhp92rcd13ifvqhcg","pricing_plan_id":"free"},{"bike_id":"048f9987-6f86-4b22-bfe7-e39f6d178aea","system_id":"levelo_inurba_marseille","lat":43.31718,"lon":5.43709,"is_reserved":false,"is_disabled":false,"rental_uris":{"android":"levelo://app?vid=048f9987-6f86-4b22-bfe7-e39f6d178aea","ios":"levelo://app?vid=048f9987-6f86-4b22-bfe7-e39f6d178aea"},"vehicle_type_id":"4","last_reported":1686672499,"current_range_meters":3200,"station_id":"ce4bhp92rcd13ifvqhcg","pricing_plan_id":"free"},{"bike_id":"2d10baea-5027-429f-90e8-eb7fe3a27caf","system_id":"levelo_inurba_marseille","lat":43.26171,"lon":5.3744,"is_reserved":false,"is_disabled":false,"rental_uris":{"android":"levelo://app?vid=2d10baea-5027-429f-90e8-eb7fe3a27caf","ios":"levelo://app?vid=2d10baea-5027-429f-90e8-eb7fe3a27caf"},"vehicle_type_id":"4","last_reported":1686672499,"current_range_meters":28000,"station_id":"ce4bhgp2rcd13ifvqfc0","pricing_plan_id":"free"},{"bike_id":"d22a8864-2146-4129-a239-f4923d18a83b","system_id":"levelo_inurba_marseille","lat":43.27323,"lon":5.41202,"is_reserved":false,"is_disabled":false,"rental_uris":{"android":"levelo://app?vid=d22a8864-2146-4129-a239-f4923d18a83b","ios":"levelo://app?vid=d22a8864-2146-4129-a239-f4923d18a83b"},"vehicle_type_id":"4","last_reported":1686672499,"current_range_meters":14000,"station_id":"","pricing_plan_id":"free"},{"bike_id":"a1e9f7dc-d2f9-41c7-a6c8-a0f9a84c26fe","system_id":"levelo_inurba_marseille","lat":43.271388,"lon":5.409269,"is_reserved":false,"is_disabled":false,"rental_uris":{"android":"levelo://app?vid=a1e9f7dc-d2f9-41c7-a6c8-a0f9a84c26fe","ios":"levelo://app?vid=a1e9f7dc-d2f9-41c7-a6c8-a0f9a84c26fe"},"vehicle_type_id":"4","last_reported":1686672499,"current_range_meters":28400,"station_id":"ce4bhl12rcd13ifvqgf0","pricing_plan_id":"free"},{"bike_id":"b6e4eabc-4eed-493e-95a8-d5e167278969","system_id":"levelo_inurba_marseille","lat":43.271368,"lon":5.40928,"is_reserved":false,"is_disabled":false,"rental_uris":{"android":"levelo://app?vid=b6e4eabc-4eed-493e-95a8-d5e167278969","ios":"levelo://app?vid=b6e4eabc-4eed-493e-95a8-d5e167278969"},"vehicle_type_id":"4","last_reported":1686672499,"current_range_meters":30000,"station_id":"ce4bhl12rcd13ifvqgf0","pricing_plan_id":"free"},{"bike_id":"7ce96ff6-920c-4e17-9d82-a1aae6b1d988","system_id":"levelo_inurba_marseille","lat":43.27176,"lon":5.40996,"is_reserved":false,"is_disabled":false,"rental_uris":{"android":"levelo://app?vid=7ce96ff6-920c-4e17-9d82-a1aae6b1d988","ios":"levelo://app?vid=7ce96ff6-920c-4e17-9d82-a1aae6b1d988"},"vehicle_type_id":"4","last_reported":1686672499,"current_range_meters":19200,"station_id":"","pricing_plan_id":"free"},{"bike_id":"c52676a4-9cea-432a-80b9-c4d1de789255","system_id":"levelo_inurba_marseille","lat":43.298768,"lon":5.43643,"is_reserved":false,"is_disabled":false,"rental_uris":{"android":"levelo://app?vid=c52676a4-9cea-432a-80b9-c4d1de789255","ios":"levelo://app?vid=c52676a4-9cea-432a-80b9-c4d1de789255"},"vehicle_type_id":"4","last_reported":1686672499,"current_range_meters":24800,"station_id":"ce4bhpp2rcd13ifvqhfg","pricing_plan_id":"free"},{"bike_id":"2c7c82a4-ef22-46a7-9324-79fe36125f7a","system_id":"levelo_inurba_marseille","lat":43.298768,"lon":5.43643,"is_reserved":false,"is_disabled":false,"rental_uris":{"android":"levelo://app?vid=2c7c82a4-ef22-46a7-9324-79fe36125f7a","ios":"levelo://app?vid=2c7c82a4-ef22-46a7-9324-79fe36125f7a"},"vehicle_type_id":"4","last_reported":1686672499,"current_range_meters":22800,"station_id":"ce4bhpp2rcd13ifvqhfg","pricing_plan_id":"free"},{"bike_id":"217d75c0-6076-4210-af0b-5c5d4987ba00","system_id":"levelo_inurba_marseille","lat":43.26357,"lon":5.40243,"is_reserved":false,"is_disabled":false,"rental_uris":{"android":"levelo://app?vid=217d75c0-6076-4210-af0b-5c5d4987ba00","ios":"levelo://app?vid=217d75c0-6076-4210-af0b-5c5d4987ba00"},"vehicle_type_id":"4","last_reported":1686672499,"current_range_meters":23600,"station_id":"","pricing_plan_id":"free"},{"bike_id":"c7fc0eda-0e23-40b9-a87a-5fedabfe86e5","system_id":"levelo_inurba_marseille","lat":43.2607,"lon":5.393983,"is_reserved":false,"is_disabled":false,"rental_uris":{"android":"levelo://app?vid=c7fc0eda-0e23-40b9-a87a-5fedabfe86e5","ios":"levelo://app?vid=c7fc0eda-0e23-40b9-a87a-5fedabfe86e5"},"vehicle_type_id":"4","last_reported":1686672499,"current_range_meters":15200,"station_id":"ce4bhh92rcd13ifvqfj0","pricing_plan_id":"free"},{"bike_id":"94466b18-7715-45ee-a179-9a3b0797487b","system_id":"levelo_inurba_marseille","lat":43.26819,"lon":5.41373,"is_reserved":false,"is_disabled":false,"rental_uris":{"android":"levelo://app?vid=94466b18-7715-45ee-a179-9a3b0797487b","ios":"levelo://app?vid=94466b18-7715-45ee-a179-9a3b0797487b"},"vehicle_type_id":"4","last_reported":1686672499,"current_range_meters":28400,"station_id":"","pricing_plan_id":"free"},{"bike_id":"c996a131-b9d1-4466-be50-c193e0e2f292","system_id":"levelo_inurba_marseille","lat":43.260912,"lon":5.397584,"is_reserved":false,"is_disabled":false,"rental_uris":{"android":"levelo://app?vid=c996a131-b9d1-4466-be50-c193e0e2f292","ios":"levelo://app?vid=c996a131-b9d1-4466-be50-c193e0e2f292"},"vehicle_type_id":"4","last_reported":1686672499,"current_range_meters":9600,"station_id":"ce4bhi12rcd13ifvqfq0","pricing_plan_id":"free"},{"bike_id":"3834415b-596a-42bf-8779-780de1fdf5a5","system_id":"levelo_inurba_marseille","lat":43.27492,"lon":5.42454,"is_reserved":false,"is_disabled":false,"rental_uris":{"android":"levelo://app?vid=3834415b-596a-42bf-8779-780de1fdf5a5","ios":"levelo://app?vid=3834415b-596a-42bf-8779-780de1fdf5a5"},"vehicle_type_id":"4","last_reported":1686672499,"current_range_meters":22000,"station_id":"ce4bhn92rcd13ifvqgrg","pricing_plan_id":"free"},{"bike_id":"4b0aa9bb-4376-4ed5-9f66-d260c4e6650a","system_id":"levelo_inurba_marseille","lat":43.27089,"lon":5.42265,"is_reserved":false,"is_disabled":false,"rental_uris":{"android":"levelo://app?vid=4b0aa9bb-4376-4ed5-9f66-d260c4e6650a","ios":"levelo://app?vid=4b0aa9bb-4376-4ed5-9f66-d260c4e6650a"},"vehicle_type_id":"4","last_reported":1686672499,"current_range_meters":10000,"station_id":"ce4bhk92rcd13ifvqgb0","pricing_plan_id":"free"},{"bike_id":"abaaa030-86d1-4a8c-8e56-6c502a32d6ba","system_id":"levelo_inurba_marseille","lat":43.27069,"lon":5.42272,"is_reserved":false,"is_disabled":false,"rental_uris":{"android":"levelo://app?vid=abaaa030-86d1-4a8c-8e56-6c502a32d6ba","ios":"levelo://app?vid=abaaa030-86d1-4a8c-8e56-6c502a32d6ba"},"vehicle_type_id":"4","last_reported":1686672499,"current_range_meters":22400,"station_id":"ce4bhk92rcd13ifvqgb0","pricing_plan_id":"free"},{"bike_id":"63fd0881-8fb0-41e4-80e1-f9817de16cfa","system_id":"levelo_inurba_marseille","lat":43.270721,"lon":5.422764,"is_reserved":false,"is_disabled":false,"rental_uris":{"android":"levelo://app?vid=63fd0881-8fb0-41e4-80e1-f9817de16cfa","ios":"levelo://app?vid=63fd0881-8fb0-41e4-80e1-f9817de16cfa"},"vehicle_type_id":"4","last_reported":1686672499,"current_range_meters":19600,"station_id":"ce4bhk92rcd13ifvqgb0","pricing_plan_id":"free"},{"bike_id":"11a41b85-21d3-462b-82d7-24288af6756c","system_id":"levelo_inurba_marseille","lat":43.25989,"lon":5.4082,"is_reserved":false,"is_disabled":false,"rental_uris":{"android":"levelo://app?vid=11a41b85-21d3-462b-82d7-24288af6756c","ios":"levelo://app?vid=11a41b85-21d3-462b-82d7-24288af6756c"},"vehicle_type_id":"4","last_reported":1686672499,"current_range_meters":26800,"station_id":"","pricing_plan_id":"free"},{"bike_id":"3acad165-acfc-4daa-a3ce-2fe66908da43","system_id":"levelo_inurba_marseille","lat":43.250023,"lon":5.38919,"is_reserved":false,"is_disabled":false,"rental_uris":{"android":"levelo://app?vid=3acad165-acfc-4daa-a3ce-2fe66908da43","ios":"levelo://app?vid=3acad165-acfc-4daa-a3ce-2fe66908da43"},"vehicle_type_id":"4","last_reported":1686672499,"current_range_meters":0,"station_id":"ce4bhgp2rcd13ifvqfd0","pricing_plan_id":"free"},{"bike_id":"2eee7344-ae5c-4b64-84de-a3f95612d10c","system_id":"levelo_inurba_marseille","lat":43.2479,"lon":5.374457,"is_reserved":false,"is_disabled":false,"rental_uris":{"android":"levelo://app?vid=2eee7344-ae5c-4b64-84de-a3f95612d10c","ios":"levelo://app?vid=2eee7344-ae5c-4b64-84de-a3f95612d10c"},"vehicle_type_id":"4","last_reported":1686672499,"current_range_meters":5600,"station_id":"ce4bhgh2rcd13ifvqfb0","pricing_plan_id":"free"},{"bike_id":"e5fcfd29-ed74-40f4-9dc0-5acce4ff41de","system_id":"levelo_inurba_marseille","lat":43.2479,"lon":5.374457,"is_reserved":false,"is_disabled":false,"rental_uris":{"android":"levelo://app?vid=e5fcfd29-ed74-40f4-9dc0-5acce4ff41de","ios":"levelo://app?vid=e5fcfd29-ed74-40f4-9dc0-5acce4ff41de"},"vehicle_type_id":"4","last_reported":1686672499,"current_range_meters":11600,"station_id":"ce4bhgh2rcd13ifvqfb0","pricing_plan_id":"free"},{"bike_id":"2be99576-8907-43e2-8200-359cb54c3b55","system_id":"levelo_inurba_marseille","lat":43.2479,"lon":5.374457,"is_reserved":false,"is_disabled":false,"rental_uris":{"android":"levelo://app?vid=2be99576-8907-43e2-8200-359cb54c3b55","ios":"levelo://app?vid=2be99576-8907-43e2-8200-359cb54c3b55"},"vehicle_type_id":"4","last_reported":1686672499,"current_range_meters":10000,"station_id":"ce4bhgh2rcd13ifvqfb0","pricing_plan_id":"free"},{"bike_id":"e43dd0bb-f3b9-4fd2-9506-b3dd28cb5dd0","system_id":"levelo_inurba_marseille","lat":43.2479,"lon":5.374457,"is_reserved":false,"is_disabled":false,"rental_uris":{"android":"levelo://app?vid=e43dd0bb-f3b9-4fd2-9506-b3dd28cb5dd0","ios":"levelo://app?vid=e43dd0bb-f3b9-4fd2-9506-b3dd28cb5dd0"},"vehicle_type_id":"4","last_reported":1686672499,"current_range_meters":24400,"station_id":"ce4bhgh2rcd13ifvqfb0","pricing_plan_id":"free"},{"bike_id":"73c6a99b-df05-42ea-8f87-a5b23bbb4f8e","system_id":"levelo_inurba_marseille","lat":43.250966,"lon":5.395186,"is_reserved":false,"is_disabled":false,"rental_uris":{"android":"levelo://app?vid=73c6a99b-df05-42ea-8f87-a5b23bbb4f8e","ios":"levelo://app?vid=73c6a99b-df05-42ea-8f87-a5b23bbb4f8e"},"vehicle_type_id":"4","last_reported":1686672499,"current_range_meters":0,"station_id":"ce4bhm12rcd13ifvqgkg","pricing_plan_id":"free"},{"bike_id":"2989ebd0-3b35-497f-bba3-9d13ed40cf22","system_id":"levelo_inurba_marseille","lat":43.250966,"lon":5.395186,"is_reserved":false,"is_disabled":false,"rental_uris":{"android":"levelo://app?vid=2989ebd0-3b35-497f-bba3-9d13ed40cf22","ios":"levelo://app?vid=2989ebd0-3b35-497f-bba3-9d13ed40cf22"},"vehicle_type_id":"4","last_reported":1686672499,"current_range_meters":31200,"station_id":"ce4bhm12rcd13ifvqgkg","pricing_plan_id":"free"},{"bike_id":"2f66cb2f-9121-4895-b5fd-c0e636c36a66","system_id":"levelo_inurba_marseille","lat":43.25086,"lon":5.39522,"is_reserved":false,"is_disabled":false,"rental_uris":{"android":"levelo://app?vid=2f66cb2f-9121-4895-b5fd-c0e636c36a66","ios":"levelo://app?vid=2f66cb2f-9121-4895-b5fd-c0e636c36a66"},"vehicle_type_id":"4","last_reported":1686672499,"current_range_meters":18400,"station_id":"ce4bhm12rcd13ifvqgkg","pricing_plan_id":"free"},{"bike_id":"3a72dc90-68f0-4067-87cc-ca58698761d5","system_id":"levelo_inurba_marseille","lat":43.24693,"lon":5.382096,"is_reserved":false,"is_disabled":false,"rental_uris":{"android":"levelo://app?vid=3a72dc90-68f0-4067-87cc-ca58698761d5","ios":"levelo://app?vid=3a72dc90-68f0-4067-87cc-ca58698761d5"},"vehicle_type_id":"4","last_reported":1686672499,"current_range_meters":30000,"station_id":"ce4bhih2rcd13ifvqfr0","pricing_plan_id":"free"},{"bike_id":"f182c115-745c-49dc-b6ea-985adb4572e9","system_id":"levelo_inurba_marseille","lat":43.24693,"lon":5.382096,"is_reserved":false,"is_disabled":false,"rental_uris":{"android":"levelo://app?vid=f182c115-745c-49dc-b6ea-985adb4572e9","ios":"levelo://app?vid=f182c115-745c-49dc-b6ea-985adb4572e9"},"vehicle_type_id":"4","last_reported":1686672499,"current_range_meters":1600,"station_id":"ce4bhih2rcd13ifvqfr0","pricing_plan_id":"free"},{"bike_id":"f1753b37-434e-47ae-8c25-f85421910fd8","system_id":"levelo_inurba_marseille","lat":43.24693,"lon":5.382096,"is_reserved":false,"is_disabled":false,"rental_uris":{"android":"levelo://app?vid=f1753b37-434e-47ae-8c25-f85421910fd8","ios":"levelo://app?vid=f1753b37-434e-47ae-8c25-f85421910fd8"},"vehicle_type_id":"4","last_reported":1686672499,"current_range_meters":4400,"station_id":"ce4bhih2rcd13ifvqfr0","pricing_plan_id":"free"},{"bike_id":"110d1a59-f3a5-4c9f-8a36-1326733e4873","system_id":"levelo_inurba_marseille","lat":43.24693,"lon":5.382096,"is_reserved":false,"is_disabled":false,"rental_uris":{"android":"levelo://app?vid=110d1a59-f3a5-4c9f-8a36-1326733e4873","ios":"levelo://app?vid=110d1a59-f3a5-4c9f-8a36-1326733e4873"},"vehicle_type_id":"4","last_reported":1686672499,"current_range_meters":14800,"station_id":"ce4bhih2rcd13ifvqfr0","pricing_plan_id":"free"},{"bike_id":"57154e00-8266-4e72-8503-7cdc5b515608","system_id":"levelo_inurba_marseille","lat":43.25102,"lon":5.403214,"is_reserved":false,"is_disabled":false,"rental_uris":{"android":"levelo://app?vid=57154e00-8266-4e72-8503-7cdc5b515608","ios":"levelo://app?vid=57154e00-8266-4e72-8503-7cdc5b515608"},"vehicle_type_id":"4","last_reported":1686672499,"current_range_meters":21200,"station_id":"ce4bhlh2rcd13ifvqgig","pricing_plan_id":"free"},{"bike_id":"6cf77f71-a9e9-4fc9-bf2b-a37f44deb59a","system_id":"levelo_inurba_marseille","lat":43.24725,"lon":5.39257,"is_reserved":false,"is_disabled":false,"rental_uris":{"android":"levelo://app?vid=6cf77f71-a9e9-4fc9-bf2b-a37f44deb59a","ios":"levelo://app?vid=6cf77f71-a9e9-4fc9-bf2b-a37f44deb59a"},"vehicle_type_id":"4","last_reported":1686672499,"current_range_meters":0,"station_id":"","pricing_plan_id":"free"},{"bike_id":"82c3fcf3-2fb2-450a-be51-83c8fb3404c7","system_id":"levelo_inurba_marseille","lat":43.24647,"lon":5.3889,"is_reserved":false,"is_disabled":false,"rental_uris":{"android":"levelo://app?vid=82c3fcf3-2fb2-450a-be51-83c8fb3404c7","ios":"levelo://app?vid=82c3fcf3-2fb2-450a-be51-83c8fb3404c7"},"vehicle_type_id":"4","last_reported":1686672499,"current_range_meters":16400,"station_id":"ce4bhg12rcd13ifvqf60","pricing_plan_id":"free"},{"bike_id":"5a31e397-e89b-4edd-8b9c-a74745ea7690","system_id":"levelo_inurba_marseille","lat":43.24643,"lon":5.3889,"is_reserved":false,"is_disabled":false,"rental_uris":{"android":"levelo://app?vid=5a31e397-e89b-4edd-8b9c-a74745ea7690","ios":"levelo://app?vid=5a31e397-e89b-4edd-8b9c-a74745ea7690"},"vehicle_type_id":"4","last_reported":1686672499,"current_range_meters":0,"station_id":"ce4bhg12rcd13ifvqf60","pricing_plan_id":"free"},{"bike_id":"3ff0f22f-79b5-4f75-b0e2-a09ba88f9a79","system_id":"levelo_inurba_marseille","lat":43.24391,"lon":5.3706,"is_reserved":false,"is_disabled":false,"rental_uris":{"android":"levelo://app?vid=3ff0f22f-79b5-4f75-b0e2-a09ba88f9a79","ios":"levelo://app?vid=3ff0f22f-79b5-4f75-b0e2-a09ba88f9a79"},"vehicle_type_id":"4","last_reported":1686672499,"current_range_meters":29600,"station_id":"ce4bhhh2rcd13ifvqfk0","pricing_plan_id":"free"},{"bike_id":"58f50e61-9b23-4ba0-bf1e-c2ba091a3c2d","system_id":"levelo_inurba_marseille","lat":43.24391,"lon":5.37063,"is_reserved":false,"is_disabled":false,"rental_uris":{"android":"levelo://app?vid=58f50e61-9b23-4ba0-bf1e-c2ba091a3c2d","ios":"levelo://app?vid=58f50e61-9b23-4ba0-bf1e-c2ba091a3c2d"},