{"last_updated":1732957713,"ttl":60,"version":"2.2","data":{"bikes":[{"bike_id":"d375be11-1a40-470b-b905-c4946466142a","system_id":"levelo_inurba_marseille","lat":43.28455,"lon":5.35885,"is_reserved":false,"is_disabled":false,"rental_uris":{"android":"levelo://app?vid=d375be11-1a40-470b-b905-c4946466142a","ios":"levelo://app?vid=d375be11-1a40-470b-b905-c4946466142a"},"vehicle_type_id":"4","last_reported":1732957713,"current_range_meters":24000,"station_id":"ce4bhah2rcd13ifvqei0","pricing_plan_id":"cebpf4jnsgd1na2vs0mg"},{"bike_id":"05c23fe0-83e1-49fc-8c98-561bfe31127a","system_id":"levelo_inurba_marseille","lat":43.307815,"lon":5.376497,"is_reserved":false,"is_disabled":false,"rental_uris":{"android":"levelo://app?vid=05c23fe0-83e1-49fc-8c98-561bfe31127a","ios":"levelo://app?vid=05c23fe0-83e1-49fc-8c98-561bfe31127a"},"vehicle_type_id":"4","last_reported":1732957713,"current_range_meters":38800,"station_id":"ce4bgv92rcd13ifvqcq0","pricing_plan_id":"cebpf4jnsgd1na2vs0mg"},{"bike_id":"b856c8b4-412d-4c25-bdd4-e6b29aed04cb","system_id":"levelo_inurba_marseille","lat":43.22933,"lon":5.35379,"is_reserved":false,"is_disabled":false,"rental_uris":{"android":"levelo://app?vid=b856c8b4-412d-4c25-bdd4-e6b29aed04cb","ios":"levelo://app?vid=b856c8b4-412d-4c25-bdd4-e6b29aed04cb"},"vehicle_type_id":"4","last_reported":1732957713,"current_range_meters":39200,"station_id":"cpo3532slgdg3j2ikp40","pricing_plan_id":"cebpf4jnsgd1na2vs0mg"},{"bike_id":"3ab70a40-e825-45f1-adcb-4f1977bdbea9","system_id":"levelo_inurba_marseille","lat":43.30807,"lon":5.38149,"is_reserved":false,"is_disabled":false,"rental_uris":{"android":"levelo://app?vid=3ab70a40-e825-45f1-adcb-4f1977bdbea9","ios":"levelo://app?vid=3ab70a40-e825-45f1-adcb-4f1977bdbea9"},"vehicle_type_id":"4","last_reported":1732957713,"current_range_meters":40000,"station_id":"ce4bgt12rcd13ifvqce0","pricing_plan_id":"cebpf4jnsgd1na2vs0mg"},{"bike_id":"3b0e05b2-1e98-491d-b2e1-ddc66cfd8a1a","system_id":"levelo_inurba_marseille","lat":43.3005,"lon":5.38652,"is_reserved":false,"is_disabled":true,"rental_uris":{"android":"levelo://app?vid=3b0e05b2-1e98-491d-b2e1-ddc66cfd8a1a","ios":"levelo://app?vid=3b0e05b2-1e98-491d-b2e1-ddc66cfd8a1a"},"vehicle_type_id":"4","last_reported":1732957713,"current_range_meters":0,"station_id":"","pricing_plan_id":"cebpf4jnsgd1na2vs0mg"},{"bike_id":"48288f6e-dcd4-4764-b249-03da28116ed6","system_id":"levelo_inurba_marseille","lat":43.29618,"lon":5.37705,"is_reserved":false,"is_disabled":false,"rental_uris":{"android":"levelo://app?vid=48288f6e-dcd4-4764-b249-03da28116ed6","ios":"levelo://app?vid=48288f6e-dcd4-4764-b249-03da28116ed6"},"vehicle_type_id":"4","last_reported":1732957713,"current_range_meters":24400,"station_id":"ce4bgi92rcd13ifvqb90","pricing_plan_id":"cebpf4jnsgd1na2vs0mg"},{"bike_id":"84ccddc4-6681-44c8-bacd-154da9b78895","system_id":"levelo_inurba_marseille","lat":43.31716,"lon":5.42406,"is_reserved":false,"is_disabled":false,"rental_uris":{"android":"levelo://app?vid=84ccddc4-6681-44c8-bacd-154da9b78895","ios":"levelo://app?vid=84ccddc4-6681-44c8-bacd-154da9b78895"},"vehicle_type_id":"4","last_reported":1732957713,"current_range_meters":25600,"station_id":"ce4bhp92rcd13ifvqhbg","pricing_plan_id":"cebpf4jnsgd1na2vs0mg"},{"bike_id":"b08651e1-8cc8-49b1-b2c7-daf1e5949271","system_id":"levelo_inurba_marseille","lat":43.29801,"lon":5.38095,"is_reserved":false,"is_disabled":false,"rental_uris":{"android":"levelo://app?vid=b08651e1-8cc8-49b1-b2c7-daf1e5949271","ios":"levelo://app?vid=b08651e1-8cc8-49b1-b2c7-daf1e5949271"},"vehicle_type_id":"4","last_reported":1732957713,"current_range_meters":24800,"station_id":"ce4bgip2rcd13ifvqbb0","pricing_plan_id":"cebpf4jnsgd1na2vs0mg"},{"bike_id":"f258c67c-92c7-48cf-84a0-78973956f5b7","system_id":"levelo_inurba_marseille","lat":43.31708,"lon":5.3773,"is_reserved":false,"is_disabled":false,"rental_uris":{"android":"levelo://app?vid=f258c67c-92c7-48cf-84a0-78973956f5b7","ios":"levelo://app?vid=f258c67c-92c7-48cf-84a0-78973956f5b7"},"vehicle_type_id":"4","last_reported":1732957713,"current_range_meters":38000,"station_id":"ce4bgth2rcd13ifvqch0","pricing_plan_id":"cebpf4jnsgd1na2vs0mg"},{"bike_id":"55a59da6-5727-4b23-892f-57b9bc4daf50","system_id":"levelo_inurba_marseille","lat":43.31368,"lon":5.38495,"is_reserved":false,"is_disabled":false,"rental_uris":{"android":"levelo://app?vid=55a59da6-5727-4b23-892f-57b9bc4daf50","ios":"levelo://app?vid=55a59da6-5727-4b23-892f-57b9bc4daf50"},"vehicle_type_id":"4","last_reported":1732957713,"current_range_meters":24000,"station_id":"ce4bgt92rcd13ifvqcf0","pricing_plan_id":"cebpf4jnsgd1na2vs0mg"},{"bike_id":"0f767ae2-8be2-41f2-8ba4-d32d0ac25c9d","system_id":"levelo_inurba_marseille","lat":43.3015,"lon":5.38082,"is_reserved":false,"is_disabled":false,"rental_uris":{"android":"levelo://app?vid=0f767ae2-8be2-41f2-8ba4-d32d0ac25c9d","ios":"levelo://app?vid=0f767ae2-8be2-41f2-8ba4-d32d0ac25c9d"},"vehicle_type_id":"4","last_reported":1732957713,"current_range_meters":32000,"station_id":"ce4bgjp2rcd13ifvqbh0","pricing_plan_id":"cebpf4jnsgd1na2vs0mg"},{"bike_id":"7974306f-50f1-4979-96e6-42a3a669c81a","system_id":"levelo_inurba_marseille","lat":43.32003,"lon":5.38154,"is_reserved":false,"is_disabled":false,"rental_uris":{"android":"levelo://app?vid=7974306f-50f1-4979-96e6-42a3a669c81a","ios":"levelo://app?vid=7974306f-50f1-4979-96e6-42a3a669c81a"},"vehicle_type_id":"4","last_reported":1732957713,"current_range_meters":10800,"station_id":"ce4bhr12rcd13ifvqhpg","pricing_plan_id":"cebpf4jnsgd1na2vs0mg"},{"bike_id":"2f1e15cd-4d25-4443-a988-2c154a5c72c1","system_id":"levelo_inurba_marseille","lat":43.29029,"lon":5.3756,"is_reserved":false,"is_disabled":false,"rental_uris":{"android":"levelo://app?vid=2f1e15cd-4d25-4443-a988-2c154a5c72c1","ios":"levelo://app?vid=2f1e15cd-4d25-4443-a988-2c154a5c72c1"},"vehicle_type_id":"4","last_reported":1732957713,"current_range_meters":38800,"station_id":"ce4bh692rcd13ifvqe90","pricing_plan_id":"cebpf4jnsgd1na2vs0mg"},{"bike_id":"c7537608-03b9-4f65-a4aa-ef80a727253a","system_id":"levelo_inurba_marseille","lat":43.25496,"lon":5.37647,"is_reserved":false,"is_disabled":false,"rental_uris":{"android":"levelo://app?vid=c7537608-03b9-4f65-a4aa-ef80a727253a","ios":"levelo://app?vid=c7537608-03b9-4f65-a4aa-ef80a727253a"},"vehicle_type_id":"4","last_reported":1732957713,"current_range_meters":33200,"station_id":"ce4bhh12rcd13ifvqff0","pricing_plan_id":"cebpf4jnsgd1na2vs0mg"},{"bike_id":"7e6bd422-e93f-4c13-8d01-72a1032e883e","system_id":"levelo_inurba_marseille","lat":43.26212,"lon":5.37437,"is_reserved":false,"is_disabled":false,"rental_uris":{"android":"levelo://app?vid=7e6bd422-e93f-4c13-8d01-72a1032e883e","ios":"levelo://app?vid=7e6bd422-e93f-4c13-8d01-72a1032e883e"},"vehicle_type_id":"4","last_reported":1732957713,"current_range_meters":9600,"station_id":"ce4bhgp2rcd13ifvqfc0","pricing_plan_id":"cebpf4jnsgd1na2vs0mg"},{"bike_id":"e41f9b1b-a579-4215-9a51-1043638adbb9","system_id":"levelo_inurba_marseille","lat":43.29968,"lon":5.38503,"is_reserved":false,"is_disabled":false,"rental_uris":{"android":"levelo://app?vid=e41f9b1b-a579-4215-9a51-1043638adbb9","ios":"levelo://app?vid=e41f9b1b-a579-4215-9a51-1043638adbb9"},"vehicle_type_id":"4","last_reported":1732957713,"current_range_meters":34800,"station_id":"ce4bgj92rcd13ifvqbd0","pricing_plan_id":"cebpf4jnsgd1na2vs0mg"},{"bike_id":"4da15633-a66a-473a-bc54-06fe8f87dea7","system_id":"levelo_inurba_marseille","lat":43.29369,"lon":5.37826,"is_reserved":false,"is_disabled":false,"rental_uris":{"android":"levelo://app?vid=4da15633-a66a-473a-bc54-06fe8f87dea7","ios":"levelo://app?vid=4da15633-a66a-473a-bc54-06fe8f87dea7"},"vehicle_type_id":"4","last_reported":1732957713,"current_range_meters":38800,"station_id":"ce4bgjh2rcd13ifvqbf0","pricing_plan_id":"cebpf4jnsgd1na2vs0mg"},{"bike_id":"954e8a2a-8a1c-4963-89ad-ae17dec6f0ff","system_id":"levelo_inurba_marseille","lat":43.25869,"lon":5.39892,"is_reserved":false,"is_disabled":false,"rental_uris":{"android":"levelo://app?vid=954e8a2a-8a1c-4963-89ad-ae17dec6f0ff","ios":"levelo://app?vid=954e8a2a-8a1c-4963-89ad-ae17dec6f0ff"},"vehicle_type_id":"4","last_reported":1732957713,"current_range_meters":9200,"station_id":"ce4bhl92rcd13ifvqghg","pricing_plan_id":"cebpf4jnsgd1na2vs0mg"},{"bike_id":"dd764c4f-e5a4-49d0-a29b-266bdb920ff5","system_id":"levelo_inurba_marseille","lat":43.24545,"lon":5.39519,"is_reserved":false,"is_disabled":false,"rental_uris":{"android":"levelo://app?vid=dd764c4f-e5a4-49d0-a29b-266bdb920ff5","ios":"levelo://app?vid=dd764c4f-e5a4-49d0-a29b-266bdb920ff5"},"vehicle_type_id":"4","last_reported":1732957713,"current_range_meters":20800,"station_id":"ce4bhlp2rcd13ifvqgjg","pricing_plan_id":"cebpf4jnsgd1na2vs0mg"},{"bike_id":"3c6557c6-9a08-46be-97c9-a87a6522bdc7","system_id":"levelo_inurba_marseille","lat":43.30148,"lon":5.37408,"is_reserved":false,"is_disabled":false,"rental_uris":{"android":"levelo://app?vid=3c6557c6-9a08-46be-97c9-a87a6522bdc7","ios":"levelo://app?vid=3c6557c6-9a08-46be-97c9-a87a6522bdc7"},"vehicle_type_id":"4","last_reported":1732957713,"current_range_meters":31200,"station_id":"ce4bgs92rcd13ifvqcc0","pricing_plan_id":"cebpf4jnsgd1na2vs0mg"},{"bike_id":"d77c8fa8-9230-4eda-bc9a-5b066cfdd6cc","system_id":"levelo_inurba_marseille","lat":43.25721,"lon":5.41116,"is_reserved":false,"is_disabled":false,"rental_uris":{"android":"levelo://app?vid=d77c8fa8-9230-4eda-bc9a-5b066cfdd6cc","ios":"levelo://app?vid=d77c8fa8-9230-4eda-bc9a-5b066cfdd6cc"},"vehicle_type_id":"4","last_reported":1732957713,"current_range_meters":22800,"station_id":"ce4bhkp2rcd13ifvqgd0","pricing_plan_id":"cebpf4jnsgd1na2vs0mg"},{"bike_id":"1c9c29c1-499c-4043-bad4-8838788aac0f","system_id":"levelo_inurba_marseille","lat":43.32054,"lon":5.41538,"is_reserved":false,"is_disabled":false,"rental_uris":{"android":"levelo://app?vid=1c9c29c1-499c-4043-bad4-8838788aac0f","ios":"levelo://app?vid=1c9c29c1-499c-4043-bad4-8838788aac0f"},"vehicle_type_id":"4","last_reported":1732957713,"current_range_meters":40000,"station_id":"ce4bhq92rcd13ifvqhkg","pricing_plan_id":"cebpf4jnsgd1na2vs0mg"},{"bike_id":"44f16cf6-56ca-494a-9d11-2e0807e1d80c","system_id":"levelo_inurba_marseille","lat":43.25502,"lon":5.37647,"is_reserved":false,"is_disabled":false,"rental_uris":{"android":"levelo://app?vid=44f16cf6-56ca-494a-9d11-2e0807e1d80c","ios":"levelo://app?vid=44f16cf6-56ca-494a-9d11-2e0807e1d80c"},"vehicle_type_id":"4","last_reported":1732957713,"current_range_meters":24400,"station_id":"ce4bhh12rcd13ifvqff0","pricing_plan_id":"cebpf4jnsgd1na2vs0mg"},{"bike_id":"b0bd4cdf-7308-45f0-8e99-a0d5811907ff","system_id":"levelo_inurba_marseille","lat":43.25452,"lon":5.38152,"is_reserved":false,"is_disabled":true,"rental_uris":{"android":"levelo://app?vid=b0bd4cdf-7308-45f0-8e99-a0d5811907ff","ios":"levelo://app?vid=b0bd4cdf-7308-45f0-8e99-a0d5811907ff"},"vehicle_type_id":"4","last_reported":1732957713,"current_range_meters":0,"station_id":"","pricing_plan_id":"cebpf4jnsgd1na2vs0mg"},{"bike_id":"afddf1d9-c863-42fb-9700-ebda5a1489fb","system_id":"levelo_inurba_marseille","lat":43.29024,"lon":5.39972,"is_reserved":false,"is_disabled":false,"rental_uris":{"android":"levelo://app?vid=afddf1d9-c863-42fb-9700-ebda5a1489fb","ios":"levelo://app?vid=afddf1d9-c863-42fb-9700-ebda5a1489fb"},"vehicle_type_id":"4","last_reported":1732957713,"current_range_meters":38000,"station_id":"ce4bh392rcd13ifvqdm0","pricing_plan_id":"cebpf4jnsgd1na2vs0mg"},{"bike_id":"98dae069-3362-4121-b1f0-b199dccaad7b","system_id":"levelo_inurba_marseille","lat":43.30554,"lon":5.36538,"is_reserved":false,"is_disabled":false,"rental_uris":{"android":"levelo://app?vid=98dae069-3362-4121-b1f0-b199dccaad7b","ios":"levelo://app?vid=98dae069-3362-4121-b1f0-b199dccaad7b"},"vehicle_type_id":"4","last_reported":1732957713,"current_range_meters":31200,"station_id":"ce4bgs12rcd13ifvqcag","pricing_plan_id":"cebpf4jnsgd1na2vs0mg"},{"bike_id":"175188d2-5ca9-41c9-8a67-2c7854ed513c","system_id":"levelo_inurba_marseille","lat":43.293,"lon":5.37453,"is_reserved":false,"is_disabled":false,"rental_uris":{"android":"levelo://app?vid=175188d2-5ca9-41c9-8a67-2c7854ed513c","ios":"levelo://app?vid=175188d2-5ca9-41c9-8a67-2c7854ed513c"},"vehicle_type_id":"4","last_reported":1732957713,"current_range_meters":27600,"station_id":"ce4bgi12rcd13ifvqb70","pricing_plan_id":"cebpf4jnsgd1na2vs0mg"},{"bike_id":"3c241112-0e96-425e-8646-c6f08bf02411","system_id":"levelo_inurba_marseille","lat":43.24651,"lon":5.38893,"is_reserved":false,"is_disabled":true,"rental_uris":{"android":"levelo://app?vid=3c241112-0e96-425e-8646-c6f08bf02411","ios":"levelo://app?vid=3c241112-0e96-425e-8646-c6f08bf02411"},"vehicle_type_id":"4","last_reported":1732957713,"current_range_meters":0,"station_id":"ce4bhg12rcd13ifvqf60","pricing_plan_id":"cebpf4jnsgd1na2vs0mg"},{"bike_id":"6f7949e1-de87-4a49-8620-fec27e04447f","system_id":"levelo_inurba_marseille","lat":43.337321,"lon":5.391887,"is_reserved":false,"is_disabled":false,"rental_uris":{"android":"levelo://app?vid=6f7949e1-de87-4a49-8620-fec27e04447f","ios":"levelo://app?vid=6f7949e1-de87-4a49-8620-fec27e04447f"},"vehicle_type_id":"4","last_reported":1732957713,"current_range_meters":28000,"station_id":"ce4bhr92rcd13ifvqhsg","pricing_plan_id":"cebpf4jnsgd1na2vs0mg"},{"bike_id":"35d571c6-7ee8-402e-b9a9-509c04cc6376","system_id":"levelo_inurba_marseille","lat":43.23196,"lon":5.35547,"is_reserved":false,"is_disabled":false,"rental_uris":{"android":"levelo://app?vid=35d571c6-7ee8-402e-b9a9-509c04cc6376","ios":"levelo://app?vid=35d571c6-7ee8-402e-b9a9-509c04cc6376"},"vehicle_type_id":"4","last_reported":1732957713,"current_range_meters":34800,"station_id":"ce4bhu92rcd13ifvqi70","pricing_plan_id":"cebpf4jnsgd1na2vs0mg"},{"bike_id":"7066298c-8444-4dbb-8e5a-afa45f0890f5","system_id":"levelo_inurba_marseille","lat":43.28867,"lon":5.39308,"is_reserved":false,"is_disabled":true,"rental_uris":{"android":"levelo://app?vid=7066298c-8444-4dbb-8e5a-afa45f0890f5","ios":"levelo://app?vid=7066298c-8444-4dbb-8e5a-afa45f0890f5"},"vehicle_type_id":"4","last_reported":1732957713,"current_range_meters":13600,"station_id":"ce4bh2p2rcd13ifvqdi0","pricing_plan_id":"cebpf4jnsgd1na2vs0mg"},{"bike_id":"79da6e11-068f-4f85-891a-bf5d6033ae1b","system_id":"levelo_inurba_marseille","lat":43.29188,"lon":5.39312,"is_reserved":false,"is_disabled":true,"rental_uris":{"android":"levelo://app?vid=79da6e11-068f-4f85-891a-bf5d6033ae1b","ios":"levelo://app?vid=79da6e11-068f-4f85-891a-bf5d6033ae1b"},"vehicle_type_id":"4","last_reported":1732957713,"current_range_meters":24800,"station_id":"ce4bh192rcd13ifvqdd0","pricing_plan_id":"cebpf4jnsgd1na2vs0mg"},{"bike_id":"ea65bc22-100f-4a7b-a38b-f2659223cf3d","system_id":"levelo_inurba_marseille","lat":43.31998,"lon":5.38149,"is_reserved":false,"is_disabled":false,"rental_uris":{"android":"levelo://app?vid=ea65bc22-100f-4a7b-a38b-f2659223cf3d","ios":"levelo://app?vid=ea65bc22-100f-4a7b-a38b-f2659223cf3d"},"vehicle_type_id":"4","last_reported":1732957713,"current_range_meters":8400,"station_id":"ce4bhr12rcd13ifvqhpg","pricing_plan_id":"cebpf4jnsgd1na2vs0mg"},{"bike_id":"a7ff096c-05e2-4c02-9bc7-44f5dc96fab6","system_id":"levelo_inurba_marseille","lat":43.30723,"lon":5.41321,"is_reserved":false,"is_disabled":false,"rental_uris":{"android":"levelo://app?vid=a7ff096c-05e2-4c02-9bc7-44f5dc96fab6","ios":"levelo://app?vid=a7ff096c-05e2-4c02-9bc7-44f5dc96fab6"},"vehicle_type_id":"4","last_reported":1732957713,"current_range_meters":10000,"station_id":"ce4bhop2rcd13ifvqh8g","pricing_plan_id":"cebpf4jnsgd1na2vs0mg"},{"bike_id":"17c3787c-47ed-47fd-9c64-fc0be19f7592","system_id":"levelo_inurba_marseille","lat":43.30421,"lon":5.4128,"is_reserved":false,"is_disabled":false,"rental_uris":{"android":"levelo://app?vid=17c3787c-47ed-47fd-9c64-fc0be19f7592","ios":"levelo://app?vid=17c3787c-47ed-47fd-9c64-fc0be19f7592"},"vehicle_type_id":"4","last_reported":1732957713,"current_range_meters":39200,"station_id":"ce4bhop2rcd13ifvqh8g","pricing_plan_id":"cebpf4jnsgd1na2vs0mg"},{"bike_id":"7f7711f4-5618-4170-b8e9-72f50293f59c","system_id":"levelo_inurba_marseille","lat":43.3009,"lon":5.39069,"is_reserved":false,"is_disabled":false,"rental_uris":{"android":"levelo://app?vid=7f7711f4-5618-4170-b8e9-72f50293f59c","ios":"levelo://app?vid=7f7711f4-5618-4170-b8e9-72f50293f59c"},"vehicle_type_id":"4","last_reported":1732957713,"current_range_meters":16800,"station_id":"ce4bh192rcd13ifvqdb0","pricing_plan_id":"cebpf4jnsgd1na2vs0mg"},{"bike_id":"f26bfa4f-1b03-4d40-bd8a-9396393c620d","system_id":"levelo_inurba_marseille","lat":43.25587,"lon":5.3823,"is_reserved":false,"is_disabled":false,"rental_uris":{"android":"levelo://app?vid=f26bfa4f-1b03-4d40-bd8a-9396393c620d","ios":"levelo://app?vid=f26bfa4f-1b03-4d40-bd8a-9396393c620d"},"vehicle_type_id":"4","last_reported":1732957713,"current_range_meters":30000,"station_id":"ce4bhih2rcd13ifvqfs0","pricing_plan_id":"cebpf4jnsgd1na2vs0mg"},{"bike_id":"9df891fc-6fad-4fa6-8d41-90f57311b9ce","system_id":"levelo_inurba_marseille","lat":43.30766,"lon":5.37603,"is_reserved":false,"is_disabled":false,"rental_uris":{"android":"levelo://app?vid=9df891fc-6fad-4fa6-8d41-90f57311b9ce","ios":"levelo://app?vid=9df891fc-6fad-4fa6-8d41-90f57311b9ce"},"vehicle_type_id":"4","last_reported":1732957713,"current_range_meters":32800,"station_id":"ce4bgv92rcd13ifvqcq0","pricing_plan_id":"cebpf4jnsgd1na2vs0mg"},{"bike_id":"0c771d4a-5eb8-4a17-9dd8-0117923e294f","system_id":"levelo_inurba_marseille","lat":43.30458,"lon":5.37906,"is_reserved":false,"is_disabled":false,"rental_uris":{"android":"levelo://app?vid=0c771d4a-5eb8-4a17-9dd8-0117923e294f","ios":"levelo://app?vid=0c771d4a-5eb8-4a17-9dd8-0117923e294f"},"vehicle_type_id":"4","last_reported":1732957713,"current_range_meters":22400,"station_id":"ce4bgup2rcd13ifvqcn0","pricing_plan_id":"cebpf4jnsgd1na2vs0mg"},{"bike_id":"528d65f6-3249-49b9-a40a-d6c9edff81cd","system_id":"levelo_inurba_marseille","lat":43.29785,"lon":5.38095,"is_reserved":false,"is_disabled":true,"rental_uris":{"android":"levelo://app?vid=528d65f6-3249-49b9-a40a-d6c9edff81cd","ios":"levelo://app?vid=528d65f6-3249-49b9-a40a-d6c9edff81cd"},"vehicle_type_id":"4","last_reported":1732957713,"current_range_meters":22400,"station_id":"ce4bgip2rcd13ifvqbb0","pricing_plan_id":"cebpf4jnsgd1na2vs0mg"},{"bike_id":"1da95906-21a5-448b-81bd-05470d4372b4","system_id":"levelo_inurba_marseille","lat":43.29181,"lon":5.35809,"is_reserved":false,"is_disabled":false,"rental_uris":{"android":"levelo://app?vid=1da95906-21a5-448b-81bd-05470d4372b4","ios":"levelo://app?vid=1da95906-21a5-448b-81bd-05470d4372b4"},"vehicle_type_id":"4","last_reported":1732957713,"current_range_meters":38800,"station_id":"ce4bhb12rcd13ifvqel0","pricing_plan_id":"cebpf4jnsgd1na2vs0mg"},{"bike_id":"98037c3a-9b2c-4fc3-b5c9-984ee3607601","system_id":"levelo_inurba_marseille","lat":43.32362,"lon":5.36762,"is_reserved":false,"is_disabled":false,"rental_uris":{"android":"levelo://app?vid=98037c3a-9b2c-4fc3-b5c9-984ee3607601","ios":"levelo://app?vid=98037c3a-9b2c-4fc3-b5c9-984ee3607601"},"vehicle_type_id":"4","last_reported":1732957713,"current_range_meters":8400,"station_id":"ce4bhsh2rcd13ifvqi2g","pricing_plan_id":"cebpf4jnsgd1na2vs0mg"},{"bike_id":"22377caf-d158-4e4b-a4e2-8a6d879a1fe7","system_id":"levelo_inurba_marseille","lat":43.29577,"lon":5.37506,"is_reserved":false,"is_disabled":false,"rental_uris":{"android":"levelo://app?vid=22377caf-d158-4e4b-a4e2-8a6d879a1fe7","ios":"levelo://app?vid=22377caf-d158-4e4b-a4e2-8a6d879a1fe7"},"vehicle_type_id":"4","last_reported":1732957713,"current_range_meters":38800,"station_id":"ce4bgh92rcd13ifvqb50","pricing_plan_id":"cebpf4jnsgd1na2vs0mg"},{"bike_id":"e794bdf2-749c-46c2-84eb-2fe71b6ec7fb","system_id":"levelo_inurba_marseille","lat":43.29794,"lon":5.38109,"is_reserved":false,"is_disabled":false,"rental_uris":{"android":"levelo://app?vid=e794bdf2-749c-46c2-84eb-2fe71b6ec7fb","ios":"levelo://app?vid=e794bdf2-749c-46c2-84eb-2fe71b6ec7fb"},"vehicle_type_id":"4","last_reported":1732957713,"current_range_meters":35600,"station_id":"ce4bgip2rcd13ifvqbb0","pricing_plan_id":"cebpf4jnsgd1na2vs0mg"},{"bike_id":"d1486dd5-23d4-40bc-bb61-4a3c8126196a","system_id":"levelo_inurba_marseille","lat":43.27369,"lon":5.36254,"is_reserved":false,"is_disabled":false,"rental_uris":{"android":"levelo://app?vid=d1486dd5-23d4-40bc-bb61-4a3c8126196a","ios":"levelo://app?vid=d1486dd5-23d4-40bc-bb61-4a3c8126196a"},"vehicle_type_id":"4","last_reported":1732957713,"current_range_meters":38000,"station_id":"ce4bhbh2rcd13ifvqeo0","pricing_plan_id":"cebpf4jnsgd1na2vs0mg"},{"bike_id":"95a76c92-571e-47e0-9b22-f4597e37981d","system_id":"levelo_inurba_marseille","lat":43.30354,"lon":5.41875,"is_reserved":false,"is_disabled":false,"rental_uris":{"android":"levelo://app?vid=95a76c92-571e-47e0-9b22-f4597e37981d","ios":"levelo://app?vid=95a76c92-571e-47e0-9b22-f4597e37981d"},"vehicle_type_id":"4","last_reported":1732957713,"current_range_meters":22000,"station_id":"ce4bhop2rcd13ifvqh7g","pricing_plan_id":"cebpf4jnsgd1na2vs0mg"},{"bike_id":"d350231d-a46d-4666-ba51-f12c2e69a01c","system_id":"levelo_inurba_marseille","lat":43.25718,"lon":5.41113,"is_reserved":false,"is_disabled":false,"rental_uris":{"android":"levelo://app?vid=d350231d-a46d-4666-ba51-f12c2e69a01c","ios":"levelo://app?vid=d350231d-a46d-4666-ba51-f12c2e69a01c"},"vehicle_type_id":"4","last_reported":1732957713,"current_range_meters":39200,"station_id":"ce4bhkp2rcd13ifvqgd0","pricing_plan_id":"cebpf4jnsgd1na2vs0mg"},{"bike_id":"4651a703-59f3-466c-b16b-a4f8e06e86f3","system_id":"levelo_inurba_marseille","lat":43.31162,"lon":5.38685,"is_reserved":false,"is_disabled":false,"rental_uris":{"android":"levelo://app?vid=4651a703-59f3-466c-b16b-a4f8e06e86f3","ios":"levelo://app?vid=4651a703-59f3-466c-b16b-a4f8e06e86f3"},"vehicle_type_id":"4","last_reported":1732957713,"current_range_meters":38800,"station_id":"ce4bgv12rcd13ifvqcp0","pricing_plan_id":"cebpf4jnsgd1na2vs0mg"},{"bike_id":"78dc8946-6f4e-4eb9-93a2-53dff9b37368","system_id":"levelo_inurba_marseille","lat":43.26934,"lon":5.38918,"is_reserved":false,"is_disabled":false,"rental_uris":{"android":"levelo://app?vid=78dc8946-6f4e-4eb9-93a2-53dff9b37368","ios":"levelo://app?vid=78dc8946-6f4e-4eb9-93a2-53dff9b37368"},"vehicle_type_id":"4","last_reported":1732957713,"current_range_meters":17200,"station_id":"ce4bhhh2rcd13ifvqfl0","pricing_plan_id":"cebpf4jnsgd1na2vs0mg"},{"bike_id":"cd3a296e-d858-45de-b7ea-27c97fb92c3e","system_id":"levelo_inurba_marseille","lat":43.29278,"lon":5.36841,"is_reserved":false,"is_disabled":false,"rental_uris":{"android":"levelo://app?vid=cd3a296e-d858-45de-b7ea-27c97fb92c3e","ios":"levelo://app?vid=cd3a296e-d858-45de-b7ea-27c97fb92c3e"},"vehicle_type_id":"4","last_reported":1732957713,"current_range_meters":28000,"station_id":"ce4bhbp2rcd13ifvqesg","pricing_plan_id":"cebpf4jnsgd1na2vs0mg"},{"bike_id":"8938b680-b8f0-439b-aa76-77079135e43c","system_id":"levelo_inurba_marseille","lat":43.31538,"lon":5.38012,"is_reserved":false,"is_disabled":false,"rental_uris":{"android":"levelo://app?vid=8938b680-b8f0-439b-aa76-77079135e43c","ios":"levelo://app?vid=8938b680-b8f0-439b-aa76-77079135e43c"},"vehicle_type_id":"4","last_reported":1732957713,"current_range_meters":32400,"station_id":"ce4bhsp2rcd13ifvqi50","pricing_plan_id":"cebpf4jnsgd1na2vs0mg"},{"bike_id":"ab48ff1d-73d7-44c7-9ef3-0adeaaf25f01","system_id":"levelo_inurba_marseille","lat":43.26936,"lon":5.38924,"is_reserved":false,"is_disabled":false,"rental_uris":{"android":"levelo://app?vid=ab48ff1d-73d7-44c7-9ef3-0adeaaf25f01","ios":"levelo://app?vid=ab48ff1d-73d7-44c7-9ef3-0adeaaf25f01"},"vehicle_type_id":"4","last_reported":1732957713,"current_range_meters":10800,"station_id":"ce4bhhh2rcd13ifvqfl0","pricing_plan_id":"cebpf4jnsgd1na2vs0mg"},{"bike_id":"b2990e50-c96f-464d-8634-bd59a0d64e74","system_id":"levelo_inurba_marseille","lat":43.27073,"lon":5.42274,"is_reserved":false,"is_disabled":false,"rental_uris":{"android":"levelo://app?vid=b2990e50-c96f-464d-8634-bd59a0d64e74","ios":"levelo://app?vid=b2990e50-c96f-464d-8634-bd59a0d64e74"},"vehicle_type_id":"4","last_reported":1732957713,"current_range_meters":24800,"station_id":"ce4bhk92rcd13ifvqgb0","pricing_plan_id":"cebpf4jnsgd1na2vs0mg"},{"bike_id":"a2e68fbf-bb8a-4931-ad50-eb639c7d0dbc","system_id":"levelo_inurba_marseille","lat":43.32338,"lon":5.40616,"is_reserved":false,"is_disabled":false,"rental_uris":{"android":"levelo://app?vid=a2e68fbf-bb8a-4931-ad50-eb639c7d0dbc","ios":"levelo://app?vid=a2e68fbf-bb8a-4931-ad50-eb639c7d0dbc"},"vehicle_type_id":"4","last_reported":1732957713,"current_range_meters":27600,"station_id":"ce4bhq92rcd13ifvqhjg","pricing_plan_id":"cebpf4jnsgd1na2vs0mg"},{"bike_id":"94ddd20c-e5b2-4c73-a61a-2ac668abc7d2","system_id":"levelo_inurba_marseille","lat":43.32,"lon":5.38134,"is_reserved":false,"is_disabled":false,"rental_uris":{"android":"levelo://app?vid=94ddd20c-e5b2-4c73-a61a-2ac668abc7d2","ios":"levelo://app?vid=94ddd20c-e5b2-4c73-a61a-2ac668abc7d2"},"vehicle_type_id":"4","last_reported":1732957713,"current_range_meters":38800,"station_id":"ce4bhr12rcd13ifvqhpg","pricing_plan_id":"cebpf4jnsgd1na2vs0mg"},{"bike_id":"bede0b8f-6f13-4382-839b-8bf6932ef238","system_id":"levelo_inurba_marseille","lat":43.26562,"lon":5.37279,"is_reserved":false,"is_disabled":false,"rental_uris":{"android":"levelo://app?vid=bede0b8f-6f13-4382-839b-8bf6932ef238","ios":"levelo://app?vid=bede0b8f-6f13-4382-839b-8bf6932ef238"},"vehicle_type_id":"4","last_reported":1732957713,"current_range_meters":32400,"station_id":"ce4bhg12rcd13ifvqf70","pricing_plan_id":"cebpf4jnsgd1na2vs0mg"},{"bike_id":"fe2c00d6-fab6-472b-887d-35960cae9038","system_id":"levelo_inurba_marseille","lat":43.25939,"lon":5.409,"is_reserved":false,"is_disabled":false,"rental_uris":{"android":"levelo://app?vid=fe2c00d6-fab6-472b-887d-35960cae9038","ios":"levelo://app?vid=fe2c00d6-fab6-472b-887d-35960cae9038"},"vehicle_type_id":"4","last_reported":1732957713,"current_range_meters":37600,"station_id":"ce4bhm92rcd13ifvqglg","pricing_plan_id":"cebpf4jnsgd1na2vs0mg"},{"bike_id":"b18a568b-3005-4900-a44b-d714c5b55498","system_id":"levelo_inurba_marseille","lat":43.2861,"lon":5.37059,"is_reserved":false,"is_disabled":false,"rental_uris":{"android":"levelo://app?vid=b18a568b-3005-4900-a44b-d714c5b55498","ios":"levelo://app?vid=b18a568b-3005-4900-a44b-d714c5b55498"},"vehicle_type_id":"4","last_reported":1732957713,"current_range_meters":3600,"station_id":"ce4bht12rcd13ifvqi60","pricing_plan_id":"cebpf4jnsgd1na2vs0mg"},{"bike_id":"4035e70a-9b35-49ff-8763-9565717e2e74","system_id":"levelo_inurba_marseille","lat":43.28462,"lon":5.35889,"is_reserved":false,"is_disabled":true,"rental_uris":{"android":"levelo://app?vid=4035e70a-9b35-49ff-8763-9565717e2e74","ios":"levelo://app?vid=4035e70a-9b35-49ff-8763-9565717e2e74"},"vehicle_type_id":"4","last_reported":1732957713,"current_range_meters":6400,"station_id":"ce4bhah2rcd13ifvqei0","pricing_plan_id":"cebpf4jnsgd1na2vs0mg"},{"bike_id":"bc749360-3ce4-4dd6-a0ac-83aa82c323a7","system_id":"levelo_inurba_marseille","lat":43.28151,"lon":5.42636,"is_reserved":false,"is_disabled":true,"rental_uris":{"android":"levelo://app?vid=bc749360-3ce4-4dd6-a0ac-83aa82c323a7","ios":"levelo://app?vid=bc749360-3ce4-4dd6-a0ac-83aa82c323a7"},"vehicle_type_id":"4","last_reported":1732957713,"current_range_meters":36400,"station_id":"ce4bhnh2rcd13ifvqgug","pricing_plan_id":"cebpf4jnsgd1na2vs0mg"},{"bike_id":"a5083c7e-4a01-446d-8f78-53cc7c6d43ce","system_id":"levelo_inurba_marseille","lat":43.2319,"lon":5.35551,"is_reserved":false,"is_disabled":false,"rental_uris":{"android":"levelo://app?vid=a5083c7e-4a01-446d-8f78-53cc7c6d43ce","ios":"levelo://app?vid=a5083c7e-4a01-446d-8f78-53cc7c6d43ce"},"vehicle_type_id":"4","last_reported":1732957713,"current_range_meters":39200,"station_id":"ce4bhu92rcd13ifvqi70","pricing_plan_id":"cebpf4jnsgd1na2vs0mg"},{"bike_id":"4d4c884f-6933-49c0-8899-f9856d90f44d","system_id":"levelo_inurba_marseille","lat":43.29748,"lon":5.37971,"is_reserved":false,"is_disabled":true,"rental_uris":{"android":"levelo://app?vid=4d4c884f-6933-49c0-8899-f9856d90f44d","ios":"levelo://app?vid=4d4c884f-6933-49c0-8899-f9856d90f44d"},"vehicle_type_id":"4","last_reported":1732957713,"current_range_meters":0,"station_id":"","pricing_plan_id":"cebpf4jnsgd1na2vs0mg"},{"bike_id":"1e969821-f4e9-44c3-a1f6-76f097f06ab9","system_id":"levelo_inurba_marseille","lat":43.32039,"lon":5.41565,"is_reserved":false,"is_disabled":false,"rental_uris":{"android":"levelo://app?vid=1e969821-f4e9-44c3-a1f6-76f097f06ab9","ios":"levelo://app?vid=1e969821-f4e9-44c3-a1f6-76f097f06ab9"},"vehicle_type_id":"4","last_reported":1732957713,"current_range_meters":36000,"station_id":"ce4bhq92rcd13ifvqhkg","pricing_plan_id":"cebpf4jnsgd1na2vs0mg"},{"bike_id":"058e8e1b-7dca-4b59-aa94-20fff559eba0","system_id":"levelo_inurba_marseille","lat":43.26062,"lon":5.39392,"is_reserved":false,"is_disabled":false,"rental_uris":{"android":"levelo://app?vid=058e8e1b-7dca-4b59-aa94-20fff559eba0","ios":"levelo://app?vid=058e8e1b-7dca-4b59-aa94-20fff559eba0"},"vehicle_type_id":"4","last_reported":1732957713,"current_range_meters":38000,"station_id":"ce4bhh92rcd13ifvqfj0","pricing_plan_id":"cebpf4jnsgd1na2vs0mg"},{"bike_id":"ec9ad250-db01-42b8-9736-15127403fe10","system_id":"levelo_inurba_marseille","lat":43.313831,"lon":5.384953,"is_reserved":false,"is_disabled":false,"rental_uris":{"android":"levelo://app?vid=ec9ad250-db01-42b8-9736-15127403fe10","ios":"levelo://app?vid=ec9ad250-db01-42b8-9736-15127403fe10"},"vehicle_type_id":"4","last_reported":1732957713,"current_range_meters":27600,"station_id":"ce4bgt92rcd13ifvqcf0","pricing_plan_id":"cebpf4jnsgd1na2vs0mg"},{"bike_id":"9009be37-c6b1-406b-b0a8-fbab355f715e","system_id":"levelo_inurba_marseille","lat":43.33763,"lon":5.37495,"is_reserved":false,"is_disabled":false,"rental_uris":{"android":"levelo://app?vid=9009be37-c6b1-406b-b0a8-fbab355f715e","ios":"levelo://app?vid=9009be37-c6b1-406b-b0a8-fbab355f715e"},"vehicle_type_id":"4","last_reported":1732957713,"current_range_meters":36800,"station_id":"","pricing_plan_id":"cebpf4jnsgd1na2vs0mg"},{"bike_id":"3fd3c9e9-2a71-460f-909c-9685f3d1b7d4","system_id":"levelo_inurba_marseille","lat":43.25718,"lon":5.41113,"is_reserved":false,"is_disabled":false,"rental_uris":{"android":"levelo://app?vid=3fd3c9e9-2a71-460f-909c-9685f3d1b7d4","ios":"levelo://app?vid=3fd3c9e9-2a71-460f-909c-9685f3d1b7d4"},"vehicle_type_id":"4","last_reported":1732957713,"current_range_meters":27600,"station_id":"ce4bhkp2rcd13ifvqgd0","pricing_plan_id":"cebpf4jnsgd1na2vs0mg"},{"bike_id":"c81e7d9f-2f5c-4377-8a55-0fc1c7e25641","system_id":"levelo_inurba_marseille","lat":43.31712,"lon":5.4371,"is_reserved":false,"is_disabled":false,"rental_uris":{"android":"levelo://app?vid=c81e7d9f-2f5c-4377-8a55-0fc1c7e25641","ios":"levelo://app?vid=c81e7d9f-2f5c-4377-8a55-0fc1c7e25641"},"vehicle_type_id":"4","last_reported":1732957713,"current_range_meters":38400,"station_id":"ce4bhp92rcd13ifvqhcg","pricing_plan_id":"cebpf4jnsgd1na2vs0mg"},{"bike_id":"dceab1d4-12c0-41da-b4ce-858986625686","system_id":"levelo_inurba_marseille","lat":43.29576,"lon":5.37509,"is_reserved":false,"is_disabled":false,"rental_uris":{"android":"levelo://app?vid=dceab1d4-12c0-41da-b4ce-858986625686","ios":"levelo://app?vid=dceab1d4-12c0-41da-b4ce-858986625686"},"vehicle_type_id":"4","last_reported":1732957713,"current_range_meters":24000,"station_id":"ce4bgh92rcd13ifvqb50","pricing_plan_id":"cebpf4jnsgd1na2vs0mg"},{"bike_id":"38487ff3-50c5-483d-a958-1093aca7bbab","system_id":"levelo_inurba_marseille","lat":43.30598,"lon":5.39356,"is_reserved":false,"is_disabled":false,"rental_uris":{"android":"levelo://app?vid=38487ff3-50c5-483d-a958-1093aca7bbab","ios":"levelo://app?vid=38487ff3-50c5-483d-a958-1093aca7bbab"},"vehicle_type_id":"4","last_reported":1732957713,"current_range_meters":16000,"station_id":"ce4bh0p2rcd13ifvqd80","pricing_plan_id":"cebpf4jnsgd1na2vs0mg"},{"bike_id":"be1ea8ae-bb6c-4cc9-9878-4dd6e7c328d6","system_id":"levelo_inurba_marseille","lat":43.32106,"lon":5.36769,"is_reserved":false,"is_disabled":false,"rental_uris":{"android":"levelo://app?vid=be1ea8ae-bb6c-4cc9-9878-4dd6e7c328d6","ios":"levelo://app?vid=be1ea8ae-bb6c-4cc9-9878-4dd6e7c328d6"},"vehicle_type_id":"4","last_reported":1732957713,"current_range_meters":31200,"station_id":"ce4bhrh2rcd13ifvqhug","pricing_plan_id":"cebpf4jnsgd1na2vs0mg"},{"bike_id":"8c9876ea-1b04-44eb-a3de-6d20def82905","system_id":"levelo_inurba_marseille","lat":43.2843,"lon":5.34979,"is_reserved":false,"is_disabled":false,"rental_uris":{"android":"levelo://app?vid=8c9876ea-1b04-44eb-a3de-6d20def82905","ios":"levelo://app?vid=8c9876ea-1b04-44eb-a3de-6d20def82905"},"vehicle_type_id":"4","last_reported":1732957713,"current_range_meters":6800,"station_id":"ce4bhbh2rcd13ifvqepg","pricing_plan_id":"cebpf4jnsgd1na2vs0mg"},{"bike_id":"b1ac7571-eb4e-4f10-b111-5adbf1306f57","system_id":"levelo_inurba_marseille","lat":43.28453,"lon":5.3588,"is_reserved":false,"is_disabled":false,"rental_uris":{"android":"levelo://app?vid=b1ac7571-eb4e-4f10-b111-5adbf1306f57","ios":"levelo://app?vid=b1ac7571-eb4e-4f10-b111-5adbf1306f57"},"vehicle_type_id":"4","last_reported":1732957713,"current_range_meters":38400,"station_id":"ce4bhah2rcd13ifvqei0","pricing_plan_id":"cebpf4jnsgd1na2vs0mg"},{"bike_id":"a2e389d1-e3df-4f18-a79d-5461697ea3a6","system_id":"levelo_inurba_marseille","lat":43.27995,"lon":5.41657,"is_reserved":false,"is_disabled":false,"rental_uris":{"android":"levelo://app?vid=a2e389d1-e3df-4f18-a79d-5461697ea3a6","ios":"levelo://app?vid=a2e389d1-e3df-4f18-a79d-5461697ea3a6"},"vehicle_type_id":"4","last_reported":1732957713,"current_range_meters":17200,"station_id":"ce4bho12rcd13ifvqh1g","pricing_plan_id":"cebpf4jnsgd1na2vs0mg"},{"bike_id":"4ba4bc99-a1ac-4b93-a995-20b892be1c37","system_id":"levelo_inurba_marseille","lat":43.28712,"lon":5.37944,"is_reserved":false,"is_disabled":false,"rental_uris":{"android":"levelo://app?vid=4ba4bc99-a1ac-4b93-a995-20b892be1c37","ios":"levelo://app?vid=4ba4bc99-a1ac-4b93-a995-20b892be1c37"},"vehicle_type_id":"4","last_reported":1732957713,"current_range_meters":10000,"station_id":"ce4bh9p2rcd13ifvqec0","pricing_plan_id":"cebpf4jnsgd1na2vs0mg"},{"bike_id":"77be03dd-3d99-4535-adc0-1c7477c4a3a3","system_id":"levelo_inurba_marseille","lat":43.32284,"lon":5.38277,"is_reserved":false,"is_disabled":false,"rental_uris":{"android":"levelo://app?vid=77be03dd-3d99-4535-adc0-1c7477c4a3a3","ios":"levelo://app?vid=77be03dd-3d99-4535-adc0-1c7477c4a3a3"},"vehicle_type_id":"4","last_reported":1732957713,"current_range_meters":39200,"station_id":"ce4bhr12rcd13ifvqhqg","pricing_plan_id":"cebpf4jnsgd1na2vs0mg"},{"bike_id":"f6b50640-c36d-44a0-9164-ed47853deaf6","system_id":"levelo_inurba_marseille","lat":43.29273,"lon":5.36836,"is_reserved":false,"is_disabled":false,"rental_uris":{"android":"levelo://app?vid=f6b50640-c36d-44a0-9164-ed47853deaf6","ios":"levelo://app?vid=f6b50640-c36d-44a0-9164-ed47853deaf6"},"vehicle_type_id":"4","last_reported":1732957713,"current_range_meters":38800,"station_id":"ce4bhbp2rcd13ifvqesg","pricing_plan_id":"cebpf4jnsgd1na2vs0mg"},{"bike_id":"f417758e-d5f5-4e46-8e61-41e3114e14c2","system_id":"levelo_inurba_marseille","lat":43.30139,"lon":5.37408,"is_reserved":false,"is_disabled":false,"rental_uris":{"android":"levelo://app?vid=f417758e-d5f5-4e46-8e61-41e3114e14c2","ios":"levelo://app?vid=f417758e-d5f5-4e46-8e61-41e3114e14c2"},"vehicle_type_id":"4","last_reported":1732957713,"current_range_meters":37600,"station_id":"ce4bgs92rcd13ifvqcc0","pricing_plan_id":"cebpf4jnsgd1na2vs0mg"},{"bike_id":"9885a916-0c71-47c7-a92e-d9a2093be9b3","system_id":"levelo_inurba_marseille","lat":43.27989,"lon":5.41664,"is_reserved":false,"is_disabled":false,"rental_uris":{"android":"levelo://app?vid=9885a916-0c71-47c7-a92e-d9a2093be9b3","ios":"levelo://app?vid=9885a916-0c71-47c7-a92e-d9a2093be9b3"},"vehicle_type_id":"4","last_reported":1732957713,"current_range_meters":6800,"station_id":"ce4bho12rcd13ifvqh1g","pricing_plan_id":"cebpf4jnsgd1na2vs0mg"},{"bike_id":"da44d878-f6ff-41ae-8a97-e52ee36bd087","system_id":"levelo_inurba_marseille","lat":43.24797,"lon":5.37449,"is_reserved":false,"is_disabled":false,"rental_uris":{"android":"levelo://app?vid=da44d878-f6ff-41ae-8a97-e52ee36bd087","ios":"levelo://app?vid=da44d878-f6ff-41ae-8a97-e52ee36bd087"},"vehicle_type_id":"4","last_reported":1732957713,"current_range_meters":38800,"station_id":"ce4bhgh2rcd13ifvqfb0","pricing_plan_id":"cebpf4jnsgd1na2vs0mg"},{"bike_id":"ca20ea45-5a00-49af-88ae-1db20fe0c34f","system_id":"levelo_inurba_marseille","lat":43.26938,"lon":5.38917,"is_reserved":false,"is_disabled":false,"rental_uris":{"android":"levelo://app?vid=ca20ea45-5a00-49af-88ae-1db20fe0c34f","ios":"levelo://app?vid=ca20ea45-5a00-49af-88ae-1db20fe0c34f"},"vehicle_type_id":"4","last_reported":1732957713,"current_range_meters":9200,"station_id":"ce4bhhh2rcd13ifvqfl0","pricing_plan_id":"cebpf4jnsgd1na2vs0mg"},{"bike_id":"e8fa7be1-2407-41a7-b843-e7c70f1917ef","system_id":"levelo_inurba_marseille","lat":43.27611,"lon":5.36109,"is_reserved":false,"is_disabled":true,"rental_uris":{"android":"levelo://app?vid=e8fa7be1-2407-41a7-b843-e7c70f1917ef","ios":"levelo://app?vid=e8fa7be1-2407-41a7-b843-e7c70f1917ef"},"vehicle_type_id":"4","last_reported":1732957713,"current_range_meters":0,"station_id":"ce4bgj92rcd13ifvqbe0","pricing_plan_id":"cebpf4jnsgd1na2vs0mg"},{"bike_id":"9b3538b0-69eb-44ab-af07-7d5a8e6eacc5","system_id":"levelo_inurba_marseille","lat":43.30538,"lon":5.36526,"is_reserved":false,"is_disabled":false,"rental_uris":{"android":"levelo://app?vid=9b3538b0-69eb-44ab-af07-7d5a8e6eacc5","ios":"levelo://app?vid=9b3538b0-69eb-44ab-af07-7d5a8e6eacc5"},"vehicle_type_id":"4","last_reported":1732957713,"current_range_meters":39200,"station_id":"ce4bgs12rcd13ifvqcag","pricing_plan_id":"cebpf4jnsgd1na2vs0mg"},{"bike_id":"df0dfc86-7540-4a0c-8976-9af5497d0a2c","system_id":"levelo_inurba_marseille","lat":43.3377,"lon":5.37433,"is_reserved":false,"is_disabled":false,"rental_uris":{"android":"levelo://app?vid=df0dfc86-7540-4a0c-8976-9af5497d0a2c","ios":"levelo://app?vid=df0dfc86-7540-4a0c-8976-9af5497d0a2c"},"vehicle_type_id":"4","last_reported":1732957713,"current_range_meters":36800,"station_id":"","pricing_plan_id":"cebpf4jnsgd1na2vs0mg"},{"bike_id":"30bfb1eb-efd4-46e2-8642-db6631abd18a","system_id":"levelo_inurba_marseille","lat":43.3374,"lon":5.37448,"is_reserved":false,"is_disabled":false,"rental_uris":{"android":"levelo://app?vid=30bfb1eb-efd4-46e2-8642-db6631abd18a","ios":"levelo://app?vid=30bfb1eb-efd4-46e2-8642-db6631abd18a"},"vehicle_type_id":"4","last_reported":1732957713,"current_range_meters":39200,"station_id":"","pricing_plan_id":"cebpf4jnsgd1na2vs0mg"},{"bike_id":"23c46824-74d9-49ca-bc66-ab8d28e5d74a","system_id":"levelo_inurba_marseille","lat":43.2511,"lon":5.40324,"is_reserved":false,"is_disabled":false,"rental_uris":{"android":"levelo://app?vid=23c46824-74d9-49ca-bc66-ab8d28e5d74a","ios":"levelo://app?vid=23c46824-74d9-49ca-bc66-ab8d28e5d74a"},"vehicle_type_id":"4","last_reported":1732957713,"current_range_meters":38000,"station_id":"ce4bhlh2rcd13ifvqgig","pricing_plan_id":"cebpf4jnsgd1na2vs0mg"},{"bike_id":"e4d273de-5063-4eee-a2b6-95208d403a93","system_id":"levelo_inurba_marseille","lat":43.29603,"lon":5.38089,"is_reserved":false,"is_disabled":false,"rental_uris":{"android":"levelo://app?vid=e4d273de-5063-4eee-a2b6-95208d403a93","ios":"levelo://app?vid=e4d273de-5063-4eee-a2b6-95208d403a93"},"vehicle_type_id":"4","last_reported":1732957713,"current_range_meters":39200,"station_id":"ce4bgl12rcd13ifvqbo0","pricing_plan_id":"cebpf4jnsgd1na2vs0mg"},{"bike_id":"b64c6095-9d78-4b69-b855-374d2a38d0a7","system_id":"levelo_inurba_marseille","lat":43.27614,"lon":5.36118,"is_reserved":false,"is_disabled":false,"rental_uris":{"android":"levelo://app?vid=b64c6095-9d78-4b69-b855-374d2a38d0a7","ios":"levelo://app?vid=b64c6095-9d78-4b69-b855-374d2a38d0a7"},"vehicle_type_id":"4","last_reported":1732957713,"current_range_meters":39200,"station_id":"ce4bgj92rcd13ifvqbe0","pricing_plan_id":"cebpf4jnsgd1na2vs0mg"},{"bike_id":"7673869c-5eae-412b-abb2-407999f3b948","system_id":"levelo_inurba_marseille","lat":43.27055,"lon":5.4026,"is_reserved":false,"is_disabled":false,"rental_uris":{"android":"levelo://app?vid=7673869c-5eae-412b-abb2-407999f3b948","ios":"levelo://app?vid=7673869c-5eae-412b-abb2-407999f3b948"},"vehicle_type_id":"4","last_reported":1732957713,"current_range_meters":29600,"station_id":"ce4bhk92rcd13ifvqgc0","pricing_plan_id":"cebpf4jnsgd1na2vs0mg"},{"bike_id":"66989d6e-afab-49f3-bec1-e5e5bc6b7fe9","system_id":"levelo_inurba_marseille","lat":43.28265,"lon":5.35054,"is_reserved":false,"is_disabled":true,"rental_uris":{"android":"levelo://app?vid=66989d6e-afab-49f3-bec1-e5e5bc6b7fe9","ios":"levelo://app?vid=66989d6e-afab-49f3-bec1-e5e5bc6b7fe9"},"vehicle_type_id":"4","last_reported":1732957713,"current_range_meters":30400,"station_id":"ce4bhbp2rcd13ifvqerg","pricing_plan_id":"cebpf4jnsgd1na2vs0mg"},{"bike_id":"52c69f8e-0168-4124-8e60-bec2f76dc5c6","system_id":"levelo_inurba_marseille","lat":43.23153,"lon":5.43706,"is_reserved":false,"is_disabled":false,"rental_uris":{"android":"levelo://app?vid=52c69f8e-0168-4124-8e60-bec2f76dc5c6","ios":"levelo://app?vid=52c69f8e-0168-4124-8e60-bec2f76dc5c6"},"vehicle_type_id":"4","last_reported":1732957713,"current_range_meters":16400,"station_id":"ce4bhmp2rcd13ifvqgog","pricing_plan_id":"cebpf4jnsgd1na2vs0mg"},{"bike_id":"3ca8d527-6c31-4160-8bc9-0dbae13780f9","system_id":"levelo_inurba_marseille","lat":43.28451,"lon":5.35882,"is_reserved":false,"is_disabled":false,"rental_uris":{"android":"levelo://app?vid=3ca8d527-6c31-4160-8bc9-0dbae13780f9","ios":"levelo://app?vid=3ca8d527-6c31-4160-8bc9-0dbae13780f9"},"vehicle_type_id":"4","last_reported":1732957713,"current_range_meters":18000,"station_id":"ce4bhah2rcd13ifvqei0","pricing_plan_id":"cebpf4jnsgd1na2vs0mg"},{"bike_id":"c074ca47-64f6-4069-b08a-8151f9f4825b","system_id":"levelo_inurba_marseille","lat":43.28273,"lon":5.35063,"is_reserved":false,"is_disabled":false,"rental_uris":{"android":"levelo://app?vid=c074ca47-64f6-4069-b08a-8151f9f4825b","ios":"levelo://app?vid=c074ca47-64f6-4069-b08a-8151f9f4825b"},"vehicle_type_id":"4","last_reported":1732957713,"current_range_meters":38800,"station_id":"ce4bhbp2rcd13ifvqerg","pricing_plan_id":"cebpf4jnsgd1na2vs0mg"},{"bike_id":"92de0aec-7fd7-4b0f-836a-d45b7677365d","system_id":"levelo_inurba_marseille","lat":43.25005,"lon":5.38933,"is_reserved":false,"is_disabled":false,"rental_uris":{"android":"levelo://app?vid=92de0aec-7fd7-4b0f-836a-d45b7677365d","ios":"levelo://app?vid=92de0aec-7fd7-4b0f-836a-d45b7677365d"},"vehicle_type_id":"4","last_reported":1732957713,"current_range_meters":38800,"station_id":"ce4bhgp2rcd13ifvqfd0","pricing_plan_id":"cebpf4jnsgd1na2vs0mg"},{"bike_id":"3f1e78bd-1172-499d-8bc1-fcc125ef09cd","system_id":"levelo_inurba_marseille","lat":43.28482,"lon":5.38418,"is_reserved":false,"is_disabled":false,"rental_uris":{"android":"levelo://app?vid=3f1e78bd-1172-499d-8bc1-fcc125ef09cd","ios":"levelo://app?vid=3f1e78bd-1172-499d-8bc1-fcc125ef09cd"},"vehicle_type_id":"4","last_reported":1732957713,"current_range_meters":35200,"station_id":"ce4bh512rcd13ifvqe3g","pricing_plan_id":"cebpf4jnsgd1na2vs0mg"},{"bike_id":"c254f6a2-7ff1-4f96-adb7-8a7ee1b965ce","system_id":"levelo_inurba_marseille","lat":43.29615,"lon":5.37724,"is_reserved":false,"is_disabled":false,"rental_uris":{"android":"levelo://app?vid=c254f6a2-7ff1-4f96-adb7-8a7ee1b965ce","ios":"levelo://app?vid=c254f6a2-7ff1-4f96-adb7-8a7ee1b965ce"},"vehicle_type_id":"4","last_reported":1732957713,"current_range_meters":29600,"station_id":"ce4bgi92rcd13ifvqb90","pricing_plan_id":"cebpf4jnsgd1na2vs0mg"},{"bike_id":"e5f0b1d6-ea6c-45f8-99ad-1dd044b17f95","system_id":"levelo_inurba_marseille","lat":43.27179,"lon":5.40991,"is_reserved":false,"is_disabled":false,"rental_uris":{"android":"levelo://app?vid=e5f0b1d6-ea6c-45f8-99ad-1dd044b17f95","ios":"levelo://app?vid=e5f0b1d6-ea6c-45f8-99ad-1dd044b17f95"},"vehicle_type_id":"4","last_reported":1732957713,"current_range_meters":19200,"station_id":"ce4bhl12rcd13ifvqgf0","pricing_plan_id":"cebpf4jnsgd1na2vs0mg"},{"bike_id":"4a2be555-d056-454c-bed3-fe781ba86f8e","system_id":"levelo_inurba_marseille","lat":43.25886,"lon":5.39954,"is_reserved":false,"is_disabled":true,"rental_uris":{"android":"levelo://app?vid=4a2be555-d056-454c-bed3-fe781ba86f8e","ios":"levelo://app?vid=4a2be555-d056-454c-bed3-fe781ba86f8e"},"vehicle_type_id":"4","last_reported":1732957713,"current_range_meters":0,"station_id":"","pricing_plan_id":"cebpf4jnsgd1na2vs0mg"},{"bike_id":"8f22ce9f-b266-4291-a09b-63ff117ff1ad","system_id":"levelo_inurba_marseille","lat":43.32489,"lon":5.36557,"is_reserved":false,"is_disabled":false,"rental_uris":{"android":"levelo://app?vid=8f22ce9f-b266-4291-a09b-63ff117ff1ad","ios":"levelo://app?vid=8f22ce9f-b266-4291-a09b-63ff117ff1ad"},"vehicle_type_id":"4","last_reported":1732957713,"current_range_meters":37600,"station_id":"ce4bhs12rcd13ifvqhvg","pricing_plan_id":"cebpf4jnsgd1na2vs0mg"},{"bike_id":"e7409b42-c149-4b21-bac4-0ccaf55b69e0","system_id":"levelo_inurba_marseille","lat":43.29597,"lon":5.38095,"is_reserved":false,"is_disabled":true,"rental_uris":{"android":"levelo://app?vid=e7409b42-c149-4b21-bac4-0ccaf55b69e0","ios":"levelo://app?vid=e7409b42-c149-4b21-bac4-0ccaf55b69e0"},"vehicle_type_id":"4","last_reported":1732957713,"current_range_meters":30800,"station_id":"ce4bgl12rcd13ifvqbo0","pricing_plan_id":"cebpf4jnsgd1na2vs0mg"},{"bike_id":"c1072d5c-cf03-4cb5-ba48-e2e8ff987a4e","system_id":"levelo_inurba_marseille","lat":43.298,"lon":5.38102,"is_reserved":false,"is_disabled":false,"rental_uris":{"android":"levelo://app?vid=c1072d5c-cf03-4cb5-ba48-e2e8ff987a4e","ios":"levelo://app?vid=c1072d5c-cf03-4cb5-ba48-e2e8ff987a4e"},"vehicle_type_id":"4","last_reported":1732957713,"current_range_meters":33600,"station_id":"ce4bgip2rcd13ifvqbb0","pricing_plan_id":"cebpf4jnsgd1na2vs0mg"},{"bike_id":"6217d58b-6d8f-48fa-84a5-0fb9c799d410","system_id":"levelo_inurba_marseille","lat":43.30531,"lon":5.3655,"is_reserved":false,"is_disabled":false,"rental_uris":{"android":"levelo://app?vid=6217d58b-6d8f-48fa-84a5-0fb9c799d410","ios":"levelo://app?vid=6217d58b-6d8f-48fa-84a5-0fb9c799d410"},"vehicle_type_id":"4","last_reported":1732957713,"current_range_meters":26000,"station_id":"ce4bgs12rcd13ifvqcag","pricing_plan_id":"cebpf4jnsgd1na2vs0mg"},{"bike_id":"24998420-0380-4723-9afc-291d57f3e3d8","system_id":"levelo_inurba_marseille","lat":43.25721,"lon":5.41111,"is_reserved":false,"is_disabled":false,"rental_uris":{"android":"levelo://app?vid=24998420-0380-4723-9afc-291d57f3e3d8","ios":"levelo://app?vid=24998420-0380-4723-9afc-291d57f3e3d8"},"vehicle_type_id":"4","last_reported":1732957713,"current_range_meters":30800,"station_id":"ce4bhkp2rcd13ifvqgd0","pricing_plan_id":"cebpf4jnsgd1na2vs0mg"},{"bike_id":"80ee5806-271f-4b24-a602-2dc27d804313","system_id":"levelo_inurba_marseille","lat":43.32109,"lon":5.367676,"is_reserved":false,"is_disabled":false,"rental_uris":{"android":"levelo://app?vid=80ee5806-271f-4b24-a602-2dc27d804313","ios":"levelo://app?vid=80ee5806-271f-4b24-a602-2dc27d804313"},"vehicle_type_id":"4","last_reported":1732957713,"current_range_meters":10000,"station_id":"ce4bhrh2rcd13ifvqhug","pricing_plan_id":"cebpf4jnsgd1na2vs0mg"},{"bike_id":"a99e441f-fcb3-4edf-8132-a5c34ea369bf","system_id":"levelo_inurba_marseille","lat":43.26938,"lon":5.4024,"is_reserved":false,"is_disabled":false,"rental_uris":{"android":"levelo://app?vid=a99e441f-fcb3-4edf-8132-a5c34ea369bf","ios":"levelo://app?vid=a99e441f-fcb3-4edf-8132-a5c34ea369bf"},"vehicle_type_id":"4","last_reported":1732957713,"current_range_meters":37600,"station_id":"cjm6bp8fraef2m0cb0m0","pricing_plan_id":"cebpf4jnsgd1na2vs0mg"},{"bike_id":"1d70e936-a5c9-4092-b55e-bd5c3d620336","system_id":"levelo_inurba_marseille","lat":43.28102,"lon":5.37827,"is_reserved":false,"is_disabled":false,"rental_uris":{"android":"levelo://app?vid=1d70e936-a5c9-4092-b55e-bd5c3d620336","ios":"levelo://app?vid=1d70e936-a5c9-4092-b55e-bd5c3d620336"},"vehicle_type_id":"4","last_reported":1732957713,"current_range_meters":28800,"station_id":"ce4bha12rcd13ifvqee0","pricing_plan_id":"cebpf4jnsgd1na2vs0mg"},{"bike_id":"8683621a-c3ef-446e-9d91-928b52ff1941","system_id":"levelo_inurba_marseille","lat":43.30083,"lon":5.39074,"is_reserved":false,"is_disabled":false,"rental_uris":{"android":"levelo://app?vid=8683621a-c3ef-446e-9d91-928b52ff1941","ios":"levelo://app?vid=8683621a-c3ef-446e-9d91-928b52ff1941"},"vehicle_type_id":"4","last_reported":1732957713,"current_range_meters":32800,"station_id":"ce4bh192rcd13ifvqdb0","pricing_plan_id":"cebpf4jnsgd1na2vs0mg"},{"bike_id":"981f5323-76ee-4aff-abdb-308b2ece5ca8","system_id":"levelo_inurba_marseille","lat":43.33724,"lon":5.3918,"is_reserved":false,"is_disabled":false,"rental_uris":{"android":"levelo://app?vid=981f5323-76ee-4aff-abdb-308b2ece5ca8","ios":"levelo://app?vid=981f5323-76ee-4aff-abdb-308b2ece5ca8"},"vehicle_type_id":"4","last_reported":1732957713,"current_range_meters":38800,"station_id":"ce4bhr92rcd13ifvqhsg","pricing_plan_id":"cebpf4jnsgd1na2vs0mg"},{"bike_id":"81d9f7be-c3c6-4233-bf11-948e6f22debc","system_id":"levelo_inurba_marseille","lat":43.32364,"lon":5.38878,"is_reserved":false,"is_disabled":false,"rental_uris":{"android":"levelo://app?vid=81d9f7be-c3c6-4233-bf11-948e6f22debc","ios":"levelo://app?vid=81d9f7be-c3c6-4233-bf11-948e6f22debc"},"vehicle_type_id":"4","last_reported":1732957713,"current_range_meters":32000,"station_id":"ce4bhqp2rcd13ifvqhog","pricing_plan_id":"cebpf4jnsgd1na2vs0mg"},{"bike_id":"1eede84d-8533-480b-beca-64379132784d","system_id":"levelo_inurba_marseille","lat":43.33024,"lon":5.39026,"is_reserved":false,"is_disabled":false,"rental_uris":{"android":"levelo://app?vid=1eede84d-8533-480b-beca-64379132784d","ios":"levelo://app?vid=1eede84d-8533-480b-beca-64379132784d"},"vehicle_type_id":"4","last_reported":1732957713,"current_range_meters":38000,"station_id":"ce4bhr92rcd13ifvqhrg","pricing_plan_id":"cebpf4jnsgd1na2vs0mg"},{"bike_id":"33a3c104-4d60-41b4-8031-64c715d65877","system_id":"levelo_inurba_marseille","lat":43.27212,"lon":5.39175,"is_reserved":false,"is_disabled":false,"rental_uris":{"android":"levelo://app?vid=33a3c104-4d60-41b4-8031-64c715d65877","ios":"levelo://app?vid=33a3c104-4d60-41b4-8031-64c715d65877"},"vehicle_type_id":"4","last_reported":1732957713,"current_range_meters":39200,"station_id":"ce4bhhp2rcd13ifvqfm0","pricing_plan_id":"cebpf4jnsgd1na2vs0mg"},{"bike_id":"3f52c543-17cd-47c4-8517-1cad7a11af2c","system_id":"levelo_inurba_marseille","lat":43.2849,"lon":5.38545,"is_reserved":false,"is_disabled":false,"rental_uris":{"android":"levelo://app?vid=3f52c543-17cd-47c4-8517-1cad7a11af2c","ios":"levelo://app?vid=3f52c543-17cd-47c4-8517-1cad7a11af2c"},"vehicle_type_id":"4","last_reported":1732957713,"current_range_meters":21600,"station_id":"ce4bh8p2rcd13ifvqeb0","pricing_plan_id":"cebpf4jnsgd1na2vs0mg"},{"bike_id":"ab1db49f-701c-4711-8b20-531372b5e60f","system_id":"levelo_inurba_marseille","lat":43.32641,"lon":5.37542,"is_reserved":false,"is_disabled":false,"rental_uris":{"android":"levelo://app?vid=ab1db49f-701c-4711-8b20-531372b5e60f","ios":"levelo://app?vid=ab1db49f-701c-4711-8b20-531372b5e60f"},"vehicle_type_id":"4","last_reported":1732957713,"current_range_meters":33600,"station_id":"","pricing_plan_id":"cebpf4jnsgd1na2vs0mg"},{"bike_id":"29a80c71-9648-4a26-b6c9-5f69092eaa01","system_id":"levelo_inurba_marseille","lat":43.2707,"lon":5.42279,"is_reserved":false,"is_disabled":false,"rental_uris":{"android":"levelo://app?vid=29a80c71-9648-4a26-b6c9-5f69092eaa01","ios":"levelo://app?vid=29a80c71-9648-4a26-b6c9-5f69092eaa01"},"vehicle_type_id":"4","last_reported":1732957713,"current_range_meters":39200,"station_id":"ce4bhk92rcd13ifvqgb0","pricing_plan_id":"cebpf4jnsgd1na2vs0mg"},{"bike_id":"92bdd781-a822-4b2f-9e4f-9f02f2636c9d","system_id":"levelo_inurba_marseille","lat":43.27211,"lon":5.39169,"is_reserved":false,"is_disabled":false,"rental_uris":{"android":"levelo://app?vid=92bdd781-a822-4b2f-9e4f-9f02f2636c9d","ios":"levelo://app?vid=92bdd781-a822-4b2f-9e4f-9f02f2636c9d"},"vehicle_type_id":"4","last_reported":1732957713,"current_range_meters":35600,"station_id":"ce4bhhp2rcd13ifvqfm0","pricing_plan_id":"cebpf4jnsgd1na2vs0mg"},{"bike_id":"f881fa43-b9ae-4a00-a03d-424f20a920b7","system_id":"levelo_inurba_marseille","lat":43.30143,"lon":5.38084,"is_reserved":false,"is_disabled":false,"rental_uris":{"android":"levelo://app?vid=f881fa43-b9ae-4a00-a03d-424f20a920b7","ios":"levelo://app?vid=f881fa43-b9ae-4a00-a03d-424f20a920b7"},"vehicle_type_id":"4","last_reported":1732957713,"current_range_meters":10800,"station_id":"ce4bgjp2rcd13ifvqbh0","pricing_plan_id":"cebpf4jnsgd1na2vs0mg"},{"bike_id":"73c872b6-b245-4557-afe2-6504b31215d2","system_id":"levelo_inurba_marseille","lat":43.33764,"lon":5.37431,"is_reserved":false,"is_disabled":false,"rental_uris":{"android":"levelo://app?vid=73c872b6-b245-4557-afe2-6504b31215d2","ios":"levelo://app?vid=73c872b6-b245-4557-afe2-6504b31215d2"},"vehicle_type_id":"4","last_reported":1732957713,"current_range_meters":38000,"station_id":"","pricing_plan_id":"cebpf4jnsgd1na2vs0mg"},{"bike_id":"4a9d6e1f-1828-4869-9bb6-c94fb652e1a9","system_id":"levelo_inurba_marseille","lat":43.22934,"lon":5.35378,"is_reserved":false,"is_disabled":false,"rental_uris":{"android":"levelo://app?vid=4a9d6e1f-1828-4869-9bb6-c94fb652e1a9","ios":"levelo://app?vid=4a9d6e1f-1828-4869-9bb6-c94fb652e1a9"},"vehicle_type_id":"4","last_reported":1732957713,"current_range_meters":39200,"station_id":"cpo3532slgdg3j2ikp40","pricing_plan_id":"cebpf4jnsgd1na2vs0mg"},{"bike_id":"0174841e-8011-4a7b-bd18-480101bee765","system_id":"levelo_inurba_marseille","lat":43.23961,"lon":5.36633,"is_reserved":false,"is_disabled":true,"rental_uris":{"android":"levelo://app?vid=0174841e-8011-4a7b-bd18-480101bee765","ios":"levelo://app?vid=0174841e-8011-4a7b-bd18-480101bee765"},"vehicle_type_id":"4","last_reported":1732957713,"current_range_meters":0,"station_id":"ce4bhi12rcd13ifvqfp0","pricing_plan_id":"cebpf4jnsgd1na2vs0mg"},{"bike_id":"595436af-3776-4ed6-8a65-8bf391051f86","system_id":"levelo_inurba_marseille","lat":43.26209,"lon":5.37438,"is_reserved":false,"is_disabled":false,"rental_uris":{"android":"levelo://app?vid=595436af-3776-4ed6-8a65-8bf391051f86","ios":"levelo://app?vid=595436af-3776-4ed6-8a65-8bf391051f86"},"vehicle_type_id":"4","last_reported":1732957713,"current_range_meters":32800,"station_id":"ce4bhgp2rcd13ifvqfc0","pricing_plan_id":"cebpf4jnsgd1na2vs0mg"},{"bike_id":"fd405db4-6f5b-4763-b335-7a51479a2ea9","system_id":"levelo_inurba_marseille","lat":43.25584,"lon":5.38233,"is_reserved":false,"is_disabled":false,"rental_uris":{"android":"levelo://app?vid=fd405db4-6f5b-4763-b335-7a51479a2ea9","ios":"levelo://app?vid=fd405db4-6f5b-4763-b335-7a51479a2ea9"},"vehicle_type_id":"4","last_reported":1732957713,"current_range_meters":39200,"station_id":"ce4bhih2rcd13ifvqfs0","pricing_plan_id":"cebpf4jnsgd1na2vs0mg"},{"bike_id":"66da7669-c9ed-49f5-a206-2d6cb6794e3d","system_id":"levelo_inurba_marseille","lat":43.31114,"lon":5.3776,"is_reserved":false,"is_disabled":false,"rental_uris":{"android":"levelo://app?vid=66da7669-c9ed-49f5-a206-2d6cb6794e3d","ios":"levelo://app?vid=66da7669-c9ed-49f5-a206-2d6cb6794e3d"},"vehicle_type_id":"4","last_reported":1732957713,"current_range_meters":28400,"station_id":"ce4bgt92rcd13ifvqcg0","pricing_plan_id":"cebpf4jnsgd1na2vs0mg"},{"bike_id":"52c5ec48-d9d2-4224-8f63-3b7560e41bcc","system_id":"levelo_inurba_marseille","lat":43.24176,"lon":5.39735,"is_reserved":false,"is_disabled":false,"rental_uris":{"android":"levelo://app?vid=52c5ec48-d9d2-4224-8f63-3b7560e41bcc","ios":"levelo://app?vid=52c5ec48-d9d2-4224-8f63-3b7560e41bcc"},"vehicle_type_id":"4","last_reported":1732957713,"current_range_meters":40000,"station_id":"ce4bhn12rcd13ifvqgpg","pricing_plan_id":"cebpf4jnsgd1na2vs0mg"},{"bike_id":"a233b25b-869e-422b-bf5e-63d3d8ff686f","system_id":"levelo_inurba_marseille","lat":43.30927,"lon":5.4014,"is_reserved":false,"is_disabled":true,"rental_uris":{"android":"levelo://app?vid=a233b25b-869e-422b-bf5e-63d3d8ff686f","ios":"levelo://app?vid=a233b25b-869e-422b-bf5e-63d3d8ff686f"},"vehicle_type_id":"4","last_reported":1732957713,"current_range_meters":25200,"station_id":"ce4bgvp2rcd13ifvqct0","pricing_plan_id":"cebpf4jnsgd1na2vs0mg"},{"bike_id":"520aba63-a219-4417-8ec2-629ac6caed79","system_id":"levelo_inurba_marseille","lat":43.28727,"lon":5.36084,"is_reserved":false,"is_disabled":false,"rental_uris":{"android":"levelo://app?vid=520aba63-a219-4417-8ec2-629ac6caed79","ios":"levelo://app?vid=520aba63-a219-4417-8ec2-629ac6caed79"},"vehicle_type_id":"4","last_reported":1732957713,"current_range_meters":39200,"station_id":"cki0cbj6b192h4jlfktg","pricing_plan_id":"cebpf4jnsgd1na2vs0mg"},{"bike_id":"759518f4-9f32-4b72-97fe-df61c6c7bd05","system_id":"levelo_inurba_marseille","lat":43.31275,"lon":5.40164,"is_reserved":false,"is_disabled":true,"rental_uris":{"android":"levelo://app?vid=759518f4-9f32-4b72-97fe-df61c6c7bd05","ios":"levelo://app?vid=759518f4-9f32-4b72-97fe-df61c6c7bd05"},"vehicle_type_id":"4","last_reported":1732957713,"current_range_meters":3600,"station_id":"ce4bh092rcd13ifvqd30","pricing_plan_id":"cebpf4jnsgd1na2vs0mg"},{"bike_id":"feab9145-18ce-4613-8d95-c6e5be3b3980","system_id":"levelo_inurba_marseille","lat":43.30951,"lon":5.39024,"is_reserved":false,"is_disabled":false,"rental_uris":{"android":"levelo://app?vid=feab9145-18ce-4613-8d95-c6e5be3b3980","ios":"levelo://app?vid=feab9145-18ce-4613-8d95-c6e5be3b3980"},"vehicle_type_id":"4","last_reported":1732957713,"current_range_meters":30400,"station_id":"ce4bgup2rcd13ifvqco0","pricing_plan_id":"cebpf4jnsgd1na2vs0mg"},{"bike_id":"6e914fb7-e6d2-4357-b161-70e1de222ef2","system_id":"levelo_inurba_marseille","lat":43.25728,"lon":5.41109,"is_reserved":false,"is_disabled":false,"rental_uris":{"android":"levelo://app?vid=6e914fb7-e6d2-4357-b161-70e1de222ef2","ios":"levelo://app?vid=6e914fb7-e6d2-4357-b161-70e1de222ef2"},"vehicle_type_id":"4","last_reported":1732957713,"current_range_meters":38000,"station_id":"ce4bhkp2rcd13ifvqgd0","pricing_plan_id":"cebpf4jnsgd1na2vs0mg"},{"bike_id":"1b3b427b-40ff-4765-af70-a947ea74cceb","system_id":"levelo_inurba_marseille","lat":43.27206,"lon":5.39183,"is_reserved":false,"is_disabled":false,"rental_uris":{"android":"levelo://app?vid=1b3b427b-40ff-4765-af70-a947ea74cceb","ios":"levelo://app?vid=1b3b427b-40ff-4765-af70-a947ea74cceb"},"vehicle_type_id":"4","last_reported":1732957713,"current_range_meters":34000,"station_id":"ce4bhhp2rcd13ifvqfm0","pricing_plan_id":"cebpf4jnsgd1na2vs0mg"},{"bike_id":"ac2a4554-ffe0-4e28-9df7-abf3737df124","system_id":"levelo_inurba_marseille","lat":43.24653,"lon":5.38895,"is_reserved":false,"is_disabled":false,"rental_uris":{"android":"levelo://app?vid=ac2a4554-ffe0-4e28-9df7-abf3737df124","ios":"levelo://app?vid=ac2a4554-ffe0-4e28-9df7-abf3737df124"},"vehicle_type_id":"4","last_reported":1732957713,"current_range_meters":38800,"station_id":"ce4bhg12rcd13ifvqf60","pricing_plan_id":"cebpf4jnsgd1na2vs0mg"},{"bike_id":"619527db-d955-4500-890a-be5a78967425","system_id":"levelo_inurba_marseille","lat":43.23964,"lon":5.36629,"is_reserved":false,"is_disabled":false,"rental_uris":{"android":"levelo://app?vid=619527db-d955-4500-890a-be5a78967425","ios":"levelo://app?vid=619527db-d955-4500-890a-be5a78967425"},"vehicle_type_id":"4","last_reported":1732957713,"current_range_meters":38800,"station_id":"ce4bhi12rcd13ifvqfp0","pricing_plan_id":"cebpf4jnsgd1na2vs0mg"},{"bike_id":"18134642-fdfa-4ec9-9cb2-4bdc7fe4f31c","system_id":"levelo_inurba_marseille","lat":43.28466,"lon":5.38421,"is_reserved":false,"is_disabled":false,"rental_uris":{"android":"levelo://app?vid=18134642-fdfa-4ec9-9cb2-4bdc7fe4f31c","ios":"levelo://app?vid=18134642-fdfa-4ec9-9cb2-4bdc7fe4f31c"},"vehicle_type_id":"4","last_reported":1732957713,"current_range_meters":38000,"station_id":"ce4bh512rcd13ifvqe3g","pricing_plan_id":"cebpf4jnsgd1na2vs0mg"},{"bike_id":"c2d172e1-98e6-4a29-80b6-476b9c5f1669","system_id":"levelo_inurba_marseille","lat":43.27611,"lon":5.36143,"is_reserved":false,"is_disabled":false,"rental_uris":{"android":"levelo://app?vid=c2d172e1-98e6-4a29-80b6-476b9c5f1669","ios":"levelo://app?vid=c2d172e1-98e6-4a29-80b6-476b9c5f1669"},"vehicle_type_id":"4","last_reported":1732957713,"current_range_meters":38800,"station_id":"ce4bgj92rcd13ifvqbe0","pricing_plan_id":"cebpf4jnsgd1na2vs0mg"},{"bike_id":"01dd4a61-2932-478c-bb90-a182878898af","system_id":"levelo_inurba_marseille","lat":43.31533,"lon":5.38021,"is_reserved":false,"is_disabled":false,"rental_uris":{"android":"levelo://app?vid=01dd4a61-2932-478c-bb90-a182878898af","ios":"levelo://app?vid=01dd4a61-2932-478c-bb90-a182878898af"},"vehicle_type_id":"4","last_reported":1732957713,"current_range_meters":39200,"station_id":"ce4bhsp2rcd13ifvqi50","pricing_plan_id":"cebpf4jnsgd1na2vs0mg"},{"bike_id":"62de3223-e4ff-4977-a3dc-7f3ac2d85836","system_id":"levelo_inurba_marseille","lat":43.26954,"lon":5.38632,"is_reserved":false,"is_disabled":false,"rental_uris":{"android":"levelo://app?vid=62de3223-e4ff-4977-a3dc-7f3ac2d85836","ios":"levelo://app?vid=62de3223-e4ff-4977-a3dc-7f3ac2d85836"},"vehicle_type_id":"4","last_reported":1732957713,"current_range_meters":40000,"station_id":"ce4bhh92rcd13ifvqfh0","pricing_plan_id":"cebpf4jnsgd1na2vs0mg"},{"bike_id":"2760375e-1e89-4491-ae40-d2bcda8fa25b","system_id":"levelo_inurba_marseille","lat":43.27369,"lon":5.36257,"is_reserved":false,"is_disabled":false,"rental_uris":{"android":"levelo://app?vid=2760375e-1e89-4491-ae40-d2bcda8fa25b","ios":"levelo://app?vid=2760375e-1e89-4491-ae40-d2bcda8fa25b"},"vehicle_type_id":"4","last_reported":1732957713,"current_range_meters":24800,"station_id":"ce4bhbh2rcd13ifvqeo0","pricing_plan_id":"cebpf4jnsgd1na2vs0mg"},{"bike_id":"c872430b-cdb2-4c01-90a7-0a81173bfaa1","system_id":"levelo_inurba_marseille","lat":43.27993,"lon":5.41655,"is_reserved":false,"is_disabled":false,"rental_uris":{"android":"levelo://app?vid=c872430b-cdb2-4c01-90a7-0a81173bfaa1","ios":"levelo://app?vid=c872430b-cdb2-4c01-90a7-0a81173bfaa1"},"vehicle_type_id":"4","last_reported":1732957713,"current_range_meters":38800,"station_id":"ce4bho12rcd13ifvqh1g","pricing_plan_id":"cebpf4jnsgd1na2vs0mg"},{"bike_id":"23a1127e-cb22-4ed4-9e04-bd48f9f2b789","system_id":"levelo_inurba_marseille","lat":43.29838,"lon":5.36266,"is_reserved":false,"is_disabled":false,"rental_uris":{"android":"levelo://app?vid=23a1127e-cb22-4ed4-9e04-bd48f9f2b789","ios":"levelo://app?vid=23a1127e-cb22-4ed4-9e04-bd48f9f2b789"},"vehicle_type_id":"4","last_reported":1732957713,"current_range_meters":38800,"station_id":"ce4bgpp2rcd13ifvqc3g","pricing_plan_id":"cebpf4jnsgd1na2vs0mg"},{"bike_id":"5e26e009-6985-46ee-9ed1-507de1619990","system_id":"levelo_inurba_marseille","lat":43.29892,"lon":5.43668,"is_reserved":false,"is_disabled":false,"rental_uris":{"android":"levelo://app?vid=5e26e009-6985-46ee-9ed1-507de1619990","ios":"levelo://app?vid=5e26e009-6985-46ee-9ed1-507de1619990"},"vehicle_type_id":"4","last_reported":1732957713,"current_range_meters":19200,"station_id":"ce4bhpp2rcd13ifvqhfg","pricing_plan_id":"cebpf4jnsgd1na2vs0mg"},{"bike_id":"06448cf4-5db2-4556-ae15-36018f41ecec","system_id":"levelo_inurba_marseille","lat":43.3374,"lon":5.37445,"is_reserved":false,"is_disabled":false,"rental_uris":{"android":"levelo://app?vid=06448cf4-5db2-4556-ae15-36018f41ecec","ios":"levelo://app?vid=06448cf4-5db2-4556-ae15-36018f41ecec"},"vehicle_type_id":"4","last_reported":1732957713,"current_range_meters":38800,"station_id":"","pricing_plan_id":"cebpf4jnsgd1na2vs0mg"},{"bike_id":"2839c06e-dfc6-4bb4-92dd-cd78c43581f0","system_id":"levelo_inurba_marseille","lat":43.23195,"lon":5.35545,"is_reserved":false,"is_disabled":false,"rental_uris":{"android":"levelo://app?vid=2839c06e-dfc6-4bb4-92dd-cd78c43581f0","ios":"levelo://app?vid=2839c06e-dfc6-4bb4-92dd-cd78c43581f0"},"vehicle_type_id":"4","last_reported":1732957713,"current_range_meters":15200,"station_id":"ce4bhu92rcd13ifvqi70","pricing_plan_id":"cebpf4jnsgd1na2vs0mg"},{"bike_id":"b65e2ee9-f5ce-49bc-8dea-f18fe08be424","system_id":"levelo_inurba_marseille","lat":43.29305,"lon":5.37187,"is_reserved":false,"is_disabled":true,"rental_uris":{"android":"levelo://app?vid=b65e2ee9-f5ce-49bc-8dea-f18fe08be424","ios":"levelo://app?vid=b65e2ee9-f5ce-49bc-8dea-f18fe08be424"},"vehicle_type_id":"4","last_reported":1732957713,"current_range_meters":1200,"station_id":"ce4bgh92rcd13ifvqb40","pricing_plan_id":"cebpf4jnsgd1na2vs0mg"},{"bike_id":"ceefb5ed-6cd8-435f-b945-45a4a23b41ef","system_id":"levelo_inurba_marseille","lat":43.30545,"lon":5.36551,"is_reserved":false,"is_disabled":false,"rental_uris":{"android":"levelo://app?vid=ceefb5ed-6cd8-435f-b945-45a4a23b41ef","ios":"levelo://app?vid=ceefb5ed-6cd8-435f-b945-45a4a23b41ef"},"vehicle_type_id":"4","last_reported":1732957713,"current_range_meters":31200,"station_id":"ce4bgs12rcd13ifvqcag","pricing_plan_id":"cebpf4jnsgd1na2vs0mg"},{"bike_id":"3270cd68-c476-4987-8219-472eddb1096a","system_id":"levelo_inurba_marseille","lat":43.30542,"lon":5.36539,"is_reserved":false,"is_disabled":false,"rental_uris":{"android":"levelo://app?vid=3270cd68-c476-4987-8219-472eddb1096a","ios":"levelo://app?vid=3270cd68-c476-4987-8219-472eddb1096a"},"vehicle_type_id":"4","last_reported":1732957713,"current_range_meters":38000,"station_id":"ce4bgs12rcd13ifvqcag","pricing_plan_id":"cebpf4jnsgd1na2vs0mg"},{"bike_id":"fe1c6c60-0f4f-4b5c-a7ea-9f2ff8347245","system_id":"levelo_inurba_marseille","lat":43.27624,"lon":5.36103,"is_reserved":false,"is_disabled":false,"rental_uris":{"android":"levelo://app?vid=fe1c6c60-0f4f-4b5c-a7ea-9f2ff8347245","ios":"levelo://app?vid=fe1c6c60-0f4f-4b5c-a7ea-9f2ff8347245"},"vehicle_type_id":"4","last_reported":1732957713,"current_range_meters":38000,"station_id":"ce4bgj92rcd13ifvqbe0","pricing_plan_id":"cebpf4jnsgd1na2vs0mg"},{"bike_id":"4abebe2b-dec7-442c-a6a0-da33deb742de","system_id":"levelo_inurba_marseille","lat":43.321094,"lon":5.367979,"is_reserved":false,"is_disabled":false,"rental_uris":{"android":"levelo://app?vid=4abebe2b-dec7-442c-a6a0-da33deb742de","ios":"levelo://app?vid=4abebe2b-dec7-442c-a6a0-da33deb742de"},"vehicle_type_id":"4","last_reported":1732957713,"current_range_meters":38000,"station_id":"ce4bhrh2rcd13ifvqhug","pricing_plan_id":"cebpf4jnsgd1na2vs0mg"},{"bike_id":"e8761c76-5abe-46ec-a02e-5c1eaaf3ecfa","system_id":"levelo_inurba_marseille","lat":43.24166,"lon":5.36395,"is_reserved":false,"is_disabled":false,"rental_uris":{"android":"levelo://app?vid=e8761c76-5abe-46ec-a02e-5c1eaaf3ecfa","ios":"levelo://app?vid=e8761c76-5abe-46ec-a02e-5c1eaaf3ecfa"},"vehicle_type_id":"4","last_reported":1732957713,"current_range_meters":30800,"station_id":"cpo36qri1sfpv3e86is0","pricing_plan_id":"cebpf4jnsgd1na2vs0mg"},{"bike_id":"a15e5b0c-1062-4c95-b3f3-c7605c2d7032","system_id":"levelo_inurba_marseille","lat":43.3011,"lon":5.39072,"is_reserved":false,"is_disabled":false,"rental_uris":{"android":"levelo://app?vid=a15e5b0c-1062-4c95-b3f3-c7605c2d7032","ios":"levelo://app?vid=a15e5b0c-1062-4c95-b3f3-c7605c2d7032"},"vehicle_type_id":"4","last_reported":1732957713,"current_range_meters":27600,"station_id":"ce4bh192rcd13ifvqdb0","pricing_plan_id":"cebpf4jnsgd1na2vs0mg"},{"bike_id":"0f17f004-1308-4dc1-baa4-8e9fe8d97b2d","system_id":"levelo_inurba_marseille","lat":43.25702,"lon":5.4111,"is_reserved":false,"is_disabled":false,"rental_uris":{"android":"levelo://app?vid=0f17f004-1308-4dc1-baa4-8e9fe8d97b2d","ios":"levelo://app?vid=0f17f004-1308-4dc1-baa4-8e9fe8d97b2d"},"vehicle_type_id":"4","last_reported":1732957713,"current_range_meters":24800,"station_id":"ce4bhkp2rcd13ifvqgd0","pricing_plan_id":"cebpf4jnsgd1na2vs0mg"},{"bike_id":"14ba7567-37af-438f-8168-b78ce80bddcf","system_id":"levelo_inurba_marseille","lat":43.2721,"lon":5.39183,"is_reserved":false,"is_disabled":false,"rental_uris":{"android":"levelo://app?vid=14ba7567-37af-438f-8168-b78ce80bddcf","ios":"levelo://app?vid=14ba7567-37af-438f-8168-b78ce80bddcf"},"vehicle_type_id":"4","last_reported":1732957713,"current_range_meters":37600,"station_id":"ce4bhhp2rcd13ifvqfm0","pricing_plan_id":"cebpf4jnsgd1na2vs0mg"},{"bike_id":"26ccb16a-38f8-4143-9d2e-c2d9c459cdb2","system_id":"levelo_inurba_marseille","lat":43.27315,"lon":5.39095,"is_reserved":false,"is_disabled":false,"rental_uris":{"android":"levelo://app?vid=26ccb16a-38f8-4143-9d2e-c2d9c459cdb2","ios":"levelo://app?vid=26ccb16a-38f8-4143-9d2e-c2d9c459cdb2"},"vehicle_type_id":"4","last_reported":1732957713,"current_range_meters":40000,"station_id":"ce4bhgp2rcd13ifvqfe0","pricing_plan_id":"cebpf4jnsgd1na2vs0mg"},{"bike_id":"279f6af7-199e-4b2a-9a52-9993c965eb6b","system_id":"levelo_inurba_marseille","lat":43.29787,"lon":5.371,"is_reserved":false,"is_disabled":false,"rental_uris":{"android":"levelo://app?vid=279f6af7-199e-4b2a-9a52-9993c965eb6b","ios":"levelo://app?vid=279f6af7-199e-4b2a-9a52-9993c965eb6b"},"vehicle_type_id":"4","last_reported":1732957713,"current_range_meters":38000,"station_id":"ce4bgop2rcd13ifvqc1g","pricing_plan_id":"cebpf4jnsgd1na2vs0mg"},{"bike_id":"05c10e94-69af-49ba-b076-39450f2446a5","system_id":"levelo_inurba_marseille","lat":43.29555,"lon":5.42286,"is_reserved":false,"is_disabled":false,"rental_uris":{"android":"levelo://app?vid=05c10e94-69af-49ba-b076-39450f2446a5","ios":"levelo://app?vid=05c10e94-69af-49ba-b076-39450f2446a5"},"vehicle_type_id":"4","last_reported":1732957713,"current_range_meters":5600,"station_id":"ce4bhph2rcd13ifvqhdg","pricing_plan_id":"cebpf4jnsgd1na2vs0mg"},{"bike_id":"50083385-87a7-4059-b9fe-3253996030c6","system_id":"levelo_inurba_marseille","lat":43.29602,"lon":5.37709,"is_reserved":false,"is_disabled":false,"rental_uris":{"android":"levelo://app?vid=50083385-87a7-4059-b9fe-3253996030c6","ios":"levelo://app?vid=50083385-87a7-4059-b9fe-3253996030c6"},"vehicle_type_id":"4","last_reported":1732957713,"current_range_meters":39200,"station_id":"ce4bgi92rcd13ifvqb90","pricing_plan_id":"cebpf4jnsgd1na2vs0mg"},{"bike_id":"9dd1fc98-a89e-437a-b707-6eb8b3c899e8","system_id":"levelo_inurba_marseille","lat":43.290407,"lon":5.359195,"is_reserved":false,"is_disabled":true,"rental_uris":{"android":"levelo://app?vid=9dd1fc98-a89e-437a-b707-6eb8b3c899e8","ios":"levelo://app?vid=9dd1fc98-a89e-437a-b707-6eb8b3c899e8"},"vehicle_type_id":"4","last_reported":1732957713,"current_range_meters":1200,"station_id":"ce4bha92rcd13ifvqeg0","pricing_plan_id":"cebpf4jnsgd1na2vs0mg"},{"bike_id":"d7d12744-0657-4bbb-9ec3-a019aeeb53f1","system_id":"levelo_inurba_marseille","lat":43.27496,"lon":5.42448,"is_reserved":false,"is_disabled":false,"rental_uris":{"android":"levelo://app?vid=d7d12744-0657-4bbb-9ec3-a019aeeb53f1","ios":"levelo://app?vid=d7d12744-0657-4bbb-9ec3-a019aeeb53f1"},"vehicle_type_id":"4","last_reported":1732957713,"current_range_meters":12000,"station_id":"ce4bhn92rcd13ifvqgrg","pricing_plan_id":"cebpf4jnsgd1na2vs0mg"},{"bike_id":"1b751b96-b525-44d3-b2a2-b74407b81de6","system_id":"levelo_inurba_marseille","lat":43.28002,"lon":5.40016,"is_reserved":false,"is_disabled":false,"rental_uris":{"android":"levelo://app?vid=1b751b96-b525-44d3-b2a2-b74407b81de6","ios":"levelo://app?vid=1b751b96-b525-44d3-b2a2-b74407b81de6"},"vehicle_type_id":"4","last_reported":1732957713,"current_range_meters":39200,"station_id":"ce4bho92rcd13ifvqh4g","pricing_plan_id":"cebpf4jnsgd1na2vs0mg"},{"bike_id":"a1da46ac-0823-493f-ac56-218330798636","system_id":"levelo_inurba_marseille","lat":43.2439,"lon":5.3706,"is_reserved":false,"is_disabled":false,"rental_uris":{"android":"levelo://app?vid=a1da46ac-0823-493f-ac56-218330798636","ios":"levelo://app?vid=a1da46ac-0823-493f-ac56-218330798636"},"vehicle_type_id":"4","last_reported":1732957713,"current_range_meters":40000,"station_id":"ce4bhhh2rcd13ifvqfk0","pricing_plan_id":"cebpf4jnsgd1na2vs0mg"},{"bike_id":"254753b2-3c2c-47b1-81d9-93da2afc0d6a","system_id":"levelo_inurba_marseille","lat":43.27321,"lon":5.39093,"is_reserved":false,"is_disabled":false,"rental_uris":{"android":"levelo://app?vid=254753b2-3c2c-47b1-81d9-93da2afc0d6a","ios":"levelo://app?vid=254753b2-3c2c-47b1-81d9-93da2afc0d6a"},"vehicle_type_id":"4","last_reported":1732957713,"current_range_meters":39200,"station_id":"ce4bhgp2rcd13ifvqfe0","pricing_plan_id":"cebpf4jnsgd1na2vs0mg"},{"bike_id":"a5909545-3e09-4859-9fda-9ffe4e6e4883","system_id":"levelo_inurba_marseille","lat":43.23066,"lon":5.35492,"is_reserved":false,"is_disabled":false,"rental_uris":{"android":"levelo://app?vid=a5909545-3e09-4859-9fda-9ffe4e6e4883","ios":"levelo://app?vid=a5909545-3e09-4859-9fda-9ffe4e6e4883"},"vehicle_type_id":"4","last_reported":1732957713,"current_range_meters":12400,"station_id":"cpo3342slgdg3j2ifvpg","pricing_plan_id":"cebpf4jnsgd1na2vs0mg"},{"bike_id":"48b0b1a0-537e-4ddb-800a-5602780d5df3","system_id":"levelo_inurba_marseille","lat":43.30951,"lon":5.39036,"is_reserved":false,"is_disabled":false,"rental_uris":{"android":"levelo://app?vid=48b0b1a0-537e-4ddb-800a-5602780d5df3","ios":"levelo://app?vid=48b0b1a0-537e-4ddb-800a-5602780d5df3"},"vehicle_type_id":"4","last_reported":1732957713,"current_range_meters":36400,"station_id":"ce4bgup2rcd13ifvqco0","pricing_plan_id":"cebpf4jnsgd1na2vs0mg"},{"bike_id":"a99c4b50-ed6f-4692-809b-22df41f741dc","system_id":"levelo_inurba_marseille","lat":43.28256,"lon":5.35056,"is_reserved":false,"is_disabled":false,"rental_uris":{"android":"levelo://app?vid=a99c4b50-ed6f-4692-809b-22df41f741dc","ios":"levelo://app?vid=a99c4b50-ed6f-4692-809b-22df41f741dc"},"vehicle_type_id":"4","last_reported":1732957713,"current_range_meters":15200,"station_id":"ce4bhbp2rcd13ifvqerg","pricing_plan_id":"cebpf4jnsgd1na2vs0mg"},{"bike_id":"8a706c0a-83d1-44fa-9127-38cdaec2557e","system_id":"levelo_inurba_marseille","lat":43.31325,"lon":5.39701,"is_reserved":false,"is_disabled":false,"rental_uris":{"android":"levelo://app?vid=8a706c0a-83d1-44fa-9127-38cdaec2557e","ios":"levelo://app?vid=8a706c0a-83d1-44fa-9127-38cdaec2557e"},"vehicle_type_id":"4","last_reported":1732957713,"current_range_meters":39200,"station_id":"ce4bgvp2rcd13ifvqcu0","pricing_plan_id":"cebpf4jnsgd1na2vs0mg"},{"bike_id":"78716590-acd8-4375-8266-67d9a41d59a7","system_id":"levelo_inurba_marseille","lat":43.32387,"lon":5.38913,"is_reserved":false,"is_disabled":false,"rental_uris":{"android":"levelo://app?vid=78716590-acd8-4375-8266-67d9a41d59a7","ios":"levelo://app?vid=78716590-acd8-4375-8266-67d9a41d59a7"},"vehicle_type_id":"4","last_reported":1732957713,"current_range_meters":31200,"station_id":"ce4bhqp2rcd13ifvqhog","pricing_plan_id":"cebpf4jnsgd1na2vs0mg"},{"bike_id":"fabbdb44-ac21-4ce9-8ed0-0dc7ba9aad1a","system_id":"levelo_inurba_marseille","lat":43.27493,"lon":5.42451,"is_reserved":false,"is_disabled":false,"rental_uris":{"android":"levelo://app?vid=fabbdb44-ac21-4ce9-8ed0-0dc7ba9aad1a","ios":"levelo://app?vid=fabbdb44-ac21-4ce9-8ed0-0dc7ba9aad1a"},"vehicle_type_id":"4","last_reported":1732957713,"current_range_meters":30800,"station_id":"ce4bhn92rcd13ifvqgrg","pricing_plan_id":"cebpf4jnsgd1na2vs0mg"},{"bike_id":"7d915583-b887-4aeb-8816-82444c1b5b57","system_id":"levelo_inurba_marseille","lat":43.27987,"lon":5.41665,"is_reserved":false,"is_disabled":false,"rental_uris":{"android":"levelo://app?vid=7d915583-b887-4aeb-8816-82444c1b5b57","ios":"levelo://app?vid=7d915583-b887-4aeb-8816-82444c1b5b57"},"vehicle_type_id":"4","last_reported":1732957713,"current_range_meters":23200,"station_id":"ce4bho12rcd13ifvqh1g","pricing_plan_id":"cebpf4jnsgd1na2vs0mg"},{"bike_id":"645c606c-68ed-422b-af50-4155f76d4c2c","system_id":"levelo_inurba_marseille","lat":43.3015,"lon":5.38077,"is_reserved":false,"is_disabled":false,"rental_uris":{"android":"levelo://app?vid=645c606c-68ed-422b-af50-4155f76d4c2c","ios":"levelo://app?vid=645c606c-68ed-422b-af50-4155f76d4c2c"},"vehicle_type_id":"4","last_reported":1732957713,"current_range_meters":23200,"station_id":"ce4bgjp2rcd13ifvqbh0","pricing_plan_id":"cebpf4jnsgd1na2vs0mg"},{"bike_id":"e5951ee3-4a5a-4ebb-b469-096c5188dfa3","system_id":"levelo_inurba_marseille","lat":43.23179,"lon":5.35542,"is_reserved":false,"is_disabled":false,"rental_uris":{"android":"levelo://app?vid=e5951ee3-4a5a-4ebb-b469-096c5188dfa3","ios":"levelo://app?vid=e5951ee3-4a5a-4ebb-b469-096c5188dfa3"},"vehicle_type_id":"4","last_reported":1732957713,"current_range_meters":20000,"station_id":"ce4bhu92rcd13ifvqi70","pricing_plan_id":"cebpf4jnsgd1na2vs0mg"},{"bike_id":"f9a63393-5401-4f98-ae5a-dfbb8291ab6d","system_id":"levelo_inurba_marseille","lat":43.3004,"lon":5.37551,"is_reserved":false,"is_disabled":true,"rental_uris":{"android":"levelo://app?vid=f9a63393-5401-4f98-ae5a-dfbb8291ab6d","ios":"levelo://app?vid=f9a63393-5401-4f98-ae5a-dfbb8291ab6d"},"vehicle_type_id":"4","last_reported":1732957713,"current_range_meters":0,"station_id":"","pricing_plan_id":"cebpf4jnsgd1na2vs0mg"},{"bike_id":"d2300a67-e59d-4c6d-84e8-89c1777cddcc","system_id":"levelo_inurba_marseille","lat":43.31993,"lon":5.38149,"is_reserved":false,"is_disabled":false,"rental_uris":{"android":"levelo://app?vid=d2300a67-e59d-4c6d-84e8-89c1777cddcc","ios":"levelo://app?vid=d2300a67-e59d-4c6d-84e8-89c1777cddcc"},"vehicle_type_id":"4","last_reported":1732957713,"current_range_meters":39200,"station_id":"ce4bhr12rcd13ifvqhpg","pricing_plan_id":"cebpf4jnsgd1na2vs0mg"},{"bike_id":"3ce2fffb-4d51-444b-8bb2-5cd62ad86f77","system_id":"levelo_inurba_marseille","lat":43.31286,"lon":5.40182,"is_reserved":false,"is_disabled":false,"rental_uris":{"android":"levelo://app?vid=3ce2fffb-4d51-444b-8bb2-5cd62ad86f77","ios":"levelo://app?vid=3ce2fffb-4d51-444b-8bb2-5cd62ad86f77"},"vehicle_type_id":"4","last_reported":1732957713,"current_range_meters":38400,"station_id":"ce4bh092rcd13ifvqd30","pricing_plan_id":"cebpf4jnsgd1na2vs0mg"},{"bike_id":"aacfb94e-cf9a-4099-ab69-41176bf99d01","system_id":"levelo_inurba_marseille","lat":43.24671,"lon":5.38161,"is_reserved":false,"is_disabled":false,"rental_uris":{"android":"levelo://app?vid=aacfb94e-cf9a-4099-ab69-41176bf99d01","ios":"levelo://app?vid=aacfb94e-cf9a-4099-ab69-41176bf99d01"},"vehicle_type_id":"4","last_reported":1732957713,"current_range_meters":20000,"station_id":"ce4bhih2rcd13ifvqfr0","pricing_plan_id":"cebpf4jnsgd1na2vs0mg"},{"bike_id":"5ab87102-19d3-4ee9-804a-df45b252673a","system_id":"levelo_inurba_marseille","lat":43.3027,"lon":5.3772,"is_reserved":false,"is_disabled":false,"rental_uris":{"android":"levelo://app?vid=5ab87102-19d3-4ee9-804a-df45b252673a","ios":"levelo://app?vid=5ab87102-19d3-4ee9-804a-df45b252673a"},"vehicle_type_id":"4","last_reported":1732957713,"current_range_meters":22400,"station_id":"ce4bguh2rcd13ifvqcj0","pricing_plan_id":"cebpf4jnsgd1na2vs0mg"},{"bike_id":"209edce5-94bd-42b7-894c-233f806592a5","system_id":"levelo_inurba_marseille","lat":43.32357,"lon":5.36756,"is_reserved":false,"is_disabled":false,"rental_uris":{"android":"levelo://app?vid=209edce5-94bd-42b7-894c-233f806592a5","ios":"levelo://app?vid=209edce5-94bd-42b7-894c-233f806592a5"},"vehicle_type_id":"4","last_reported":1732957713,"current_range_meters":28800,"station_id":"ce4bhsh2rcd13ifvqi2g","pricing_plan_id":"cebpf4jnsgd1na2vs0mg"},{"bike_id":"e62ebbbc-8f67-42b0-94da-0372a0dcfd95","system_id":"levelo_inurba_marseille","lat":43.31708,"lon":5.37733,"is_reserved":false,"is_disabled":false,"rental_uris":{"android":"levelo://app?vid=e62ebbbc-8f67-42b0-94da-0372a0dcfd95","ios":"levelo://app?vid=e62ebbbc-8f67-42b0-94da-0372a0dcfd95"},"vehicle_type_id":"4","last_reported":1732957713,"current_range_meters":40000,"station_id":"ce4bgth2rcd13ifvqch0","pricing_plan_id":"cebpf4jnsgd1na2vs0mg"},{"bike_id":"ca671336-3c2c-4fe2-bd8e-7dcbd7736b5e","system_id":"levelo_inurba_marseille","lat":43.323334,"lon":5.406247,"is_reserved":false,"is_disabled":false,"rental_uris":{"android":"levelo://app?vid=ca671336-3c2c-4fe2-bd8e-7dcbd7736b5e","ios":"levelo://app?vid=ca671336-3c2c-4fe2-bd8e-7dcbd7736b5e"},"vehicle_type_id":"4","last_reported":1732957713,"current_range_meters":25600,"station_id":"ce4bhq92rcd13ifvqhjg","pricing_plan_id":"cebpf4jnsgd1na2vs0mg"},{"bike_id":"bba82484-d6d2-4eb9-a24b-0fee4128de51","system_id":"levelo_inurba_marseille","lat":43.30138,"lon":5.38768,"is_reserved":false,"is_disabled":true,"rental_uris":{"android":"levelo://app?vid=bba82484-d6d2-4eb9-a24b-0fee4128de51","ios":"levelo://app?vid=bba82484-d6d2-4eb9-a24b-0fee4128de51"},"vehicle_type_id":"4","last_reported":1732957713,"current_range_meters":0,"station_id":"ce4bghh2rcd13ifvqb60","pricing_plan_id":"cebpf4jnsgd1na2vs0mg"},{"bike_id":"a1de088e-f9bc-437b-86db-027b9d5a0352","system_id":"levelo_inurba_marseille","lat":43.33023,"lon":5.3904,"is_reserved":false,"is_disabled":false,"rental_uris":{"android":"levelo://app?vid=a1de088e-f9bc-437b-86db-027b9d5a0352","ios":"levelo://app?vid=a1de088e-f9bc-437b-86db-027b9d5a0352"},"vehicle_type_id":"4","last_reported":1732957713,"current_range_meters":36800,"station_id":"ce4bhr92rcd13ifvqhrg","pricing_plan_id":"cebpf4jnsgd1na2vs0mg"},{"bike_id":"de4ae613-0f4d-48a6-a364-cb3a9285befc","system_id":"levelo_inurba_marseille","lat":43.28154,"lon":5.42643,"is_reserved":false,"is_disabled":false,"rental_uris":{"android":"levelo://app?vid=de4ae613-0f4d-48a6-a364-cb3a9285befc","ios":"levelo://app?vid=de4ae613-0f4d-48a6-a364-cb3a9285befc"},"vehicle_type_id":"4","last_reported":1732957713,"current_range_meters":17600,"station_id":"ce4bhnh2rcd13ifvqgug","pricing_plan_id":"cebpf4jnsgd1na2vs0mg"},{"bike_id":"38798db8-5bd5-4792-b41b-6f809d1b1c45","system_id":"levelo_inurba_marseille","lat":43.319958,"lon":5.3815,"is_reserved":false,"is_disabled":false,"rental_uris":{"android":"levelo://app?vid=38798db8-5bd5-4792-b41b-6f809d1b1c45","ios":"levelo://app?vid=38798db8-5bd5-4792-b41b-6f809d1b1c45"},"vehicle_type_id":"4","last_reported":1732957713,"current_range_meters":19200,"station_id":"ce4bhr12rcd13ifvqhpg","pricing_plan_id":"cebpf4jnsgd1na2vs0mg"},{"bike_id":"375f3ff8-f817-4dea-ba6a-e7f3d0cf2b56","system_id":"levelo_inurba_marseille","lat":43.28028,"lon":5.36949,"is_reserved":false,"is_disabled":false,"rental_uris":{"android":"levelo://app?vid=375f3ff8-f817-4dea-ba6a-e7f3d0cf2b56","ios":"levelo://app?vid=375f3ff8-f817-4dea-ba6a-e7f3d0cf2b56"},"vehicle_type_id":"4","last_reported":1732957713,"current_range_meters":39200,"station_id":"ce4bha12rcd13ifvqef0","pricing_plan_id":"cebpf4jnsgd1na2vs0mg"},{"bike_id":"f05403b4-7fc6-4ed9-83e5-21728471368c","system_id":"levelo_inurba_marseille","lat":43.30806,"lon":5.38145,"is_reserved":false,"is_disabled":false,"rental_uris":{"android":"levelo://app?vid=f05403b4-7fc6-4ed9-83e5-21728471368c","ios":"levelo://app?vid=f05403b4-7fc6-4ed9-83e5-21728471368c"},"vehicle_type_id":"4","last_reported":1732957713,"current_range_meters":36800,"station_id":"ce4bgt12rcd13ifvqce0","pricing_plan_id":"cebpf4jnsgd1na2vs0mg"},{"bike_id":"c43fffd1-108f-4493-9c53-d2971d2b16a2","system_id":"levelo_inurba_marseille","lat":43.32919,"lon":5.4156,"is_reserved":false,"is_disabled":false,"rental_uris":{"android":"levelo://app?vid=c43fffd1-108f-4493-9c53-d2971d2b16a2","ios":"levelo://app?vid=c43fffd1-108f-4493-9c53-d2971d2b16a2"},"vehicle_type_id":"4","last_reported":1732957713,"current_range_meters":22000,"station_id":"","pricing_plan_id":"cebpf4jnsgd1na2vs0mg"},{"bike_id":"cf002d38-17c9-44fd-9354-c7910c4bd3ff","system_id":"levelo_inurba_marseille","lat":43.33024,"lon":5.3903,"is_reserved":false,"is_disabled":false,"rental_uris":{"android":"levelo://app?vid=cf002d38-17c9-44fd-9354-c7910c4bd3ff","ios":"levelo://app?vid=cf002d38-17c9-44fd-9354-c7910c4bd3ff"},"vehicle_type_id":"4","last_reported":1732957713,"current_range_meters":38400,"station_id":"ce4bhr92rcd13ifvqhrg","pricing_plan_id":"cebpf4jnsgd1na2vs0mg"},{"bike_id":"e65d76f7-38a6-44f9-98cd-8b7f39f1f9cf","system_id":"levelo_inurba_marseille","lat":43.27374,"lon":5.36265,"is_reserved":false,"is_disabled":false,"rental_uris":{"android":"levelo://app?vid=e65d76f7-38a6-44f9-98cd-8b7f39f1f9cf","ios":"levelo://app?vid=e65d76f7-38a6-44f9-98cd-8b7f39f1f9cf"},"vehicle_type_id":"4","last_reported":1732957713,"current_range_meters":17600,"station_id":"ce4bhbh2rcd13ifvqeo0","pricing_plan_id":"cebpf4jnsgd1na2vs0mg"},{"bike_id":"ccba872b-b73e-4c65-9348-bf2fa2550f0e","system_id":"levelo_inurba_marseille","lat":43.29293,"lon":5.3746,"is_reserved":false,"is_disabled":false,"rental_uris":{"android":"levelo://app?vid=ccba872b-b73e-4c65-9348-bf2fa2550f0e","ios":"levelo://app?vid=ccba872b-b73e-4c65-9348-bf2fa2550f0e"},"vehicle_type_id":"4","last_reported":1732957713,"current_range_meters":39200,"station_id":"ce4bgi12rcd13ifvqb70","pricing_plan_id":"cebpf4jnsgd1na2vs0mg"},{"bike_id":"43746d86-8a13-4845-9faf-ae69b548d714","system_id":"levelo_inurba_marseille","lat":43.29459,"lon":5.37917,"is_reserved":false,"is_disabled":true,"rental_uris":{"android":"levelo://app?vid=43746d86-8a13-4845-9faf-ae69b548d714","ios":"levelo://app?vid=43746d86-8a13-4845-9faf-ae69b548d714"},"vehicle_type_id":"4","last_reported":1732957713,"current_range_meters":0,"station_id":"","pricing_plan_id":"cebpf4jnsgd1na2vs0mg"},{"bike_id":"281fc0b4-1ea0-404f-a945-55335edde232","system_id":"levelo_inurba_marseille","lat":43.28935,"lon":5.36634,"is_reserved":false,"is_disabled":false,"rental_uris":{"android":"levelo://app?vid=281fc0b4-1ea0-404f-a945-55335edde232","ios":"levelo://app?vid=281fc0b4-1ea0-404f-a945-55335edde232"},"vehicle_type_id":"4","last_reported":1732957713,"current_range_meters":39200,"station_id":"ce4bhap2rcd13ifvqek0","pricing_plan_id":"cebpf4jnsgd1na2vs0mg"},{"bike_id":"1665090c-d6bc-4de6-b530-613846e90070","system_id":"levelo_inurba_marseille","lat":43.313591,"lon":5.384971,"is_reserved":false,"is_disabled":false,"rental_uris":{"android":"levelo://app?vid=1665090c-d6bc-4de6-b530-613846e90070","ios":"levelo://app?vid=1665090c-d6bc-4de6-b530-613846e90070"},"vehicle_type_id":"4","last_reported":1732957713,"current_range_meters":27200,"station_id":"ce4bgt92rcd13ifvqcf0","pricing_plan_id":"cebpf4jnsgd1na2vs0mg"},{"bike_id":"adea4ba0-a779-4072-801a-4487910dd05a","system_id":"levelo_inurba_marseille","lat":43.29887,"lon":5.38901,"is_reserved":false,"is_disabled":false,"rental_uris":{"android":"levelo://app?vid=adea4ba0-a779-4072-801a-4487910dd05a","ios":"levelo://app?vid=adea4ba0-a779-4072-801a-4487910dd05a"},"vehicle_type_id":"4","last_reported":1732957713,"current_range_meters":11600,"station_id":"ce4bh392rcd13ifvqdl0","pricing_plan_id":"cebpf4jnsgd1na2vs0mg"},{"bike_id":"36920de8-25b1-4dd6-9bbb-6855f38fd889","system_id":"levelo_inurba_marseille","lat":43.337444,"lon":5.374475,"is_reserved":false,"is_disabled":false,"rental_uris":{"android":"levelo://app?vid=36920de8-25b1-4dd6-9bbb-6855f38fd889","ios":"levelo://app?vid=36920de8-25b1-4dd6-9bbb-6855f38fd889"},"vehicle_type_id":"4","last_reported":1732957713,"current_range_meters":38800,"station_id":"","pricing_plan_id":"cebpf4jnsgd1na2vs0mg"},{"bike_id":"d8090434-8164-4911-a368-9f666e5165ad","system_id":"levelo_inurba_marseille","lat":43.26555,"lon":5.37282,"is_reserved":false,"is_disabled":false,"rental_uris":{"android":"levelo://app?vid=d8090434-8164-4911-a368-9f666e5165ad","ios":"levelo://app?vid=d8090434-8164-4911-a368-9f666e5165ad"},"vehicle_type_id":"4","last_reported":1732957713,"current_range_meters":32400,"station_id":"ce4bhg12rcd13ifvqf70","pricing_plan_id":"cebpf4jnsgd1na2vs0mg"},{"bike_id":"004808dd-897a-450f-9d03-3436370a1db6","system_id":"levelo_inurba_marseille","lat":43.29267,"lon":5.3685,"is_reserved":false,"is_disabled":false,"rental_uris":{"android":"levelo://app?vid=004808dd-897a-450f-9d03-3436370a1db6","ios":"levelo://app?vid=004808dd-897a-450f-9d03-3436370a1db6"},"vehicle_type_id":"4","last_reported":1732957713,"current_range_meters":32800,"station_id":"ce4bhbp2rcd13ifvqesg","pricing_plan_id":"cebpf4jnsgd1na2vs0mg"},{"bike_id":"6da9caa4-0313-43ff-a969-1b6a799cb79a","system_id":"levelo_inurba_marseille","lat":43.28728,"lon":5.36081,"is_reserved":false,"is_disabled":false,"rental_uris":{"android":"levelo://app?vid=6da9caa4-0313-43ff-a969-1b6a799cb79a","ios":"levelo://app?vid=6da9caa4-0313-43ff-a969-1b6a799cb79a"},"vehicle_type_id":"4","last_reported":1732957713,"current_range_meters":18000,"station_id":"cki0cbj6b192h4jlfktg","pricing_plan_id":"cebpf4jnsgd1na2vs0mg"},{"bike_id":"2c441142-94fb-47e4-b8ac-6896e0be6938","system_id":"levelo_inurba_marseille","lat":43.30941,"lon":5.39033,"is_reserved":false,"is_disabled":false,"rental_uris":{"android":"levelo://app?vid=2c441142-94fb-47e4-b8ac-6896e0be6938","ios":"levelo://app?vid=2c441142-94fb-47e4-b8ac-6896e0be6938"},"vehicle_type_id":"4","last_reported":1732957713,"current_range_meters":36400,"station_id":"ce4bgup2rcd13ifvqco0","pricing_plan_id":"cebpf4jnsgd1na2vs0mg"},{"bike_id":"2ca4c736-b173-4957-99b1-47e46344c420","system_id":"levelo_inurba_marseille","lat":43.26931,"lon":5.38907,"is_reserved":false,"is_disabled":false,"rental_uris":{"android":"levelo://app?vid=2ca4c736-b173-4957-99b1-47e46344c420","ios":"levelo://app?vid=2ca4c736-b173-4957-99b1-47e46344c420"},"vehicle_type_id":"4","last_reported":1732957713,"current_range_meters":39200,"station_id":"ce4bhhh2rcd13ifvqfl0","pricing_plan_id":"cebpf4jnsgd1na2vs0mg"},{"bike_id":"15e24c31-4292-4084-bcd3-e24f0a31685e","system_id":"levelo_inurba_marseille","lat":43.2842,"lon":5.3499,"is_reserved":false,"is_disabled":true,"rental_uris":{"android":"levelo://app?vid=15e24c31-4292-4084-bcd3-e24f0a31685e","ios":"levelo://app?vid=15e24c31-4292-4084-bcd3-e24f0a31685e"},"vehicle_type_id":"4","last_reported":1732957713,"current_range_meters":36000,"station_id":"ce4bhbh2rcd13ifvqepg","pricing_plan_id":"cebpf4jnsgd1na2vs0mg"},{"bike_id":"579ec052-1a9b-4b33-b6e7-3ce0d78a27eb","system_id":"levelo_inurba_marseille","lat":43.32486,"lon":5.36563,"is_reserved":false,"is_disabled":false,"rental_uris":{"android":"levelo://app?vid=579ec052-1a9b-4b33-b6e7-3ce0d78a27eb","ios":"levelo://app?vid=579ec052-1a9b-4b33-b6e7-3ce0d78a27eb"},"vehicle_type_id":"4","last_reported":1732957713,"current_range_meters":39200,"station_id":"ce4bhs12rcd13ifvqhvg","pricing_plan_id":"cebpf4jnsgd1na2vs0mg"},{"bike_id":"ed2e18cb-6b73-482a-997d-872d2e2185a6","system_id":"levelo_inurba_marseille","lat":43.22931,"lon":5.35372,"is_reserved":false,"is_disabled":false,"rental_uris":{"android":"levelo://app?vid=ed2e18cb-6b73-482a-997d-872d2e2185a6","ios":"levelo://app?vid=ed2e18cb-6b73-482a-997d-872d2e2185a6"},"vehicle_type_id":"4","last_reported":1732957713,"current_range_meters":40000,"station_id":"cpo3532slgdg3j2ikp40","pricing_plan_id":"cebpf4jnsgd1na2vs0mg"},{"bike_id":"7ae3bfe0-0498-4989-93a5-adfdfbd5c46a","system_id":"levelo_inurba_marseille","lat":43.31121,"lon":5.37755,"is_reserved":false,"is_disabled":false,"rental_uris":{"android":"levelo://app?vid=7ae3bfe0-0498-4989-93a5-adfdfbd5c46a","ios":"levelo://app?vid=7ae3bfe0-0498-4989-93a5-adfdfbd5c46a"},"vehicle_type_id":"4","last_reported":1732957713,"current_range_meters":38800,"station_id":"ce4bgt92rcd13ifvqcg0","pricing_plan_id":"cebpf4jnsgd1na2vs0mg"},{"bike_id":"14e15fa6-f929-440c-8e45-e9f719c9e2c4","system_id":"levelo_inurba_marseille","lat":43.29165,"lon":5.37153,"is_reserved":false,"is_disabled":false,"rental_uris":{"android":"levelo://app?vid=14e15fa6-f929-440c-8e45-e9f719c9e2c4","ios":"levelo://app?vid=14e15fa6-f929-440c-8e45-e9f719c9e2c4"},"vehicle_type_id":"4","last_reported":1732957713,"current_range_meters":28000,"station_id":"ce4bha92rcd13ifvqeh0","pricing_plan_id":"cebpf4jnsgd1na2vs0mg"},{"bike_id":"fc4d15f5-6256-45a3-90d6-77bb4c676955","system_id":"levelo_inurba_marseille","lat":43.296284,"lon":5.377877,"is_reserved":false,"is_disabled":true,"rental_uris":{"android":"levelo://app?vid=fc4d15f5-6256-45a3-90d6-77bb4c676955","ios":"levelo://app?vid=fc4d15f5-6256-45a3-90d6-77bb4c676955"},"vehicle_type_id":"4","last_reported":1732957713,"current_range_meters":25200,"station_id":"","pricing_plan_id":"cebpf4jnsgd1na2vs0mg"},{"bike_id":"8a0291f2-ebd3-4755-be2d-09bbcc22d5e3","system_id":"levelo_inurba_marseille","lat":43.28081,"lon":5.39661,"is_reserved":false,"is_disabled":false,"rental_uris":{"android":"levelo://app?vid=8a0291f2-ebd3-4755-be2d-09bbcc22d5e3","ios":"levelo://app?vid=8a0291f2-ebd3-4755-be2d-09bbcc22d5e3"},"vehicle_type_id":"4","last_reported":1732957713,"current_range_meters":38000,"station_id":"ce4bho12rcd13ifvqh2g","pricing_plan_id":"cebpf4jnsgd1na2vs0mg"},{"bike_id":"c88f8730-1176-4717-97e2-17c27b15274f","system_id":"levelo_inurba_marseille","lat":43.23192,"lon":5.35543,"is_reserved":false,"is_disabled":false,"rental_uris":{"android":"levelo://app?vid=c88f8730-1176-4717-97e2-17c27b15274f","ios":"levelo://app?vid=c88f8730-1176-4717-97e2-17c27b15274f"},"vehicle_type_id":"4","last_reported":1732957713,"current_range_meters":39200,"station_id":"ce4bhu92rcd13ifvqi70","pricing_plan_id":"cebpf4jnsgd1na2vs0mg"},{"bike_id":"4f474a27-bc91-43bf-a2cb-67e014528754","system_id":"levelo_inurba_marseille","lat":43.24801,"lon":5.37454,"is_reserved":false,"is_disabled":false,"rental_uris":{"android":"levelo://app?vid=4f474a27-bc91-43bf-a2cb-67e014528754","ios":"levelo://app?vid=4f474a27-bc91-43bf-a2cb-67e014528754"},"vehicle_type_id":"4","last_reported":1732957713,"current_range_meters":24000,"station_id":"ce4bhgh2rcd13ifvqfb0","pricing_plan_id":"cebpf4jnsgd1na2vs0mg"},{"bike_id":"d8bdcde7-e12a-4f21-a275-8a5ecb244744","system_id":"levelo_inurba_marseille","lat":43.31092,"lon":5.38346,"is_reserved":false,"is_disabled":true,"rental_uris":{"android":"levelo://app?vid=d8bdcde7-e12a-4f21-a275-8a5ecb244744","ios":"levelo://app?vid=d8bdcde7-e12a-4f21-a275-8a5ecb244744"},"vehicle_type_id":"4","last_reported":1732957713,"current_range_meters":23200,"station_id":"ce4bgv92rcd13ifvqcr0","pricing_plan_id":"cebpf4jnsgd1na2vs0mg"},{"bike_id":"da719756-3742-4209-8d60-b3804f08c501","system_id":"levelo_inurba_marseille","lat":43.30306,"lon":5.3689,"is_reserved":false,"is_disabled":false,"rental_uris":{"android":"levelo://app?vid=da719756-3742-4209-8d60-b3804f08c501","ios":"levelo://app?vid=da719756-3742-4209-8d60-b3804f08c501"},"vehicle_type_id":"4","last_reported":1732957713,"current_range_meters":30800,"station_id":"ce4bgqh2rcd13ifvqc5g","pricing_plan_id":"cebpf4jnsgd1na2vs0mg"},{"bike_id":"5547a441-9653-482c-905c-97a54076438b","system_id":"levelo_inurba_marseille","lat":43.32362,"lon":5.36755,"is_reserved":false,"is_disabled":false,"rental_uris":{"android":"levelo://app?vid=5547a441-9653-482c-905c-97a54076438b","ios":"levelo://app?vid=5547a441-9653-482c-905c-97a54076438b"},"vehicle_type_id":"4","last_reported":1732957713,"current_range_meters":16400,"station_id":"ce4bhsh2rcd13ifvqi2g","pricing_plan_id":"cebpf4jnsgd1na2vs0mg"},{"bike_id":"1ffd7818-249a-4429-8f13-e5be7e017106","system_id":"levelo_inurba_marseille","lat":43.2926,"lon":5.40901,"is_reserved":false,"is_disabled":false,"rental_uris":{"android":"levelo://app?vid=1ffd7818-249a-4429-8f13-e5be7e017106","ios":"levelo://app?vid=1ffd7818-249a-4429-8f13-e5be7e017106"},"vehicle_type_id":"4","last_reported":1732957713,"current_range_meters":35200,"station_id":"ce4bh192rcd13ifvqdc0","pricing_plan_id":"cebpf4jnsgd1na2vs0mg"},{"bike_id":"af465613-ea2e-4c6e-b2ce-111c8ea45991","system_id":"levelo_inurba_marseille","lat":43.29809,"lon":5.38091,"is_reserved":false,"is_disabled":false,"rental_uris":{"android":"levelo://app?vid=af465613-ea2e-4c6e-b2ce-111c8ea45991","ios":"levelo://app?vid=af465613-ea2e-4c6e-b2ce-111c8ea45991"},"vehicle_type_id":"4","last_reported":1732957713,"current_range_meters":39200,"station_id":"ce4bgip2rcd13ifvqbb0","pricing_plan_id":"cebpf4jnsgd1na2vs0mg"},{"bike_id":"7a059098-ff11-4ed4-be43-36efa1963566","system_id":"levelo_inurba_marseille","lat":43.32367,"lon":5.38878,"is_reserved":false,"is_disabled":false,"rental_uris":{"android":"levelo://app?vid=7a059098-ff11-4ed4-be43-36efa1963566","ios":"levelo://app?vid=7a059098-ff11-4ed4-be43-36efa1963566"},"vehicle_type_id":"4","last_reported":1732957713,"current_range_meters":38000,"station_id":"ce4bhqp2rcd13ifvqhog","pricing_plan_id":"cebpf4jnsgd1na2vs0mg"},{"bike_id":"af4aea72-ff88-49b5-8f41-06cfcdc04967","system_id":"levelo_inurba_marseille","lat":43.29264,"lon":5.36854,"is_reserved":false,"is_disabled":false,"rental_uris":{"android":"levelo://app?vid=af4aea72-ff88-49b5-8f41-06cfcdc04967","ios":"levelo://app?vid=af4aea72-ff88-49b5-8f41-06cfcdc04967"},"vehicle_type_id":"4","last_reported":1732957713,"current_range_meters":38800,"station_id":"ce4bhbp2rcd13ifvqesg","pricing_plan_id":"cebpf4jnsgd1na2vs0mg"},{"bike_id":"2545b486-f597-4ecd-8508-05df785b0c49","system_id":"levelo_inurba_marseille","lat":43.33021,"lon":5.39036,"is_reserved":false,"is_disabled":false,"rental_uris":{"android":"levelo://app?vid=2545b486-f597-4ecd-8508-05df785b0c49","ios":"levelo://app?vid=2545b486-f597-4ecd-8508-05df785b0c49"},"vehicle_type_id":"4","last_reported":1732957713,"current_range_meters":39200,"station_id":"ce4bhr92rcd13ifvqhrg","pricing_plan_id":"cebpf4jnsgd1na2vs0mg"},{"bike_id":"615d3b9c-5cdd-4442-8e0c-b2ac0c975d11","system_id":"levelo_inurba_marseille","lat":43.295247,"lon":5.422743,"is_reserved":false,"is_disabled":false,"rental_uris":{"android":"levelo://app?vid=615d3b9c-5cdd-4442-8e0c-b2ac0c975d11","ios":"levelo://app?vid=615d3b9c-5cdd-4442-8e0c-b2ac0c975d11"},"vehicle_type_id":"4","last_reported":1732957713,"current_range_meters":37600,"station_id":"ce4bhph2rcd13ifvqhdg","pricing_plan_id":"cebpf4jnsgd1na2vs0mg"},{"bike_id":"6b24c5f9-0bdb-4efc-aae5-a9650fb06268","system_id":"levelo_inurba_marseille","lat":43.28689,"lon":5.37397,"is_reserved":false,"is_disabled":false,"rental_uris":{"android":"levelo://app?vid=6b24c5f9-0bdb-4efc-aae5-a9650fb06268","ios":"levelo://app?vid=6b24c5f9-0bdb-4efc-aae5-a9650fb06268"},"vehicle_type_id":"4","last_reported":1732957713,"current_range_meters":24800,"station_id":"ce4bh3p2rcd13ifvqdq0","pricing_plan_id":"cebpf4jnsgd1na2vs0mg"},{"bike_id":"3706f00c-7610-4309-9ec3-4d261b0805c8","system_id":"levelo_inurba_marseille","lat":43.28155,"lon":5.42638,"is_reserved":false,"is_disabled":false,"rental_uris":{"android":"levelo://app?vid=3706f00c-7610-4309-9ec3-4d261b0805c8","ios":"levelo://app?vid=3706f00c-7610-4309-9ec3-4d261b0805c8"},"vehicle_type_id":"4","last_reported":1732957713,"current_range_meters":8000,"station_id":"ce4bhnh2rcd13ifvqgug","pricing_plan_id":"cebpf4jnsgd1na2vs0mg"},{"bike_id":"39d5b8ae-d785-403b-b8ca-96102e7acd6c","system_id":"levelo_inurba_marseille","lat":43.27923,"lon":5.39574,"is_reserved":false,"is_disabled":false,"rental_uris":{"android":"levelo://app?vid=39d5b8ae-d785-403b-b8ca-96102e7acd6c","ios":"levelo://app?vid=39d5b8ae-d785-403b-b8ca-96102e7acd6c"},"vehicle_type_id":"4","last_reported":1732957713,"current_range_meters":36400,"station_id":"ce4bhf92rcd13ifvqf40","pricing_plan_id":"cebpf4jnsgd1na2vs0mg"},{"bike_id":"bf65ffbf-4bd5-4cf5-bd41-0370a496e81f","system_id":"levelo_inurba_marseille","lat":43.30594,"lon":5.39357,"is_reserved":false,"is_disabled":false,"rental_uris":{"android":"levelo://app?vid=bf65ffbf-4bd5-4cf5-bd41-0370a496e81f","ios":"levelo://app?vid=bf65ffbf-4bd5-4cf5-bd41-0370a496e81f"},"vehicle_type_id":"4","last_reported":1732957713,"current_range_meters":14000,"station_id":"ce4bh0p2rcd13ifvqd80","pricing_plan_id":"cebpf4jnsgd1na2vs0mg"},{"bike_id":"31acb368-f87d-4974-9c8b-a4d188b18cb6","system_id":"levelo_inurba_marseille","lat":43.28466,"lon":5.35897,"is_reserved":false,"is_disabled":false,"rental_uris":{"android":"levelo://app?vid=31acb368-f87d-4974-9c8b-a4d188b18cb6","ios":"levelo://app?vid=31acb368-f87d-4974-9c8b-a4d188b18cb6"},"vehicle_type_id":"4","last_reported":1732957713,"current_range_meters":38800,"station_id":"ce4bhah2rcd13ifvqei0","pricing_plan_id":"cebpf4jnsgd1na2vs0mg"},