{"last_updated":1747750276,"ttl":60,"version":"2.2","data":{"bikes":[{"bike_id":"c0b9fd4f-e181-46ce-b0bf-f5119973334f","system_id":"levelo_inurba_marseille","lat":43.33771,"lon":5.37424,"is_reserved":false,"is_disabled":true,"rental_uris":{"android":"levelo://app?vid=c0b9fd4f-e181-46ce-b0bf-f5119973334f","ios":"levelo://app?vid=c0b9fd4f-e181-46ce-b0bf-f5119973334f"},"vehicle_type_id":"4","last_reported":1747750276,"current_range_meters":0,"station_id":"","pricing_plan_id":"cebpf4jnsgd1na2vs0mg"},{"bike_id":"fc2577e7-1497-425b-9d4f-ab8d7dc843c6","system_id":"levelo_inurba_marseille","lat":43.33771,"lon":5.37485,"is_reserved":false,"is_disabled":true,"rental_uris":{"android":"levelo://app?vid=fc2577e7-1497-425b-9d4f-ab8d7dc843c6","ios":"levelo://app?vid=fc2577e7-1497-425b-9d4f-ab8d7dc843c6"},"vehicle_type_id":"4","last_reported":1747750276,"current_range_meters":0,"station_id":"","pricing_plan_id":"cebpf4jnsgd1na2vs0mg"},{"bike_id":"fea43c0c-64be-4bdb-9fbb-ba49fa4326e1","system_id":"levelo_inurba_marseille","lat":43.28225,"lon":5.39064,"is_reserved":false,"is_disabled":true,"rental_uris":{"android":"levelo://app?vid=fea43c0c-64be-4bdb-9fbb-ba49fa4326e1","ios":"levelo://app?vid=fea43c0c-64be-4bdb-9fbb-ba49fa4326e1"},"vehicle_type_id":"4","last_reported":1747750276,"current_range_meters":0,"station_id":"","pricing_plan_id":"cebpf4jnsgd1na2vs0mg"},{"bike_id":"7a6f320a-8a07-483e-a04d-d58942312e9d","system_id":"levelo_inurba_marseille","lat":43.29649,"lon":5.39068,"is_reserved":false,"is_disabled":true,"rental_uris":{"android":"levelo://app?vid=7a6f320a-8a07-483e-a04d-d58942312e9d","ios":"levelo://app?vid=7a6f320a-8a07-483e-a04d-d58942312e9d"},"vehicle_type_id":"4","last_reported":1747750276,"current_range_meters":0,"station_id":"","pricing_plan_id":"cebpf4jnsgd1na2vs0mg"},{"bike_id":"e9dd3aa4-b5e7-4480-926d-d7f537719bfa","system_id":"levelo_inurba_marseille","lat":43.23027,"lon":5.40202,"is_reserved":false,"is_disabled":true,"rental_uris":{"android":"levelo://app?vid=e9dd3aa4-b5e7-4480-926d-d7f537719bfa","ios":"levelo://app?vid=e9dd3aa4-b5e7-4480-926d-d7f537719bfa"},"vehicle_type_id":"4","last_reported":1747750276,"current_range_meters":0,"station_id":"","pricing_plan_id":"cebpf4jnsgd1na2vs0mg"},{"bike_id":"957eec2b-c8f3-437c-95f0-18beb37f5ab8","system_id":"levelo_inurba_marseille","lat":43.295393,"lon":5.385417,"is_reserved":false,"is_disabled":true,"rental_uris":{"android":"levelo://app?vid=957eec2b-c8f3-437c-95f0-18beb37f5ab8","ios":"levelo://app?vid=957eec2b-c8f3-437c-95f0-18beb37f5ab8"},"vehicle_type_id":"4","last_reported":1747750276,"current_range_meters":0,"station_id":"ce4bgih2rcd13ifvqba0","pricing_plan_id":"cebpf4jnsgd1na2vs0mg"},{"bike_id":"b99652a3-7096-4676-87e4-1cfcc128956c","system_id":"levelo_inurba_marseille","lat":43.28412,"lon":5.34977,"is_reserved":false,"is_disabled":true,"rental_uris":{"android":"levelo://app?vid=b99652a3-7096-4676-87e4-1cfcc128956c","ios":"levelo://app?vid=b99652a3-7096-4676-87e4-1cfcc128956c"},"vehicle_type_id":"4","last_reported":1747750276,"current_range_meters":0,"station_id":"ce4bhbh2rcd13ifvqepg","pricing_plan_id":"cebpf4jnsgd1na2vs0mg"},{"bike_id":"d6bdd5e4-382f-4e21-8049-0185a7dca55b","system_id":"levelo_inurba_marseille","lat":43.26552,"lon":5.37292,"is_reserved":false,"is_disabled":true,"rental_uris":{"android":"levelo://app?vid=d6bdd5e4-382f-4e21-8049-0185a7dca55b","ios":"levelo://app?vid=d6bdd5e4-382f-4e21-8049-0185a7dca55b"},"vehicle_type_id":"4","last_reported":1747750276,"current_range_meters":0,"station_id":"ce4bhg12rcd13ifvqf70","pricing_plan_id":"cebpf4jnsgd1na2vs0mg"},{"bike_id":"81912f7e-d8da-4952-9eee-8626bdd21403","system_id":"levelo_inurba_marseille","lat":43.23144,"lon":5.43714,"is_reserved":false,"is_disabled":true,"rental_uris":{"android":"levelo://app?vid=81912f7e-d8da-4952-9eee-8626bdd21403","ios":"levelo://app?vid=81912f7e-d8da-4952-9eee-8626bdd21403"},"vehicle_type_id":"4","last_reported":1747750276,"current_range_meters":0,"station_id":"ce4bhmp2rcd13ifvqgog","pricing_plan_id":"cebpf4jnsgd1na2vs0mg"},{"bike_id":"c096b84d-0381-4398-8259-54809d444fae","system_id":"levelo_inurba_marseille","lat":43.23188,"lon":5.35564,"is_reserved":false,"is_disabled":true,"rental_uris":{"android":"levelo://app?vid=c096b84d-0381-4398-8259-54809d444fae","ios":"levelo://app?vid=c096b84d-0381-4398-8259-54809d444fae"},"vehicle_type_id":"4","last_reported":1747750276,"current_range_meters":0,"station_id":"ce4bhu92rcd13ifvqi70","pricing_plan_id":"cebpf4jnsgd1na2vs0mg"},{"bike_id":"8123d2c7-2017-49c4-8e9e-f0db8dc3477c","system_id":"levelo_inurba_marseille","lat":43.29286,"lon":5.40179,"is_reserved":false,"is_disabled":true,"rental_uris":{"android":"levelo://app?vid=8123d2c7-2017-49c4-8e9e-f0db8dc3477c","ios":"levelo://app?vid=8123d2c7-2017-49c4-8e9e-f0db8dc3477c"},"vehicle_type_id":"4","last_reported":1747750276,"current_range_meters":400,"station_id":"ce4bh312rcd13ifvqdk0","pricing_plan_id":"cebpf4jnsgd1na2vs0mg"},{"bike_id":"df6f3c2f-22f0-47fb-9d38-7b4f0cf09c78","system_id":"levelo_inurba_marseille","lat":43.24163,"lon":5.39762,"is_reserved":false,"is_disabled":true,"rental_uris":{"android":"levelo://app?vid=df6f3c2f-22f0-47fb-9d38-7b4f0cf09c78","ios":"levelo://app?vid=df6f3c2f-22f0-47fb-9d38-7b4f0cf09c78"},"vehicle_type_id":"4","last_reported":1747750276,"current_range_meters":400,"station_id":"ce4bhn12rcd13ifvqgpg","pricing_plan_id":"cebpf4jnsgd1na2vs0mg"},{"bike_id":"6dde615a-1d5a-43fa-aaa2-ce3de3250325","system_id":"levelo_inurba_marseille","lat":43.29605,"lon":5.37753,"is_reserved":false,"is_disabled":true,"rental_uris":{"android":"levelo://app?vid=6dde615a-1d5a-43fa-aaa2-ce3de3250325","ios":"levelo://app?vid=6dde615a-1d5a-43fa-aaa2-ce3de3250325"},"vehicle_type_id":"4","last_reported":1747750276,"current_range_meters":800,"station_id":"ce4bgi92rcd13ifvqb90","pricing_plan_id":"cebpf4jnsgd1na2vs0mg"},{"bike_id":"fd2e4734-c8be-4030-8629-e5b168772c05","system_id":"levelo_inurba_marseille","lat":43.30421,"lon":5.39751,"is_reserved":false,"is_disabled":true,"rental_uris":{"android":"levelo://app?vid=fd2e4734-c8be-4030-8629-e5b168772c05","ios":"levelo://app?vid=fd2e4734-c8be-4030-8629-e5b168772c05"},"vehicle_type_id":"4","last_reported":1747750276,"current_range_meters":800,"station_id":"ce4bh092rcd13ifvqd20","pricing_plan_id":"cebpf4jnsgd1na2vs0mg"},{"bike_id":"e200812e-467a-4f62-a447-92f5a5768cab","system_id":"levelo_inurba_marseille","lat":43.23127,"lon":5.43694,"is_reserved":false,"is_disabled":true,"rental_uris":{"android":"levelo://app?vid=e200812e-467a-4f62-a447-92f5a5768cab","ios":"levelo://app?vid=e200812e-467a-4f62-a447-92f5a5768cab"},"vehicle_type_id":"4","last_reported":1747750276,"current_range_meters":1200,"station_id":"ce4bhmp2rcd13ifvqgog","pricing_plan_id":"cebpf4jnsgd1na2vs0mg"},{"bike_id":"0f8092cf-b703-4cef-b7a4-087cdcd71ce1","system_id":"levelo_inurba_marseille","lat":43.30591,"lon":5.39369,"is_reserved":false,"is_disabled":true,"rental_uris":{"android":"levelo://app?vid=0f8092cf-b703-4cef-b7a4-087cdcd71ce1","ios":"levelo://app?vid=0f8092cf-b703-4cef-b7a4-087cdcd71ce1"},"vehicle_type_id":"4","last_reported":1747750276,"current_range_meters":1600,"station_id":"ce4bh0p2rcd13ifvqd80","pricing_plan_id":"cebpf4jnsgd1na2vs0mg"},{"bike_id":"40f85e09-3754-456b-84fc-04653aa853c1","system_id":"levelo_inurba_marseille","lat":43.27999,"lon":5.41665,"is_reserved":false,"is_disabled":true,"rental_uris":{"android":"levelo://app?vid=40f85e09-3754-456b-84fc-04653aa853c1","ios":"levelo://app?vid=40f85e09-3754-456b-84fc-04653aa853c1"},"vehicle_type_id":"4","last_reported":1747750276,"current_range_meters":1600,"station_id":"ce4bho12rcd13ifvqh1g","pricing_plan_id":"cebpf4jnsgd1na2vs0mg"},{"bike_id":"1e3d1f90-912d-42c3-aa22-c82a2fa4340d","system_id":"levelo_inurba_marseille","lat":43.337444,"lon":5.374475,"is_reserved":false,"is_disabled":true,"rental_uris":{"android":"levelo://app?vid=1e3d1f90-912d-42c3-aa22-c82a2fa4340d","ios":"levelo://app?vid=1e3d1f90-912d-42c3-aa22-c82a2fa4340d"},"vehicle_type_id":"4","last_reported":1747750276,"current_range_meters":2000,"station_id":"","pricing_plan_id":"cebpf4jnsgd1na2vs0mg"},{"bike_id":"5ab52c08-a463-4786-9181-55f566e9b1c2","system_id":"levelo_inurba_marseille","lat":43.29035,"lon":5.386523,"is_reserved":false,"is_disabled":true,"rental_uris":{"android":"levelo://app?vid=5ab52c08-a463-4786-9181-55f566e9b1c2","ios":"levelo://app?vid=5ab52c08-a463-4786-9181-55f566e9b1c2"},"vehicle_type_id":"4","last_reported":1747750276,"current_range_meters":2000,"station_id":"ce4bh4p2rcd13ifvqe0g","pricing_plan_id":"cebpf4jnsgd1na2vs0mg"},{"bike_id":"d37a981a-99de-466c-890e-1573c87ce0cd","system_id":"levelo_inurba_marseille","lat":43.29418,"lon":5.38625,"is_reserved":false,"is_disabled":false,"rental_uris":{"android":"levelo://app?vid=d37a981a-99de-466c-890e-1573c87ce0cd","ios":"levelo://app?vid=d37a981a-99de-466c-890e-1573c87ce0cd"},"vehicle_type_id":"4","last_reported":1747750276,"current_range_meters":2800,"station_id":"ce4bh2h2rcd13ifvqdh0","pricing_plan_id":"cebpf4jnsgd1na2vs0mg"},{"bike_id":"a2f377fc-ceeb-44c6-b80d-9be882a97936","system_id":"levelo_inurba_marseille","lat":43.31752,"lon":5.39021,"is_reserved":false,"is_disabled":false,"rental_uris":{"android":"levelo://app?vid=a2f377fc-ceeb-44c6-b80d-9be882a97936","ios":"levelo://app?vid=a2f377fc-ceeb-44c6-b80d-9be882a97936"},"vehicle_type_id":"4","last_reported":1747750276,"current_range_meters":2800,"station_id":"ce4bhqp2rcd13ifvqhng","pricing_plan_id":"cebpf4jnsgd1na2vs0mg"},{"bike_id":"3c2e874b-823b-4069-8a4a-aca4fb4238f3","system_id":"levelo_inurba_marseille","lat":43.27614,"lon":5.39741,"is_reserved":false,"is_disabled":false,"rental_uris":{"android":"levelo://app?vid=3c2e874b-823b-4069-8a4a-aca4fb4238f3","ios":"levelo://app?vid=3c2e874b-823b-4069-8a4a-aca4fb4238f3"},"vehicle_type_id":"4","last_reported":1747750276,"current_range_meters":3200,"station_id":"","pricing_plan_id":"cebpf4jnsgd1na2vs0mg"},{"bike_id":"2c7740a0-a0a7-47d6-83f6-e1f7cea8700a","system_id":"levelo_inurba_marseille","lat":43.30299,"lon":5.39212,"is_reserved":false,"is_disabled":false,"rental_uris":{"android":"levelo://app?vid=2c7740a0-a0a7-47d6-83f6-e1f7cea8700a","ios":"levelo://app?vid=2c7740a0-a0a7-47d6-83f6-e1f7cea8700a"},"vehicle_type_id":"4","last_reported":1747750276,"current_range_meters":3200,"station_id":"ce4bgkh2rcd13ifvqbk0","pricing_plan_id":"cebpf4jnsgd1na2vs0mg"},{"bike_id":"3e5ddf8e-d4d9-4e76-9a46-ced37a3679ae","system_id":"levelo_inurba_marseille","lat":43.26205,"lon":5.3744,"is_reserved":false,"is_disabled":false,"rental_uris":{"android":"levelo://app?vid=3e5ddf8e-d4d9-4e76-9a46-ced37a3679ae","ios":"levelo://app?vid=3e5ddf8e-d4d9-4e76-9a46-ced37a3679ae"},"vehicle_type_id":"4","last_reported":1747750276,"current_range_meters":3200,"station_id":"ce4bhgp2rcd13ifvqfc0","pricing_plan_id":"cebpf4jnsgd1na2vs0mg"},{"bike_id":"f8b55107-0665-449d-ad18-b3f718a04966","system_id":"levelo_inurba_marseille","lat":43.25117,"lon":5.4032,"is_reserved":false,"is_disabled":false,"rental_uris":{"android":"levelo://app?vid=f8b55107-0665-449d-ad18-b3f718a04966","ios":"levelo://app?vid=f8b55107-0665-449d-ad18-b3f718a04966"},"vehicle_type_id":"4","last_reported":1747750276,"current_range_meters":3600,"station_id":"ce4bhlh2rcd13ifvqgig","pricing_plan_id":"cebpf4jnsgd1na2vs0mg"},{"bike_id":"ed6c71d8-2d43-4d51-8fb4-6dd5e6fd122c","system_id":"levelo_inurba_marseille","lat":43.30927,"lon":5.40168,"is_reserved":false,"is_disabled":false,"rental_uris":{"android":"levelo://app?vid=ed6c71d8-2d43-4d51-8fb4-6dd5e6fd122c","ios":"levelo://app?vid=ed6c71d8-2d43-4d51-8fb4-6dd5e6fd122c"},"vehicle_type_id":"4","last_reported":1747750276,"current_range_meters":4000,"station_id":"ce4bgvp2rcd13ifvqct0","pricing_plan_id":"cebpf4jnsgd1na2vs0mg"},{"bike_id":"cf2e5c45-aac0-4784-a8f5-2a28a2e32c91","system_id":"levelo_inurba_marseille","lat":43.27175,"lon":5.40982,"is_reserved":false,"is_disabled":false,"rental_uris":{"android":"levelo://app?vid=cf2e5c45-aac0-4784-a8f5-2a28a2e32c91","ios":"levelo://app?vid=cf2e5c45-aac0-4784-a8f5-2a28a2e32c91"},"vehicle_type_id":"4","last_reported":1747750276,"current_range_meters":4000,"station_id":"ce4bhl12rcd13ifvqgf0","pricing_plan_id":"cebpf4jnsgd1na2vs0mg"},{"bike_id":"f03d84a5-28fa-4c07-9f1a-75e8c3d0c293","system_id":"levelo_inurba_marseille","lat":43.27937,"lon":5.41071,"is_reserved":false,"is_disabled":false,"rental_uris":{"android":"levelo://app?vid=f03d84a5-28fa-4c07-9f1a-75e8c3d0c293","ios":"levelo://app?vid=f03d84a5-28fa-4c07-9f1a-75e8c3d0c293"},"vehicle_type_id":"4","last_reported":1747750276,"current_range_meters":4000,"station_id":"ce4bhnp2rcd13ifvqh0g","pricing_plan_id":"cebpf4jnsgd1na2vs0mg"},{"bike_id":"508f0b42-156c-4720-814d-ca262a227399","system_id":"levelo_inurba_marseille","lat":43.29279,"lon":5.40117,"is_reserved":false,"is_disabled":false,"rental_uris":{"android":"levelo://app?vid=508f0b42-156c-4720-814d-ca262a227399","ios":"levelo://app?vid=508f0b42-156c-4720-814d-ca262a227399"},"vehicle_type_id":"4","last_reported":1747750276,"current_range_meters":4400,"station_id":"ce4bh312rcd13ifvqdk0","pricing_plan_id":"cebpf4jnsgd1na2vs0mg"},{"bike_id":"df118673-c2b2-4894-af3b-27f79527f227","system_id":"levelo_inurba_marseille","lat":43.28272,"lon":5.35075,"is_reserved":false,"is_disabled":false,"rental_uris":{"android":"levelo://app?vid=df118673-c2b2-4894-af3b-27f79527f227","ios":"levelo://app?vid=df118673-c2b2-4894-af3b-27f79527f227"},"vehicle_type_id":"4","last_reported":1747750276,"current_range_meters":4800,"station_id":"ce4bhbp2rcd13ifvqerg","pricing_plan_id":"cebpf4jnsgd1na2vs0mg"},{"bike_id":"73fa1b3b-267a-48cc-bf03-0b55e96d62b2","system_id":"levelo_inurba_marseille","lat":43.286163,"lon":5.351066,"is_reserved":false,"is_disabled":false,"rental_uris":{"android":"levelo://app?vid=73fa1b3b-267a-48cc-bf03-0b55e96d62b2","ios":"levelo://app?vid=73fa1b3b-267a-48cc-bf03-0b55e96d62b2"},"vehicle_type_id":"4","last_reported":1747750276,"current_range_meters":4800,"station_id":"ce4bhch2rcd13ifvqeug","pricing_plan_id":"cebpf4jnsgd1na2vs0mg"},{"bike_id":"a42234bb-5491-4813-8719-4c98373c1d15","system_id":"levelo_inurba_marseille","lat":43.27052,"lon":5.40267,"is_reserved":false,"is_disabled":false,"rental_uris":{"android":"levelo://app?vid=a42234bb-5491-4813-8719-4c98373c1d15","ios":"levelo://app?vid=a42234bb-5491-4813-8719-4c98373c1d15"},"vehicle_type_id":"4","last_reported":1747750276,"current_range_meters":4800,"station_id":"ce4bhk92rcd13ifvqgc0","pricing_plan_id":"cebpf4jnsgd1na2vs0mg"},{"bike_id":"c4c5eaeb-2b86-4ced-930b-25634ba142cd","system_id":"levelo_inurba_marseille","lat":43.29261,"lon":5.37626,"is_reserved":false,"is_disabled":false,"rental_uris":{"android":"levelo://app?vid=c4c5eaeb-2b86-4ced-930b-25634ba142cd","ios":"levelo://app?vid=c4c5eaeb-2b86-4ced-930b-25634ba142cd"},"vehicle_type_id":"4","last_reported":1747750276,"current_range_meters":5600,"station_id":"ce4bgi12rcd13ifvqb80","pricing_plan_id":"cebpf4jnsgd1na2vs0mg"},{"bike_id":"e5123b84-27f5-4317-9aad-0af51cbbceba","system_id":"levelo_inurba_marseille","lat":43.299072,"lon":5.397262,"is_reserved":false,"is_disabled":false,"rental_uris":{"android":"levelo://app?vid=e5123b84-27f5-4317-9aad-0af51cbbceba","ios":"levelo://app?vid=e5123b84-27f5-4317-9aad-0af51cbbceba"},"vehicle_type_id":"4","last_reported":1747750276,"current_range_meters":5600,"station_id":"ce4bh0h2rcd13ifvqd50","pricing_plan_id":"cebpf4jnsgd1na2vs0mg"},{"bike_id":"b191f421-80cf-4cdd-8992-c91fda2d69b5","system_id":"levelo_inurba_marseille","lat":43.24663,"lon":5.38157,"is_reserved":false,"is_disabled":false,"rental_uris":{"android":"levelo://app?vid=b191f421-80cf-4cdd-8992-c91fda2d69b5","ios":"levelo://app?vid=b191f421-80cf-4cdd-8992-c91fda2d69b5"},"vehicle_type_id":"4","last_reported":1747750276,"current_range_meters":5600,"station_id":"ce4bhih2rcd13ifvqfr0","pricing_plan_id":"cebpf4jnsgd1na2vs0mg"},{"bike_id":"5d5aec1c-99aa-4b10-b2ba-fa9f33897ab1","system_id":"levelo_inurba_marseille","lat":43.3236,"lon":5.36756,"is_reserved":false,"is_disabled":false,"rental_uris":{"android":"levelo://app?vid=5d5aec1c-99aa-4b10-b2ba-fa9f33897ab1","ios":"levelo://app?vid=5d5aec1c-99aa-4b10-b2ba-fa9f33897ab1"},"vehicle_type_id":"4","last_reported":1747750276,"current_range_meters":5600,"station_id":"ce4bhsh2rcd13ifvqi2g","pricing_plan_id":"cebpf4jnsgd1na2vs0mg"},{"bike_id":"e64e36d1-c3e7-4427-9260-70ac75fa0a1c","system_id":"levelo_inurba_marseille","lat":43.33761,"lon":5.37479,"is_reserved":false,"is_disabled":false,"rental_uris":{"android":"levelo://app?vid=e64e36d1-c3e7-4427-9260-70ac75fa0a1c","ios":"levelo://app?vid=e64e36d1-c3e7-4427-9260-70ac75fa0a1c"},"vehicle_type_id":"4","last_reported":1747750276,"current_range_meters":6000,"station_id":"","pricing_plan_id":"cebpf4jnsgd1na2vs0mg"},{"bike_id":"410b95be-e281-4f8c-8b47-9a4cd7a66010","system_id":"levelo_inurba_marseille","lat":43.29581,"lon":5.36737,"is_reserved":false,"is_disabled":false,"rental_uris":{"android":"levelo://app?vid=410b95be-e281-4f8c-8b47-9a4cd7a66010","ios":"levelo://app?vid=410b95be-e281-4f8c-8b47-9a4cd7a66010"},"vehicle_type_id":"4","last_reported":1747750276,"current_range_meters":6000,"station_id":"ce4bgph2rcd13ifvqc2g","pricing_plan_id":"cebpf4jnsgd1na2vs0mg"},{"bike_id":"16784d6c-0e41-4c18-af5d-79c4aa508085","system_id":"levelo_inurba_marseille","lat":43.29792,"lon":5.40405,"is_reserved":false,"is_disabled":false,"rental_uris":{"android":"levelo://app?vid=16784d6c-0e41-4c18-af5d-79c4aa508085","ios":"levelo://app?vid=16784d6c-0e41-4c18-af5d-79c4aa508085"},"vehicle_type_id":"4","last_reported":1747750276,"current_range_meters":6000,"station_id":"ce4bh112rcd13ifvqd90","pricing_plan_id":"cebpf4jnsgd1na2vs0mg"},{"bike_id":"20bee342-4a3f-4f34-940d-bb6cf00d52ae","system_id":"levelo_inurba_marseille","lat":43.26654,"lon":5.38615,"is_reserved":false,"is_disabled":false,"rental_uris":{"android":"levelo://app?vid=20bee342-4a3f-4f34-940d-bb6cf00d52ae","ios":"levelo://app?vid=20bee342-4a3f-4f34-940d-bb6cf00d52ae"},"vehicle_type_id":"4","last_reported":1747750276,"current_range_meters":6400,"station_id":"","pricing_plan_id":"cebpf4jnsgd1na2vs0mg"},{"bike_id":"053eea2a-85af-4594-a0db-832a9aa7072b","system_id":"levelo_inurba_marseille","lat":43.29268,"lon":5.38443,"is_reserved":false,"is_disabled":false,"rental_uris":{"android":"levelo://app?vid=053eea2a-85af-4594-a0db-832a9aa7072b","ios":"levelo://app?vid=053eea2a-85af-4594-a0db-832a9aa7072b"},"vehicle_type_id":"4","last_reported":1747750276,"current_range_meters":6400,"station_id":"ce4bh692rcd13ifvqea0","pricing_plan_id":"cebpf4jnsgd1na2vs0mg"},{"bike_id":"fd75852b-aa6e-4e0d-81eb-426bc55f475e","system_id":"levelo_inurba_marseille","lat":43.26228,"lon":5.40463,"is_reserved":false,"is_disabled":false,"rental_uris":{"android":"levelo://app?vid=fd75852b-aa6e-4e0d-81eb-426bc55f475e","ios":"levelo://app?vid=fd75852b-aa6e-4e0d-81eb-426bc55f475e"},"vehicle_type_id":"4","last_reported":1747750276,"current_range_meters":6400,"station_id":"ce4bhmh2rcd13ifvqgmg","pricing_plan_id":"cebpf4jnsgd1na2vs0mg"},{"bike_id":"3092bcd5-15cf-401a-beb8-6d78dcd08af8","system_id":"levelo_inurba_marseille","lat":43.32361,"lon":5.38924,"is_reserved":false,"is_disabled":false,"rental_uris":{"android":"levelo://app?vid=3092bcd5-15cf-401a-beb8-6d78dcd08af8","ios":"levelo://app?vid=3092bcd5-15cf-401a-beb8-6d78dcd08af8"},"vehicle_type_id":"4","last_reported":1747750276,"current_range_meters":6400,"station_id":"ce4bhqp2rcd13ifvqhog","pricing_plan_id":"cebpf4jnsgd1na2vs0mg"},{"bike_id":"ad8cfcc6-58f5-4218-b13a-5a54e5d98fa3","system_id":"levelo_inurba_marseille","lat":43.33756,"lon":5.37411,"is_reserved":false,"is_disabled":false,"rental_uris":{"android":"levelo://app?vid=ad8cfcc6-58f5-4218-b13a-5a54e5d98fa3","ios":"levelo://app?vid=ad8cfcc6-58f5-4218-b13a-5a54e5d98fa3"},"vehicle_type_id":"4","last_reported":1747750276,"current_range_meters":6800,"station_id":"","pricing_plan_id":"cebpf4jnsgd1na2vs0mg"},{"bike_id":"ecb1e4dd-c803-4c06-8f97-6a1fbe80c879","system_id":"levelo_inurba_marseille","lat":43.30327,"lon":5.4044,"is_reserved":false,"is_disabled":false,"rental_uris":{"android":"levelo://app?vid=ecb1e4dd-c803-4c06-8f97-6a1fbe80c879","ios":"levelo://app?vid=ecb1e4dd-c803-4c06-8f97-6a1fbe80c879"},"vehicle_type_id":"4","last_reported":1747750276,"current_range_meters":6800,"station_id":"ce4bh012rcd13ifvqd10","pricing_plan_id":"cebpf4jnsgd1na2vs0mg"},{"bike_id":"bcbdbd69-7be8-42f8-a855-a4358565de8f","system_id":"levelo_inurba_marseille","lat":43.277291,"lon":5.413886,"is_reserved":false,"is_disabled":false,"rental_uris":{"android":"levelo://app?vid=bcbdbd69-7be8-42f8-a855-a4358565de8f","ios":"levelo://app?vid=bcbdbd69-7be8-42f8-a855-a4358565de8f"},"vehicle_type_id":"4","last_reported":1747750276,"current_range_meters":7200,"station_id":"","pricing_plan_id":"cebpf4jnsgd1na2vs0mg"},{"bike_id":"a3b22a45-7508-44d1-984d-e57ded39ce7c","system_id":"levelo_inurba_marseille","lat":43.30322,"lon":5.40441,"is_reserved":false,"is_disabled":false,"rental_uris":{"android":"levelo://app?vid=a3b22a45-7508-44d1-984d-e57ded39ce7c","ios":"levelo://app?vid=a3b22a45-7508-44d1-984d-e57ded39ce7c"},"vehicle_type_id":"4","last_reported":1747750276,"current_range_meters":7200,"station_id":"ce4bh012rcd13ifvqd10","pricing_plan_id":"cebpf4jnsgd1na2vs0mg"},{"bike_id":"4f3a87b5-3ed9-4002-8bc0-9296bccd331a","system_id":"levelo_inurba_marseille","lat":43.28613,"lon":5.35102,"is_reserved":false,"is_disabled":false,"rental_uris":{"android":"levelo://app?vid=4f3a87b5-3ed9-4002-8bc0-9296bccd331a","ios":"levelo://app?vid=4f3a87b5-3ed9-4002-8bc0-9296bccd331a"},"vehicle_type_id":"4","last_reported":1747750276,"current_range_meters":7200,"station_id":"ce4bhch2rcd13ifvqeug","pricing_plan_id":"cebpf4jnsgd1na2vs0mg"},{"bike_id":"670b7cd2-c343-4090-97b2-cb93517d51c3","system_id":"levelo_inurba_marseille","lat":43.26211,"lon":5.37446,"is_reserved":false,"is_disabled":false,"rental_uris":{"android":"levelo://app?vid=670b7cd2-c343-4090-97b2-cb93517d51c3","ios":"levelo://app?vid=670b7cd2-c343-4090-97b2-cb93517d51c3"},"vehicle_type_id":"4","last_reported":1747750276,"current_range_meters":7200,"station_id":"ce4bhgp2rcd13ifvqfc0","pricing_plan_id":"cebpf4jnsgd1na2vs0mg"},{"bike_id":"b8c88f20-19bb-47da-b6ad-2d9440e444bc","system_id":"levelo_inurba_marseille","lat":43.26944,"lon":5.40256,"is_reserved":false,"is_disabled":false,"rental_uris":{"android":"levelo://app?vid=b8c88f20-19bb-47da-b6ad-2d9440e444bc","ios":"levelo://app?vid=b8c88f20-19bb-47da-b6ad-2d9440e444bc"},"vehicle_type_id":"4","last_reported":1747750276,"current_range_meters":7200,"station_id":"cjm6bp8fraef2m0cb0m0","pricing_plan_id":"cebpf4jnsgd1na2vs0mg"},{"bike_id":"8f0f531d-6a65-4647-8a6f-baa3d982f42f","system_id":"levelo_inurba_marseille","lat":43.28112,"lon":5.42566,"is_reserved":false,"is_disabled":false,"rental_uris":{"android":"levelo://app?vid=8f0f531d-6a65-4647-8a6f-baa3d982f42f","ios":"levelo://app?vid=8f0f531d-6a65-4647-8a6f-baa3d982f42f"},"vehicle_type_id":"4","last_reported":1747750276,"current_range_meters":8000,"station_id":"","pricing_plan_id":"cebpf4jnsgd1na2vs0mg"},{"bike_id":"51b157ad-d8e8-4059-8ac6-1e4d3505663a","system_id":"levelo_inurba_marseille","lat":43.29035,"lon":5.39971,"is_reserved":false,"is_disabled":false,"rental_uris":{"android":"levelo://app?vid=51b157ad-d8e8-4059-8ac6-1e4d3505663a","ios":"levelo://app?vid=51b157ad-d8e8-4059-8ac6-1e4d3505663a"},"vehicle_type_id":"4","last_reported":1747750276,"current_range_meters":8000,"station_id":"ce4bh392rcd13ifvqdm0","pricing_plan_id":"cebpf4jnsgd1na2vs0mg"},{"bike_id":"7e61ea81-1303-4222-a174-6c3aeaca47ba","system_id":"levelo_inurba_marseille","lat":43.26685,"lon":5.38276,"is_reserved":false,"is_disabled":false,"rental_uris":{"android":"levelo://app?vid=7e61ea81-1303-4222-a174-6c3aeaca47ba","ios":"levelo://app?vid=7e61ea81-1303-4222-a174-6c3aeaca47ba"},"vehicle_type_id":"4","last_reported":1747750276,"current_range_meters":8000,"station_id":"ce4bhg92rcd13ifvqf90","pricing_plan_id":"cebpf4jnsgd1na2vs0mg"},{"bike_id":"4990ba5a-703f-485b-bcc9-6e3971bfa3db","system_id":"levelo_inurba_marseille","lat":43.24071,"lon":5.37736,"is_reserved":false,"is_disabled":false,"rental_uris":{"android":"levelo://app?vid=4990ba5a-703f-485b-bcc9-6e3971bfa3db","ios":"levelo://app?vid=4990ba5a-703f-485b-bcc9-6e3971bfa3db"},"vehicle_type_id":"4","last_reported":1747750276,"current_range_meters":8000,"station_id":"ce4bhnp2rcd13ifvqgvg","pricing_plan_id":"cebpf4jnsgd1na2vs0mg"},{"bike_id":"c52d52a1-3bde-4afd-a5cb-3d96be253c54","system_id":"levelo_inurba_marseille","lat":43.27939,"lon":5.4105,"is_reserved":false,"is_disabled":false,"rental_uris":{"android":"levelo://app?vid=c52d52a1-3bde-4afd-a5cb-3d96be253c54","ios":"levelo://app?vid=c52d52a1-3bde-4afd-a5cb-3d96be253c54"},"vehicle_type_id":"4","last_reported":1747750276,"current_range_meters":8000,"station_id":"ce4bhnp2rcd13ifvqh0g","pricing_plan_id":"cebpf4jnsgd1na2vs0mg"},{"bike_id":"85eaca89-9437-48d0-9bca-a254337b88db","system_id":"levelo_inurba_marseille","lat":43.274589,"lon":5.409643,"is_reserved":false,"is_disabled":false,"rental_uris":{"android":"levelo://app?vid=85eaca89-9437-48d0-9bca-a254337b88db","ios":"levelo://app?vid=85eaca89-9437-48d0-9bca-a254337b88db"},"vehicle_type_id":"4","last_reported":1747750276,"current_range_meters":8400,"station_id":"","pricing_plan_id":"cebpf4jnsgd1na2vs0mg"},{"bike_id":"bc21ac45-ab7f-4d82-8404-374d8a59663b","system_id":"levelo_inurba_marseille","lat":43.29521,"lon":5.39055,"is_reserved":false,"is_disabled":false,"rental_uris":{"android":"levelo://app?vid=bc21ac45-ab7f-4d82-8404-374d8a59663b","ios":"levelo://app?vid=bc21ac45-ab7f-4d82-8404-374d8a59663b"},"vehicle_type_id":"4","last_reported":1747750276,"current_range_meters":8400,"station_id":"ce4bh3p2rcd13ifvqdp0","pricing_plan_id":"cebpf4jnsgd1na2vs0mg"},{"bike_id":"6b33c5c8-a645-4cf9-b1ef-0c6445076710","system_id":"levelo_inurba_marseille","lat":43.2815,"lon":5.42641,"is_reserved":false,"is_disabled":false,"rental_uris":{"android":"levelo://app?vid=6b33c5c8-a645-4cf9-b1ef-0c6445076710","ios":"levelo://app?vid=6b33c5c8-a645-4cf9-b1ef-0c6445076710"},"vehicle_type_id":"4","last_reported":1747750276,"current_range_meters":8400,"station_id":"ce4bhnh2rcd13ifvqgug","pricing_plan_id":"cebpf4jnsgd1na2vs0mg"},{"bike_id":"c076ad54-d589-4eeb-ac51-e1376a33ec39","system_id":"levelo_inurba_marseille","lat":43.295511,"lon":5.422894,"is_reserved":false,"is_disabled":false,"rental_uris":{"android":"levelo://app?vid=c076ad54-d589-4eeb-ac51-e1376a33ec39","ios":"levelo://app?vid=c076ad54-d589-4eeb-ac51-e1376a33ec39"},"vehicle_type_id":"4","last_reported":1747750276,"current_range_meters":8400,"station_id":"ce4bhph2rcd13ifvqhdg","pricing_plan_id":"cebpf4jnsgd1na2vs0mg"},{"bike_id":"d0275198-7c70-46cf-8f0a-da5dfbadd216","system_id":"levelo_inurba_marseille","lat":43.31752,"lon":5.39017,"is_reserved":false,"is_disabled":false,"rental_uris":{"android":"levelo://app?vid=d0275198-7c70-46cf-8f0a-da5dfbadd216","ios":"levelo://app?vid=d0275198-7c70-46cf-8f0a-da5dfbadd216"},"vehicle_type_id":"4","last_reported":1747750276,"current_range_meters":8400,"station_id":"ce4bhqp2rcd13ifvqhng","pricing_plan_id":"cebpf4jnsgd1na2vs0mg"},{"bike_id":"d2f95b15-a273-4c4c-9135-69e5bcf87404","system_id":"levelo_inurba_marseille","lat":43.30296,"lon":5.36893,"is_reserved":false,"is_disabled":false,"rental_uris":{"android":"levelo://app?vid=d2f95b15-a273-4c4c-9135-69e5bcf87404","ios":"levelo://app?vid=d2f95b15-a273-4c4c-9135-69e5bcf87404"},"vehicle_type_id":"4","last_reported":1747750276,"current_range_meters":8800,"station_id":"ce4bgqh2rcd13ifvqc5g","pricing_plan_id":"cebpf4jnsgd1na2vs0mg"},{"bike_id":"380c3064-202c-4930-91a2-97fc78576cb3","system_id":"levelo_inurba_marseille","lat":43.260711,"lon":5.393859,"is_reserved":false,"is_disabled":false,"rental_uris":{"android":"levelo://app?vid=380c3064-202c-4930-91a2-97fc78576cb3","ios":"levelo://app?vid=380c3064-202c-4930-91a2-97fc78576cb3"},"vehicle_type_id":"4","last_reported":1747750276,"current_range_meters":8800,"station_id":"ce4bhh92rcd13ifvqfj0","pricing_plan_id":"cebpf4jnsgd1na2vs0mg"},{"bike_id":"dbae0509-85c4-48da-8854-7cf952170e6b","system_id":"levelo_inurba_marseille","lat":43.32045,"lon":5.41547,"is_reserved":false,"is_disabled":false,"rental_uris":{"android":"levelo://app?vid=dbae0509-85c4-48da-8854-7cf952170e6b","ios":"levelo://app?vid=dbae0509-85c4-48da-8854-7cf952170e6b"},"vehicle_type_id":"4","last_reported":1747750276,"current_range_meters":8800,"station_id":"ce4bhq92rcd13ifvqhkg","pricing_plan_id":"cebpf4jnsgd1na2vs0mg"},{"bike_id":"3f674ae8-1774-4119-b3a3-4e4d105fb60c","system_id":"levelo_inurba_marseille","lat":43.31243,"lon":5.36851,"is_reserved":false,"is_disabled":false,"rental_uris":{"android":"levelo://app?vid=3f674ae8-1774-4119-b3a3-4e4d105fb60c","ios":"levelo://app?vid=3f674ae8-1774-4119-b3a3-4e4d105fb60c"},"vehicle_type_id":"4","last_reported":1747750276,"current_range_meters":9200,"station_id":"ce4bgl92rcd13ifvqbq0","pricing_plan_id":"cebpf4jnsgd1na2vs0mg"},{"bike_id":"8358efc4-70ac-4830-ac9d-434c4b905917","system_id":"levelo_inurba_marseille","lat":43.30929,"lon":5.40154,"is_reserved":false,"is_disabled":false,"rental_uris":{"android":"levelo://app?vid=8358efc4-70ac-4830-ac9d-434c4b905917","ios":"levelo://app?vid=8358efc4-70ac-4830-ac9d-434c4b905917"},"vehicle_type_id":"4","last_reported":1747750276,"current_range_meters":9200,"station_id":"ce4bgvp2rcd13ifvqct0","pricing_plan_id":"cebpf4jnsgd1na2vs0mg"},{"bike_id":"9106fd9d-ed82-4f29-8933-190c7c2e6e05","system_id":"levelo_inurba_marseille","lat":43.25499,"lon":5.37648,"is_reserved":false,"is_disabled":false,"rental_uris":{"android":"levelo://app?vid=9106fd9d-ed82-4f29-8933-190c7c2e6e05","ios":"levelo://app?vid=9106fd9d-ed82-4f29-8933-190c7c2e6e05"},"vehicle_type_id":"4","last_reported":1747750276,"current_range_meters":9200,"station_id":"ce4bhh12rcd13ifvqff0","pricing_plan_id":"cebpf4jnsgd1na2vs0mg"},{"bike_id":"bffbaf88-357a-4e87-a68c-a9a27a6e01e6","system_id":"levelo_inurba_marseille","lat":43.262329,"lon":5.421229,"is_reserved":false,"is_disabled":false,"rental_uris":{"android":"levelo://app?vid=bffbaf88-357a-4e87-a68c-a9a27a6e01e6","ios":"levelo://app?vid=bffbaf88-357a-4e87-a68c-a9a27a6e01e6"},"vehicle_type_id":"4","last_reported":1747750276,"current_range_meters":9600,"station_id":"","pricing_plan_id":"cebpf4jnsgd1na2vs0mg"},{"bike_id":"2adcacbd-5fac-4e40-b510-1af4168cecfa","system_id":"levelo_inurba_marseille","lat":43.29787,"lon":5.38105,"is_reserved":false,"is_disabled":false,"rental_uris":{"android":"levelo://app?vid=2adcacbd-5fac-4e40-b510-1af4168cecfa","ios":"levelo://app?vid=2adcacbd-5fac-4e40-b510-1af4168cecfa"},"vehicle_type_id":"4","last_reported":1747750276,"current_range_meters":9600,"station_id":"ce4bgip2rcd13ifvqbb0","pricing_plan_id":"cebpf4jnsgd1na2vs0mg"},{"bike_id":"6ccd19ed-4a37-46b6-af17-86d5525575a8","system_id":"levelo_inurba_marseille","lat":43.31478,"lon":5.37334,"is_reserved":false,"is_disabled":false,"rental_uris":{"android":"levelo://app?vid=6ccd19ed-4a37-46b6-af17-86d5525575a8","ios":"levelo://app?vid=6ccd19ed-4a37-46b6-af17-86d5525575a8"},"vehicle_type_id":"4","last_reported":1747750276,"current_range_meters":9600,"station_id":"ce4bgt12rcd13ifvqcd0","pricing_plan_id":"cebpf4jnsgd1na2vs0mg"},{"bike_id":"2e869e51-794a-49bc-a871-96dce7be48a3","system_id":"levelo_inurba_marseille","lat":43.24649,"lon":5.38901,"is_reserved":false,"is_disabled":false,"rental_uris":{"android":"levelo://app?vid=2e869e51-794a-49bc-a871-96dce7be48a3","ios":"levelo://app?vid=2e869e51-794a-49bc-a871-96dce7be48a3"},"vehicle_type_id":"4","last_reported":1747750276,"current_range_meters":9600,"station_id":"ce4bhg12rcd13ifvqf60","pricing_plan_id":"cebpf4jnsgd1na2vs0mg"},{"bike_id":"ab756091-2c46-457a-8903-1638e5289e41","system_id":"levelo_inurba_marseille","lat":43.23195,"lon":5.39976,"is_reserved":false,"is_disabled":false,"rental_uris":{"android":"levelo://app?vid=ab756091-2c46-457a-8903-1638e5289e41","ios":"levelo://app?vid=ab756091-2c46-457a-8903-1638e5289e41"},"vehicle_type_id":"4","last_reported":1747750276,"current_range_meters":9600,"station_id":"ce4bhn12rcd13ifvqgqg","pricing_plan_id":"cebpf4jnsgd1na2vs0mg"},{"bike_id":"598900bc-cc96-46f3-b8f9-32958f862dd5","system_id":"levelo_inurba_marseille","lat":43.3041,"lon":5.36787,"is_reserved":false,"is_disabled":false,"rental_uris":{"android":"levelo://app?vid=598900bc-cc96-46f3-b8f9-32958f862dd5","ios":"levelo://app?vid=598900bc-cc96-46f3-b8f9-32958f862dd5"},"vehicle_type_id":"4","last_reported":1747750276,"current_range_meters":10000,"station_id":"","pricing_plan_id":"cebpf4jnsgd1na2vs0mg"},{"bike_id":"1c38bd8a-ce83-4149-89ba-e667e8717b4e","system_id":"levelo_inurba_marseille","lat":43.29787,"lon":5.37103,"is_reserved":false,"is_disabled":false,"rental_uris":{"android":"levelo://app?vid=1c38bd8a-ce83-4149-89ba-e667e8717b4e","ios":"levelo://app?vid=1c38bd8a-ce83-4149-89ba-e667e8717b4e"},"vehicle_type_id":"4","last_reported":1747750276,"current_range_meters":10000,"station_id":"ce4bgop2rcd13ifvqc1g","pricing_plan_id":"cebpf4jnsgd1na2vs0mg"},{"bike_id":"215ca4e8-500a-4429-8a3a-45bacdf6dfca","system_id":"levelo_inurba_marseille","lat":43.25498,"lon":5.37654,"is_reserved":false,"is_disabled":false,"rental_uris":{"android":"levelo://app?vid=215ca4e8-500a-4429-8a3a-45bacdf6dfca","ios":"levelo://app?vid=215ca4e8-500a-4429-8a3a-45bacdf6dfca"},"vehicle_type_id":"4","last_reported":1747750276,"current_range_meters":10000,"station_id":"ce4bhh12rcd13ifvqff0","pricing_plan_id":"cebpf4jnsgd1na2vs0mg"},{"bike_id":"d241a12a-911e-40e6-a6c8-1c72c69856ed","system_id":"levelo_inurba_marseille","lat":43.27553,"lon":5.38432,"is_reserved":false,"is_disabled":false,"rental_uris":{"android":"levelo://app?vid=d241a12a-911e-40e6-a6c8-1c72c69856ed","ios":"levelo://app?vid=d241a12a-911e-40e6-a6c8-1c72c69856ed"},"vehicle_type_id":"4","last_reported":1747750276,"current_range_meters":10000,"station_id":"ce4bhh92rcd13ifvqfi0","pricing_plan_id":"cebpf4jnsgd1na2vs0mg"},{"bike_id":"dd7fba58-2be7-4c3f-a64e-0e0ac913f5ed","system_id":"levelo_inurba_marseille","lat":43.28078,"lon":5.39655,"is_reserved":false,"is_disabled":false,"rental_uris":{"android":"levelo://app?vid=dd7fba58-2be7-4c3f-a64e-0e0ac913f5ed","ios":"levelo://app?vid=dd7fba58-2be7-4c3f-a64e-0e0ac913f5ed"},"vehicle_type_id":"4","last_reported":1747750276,"current_range_meters":10000,"station_id":"ce4bho12rcd13ifvqh2g","pricing_plan_id":"cebpf4jnsgd1na2vs0mg"},{"bike_id":"e8162579-a5ad-485f-ad83-fec8a2ebe7e1","system_id":"levelo_inurba_marseille","lat":43.26826,"lon":5.39099,"is_reserved":false,"is_disabled":false,"rental_uris":{"android":"levelo://app?vid=e8162579-a5ad-485f-ad83-fec8a2ebe7e1","ios":"levelo://app?vid=e8162579-a5ad-485f-ad83-fec8a2ebe7e1"},"vehicle_type_id":"4","last_reported":1747750276,"current_range_meters":10800,"station_id":"","pricing_plan_id":"cebpf4jnsgd1na2vs0mg"},{"bike_id":"c21ef003-f86d-4e7b-bcf0-bddf9b854fa8","system_id":"levelo_inurba_marseille","lat":43.30144,"lon":5.3877,"is_reserved":false,"is_disabled":false,"rental_uris":{"android":"levelo://app?vid=c21ef003-f86d-4e7b-bcf0-bddf9b854fa8","ios":"levelo://app?vid=c21ef003-f86d-4e7b-bcf0-bddf9b854fa8"},"vehicle_type_id":"4","last_reported":1747750276,"current_range_meters":10800,"station_id":"ce4bghh2rcd13ifvqb60","pricing_plan_id":"cebpf4jnsgd1na2vs0mg"},{"bike_id":"34d31cab-119a-477d-a9e6-dfacd6aa2351","system_id":"levelo_inurba_marseille","lat":43.290547,"lon":5.359297,"is_reserved":false,"is_disabled":false,"rental_uris":{"android":"levelo://app?vid=34d31cab-119a-477d-a9e6-dfacd6aa2351","ios":"levelo://app?vid=34d31cab-119a-477d-a9e6-dfacd6aa2351"},"vehicle_type_id":"4","last_reported":1747750276,"current_range_meters":10800,"station_id":"ce4bha92rcd13ifvqeg0","pricing_plan_id":"cebpf4jnsgd1na2vs0mg"},{"bike_id":"751c1ffc-3fe6-4f7e-98ef-23aa57e85a93","system_id":"levelo_inurba_marseille","lat":43.26557,"lon":5.37288,"is_reserved":false,"is_disabled":false,"rental_uris":{"android":"levelo://app?vid=751c1ffc-3fe6-4f7e-98ef-23aa57e85a93","ios":"levelo://app?vid=751c1ffc-3fe6-4f7e-98ef-23aa57e85a93"},"vehicle_type_id":"4","last_reported":1747750276,"current_range_meters":10800,"station_id":"ce4bhg12rcd13ifvqf70","pricing_plan_id":"cebpf4jnsgd1na2vs0mg"},{"bike_id":"71e146ad-5169-4dc5-a288-c7c746aad618","system_id":"levelo_inurba_marseille","lat":43.23193,"lon":5.39978,"is_reserved":false,"is_disabled":false,"rental_uris":{"android":"levelo://app?vid=71e146ad-5169-4dc5-a288-c7c746aad618","ios":"levelo://app?vid=71e146ad-5169-4dc5-a288-c7c746aad618"},"vehicle_type_id":"4","last_reported":1747750276,"current_range_meters":10800,"station_id":"ce4bhn12rcd13ifvqgqg","pricing_plan_id":"cebpf4jnsgd1na2vs0mg"},{"bike_id":"04235778-16c2-40e6-b3f3-9c42140beee8","system_id":"levelo_inurba_marseille","lat":43.31887,"lon":5.40736,"is_reserved":false,"is_disabled":false,"rental_uris":{"android":"levelo://app?vid=04235778-16c2-40e6-b3f3-9c42140beee8","ios":"levelo://app?vid=04235778-16c2-40e6-b3f3-9c42140beee8"},"vehicle_type_id":"4","last_reported":1747750276,"current_range_meters":10800,"station_id":"ce4bhq12rcd13ifvqhig","pricing_plan_id":"cebpf4jnsgd1na2vs0mg"},{"bike_id":"dbbe1399-7e4f-49b0-b0b4-9c115fb656b7","system_id":"levelo_inurba_marseille","lat":43.23191,"lon":5.35555,"is_reserved":false,"is_disabled":false,"rental_uris":{"android":"levelo://app?vid=dbbe1399-7e4f-49b0-b0b4-9c115fb656b7","ios":"levelo://app?vid=dbbe1399-7e4f-49b0-b0b4-9c115fb656b7"},"vehicle_type_id":"4","last_reported":1747750276,"current_range_meters":10800,"station_id":"ce4bhu92rcd13ifvqi70","pricing_plan_id":"cebpf4jnsgd1na2vs0mg"},{"bike_id":"1a340bac-8012-4c7c-b50a-247d19f083a9","system_id":"levelo_inurba_marseille","lat":43.21191,"lon":5.35071,"is_reserved":false,"is_disabled":false,"rental_uris":{"android":"levelo://app?vid=1a340bac-8012-4c7c-b50a-247d19f083a9","ios":"levelo://app?vid=1a340bac-8012-4c7c-b50a-247d19f083a9"},"vehicle_type_id":"4","last_reported":1747750276,"current_range_meters":10800,"station_id":"st_cvj6sg6p6f1abm77japg","pricing_plan_id":"cebpf4jnsgd1na2vs0mg"},{"bike_id":"33e5cbd5-31c8-4fa0-9d70-cf685e1c2a15","system_id":"levelo_inurba_marseille","lat":43.25141,"lon":5.40343,"is_reserved":false,"is_disabled":false,"rental_uris":{"android":"levelo://app?vid=33e5cbd5-31c8-4fa0-9d70-cf685e1c2a15","ios":"levelo://app?vid=33e5cbd5-31c8-4fa0-9d70-cf685e1c2a15"},"vehicle_type_id":"4","last_reported":1747750276,"current_range_meters":11200,"station_id":"ce4bhlh2rcd13ifvqgig","pricing_plan_id":"cebpf4jnsgd1na2vs0mg"},{"bike_id":"5ea7a3aa-164e-480d-9c67-f53bfa6f1590","system_id":"levelo_inurba_marseille","lat":43.298034,"lon":5.380946,"is_reserved":false,"is_disabled":false,"rental_uris":{"android":"levelo://app?vid=5ea7a3aa-164e-480d-9c67-f53bfa6f1590","ios":"levelo://app?vid=5ea7a3aa-164e-480d-9c67-f53bfa6f1590"},"vehicle_type_id":"4","last_reported":1747750276,"current_range_meters":11600,"station_id":"ce4bgip2rcd13ifvqbb0","pricing_plan_id":"cebpf4jnsgd1na2vs0mg"},{"bike_id":"a385e165-5cae-4747-8058-92cf53686be2","system_id":"levelo_inurba_marseille","lat":43.2846,"lon":5.35881,"is_reserved":false,"is_disabled":false,"rental_uris":{"android":"levelo://app?vid=a385e165-5cae-4747-8058-92cf53686be2","ios":"levelo://app?vid=a385e165-5cae-4747-8058-92cf53686be2"},"vehicle_type_id":"4","last_reported":1747750276,"current_range_meters":11600,"station_id":"ce4bhah2rcd13ifvqei0","pricing_plan_id":"cebpf4jnsgd1na2vs0mg"},{"bike_id":"b4cffc18-bb2f-4281-9143-2ebb81e89c43","system_id":"levelo_inurba_marseille","lat":43.26572,"lon":5.38998,"is_reserved":false,"is_disabled":false,"rental_uris":{"android":"levelo://app?vid=b4cffc18-bb2f-4281-9143-2ebb81e89c43","ios":"levelo://app?vid=b4cffc18-bb2f-4281-9143-2ebb81e89c43"},"vehicle_type_id":"4","last_reported":1747750276,"current_range_meters":11600,"station_id":"ce4bhe12rcd13ifvqf30","pricing_plan_id":"cebpf4jnsgd1na2vs0mg"},{"bike_id":"59b8a132-4666-485c-b6ad-3e889f0d9322","system_id":"levelo_inurba_marseille","lat":43.254974,"lon":5.376549,"is_reserved":false,"is_disabled":false,"rental_uris":{"android":"levelo://app?vid=59b8a132-4666-485c-b6ad-3e889f0d9322","ios":"levelo://app?vid=59b8a132-4666-485c-b6ad-3e889f0d9322"},"vehicle_type_id":"4","last_reported":1747750276,"current_range_meters":11600,"station_id":"ce4bhh12rcd13ifvqff0","pricing_plan_id":"cebpf4jnsgd1na2vs0mg"},{"bike_id":"3415d656-c8a7-4ecc-892c-4c36b3397b03","system_id":"levelo_inurba_marseille","lat":43.26806,"lon":5.40274,"is_reserved":false,"is_disabled":false,"rental_uris":{"android":"levelo://app?vid=3415d656-c8a7-4ecc-892c-4c36b3397b03","ios":"levelo://app?vid=3415d656-c8a7-4ecc-892c-4c36b3397b03"},"vehicle_type_id":"4","last_reported":1747750276,"current_range_meters":11600,"station_id":"ce501612rcd8frsf0b60","pricing_plan_id":"cebpf4jnsgd1na2vs0mg"},{"bike_id":"3552fbf2-b43a-446f-93f5-d695fc251b73","system_id":"levelo_inurba_marseille","lat":43.25178,"lon":5.37557,"is_reserved":false,"is_disabled":false,"rental_uris":{"android":"levelo://app?vid=3552fbf2-b43a-446f-93f5-d695fc251b73","ios":"levelo://app?vid=3552fbf2-b43a-446f-93f5-d695fc251b73"},"vehicle_type_id":"4","last_reported":1747750276,"current_range_meters":12000,"station_id":"","pricing_plan_id":"cebpf4jnsgd1na2vs0mg"},{"bike_id":"44ffd575-5bd8-4f79-a615-dadcf776f47b","system_id":"levelo_inurba_marseille","lat":43.29882,"lon":5.37563,"is_reserved":false,"is_disabled":false,"rental_uris":{"android":"levelo://app?vid=44ffd575-5bd8-4f79-a615-dadcf776f47b","ios":"levelo://app?vid=44ffd575-5bd8-4f79-a615-dadcf776f47b"},"vehicle_type_id":"4","last_reported":1747750276,"current_range_meters":12000,"station_id":"","pricing_plan_id":"cebpf4jnsgd1na2vs0mg"},{"bike_id":"b9348442-7f19-4b0e-8e1c-b1a6483f4680","system_id":"levelo_inurba_marseille","lat":43.30154,"lon":5.38095,"is_reserved":false,"is_disabled":false,"rental_uris":{"android":"levelo://app?vid=b9348442-7f19-4b0e-8e1c-b1a6483f4680","ios":"levelo://app?vid=b9348442-7f19-4b0e-8e1c-b1a6483f4680"},"vehicle_type_id":"4","last_reported":1747750276,"current_range_meters":12000,"station_id":"ce4bgjp2rcd13ifvqbh0","pricing_plan_id":"cebpf4jnsgd1na2vs0mg"},{"bike_id":"f5343ba4-e228-4861-87d1-df1b6fc8be8a","system_id":"levelo_inurba_marseille","lat":43.279505,"lon":5.410448,"is_reserved":false,"is_disabled":false,"rental_uris":{"android":"levelo://app?vid=f5343ba4-e228-4861-87d1-df1b6fc8be8a","ios":"levelo://app?vid=f5343ba4-e228-4861-87d1-df1b6fc8be8a"},"vehicle_type_id":"4","last_reported":1747750276,"current_range_meters":12000,"station_id":"ce4bhnp2rcd13ifvqh0g","pricing_plan_id":"cebpf4jnsgd1na2vs0mg"},{"bike_id":"24134b30-f679-4285-a2f7-10efbcb9499b","system_id":"levelo_inurba_marseille","lat":43.31764,"lon":5.39028,"is_reserved":false,"is_disabled":false,"rental_uris":{"android":"levelo://app?vid=24134b30-f679-4285-a2f7-10efbcb9499b","ios":"levelo://app?vid=24134b30-f679-4285-a2f7-10efbcb9499b"},"vehicle_type_id":"4","last_reported":1747750276,"current_range_meters":12000,"station_id":"ce4bhqp2rcd13ifvqhng","pricing_plan_id":"cebpf4jnsgd1na2vs0mg"},{"bike_id":"a03d5265-da37-4e54-8713-4c8aac46e5e1","system_id":"levelo_inurba_marseille","lat":43.26039,"lon":5.41752,"is_reserved":false,"is_disabled":false,"rental_uris":{"android":"levelo://app?vid=a03d5265-da37-4e54-8713-4c8aac46e5e1","ios":"levelo://app?vid=a03d5265-da37-4e54-8713-4c8aac46e5e1"},"vehicle_type_id":"4","last_reported":1747750276,"current_range_meters":12400,"station_id":"","pricing_plan_id":"cebpf4jnsgd1na2vs0mg"},{"bike_id":"c3c11b11-8507-45b4-bd48-1e3bdd46fbbe","system_id":"levelo_inurba_marseille","lat":43.2319,"lon":5.39993,"is_reserved":false,"is_disabled":false,"rental_uris":{"android":"levelo://app?vid=c3c11b11-8507-45b4-bd48-1e3bdd46fbbe","ios":"levelo://app?vid=c3c11b11-8507-45b4-bd48-1e3bdd46fbbe"},"vehicle_type_id":"4","last_reported":1747750276,"current_range_meters":12400,"station_id":"ce4bhn12rcd13ifvqgqg","pricing_plan_id":"cebpf4jnsgd1na2vs0mg"},{"bike_id":"311b04b8-1518-49e8-811f-36883a7b7fbc","system_id":"levelo_inurba_marseille","lat":43.298065,"lon":5.380928,"is_reserved":false,"is_disabled":false,"rental_uris":{"android":"levelo://app?vid=311b04b8-1518-49e8-811f-36883a7b7fbc","ios":"levelo://app?vid=311b04b8-1518-49e8-811f-36883a7b7fbc"},"vehicle_type_id":"4","last_reported":1747750276,"current_range_meters":12800,"station_id":"ce4bgip2rcd13ifvqbb0","pricing_plan_id":"cebpf4jnsgd1na2vs0mg"},{"bike_id":"4f13f9f9-16ff-4a15-947b-39be74fa93cd","system_id":"levelo_inurba_marseille","lat":43.259297,"lon":5.408956,"is_reserved":false,"is_disabled":false,"rental_uris":{"android":"levelo://app?vid=4f13f9f9-16ff-4a15-947b-39be74fa93cd","ios":"levelo://app?vid=4f13f9f9-16ff-4a15-947b-39be74fa93cd"},"vehicle_type_id":"4","last_reported":1747750276,"current_range_meters":12800,"station_id":"ce4bhm92rcd13ifvqglg","pricing_plan_id":"cebpf4jnsgd1na2vs0mg"},{"bike_id":"88f3fbe8-c420-4545-91c1-85d35e7214fa","system_id":"levelo_inurba_marseille","lat":43.24822,"lon":5.37444,"is_reserved":false,"is_disabled":false,"rental_uris":{"android":"levelo://app?vid=88f3fbe8-c420-4545-91c1-85d35e7214fa","ios":"levelo://app?vid=88f3fbe8-c420-4545-91c1-85d35e7214fa"},"vehicle_type_id":"4","last_reported":1747750276,"current_range_meters":13600,"station_id":"ce4bhgh2rcd13ifvqfb0","pricing_plan_id":"cebpf4jnsgd1na2vs0mg"},{"bike_id":"d222c036-c02a-40db-bb80-83d7b7358871","system_id":"levelo_inurba_marseille","lat":43.33729,"lon":5.3919,"is_reserved":false,"is_disabled":false,"rental_uris":{"android":"levelo://app?vid=d222c036-c02a-40db-bb80-83d7b7358871","ios":"levelo://app?vid=d222c036-c02a-40db-bb80-83d7b7358871"},"vehicle_type_id":"4","last_reported":1747750276,"current_range_meters":13600,"station_id":"ce4bhr92rcd13ifvqhsg","pricing_plan_id":"cebpf4jnsgd1na2vs0mg"},{"bike_id":"6abf9179-5919-4aea-b8e3-feb1f3d71154","system_id":"levelo_inurba_marseille","lat":43.32369,"lon":5.36741,"is_reserved":false,"is_disabled":false,"rental_uris":{"android":"levelo://app?vid=6abf9179-5919-4aea-b8e3-feb1f3d71154","ios":"levelo://app?vid=6abf9179-5919-4aea-b8e3-feb1f3d71154"},"vehicle_type_id":"4","last_reported":1747750276,"current_range_meters":13600,"station_id":"ce4bhsh2rcd13ifvqi2g","pricing_plan_id":"cebpf4jnsgd1na2vs0mg"},{"bike_id":"22ac27e5-e330-4e04-9cdd-13947a1aee24","system_id":"levelo_inurba_marseille","lat":43.29799,"lon":5.38094,"is_reserved":false,"is_disabled":false,"rental_uris":{"android":"levelo://app?vid=22ac27e5-e330-4e04-9cdd-13947a1aee24","ios":"levelo://app?vid=22ac27e5-e330-4e04-9cdd-13947a1aee24"},"vehicle_type_id":"4","last_reported":1747750276,"current_range_meters":14000,"station_id":"ce4bgip2rcd13ifvqbb0","pricing_plan_id":"cebpf4jnsgd1na2vs0mg"},{"bike_id":"45e20c01-07b8-4147-8c2b-8eb0c77fbd3c","system_id":"levelo_inurba_marseille","lat":43.29797,"lon":5.38103,"is_reserved":false,"is_disabled":false,"rental_uris":{"android":"levelo://app?vid=45e20c01-07b8-4147-8c2b-8eb0c77fbd3c","ios":"levelo://app?vid=45e20c01-07b8-4147-8c2b-8eb0c77fbd3c"},"vehicle_type_id":"4","last_reported":1747750276,"current_range_meters":14000,"station_id":"ce4bgip2rcd13ifvqbb0","pricing_plan_id":"cebpf4jnsgd1na2vs0mg"},{"bike_id":"d2308812-138b-41a3-b8c8-ae2b50f82ef1","system_id":"levelo_inurba_marseille","lat":43.25113,"lon":5.40321,"is_reserved":false,"is_disabled":false,"rental_uris":{"android":"levelo://app?vid=d2308812-138b-41a3-b8c8-ae2b50f82ef1","ios":"levelo://app?vid=d2308812-138b-41a3-b8c8-ae2b50f82ef1"},"vehicle_type_id":"4","last_reported":1747750276,"current_range_meters":14000,"station_id":"ce4bhlh2rcd13ifvqgig","pricing_plan_id":"cebpf4jnsgd1na2vs0mg"},{"bike_id":"dc80936a-51b4-4ef9-b71e-e259b58f2ac3","system_id":"levelo_inurba_marseille","lat":43.23194,"lon":5.39985,"is_reserved":false,"is_disabled":false,"rental_uris":{"android":"levelo://app?vid=dc80936a-51b4-4ef9-b71e-e259b58f2ac3","ios":"levelo://app?vid=dc80936a-51b4-4ef9-b71e-e259b58f2ac3"},"vehicle_type_id":"4","last_reported":1747750276,"current_range_meters":14000,"station_id":"ce4bhn12rcd13ifvqgqg","pricing_plan_id":"cebpf4jnsgd1na2vs0mg"},{"bike_id":"bfadeaec-216b-47d1-99b4-74d81f9ee763","system_id":"levelo_inurba_marseille","lat":43.32123,"lon":5.36794,"is_reserved":false,"is_disabled":false,"rental_uris":{"android":"levelo://app?vid=bfadeaec-216b-47d1-99b4-74d81f9ee763","ios":"levelo://app?vid=bfadeaec-216b-47d1-99b4-74d81f9ee763"},"vehicle_type_id":"4","last_reported":1747750276,"current_range_meters":14000,"station_id":"ce4bhrh2rcd13ifvqhug","pricing_plan_id":"cebpf4jnsgd1na2vs0mg"},{"bike_id":"2bc0ac61-689e-4842-b330-ccf42e338a4d","system_id":"levelo_inurba_marseille","lat":43.2739,"lon":5.43416,"is_reserved":false,"is_disabled":false,"rental_uris":{"android":"levelo://app?vid=2bc0ac61-689e-4842-b330-ccf42e338a4d","ios":"levelo://app?vid=2bc0ac61-689e-4842-b330-ccf42e338a4d"},"vehicle_type_id":"4","last_reported":1747750276,"current_range_meters":14400,"station_id":"","pricing_plan_id":"cebpf4jnsgd1na2vs0mg"},{"bike_id":"3137d4d1-3c0d-4b87-920b-8c52cc30d468","system_id":"levelo_inurba_marseille","lat":43.295934,"lon":5.381011,"is_reserved":false,"is_disabled":false,"rental_uris":{"android":"levelo://app?vid=3137d4d1-3c0d-4b87-920b-8c52cc30d468","ios":"levelo://app?vid=3137d4d1-3c0d-4b87-920b-8c52cc30d468"},"vehicle_type_id":"4","last_reported":1747750276,"current_range_meters":14400,"station_id":"ce4bgl12rcd13ifvqbo0","pricing_plan_id":"cebpf4jnsgd1na2vs0mg"},{"bike_id":"21bed16d-40e4-4d9e-bf73-c0bac1ae6b08","system_id":"levelo_inurba_marseille","lat":43.29251,"lon":5.40904,"is_reserved":false,"is_disabled":false,"rental_uris":{"android":"levelo://app?vid=21bed16d-40e4-4d9e-bf73-c0bac1ae6b08","ios":"levelo://app?vid=21bed16d-40e4-4d9e-bf73-c0bac1ae6b08"},"vehicle_type_id":"4","last_reported":1747750276,"current_range_meters":14400,"station_id":"ce4bh192rcd13ifvqdc0","pricing_plan_id":"cebpf4jnsgd1na2vs0mg"},{"bike_id":"524f0245-10ac-431c-9284-3d203f593704","system_id":"levelo_inurba_marseille","lat":43.25492,"lon":5.37649,"is_reserved":false,"is_disabled":false,"rental_uris":{"android":"levelo://app?vid=524f0245-10ac-431c-9284-3d203f593704","ios":"levelo://app?vid=524f0245-10ac-431c-9284-3d203f593704"},"vehicle_type_id":"4","last_reported":1747750276,"current_range_meters":14400,"station_id":"ce4bhh12rcd13ifvqff0","pricing_plan_id":"cebpf4jnsgd1na2vs0mg"},{"bike_id":"334cb52f-4466-4eb8-b3e7-14acb974b80d","system_id":"levelo_inurba_marseille","lat":43.29865,"lon":5.39741,"is_reserved":false,"is_disabled":false,"rental_uris":{"android":"levelo://app?vid=334cb52f-4466-4eb8-b3e7-14acb974b80d","ios":"levelo://app?vid=334cb52f-4466-4eb8-b3e7-14acb974b80d"},"vehicle_type_id":"4","last_reported":1747750276,"current_range_meters":14800,"station_id":"ce4bh0h2rcd13ifvqd50","pricing_plan_id":"cebpf4jnsgd1na2vs0mg"},{"bike_id":"8fa14475-1e1b-489c-bf23-a6a4890168da","system_id":"levelo_inurba_marseille","lat":43.28079,"lon":5.39662,"is_reserved":false,"is_disabled":false,"rental_uris":{"android":"levelo://app?vid=8fa14475-1e1b-489c-bf23-a6a4890168da","ios":"levelo://app?vid=8fa14475-1e1b-489c-bf23-a6a4890168da"},"vehicle_type_id":"4","last_reported":1747750276,"current_range_meters":14800,"station_id":"ce4bho12rcd13ifvqh2g","pricing_plan_id":"cebpf4jnsgd1na2vs0mg"},{"bike_id":"36b219f4-8e00-42fb-86ec-f0967e51aadf","system_id":"levelo_inurba_marseille","lat":43.30532,"lon":5.3651,"is_reserved":false,"is_disabled":false,"rental_uris":{"android":"levelo://app?vid=36b219f4-8e00-42fb-86ec-f0967e51aadf","ios":"levelo://app?vid=36b219f4-8e00-42fb-86ec-f0967e51aadf"},"vehicle_type_id":"4","last_reported":1747750276,"current_range_meters":15200,"station_id":"","pricing_plan_id":"cebpf4jnsgd1na2vs0mg"},{"bike_id":"745c2efb-6134-4142-add0-99fefdd8c832","system_id":"levelo_inurba_marseille","lat":43.2997,"lon":5.38498,"is_reserved":false,"is_disabled":false,"rental_uris":{"android":"levelo://app?vid=745c2efb-6134-4142-add0-99fefdd8c832","ios":"levelo://app?vid=745c2efb-6134-4142-add0-99fefdd8c832"},"vehicle_type_id":"4","last_reported":1747750276,"current_range_meters":15200,"station_id":"ce4bgj92rcd13ifvqbd0","pricing_plan_id":"cebpf4jnsgd1na2vs0mg"},{"bike_id":"57ab022b-e8d2-4488-bc1c-d41a29393d21","system_id":"levelo_inurba_marseille","lat":43.30148,"lon":5.37414,"is_reserved":false,"is_disabled":false,"rental_uris":{"android":"levelo://app?vid=57ab022b-e8d2-4488-bc1c-d41a29393d21","ios":"levelo://app?vid=57ab022b-e8d2-4488-bc1c-d41a29393d21"},"vehicle_type_id":"4","last_reported":1747750276,"current_range_meters":15200,"station_id":"ce4bgs92rcd13ifvqcc0","pricing_plan_id":"cebpf4jnsgd1na2vs0mg"},{"bike_id":"135bf5a7-4240-46a1-997e-daebb296ffdb","system_id":"levelo_inurba_marseille","lat":43.309148,"lon":5.402914,"is_reserved":false,"is_disabled":false,"rental_uris":{"android":"levelo://app?vid=135bf5a7-4240-46a1-997e-daebb296ffdb","ios":"levelo://app?vid=135bf5a7-4240-46a1-997e-daebb296ffdb"},"vehicle_type_id":"4","last_reported":1747750276,"current_range_meters":15200,"station_id":"ce4bgvp2rcd13ifvqct0","pricing_plan_id":"cebpf4jnsgd1na2vs0mg"},{"bike_id":"67ca9ce4-f5ca-43ee-a922-7977eaf8fa24","system_id":"levelo_inurba_marseille","lat":43.24549,"lon":5.39521,"is_reserved":false,"is_disabled":false,"rental_uris":{"android":"levelo://app?vid=67ca9ce4-f5ca-43ee-a922-7977eaf8fa24","ios":"levelo://app?vid=67ca9ce4-f5ca-43ee-a922-7977eaf8fa24"},"vehicle_type_id":"4","last_reported":1747750276,"current_range_meters":15200,"station_id":"ce4bhlp2rcd13ifvqgjg","pricing_plan_id":"cebpf4jnsgd1na2vs0mg"},{"bike_id":"606508ee-25bb-4724-83f0-1e13e508df37","system_id":"levelo_inurba_marseille","lat":43.32465,"lon":5.36581,"is_reserved":false,"is_disabled":false,"rental_uris":{"android":"levelo://app?vid=606508ee-25bb-4724-83f0-1e13e508df37","ios":"levelo://app?vid=606508ee-25bb-4724-83f0-1e13e508df37"},"vehicle_type_id":"4","last_reported":1747750276,"current_range_meters":15200,"station_id":"ce4bhs12rcd13ifvqhvg","pricing_plan_id":"cebpf4jnsgd1na2vs0mg"},{"bike_id":"2f87defc-f3b4-41a9-9e70-9b19a5a011b8","system_id":"levelo_inurba_marseille","lat":43.29934,"lon":5.36513,"is_reserved":false,"is_disabled":false,"rental_uris":{"android":"levelo://app?vid=2f87defc-f3b4-41a9-9e70-9b19a5a011b8","ios":"levelo://app?vid=2f87defc-f3b4-41a9-9e70-9b19a5a011b8"},"vehicle_type_id":"4","last_reported":1747750276,"current_range_meters":16000,"station_id":"ce4bgm92rcd13ifvqbr0","pricing_plan_id":"cebpf4jnsgd1na2vs0mg"},{"bike_id":"c64832ea-cbd0-47ba-a7f9-dddb8ed879b4","system_id":"levelo_inurba_marseille","lat":43.30525,"lon":5.36544,"is_reserved":false,"is_disabled":false,"rental_uris":{"android":"levelo://app?vid=c64832ea-cbd0-47ba-a7f9-dddb8ed879b4","ios":"levelo://app?vid=c64832ea-cbd0-47ba-a7f9-dddb8ed879b4"},"vehicle_type_id":"4","last_reported":1747750276,"current_range_meters":16000,"station_id":"ce4bgs12rcd13ifvqcag","pricing_plan_id":"cebpf4jnsgd1na2vs0mg"},{"bike_id":"fb417144-e866-41fc-bfd9-0d80a798abcb","system_id":"levelo_inurba_marseille","lat":43.3054,"lon":5.36717,"is_reserved":false,"is_disabled":false,"rental_uris":{"android":"levelo://app?vid=fb417144-e866-41fc-bfd9-0d80a798abcb","ios":"levelo://app?vid=fb417144-e866-41fc-bfd9-0d80a798abcb"},"vehicle_type_id":"4","last_reported":1747750276,"current_range_meters":16400,"station_id":"ce4bgrp2rcd13ifvqc9g","pricing_plan_id":"cebpf4jnsgd1na2vs0mg"},{"bike_id":"ba153afa-fe83-4465-8d17-dc99d84deee3","system_id":"levelo_inurba_marseille","lat":43.31487,"lon":5.37312,"is_reserved":false,"is_disabled":false,"rental_uris":{"android":"levelo://app?vid=ba153afa-fe83-4465-8d17-dc99d84deee3","ios":"levelo://app?vid=ba153afa-fe83-4465-8d17-dc99d84deee3"},"vehicle_type_id":"4","last_reported":1747750276,"current_range_meters":16400,"station_id":"ce4bgt12rcd13ifvqcd0","pricing_plan_id":"cebpf4jnsgd1na2vs0mg"},{"bike_id":"a7b2653b-d25e-4edc-ad68-7fca5584198b","system_id":"levelo_inurba_marseille","lat":43.29284,"lon":5.40119,"is_reserved":false,"is_disabled":false,"rental_uris":{"android":"levelo://app?vid=a7b2653b-d25e-4edc-ad68-7fca5584198b","ios":"levelo://app?vid=a7b2653b-d25e-4edc-ad68-7fca5584198b"},"vehicle_type_id":"4","last_reported":1747750276,"current_range_meters":16400,"station_id":"ce4bh312rcd13ifvqdk0","pricing_plan_id":"cebpf4jnsgd1na2vs0mg"},{"bike_id":"56cf80a0-6e20-4517-b7ab-ff4ac3730a84","system_id":"levelo_inurba_marseille","lat":43.23186,"lon":5.39983,"is_reserved":false,"is_disabled":false,"rental_uris":{"android":"levelo://app?vid=56cf80a0-6e20-4517-b7ab-ff4ac3730a84","ios":"levelo://app?vid=56cf80a0-6e20-4517-b7ab-ff4ac3730a84"},"vehicle_type_id":"4","last_reported":1747750276,"current_range_meters":16400,"station_id":"ce4bhn12rcd13ifvqgqg","pricing_plan_id":"cebpf4jnsgd1na2vs0mg"},{"bike_id":"240abe51-9bef-4a28-a742-c5657039cc84","system_id":"levelo_inurba_marseille","lat":43.28157,"lon":5.42643,"is_reserved":false,"is_disabled":false,"rental_uris":{"android":"levelo://app?vid=240abe51-9bef-4a28-a742-c5657039cc84","ios":"levelo://app?vid=240abe51-9bef-4a28-a742-c5657039cc84"},"vehicle_type_id":"4","last_reported":1747750276,"current_range_meters":16400,"station_id":"ce4bhnh2rcd13ifvqgug","pricing_plan_id":"cebpf4jnsgd1na2vs0mg"},{"bike_id":"f963d03f-7f2f-4ff2-bd88-72c46c0d57fc","system_id":"levelo_inurba_marseille","lat":43.27938,"lon":5.41051,"is_reserved":false,"is_disabled":false,"rental_uris":{"android":"levelo://app?vid=f963d03f-7f2f-4ff2-bd88-72c46c0d57fc","ios":"levelo://app?vid=f963d03f-7f2f-4ff2-bd88-72c46c0d57fc"},"vehicle_type_id":"4","last_reported":1747750276,"current_range_meters":16400,"station_id":"ce4bhnp2rcd13ifvqh0g","pricing_plan_id":"cebpf4jnsgd1na2vs0mg"},{"bike_id":"5765434c-77b5-41b5-8b14-b978e4d6dd10","system_id":"levelo_inurba_marseille","lat":43.212139,"lon":5.350869,"is_reserved":false,"is_disabled":false,"rental_uris":{"android":"levelo://app?vid=5765434c-77b5-41b5-8b14-b978e4d6dd10","ios":"levelo://app?vid=5765434c-77b5-41b5-8b14-b978e4d6dd10"},"vehicle_type_id":"4","last_reported":1747750276,"current_range_meters":16400,"station_id":"st_cvj6sg6p6f1abm77japg","pricing_plan_id":"cebpf4jnsgd1na2vs0mg"},{"bike_id":"d22b0fd0-78a6-46fc-aad8-ce2ca2a629e3","system_id":"levelo_inurba_marseille","lat":43.212013,"lon":5.350723,"is_reserved":false,"is_disabled":false,"rental_uris":{"android":"levelo://app?vid=d22b0fd0-78a6-46fc-aad8-ce2ca2a629e3","ios":"levelo://app?vid=d22b0fd0-78a6-46fc-aad8-ce2ca2a629e3"},"vehicle_type_id":"4","last_reported":1747750276,"current_range_meters":16400,"station_id":"st_cvj6sg6p6f1abm77japg","pricing_plan_id":"cebpf4jnsgd1na2vs0mg"},{"bike_id":"accac9b4-bd67-49c9-a3d1-a519c6bd4b05","system_id":"levelo_inurba_marseille","lat":43.29794,"lon":5.38085,"is_reserved":false,"is_disabled":false,"rental_uris":{"android":"levelo://app?vid=accac9b4-bd67-49c9-a3d1-a519c6bd4b05","ios":"levelo://app?vid=accac9b4-bd67-49c9-a3d1-a519c6bd4b05"},"vehicle_type_id":"4","last_reported":1747750276,"current_range_meters":16800,"station_id":"ce4bgip2rcd13ifvqbb0","pricing_plan_id":"cebpf4jnsgd1na2vs0mg"},{"bike_id":"89267c4b-63bd-491c-916c-9dc4f14515dd","system_id":"levelo_inurba_marseille","lat":43.30978,"lon":5.39036,"is_reserved":false,"is_disabled":false,"rental_uris":{"android":"levelo://app?vid=89267c4b-63bd-491c-916c-9dc4f14515dd","ios":"levelo://app?vid=89267c4b-63bd-491c-916c-9dc4f14515dd"},"vehicle_type_id":"4","last_reported":1747750276,"current_range_meters":16800,"station_id":"ce4bgup2rcd13ifvqco0","pricing_plan_id":"cebpf4jnsgd1na2vs0mg"},{"bike_id":"bf1cf563-8208-4e0d-80ce-fc6599a3e19e","system_id":"levelo_inurba_marseille","lat":43.30239,"lon":5.40068,"is_reserved":false,"is_disabled":false,"rental_uris":{"android":"levelo://app?vid=bf1cf563-8208-4e0d-80ce-fc6599a3e19e","ios":"levelo://app?vid=bf1cf563-8208-4e0d-80ce-fc6599a3e19e"},"vehicle_type_id":"4","last_reported":1747750276,"current_range_meters":16800,"station_id":"ce4bgvh2rcd13ifvqcs0","pricing_plan_id":"cebpf4jnsgd1na2vs0mg"},{"bike_id":"0abcfe10-e11c-4b2c-85a5-d7773987ce56","system_id":"levelo_inurba_marseille","lat":43.30885,"lon":5.39645,"is_reserved":false,"is_disabled":false,"rental_uris":{"android":"levelo://app?vid=0abcfe10-e11c-4b2c-85a5-d7773987ce56","ios":"levelo://app?vid=0abcfe10-e11c-4b2c-85a5-d7773987ce56"},"vehicle_type_id":"4","last_reported":1747750276,"current_range_meters":16800,"station_id":"ce4bh012rcd13ifvqcv0","pricing_plan_id":"cebpf4jnsgd1na2vs0mg"},{"bike_id":"ad137882-3dda-426b-a055-3792c4184664","system_id":"levelo_inurba_marseille","lat":43.279189,"lon":5.395771,"is_reserved":false,"is_disabled":false,"rental_uris":{"android":"levelo://app?vid=ad137882-3dda-426b-a055-3792c4184664","ios":"levelo://app?vid=ad137882-3dda-426b-a055-3792c4184664"},"vehicle_type_id":"4","last_reported":1747750276,"current_range_meters":16800,"station_id":"ce4bhf92rcd13ifvqf40","pricing_plan_id":"cebpf4jnsgd1na2vs0mg"},{"bike_id":"a253706b-1cb9-4ca4-9560-173eeb92ac1f","system_id":"levelo_inurba_marseille","lat":43.307952,"lon":5.435262,"is_reserved":false,"is_disabled":false,"rental_uris":{"android":"levelo://app?vid=a253706b-1cb9-4ca4-9560-173eeb92ac1f","ios":"levelo://app?vid=a253706b-1cb9-4ca4-9560-173eeb92ac1f"},"vehicle_type_id":"4","last_reported":1747750276,"current_range_meters":16800,"station_id":"ce4bhph2rcd13ifvqheg","pricing_plan_id":"cebpf4jnsgd1na2vs0mg"},{"bike_id":"0e849e1a-3699-4614-9471-9abbd74e1c35","system_id":"levelo_inurba_marseille","lat":43.31758,"lon":5.39013,"is_reserved":false,"is_disabled":false,"rental_uris":{"android":"levelo://app?vid=0e849e1a-3699-4614-9471-9abbd74e1c35","ios":"levelo://app?vid=0e849e1a-3699-4614-9471-9abbd74e1c35"},"vehicle_type_id":"4","last_reported":1747750276,"current_range_meters":16800,"station_id":"ce4bhqp2rcd13ifvqhng","pricing_plan_id":"cebpf4jnsgd1na2vs0mg"},{"bike_id":"6c50c7b3-ab62-4587-8b9c-25c790265ab2","system_id":"levelo_inurba_marseille","lat":43.29264,"lon":5.37623,"is_reserved":false,"is_disabled":false,"rental_uris":{"android":"levelo://app?vid=6c50c7b3-ab62-4587-8b9c-25c790265ab2","ios":"levelo://app?vid=6c50c7b3-ab62-4587-8b9c-25c790265ab2"},"vehicle_type_id":"4","last_reported":1747750276,"current_range_meters":17200,"station_id":"ce4bgi12rcd13ifvqb80","pricing_plan_id":"cebpf4jnsgd1na2vs0mg"},{"bike_id":"36eb56f3-18d1-4360-9653-6abafee37fa4","system_id":"levelo_inurba_marseille","lat":43.30141,"lon":5.38093,"is_reserved":false,"is_disabled":false,"rental_uris":{"android":"levelo://app?vid=36eb56f3-18d1-4360-9653-6abafee37fa4","ios":"levelo://app?vid=36eb56f3-18d1-4360-9653-6abafee37fa4"},"vehicle_type_id":"4","last_reported":1747750276,"current_range_meters":17200,"station_id":"ce4bgjp2rcd13ifvqbh0","pricing_plan_id":"cebpf4jnsgd1na2vs0mg"},{"bike_id":"e955ee75-97fa-4e62-aaf0-fa715e646da0","system_id":"levelo_inurba_marseille","lat":43.29045,"lon":5.35912,"is_reserved":false,"is_disabled":false,"rental_uris":{"android":"levelo://app?vid=e955ee75-97fa-4e62-aaf0-fa715e646da0","ios":"levelo://app?vid=e955ee75-97fa-4e62-aaf0-fa715e646da0"},"vehicle_type_id":"4","last_reported":1747750276,"current_range_meters":17200,"station_id":"ce4bha92rcd13ifvqeg0","pricing_plan_id":"cebpf4jnsgd1na2vs0mg"},{"bike_id":"8feb19cf-daa7-43e4-a212-a7242dc82e08","system_id":"levelo_inurba_marseille","lat":43.24068,"lon":5.37754,"is_reserved":false,"is_disabled":false,"rental_uris":{"android":"levelo://app?vid=8feb19cf-daa7-43e4-a212-a7242dc82e08","ios":"levelo://app?vid=8feb19cf-daa7-43e4-a212-a7242dc82e08"},"vehicle_type_id":"4","last_reported":1747750276,"current_range_meters":17200,"station_id":"ce4bhnp2rcd13ifvqgvg","pricing_plan_id":"cebpf4jnsgd1na2vs0mg"},{"bike_id":"24dc12dd-e0a1-4ccc-b473-486d35ddca69","system_id":"levelo_inurba_marseille","lat":43.31722,"lon":5.43735,"is_reserved":false,"is_disabled":false,"rental_uris":{"android":"levelo://app?vid=24dc12dd-e0a1-4ccc-b473-486d35ddca69","ios":"levelo://app?vid=24dc12dd-e0a1-4ccc-b473-486d35ddca69"},"vehicle_type_id":"4","last_reported":1747750276,"current_range_meters":17200,"station_id":"ce4bhp92rcd13ifvqhcg","pricing_plan_id":"cebpf4jnsgd1na2vs0mg"},{"bike_id":"18d5d67f-653c-408f-9afc-eb0045f269d3","system_id":"levelo_inurba_marseille","lat":43.29799,"lon":5.38097,"is_reserved":false,"is_disabled":false,"rental_uris":{"android":"levelo://app?vid=18d5d67f-653c-408f-9afc-eb0045f269d3","ios":"levelo://app?vid=18d5d67f-653c-408f-9afc-eb0045f269d3"},"vehicle_type_id":"4","last_reported":1747750276,"current_range_meters":17600,"station_id":"ce4bgip2rcd13ifvqbb0","pricing_plan_id":"cebpf4jnsgd1na2vs0mg"},{"bike_id":"4e5ff0aa-86bc-4ec5-9c36-2f94f530574d","system_id":"levelo_inurba_marseille","lat":43.30626,"lon":5.37193,"is_reserved":false,"is_disabled":false,"rental_uris":{"android":"levelo://app?vid=4e5ff0aa-86bc-4ec5-9c36-2f94f530574d","ios":"levelo://app?vid=4e5ff0aa-86bc-4ec5-9c36-2f94f530574d"},"vehicle_type_id":"4","last_reported":1747750276,"current_range_meters":17600,"station_id":"ce4bgqh2rcd13ifvqc4g","pricing_plan_id":"cebpf4jnsgd1na2vs0mg"},{"bike_id":"0df77317-6e38-4757-8b5a-d11152112ee5","system_id":"levelo_inurba_marseille","lat":43.29254,"lon":5.38439,"is_reserved":false,"is_disabled":false,"rental_uris":{"android":"levelo://app?vid=0df77317-6e38-4757-8b5a-d11152112ee5","ios":"levelo://app?vid=0df77317-6e38-4757-8b5a-d11152112ee5"},"vehicle_type_id":"4","last_reported":1747750276,"current_range_meters":17600,"station_id":"ce4bh692rcd13ifvqea0","pricing_plan_id":"cebpf4jnsgd1na2vs0mg"},{"bike_id":"b2812a3f-2332-493f-85e4-6bc85b95ec70","system_id":"levelo_inurba_marseille","lat":43.26228,"lon":5.40415,"is_reserved":false,"is_disabled":false,"rental_uris":{"android":"levelo://app?vid=b2812a3f-2332-493f-85e4-6bc85b95ec70","ios":"levelo://app?vid=b2812a3f-2332-493f-85e4-6bc85b95ec70"},"vehicle_type_id":"4","last_reported":1747750276,"current_range_meters":17600,"station_id":"ce4bhmh2rcd13ifvqgmg","pricing_plan_id":"cebpf4jnsgd1na2vs0mg"},{"bike_id":"f45358a8-0ac6-4e93-84a1-268948cd0333","system_id":"levelo_inurba_marseille","lat":43.286537,"lon":5.363369,"is_reserved":false,"is_disabled":false,"rental_uris":{"android":"levelo://app?vid=f45358a8-0ac6-4e93-84a1-268948cd0333","ios":"levelo://app?vid=f45358a8-0ac6-4e93-84a1-268948cd0333"},"vehicle_type_id":"4","last_reported":1747750276,"current_range_meters":18000,"station_id":"","pricing_plan_id":"cebpf4jnsgd1na2vs0mg"},{"bike_id":"a19fbb06-7c42-4627-9f4c-1e589e27dd5c","system_id":"levelo_inurba_marseille","lat":43.29792,"lon":5.38119,"is_reserved":false,"is_disabled":false,"rental_uris":{"android":"levelo://app?vid=a19fbb06-7c42-4627-9f4c-1e589e27dd5c","ios":"levelo://app?vid=a19fbb06-7c42-4627-9f4c-1e589e27dd5c"},"vehicle_type_id":"4","last_reported":1747750276,"current_range_meters":18000,"station_id":"ce4bgip2rcd13ifvqbb0","pricing_plan_id":"cebpf4jnsgd1na2vs0mg"},{"bike_id":"9971c084-845d-412b-a5f3-b0d9edb0c25b","system_id":"levelo_inurba_marseille","lat":43.2997,"lon":5.38497,"is_reserved":false,"is_disabled":false,"rental_uris":{"android":"levelo://app?vid=9971c084-845d-412b-a5f3-b0d9edb0c25b","ios":"levelo://app?vid=9971c084-845d-412b-a5f3-b0d9edb0c25b"},"vehicle_type_id":"4","last_reported":1747750276,"current_range_meters":18000,"station_id":"ce4bgj92rcd13ifvqbd0","pricing_plan_id":"cebpf4jnsgd1na2vs0mg"},{"bike_id":"3c7175ec-aeed-4796-89fc-426901811446","system_id":"levelo_inurba_marseille","lat":43.301435,"lon":5.37407,"is_reserved":false,"is_disabled":false,"rental_uris":{"android":"levelo://app?vid=3c7175ec-aeed-4796-89fc-426901811446","ios":"levelo://app?vid=3c7175ec-aeed-4796-89fc-426901811446"},"vehicle_type_id":"4","last_reported":1747750276,"current_range_meters":18000,"station_id":"ce4bgs92rcd13ifvqcc0","pricing_plan_id":"cebpf4jnsgd1na2vs0mg"},{"bike_id":"ec3c11eb-1fa2-4f0c-843b-4ae0ad03cb5f","system_id":"levelo_inurba_marseille","lat":43.29629,"lon":5.40604,"is_reserved":false,"is_disabled":false,"rental_uris":{"android":"levelo://app?vid=ec3c11eb-1fa2-4f0c-843b-4ae0ad03cb5f","ios":"levelo://app?vid=ec3c11eb-1fa2-4f0c-843b-4ae0ad03cb5f"},"vehicle_type_id":"4","last_reported":1747750276,"current_range_meters":18000,"station_id":"ce4bh0h2rcd13ifvqd60","pricing_plan_id":"cebpf4jnsgd1na2vs0mg"},{"bike_id":"d2243da5-46a4-4675-a166-c5959f727fa3","system_id":"levelo_inurba_marseille","lat":43.27937,"lon":5.41046,"is_reserved":false,"is_disabled":false,"rental_uris":{"android":"levelo://app?vid=d2243da5-46a4-4675-a166-c5959f727fa3","ios":"levelo://app?vid=d2243da5-46a4-4675-a166-c5959f727fa3"},"vehicle_type_id":"4","last_reported":1747750276,"current_range_meters":18000,"station_id":"ce4bhnp2rcd13ifvqh0g","pricing_plan_id":"cebpf4jnsgd1na2vs0mg"},{"bike_id":"0e6bb125-ff93-4853-97e0-da4a593482f4","system_id":"levelo_inurba_marseille","lat":43.280792,"lon":5.396402,"is_reserved":false,"is_disabled":false,"rental_uris":{"android":"levelo://app?vid=0e6bb125-ff93-4853-97e0-da4a593482f4","ios":"levelo://app?vid=0e6bb125-ff93-4853-97e0-da4a593482f4"},"vehicle_type_id":"4","last_reported":1747750276,"current_range_meters":18000,"station_id":"ce4bho12rcd13ifvqh2g","pricing_plan_id":"cebpf4jnsgd1na2vs0mg"},{"bike_id":"e31833c9-3629-4b2f-810c-c09df0eb266c","system_id":"levelo_inurba_marseille","lat":43.33751,"lon":5.37509,"is_reserved":false,"is_disabled":false,"rental_uris":{"android":"levelo://app?vid=e31833c9-3629-4b2f-810c-c09df0eb266c","ios":"levelo://app?vid=e31833c9-3629-4b2f-810c-c09df0eb266c"},"vehicle_type_id":"4","last_reported":1747750276,"current_range_meters":18800,"station_id":"","pricing_plan_id":"cebpf4jnsgd1na2vs0mg"},{"bike_id":"d9fbcaa2-e0b5-4579-ac05-5ca70a1f56a0","system_id":"levelo_inurba_marseille","lat":43.31071,"lon":5.38359,"is_reserved":false,"is_disabled":false,"rental_uris":{"android":"levelo://app?vid=d9fbcaa2-e0b5-4579-ac05-5ca70a1f56a0","ios":"levelo://app?vid=d9fbcaa2-e0b5-4579-ac05-5ca70a1f56a0"},"vehicle_type_id":"4","last_reported":1747750276,"current_range_meters":18800,"station_id":"ce4bgv92rcd13ifvqcr0","pricing_plan_id":"cebpf4jnsgd1na2vs0mg"},{"bike_id":"debd03e3-94e3-4e17-a4a8-9260dbf0ba12","system_id":"levelo_inurba_marseille","lat":43.26553,"lon":5.37287,"is_reserved":false,"is_disabled":false,"rental_uris":{"android":"levelo://app?vid=debd03e3-94e3-4e17-a4a8-9260dbf0ba12","ios":"levelo://app?vid=debd03e3-94e3-4e17-a4a8-9260dbf0ba12"},"vehicle_type_id":"4","last_reported":1747750276,"current_range_meters":18800,"station_id":"ce4bhg12rcd13ifvqf70","pricing_plan_id":"cebpf4jnsgd1na2vs0mg"},{"bike_id":"d8648169-7024-445d-a909-15001957a9a2","system_id":"levelo_inurba_marseille","lat":43.26788,"lon":5.39412,"is_reserved":false,"is_disabled":false,"rental_uris":{"android":"levelo://app?vid=d8648169-7024-445d-a909-15001957a9a2","ios":"levelo://app?vid=d8648169-7024-445d-a909-15001957a9a2"},"vehicle_type_id":"4","last_reported":1747750276,"current_range_meters":18800,"station_id":"ce4bhh12rcd13ifvqfg0","pricing_plan_id":"cebpf4jnsgd1na2vs0mg"},{"bike_id":"1592b852-6cc1-4933-bca3-5ec6a7dbae47","system_id":"levelo_inurba_marseille","lat":43.2558,"lon":5.3823,"is_reserved":false,"is_disabled":false,"rental_uris":{"android":"levelo://app?vid=1592b852-6cc1-4933-bca3-5ec6a7dbae47","ios":"levelo://app?vid=1592b852-6cc1-4933-bca3-5ec6a7dbae47"},"vehicle_type_id":"4","last_reported":1747750276,"current_range_meters":18800,"station_id":"ce4bhih2rcd13ifvqfs0","pricing_plan_id":"cebpf4jnsgd1na2vs0mg"},{"bike_id":"29c1c608-f52b-4905-aa45-09962ab1ee37","system_id":"levelo_inurba_marseille","lat":43.24071,"lon":5.37768,"is_reserved":false,"is_disabled":false,"rental_uris":{"android":"levelo://app?vid=29c1c608-f52b-4905-aa45-09962ab1ee37","ios":"levelo://app?vid=29c1c608-f52b-4905-aa45-09962ab1ee37"},"vehicle_type_id":"4","last_reported":1747750276,"current_range_meters":18800,"station_id":"ce4bhnp2rcd13ifvqgvg","pricing_plan_id":"cebpf4jnsgd1na2vs0mg"},{"bike_id":"509a7bc5-3ed4-44a0-83b3-6bbf477b3a61","system_id":"levelo_inurba_marseille","lat":43.21207,"lon":5.35105,"is_reserved":false,"is_disabled":false,"rental_uris":{"android":"levelo://app?vid=509a7bc5-3ed4-44a0-83b3-6bbf477b3a61","ios":"levelo://app?vid=509a7bc5-3ed4-44a0-83b3-6bbf477b3a61"},"vehicle_type_id":"4","last_reported":1747750276,"current_range_meters":18800,"station_id":"st_cvj6sg6p6f1abm77japg","pricing_plan_id":"cebpf4jnsgd1na2vs0mg"},{"bike_id":"c92849d9-abeb-4b46-a7cf-0e76e0ba0764","system_id":"levelo_inurba_marseille","lat":43.29572,"lon":5.37521,"is_reserved":false,"is_disabled":false,"rental_uris":{"android":"levelo://app?vid=c92849d9-abeb-4b46-a7cf-0e76e0ba0764","ios":"levelo://app?vid=c92849d9-abeb-4b46-a7cf-0e76e0ba0764"},"vehicle_type_id":"4","last_reported":1747750276,"current_range_meters":19200,"station_id":"ce4bgh92rcd13ifvqb50","pricing_plan_id":"cebpf4jnsgd1na2vs0mg"},{"bike_id":"e9b8f93c-0e12-41b3-b49f-d4e8ae170d04","system_id":"levelo_inurba_marseille","lat":43.29603,"lon":5.38102,"is_reserved":false,"is_disabled":false,"rental_uris":{"android":"levelo://app?vid=e9b8f93c-0e12-41b3-b49f-d4e8ae170d04","ios":"levelo://app?vid=e9b8f93c-0e12-41b3-b49f-d4e8ae170d04"},"vehicle_type_id":"4","last_reported":1747750276,"current_range_meters":19200,"station_id":"ce4bgl12rcd13ifvqbo0","pricing_plan_id":"cebpf4jnsgd1na2vs0mg"},{"bike_id":"abddf365-204c-4f8c-83df-344d02d6adef","system_id":"levelo_inurba_marseille","lat":43.30544,"lon":5.36547,"is_reserved":false,"is_disabled":false,"rental_uris":{"android":"levelo://app?vid=abddf365-204c-4f8c-83df-344d02d6adef","ios":"levelo://app?vid=abddf365-204c-4f8c-83df-344d02d6adef"},"vehicle_type_id":"4","last_reported":1747750276,"current_range_meters":19200,"station_id":"ce4bgs12rcd13ifvqcag","pricing_plan_id":"cebpf4jnsgd1na2vs0mg"},{"bike_id":"3f8d3df2-4bfa-4c21-af33-2d6ca36c62f5","system_id":"levelo_inurba_marseille","lat":43.24671,"lon":5.38174,"is_reserved":false,"is_disabled":false,"rental_uris":{"android":"levelo://app?vid=3f8d3df2-4bfa-4c21-af33-2d6ca36c62f5","ios":"levelo://app?vid=3f8d3df2-4bfa-4c21-af33-2d6ca36c62f5"},"vehicle_type_id":"4","last_reported":1747750276,"current_range_meters":19200,"station_id":"ce4bhih2rcd13ifvqfr0","pricing_plan_id":"cebpf4jnsgd1na2vs0mg"},{"bike_id":"3abdce33-9121-4e13-b0cf-c6b7e32d61c6","system_id":"levelo_inurba_marseille","lat":43.27832,"lon":5.39211,"is_reserved":false,"is_disabled":false,"rental_uris":{"android":"levelo://app?vid=3abdce33-9121-4e13-b0cf-c6b7e32d61c6","ios":"levelo://app?vid=3abdce33-9121-4e13-b0cf-c6b7e32d61c6"},"vehicle_type_id":"4","last_reported":1747750276,"current_range_meters":19200,"station_id":"ce4bhjp2rcd13ifvqga0","pricing_plan_id":"cebpf4jnsgd1na2vs0mg"},{"bike_id":"068f7a6a-e837-4d9c-8453-d6d6c1acf291","system_id":"levelo_inurba_marseille","lat":43.240827,"lon":5.37746,"is_reserved":false,"is_disabled":false,"rental_uris":{"android":"levelo://app?vid=068f7a6a-e837-4d9c-8453-d6d6c1acf291","ios":"levelo://app?vid=068f7a6a-e837-4d9c-8453-d6d6c1acf291"},"vehicle_type_id":"4","last_reported":1747750276,"current_range_meters":19200,"station_id":"ce4bhnp2rcd13ifvqgvg","pricing_plan_id":"cebpf4jnsgd1na2vs0mg"},{"bike_id":"5d0fc42b-f851-4bfa-ab89-f2d2458bd53d","system_id":"levelo_inurba_marseille","lat":43.27997,"lon":5.40019,"is_reserved":false,"is_disabled":false,"rental_uris":{"android":"levelo://app?vid=5d0fc42b-f851-4bfa-ab89-f2d2458bd53d","ios":"levelo://app?vid=5d0fc42b-f851-4bfa-ab89-f2d2458bd53d"},"vehicle_type_id":"4","last_reported":1747750276,"current_range_meters":19200,"station_id":"ce4bho92rcd13ifvqh4g","pricing_plan_id":"cebpf4jnsgd1na2vs0mg"},{"bike_id":"c4f0ddbf-912f-4dc6-81b8-da7688e7978e","system_id":"levelo_inurba_marseille","lat":43.30785,"lon":5.4355,"is_reserved":false,"is_disabled":false,"rental_uris":{"android":"levelo://app?vid=c4f0ddbf-912f-4dc6-81b8-da7688e7978e","ios":"levelo://app?vid=c4f0ddbf-912f-4dc6-81b8-da7688e7978e"},"vehicle_type_id":"4","last_reported":1747750276,"current_range_meters":19200,"station_id":"ce4bhph2rcd13ifvqheg","pricing_plan_id":"cebpf4jnsgd1na2vs0mg"},{"bike_id":"18d4f046-c73b-4ed1-bd45-69ca2f62023e","system_id":"levelo_inurba_marseille","lat":43.22505,"lon":5.34787,"is_reserved":false,"is_disabled":false,"rental_uris":{"android":"levelo://app?vid=18d4f046-c73b-4ed1-bd45-69ca2f62023e","ios":"levelo://app?vid=18d4f046-c73b-4ed1-bd45-69ca2f62023e"},"vehicle_type_id":"4","last_reported":1747750276,"current_range_meters":19200,"station_id":"st_cvj5dfep6f1abm77gieg","pricing_plan_id":"cebpf4jnsgd1na2vs0mg"},{"bike_id":"bed1425b-7c60-4229-b808-d28b508e6a79","system_id":"levelo_inurba_marseille","lat":43.30252,"lon":5.40063,"is_reserved":false,"is_disabled":false,"rental_uris":{"android":"levelo://app?vid=bed1425b-7c60-4229-b808-d28b508e6a79","ios":"levelo://app?vid=bed1425b-7c60-4229-b808-d28b508e6a79"},"vehicle_type_id":"4","last_reported":1747750276,"current_range_meters":19600,"station_id":"ce4bgvh2rcd13ifvqcs0","pricing_plan_id":"cebpf4jnsgd1na2vs0mg"},{"bike_id":"42c79a5f-4e0b-4e9e-b789-ed586c8729a4","system_id":"levelo_inurba_marseille","lat":43.31325,"lon":5.39684,"is_reserved":false,"is_disabled":false,"rental_uris":{"android":"levelo://app?vid=42c79a5f-4e0b-4e9e-b789-ed586c8729a4","ios":"levelo://app?vid=42c79a5f-4e0b-4e9e-b789-ed586c8729a4"},"vehicle_type_id":"4","last_reported":1747750276,"current_range_meters":19600,"station_id":"ce4bgvp2rcd13ifvqcu0","pricing_plan_id":"cebpf4jnsgd1na2vs0mg"},{"bike_id":"a228d8eb-2018-42d0-ba89-99157321424b","system_id":"levelo_inurba_marseille","lat":43.31325,"lon":5.39701,"is_reserved":false,"is_disabled":false,"rental_uris":{"android":"levelo://app?vid=a228d8eb-2018-42d0-ba89-99157321424b","ios":"levelo://app?vid=a228d8eb-2018-42d0-ba89-99157321424b"},"vehicle_type_id":"4","last_reported":1747750276,"current_range_meters":19600,"station_id":"ce4bgvp2rcd13ifvqcu0","pricing_plan_id":"cebpf4jnsgd1na2vs0mg"},{"bike_id":"0999e8ef-9821-47d9-b97e-130641fe24b8","system_id":"levelo_inurba_marseille","lat":43.31682,"lon":5.40477,"is_reserved":false,"is_disabled":false,"rental_uris":{"android":"levelo://app?vid=0999e8ef-9821-47d9-b97e-130641fe24b8","ios":"levelo://app?vid=0999e8ef-9821-47d9-b97e-130641fe24b8"},"vehicle_type_id":"4","last_reported":1747750276,"current_range_meters":19600,"station_id":"ce4bh012rcd13ifvqd00","pricing_plan_id":"cebpf4jnsgd1na2vs0mg"},{"bike_id":"f96a6ac0-7966-4bbf-93bb-b6a487a59063","system_id":"levelo_inurba_marseille","lat":43.301324,"lon":5.398782,"is_reserved":false,"is_disabled":false,"rental_uris":{"android":"levelo://app?vid=f96a6ac0-7966-4bbf-93bb-b6a487a59063","ios":"levelo://app?vid=f96a6ac0-7966-4bbf-93bb-b6a487a59063"},"vehicle_type_id":"4","last_reported":1747750276,"current_range_meters":19600,"station_id":"ce4bh0h2rcd13ifvqd40","pricing_plan_id":"cebpf4jnsgd1na2vs0mg"},{"bike_id":"8bb7d43c-e583-40c0-9a6a-a2f0c4f03243","system_id":"levelo_inurba_marseille","lat":43.29241,"lon":5.40912,"is_reserved":false,"is_disabled":false,"rental_uris":{"android":"levelo://app?vid=8bb7d43c-e583-40c0-9a6a-a2f0c4f03243","ios":"levelo://app?vid=8bb7d43c-e583-40c0-9a6a-a2f0c4f03243"},"vehicle_type_id":"4","last_reported":1747750276,"current_range_meters":19600,"station_id":"ce4bh192rcd13ifvqdc0","pricing_plan_id":"cebpf4jnsgd1na2vs0mg"},{"bike_id":"7b7337a2-277e-4d8e-bc10-d1cfa5054f39","system_id":"levelo_inurba_marseille","lat":43.29059,"lon":5.37148,"is_reserved":false,"is_disabled":false,"rental_uris":{"android":"levelo://app?vid=7b7337a2-277e-4d8e-bc10-d1cfa5054f39","ios":"levelo://app?vid=7b7337a2-277e-4d8e-bc10-d1cfa5054f39"},"vehicle_type_id":"4","last_reported":1747750276,"current_range_meters":19600,"station_id":"ce4bh5p2rcd13ifvqe4g","pricing_plan_id":"cebpf4jnsgd1na2vs0mg"},{"bike_id":"4fa2700b-c08e-41ac-a943-96f10edd2b7e","system_id":"levelo_inurba_marseille","lat":43.2693,"lon":5.38913,"is_reserved":false,"is_disabled":false,"rental_uris":{"android":"levelo://app?vid=4fa2700b-c08e-41ac-a943-96f10edd2b7e","ios":"levelo://app?vid=4fa2700b-c08e-41ac-a943-96f10edd2b7e"},"vehicle_type_id":"4","last_reported":1747750276,"current_range_meters":19600,"station_id":"ce4bhhh2rcd13ifvqfl0","pricing_plan_id":"cebpf4jnsgd1na2vs0mg"},{"bike_id":"13d58ab9-f14f-4039-9563-9b3c3fdfb0aa","system_id":"levelo_inurba_marseille","lat":43.26226,"lon":5.40466,"is_reserved":false,"is_disabled":false,"rental_uris":{"android":"levelo://app?vid=13d58ab9-f14f-4039-9563-9b3c3fdfb0aa","ios":"levelo://app?vid=13d58ab9-f14f-4039-9563-9b3c3fdfb0aa"},"vehicle_type_id":"4","last_reported":1747750276,"current_range_meters":19600,"station_id":"ce4bhmh2rcd13ifvqgmg","pricing_plan_id":"cebpf4jnsgd1na2vs0mg"},{"bike_id":"3acb9b4e-1ad3-4402-bebd-898cb00108db","system_id":"levelo_inurba_marseille","lat":43.24181,"lon":5.39736,"is_reserved":false,"is_disabled":false,"rental_uris":{"android":"levelo://app?vid=3acb9b4e-1ad3-4402-bebd-898cb00108db","ios":"levelo://app?vid=3acb9b4e-1ad3-4402-bebd-898cb00108db"},"vehicle_type_id":"4","last_reported":1747750276,"current_range_meters":19600,"station_id":"ce4bhn12rcd13ifvqgpg","pricing_plan_id":"cebpf4jnsgd1na2vs0mg"},{"bike_id":"ac54cb9d-c717-4084-9363-e0498a0029df","system_id":"levelo_inurba_marseille","lat":43.27945,"lon":5.41043,"is_reserved":false,"is_disabled":false,"rental_uris":{"android":"levelo://app?vid=ac54cb9d-c717-4084-9363-e0498a0029df","ios":"levelo://app?vid=ac54cb9d-c717-4084-9363-e0498a0029df"},"vehicle_type_id":"4","last_reported":1747750276,"current_range_meters":19600,"station_id":"ce4bhnp2rcd13ifvqh0g","pricing_plan_id":"cebpf4jnsgd1na2vs0mg"},{"bike_id":"c9a00e74-029a-454e-8e85-1b3d994b9d78","system_id":"levelo_inurba_marseille","lat":43.211928,"lon":5.350763,"is_reserved":false,"is_disabled":false,"rental_uris":{"android":"levelo://app?vid=c9a00e74-029a-454e-8e85-1b3d994b9d78","ios":"levelo://app?vid=c9a00e74-029a-454e-8e85-1b3d994b9d78"},"vehicle_type_id":"4","last_reported":1747750276,"current_range_meters":19600,"station_id":"st_cvj6sg6p6f1abm77japg","pricing_plan_id":"cebpf4jnsgd1na2vs0mg"},{"bike_id":"11f724d3-ea71-45d6-8fe2-4e46b8c4b632","system_id":"levelo_inurba_marseille","lat":43.2873,"lon":5.3612,"is_reserved":false,"is_disabled":false,"rental_uris":{"android":"levelo://app?vid=11f724d3-ea71-45d6-8fe2-4e46b8c4b632","ios":"levelo://app?vid=11f724d3-ea71-45d6-8fe2-4e46b8c4b632"},"vehicle_type_id":"4","last_reported":1747750276,"current_range_meters":20000,"station_id":"cki0cbj6b192h4jlfktg","pricing_plan_id":"cebpf4jnsgd1na2vs0mg"},{"bike_id":"d0b1554d-0767-46f1-ae1c-11c264d2114c","system_id":"levelo_inurba_marseille","lat":43.29789,"lon":5.38083,"is_reserved":false,"is_disabled":false,"rental_uris":{"android":"levelo://app?vid=d0b1554d-0767-46f1-ae1c-11c264d2114c","ios":"levelo://app?vid=d0b1554d-0767-46f1-ae1c-11c264d2114c"},"vehicle_type_id":"4","last_reported":1747750276,"current_range_meters":20400,"station_id":"ce4bgip2rcd13ifvqbb0","pricing_plan_id":"cebpf4jnsgd1na2vs0mg"},{"bike_id":"85605ec6-0036-497f-ac6c-034226e5adb9","system_id":"levelo_inurba_marseille","lat":43.30311,"lon":5.36918,"is_reserved":false,"is_disabled":false,"rental_uris":{"android":"levelo://app?vid=85605ec6-0036-497f-ac6c-034226e5adb9","ios":"levelo://app?vid=85605ec6-0036-497f-ac6c-034226e5adb9"},"vehicle_type_id":"4","last_reported":1747750276,"current_range_meters":20400,"station_id":"ce4bgqh2rcd13ifvqc5g","pricing_plan_id":"cebpf4jnsgd1na2vs0mg"},{"bike_id":"00370bd9-c924-4d2f-87be-92bbcc0a74f3","system_id":"levelo_inurba_marseille","lat":43.31326,"lon":5.39735,"is_reserved":false,"is_disabled":false,"rental_uris":{"android":"levelo://app?vid=00370bd9-c924-4d2f-87be-92bbcc0a74f3","ios":"levelo://app?vid=00370bd9-c924-4d2f-87be-92bbcc0a74f3"},"vehicle_type_id":"4","last_reported":1747750276,"current_range_meters":20400,"station_id":"ce4bgvp2rcd13ifvqcu0","pricing_plan_id":"cebpf4jnsgd1na2vs0mg"},{"bike_id":"cd17e95e-7664-40cc-a5d5-0828aca64393","system_id":"levelo_inurba_marseille","lat":43.27208,"lon":5.39177,"is_reserved":false,"is_disabled":false,"rental_uris":{"android":"levelo://app?vid=cd17e95e-7664-40cc-a5d5-0828aca64393","ios":"levelo://app?vid=cd17e95e-7664-40cc-a5d5-0828aca64393"},"vehicle_type_id":"4","last_reported":1747750276,"current_range_meters":20400,"station_id":"ce4bhhp2rcd13ifvqfm0","pricing_plan_id":"cebpf4jnsgd1na2vs0mg"},{"bike_id":"9a648e5c-cecf-4591-a4b7-f70fad111cfc","system_id":"levelo_inurba_marseille","lat":43.29968,"lon":5.38496,"is_reserved":false,"is_disabled":false,"rental_uris":{"android":"levelo://app?vid=9a648e5c-cecf-4591-a4b7-f70fad111cfc","ios":"levelo://app?vid=9a648e5c-cecf-4591-a4b7-f70fad111cfc"},"vehicle_type_id":"4","last_reported":1747750276,"current_range_meters":20800,"station_id":"ce4bgj92rcd13ifvqbd0","pricing_plan_id":"cebpf4jnsgd1na2vs0mg"},{"bike_id":"e117f497-7229-4aa1-86cd-adc6b1d608cb","system_id":"levelo_inurba_marseille","lat":43.296143,"lon":5.376881,"is_reserved":false,"is_disabled":false,"rental_uris":{"android":"levelo://app?vid=e117f497-7229-4aa1-86cd-adc6b1d608cb","ios":"levelo://app?vid=e117f497-7229-4aa1-86cd-adc6b1d608cb"},"vehicle_type_id":"4","last_reported":1747750276,"current_range_meters":20800,"station_id":"ce4bgjp2rcd13ifvqbh0","pricing_plan_id":"cebpf4jnsgd1na2vs0mg"},{"bike_id":"1935a543-3c18-48b7-a5dd-cd7de6d19cf8","system_id":"levelo_inurba_marseille","lat":43.29802,"lon":5.37115,"is_reserved":false,"is_disabled":false,"rental_uris":{"android":"levelo://app?vid=1935a543-3c18-48b7-a5dd-cd7de6d19cf8","ios":"levelo://app?vid=1935a543-3c18-48b7-a5dd-cd7de6d19cf8"},"vehicle_type_id":"4","last_reported":1747750276,"current_range_meters":20800,"station_id":"ce4bgop2rcd13ifvqc1g","pricing_plan_id":"cebpf4jnsgd1na2vs0mg"},{"bike_id":"e166e317-5f19-4dec-86e5-9f53f1db8747","system_id":"levelo_inurba_marseille","lat":43.31705,"lon":5.37758,"is_reserved":false,"is_disabled":false,"rental_uris":{"android":"levelo://app?vid=e166e317-5f19-4dec-86e5-9f53f1db8747","ios":"levelo://app?vid=e166e317-5f19-4dec-86e5-9f53f1db8747"},"vehicle_type_id":"4","last_reported":1747750276,"current_range_meters":20800,"station_id":"ce4bgth2rcd13ifvqch0","pricing_plan_id":"cebpf4jnsgd1na2vs0mg"},{"bike_id":"f4562d38-72ce-47b8-bc7e-9f7cd915bf6e","system_id":"levelo_inurba_marseille","lat":43.30462,"lon":5.37913,"is_reserved":false,"is_disabled":false,"rental_uris":{"android":"levelo://app?vid=f4562d38-72ce-47b8-bc7e-9f7cd915bf6e","ios":"levelo://app?vid=f4562d38-72ce-47b8-bc7e-9f7cd915bf6e"},"vehicle_type_id":"4","last_reported":1747750276,"current_range_meters":20800,"station_id":"ce4bgup2rcd13ifvqcn0","pricing_plan_id":"cebpf4jnsgd1na2vs0mg"},{"bike_id":"fc92d32f-871f-4196-99ed-f09634ef7baf","system_id":"levelo_inurba_marseille","lat":43.30457,"lon":5.37912,"is_reserved":false,"is_disabled":false,"rental_uris":{"android":"levelo://app?vid=fc92d32f-871f-4196-99ed-f09634ef7baf","ios":"levelo://app?vid=fc92d32f-871f-4196-99ed-f09634ef7baf"},"vehicle_type_id":"4","last_reported":1747750276,"current_range_meters":20800,"station_id":"ce4bgup2rcd13ifvqcn0","pricing_plan_id":"cebpf4jnsgd1na2vs0mg"},{"bike_id":"53bedfa7-1ce5-4a05-84b9-c89eed1d6e6a","system_id":"levelo_inurba_marseille","lat":43.29267,"lon":5.36843,"is_reserved":false,"is_disabled":false,"rental_uris":{"android":"levelo://app?vid=53bedfa7-1ce5-4a05-84b9-c89eed1d6e6a","ios":"levelo://app?vid=53bedfa7-1ce5-4a05-84b9-c89eed1d6e6a"},"vehicle_type_id":"4","last_reported":1747750276,"current_range_meters":20800,"station_id":"ce4bhbp2rcd13ifvqesg","pricing_plan_id":"cebpf4jnsgd1na2vs0mg"},{"bike_id":"8eb3bd91-229e-475d-9788-de20a0460217","system_id":"levelo_inurba_marseille","lat":43.27562,"lon":5.38424,"is_reserved":false,"is_disabled":false,"rental_uris":{"android":"levelo://app?vid=8eb3bd91-229e-475d-9788-de20a0460217","ios":"levelo://app?vid=8eb3bd91-229e-475d-9788-de20a0460217"},"vehicle_type_id":"4","last_reported":1747750276,"current_range_meters":20800,"station_id":"ce4bhh92rcd13ifvqfi0","pricing_plan_id":"cebpf4jnsgd1na2vs0mg"},{"bike_id":"864a884c-6d95-4000-b232-769c5a7da828","system_id":"levelo_inurba_marseille","lat":43.24659,"lon":5.38159,"is_reserved":false,"is_disabled":false,"rental_uris":{"android":"levelo://app?vid=864a884c-6d95-4000-b232-769c5a7da828","ios":"levelo://app?vid=864a884c-6d95-4000-b232-769c5a7da828"},"vehicle_type_id":"4","last_reported":1747750276,"current_range_meters":20800,"station_id":"ce4bhih2rcd13ifvqfr0","pricing_plan_id":"cebpf4jnsgd1na2vs0mg"},{"bike_id":"c4ea5a45-10f8-4771-8462-3d11a6370860","system_id":"levelo_inurba_marseille","lat":43.24678,"lon":5.38161,"is_reserved":false,"is_disabled":false,"rental_uris":{"android":"levelo://app?vid=c4ea5a45-10f8-4771-8462-3d11a6370860","ios":"levelo://app?vid=c4ea5a45-10f8-4771-8462-3d11a6370860"},"vehicle_type_id":"4","last_reported":1747750276,"current_range_meters":20800,"station_id":"ce4bhih2rcd13ifvqfr0","pricing_plan_id":"cebpf4jnsgd1na2vs0mg"},{"bike_id":"e8c5e0d9-41e9-421a-9a8f-29a3d33f4c37","system_id":"levelo_inurba_marseille","lat":43.262,"lon":5.3793,"is_reserved":false,"is_disabled":false,"rental_uris":{"android":"levelo://app?vid=e8c5e0d9-41e9-421a-9a8f-29a3d33f4c37","ios":"levelo://app?vid=e8c5e0d9-41e9-421a-9a8f-29a3d33f4c37"},"vehicle_type_id":"4","last_reported":1747750276,"current_range_meters":20800,"station_id":"ce4bhjp2rcd13ifvqg90","pricing_plan_id":"cebpf4jnsgd1na2vs0mg"},{"bike_id":"5f3093b1-8ac4-495c-bd27-fc6aa068181f","system_id":"levelo_inurba_marseille","lat":43.25117,"lon":5.40329,"is_reserved":false,"is_disabled":false,"rental_uris":{"android":"levelo://app?vid=5f3093b1-8ac4-495c-bd27-fc6aa068181f","ios":"levelo://app?vid=5f3093b1-8ac4-495c-bd27-fc6aa068181f"},"vehicle_type_id":"4","last_reported":1747750276,"current_range_meters":20800,"station_id":"ce4bhlh2rcd13ifvqgig","pricing_plan_id":"cebpf4jnsgd1na2vs0mg"},{"bike_id":"dc61c065-6ed1-487e-9ecf-5a93a8f61ca7","system_id":"levelo_inurba_marseille","lat":43.231951,"lon":5.39975,"is_reserved":false,"is_disabled":false,"rental_uris":{"android":"levelo://app?vid=dc61c065-6ed1-487e-9ecf-5a93a8f61ca7","ios":"levelo://app?vid=dc61c065-6ed1-487e-9ecf-5a93a8f61ca7"},"vehicle_type_id":"4","last_reported":1747750276,"current_range_meters":20800,"station_id":"ce4bhn12rcd13ifvqgqg","pricing_plan_id":"cebpf4jnsgd1na2vs0mg"},{"bike_id":"92cae85f-aab4-4a45-a554-81f816d37b95","system_id":"levelo_inurba_marseille","lat":43.23192,"lon":5.39978,"is_reserved":false,"is_disabled":false,"rental_uris":{"android":"levelo://app?vid=92cae85f-aab4-4a45-a554-81f816d37b95","ios":"levelo://app?vid=92cae85f-aab4-4a45-a554-81f816d37b95"},"vehicle_type_id":"4","last_reported":1747750276,"current_range_meters":20800,"station_id":"ce4bhn12rcd13ifvqgqg","pricing_plan_id":"cebpf4jnsgd1na2vs0mg"},{"bike_id":"73e553ab-c25f-45eb-89f6-a65217bed34e","system_id":"levelo_inurba_marseille","lat":43.3152,"lon":5.38065,"is_reserved":false,"is_disabled":false,"rental_uris":{"android":"levelo://app?vid=73e553ab-c25f-45eb-89f6-a65217bed34e","ios":"levelo://app?vid=73e553ab-c25f-45eb-89f6-a65217bed34e"},"vehicle_type_id":"4","last_reported":1747750276,"current_range_meters":20800,"station_id":"ce4bhsp2rcd13ifvqi50","pricing_plan_id":"cebpf4jnsgd1na2vs0mg"},{"bike_id":"f2c8e8b9-581c-4a75-98f7-f033a59b91bb","system_id":"levelo_inurba_marseille","lat":43.30893,"lon":5.39639,"is_reserved":false,"is_disabled":false,"rental_uris":{"android":"levelo://app?vid=f2c8e8b9-581c-4a75-98f7-f033a59b91bb","ios":"levelo://app?vid=f2c8e8b9-581c-4a75-98f7-f033a59b91bb"},"vehicle_type_id":"4","last_reported":1747750276,"current_range_meters":21600,"station_id":"ce4bh012rcd13ifvqcv0","pricing_plan_id":"cebpf4jnsgd1na2vs0mg"},{"bike_id":"41135cb6-c414-45c8-a0ff-a1955d3c1655","system_id":"levelo_inurba_marseille","lat":43.28101,"lon":5.37836,"is_reserved":false,"is_disabled":false,"rental_uris":{"android":"levelo://app?vid=41135cb6-c414-45c8-a0ff-a1955d3c1655","ios":"levelo://app?vid=41135cb6-c414-45c8-a0ff-a1955d3c1655"},"vehicle_type_id":"4","last_reported":1747750276,"current_range_meters":21600,"station_id":"ce4bha12rcd13ifvqee0","pricing_plan_id":"cebpf4jnsgd1na2vs0mg"},{"bike_id":"9d4c4cbe-00e9-4c13-86a7-66509e5a3ba4","system_id":"levelo_inurba_marseille","lat":43.284477,"lon":5.358594,"is_reserved":false,"is_disabled":false,"rental_uris":{"android":"levelo://app?vid=9d4c4cbe-00e9-4c13-86a7-66509e5a3ba4","ios":"levelo://app?vid=9d4c4cbe-00e9-4c13-86a7-66509e5a3ba4"},"vehicle_type_id":"4","last_reported":1747750276,"current_range_meters":21600,"station_id":"ce4bhah2rcd13ifvqei0","pricing_plan_id":"cebpf4jnsgd1na2vs0mg"},{"bike_id":"e7732b4e-c657-419b-a05d-d8ef89fcac35","system_id":"levelo_inurba_marseille","lat":43.28611,"lon":5.35105,"is_reserved":false,"is_disabled":false,"rental_uris":{"android":"levelo://app?vid=e7732b4e-c657-419b-a05d-d8ef89fcac35","ios":"levelo://app?vid=e7732b4e-c657-419b-a05d-d8ef89fcac35"},"vehicle_type_id":"4","last_reported":1747750276,"current_range_meters":21600,"station_id":"ce4bhch2rcd13ifvqeug","pricing_plan_id":"cebpf4jnsgd1na2vs0mg"},{"bike_id":"512cad48-a180-4060-b1f1-89c6ef5852f2","system_id":"levelo_inurba_marseille","lat":43.23184,"lon":5.40004,"is_reserved":false,"is_disabled":false,"rental_uris":{"android":"levelo://app?vid=512cad48-a180-4060-b1f1-89c6ef5852f2","ios":"levelo://app?vid=512cad48-a180-4060-b1f1-89c6ef5852f2"},"vehicle_type_id":"4","last_reported":1747750276,"current_range_meters":21600,"station_id":"ce4bhn12rcd13ifvqgqg","pricing_plan_id":"cebpf4jnsgd1na2vs0mg"},{"bike_id":"d7d800b9-bd51-41ee-a90d-138da752d9af","system_id":"levelo_inurba_marseille","lat":43.24083,"lon":5.3775,"is_reserved":false,"is_disabled":false,"rental_uris":{"android":"levelo://app?vid=d7d800b9-bd51-41ee-a90d-138da752d9af","ios":"levelo://app?vid=d7d800b9-bd51-41ee-a90d-138da752d9af"},"vehicle_type_id":"4","last_reported":1747750276,"current_range_meters":21600,"station_id":"ce4bhnp2rcd13ifvqgvg","pricing_plan_id":"cebpf4jnsgd1na2vs0mg"},{"bike_id":"ac284784-9a8d-4900-915b-a5ac8a57cfad","system_id":"levelo_inurba_marseille","lat":43.28082,"lon":5.39641,"is_reserved":false,"is_disabled":false,"rental_uris":{"android":"levelo://app?vid=ac284784-9a8d-4900-915b-a5ac8a57cfad","ios":"levelo://app?vid=ac284784-9a8d-4900-915b-a5ac8a57cfad"},"vehicle_type_id":"4","last_reported":1747750276,"current_range_meters":21600,"station_id":"ce4bho12rcd13ifvqh2g","pricing_plan_id":"cebpf4jnsgd1na2vs0mg"},{"bike_id":"cec0fb61-920a-449c-afe5-79c12d02cfa9","system_id":"levelo_inurba_marseille","lat":43.28719,"lon":5.36096,"is_reserved":false,"is_disabled":false,"rental_uris":{"android":"levelo://app?vid=cec0fb61-920a-449c-afe5-79c12d02cfa9","ios":"levelo://app?vid=cec0fb61-920a-449c-afe5-79c12d02cfa9"},"vehicle_type_id":"4","last_reported":1747750276,"current_range_meters":21600,"station_id":"cki0cbj6b192h4jlfktg","pricing_plan_id":"cebpf4jnsgd1na2vs0mg"},{"bike_id":"1be17155-6d7d-4cfe-8f46-fe60e0a6576c","system_id":"levelo_inurba_marseille","lat":43.29725,"lon":5.37709,"is_reserved":false,"is_disabled":false,"rental_uris":{"android":"levelo://app?vid=1be17155-6d7d-4cfe-8f46-fe60e0a6576c","ios":"levelo://app?vid=1be17155-6d7d-4cfe-8f46-fe60e0a6576c"},"vehicle_type_id":"4","last_reported":1747750276,"current_range_meters":22000,"station_id":"ce4bgkh2rcd13ifvqbl0","pricing_plan_id":"cebpf4jnsgd1na2vs0mg"},{"bike_id":"0ac4eb84-4371-4ee1-9049-33ea7acddb26","system_id":"levelo_inurba_marseille","lat":43.286133,"lon":5.351061,"is_reserved":false,"is_disabled":false,"rental_uris":{"android":"levelo://app?vid=0ac4eb84-4371-4ee1-9049-33ea7acddb26","ios":"levelo://app?vid=0ac4eb84-4371-4ee1-9049-33ea7acddb26"},"vehicle_type_id":"4","last_reported":1747750276,"current_range_meters":22000,"station_id":"ce4bhch2rcd13ifvqeug","pricing_plan_id":"cebpf4jnsgd1na2vs0mg"},{"bike_id":"2cc6cb49-77af-4ebd-82f4-0e4509d5971a","system_id":"levelo_inurba_marseille","lat":43.30932,"lon":5.36931,"is_reserved":false,"is_disabled":false,"rental_uris":{"android":"levelo://app?vid=2cc6cb49-77af-4ebd-82f4-0e4509d5971a","ios":"levelo://app?vid=2cc6cb49-77af-4ebd-82f4-0e4509d5971a"},"vehicle_type_id":"4","last_reported":1747750276,"current_range_meters":22400,"station_id":"","pricing_plan_id":"cebpf4jnsgd1na2vs0mg"},{"bike_id":"09250bdc-a484-4844-ae49-1a0d846b8ff6","system_id":"levelo_inurba_marseille","lat":43.2961,"lon":5.38109,"is_reserved":false,"is_disabled":false,"rental_uris":{"android":"levelo://app?vid=09250bdc-a484-4844-ae49-1a0d846b8ff6","ios":"levelo://app?vid=09250bdc-a484-4844-ae49-1a0d846b8ff6"},"vehicle_type_id":"4","last_reported":1747750276,"current_range_meters":22400,"station_id":"ce4bgl12rcd13ifvqbo0","pricing_plan_id":"cebpf4jnsgd1na2vs0mg"},{"bike_id":"c403556d-fd3d-44ee-9305-b0998222adb4","system_id":"levelo_inurba_marseille","lat":43.29042,"lon":5.35922,"is_reserved":false,"is_disabled":false,"rental_uris":{"android":"levelo://app?vid=c403556d-fd3d-44ee-9305-b0998222adb4","ios":"levelo://app?vid=c403556d-fd3d-44ee-9305-b0998222adb4"},"vehicle_type_id":"4","last_reported":1747750276,"current_range_meters":22400,"station_id":"ce4bha92rcd13ifvqeg0","pricing_plan_id":"cebpf4jnsgd1na2vs0mg"},{"bike_id":"81c61eb8-dcbc-4adb-8625-b3c41ca1acc7","system_id":"levelo_inurba_marseille","lat":43.26035,"lon":5.3755,"is_reserved":false,"is_disabled":false,"rental_uris":{"android":"levelo://app?vid=81c61eb8-dcbc-4adb-8625-b3c41ca1acc7","ios":"levelo://app?vid=81c61eb8-dcbc-4adb-8625-b3c41ca1acc7"},"vehicle_type_id":"4","last_reported":1747750276,"current_range_meters":22400,"station_id":"ce4bhgh2rcd13ifvqfa0","pricing_plan_id":"cebpf4jnsgd1na2vs0mg"},{"bike_id":"9c276115-7860-4aaa-8351-5269551bcca1","system_id":"levelo_inurba_marseille","lat":43.26225,"lon":5.37429,"is_reserved":false,"is_disabled":false,"rental_uris":{"android":"levelo://app?vid=9c276115-7860-4aaa-8351-5269551bcca1","ios":"levelo://app?vid=9c276115-7860-4aaa-8351-5269551bcca1"},"vehicle_type_id":"4","last_reported":1747750276,"current_range_meters":22400,"station_id":"ce4bhgp2rcd13ifvqfc0","pricing_plan_id":"cebpf4jnsgd1na2vs0mg"},{"bike_id":"961d52e8-6ee8-4ceb-a690-58c92b378268","system_id":"levelo_inurba_marseille","lat":43.279803,"lon":5.416097,"is_reserved":false,"is_disabled":false,"rental_uris":{"android":"levelo://app?vid=961d52e8-6ee8-4ceb-a690-58c92b378268","ios":"levelo://app?vid=961d52e8-6ee8-4ceb-a690-58c92b378268"},"vehicle_type_id":"4","last_reported":1747750276,"current_range_meters":22400,"station_id":"ce4bho12rcd13ifvqh1g","pricing_plan_id":"cebpf4jnsgd1na2vs0mg"},{"bike_id":"6c0c550c-ec31-4921-afec-d928643b580e","system_id":"levelo_inurba_marseille","lat":43.321053,"lon":5.367755,"is_reserved":false,"is_disabled":false,"rental_uris":{"android":"levelo://app?vid=6c0c550c-ec31-4921-afec-d928643b580e","ios":"levelo://app?vid=6c0c550c-ec31-4921-afec-d928643b580e"},"vehicle_type_id":"4","last_reported":1747750276,"current_range_meters":22400,"station_id":"ce4bhrh2rcd13ifvqhug","pricing_plan_id":"cebpf4jnsgd1na2vs0mg"},{"bike_id":"37eaf527-bcc7-4d21-ac6a-52a88855b39e","system_id":"levelo_inurba_marseille","lat":43.30725,"lon":5.42452,"is_reserved":false,"is_disabled":false,"rental_uris":{"android":"levelo://app?vid=37eaf527-bcc7-4d21-ac6a-52a88855b39e","ios":"levelo://app?vid=37eaf527-bcc7-4d21-ac6a-52a88855b39e"},"vehicle_type_id":"4","last_reported":1747750276,"current_range_meters":22400,"station_id":"st_cvj6ca6bvosntc0bfgr0","pricing_plan_id":"cebpf4jnsgd1na2vs0mg"},{"bike_id":"dc4fd896-eeb9-47a3-9101-96508fd07b04","system_id":"levelo_inurba_marseille","lat":43.293182,"lon":5.38568,"is_reserved":false,"is_disabled":false,"rental_uris":{"android":"levelo://app?vid=dc4fd896-eeb9-47a3-9101-96508fd07b04","ios":"levelo://app?vid=dc4fd896-eeb9-47a3-9101-96508fd07b04"},"vehicle_type_id":"4","last_reported":1747750276,"current_range_meters":22800,"station_id":"","pricing_plan_id":"cebpf4jnsgd1na2vs0mg"},{"bike_id":"64428bfd-37cc-4eca-88c8-eba761bc87a6","system_id":"levelo_inurba_marseille","lat":43.29265,"lon":5.40898,"is_reserved":false,"is_disabled":false,"rental_uris":{"android":"levelo://app?vid=64428bfd-37cc-4eca-88c8-eba761bc87a6","ios":"levelo://app?vid=64428bfd-37cc-4eca-88c8-eba761bc87a6"},