{"last_updated":1697609395,"ttl":30,"version":"2.2","data":{"bikes":[{"bike_id":"040bbaef-214b-4423-bfe7-378f8735431e","system_id":"levelo_inurba_marseille","lat":43.31341,"lon":5.367098,"is_reserved":false,"is_disabled":false,"rental_uris":{"android":"levelo://app?vid=040bbaef-214b-4423-bfe7-378f8735431e","ios":"levelo://app?vid=040bbaef-214b-4423-bfe7-378f8735431e"},"vehicle_type_id":"4","last_reported":1697609395,"current_range_meters":16800,"station_id":"ce4bgr92rcd13ifvqc6g","pricing_plan_id":"free"},{"bike_id":"eeddc224-b8dd-4f94-9ba0-83f44f46b8e9","system_id":"levelo_inurba_marseille","lat":43.31341,"lon":5.367098,"is_reserved":false,"is_disabled":false,"rental_uris":{"android":"levelo://app?vid=eeddc224-b8dd-4f94-9ba0-83f44f46b8e9","ios":"levelo://app?vid=eeddc224-b8dd-4f94-9ba0-83f44f46b8e9"},"vehicle_type_id":"4","last_reported":1697609395,"current_range_meters":28800,"station_id":"ce4bgr92rcd13ifvqc6g","pricing_plan_id":"free"},{"bike_id":"4b67755d-0819-4466-8672-b306ebbb0466","system_id":"levelo_inurba_marseille","lat":43.31341,"lon":5.367098,"is_reserved":false,"is_disabled":false,"rental_uris":{"android":"levelo://app?vid=4b67755d-0819-4466-8672-b306ebbb0466","ios":"levelo://app?vid=4b67755d-0819-4466-8672-b306ebbb0466"},"vehicle_type_id":"4","last_reported":1697609395,"current_range_meters":16800,"station_id":"ce4bgr92rcd13ifvqc6g","pricing_plan_id":"free"},{"bike_id":"9bb42d80-8084-4327-b409-b3f6d94f280a","system_id":"levelo_inurba_marseille","lat":43.31341,"lon":5.367098,"is_reserved":false,"is_disabled":false,"rental_uris":{"android":"levelo://app?vid=9bb42d80-8084-4327-b409-b3f6d94f280a","ios":"levelo://app?vid=9bb42d80-8084-4327-b409-b3f6d94f280a"},"vehicle_type_id":"4","last_reported":1697609395,"current_range_meters":28800,"station_id":"ce4bgr92rcd13ifvqc6g","pricing_plan_id":"free"},{"bike_id":"ff1987d7-8cd9-40f4-8a46-0fecb9a9e74a","system_id":"levelo_inurba_marseille","lat":43.31341,"lon":5.367098,"is_reserved":false,"is_disabled":false,"rental_uris":{"android":"levelo://app?vid=ff1987d7-8cd9-40f4-8a46-0fecb9a9e74a","ios":"levelo://app?vid=ff1987d7-8cd9-40f4-8a46-0fecb9a9e74a"},"vehicle_type_id":"4","last_reported":1697609395,"current_range_meters":30400,"station_id":"ce4bgr92rcd13ifvqc6g","pricing_plan_id":"free"},{"bike_id":"78ea2a85-f977-4850-9d2f-7e65a40fb22e","system_id":"levelo_inurba_marseille","lat":43.312239,"lon":5.368562,"is_reserved":false,"is_disabled":false,"rental_uris":{"android":"levelo://app?vid=78ea2a85-f977-4850-9d2f-7e65a40fb22e","ios":"levelo://app?vid=78ea2a85-f977-4850-9d2f-7e65a40fb22e"},"vehicle_type_id":"4","last_reported":1697609395,"current_range_meters":13600,"station_id":"ce4bgl92rcd13ifvqbq0","pricing_plan_id":"free"},{"bike_id":"701a479d-9fa5-4b03-8c74-6a803270549c","system_id":"levelo_inurba_marseille","lat":43.309076,"lon":5.368465,"is_reserved":false,"is_disabled":false,"rental_uris":{"android":"levelo://app?vid=701a479d-9fa5-4b03-8c74-6a803270549c","ios":"levelo://app?vid=701a479d-9fa5-4b03-8c74-6a803270549c"},"vehicle_type_id":"4","last_reported":1697609395,"current_range_meters":23600,"station_id":"ce4bgn92rcd13ifvqbvg","pricing_plan_id":"free"},{"bike_id":"00204daf-7770-4513-82dc-1a00f4ca4a47","system_id":"levelo_inurba_marseille","lat":43.309076,"lon":5.368465,"is_reserved":false,"is_disabled":false,"rental_uris":{"android":"levelo://app?vid=00204daf-7770-4513-82dc-1a00f4ca4a47","ios":"levelo://app?vid=00204daf-7770-4513-82dc-1a00f4ca4a47"},"vehicle_type_id":"4","last_reported":1697609395,"current_range_meters":30400,"station_id":"ce4bgn92rcd13ifvqbvg","pricing_plan_id":"free"},{"bike_id":"a4000b50-f9b6-43ca-8473-8f0354ab014f","system_id":"levelo_inurba_marseille","lat":43.309139,"lon":5.368499,"is_reserved":false,"is_disabled":false,"rental_uris":{"android":"levelo://app?vid=a4000b50-f9b6-43ca-8473-8f0354ab014f","ios":"levelo://app?vid=a4000b50-f9b6-43ca-8473-8f0354ab014f"},"vehicle_type_id":"4","last_reported":1697609395,"current_range_meters":26000,"station_id":"","pricing_plan_id":"free"},{"bike_id":"8679cf06-ac23-4185-b123-115ad77860e1","system_id":"levelo_inurba_marseille","lat":43.309076,"lon":5.368465,"is_reserved":false,"is_disabled":false,"rental_uris":{"android":"levelo://app?vid=8679cf06-ac23-4185-b123-115ad77860e1","ios":"levelo://app?vid=8679cf06-ac23-4185-b123-115ad77860e1"},"vehicle_type_id":"4","last_reported":1697609395,"current_range_meters":27200,"station_id":"ce4bgn92rcd13ifvqbvg","pricing_plan_id":"free"},{"bike_id":"7dfc6578-80f5-4508-bcde-37a4131cbfa1","system_id":"levelo_inurba_marseille","lat":43.309076,"lon":5.368465,"is_reserved":false,"is_disabled":false,"rental_uris":{"android":"levelo://app?vid=7dfc6578-80f5-4508-bcde-37a4131cbfa1","ios":"levelo://app?vid=7dfc6578-80f5-4508-bcde-37a4131cbfa1"},"vehicle_type_id":"4","last_reported":1697609395,"current_range_meters":30800,"station_id":"ce4bgn92rcd13ifvqbvg","pricing_plan_id":"free"},{"bike_id":"24d13962-052e-448d-8420-057ee66fa51a","system_id":"levelo_inurba_marseille","lat":43.309076,"lon":5.368465,"is_reserved":false,"is_disabled":false,"rental_uris":{"android":"levelo://app?vid=24d13962-052e-448d-8420-057ee66fa51a","ios":"levelo://app?vid=24d13962-052e-448d-8420-057ee66fa51a"},"vehicle_type_id":"4","last_reported":1697609395,"current_range_meters":28800,"station_id":"ce4bgn92rcd13ifvqbvg","pricing_plan_id":"free"},{"bike_id":"73db9d60-cb34-4d29-b63e-3ae254f795ea","system_id":"levelo_inurba_marseille","lat":43.314811,"lon":5.373104,"is_reserved":false,"is_disabled":false,"rental_uris":{"android":"levelo://app?vid=73db9d60-cb34-4d29-b63e-3ae254f795ea","ios":"levelo://app?vid=73db9d60-cb34-4d29-b63e-3ae254f795ea"},"vehicle_type_id":"4","last_reported":1697609395,"current_range_meters":27200,"station_id":"ce4bgt12rcd13ifvqcd0","pricing_plan_id":"free"},{"bike_id":"68251d6c-c753-42be-92fc-cb39bec2fee4","system_id":"levelo_inurba_marseille","lat":43.314811,"lon":5.373103,"is_reserved":false,"is_disabled":false,"rental_uris":{"android":"levelo://app?vid=68251d6c-c753-42be-92fc-cb39bec2fee4","ios":"levelo://app?vid=68251d6c-c753-42be-92fc-cb39bec2fee4"},"vehicle_type_id":"4","last_reported":1697609395,"current_range_meters":31200,"station_id":"ce4bgt12rcd13ifvqcd0","pricing_plan_id":"free"},{"bike_id":"20ee5e19-098d-4974-ac4c-f0c0b16003c2","system_id":"levelo_inurba_marseille","lat":43.314811,"lon":5.373103,"is_reserved":false,"is_disabled":false,"rental_uris":{"android":"levelo://app?vid=20ee5e19-098d-4974-ac4c-f0c0b16003c2","ios":"levelo://app?vid=20ee5e19-098d-4974-ac4c-f0c0b16003c2"},"vehicle_type_id":"4","last_reported":1697609395,"current_range_meters":29600,"station_id":"ce4bgt12rcd13ifvqcd0","pricing_plan_id":"free"},{"bike_id":"85bbb945-7b4f-4aad-adc8-58c67b47653f","system_id":"levelo_inurba_marseille","lat":43.314811,"lon":5.373103,"is_reserved":false,"is_disabled":false,"rental_uris":{"android":"levelo://app?vid=85bbb945-7b4f-4aad-adc8-58c67b47653f","ios":"levelo://app?vid=85bbb945-7b4f-4aad-adc8-58c67b47653f"},"vehicle_type_id":"4","last_reported":1697609395,"current_range_meters":29200,"station_id":"ce4bgt12rcd13ifvqcd0","pricing_plan_id":"free"},{"bike_id":"38127994-c118-4064-addd-b6f3b8564ea4","system_id":"levelo_inurba_marseille","lat":43.314811,"lon":5.373103,"is_reserved":false,"is_disabled":false,"rental_uris":{"android":"levelo://app?vid=38127994-c118-4064-addd-b6f3b8564ea4","ios":"levelo://app?vid=38127994-c118-4064-addd-b6f3b8564ea4"},"vehicle_type_id":"4","last_reported":1697609395,"current_range_meters":24400,"station_id":"ce4bgt12rcd13ifvqcd0","pricing_plan_id":"free"},{"bike_id":"f07dac03-690e-42ba-8d2d-49588eb1fac2","system_id":"levelo_inurba_marseille","lat":43.314811,"lon":5.373103,"is_reserved":false,"is_disabled":false,"rental_uris":{"android":"levelo://app?vid=f07dac03-690e-42ba-8d2d-49588eb1fac2","ios":"levelo://app?vid=f07dac03-690e-42ba-8d2d-49588eb1fac2"},"vehicle_type_id":"4","last_reported":1697609395,"current_range_meters":18000,"station_id":"ce4bgt12rcd13ifvqcd0","pricing_plan_id":"free"},{"bike_id":"d3609389-8aa4-40ab-acd2-5c0d12ae145f","system_id":"levelo_inurba_marseille","lat":43.309039,"lon":5.371797,"is_reserved":false,"is_disabled":false,"rental_uris":{"android":"levelo://app?vid=d3609389-8aa4-40ab-acd2-5c0d12ae145f","ios":"levelo://app?vid=d3609389-8aa4-40ab-acd2-5c0d12ae145f"},"vehicle_type_id":"4","last_reported":1697609395,"current_range_meters":31200,"station_id":"ce4bguh2rcd13ifvqckg","pricing_plan_id":"free"},{"bike_id":"07558947-cb43-460a-9b7e-763bbfb0839e","system_id":"levelo_inurba_marseille","lat":43.30897,"lon":5.372,"is_reserved":false,"is_disabled":false,"rental_uris":{"android":"levelo://app?vid=07558947-cb43-460a-9b7e-763bbfb0839e","ios":"levelo://app?vid=07558947-cb43-460a-9b7e-763bbfb0839e"},"vehicle_type_id":"4","last_reported":1697609395,"current_range_meters":4800,"station_id":"ce4bguh2rcd13ifvqckg","pricing_plan_id":"free"},{"bike_id":"35dd9748-baf6-4474-85c2-5164a9fd4aa9","system_id":"levelo_inurba_marseille","lat":43.309039,"lon":5.371797,"is_reserved":false,"is_disabled":false,"rental_uris":{"android":"levelo://app?vid=35dd9748-baf6-4474-85c2-5164a9fd4aa9","ios":"levelo://app?vid=35dd9748-baf6-4474-85c2-5164a9fd4aa9"},"vehicle_type_id":"4","last_reported":1697609395,"current_range_meters":29200,"station_id":"ce4bguh2rcd13ifvqckg","pricing_plan_id":"free"},{"bike_id":"f886d32c-2950-48dd-ad90-bbcb84393135","system_id":"levelo_inurba_marseille","lat":43.309039,"lon":5.371797,"is_reserved":false,"is_disabled":false,"rental_uris":{"android":"levelo://app?vid=f886d32c-2950-48dd-ad90-bbcb84393135","ios":"levelo://app?vid=f886d32c-2950-48dd-ad90-bbcb84393135"},"vehicle_type_id":"4","last_reported":1697609395,"current_range_meters":28400,"station_id":"ce4bguh2rcd13ifvqckg","pricing_plan_id":"free"},{"bike_id":"ad74fe99-933f-4d26-b775-6c338496272e","system_id":"levelo_inurba_marseille","lat":43.308834,"lon":5.371882,"is_reserved":false,"is_disabled":false,"rental_uris":{"android":"levelo://app?vid=ad74fe99-933f-4d26-b775-6c338496272e","ios":"levelo://app?vid=ad74fe99-933f-4d26-b775-6c338496272e"},"vehicle_type_id":"4","last_reported":1697609395,"current_range_meters":31200,"station_id":"ce4bguh2rcd13ifvqckg","pricing_plan_id":"free"},{"bike_id":"bb656294-bfc0-4ab9-b86f-9bb2ad363a19","system_id":"levelo_inurba_marseille","lat":43.309039,"lon":5.371797,"is_reserved":false,"is_disabled":false,"rental_uris":{"android":"levelo://app?vid=bb656294-bfc0-4ab9-b86f-9bb2ad363a19","ios":"levelo://app?vid=bb656294-bfc0-4ab9-b86f-9bb2ad363a19"},"vehicle_type_id":"4","last_reported":1697609395,"current_range_meters":28800,"station_id":"ce4bguh2rcd13ifvqckg","pricing_plan_id":"free"},{"bike_id":"d43fe598-ce0e-4ffc-bbab-28ecc8cdbbd4","system_id":"levelo_inurba_marseille","lat":43.309039,"lon":5.371797,"is_reserved":false,"is_disabled":false,"rental_uris":{"android":"levelo://app?vid=d43fe598-ce0e-4ffc-bbab-28ecc8cdbbd4","ios":"levelo://app?vid=d43fe598-ce0e-4ffc-bbab-28ecc8cdbbd4"},"vehicle_type_id":"4","last_reported":1697609395,"current_range_meters":21600,"station_id":"ce4bguh2rcd13ifvqckg","pricing_plan_id":"free"},{"bike_id":"50d26470-c49f-4480-8b23-0399116d05b5","system_id":"levelo_inurba_marseille","lat":43.309039,"lon":5.371797,"is_reserved":false,"is_disabled":false,"rental_uris":{"android":"levelo://app?vid=50d26470-c49f-4480-8b23-0399116d05b5","ios":"levelo://app?vid=50d26470-c49f-4480-8b23-0399116d05b5"},"vehicle_type_id":"4","last_reported":1697609395,"current_range_meters":24000,"station_id":"ce4bguh2rcd13ifvqckg","pricing_plan_id":"free"},{"bike_id":"8823a6a7-3659-4f0f-918f-158139655669","system_id":"levelo_inurba_marseille","lat":43.318055,"lon":5.36948,"is_reserved":false,"is_disabled":false,"rental_uris":{"android":"levelo://app?vid=8823a6a7-3659-4f0f-918f-158139655669","ios":"levelo://app?vid=8823a6a7-3659-4f0f-918f-158139655669"},"vehicle_type_id":"4","last_reported":1697609395,"current_range_meters":12800,"station_id":"","pricing_plan_id":"free"},{"bike_id":"19f5cde9-c9a9-471e-be0d-450940f072cd","system_id":"levelo_inurba_marseille","lat":43.30555,"lon":5.36697,"is_reserved":false,"is_disabled":false,"rental_uris":{"android":"levelo://app?vid=19f5cde9-c9a9-471e-be0d-450940f072cd","ios":"levelo://app?vid=19f5cde9-c9a9-471e-be0d-450940f072cd"},"vehicle_type_id":"4","last_reported":1697609395,"current_range_meters":11600,"station_id":"ce4bgrp2rcd13ifvqc9g","pricing_plan_id":"free"},{"bike_id":"68b1fd62-b18e-4a1d-b71c-a7b63855a008","system_id":"levelo_inurba_marseille","lat":43.30537,"lon":5.367345,"is_reserved":false,"is_disabled":false,"rental_uris":{"android":"levelo://app?vid=68b1fd62-b18e-4a1d-b71c-a7b63855a008","ios":"levelo://app?vid=68b1fd62-b18e-4a1d-b71c-a7b63855a008"},"vehicle_type_id":"4","last_reported":1697609395,"current_range_meters":28800,"station_id":"ce4bgrp2rcd13ifvqc9g","pricing_plan_id":"free"},{"bike_id":"57afd88d-048b-4b41-8900-342e746bba6d","system_id":"levelo_inurba_marseille","lat":43.30554,"lon":5.36562,"is_reserved":false,"is_disabled":false,"rental_uris":{"android":"levelo://app?vid=57afd88d-048b-4b41-8900-342e746bba6d","ios":"levelo://app?vid=57afd88d-048b-4b41-8900-342e746bba6d"},"vehicle_type_id":"4","last_reported":1697609395,"current_range_meters":27600,"station_id":"ce4bgs12rcd13ifvqcag","pricing_plan_id":"free"},{"bike_id":"d2ea098d-5e78-47cb-a1b6-aa4d04afe618","system_id":"levelo_inurba_marseille","lat":43.305368,"lon":5.367343,"is_reserved":false,"is_disabled":false,"rental_uris":{"android":"levelo://app?vid=d2ea098d-5e78-47cb-a1b6-aa4d04afe618","ios":"levelo://app?vid=d2ea098d-5e78-47cb-a1b6-aa4d04afe618"},"vehicle_type_id":"4","last_reported":1697609395,"current_range_meters":14800,"station_id":"ce4bgrp2rcd13ifvqc9g","pricing_plan_id":"free"},{"bike_id":"c5ed2164-8e97-44d5-bce5-88e5e0383f8f","system_id":"levelo_inurba_marseille","lat":43.30549,"lon":5.36567,"is_reserved":false,"is_disabled":false,"rental_uris":{"android":"levelo://app?vid=c5ed2164-8e97-44d5-bce5-88e5e0383f8f","ios":"levelo://app?vid=c5ed2164-8e97-44d5-bce5-88e5e0383f8f"},"vehicle_type_id":"4","last_reported":1697609395,"current_range_meters":27600,"station_id":"ce4bgs12rcd13ifvqcag","pricing_plan_id":"free"},{"bike_id":"e7decd8e-6129-48d8-a8ab-fe47d9c995b0","system_id":"levelo_inurba_marseille","lat":43.30547,"lon":5.36536,"is_reserved":false,"is_disabled":false,"rental_uris":{"android":"levelo://app?vid=e7decd8e-6129-48d8-a8ab-fe47d9c995b0","ios":"levelo://app?vid=e7decd8e-6129-48d8-a8ab-fe47d9c995b0"},"vehicle_type_id":"4","last_reported":1697609395,"current_range_meters":28000,"station_id":"ce4bgs12rcd13ifvqcag","pricing_plan_id":"free"},{"bike_id":"60ae9f70-974f-458d-9d1f-faf54fba4e1f","system_id":"levelo_inurba_marseille","lat":43.305368,"lon":5.367343,"is_reserved":false,"is_disabled":false,"rental_uris":{"android":"levelo://app?vid=60ae9f70-974f-458d-9d1f-faf54fba4e1f","ios":"levelo://app?vid=60ae9f70-974f-458d-9d1f-faf54fba4e1f"},"vehicle_type_id":"4","last_reported":1697609395,"current_range_meters":31200,"station_id":"ce4bgrp2rcd13ifvqc9g","pricing_plan_id":"free"},{"bike_id":"85824b1d-ed85-40ac-99fd-885c3ec8a650","system_id":"levelo_inurba_marseille","lat":43.30543,"lon":5.36555,"is_reserved":false,"is_disabled":false,"rental_uris":{"android":"levelo://app?vid=85824b1d-ed85-40ac-99fd-885c3ec8a650","ios":"levelo://app?vid=85824b1d-ed85-40ac-99fd-885c3ec8a650"},"vehicle_type_id":"4","last_reported":1697609395,"current_range_meters":26000,"station_id":"ce4bgs12rcd13ifvqcag","pricing_plan_id":"free"},{"bike_id":"38bac9ef-067c-40ce-99e6-52a365927da5","system_id":"levelo_inurba_marseille","lat":43.305368,"lon":5.367343,"is_reserved":false,"is_disabled":false,"rental_uris":{"android":"levelo://app?vid=38bac9ef-067c-40ce-99e6-52a365927da5","ios":"levelo://app?vid=38bac9ef-067c-40ce-99e6-52a365927da5"},"vehicle_type_id":"4","last_reported":1697609395,"current_range_meters":30800,"station_id":"ce4bgrp2rcd13ifvqc9g","pricing_plan_id":"free"},{"bike_id":"2815f5a7-586c-41e1-bc51-4b2208134dfd","system_id":"levelo_inurba_marseille","lat":43.30526,"lon":5.3671,"is_reserved":false,"is_disabled":false,"rental_uris":{"android":"levelo://app?vid=2815f5a7-586c-41e1-bc51-4b2208134dfd","ios":"levelo://app?vid=2815f5a7-586c-41e1-bc51-4b2208134dfd"},"vehicle_type_id":"4","last_reported":1697609395,"current_range_meters":11600,"station_id":"ce4bgrp2rcd13ifvqc9g","pricing_plan_id":"free"},{"bike_id":"f549c583-34a1-48be-b18a-9c650aec79ed","system_id":"levelo_inurba_marseille","lat":43.307826,"lon":5.376506,"is_reserved":false,"is_disabled":false,"rental_uris":{"android":"levelo://app?vid=f549c583-34a1-48be-b18a-9c650aec79ed","ios":"levelo://app?vid=f549c583-34a1-48be-b18a-9c650aec79ed"},"vehicle_type_id":"4","last_reported":1697609395,"current_range_meters":29600,"station_id":"ce4bgv92rcd13ifvqcq0","pricing_plan_id":"free"},{"bike_id":"38c2dbef-3ce0-45a4-9841-bd56f986bd7c","system_id":"levelo_inurba_marseille","lat":43.307823,"lon":5.376515,"is_reserved":false,"is_disabled":false,"rental_uris":{"android":"levelo://app?vid=38c2dbef-3ce0-45a4-9841-bd56f986bd7c","ios":"levelo://app?vid=38c2dbef-3ce0-45a4-9841-bd56f986bd7c"},"vehicle_type_id":"4","last_reported":1697609395,"current_range_meters":31200,"station_id":"ce4bgv92rcd13ifvqcq0","pricing_plan_id":"free"},{"bike_id":"d5e07819-db2b-411a-84c0-dff20332c87d","system_id":"levelo_inurba_marseille","lat":43.32199,"lon":5.369275,"is_reserved":false,"is_disabled":false,"rental_uris":{"android":"levelo://app?vid=d5e07819-db2b-411a-84c0-dff20332c87d","ios":"levelo://app?vid=d5e07819-db2b-411a-84c0-dff20332c87d"},"vehicle_type_id":"4","last_reported":1697609395,"current_range_meters":16400,"station_id":"","pricing_plan_id":"free"},{"bike_id":"cf290c8e-ac83-4606-a7e8-22b6fc7b2d89","system_id":"levelo_inurba_marseille","lat":43.303046,"lon":5.368981,"is_reserved":false,"is_disabled":false,"rental_uris":{"android":"levelo://app?vid=cf290c8e-ac83-4606-a7e8-22b6fc7b2d89","ios":"levelo://app?vid=cf290c8e-ac83-4606-a7e8-22b6fc7b2d89"},"vehicle_type_id":"4","last_reported":1697609395,"current_range_meters":15200,"station_id":"ce4bgqh2rcd13ifvqc5g","pricing_plan_id":"free"},{"bike_id":"4a6a1d6e-e32c-4eea-a0a3-f72d9e8f587a","system_id":"levelo_inurba_marseille","lat":43.301939,"lon":5.366286,"is_reserved":false,"is_disabled":false,"rental_uris":{"android":"levelo://app?vid=4a6a1d6e-e32c-4eea-a0a3-f72d9e8f587a","ios":"levelo://app?vid=4a6a1d6e-e32c-4eea-a0a3-f72d9e8f587a"},"vehicle_type_id":"4","last_reported":1697609395,"current_range_meters":24400,"station_id":"ce4bgrh2rcd13ifvqc8g","pricing_plan_id":"free"},{"bike_id":"108a4c34-c62a-45ab-9890-7ce8123f0544","system_id":"levelo_inurba_marseille","lat":43.30797,"lon":5.3816,"is_reserved":false,"is_disabled":false,"rental_uris":{"android":"levelo://app?vid=108a4c34-c62a-45ab-9890-7ce8123f0544","ios":"levelo://app?vid=108a4c34-c62a-45ab-9890-7ce8123f0544"},"vehicle_type_id":"4","last_reported":1697609395,"current_range_meters":0,"station_id":"ce4bgt12rcd13ifvqce0","pricing_plan_id":"free"},{"bike_id":"804f5c91-10cd-427d-818e-6a479608dfda","system_id":"levelo_inurba_marseille","lat":43.304606,"lon":5.379026,"is_reserved":false,"is_disabled":false,"rental_uris":{"android":"levelo://app?vid=804f5c91-10cd-427d-818e-6a479608dfda","ios":"levelo://app?vid=804f5c91-10cd-427d-818e-6a479608dfda"},"vehicle_type_id":"4","last_reported":1697609395,"current_range_meters":22400,"station_id":"ce4bgup2rcd13ifvqcn0","pricing_plan_id":"free"},{"bike_id":"346d0cd6-73ff-4136-9fcc-109352ecb207","system_id":"levelo_inurba_marseille","lat":43.304606,"lon":5.379026,"is_reserved":false,"is_disabled":false,"rental_uris":{"android":"levelo://app?vid=346d0cd6-73ff-4136-9fcc-109352ecb207","ios":"levelo://app?vid=346d0cd6-73ff-4136-9fcc-109352ecb207"},"vehicle_type_id":"4","last_reported":1697609395,"current_range_meters":24800,"station_id":"ce4bgup2rcd13ifvqcn0","pricing_plan_id":"free"},{"bike_id":"3de29284-9474-4cfd-a29f-eb8de207f800","system_id":"levelo_inurba_marseille","lat":43.304606,"lon":5.379026,"is_reserved":false,"is_disabled":false,"rental_uris":{"android":"levelo://app?vid=3de29284-9474-4cfd-a29f-eb8de207f800","ios":"levelo://app?vid=3de29284-9474-4cfd-a29f-eb8de207f800"},"vehicle_type_id":"4","last_reported":1697609395,"current_range_meters":31200,"station_id":"ce4bgup2rcd13ifvqcn0","pricing_plan_id":"free"},{"bike_id":"89d1e391-f66f-49ae-831b-772efd3c71da","system_id":"levelo_inurba_marseille","lat":43.304606,"lon":5.379026,"is_reserved":false,"is_disabled":false,"rental_uris":{"android":"levelo://app?vid=89d1e391-f66f-49ae-831b-772efd3c71da","ios":"levelo://app?vid=89d1e391-f66f-49ae-831b-772efd3c71da"},"vehicle_type_id":"4","last_reported":1697609395,"current_range_meters":28000,"station_id":"ce4bgup2rcd13ifvqcn0","pricing_plan_id":"free"},{"bike_id":"c6c40977-7af6-4cb3-a81d-a5b918fce74c","system_id":"levelo_inurba_marseille","lat":43.304606,"lon":5.379026,"is_reserved":false,"is_disabled":false,"rental_uris":{"android":"levelo://app?vid=c6c40977-7af6-4cb3-a81d-a5b918fce74c","ios":"levelo://app?vid=c6c40977-7af6-4cb3-a81d-a5b918fce74c"},"vehicle_type_id":"4","last_reported":1697609395,"current_range_meters":30000,"station_id":"ce4bgup2rcd13ifvqcn0","pricing_plan_id":"free"},{"bike_id":"b531bbb7-1728-4c89-90e7-da80a7f40998","system_id":"levelo_inurba_marseille","lat":43.304606,"lon":5.379026,"is_reserved":false,"is_disabled":false,"rental_uris":{"android":"levelo://app?vid=b531bbb7-1728-4c89-90e7-da80a7f40998","ios":"levelo://app?vid=b531bbb7-1728-4c89-90e7-da80a7f40998"},"vehicle_type_id":"4","last_reported":1697609395,"current_range_meters":24000,"station_id":"ce4bgup2rcd13ifvqcn0","pricing_plan_id":"free"},{"bike_id":"3e25d6d2-2ea3-4838-ba92-42df73c5c186","system_id":"levelo_inurba_marseille","lat":43.304606,"lon":5.379026,"is_reserved":false,"is_disabled":false,"rental_uris":{"android":"levelo://app?vid=3e25d6d2-2ea3-4838-ba92-42df73c5c186","ios":"levelo://app?vid=3e25d6d2-2ea3-4838-ba92-42df73c5c186"},"vehicle_type_id":"4","last_reported":1697609395,"current_range_meters":22800,"station_id":"ce4bgup2rcd13ifvqcn0","pricing_plan_id":"free"},{"bike_id":"ae6ea193-0327-4cae-bc05-d267cfb6c945","system_id":"levelo_inurba_marseille","lat":43.304606,"lon":5.379026,"is_reserved":false,"is_disabled":false,"rental_uris":{"android":"levelo://app?vid=ae6ea193-0327-4cae-bc05-d267cfb6c945","ios":"levelo://app?vid=ae6ea193-0327-4cae-bc05-d267cfb6c945"},"vehicle_type_id":"4","last_reported":1697609395,"current_range_meters":30400,"station_id":"ce4bgup2rcd13ifvqcn0","pricing_plan_id":"free"},{"bike_id":"50c2840c-0d71-44d1-89c4-912d84b570f0","system_id":"levelo_inurba_marseille","lat":43.304606,"lon":5.379026,"is_reserved":false,"is_disabled":false,"rental_uris":{"android":"levelo://app?vid=50c2840c-0d71-44d1-89c4-912d84b570f0","ios":"levelo://app?vid=50c2840c-0d71-44d1-89c4-912d84b570f0"},"vehicle_type_id":"4","last_reported":1697609395,"current_range_meters":18800,"station_id":"ce4bgup2rcd13ifvqcn0","pricing_plan_id":"free"},{"bike_id":"85806f0f-28cf-43ca-803f-d089d0029e30","system_id":"levelo_inurba_marseille","lat":43.304606,"lon":5.379026,"is_reserved":false,"is_disabled":false,"rental_uris":{"android":"levelo://app?vid=85806f0f-28cf-43ca-803f-d089d0029e30","ios":"levelo://app?vid=85806f0f-28cf-43ca-803f-d089d0029e30"},"vehicle_type_id":"4","last_reported":1697609395,"current_range_meters":26400,"station_id":"ce4bgup2rcd13ifvqcn0","pricing_plan_id":"free"},{"bike_id":"08c2c5bd-7193-41fc-9acb-50089c8047df","system_id":"levelo_inurba_marseille","lat":43.304606,"lon":5.379026,"is_reserved":false,"is_disabled":false,"rental_uris":{"android":"levelo://app?vid=08c2c5bd-7193-41fc-9acb-50089c8047df","ios":"levelo://app?vid=08c2c5bd-7193-41fc-9acb-50089c8047df"},"vehicle_type_id":"4","last_reported":1697609395,"current_range_meters":31200,"station_id":"ce4bgup2rcd13ifvqcn0","pricing_plan_id":"free"},{"bike_id":"9e1f2c60-c9ce-4c8a-9c81-e88a07fca802","system_id":"levelo_inurba_marseille","lat":43.304606,"lon":5.379026,"is_reserved":false,"is_disabled":false,"rental_uris":{"android":"levelo://app?vid=9e1f2c60-c9ce-4c8a-9c81-e88a07fca802","ios":"levelo://app?vid=9e1f2c60-c9ce-4c8a-9c81-e88a07fca802"},"vehicle_type_id":"4","last_reported":1697609395,"current_range_meters":26400,"station_id":"ce4bgup2rcd13ifvqcn0","pricing_plan_id":"free"},{"bike_id":"f1413081-3379-420a-b2e0-f1770257e1b8","system_id":"levelo_inurba_marseille","lat":43.304606,"lon":5.379026,"is_reserved":false,"is_disabled":false,"rental_uris":{"android":"levelo://app?vid=f1413081-3379-420a-b2e0-f1770257e1b8","ios":"levelo://app?vid=f1413081-3379-420a-b2e0-f1770257e1b8"},"vehicle_type_id":"4","last_reported":1697609395,"current_range_meters":26800,"station_id":"ce4bgup2rcd13ifvqcn0","pricing_plan_id":"free"},{"bike_id":"453403ca-b57b-483b-aedf-8e3f50a19712","system_id":"levelo_inurba_marseille","lat":43.304606,"lon":5.379026,"is_reserved":false,"is_disabled":false,"rental_uris":{"android":"levelo://app?vid=453403ca-b57b-483b-aedf-8e3f50a19712","ios":"levelo://app?vid=453403ca-b57b-483b-aedf-8e3f50a19712"},"vehicle_type_id":"4","last_reported":1697609395,"current_range_meters":26800,"station_id":"ce4bgup2rcd13ifvqcn0","pricing_plan_id":"free"},{"bike_id":"37a9a04b-d001-41bf-a585-637ede321fe5","system_id":"levelo_inurba_marseille","lat":43.304606,"lon":5.379026,"is_reserved":false,"is_disabled":false,"rental_uris":{"android":"levelo://app?vid=37a9a04b-d001-41bf-a585-637ede321fe5","ios":"levelo://app?vid=37a9a04b-d001-41bf-a585-637ede321fe5"},"vehicle_type_id":"4","last_reported":1697609395,"current_range_meters":17600,"station_id":"ce4bgup2rcd13ifvqcn0","pricing_plan_id":"free"},{"bike_id":"17d0a2ab-c423-457f-a8b4-299f59175354","system_id":"levelo_inurba_marseille","lat":43.304606,"lon":5.379026,"is_reserved":false,"is_disabled":false,"rental_uris":{"android":"levelo://app?vid=17d0a2ab-c423-457f-a8b4-299f59175354","ios":"levelo://app?vid=17d0a2ab-c423-457f-a8b4-299f59175354"},"vehicle_type_id":"4","last_reported":1697609395,"current_range_meters":24400,"station_id":"ce4bgup2rcd13ifvqcn0","pricing_plan_id":"free"},{"bike_id":"320eefbb-5796-4f67-8a17-8e5d25eaa0e9","system_id":"levelo_inurba_marseille","lat":43.304606,"lon":5.379026,"is_reserved":false,"is_disabled":false,"rental_uris":{"android":"levelo://app?vid=320eefbb-5796-4f67-8a17-8e5d25eaa0e9","ios":"levelo://app?vid=320eefbb-5796-4f67-8a17-8e5d25eaa0e9"},"vehicle_type_id":"4","last_reported":1697609395,"current_range_meters":28800,"station_id":"ce4bgup2rcd13ifvqcn0","pricing_plan_id":"free"},{"bike_id":"aab2700a-391e-44e8-a4a1-0fe33f5cb841","system_id":"levelo_inurba_marseille","lat":43.304606,"lon":5.379026,"is_reserved":false,"is_disabled":false,"rental_uris":{"android":"levelo://app?vid=aab2700a-391e-44e8-a4a1-0fe33f5cb841","ios":"levelo://app?vid=aab2700a-391e-44e8-a4a1-0fe33f5cb841"},"vehicle_type_id":"4","last_reported":1697609395,"current_range_meters":24400,"station_id":"ce4bgup2rcd13ifvqcn0","pricing_plan_id":"free"},{"bike_id":"51b527db-af84-445a-b733-abd143fc3c0a","system_id":"levelo_inurba_marseille","lat":43.304606,"lon":5.379026,"is_reserved":false,"is_disabled":false,"rental_uris":{"android":"levelo://app?vid=51b527db-af84-445a-b733-abd143fc3c0a","ios":"levelo://app?vid=51b527db-af84-445a-b733-abd143fc3c0a"},"vehicle_type_id":"4","last_reported":1697609395,"current_range_meters":22800,"station_id":"ce4bgup2rcd13ifvqcn0","pricing_plan_id":"free"},{"bike_id":"20336f73-2303-4a2c-8c60-5fb0eee6aac1","system_id":"levelo_inurba_marseille","lat":43.304606,"lon":5.379026,"is_reserved":false,"is_disabled":false,"rental_uris":{"android":"levelo://app?vid=20336f73-2303-4a2c-8c60-5fb0eee6aac1","ios":"levelo://app?vid=20336f73-2303-4a2c-8c60-5fb0eee6aac1"},"vehicle_type_id":"4","last_reported":1697609395,"current_range_meters":21200,"station_id":"ce4bgup2rcd13ifvqcn0","pricing_plan_id":"free"},{"bike_id":"ccadfb34-15f0-4557-818f-5713261ac9a4","system_id":"levelo_inurba_marseille","lat":43.304606,"lon":5.379026,"is_reserved":false,"is_disabled":false,"rental_uris":{"android":"levelo://app?vid=ccadfb34-15f0-4557-818f-5713261ac9a4","ios":"levelo://app?vid=ccadfb34-15f0-4557-818f-5713261ac9a4"},"vehicle_type_id":"4","last_reported":1697609395,"current_range_meters":25600,"station_id":"ce4bgup2rcd13ifvqcn0","pricing_plan_id":"free"},{"bike_id":"30c2f2f0-91f7-41c6-95cb-7fcb5f7ce64a","system_id":"levelo_inurba_marseille","lat":43.304606,"lon":5.379026,"is_reserved":false,"is_disabled":false,"rental_uris":{"android":"levelo://app?vid=30c2f2f0-91f7-41c6-95cb-7fcb5f7ce64a","ios":"levelo://app?vid=30c2f2f0-91f7-41c6-95cb-7fcb5f7ce64a"},"vehicle_type_id":"4","last_reported":1697609395,"current_range_meters":19600,"station_id":"ce4bgup2rcd13ifvqcn0","pricing_plan_id":"free"},{"bike_id":"6da87cc6-9eeb-4efa-a885-100f037b1a72","system_id":"levelo_inurba_marseille","lat":43.304606,"lon":5.379026,"is_reserved":false,"is_disabled":false,"rental_uris":{"android":"levelo://app?vid=6da87cc6-9eeb-4efa-a885-100f037b1a72","ios":"levelo://app?vid=6da87cc6-9eeb-4efa-a885-100f037b1a72"},"vehicle_type_id":"4","last_reported":1697609395,"current_range_meters":30400,"station_id":"ce4bgup2rcd13ifvqcn0","pricing_plan_id":"free"},{"bike_id":"6d5c9d73-dbd3-4bb5-9946-c0044ecd7c99","system_id":"levelo_inurba_marseille","lat":43.304606,"lon":5.379026,"is_reserved":false,"is_disabled":false,"rental_uris":{"android":"levelo://app?vid=6d5c9d73-dbd3-4bb5-9946-c0044ecd7c99","ios":"levelo://app?vid=6d5c9d73-dbd3-4bb5-9946-c0044ecd7c99"},"vehicle_type_id":"4","last_reported":1697609395,"current_range_meters":29600,"station_id":"ce4bgup2rcd13ifvqcn0","pricing_plan_id":"free"},{"bike_id":"6e10cb78-5597-4512-a32e-57eaeb1b1293","system_id":"levelo_inurba_marseille","lat":43.304606,"lon":5.379026,"is_reserved":false,"is_disabled":false,"rental_uris":{"android":"levelo://app?vid=6e10cb78-5597-4512-a32e-57eaeb1b1293","ios":"levelo://app?vid=6e10cb78-5597-4512-a32e-57eaeb1b1293"},"vehicle_type_id":"4","last_reported":1697609395,"current_range_meters":27600,"station_id":"ce4bgup2rcd13ifvqcn0","pricing_plan_id":"free"},{"bike_id":"351e5e27-90a7-4983-8e0a-a791ee10875f","system_id":"levelo_inurba_marseille","lat":43.304606,"lon":5.379026,"is_reserved":false,"is_disabled":false,"rental_uris":{"android":"levelo://app?vid=351e5e27-90a7-4983-8e0a-a791ee10875f","ios":"levelo://app?vid=351e5e27-90a7-4983-8e0a-a791ee10875f"},"vehicle_type_id":"4","last_reported":1697609395,"current_range_meters":29200,"station_id":"ce4bgup2rcd13ifvqcn0","pricing_plan_id":"free"},{"bike_id":"a83258ce-0d26-4eb1-8a8c-521fc123a1c9","system_id":"levelo_inurba_marseille","lat":43.31926,"lon":5.38137,"is_reserved":false,"is_disabled":false,"rental_uris":{"android":"levelo://app?vid=a83258ce-0d26-4eb1-8a8c-521fc123a1c9","ios":"levelo://app?vid=a83258ce-0d26-4eb1-8a8c-521fc123a1c9"},"vehicle_type_id":"4","last_reported":1697609395,"current_range_meters":15600,"station_id":"ce4bhr12rcd13ifvqhpg","pricing_plan_id":"free"},{"bike_id":"19d12394-8e77-45e9-a11a-e737b965619f","system_id":"levelo_inurba_marseille","lat":43.32025,"lon":5.3806,"is_reserved":false,"is_disabled":false,"rental_uris":{"android":"levelo://app?vid=19d12394-8e77-45e9-a11a-e737b965619f","ios":"levelo://app?vid=19d12394-8e77-45e9-a11a-e737b965619f"},"vehicle_type_id":"4","last_reported":1697609395,"current_range_meters":19600,"station_id":"ce4bhqp2rcd13ifvqhng","pricing_plan_id":"free"},{"bike_id":"1aefded1-40a6-480a-b1b8-f15babd6f8a7","system_id":"levelo_inurba_marseille","lat":43.302784,"lon":5.377158,"is_reserved":false,"is_disabled":false,"rental_uris":{"android":"levelo://app?vid=1aefded1-40a6-480a-b1b8-f15babd6f8a7","ios":"levelo://app?vid=1aefded1-40a6-480a-b1b8-f15babd6f8a7"},"vehicle_type_id":"4","last_reported":1697609395,"current_range_meters":12000,"station_id":"ce4bguh2rcd13ifvqcj0","pricing_plan_id":"free"},{"bike_id":"50f40cfd-78f1-46e4-ad2f-9ab9402544f9","system_id":"levelo_inurba_marseille","lat":43.319985,"lon":5.381595,"is_reserved":false,"is_disabled":false,"rental_uris":{"android":"levelo://app?vid=50f40cfd-78f1-46e4-ad2f-9ab9402544f9","ios":"levelo://app?vid=50f40cfd-78f1-46e4-ad2f-9ab9402544f9"},"vehicle_type_id":"4","last_reported":1697609395,"current_range_meters":26800,"station_id":"ce4bhr12rcd13ifvqhpg","pricing_plan_id":"free"},{"bike_id":"2fe8984f-4595-454f-9562-66e94dba88ee","system_id":"levelo_inurba_marseille","lat":43.32124,"lon":5.3803,"is_reserved":false,"is_disabled":false,"rental_uris":{"android":"levelo://app?vid=2fe8984f-4595-454f-9562-66e94dba88ee","ios":"levelo://app?vid=2fe8984f-4595-454f-9562-66e94dba88ee"},"vehicle_type_id":"4","last_reported":1697609395,"current_range_meters":8400,"station_id":"","pricing_plan_id":"free"},{"bike_id":"37e58e60-6f45-4079-923e-6c0c3deefbed","system_id":"levelo_inurba_marseille","lat":43.299222,"lon":5.365554,"is_reserved":false,"is_disabled":false,"rental_uris":{"android":"levelo://app?vid=37e58e60-6f45-4079-923e-6c0c3deefbed","ios":"levelo://app?vid=37e58e60-6f45-4079-923e-6c0c3deefbed"},"vehicle_type_id":"4","last_reported":1697609395,"current_range_meters":30400,"station_id":"ce4bgm92rcd13ifvqbr0","pricing_plan_id":"free"},{"bike_id":"4dadbc1d-a25b-47ec-81e2-4f00c9dde08c","system_id":"levelo_inurba_marseille","lat":43.299222,"lon":5.365554,"is_reserved":false,"is_disabled":false,"rental_uris":{"android":"levelo://app?vid=4dadbc1d-a25b-47ec-81e2-4f00c9dde08c","ios":"levelo://app?vid=4dadbc1d-a25b-47ec-81e2-4f00c9dde08c"},"vehicle_type_id":"4","last_reported":1697609395,"current_range_meters":31200,"station_id":"ce4bgm92rcd13ifvqbr0","pricing_plan_id":"free"},{"bike_id":"b7aa85bc-f30e-425d-9efe-8c133b6892be","system_id":"levelo_inurba_marseille","lat":43.29935,"lon":5.36549,"is_reserved":false,"is_disabled":false,"rental_uris":{"android":"levelo://app?vid=b7aa85bc-f30e-425d-9efe-8c133b6892be","ios":"levelo://app?vid=b7aa85bc-f30e-425d-9efe-8c133b6892be"},"vehicle_type_id":"4","last_reported":1697609395,"current_range_meters":25200,"station_id":"ce4bgm92rcd13ifvqbr0","pricing_plan_id":"free"},{"bike_id":"6352405e-a167-4e6d-951e-43f3fa0632d0","system_id":"levelo_inurba_marseille","lat":43.29975,"lon":5.37174,"is_reserved":false,"is_disabled":false,"rental_uris":{"android":"levelo://app?vid=6352405e-a167-4e6d-951e-43f3fa0632d0","ios":"levelo://app?vid=6352405e-a167-4e6d-951e-43f3fa0632d0"},"vehicle_type_id":"4","last_reported":1697609395,"current_range_meters":31200,"station_id":"ce4bgr92rcd13ifvqc7g","pricing_plan_id":"free"},{"bike_id":"99baab6d-20e2-437b-8a82-e9e751296122","system_id":"levelo_inurba_marseille","lat":43.299724,"lon":5.371829,"is_reserved":false,"is_disabled":false,"rental_uris":{"android":"levelo://app?vid=99baab6d-20e2-437b-8a82-e9e751296122","ios":"levelo://app?vid=99baab6d-20e2-437b-8a82-e9e751296122"},"vehicle_type_id":"4","last_reported":1697609395,"current_range_meters":19200,"station_id":"ce4bgr92rcd13ifvqc7g","pricing_plan_id":"free"},{"bike_id":"0eed1805-7c2a-4155-9f3b-f0d54f7087a7","system_id":"levelo_inurba_marseille","lat":43.299259,"lon":5.365483,"is_reserved":false,"is_disabled":false,"rental_uris":{"android":"levelo://app?vid=0eed1805-7c2a-4155-9f3b-f0d54f7087a7","ios":"levelo://app?vid=0eed1805-7c2a-4155-9f3b-f0d54f7087a7"},"vehicle_type_id":"4","last_reported":1697609395,"current_range_meters":17600,"station_id":"","pricing_plan_id":"free"},{"bike_id":"479f7351-88b4-4e0c-bd0e-c07b879e93a6","system_id":"levelo_inurba_marseille","lat":43.304606,"lon":5.379026,"is_reserved":false,"is_disabled":false,"rental_uris":{"android":"levelo://app?vid=479f7351-88b4-4e0c-bd0e-c07b879e93a6","ios":"levelo://app?vid=479f7351-88b4-4e0c-bd0e-c07b879e93a6"},"vehicle_type_id":"4","last_reported":1697609395,"current_range_meters":23600,"station_id":"ce4bgup2rcd13ifvqcn0","pricing_plan_id":"free"},{"bike_id":"37935d2d-8225-4330-a7b3-a283b123d3f0","system_id":"levelo_inurba_marseille","lat":43.305364,"lon":5.384119,"is_reserved":false,"is_disabled":false,"rental_uris":{"android":"levelo://app?vid=37935d2d-8225-4330-a7b3-a283b123d3f0","ios":"levelo://app?vid=37935d2d-8225-4330-a7b3-a283b123d3f0"},"vehicle_type_id":"4","last_reported":1697609395,"current_range_meters":27200,"station_id":"ce4bgg92rcd13ifvqb30","pricing_plan_id":"free"},{"bike_id":"40b079dc-51dc-46fb-ad0a-1312f3cd225f","system_id":"levelo_inurba_marseille","lat":43.305364,"lon":5.384119,"is_reserved":false,"is_disabled":false,"rental_uris":{"android":"levelo://app?vid=40b079dc-51dc-46fb-ad0a-1312f3cd225f","ios":"levelo://app?vid=40b079dc-51dc-46fb-ad0a-1312f3cd225f"},"vehicle_type_id":"4","last_reported":1697609395,"current_range_meters":29200,"station_id":"ce4bgg92rcd13ifvqb30","pricing_plan_id":"free"},{"bike_id":"037a4df2-094c-46c8-b293-a6a65086f4fd","system_id":"levelo_inurba_marseille","lat":43.298433,"lon":5.362774,"is_reserved":false,"is_disabled":false,"rental_uris":{"android":"levelo://app?vid=037a4df2-094c-46c8-b293-a6a65086f4fd","ios":"levelo://app?vid=037a4df2-094c-46c8-b293-a6a65086f4fd"},"vehicle_type_id":"4","last_reported":1697609395,"current_range_meters":28400,"station_id":"ce4bgpp2rcd13ifvqc3g","pricing_plan_id":"free"},{"bike_id":"586ea89f-08da-487c-bbe5-c8615b596a5c","system_id":"levelo_inurba_marseille","lat":43.299243,"lon":5.37481,"is_reserved":false,"is_disabled":false,"rental_uris":{"android":"levelo://app?vid=586ea89f-08da-487c-bbe5-c8615b596a5c","ios":"levelo://app?vid=586ea89f-08da-487c-bbe5-c8615b596a5c"},"vehicle_type_id":"4","last_reported":1697609395,"current_range_meters":24800,"station_id":"ce4bgjh2rcd13ifvqbg0","pricing_plan_id":"free"},{"bike_id":"cdc16f53-a073-45b0-9cec-7d7323232909","system_id":"levelo_inurba_marseille","lat":43.299243,"lon":5.37481,"is_reserved":false,"is_disabled":false,"rental_uris":{"android":"levelo://app?vid=cdc16f53-a073-45b0-9cec-7d7323232909","ios":"levelo://app?vid=cdc16f53-a073-45b0-9cec-7d7323232909"},"vehicle_type_id":"4","last_reported":1697609395,"current_range_meters":16000,"station_id":"ce4bgjh2rcd13ifvqbg0","pricing_plan_id":"free"},{"bike_id":"5e2df663-6b1d-4730-8fc1-38acbfbc65a1","system_id":"levelo_inurba_marseille","lat":43.297794,"lon":5.370888,"is_reserved":false,"is_disabled":false,"rental_uris":{"android":"levelo://app?vid=5e2df663-6b1d-4730-8fc1-38acbfbc65a1","ios":"levelo://app?vid=5e2df663-6b1d-4730-8fc1-38acbfbc65a1"},"vehicle_type_id":"4","last_reported":1697609395,"current_range_meters":21600,"station_id":"ce4bgop2rcd13ifvqc1g","pricing_plan_id":"free"},{"bike_id":"ac69d916-0838-473d-b3b4-208d63e4e501","system_id":"levelo_inurba_marseille","lat":43.31516,"lon":5.38784,"is_reserved":false,"is_disabled":false,"rental_uris":{"android":"levelo://app?vid=ac69d916-0838-473d-b3b4-208d63e4e501","ios":"levelo://app?vid=ac69d916-0838-473d-b3b4-208d63e4e501"},"vehicle_type_id":"4","last_reported":1697609395,"current_range_meters":0,"station_id":"","pricing_plan_id":"free"},{"bike_id":"88bc0def-6970-484f-8592-706af1115e77","system_id":"levelo_inurba_marseille","lat":43.328203,"lon":5.36686,"is_reserved":false,"is_disabled":false,"rental_uris":{"android":"levelo://app?vid=88bc0def-6970-484f-8592-706af1115e77","ios":"levelo://app?vid=88bc0def-6970-484f-8592-706af1115e77"},"vehicle_type_id":"4","last_reported":1697609395,"current_range_meters":23600,"station_id":"ce4bhs92rcd13ifvqi0g","pricing_plan_id":"free"},{"bike_id":"7fc4f594-5780-4f71-94fd-b9130f5aa9b3","system_id":"levelo_inurba_marseille","lat":43.32824,"lon":5.36681,"is_reserved":false,"is_disabled":false,"rental_uris":{"android":"levelo://app?vid=7fc4f594-5780-4f71-94fd-b9130f5aa9b3","ios":"levelo://app?vid=7fc4f594-5780-4f71-94fd-b9130f5aa9b3"},"vehicle_type_id":"4","last_reported":1697609395,"current_range_meters":20000,"station_id":"","pricing_plan_id":"free"},{"bike_id":"3cf38968-4707-4933-a8fe-e8aa2fb677e6","system_id":"levelo_inurba_marseille","lat":43.32833,"lon":5.36685,"is_reserved":false,"is_disabled":false,"rental_uris":{"android":"levelo://app?vid=3cf38968-4707-4933-a8fe-e8aa2fb677e6","ios":"levelo://app?vid=3cf38968-4707-4933-a8fe-e8aa2fb677e6"},"vehicle_type_id":"4","last_reported":1697609395,"current_range_meters":9600,"station_id":"ce4bhs92rcd13ifvqi0g","pricing_plan_id":"free"},{"bike_id":"1293be6d-465b-4c7b-8a6b-828f589c90a0","system_id":"levelo_inurba_marseille","lat":43.29716,"lon":5.36604,"is_reserved":false,"is_disabled":false,"rental_uris":{"android":"levelo://app?vid=1293be6d-465b-4c7b-8a6b-828f589c90a0","ios":"levelo://app?vid=1293be6d-465b-4c7b-8a6b-828f589c90a0"},"vehicle_type_id":"4","last_reported":1697609395,"current_range_meters":26400,"station_id":"ce4bgn12rcd13ifvqbt0","pricing_plan_id":"free"},{"bike_id":"3c9a82f9-264b-48b5-9a4e-8b057d4601b3","system_id":"levelo_inurba_marseille","lat":43.32884,"lon":5.36392,"is_reserved":false,"is_disabled":false,"rental_uris":{"android":"levelo://app?vid=3c9a82f9-264b-48b5-9a4e-8b057d4601b3","ios":"levelo://app?vid=3c9a82f9-264b-48b5-9a4e-8b057d4601b3"},"vehicle_type_id":"4","last_reported":1697609395,"current_range_meters":20800,"station_id":"","pricing_plan_id":"free"},{"bike_id":"5bc1a485-82c2-4d8f-9476-8167fb472f7e","system_id":"levelo_inurba_marseille","lat":43.323663,"lon":5.3835,"is_reserved":false,"is_disabled":false,"rental_uris":{"android":"levelo://app?vid=5bc1a485-82c2-4d8f-9476-8167fb472f7e","ios":"levelo://app?vid=5bc1a485-82c2-4d8f-9476-8167fb472f7e"},"vehicle_type_id":"4","last_reported":1697609395,"current_range_meters":0,"station_id":"","pricing_plan_id":"free"},{"bike_id":"98a5c4b5-f023-4abf-81cf-5ca2186db007","system_id":"levelo_inurba_marseille","lat":43.32367,"lon":5.38352,"is_reserved":false,"is_disabled":false,"rental_uris":{"android":"levelo://app?vid=98a5c4b5-f023-4abf-81cf-5ca2186db007","ios":"levelo://app?vid=98a5c4b5-f023-4abf-81cf-5ca2186db007"},"vehicle_type_id":"4","last_reported":1697609395,"current_range_meters":17200,"station_id":"","pricing_plan_id":"free"},{"bike_id":"376135a8-52fd-484c-ac3c-def0a41a7a0d","system_id":"levelo_inurba_marseille","lat":43.32376,"lon":5.383525,"is_reserved":false,"is_disabled":false,"rental_uris":{"android":"levelo://app?vid=376135a8-52fd-484c-ac3c-def0a41a7a0d","ios":"levelo://app?vid=376135a8-52fd-484c-ac3c-def0a41a7a0d"},"vehicle_type_id":"4","last_reported":1697609395,"current_range_meters":0,"station_id":"","pricing_plan_id":"free"},{"bike_id":"26f132a1-138d-4814-875c-4736e1a6897f","system_id":"levelo_inurba_marseille","lat":43.2968,"lon":5.37291,"is_reserved":false,"is_disabled":false,"rental_uris":{"android":"levelo://app?vid=26f132a1-138d-4814-875c-4736e1a6897f","ios":"levelo://app?vid=26f132a1-138d-4814-875c-4736e1a6897f"},"vehicle_type_id":"4","last_reported":1697609395,"current_range_meters":27200,"station_id":"ce4bgk12rcd13ifvqbj0","pricing_plan_id":"free"},{"bike_id":"e5623c3e-2d0b-42d8-966a-5e728bad4880","system_id":"levelo_inurba_marseille","lat":43.315107,"lon":5.38976,"is_reserved":false,"is_disabled":false,"rental_uris":{"android":"levelo://app?vid=e5623c3e-2d0b-42d8-966a-5e728bad4880","ios":"levelo://app?vid=e5623c3e-2d0b-42d8-966a-5e728bad4880"},"vehicle_type_id":"4","last_reported":1697609395,"current_range_meters":22000,"station_id":"ce4bgvp2rcd13ifvqcu0","pricing_plan_id":"free"},{"bike_id":"fbb8e152-fe0e-43d6-991c-0cff728be3ee","system_id":"levelo_inurba_marseille","lat":43.29573,"lon":5.367355,"is_reserved":false,"is_disabled":false,"rental_uris":{"android":"levelo://app?vid=fbb8e152-fe0e-43d6-991c-0cff728be3ee","ios":"levelo://app?vid=fbb8e152-fe0e-43d6-991c-0cff728be3ee"},"vehicle_type_id":"4","last_reported":1697609395,"current_range_meters":27200,"station_id":"ce4bgph2rcd13ifvqc2g","pricing_plan_id":"free"},{"bike_id":"7122e512-9c32-4fb1-8e59-63e398c6a2a5","system_id":"levelo_inurba_marseille","lat":43.309589,"lon":5.390258,"is_reserved":false,"is_disabled":false,"rental_uris":{"android":"levelo://app?vid=7122e512-9c32-4fb1-8e59-63e398c6a2a5","ios":"levelo://app?vid=7122e512-9c32-4fb1-8e59-63e398c6a2a5"},"vehicle_type_id":"4","last_reported":1697609395,"current_range_meters":22000,"station_id":"ce4bgup2rcd13ifvqco0","pricing_plan_id":"free"},{"bike_id":"2afa2ba4-c80f-4656-b4db-9cfe159dab2f","system_id":"levelo_inurba_marseille","lat":43.309589,"lon":5.390258,"is_reserved":false,"is_disabled":false,"rental_uris":{"android":"levelo://app?vid=2afa2ba4-c80f-4656-b4db-9cfe159dab2f","ios":"levelo://app?vid=2afa2ba4-c80f-4656-b4db-9cfe159dab2f"},"vehicle_type_id":"4","last_reported":1697609395,"current_range_meters":13600,"station_id":"ce4bgup2rcd13ifvqco0","pricing_plan_id":"free"},{"bike_id":"2454ad09-8903-4a08-b9be-6a15082cfb13","system_id":"levelo_inurba_marseille","lat":43.317557,"lon":5.390173,"is_reserved":false,"is_disabled":false,"rental_uris":{"android":"levelo://app?vid=2454ad09-8903-4a08-b9be-6a15082cfb13","ios":"levelo://app?vid=2454ad09-8903-4a08-b9be-6a15082cfb13"},"vehicle_type_id":"4","last_reported":1697609395,"current_range_meters":30800,"station_id":"ce4bhqp2rcd13ifvqhng","pricing_plan_id":"free"},{"bike_id":"f4def919-b6cb-4031-af75-2aaa41c580b0","system_id":"levelo_inurba_marseille","lat":43.31751,"lon":5.39016,"is_reserved":false,"is_disabled":false,"rental_uris":{"android":"levelo://app?vid=f4def919-b6cb-4031-af75-2aaa41c580b0","ios":"levelo://app?vid=f4def919-b6cb-4031-af75-2aaa41c580b0"},"vehicle_type_id":"4","last_reported":1697609395,"current_range_meters":4000,"station_id":"ce4bhqp2rcd13ifvqhng","pricing_plan_id":"free"},{"bike_id":"d3bfd590-23bf-4352-9a58-5cb41871bc9d","system_id":"levelo_inurba_marseille","lat":43.317557,"lon":5.390173,"is_reserved":false,"is_disabled":false,"rental_uris":{"android":"levelo://app?vid=d3bfd590-23bf-4352-9a58-5cb41871bc9d","ios":"levelo://app?vid=d3bfd590-23bf-4352-9a58-5cb41871bc9d"},"vehicle_type_id":"4","last_reported":1697609395,"current_range_meters":19200,"station_id":"ce4bhqp2rcd13ifvqhng","pricing_plan_id":"free"},{"bike_id":"b7f83c52-77c5-4812-9eb2-e3f4b30ab632","system_id":"levelo_inurba_marseille","lat":43.304274,"lon":5.388873,"is_reserved":false,"is_disabled":false,"rental_uris":{"android":"levelo://app?vid=b7f83c52-77c5-4812-9eb2-e3f4b30ab632","ios":"levelo://app?vid=b7f83c52-77c5-4812-9eb2-e3f4b30ab632"},"vehicle_type_id":"4","last_reported":1697609395,"current_range_meters":14000,"station_id":"ce4bgk12rcd13ifvqbi0","pricing_plan_id":"free"},{"bike_id":"337fb40c-3510-4749-b4cc-db9fdc103b33","system_id":"levelo_inurba_marseille","lat":43.295748,"lon":5.37522,"is_reserved":false,"is_disabled":false,"rental_uris":{"android":"levelo://app?vid=337fb40c-3510-4749-b4cc-db9fdc103b33","ios":"levelo://app?vid=337fb40c-3510-4749-b4cc-db9fdc103b33"},"vehicle_type_id":"4","last_reported":1697609395,"current_range_meters":29600,"station_id":"ce4bgh92rcd13ifvqb50","pricing_plan_id":"free"},{"bike_id":"4364b09b-e292-4fc5-ac3e-34d0d398f3a8","system_id":"levelo_inurba_marseille","lat":43.295748,"lon":5.37522,"is_reserved":false,"is_disabled":false,"rental_uris":{"android":"levelo://app?vid=4364b09b-e292-4fc5-ac3e-34d0d398f3a8","ios":"levelo://app?vid=4364b09b-e292-4fc5-ac3e-34d0d398f3a8"},"vehicle_type_id":"4","last_reported":1697609395,"current_range_meters":29600,"station_id":"ce4bgh92rcd13ifvqb50","pricing_plan_id":"free"},{"bike_id":"e2c8471d-ea63-4c1b-b4c1-99a82ccf7daf","system_id":"levelo_inurba_marseille","lat":43.29786,"lon":5.38107,"is_reserved":false,"is_disabled":false,"rental_uris":{"android":"levelo://app?vid=e2c8471d-ea63-4c1b-b4c1-99a82ccf7daf","ios":"levelo://app?vid=e2c8471d-ea63-4c1b-b4c1-99a82ccf7daf"},"vehicle_type_id":"4","last_reported":1697609395,"current_range_meters":27600,"station_id":"ce4bgip2rcd13ifvqbb0","pricing_plan_id":"free"},{"bike_id":"040d3fbc-b1ce-4e96-bf53-29172220d142","system_id":"levelo_inurba_marseille","lat":43.304274,"lon":5.388873,"is_reserved":false,"is_disabled":false,"rental_uris":{"android":"levelo://app?vid=040d3fbc-b1ce-4e96-bf53-29172220d142","ios":"levelo://app?vid=040d3fbc-b1ce-4e96-bf53-29172220d142"},"vehicle_type_id":"4","last_reported":1697609395,"current_range_meters":21600,"station_id":"ce4bgk12rcd13ifvqbi0","pricing_plan_id":"free"},{"bike_id":"26b318eb-206a-4405-ad9b-0818bc48be96","system_id":"levelo_inurba_marseille","lat":43.295279,"lon":5.375048,"is_reserved":false,"is_disabled":false,"rental_uris":{"android":"levelo://app?vid=26b318eb-206a-4405-ad9b-0818bc48be96","ios":"levelo://app?vid=26b318eb-206a-4405-ad9b-0818bc48be96"},"vehicle_type_id":"4","last_reported":1697609395,"current_range_meters":27200,"station_id":"ce4bgkp2rcd13ifvqbmg","pricing_plan_id":"free"},{"bike_id":"9f322c11-3df8-43f6-9eaf-458304410359","system_id":"levelo_inurba_marseille","lat":43.313017,"lon":5.393611,"is_reserved":false,"is_disabled":false,"rental_uris":{"android":"levelo://app?vid=9f322c11-3df8-43f6-9eaf-458304410359","ios":"levelo://app?vid=9f322c11-3df8-43f6-9eaf-458304410359"},"vehicle_type_id":"4","last_reported":1697609395,"current_range_meters":3200,"station_id":"","pricing_plan_id":"free"},{"bike_id":"9541416f-656d-459e-87da-5bf972d19b25","system_id":"levelo_inurba_marseille","lat":43.29602,"lon":5.381084,"is_reserved":false,"is_disabled":false,"rental_uris":{"android":"levelo://app?vid=9541416f-656d-459e-87da-5bf972d19b25","ios":"levelo://app?vid=9541416f-656d-459e-87da-5bf972d19b25"},"vehicle_type_id":"4","last_reported":1697609395,"current_range_meters":31200,"station_id":"ce4bgl12rcd13ifvqbo0","pricing_plan_id":"free"},{"bike_id":"ecd6fc14-1e48-4666-8990-7ed47a9216f6","system_id":"levelo_inurba_marseille","lat":43.29602,"lon":5.381084,"is_reserved":false,"is_disabled":false,"rental_uris":{"android":"levelo://app?vid=ecd6fc14-1e48-4666-8990-7ed47a9216f6","ios":"levelo://app?vid=ecd6fc14-1e48-4666-8990-7ed47a9216f6"},"vehicle_type_id":"4","last_reported":1697609395,"current_range_meters":29600,"station_id":"ce4bgl12rcd13ifvqbo0","pricing_plan_id":"free"},{"bike_id":"ffc9ee13-7b1f-40cb-8249-330efb1e1c0f","system_id":"levelo_inurba_marseille","lat":43.29601,"lon":5.381084,"is_reserved":false,"is_disabled":false,"rental_uris":{"android":"levelo://app?vid=ffc9ee13-7b1f-40cb-8249-330efb1e1c0f","ios":"levelo://app?vid=ffc9ee13-7b1f-40cb-8249-330efb1e1c0f"},"vehicle_type_id":"4","last_reported":1697609395,"current_range_meters":29600,"station_id":"ce4bgl12rcd13ifvqbo0","pricing_plan_id":"free"},{"bike_id":"fc9b3f04-7a53-4b1e-bbc8-7c7f57fb58c5","system_id":"levelo_inurba_marseille","lat":43.29602,"lon":5.381084,"is_reserved":false,"is_disabled":false,"rental_uris":{"android":"levelo://app?vid=fc9b3f04-7a53-4b1e-bbc8-7c7f57fb58c5","ios":"levelo://app?vid=fc9b3f04-7a53-4b1e-bbc8-7c7f57fb58c5"},"vehicle_type_id":"4","last_reported":1697609395,"current_range_meters":30800,"station_id":"ce4bgl12rcd13ifvqbo0","pricing_plan_id":"free"},{"bike_id":"26ebfbbf-a977-45a1-bf9c-43991c7f1c44","system_id":"levelo_inurba_marseille","lat":43.292749,"lon":5.368402,"is_reserved":false,"is_disabled":false,"rental_uris":{"android":"levelo://app?vid=26ebfbbf-a977-45a1-bf9c-43991c7f1c44","ios":"levelo://app?vid=26ebfbbf-a977-45a1-bf9c-43991c7f1c44"},"vehicle_type_id":"4","last_reported":1697609395,"current_range_meters":20800,"station_id":"ce4bhbp2rcd13ifvqesg","pricing_plan_id":"free"},{"bike_id":"490043d7-6d65-4e4e-ba93-d8a85698bb90","system_id":"levelo_inurba_marseille","lat":43.292749,"lon":5.368402,"is_reserved":false,"is_disabled":false,"rental_uris":{"android":"levelo://app?vid=490043d7-6d65-4e4e-ba93-d8a85698bb90","ios":"levelo://app?vid=490043d7-6d65-4e4e-ba93-d8a85698bb90"},"vehicle_type_id":"4","last_reported":1697609395,"current_range_meters":19200,"station_id":"ce4bhbp2rcd13ifvqesg","pricing_plan_id":"free"},{"bike_id":"e37147f5-a869-4f91-a7e4-9c91ff740dc7","system_id":"levelo_inurba_marseille","lat":43.305994,"lon":5.393687,"is_reserved":false,"is_disabled":false,"rental_uris":{"android":"levelo://app?vid=e37147f5-a869-4f91-a7e4-9c91ff740dc7","ios":"levelo://app?vid=e37147f5-a869-4f91-a7e4-9c91ff740dc7"},"vehicle_type_id":"4","last_reported":1697609395,"current_range_meters":15200,"station_id":"ce4bh0p2rcd13ifvqd80","pricing_plan_id":"free"},{"bike_id":"361df99b-9abe-4c9b-8292-7c816bfcb01e","system_id":"levelo_inurba_marseille","lat":43.305994,"lon":5.393687,"is_reserved":false,"is_disabled":false,"rental_uris":{"android":"levelo://app?vid=361df99b-9abe-4c9b-8292-7c816bfcb01e","ios":"levelo://app?vid=361df99b-9abe-4c9b-8292-7c816bfcb01e"},"vehicle_type_id":"4","last_reported":1697609395,"current_range_meters":28400,"station_id":"ce4bh0p2rcd13ifvqd80","pricing_plan_id":"free"},{"bike_id":"94a3f838-3c41-42e0-978a-0d9e8b3b4f1a","system_id":"levelo_inurba_marseille","lat":43.305994,"lon":5.393687,"is_reserved":false,"is_disabled":false,"rental_uris":{"android":"levelo://app?vid=94a3f838-3c41-42e0-978a-0d9e8b3b4f1a","ios":"levelo://app?vid=94a3f838-3c41-42e0-978a-0d9e8b3b4f1a"},"vehicle_type_id":"4","last_reported":1697609395,"current_range_meters":31200,"station_id":"ce4bh0p2rcd13ifvqd80","pricing_plan_id":"free"},{"bike_id":"62004267-2cf5-4923-8f82-5bea72983445","system_id":"levelo_inurba_marseille","lat":43.305994,"lon":5.393687,"is_reserved":false,"is_disabled":false,"rental_uris":{"android":"levelo://app?vid=62004267-2cf5-4923-8f82-5bea72983445","ios":"levelo://app?vid=62004267-2cf5-4923-8f82-5bea72983445"},"vehicle_type_id":"4","last_reported":1697609395,"current_range_meters":29200,"station_id":"ce4bh0p2rcd13ifvqd80","pricing_plan_id":"free"},{"bike_id":"3be7b9a1-dc23-4497-8736-e84ca3e64af7","system_id":"levelo_inurba_marseille","lat":43.305994,"lon":5.393687,"is_reserved":false,"is_disabled":false,"rental_uris":{"android":"levelo://app?vid=3be7b9a1-dc23-4497-8736-e84ca3e64af7","ios":"levelo://app?vid=3be7b9a1-dc23-4497-8736-e84ca3e64af7"},"vehicle_type_id":"4","last_reported":1697609395,"current_range_meters":23200,"station_id":"ce4bh0p2rcd13ifvqd80","pricing_plan_id":"free"},{"bike_id":"2ddc01dc-c13c-4cc9-b2fc-51e01d2a14fb","system_id":"levelo_inurba_marseille","lat":43.305994,"lon":5.393687,"is_reserved":false,"is_disabled":false,"rental_uris":{"android":"levelo://app?vid=2ddc01dc-c13c-4cc9-b2fc-51e01d2a14fb","ios":"levelo://app?vid=2ddc01dc-c13c-4cc9-b2fc-51e01d2a14fb"},"vehicle_type_id":"4","last_reported":1697609395,"current_range_meters":19600,"station_id":"ce4bh0p2rcd13ifvqd80","pricing_plan_id":"free"},{"bike_id":"7ce7e34d-5b6f-439c-87df-f97c67468ce4","system_id":"levelo_inurba_marseille","lat":43.305994,"lon":5.393687,"is_reserved":false,"is_disabled":false,"rental_uris":{"android":"levelo://app?vid=7ce7e34d-5b6f-439c-87df-f97c67468ce4","ios":"levelo://app?vid=7ce7e34d-5b6f-439c-87df-f97c67468ce4"},"vehicle_type_id":"4","last_reported":1697609395,"current_range_meters":29200,"station_id":"ce4bh0p2rcd13ifvqd80","pricing_plan_id":"free"},{"bike_id":"da986340-96a9-4078-a0ac-1f06f022ec62","system_id":"levelo_inurba_marseille","lat":43.292311,"lon":5.360731,"is_reserved":false,"is_disabled":false,"rental_uris":{"android":"levelo://app?vid=da986340-96a9-4078-a0ac-1f06f022ec62","ios":"levelo://app?vid=da986340-96a9-4078-a0ac-1f06f022ec62"},"vehicle_type_id":"4","last_reported":1697609395,"current_range_meters":12400,"station_id":"ce4bhbh2rcd13ifvqeqg","pricing_plan_id":"free"},{"bike_id":"60fc8dff-88ee-4c47-a9d7-feb00eeb9a01","system_id":"levelo_inurba_marseille","lat":43.29257,"lon":5.37627,"is_reserved":false,"is_disabled":false,"rental_uris":{"android":"levelo://app?vid=60fc8dff-88ee-4c47-a9d7-feb00eeb9a01","ios":"levelo://app?vid=60fc8dff-88ee-4c47-a9d7-feb00eeb9a01"},"vehicle_type_id":"4","last_reported":1697609395,"current_range_meters":0,"station_id":"ce4bgi12rcd13ifvqb80","pricing_plan_id":"free"},{"bike_id":"385e2e1d-89b3-45ad-81b8-f74b7a445bd5","system_id":"levelo_inurba_marseille","lat":43.32885,"lon":5.38625,"is_reserved":false,"is_disabled":false,"rental_uris":{"android":"levelo://app?vid=385e2e1d-89b3-45ad-81b8-f74b7a445bd5","ios":"levelo://app?vid=385e2e1d-89b3-45ad-81b8-f74b7a445bd5"},"vehicle_type_id":"4","last_reported":1697609395,"current_range_meters":20400,"station_id":"","pricing_plan_id":"free"},{"bike_id":"91aab842-ce4d-43ab-8c0c-caaad79d2816","system_id":"levelo_inurba_marseille","lat":43.308863,"lon":5.396323,"is_reserved":false,"is_disabled":false,"rental_uris":{"android":"levelo://app?vid=91aab842-ce4d-43ab-8c0c-caaad79d2816","ios":"levelo://app?vid=91aab842-ce4d-43ab-8c0c-caaad79d2816"},"vehicle_type_id":"4","last_reported":1697609395,"current_range_meters":31200,"station_id":"ce4bh012rcd13ifvqcv0","pricing_plan_id":"free"},{"bike_id":"efee795b-630a-4d6f-8b14-af4c746c8d6a","system_id":"levelo_inurba_marseille","lat":43.309038,"lon":5.396546,"is_reserved":false,"is_disabled":false,"rental_uris":{"android":"levelo://app?vid=efee795b-630a-4d6f-8b14-af4c746c8d6a","ios":"levelo://app?vid=efee795b-630a-4d6f-8b14-af4c746c8d6a"},"vehicle_type_id":"4","last_reported":1697609395,"current_range_meters":29200,"station_id":"ce4bh012rcd13ifvqcv0","pricing_plan_id":"free"},{"bike_id":"2fe3d90b-2191-448b-adc0-abe91dbf2ac0","system_id":"levelo_inurba_marseille","lat":43.30892,"lon":5.39643,"is_reserved":false,"is_disabled":false,"rental_uris":{"android":"levelo://app?vid=2fe3d90b-2191-448b-adc0-abe91dbf2ac0","ios":"levelo://app?vid=2fe3d90b-2191-448b-adc0-abe91dbf2ac0"},"vehicle_type_id":"4","last_reported":1697609395,"current_range_meters":24400,"station_id":"ce4bh012rcd13ifvqcv0","pricing_plan_id":"free"},{"bike_id":"c11618de-fa79-49e2-9781-a2f68ae8061b","system_id":"levelo_inurba_marseille","lat":43.309047,"lon":5.396551,"is_reserved":false,"is_disabled":false,"rental_uris":{"android":"levelo://app?vid=c11618de-fa79-49e2-9781-a2f68ae8061b","ios":"levelo://app?vid=c11618de-fa79-49e2-9781-a2f68ae8061b"},"vehicle_type_id":"4","last_reported":1697609395,"current_range_meters":30000,"station_id":"ce4bh012rcd13ifvqcv0","pricing_plan_id":"free"},{"bike_id":"17aefa1e-7615-48f3-8f88-2d1f9c7f8a5c","system_id":"levelo_inurba_marseille","lat":43.309038,"lon":5.396546,"is_reserved":false,"is_disabled":false,"rental_uris":{"android":"levelo://app?vid=17aefa1e-7615-48f3-8f88-2d1f9c7f8a5c","ios":"levelo://app?vid=17aefa1e-7615-48f3-8f88-2d1f9c7f8a5c"},"vehicle_type_id":"4","last_reported":1697609395,"current_range_meters":26400,"station_id":"ce4bh012rcd13ifvqcv0","pricing_plan_id":"free"},{"bike_id":"f558aaf7-b89b-435b-8114-6806a245859d","system_id":"levelo_inurba_marseille","lat":43.32551,"lon":5.39141,"is_reserved":false,"is_disabled":false,"rental_uris":{"android":"levelo://app?vid=f558aaf7-b89b-435b-8114-6806a245859d","ios":"levelo://app?vid=f558aaf7-b89b-435b-8114-6806a245859d"},"vehicle_type_id":"4","last_reported":1697609395,"current_range_meters":9600,"station_id":"","pricing_plan_id":"free"},{"bike_id":"efd0344b-42f7-4821-bf25-5ac18ef55ac1","system_id":"levelo_inurba_marseille","lat":43.332605,"lon":5.37993,"is_reserved":false,"is_disabled":false,"rental_uris":{"android":"levelo://app?vid=efd0344b-42f7-4821-bf25-5ac18ef55ac1","ios":"levelo://app?vid=efd0344b-42f7-4821-bf25-5ac18ef55ac1"},"vehicle_type_id":"4","last_reported":1697609395,"current_range_meters":0,"station_id":"","pricing_plan_id":"free"},{"bike_id":"1fc4f0db-d8b1-4352-aeac-7b2836e2782f","system_id":"levelo_inurba_marseille","lat":43.302127,"lon":5.394603,"is_reserved":false,"is_disabled":false,"rental_uris":{"android":"levelo://app?vid=1fc4f0db-d8b1-4352-aeac-7b2836e2782f","ios":"levelo://app?vid=1fc4f0db-d8b1-4352-aeac-7b2836e2782f"},"vehicle_type_id":"4","last_reported":1697609395,"current_range_meters":16000,"station_id":"ce4bh0p2rcd13ifvqd70","pricing_plan_id":"free"},{"bike_id":"fbe9e9cd-caff-47d1-8df0-f8597aa580e3","system_id":"levelo_inurba_marseille","lat":43.32937,"lon":5.38918,"is_reserved":false,"is_disabled":false,"rental_uris":{"android":"levelo://app?vid=fbe9e9cd-caff-47d1-8df0-f8597aa580e3","ios":"levelo://app?vid=fbe9e9cd-caff-47d1-8df0-f8597aa580e3"},"vehicle_type_id":"4","last_reported":1697609395,"current_range_meters":10800,"station_id":"","pricing_plan_id":"free"},{"bike_id":"89afc117-b908-40b1-b9f0-d92f68cb47d9","system_id":"levelo_inurba_marseille","lat":43.290327,"lon":5.375711,"is_reserved":false,"is_disabled":false,"rental_uris":{"android":"levelo://app?vid=89afc117-b908-40b1-b9f0-d92f68cb47d9","ios":"levelo://app?vid=89afc117-b908-40b1-b9f0-d92f68cb47d9"},"vehicle_type_id":"4","last_reported":1697609395,"current_range_meters":24000,"station_id":"ce4bh692rcd13ifvqe90","pricing_plan_id":"free"},{"bike_id":"275475e5-845c-41be-ac28-d8d4d6337b59","system_id":"levelo_inurba_marseille","lat":43.290327,"lon":5.375711,"is_reserved":false,"is_disabled":false,"rental_uris":{"android":"levelo://app?vid=275475e5-845c-41be-ac28-d8d4d6337b59","ios":"levelo://app?vid=275475e5-845c-41be-ac28-d8d4d6337b59"},"vehicle_type_id":"4","last_reported":1697609395,"current_range_meters":16800,"station_id":"ce4bh692rcd13ifvqe90","pricing_plan_id":"free"},{"bike_id":"3d7000eb-a37f-44fb-ba93-da051ef28aa3","system_id":"levelo_inurba_marseille","lat":43.289184,"lon":5.366408,"is_reserved":false,"is_disabled":false,"rental_uris":{"android":"levelo://app?vid=3d7000eb-a37f-44fb-ba93-da051ef28aa3","ios":"levelo://app?vid=3d7000eb-a37f-44fb-ba93-da051ef28aa3"},"vehicle_type_id":"4","last_reported":1697609395,"current_range_meters":26800,"station_id":"ce4bhap2rcd13ifvqek0","pricing_plan_id":"free"},{"bike_id":"417bd912-1b3c-40ff-8cee-649508b7de9a","system_id":"levelo_inurba_marseille","lat":43.289184,"lon":5.366408,"is_reserved":false,"is_disabled":false,"rental_uris":{"android":"levelo://app?vid=417bd912-1b3c-40ff-8cee-649508b7de9a","ios":"levelo://app?vid=417bd912-1b3c-40ff-8cee-649508b7de9a"},"vehicle_type_id":"4","last_reported":1697609395,"current_range_meters":20800,"station_id":"ce4bhap2rcd13ifvqek0","pricing_plan_id":"free"},{"bike_id":"5fe745b0-ae48-422f-bfc2-7f628d9aa41c","system_id":"levelo_inurba_marseille","lat":43.289184,"lon":5.366408,"is_reserved":false,"is_disabled":false,"rental_uris":{"android":"levelo://app?vid=5fe745b0-ae48-422f-bfc2-7f628d9aa41c","ios":"levelo://app?vid=5fe745b0-ae48-422f-bfc2-7f628d9aa41c"},"vehicle_type_id":"4","last_reported":1697609395,"current_range_meters":17600,"station_id":"ce4bhap2rcd13ifvqek0","pricing_plan_id":"free"},{"bike_id":"fb9bae59-6217-4fc8-a970-6342467fccfb","system_id":"levelo_inurba_marseille","lat":43.289184,"lon":5.366408,"is_reserved":false,"is_disabled":false,"rental_uris":{"android":"levelo://app?vid=fb9bae59-6217-4fc8-a970-6342467fccfb","ios":"levelo://app?vid=fb9bae59-6217-4fc8-a970-6342467fccfb"},"vehicle_type_id":"4","last_reported":1697609395,"current_range_meters":25600,"station_id":"ce4bhap2rcd13ifvqek0","pricing_plan_id":"free"},{"bike_id":"6464490d-c83c-45f9-9883-59fd1f7524f6","system_id":"levelo_inurba_marseille","lat":43.289184,"lon":5.366408,"is_reserved":false,"is_disabled":false,"rental_uris":{"android":"levelo://app?vid=6464490d-c83c-45f9-9883-59fd1f7524f6","ios":"levelo://app?vid=6464490d-c83c-45f9-9883-59fd1f7524f6"},"vehicle_type_id":"4","last_reported":1697609395,"current_range_meters":6800,"station_id":"ce4bhap2rcd13ifvqek0","pricing_plan_id":"free"},{"bike_id":"259d1b66-9315-413b-b876-708511fdf6d6","system_id":"levelo_inurba_marseille","lat":43.289184,"lon":5.366408,"is_reserved":false,"is_disabled":false,"rental_uris":{"android":"levelo://app?vid=259d1b66-9315-413b-b876-708511fdf6d6","ios":"levelo://app?vid=259d1b66-9315-413b-b876-708511fdf6d6"},"vehicle_type_id":"4","last_reported":1697609395,"current_range_meters":24800,"station_id":"ce4bhap2rcd13ifvqek0","pricing_plan_id":"free"},{"bike_id":"6cee8dfa-1c02-4886-bdf5-87abf8f60cf7","system_id":"levelo_inurba_marseille","lat":43.289184,"lon":5.366408,"is_reserved":false,"is_disabled":false,"rental_uris":{"android":"levelo://app?vid=6cee8dfa-1c02-4886-bdf5-87abf8f60cf7","ios":"levelo://app?vid=6cee8dfa-1c02-4886-bdf5-87abf8f60cf7"},"vehicle_type_id":"4","last_reported":1697609395,"current_range_meters":28400,"station_id":"ce4bhap2rcd13ifvqek0","pricing_plan_id":"free"},{"bike_id":"c309cd6e-6a88-43a2-9bfa-35dc57d17b93","system_id":"levelo_inurba_marseille","lat":43.289184,"lon":5.366408,"is_reserved":false,"is_disabled":false,"rental_uris":{"android":"levelo://app?vid=c309cd6e-6a88-43a2-9bfa-35dc57d17b93","ios":"levelo://app?vid=c309cd6e-6a88-43a2-9bfa-35dc57d17b93"},"vehicle_type_id":"4","last_reported":1697609395,"current_range_meters":20000,"station_id":"ce4bhap2rcd13ifvqek0","pricing_plan_id":"free"},{"bike_id":"b52bcf9e-f1a7-40e6-907a-60e55f0d2988","system_id":"levelo_inurba_marseille","lat":43.289184,"lon":5.366408,"is_reserved":false,"is_disabled":false,"rental_uris":{"android":"levelo://app?vid=b52bcf9e-f1a7-40e6-907a-60e55f0d2988","ios":"levelo://app?vid=b52bcf9e-f1a7-40e6-907a-60e55f0d2988"},"vehicle_type_id":"4","last_reported":1697609395,"current_range_meters":25200,"station_id":"ce4bhap2rcd13ifvqek0","pricing_plan_id":"free"},{"bike_id":"808ddb7f-0309-445e-8fa9-ba0e0f7697b7","system_id":"levelo_inurba_marseille","lat":43.289184,"lon":5.366408,"is_reserved":false,"is_disabled":false,"rental_uris":{"android":"levelo://app?vid=808ddb7f-0309-445e-8fa9-ba0e0f7697b7","ios":"levelo://app?vid=808ddb7f-0309-445e-8fa9-ba0e0f7697b7"},"vehicle_type_id":"4","last_reported":1697609395,"current_range_meters":30400,"station_id":"ce4bhap2rcd13ifvqek0","pricing_plan_id":"free"},{"bike_id":"7c6c555e-c3aa-4fa1-b0db-a35905ba1758","system_id":"levelo_inurba_marseille","lat":43.289468,"lon":5.363719,"is_reserved":false,"is_disabled":false,"rental_uris":{"android":"levelo://app?vid=7c6c555e-c3aa-4fa1-b0db-a35905ba1758","ios":"levelo://app?vid=7c6c555e-c3aa-4fa1-b0db-a35905ba1758"},"vehicle_type_id":"4","last_reported":1697609395,"current_range_meters":21200,"station_id":"ce4bhc92rcd13ifvqetg","pricing_plan_id":"free"},{"bike_id":"bbb4643f-ef4c-47db-9015-2eeeb003bfd9","system_id":"levelo_inurba_marseille","lat":43.289468,"lon":5.363719,"is_reserved":false,"is_disabled":false,"rental_uris":{"android":"levelo://app?vid=bbb4643f-ef4c-47db-9015-2eeeb003bfd9","ios":"levelo://app?vid=bbb4643f-ef4c-47db-9015-2eeeb003bfd9"},"vehicle_type_id":"4","last_reported":1697609395,"current_range_meters":27200,"station_id":"ce4bhc92rcd13ifvqetg","pricing_plan_id":"free"},{"bike_id":"347ec824-9f49-449a-b3c8-f08195fddf31","system_id":"levelo_inurba_marseille","lat":43.289468,"lon":5.363719,"is_reserved":false,"is_disabled":false,"rental_uris":{"android":"levelo://app?vid=347ec824-9f49-449a-b3c8-f08195fddf31","ios":"levelo://app?vid=347ec824-9f49-449a-b3c8-f08195fddf31"},"vehicle_type_id":"4","last_reported":1697609395,"current_range_meters":27200,"station_id":"ce4bhc92rcd13ifvqetg","pricing_plan_id":"free"},{"bike_id":"5c88cf50-3ec8-460d-a203-8298956f3ce7","system_id":"levelo_inurba_marseille","lat":43.289468,"lon":5.363719,"is_reserved":false,"is_disabled":false,"rental_uris":{"android":"levelo://app?vid=5c88cf50-3ec8-460d-a203-8298956f3ce7","ios":"levelo://app?vid=5c88cf50-3ec8-460d-a203-8298956f3ce7"},"vehicle_type_id":"4","last_reported":1697609395,"current_range_meters":31200,"station_id":"ce4bhc92rcd13ifvqetg","pricing_plan_id":"free"},{"bike_id":"96848a15-c14b-48bf-8f47-8af50a16994c","system_id":"levelo_inurba_marseille","lat":43.292644,"lon":5.384257,"is_reserved":false,"is_disabled":false,"rental_uris":{"android":"levelo://app?vid=96848a15-c14b-48bf-8f47-8af50a16994c","ios":"levelo://app?vid=96848a15-c14b-48bf-8f47-8af50a16994c"},"vehicle_type_id":"4","last_reported":1697609395,"current_range_meters":14000,"station_id":"ce4bh692rcd13ifvqea0","pricing_plan_id":"free"},{"bike_id":"832084f7-e8bd-4684-a2cd-a4ee895377de","system_id":"levelo_inurba_marseille","lat":43.292642,"lon":5.384254,"is_reserved":false,"is_disabled":false,"rental_uris":{"android":"levelo://app?vid=832084f7-e8bd-4684-a2cd-a4ee895377de","ios":"levelo://app?vid=832084f7-e8bd-4684-a2cd-a4ee895377de"},"vehicle_type_id":"4","last_reported":1697609395,"current_range_meters":22800,"station_id":"ce4bh692rcd13ifvqea0","pricing_plan_id":"free"},{"bike_id":"cb81f451-553e-459c-b7b2-bf44915cae12","system_id":"levelo_inurba_marseille","lat":43.292642,"lon":5.384254,"is_reserved":false,"is_disabled":false,"rental_uris":{"android":"levelo://app?vid=cb81f451-553e-459c-b7b2-bf44915cae12","ios":"levelo://app?vid=cb81f451-553e-459c-b7b2-bf44915cae12"},"vehicle_type_id":"4","last_reported":1697609395,"current_range_meters":19600,"station_id":"ce4bh692rcd13ifvqea0","pricing_plan_id":"free"},{"bike_id":"df5dcaa3-f092-4f4d-b395-95c79b415a22","system_id":"levelo_inurba_marseille","lat":43.290995,"lon":5.381361,"is_reserved":false,"is_disabled":false,"rental_uris":{"android":"levelo://app?vid=df5dcaa3-f092-4f4d-b395-95c79b415a22","ios":"levelo://app?vid=df5dcaa3-f092-4f4d-b395-95c79b415a22"},"vehicle_type_id":"4","last_reported":1697609395,"current_range_meters":6000,"station_id":"ce4bh512rcd13ifvqe2g","pricing_plan_id":"free"},{"bike_id":"999540f5-205e-4cdc-9dc3-0136cec4cadd","system_id":"levelo_inurba_marseille","lat":43.290995,"lon":5.381361,"is_reserved":false,"is_disabled":false,"rental_uris":{"android":"levelo://app?vid=999540f5-205e-4cdc-9dc3-0136cec4cadd","ios":"levelo://app?vid=999540f5-205e-4cdc-9dc3-0136cec4cadd"},"vehicle_type_id":"4","last_reported":1697609395,"current_range_meters":19200,"station_id":"ce4bh512rcd13ifvqe2g","pricing_plan_id":"free"},{"bike_id":"72f3bb96-2842-4286-90c1-5a8349d0c0b1","system_id":"levelo_inurba_marseille","lat":43.289743,"lon":5.378304,"is_reserved":false,"is_disabled":false,"rental_uris":{"android":"levelo://app?vid=72f3bb96-2842-4286-90c1-5a8349d0c0b1","ios":"levelo://app?vid=72f3bb96-2842-4286-90c1-5a8349d0c0b1"},"vehicle_type_id":"4","last_reported":1697609395,"current_range_meters":7200,"station_id":"ce4bh9p2rcd13ifvqed0","pricing_plan_id":"free"},{"bike_id":"ecce45c2-2749-4bf6-bcf2-123b2b934044","system_id":"levelo_inurba_marseille","lat":43.331295,"lon":5.38848,"is_reserved":false,"is_disabled":false,"rental_uris":{"android":"levelo://app?vid=ecce45c2-2749-4bf6-bcf2-123b2b934044","ios":"levelo://app?vid=ecce45c2-2749-4bf6-bcf2-123b2b934044"},"vehicle_type_id":"4","last_reported":1697609395,"current_range_meters":19600,"station_id":"","pricing_plan_id":"free"},{"bike_id":"cf8f1c27-14eb-4537-8446-575242696011","system_id":"levelo_inurba_marseille","lat":43.331293,"lon":5.388527,"is_reserved":false,"is_disabled":false,"rental_uris":{"android":"levelo://app?vid=cf8f1c27-14eb-4537-8446-575242696011","ios":"levelo://app?vid=cf8f1c27-14eb-4537-8446-575242696011"},"vehicle_type_id":"4","last_reported":1697609395,"current_range_meters":20000,"station_id":"","pricing_plan_id":"free"},{"bike_id":"2b1fd4f2-1e0e-44a6-b0a0-c1c962889d58","system_id":"levelo_inurba_marseille","lat":43.289741,"lon":5.378306,"is_reserved":false,"is_disabled":false,"rental_uris":{"android":"levelo://app?vid=2b1fd4f2-1e0e-44a6-b0a0-c1c962889d58","ios":"levelo://app?vid=2b1fd4f2-1e0e-44a6-b0a0-c1c962889d58"},"vehicle_type_id":"4","last_reported":1697609395,"current_range_meters":21600,"station_id":"ce4bh9p2rcd13ifvqed0","pricing_plan_id":"free"},{"bike_id":"598e71c4-1f46-4806-a6cf-408b5a9101ae","system_id":"levelo_inurba_marseille","lat":43.289741,"lon":5.378306,"is_reserved":false,"is_disabled":false,"rental_uris":{"android":"levelo://app?vid=598e71c4-1f46-4806-a6cf-408b5a9101ae","ios":"levelo://app?vid=598e71c4-1f46-4806-a6cf-408b5a9101ae"},"vehicle_type_id":"4","last_reported":1697609395,"current_range_meters":27600,"station_id":"ce4bh9p2rcd13ifvqed0","pricing_plan_id":"free"},{"bike_id":"74735fe3-375c-4cb6-9698-b33fe04f7943","system_id":"levelo_inurba_marseille","lat":43.32986,"lon":5.39087,"is_reserved":false,"is_disabled":false,"rental_uris":{"android":"levelo://app?vid=74735fe3-375c-4cb6-9698-b33fe04f7943","ios":"levelo://app?vid=74735fe3-375c-4cb6-9698-b33fe04f7943"},"vehicle_type_id":"4","last_reported":1697609395,"current_range_meters":0,"station_id":"","pricing_plan_id":"free"},{"bike_id":"2940e614-0c92-4015-9f33-3cf4196b145b","system_id":"levelo_inurba_marseille","lat":43.295169,"lon":5.390426,"is_reserved":false,"is_disabled":false,"rental_uris":{"android":"levelo://app?vid=2940e614-0c92-4015-9f33-3cf4196b145b","ios":"levelo://app?vid=2940e614-0c92-4015-9f33-3cf4196b145b"},"vehicle_type_id":"4","last_reported":1697609395,"current_range_meters":26400,"station_id":"ce4bh3p2rcd13ifvqdp0","pricing_plan_id":"free"},{"bike_id":"9314062b-e60d-4187-8617-26c936a24f4d","system_id":"levelo_inurba_marseille","lat":43.28848,"lon":5.35846,"is_reserved":false,"is_disabled":false,"rental_uris":{"android":"levelo://app?vid=9314062b-e60d-4187-8617-26c936a24f4d","ios":"levelo://app?vid=9314062b-e60d-4187-8617-26c936a24f4d"},"vehicle_type_id":"4","last_reported":1697609395,"current_range_meters":31200,"station_id":"ce4bhb12rcd13ifvqem0","pricing_plan_id":"free"},{"bike_id":"af30fbbd-dd8f-4c96-810c-909babd17ade","system_id":"levelo_inurba_marseille","lat":43.28848,"lon":5.35828,"is_reserved":false,"is_disabled":false,"rental_uris":{"android":"levelo://app?vid=af30fbbd-dd8f-4c96-810c-909babd17ade","ios":"levelo://app?vid=af30fbbd-dd8f-4c96-810c-909babd17ade"},"vehicle_type_id":"4","last_reported":1697609395,"current_range_meters":8400,"station_id":"ce4bhb12rcd13ifvqem0","pricing_plan_id":"free"},{"bike_id":"82f5bc3c-ee2a-4736-b6cd-919f9d74dd4a","system_id":"levelo_inurba_marseille","lat":43.288443,"lon":5.358395,"is_reserved":false,"is_disabled":false,"rental_uris":{"android":"levelo://app?vid=82f5bc3c-ee2a-4736-b6cd-919f9d74dd4a","ios":"levelo://app?vid=82f5bc3c-ee2a-4736-b6cd-919f9d74dd4a"},"vehicle_type_id":"4","last_reported":1697609395,"current_range_meters":17200,"station_id":"ce4bhb12rcd13ifvqem0","pricing_plan_id":"free"},{"bike_id":"27be2f55-abb3-42cc-af35-bb95db6a2ef4","system_id":"levelo_inurba_marseille","lat":43.33739,"lon":5.37476,"is_reserved":false,"is_disabled":false,"rental_uris":{"android":"levelo://app?vid=27be2f55-abb3-42cc-af35-bb95db6a2ef4","ios":"levelo://app?vid=27be2f55-abb3-42cc-af35-bb95db6a2ef4"},"vehicle_type_id":"4","last_reported":1697609395,"current_range_meters":22000,"station_id":"ce4bhm92rcd13ifvqglg","pricing_plan_id":"free"},{"bike_id":"9c3757e0-5e70-4a19-ba41-6549cc133477","system_id":"levelo_inurba_marseille","lat":43.28731,"lon":5.36091,"is_reserved":false,"is_disabled":false,"rental_uris":{"android":"levelo://app?vid=9c3757e0-5e70-4a19-ba41-6549cc133477","ios":"levelo://app?vid=9c3757e0-5e70-4a19-ba41-6549cc133477"},"vehicle_type_id":"4","last_reported":1697609395,"current_range_meters":30800,"station_id":"cki0cbj6b192h4jlfktg","pricing_plan_id":"free"},{"bike_id":"ab3f3748-bc2c-4aa0-b8ff-fe519981effd","system_id":"levelo_inurba_marseille","lat":43.28727,"lon":5.36078,"is_reserved":false,"is_disabled":false,"rental_uris":{"android":"levelo://app?vid=ab3f3748-bc2c-4aa0-b8ff-fe519981effd","ios":"levelo://app?vid=ab3f3748-bc2c-4aa0-b8ff-fe519981effd"},"vehicle_type_id":"4","last_reported":1697609395,"current_range_meters":13200,"station_id":"cki0cbj6b192h4jlfktg","pricing_plan_id":"free"},{"bike_id":"aa947197-29dc-46fa-ba1b-becd8d586cc4","system_id":"levelo_inurba_marseille","lat":43.302393,"lon":5.400437,"is_reserved":false,"is_disabled":false,"rental_uris":{"android":"levelo://app?vid=aa947197-29dc-46fa-ba1b-becd8d586cc4","ios":"levelo://app?vid=aa947197-29dc-46fa-ba1b-becd8d586cc4"},"vehicle_type_id":"4","last_reported":1697609395,"current_range_meters":24400,"station_id":"","pricing_plan_id":"free"},{"bike_id":"edad060e-dfb0-4cc7-ad04-a233e737a889","system_id":"levelo_inurba_marseille","lat":43.29035,"lon":5.3864,"is_reserved":false,"is_disabled":false,"rental_uris":{"android":"levelo://app?vid=edad060e-dfb0-4cc7-ad04-a233e737a889","ios":"levelo://app?vid=edad060e-dfb0-4cc7-ad04-a233e737a889"},"vehicle_type_id":"4","last_reported":1697609395,"current_range_meters":25200,"station_id":"ce4bh4p2rcd13ifvqe0g","pricing_plan_id":"free"},{"bike_id":"ec8bf8fc-94b0-4c0b-ae13-6207a646f081","system_id":"levelo_inurba_marseille","lat":43.29029,"lon":5.38634,"is_reserved":false,"is_disabled":false,"rental_uris":{"android":"levelo://app?vid=ec8bf8fc-94b0-4c0b-ae13-6207a646f081","ios":"levelo://app?vid=ec8bf8fc-94b0-4c0b-ae13-6207a646f081"},"vehicle_type_id":"4","last_reported":1697609395,"current_range_meters":26800,"station_id":"ce4bh4p2rcd13ifvqe0g","pricing_plan_id":"free"},{"bike_id":"0b3982bc-ca9a-46f2-8601-d82133b4c4d6","system_id":"levelo_inurba_marseille","lat":43.29032,"lon":5.38649,"is_reserved":false,"is_disabled":false,"rental_uris":{"android":"levelo://app?vid=0b3982bc-ca9a-46f2-8601-d82133b4c4d6","ios":"levelo://app?vid=0b3982bc-ca9a-46f2-8601-d82133b4c4d6"},"vehicle_type_id":"4","last_reported":1697609395,"current_range_meters":22800,"station_id":"ce4bh4p2rcd13ifvqe0g","pricing_plan_id":"free"},{"bike_id":"d8a20468-2b0d-44d8-b6a4-395ec23b5dfc","system_id":"levelo_inurba_marseille","lat":43.290302,"lon":5.386523,"is_reserved":false,"is_disabled":false,"rental_uris":{"android":"levelo://app?vid=d8a20468-2b0d-44d8-b6a4-395ec23b5dfc","ios":"levelo://app?vid=d8a20468-2b0d-44d8-b6a4-395ec23b5dfc"},"vehicle_type_id":"4","last_reported":1697609395,"current_range_meters":23600,"station_id":"ce4bh4p2rcd13ifvqe0g","pricing_plan_id":"free"},{"bike_id":"311328da-a33c-40c1-8aa8-b0772eb36e0f","system_id":"levelo_inurba_marseille","lat":43.302759,"lon":5.400793,"is_reserved":false,"is_disabled":false,"rental_uris":{"android":"levelo://app?vid=311328da-a33c-40c1-8aa8-b0772eb36e0f","ios":"levelo://app?vid=311328da-a33c-40c1-8aa8-b0772eb36e0f"},"vehicle_type_id":"4","last_reported":1697609395,"current_range_meters":12400,"station_id":"ce4bgvh2rcd13ifvqcs0","pricing_plan_id":"free"},{"bike_id":"c006855f-e8d5-49e2-afe7-94600dd76803","system_id":"levelo_inurba_marseille","lat":43.286105,"lon":5.370592,"is_reserved":false,"is_disabled":false,"rental_uris":{"android":"levelo://app?vid=c006855f-e8d5-49e2-afe7-94600dd76803","ios":"levelo://app?vid=c006855f-e8d5-49e2-afe7-94600dd76803"},"vehicle_type_id":"4","last_reported":1697609395,"current_range_meters":29200,"station_id":"ce4bht12rcd13ifvqi60","pricing_plan_id":"free"},{"bike_id":"bcc412de-df5f-49b0-bcf5-11d8d718719b","system_id":"levelo_inurba_marseille","lat":43.2861,"lon":5.37055,"is_reserved":false,"is_disabled":false,"rental_uris":{"android":"levelo://app?vid=bcc412de-df5f-49b0-bcf5-11d8d718719b","ios":"levelo://app?vid=bcc412de-df5f-49b0-bcf5-11d8d718719b"},"vehicle_type_id":"4","last_reported":1697609395,"current_range_meters":13600,"station_id":"ce4bht12rcd13ifvqi60","pricing_plan_id":"free"},{"bike_id":"06aeee3e-7f41-4e03-a5ea-8ba2287278af","system_id":"levelo_inurba_marseille","lat":43.28609,"lon":5.37059,"is_reserved":false,"is_disabled":false,"rental_uris":{"android":"levelo://app?vid=06aeee3e-7f41-4e03-a5ea-8ba2287278af","ios":"levelo://app?vid=06aeee3e-7f41-4e03-a5ea-8ba2287278af"},"vehicle_type_id":"4","last_reported":1697609395,"current_range_meters":12400,"station_id":"ce4bht12rcd13ifvqi60","pricing_plan_id":"free"},{"bike_id":"94b8e95c-7aec-4890-b5da-af3a09464ba8","system_id":"levelo_inurba_marseille","lat":43.287184,"lon":5.37937,"is_reserved":false,"is_disabled":false,"rental_uris":{"android":"levelo://app?vid=94b8e95c-7aec-4890-b5da-af3a09464ba8","ios":"levelo://app?vid=94b8e95c-7aec-4890-b5da-af3a09464ba8"},"vehicle_type_id":"4","last_reported":1697609395,"current_range_meters":20800,"station_id":"ce4bh9p2rcd13ifvqec0","pricing_plan_id":"free"},{"bike_id":"e9eaea81-d49e-4370-b5fa-26ff360cfc51","system_id":"levelo_inurba_marseille","lat":43.287185,"lon":5.379373,"is_reserved":false,"is_disabled":false,"rental_uris":{"android":"levelo://app?vid=e9eaea81-d49e-4370-b5fa-26ff360cfc51","ios":"levelo://app?vid=e9eaea81-d49e-4370-b5fa-26ff360cfc51"},"vehicle_type_id":"4","last_reported":1697609395,"current_range_meters":24400,"station_id":"ce4bh9p2rcd13ifvqec0","pricing_plan_id":"free"},{"bike_id":"559ddfa3-df1b-471c-8cd2-9139752f2f7b","system_id":"levelo_inurba_marseille","lat":43.287185,"lon":5.379373,"is_reserved":false,"is_disabled":false,"rental_uris":{"android":"levelo://app?vid=559ddfa3-df1b-471c-8cd2-9139752f2f7b","ios":"levelo://app?vid=559ddfa3-df1b-471c-8cd2-9139752f2f7b"},"vehicle_type_id":"4","last_reported":1697609395,"current_range_meters":25200,"station_id":"ce4bh9p2rcd13ifvqec0","pricing_plan_id":"free"},{"bike_id":"a7516d06-6634-43a8-ac4f-acfaf17514e8","system_id":"levelo_inurba_marseille","lat":43.287184,"lon":5.37937,"is_reserved":false,"is_disabled":false,"rental_uris":{"android":"levelo://app?vid=a7516d06-6634-43a8-ac4f-acfaf17514e8","ios":"levelo://app?vid=a7516d06-6634-43a8-ac4f-acfaf17514e8"},"vehicle_type_id":"4","last_reported":1697609395,"current_range_meters":22000,"station_id":"ce4bh9p2rcd13ifvqec0","pricing_plan_id":"free"},{"bike_id":"37b98826-f18c-430a-8de9-bafaf2bc69a5","system_id":"levelo_inurba_marseille","lat":43.31645,"lon":5.40433,"is_reserved":false,"is_disabled":false,"rental_uris":{"android":"levelo://app?vid=37b98826-f18c-430a-8de9-bafaf2bc69a5","ios":"levelo://app?vid=37b98826-f18c-430a-8de9-bafaf2bc69a5"},"vehicle_type_id":"4","last_reported":1697609395,"current_range_meters":30800,"station_id":"ce4bh012rcd13ifvqd00","pricing_plan_id":"free"},{"bike_id":"cee58aab-a74f-4860-8cc3-5b9d33d5b2db","system_id":"levelo_inurba_marseille","lat":43.316475,"lon":5.40435,"is_reserved":false,"is_disabled":false,"rental_uris":{"android":"levelo://app?vid=cee58aab-a74f-4860-8cc3-5b9d33d5b2db","ios":"levelo://app?vid=cee58aab-a74f-4860-8cc3-5b9d33d5b2db"},"vehicle_type_id":"4","last_reported":1697609395,"current_range_meters":15600,"station_id":"ce4bh012rcd13ifvqd00","pricing_plan_id":"free"},{"bike_id":"de4ffeca-2a64-406e-8a7a-d3525dc756a5","system_id":"levelo_inurba_marseille","lat":43.28467,"lon":5.35891,"is_reserved":false,"is_disabled":false,"rental_uris":{"android":"levelo://app?vid=de4ffeca-2a64-406e-8a7a-d3525dc756a5","ios":"levelo://app?vid=de4ffeca-2a64-406e-8a7a-d3525dc756a5"},"vehicle_type_id":"4","last_reported":1697609395,"current_range_meters":30000,"station_id":"ce4bhah2rcd13ifvqei0","pricing_plan_id":"free"},{"bike_id":"96ffa1da-672d-4633-a96f-86ba1600fe8a","system_id":"levelo_inurba_marseille","lat":43.294314,"lon":5.397498,"is_reserved":false,"is_disabled":false,"rental_uris":{"android":"levelo://app?vid=96ffa1da-672d-4633-a96f-86ba1600fe8a","ios":"levelo://app?vid=96ffa1da-672d-4633-a96f-86ba1600fe8a"},"vehicle_type_id":"4","last_reported":1697609395,"current_range_meters":29600,"station_id":"ce4bh3h2rcd13ifvqdo0","pricing_plan_id":"free"},{"bike_id":"92d63fc6-c3ca-4a13-b045-eb667ebb02de","system_id":"levelo_inurba_marseille","lat":43.284598,"lon":5.35895,"is_reserved":false,"is_disabled":false,"rental_uris":{"android":"levelo://app?vid=92d63fc6-c3ca-4a13-b045-eb667ebb02de","ios":"levelo://app?vid=92d63fc6-c3ca-4a13-b045-eb667ebb02de"},"vehicle_type_id":"4","last_reported":1697609395,"current_range_meters":30000,"station_id":"ce4bhah2rcd13ifvqei0","pricing_plan_id":"free"},{"bike_id":"5998da4b-b01c-4d5c-ab49-696f2f86583a","system_id":"levelo_inurba_marseille","lat":43.284592,"lon":5.358967,"is_reserved":false,"is_disabled":false,"rental_uris":{"android":"levelo://app?vid=5998da4b-b01c-4d5c-ab49-696f2f86583a","ios":"levelo://app?vid=5998da4b-b01c-4d5c-ab49-696f2f86583a"},"vehicle_type_id":"4","last_reported":1697609395,"current_range_meters":28800,"station_id":"ce4bhah2rcd13ifvqei0","pricing_plan_id":"free"},{"bike_id":"baf7afe0-78b6-4643-9e9d-012096a73410","system_id":"levelo_inurba_marseille","lat":43.284573,"lon":5.358955,"is_reserved":false,"is_disabled":false,"rental_uris":{"android":"levelo://app?vid=baf7afe0-78b6-4643-9e9d-012096a73410","ios":"levelo://app?vid=baf7afe0-78b6-4643-9e9d-012096a73410"},"vehicle_type_id":"4","last_reported":1697609395,"current_range_meters":27200,"station_id":"ce4bhah2rcd13ifvqei0","pricing_plan_id":"free"},{"bike_id":"7562d388-238c-4f33-97e4-a66fe6391058","system_id":"levelo_inurba_marseille","lat":43.28624,"lon":5.35101,"is_reserved":false,"is_disabled":false,"rental_uris":{"android":"levelo://app?vid=7562d388-238c-4f33-97e4-a66fe6391058","ios":"levelo://app?vid=7562d388-238c-4f33-97e4-a66fe6391058"},"vehicle_type_id":"4","last_reported":1697609395,"current_range_meters":31200,"station_id":"ce4bhch2rcd13ifvqeug","pricing_plan_id":"free"},{"bike_id":"28d51eb0-b572-4c30-8203-469c3db3fa65","system_id":"levelo_inurba_marseille","lat":43.28621,"lon":5.35101,"is_reserved":false,"is_disabled":false,"rental_uris":{"android":"levelo://app?vid=28d51eb0-b572-4c30-8203-469c3db3fa65","ios":"levelo://app?vid=28d51eb0-b572-4c30-8203-469c3db3fa65"},"vehicle_type_id":"4","last_reported":1697609395,"current_range_meters":25600,"station_id":"ce4bhch2rcd13ifvqeug","pricing_plan_id":"free"},{"bike_id":"565f3dbe-f853-4b14-bca9-ed0a39505b35","system_id":"levelo_inurba_marseille","lat":43.294314,"lon":5.397498,"is_reserved":false,"is_disabled":false,"rental_uris":{"android":"levelo://app?vid=565f3dbe-f853-4b14-bca9-ed0a39505b35","ios":"levelo://app?vid=565f3dbe-f853-4b14-bca9-ed0a39505b35"},"vehicle_type_id":"4","last_reported":1697609395,"current_range_meters":18000,"station_id":"ce4bh3h2rcd13ifvqdo0","pricing_plan_id":"free"},{"bike_id":"6899fde9-349d-40b9-b941-af67c9b3b7c3","system_id":"levelo_inurba_marseille","lat":43.2862,"lon":5.35101,"is_reserved":false,"is_disabled":false,"rental_uris":{"android":"levelo://app?vid=6899fde9-349d-40b9-b941-af67c9b3b7c3","ios":"levelo://app?vid=6899fde9-349d-40b9-b941-af67c9b3b7c3"},"vehicle_type_id":"4","last_reported":1697609395,"current_range_meters":17600,"station_id":"ce4bhch2rcd13ifvqeug","pricing_plan_id":"free"},{"bike_id":"bffd8875-edef-48be-b7e3-776a5b16be82","system_id":"levelo_inurba_marseille","lat":43.28618,"lon":5.35107,"is_reserved":false,"is_disabled":false,"rental_uris":{"android":"levelo://app?vid=bffd8875-edef-48be-b7e3-776a5b16be82","ios":"levelo://app?vid=bffd8875-edef-48be-b7e3-776a5b16be82"},"vehicle_type_id":"4","last_reported":1697609395,"current_range_meters":16000,"station_id":"ce4bhch2rcd13ifvqeug","pricing_plan_id":"free"},{"bike_id":"9042d854-7e0b-4057-bfa3-4ffb280fe188","system_id":"levelo_inurba_marseille","lat":43.28615,"lon":5.35107,"is_reserved":false,"is_disabled":false,"rental_uris":{"android":"levelo://app?vid=9042d854-7e0b-4057-bfa3-4ffb280fe188","ios":"levelo://app?vid=9042d854-7e0b-4057-bfa3-4ffb280fe188"},"vehicle_type_id":"4","last_reported":1697609395,"current_range_meters":24800,"station_id":"ce4bhch2rcd13ifvqeug","pricing_plan_id":"free"},{"bike_id":"8176b69f-c229-4425-9801-8d6396b16701","system_id":"levelo_inurba_marseille","lat":43.28613,"lon":5.351,"is_reserved":false,"is_disabled":false,"rental_uris":{"android":"levelo://app?vid=8176b69f-c229-4425-9801-8d6396b16701","ios":"levelo://app?vid=8176b69f-c229-4425-9801-8d6396b16701"},"vehicle_type_id":"4","last_reported":1697609395,"current_range_meters":10400,"station_id":"ce4bhch2rcd13ifvqeug","pricing_plan_id":"free"},{"bike_id":"6259da52-9d6e-4876-8a39-0cca3aa7638e","system_id":"levelo_inurba_marseille","lat":43.28417,"lon":5.375217,"is_reserved":false,"is_disabled":false,"rental_uris":{"android":"levelo://app?vid=6259da52-9d6e-4876-8a39-0cca3aa7638e","ios":"levelo://app?vid=6259da52-9d6e-4876-8a39-0cca3aa7638e"},"vehicle_type_id":"4","last_reported":1697609395,"current_range_meters":19200,"station_id":"ce4bh412rcd13ifvqds0","pricing_plan_id":"free"},{"bike_id":"7672872b-7bac-4b48-855f-8b912199930f","system_id":"levelo_inurba_marseille","lat":43.283998,"lon":5.375062,"is_reserved":false,"is_disabled":false,"rental_uris":{"android":"levelo://app?vid=7672872b-7bac-4b48-855f-8b912199930f","ios":"levelo://app?vid=7672872b-7bac-4b48-855f-8b912199930f"},"vehicle_type_id":"4","last_reported":1697609395,"current_range_meters":31200,"station_id":"ce4bh412rcd13ifvqds0","pricing_plan_id":"free"},{"bike_id":"a3827395-3c1d-4db2-9185-9353d690f173","system_id":"levelo_inurba_marseille","lat":43.283998,"lon":5.375062,"is_reserved":false,"is_disabled":false,"rental_uris":{"android":"levelo://app?vid=a3827395-3c1d-4db2-9185-9353d690f173","ios":"levelo://app?vid=a3827395-3c1d-4db2-9185-9353d690f173"},"vehicle_type_id":"4","last_reported":1697609395,"current_range_meters":24400,"station_id":"ce4bh412rcd13ifvqds0","pricing_plan_id":"free"},{"bike_id":"79e4d108-7382-4f34-a892-d2672c06880f","system_id":"levelo_inurba_marseille","lat":43.319179,"lon":5.407725,"is_reserved":false,"is_disabled":false,"rental_uris":{"android":"levelo://app?vid=79e4d108-7382-4f34-a892-d2672c06880f","ios":"levelo://app?vid=79e4d108-7382-4f34-a892-d2672c06880f"},"vehicle_type_id":"4","last_reported":1697609395,"current_range_meters":26800,"station_id":"ce4bhq12rcd13ifvqhig","pricing_plan_id":"free"},{"bike_id":"fe8ed163-06e6-46fe-96b4-62b98478ea1f","system_id":"levelo_inurba_marseille","lat":43.284897,"lon":5.38422,"is_reserved":false,"is_disabled":false,"rental_uris":{"android":"levelo://app?vid=fe8ed163-06e6-46fe-96b4-62b98478ea1f","ios":"levelo://app?vid=fe8ed163-06e6-46fe-96b4-62b98478ea1f"},"vehicle_type_id":"4","last_reported":1697609395,"current_range_meters":30800,"station_id":"ce4bh512rcd13ifvqe3g","pricing_plan_id":"free"},{"bike_id":"f0100aa6-46e8-4860-b1d9-27553a7f5b0c","system_id":"levelo_inurba_marseille","lat":43.28484,"lon":5.38426,"is_reserved":false,"is_disabled":false,"rental_uris":{"android":"levelo://app?vid=f0100aa6-46e8-4860-b1d9-27553a7f5b0c","ios":"levelo://app?vid=f0100aa6-46e8-4860-b1d9-27553a7f5b0c"},"vehicle_type_id":"4","last_reported":1697609395,"current_range_meters":30000,"station_id":"ce4bh512rcd13ifvqe3g","pricing_plan_id":"free"},{"bike_id":"a22f3194-7836-43b1-a3b7-86e59be8c081","system_id":"levelo_inurba_marseille","lat":43.32525,"lon":5.40568,"is_reserved":false,"is_disabled":false,"rental_uris":{"android":"levelo://app?vid=a22f3194-7836-43b1-a3b7-86e59be8c081","ios":"levelo://app?vid=a22f3194-7836-43b1-a3b7-86e59be8c081"},"vehicle_type_id":"4","last_reported":1697609395,"current_range_meters":6000,"station_id":"","pricing_plan_id":"free"},{"bike_id":"511ec7bc-4612-4c01-85c0-3cbe16c9783a","system_id":"levelo_inurba_marseille","lat":43.283494,"lon":5.380945,"is_reserved":false,"is_disabled":false,"rental_uris":{"android":"levelo://app?vid=511ec7bc-4612-4c01-85c0-3cbe16c9783a","ios":"levelo://app?vid=511ec7bc-4612-4c01-85c0-3cbe16c9783a"},"vehicle_type_id":"4","last_reported":1697609395,"current_range_meters":30000,"station_id":"ce4bh412rcd13ifvqdr0","pricing_plan_id":"free"},{"bike_id":"218dc4c8-420f-4070-b303-8b92bdd142c9","system_id":"levelo_inurba_marseille","lat":43.32534,"lon":5.40572,"is_reserved":false,"is_disabled":false,"rental_uris":{"android":"levelo://app?vid=218dc4c8-420f-4070-b303-8b92bdd142c9","ios":"levelo://app?vid=218dc4c8-420f-4070-b303-8b92bdd142c9"},"vehicle_type_id":"4","last_reported":1697609395,"current_range_meters":2000,"station_id":"","pricing_plan_id":"free"},{"bike_id":"8db908d1-066b-47ad-b33f-5877bdd03b65","system_id":"levelo_inurba_marseille","lat":43.28353,"lon":5.38097,"is_reserved":false,"is_disabled":false,"rental_uris":{"android":"levelo://app?vid=8db908d1-066b-47ad-b33f-5877bdd03b65","ios":"levelo://app?vid=8db908d1-066b-47ad-b33f-5877bdd03b65"},"vehicle_type_id":"4","last_reported":1697609395,"current_range_meters":26400,"station_id":"ce4bh412rcd13ifvqdr0","pricing_plan_id":"free"},{"bike_id":"c107a580-e9a5-4294-999c-1e4e08849594","system_id":"levelo_inurba_marseille","lat":43.28354,"lon":5.38101,"is_reserved":false,"is_disabled":false,"rental_uris":{"android":"levelo://app?vid=c107a580-e9a5-4294-999c-1e4e08849594","ios":"levelo://app?vid=c107a580-e9a5-4294-999c-1e4e08849594"},"vehicle_type_id":"4","last_reported":1697609395,"current_range_meters":15200,"station_id":"ce4bh412rcd13ifvqdr0","pricing_plan_id":"free"},{"bike_id":"21841161-ff0b-44ce-a32d-7b56a97d1708","system_id":"levelo_inurba_marseille","lat":43.28351,"lon":5.38102,"is_reserved":false,"is_disabled":false,"rental_uris":{"android":"levelo://app?vid=21841161-ff0b-44ce-a32d-7b56a97d1708","ios":"levelo://app?vid=21841161-ff0b-44ce-a32d-7b56a97d1708"},"vehicle_type_id":"4","last_reported":1697609395,"current_range_meters":27600,"station_id":"ce4bh412rcd13ifvqdr0","pricing_plan_id":"free"},{"bike_id":"627ba966-fb74-4a60-a198-d5933b05e566","system_id":"levelo_inurba_marseille","lat":43.283492,"lon":5.381099,"is_reserved":false,"is_disabled":false,"rental_uris":{"android":"levelo://app?vid=627ba966-fb74-4a60-a198-d5933b05e566","ios":"levelo://app?vid=627ba966-fb74-4a60-a198-d5933b05e566"},"vehicle_type_id":"4","last_reported":1697609395,"current_range_meters":28800,"station_id":"","pricing_plan_id":"free"},{"bike_id":"714a9209-c81d-40cb-b417-ce806f8dbb90","system_id":"levelo_inurba_marseille","lat":43.283498,"lon":5.380948,"is_reserved":false,"is_disabled":false,"rental_uris":{"android":"levelo://app?vid=714a9209-c81d-40cb-b417-ce806f8dbb90","ios":"levelo://app?vid=714a9209-c81d-40cb-b417-ce806f8dbb90"},"vehicle_type_id":"4","last_reported":1697609395,"current_range_meters":27200,"station_id":"ce4bh412rcd13ifvqdr0","pricing_plan_id":"free"},{"bike_id":"958469c9-eca7-4e2f-82b8-b39663a688de","system_id":"levelo_inurba_marseille","lat":43.283498,"lon":5.380948,"is_reserved":false,"is_disabled":false,"rental_uris":{"android":"levelo://app?vid=958469c9-eca7-4e2f-82b8-b39663a688de","ios":"levelo://app?vid=958469c9-eca7-4e2f-82b8-b39663a688de"},"vehicle_type_id":"4","last_reported":1697609395,"current_range_meters":22400,"station_id":"ce4bh412rcd13ifvqdr0","pricing_plan_id":"free"},{"bike_id":"57610469-a5dd-4cc0-aac2-18dc6325c121","system_id":"levelo_inurba_marseille","lat":43.283498,"lon":5.380948,"is_reserved":false,"is_disabled":false,"rental_uris":{"android":"levelo://app?vid=57610469-a5dd-4cc0-aac2-18dc6325c121","ios":"levelo://app?vid=57610469-a5dd-4cc0-aac2-18dc6325c121"},"vehicle_type_id":"4","last_reported":1697609395,"current_range_meters":23200,"station_id":"ce4bh412rcd13ifvqdr0","pricing_plan_id":"free"},{"bike_id":"35a01350-170c-4acb-a719-4603c8bf4328","system_id":"levelo_inurba_marseille","lat":43.284219,"lon":5.3497,"is_reserved":false,"is_disabled":false,"rental_uris":{"android":"levelo://app?vid=35a01350-170c-4acb-a719-4603c8bf4328","ios":"levelo://app?vid=35a01350-170c-4acb-a719-4603c8bf4328"},"vehicle_type_id":"4","last_reported":1697609395,"current_range_meters":31200,"station_id":"ce4bhbh2rcd13ifvqepg","pricing_plan_id":"free"},{"bike_id":"cc832d70-6df1-4b25-b02f-9c610c35305e","system_id":"levelo_inurba_marseille","lat":43.284219,"lon":5.3497,"is_reserved":false,"is_disabled":false,"rental_uris":{"android":"levelo://app?vid=cc832d70-6df1-4b25-b02f-9c610c35305e","ios":"levelo://app?vid=cc832d70-6df1-4b25-b02f-9c610c35305e"},"vehicle_type_id":"4","last_reported":1697609395,"current_range_meters":12000,"station_id":"ce4bhbh2rcd13ifvqepg","pricing_plan_id":"free"},{"bike_id":"733887d8-76ae-4a2f-9303-f3200a3cf6a0","system_id":"levelo_inurba_marseille","lat":43.289363,"lon":5.396322,"is_reserved":false,"is_disabled":false,"rental_uris":{"android":"levelo://app?vid=733887d8-76ae-4a2f-9303-f3200a3cf6a0","ios":"levelo://app?vid=733887d8-76ae-4a2f-9303-f3200a3cf6a0"},"vehicle_type_id":"4","last_reported":1697609395,"current_range_meters":31200,"station_id":"ce4bh3h2rcd13ifvqdn0","pricing_plan_id":"free"},{"bike_id":"a03db00c-eda5-48b5-a5e7-17fe1d522530","system_id":"levelo_inurba_marseille","lat":43.289363,"lon":5.396322,"is_reserved":false,"is_disabled":false,"rental_uris":{"android":"levelo://app?vid=a03db00c-eda5-48b5-a5e7-17fe1d522530","ios":"levelo://app?vid=a03db00c-eda5-48b5-a5e7-17fe1d522530"},"vehicle_type_id":"4","last_reported":1697609395,"current_range_meters":27600,"station_id":"ce4bh3h2rcd13ifvqdn0","pricing_plan_id":"free"},{"bike_id":"104e3ac7-0a6d-4275-8908-9a048f6a3442","system_id":"levelo_inurba_marseille","lat":43.289363,"lon":5.396322,"is_reserved":false,"is_disabled":false,"rental_uris":{"android":"levelo://app?vid=104e3ac7-0a6d-4275-8908-9a048f6a3442","ios":"levelo://app?vid=104e3ac7-0a6d-4275-8908-9a048f6a3442"},"vehicle_type_id":"4","last_reported":1697609395,"current_range_meters":23600,"station_id":"ce4bh3h2rcd13ifvqdn0","pricing_plan_id":"free"},{"bike_id":"974f3898-2c84-4749-902a-f96e1a1e654d","system_id":"levelo_inurba_marseille","lat":43.289363,"lon":5.396322,"is_reserved":false,"is_disabled":false,"rental_uris":{"android":"levelo://app?vid=974f3898-2c84-4749-902a-f96e1a1e654d","ios":"levelo://app?vid=974f3898-2c84-4749-902a-f96e1a1e654d"},"vehicle_type_id":"4","last_reported":1697609395,"current_range_meters":29600,"station_id":"ce4bh3h2rcd13ifvqdn0","pricing_plan_id":"free"},{"bike_id":"68876bf7-2b21-43b4-a165-ebaf14f9ec5a","system_id":"levelo_inurba_marseille","lat":43.289363,"lon":5.396322,"is_reserved":false,"is_disabled":false,"rental_uris":{"android":"levelo://app?vid=68876bf7-2b21-43b4-a165-ebaf14f9ec5a","ios":"levelo://app?vid=68876bf7-2b21-43b4-a165-ebaf14f9ec5a"},"vehicle_type_id":"4","last_reported":1697609395,"current_range_meters":24400,"station_id":"ce4bh3h2rcd13ifvqdn0","pricing_plan_id":"free"},{"bike_id":"dd1f501b-235b-4a39-a6de-9a63f82a786a","system_id":"levelo_inurba_marseille","lat":43.324401,"lon":5.407461,"is_reserved":false,"is_disabled":false,"rental_uris":{"android":"levelo://app?vid=dd1f501b-235b-4a39-a6de-9a63f82a786a","ios":"levelo://app?vid=dd1f501b-235b-4a39-a6de-9a63f82a786a"},"vehicle_type_id":"4","last_reported":1697609395,"current_range_meters":21200,"station_id":"","pricing_plan_id":"free"},{"bike_id":"d4503d79-26a0-4a0f-a1f7-0aa3939ef7ad","system_id":"levelo_inurba_marseille","lat":43.292724,"lon":5.401131,"is_reserved":false,"is_disabled":false,"rental_uris":{"android":"levelo://app?vid=d4503d79-26a0-4a0f-a1f7-0aa3939ef7ad","ios":"levelo://app?vid=d4503d79-26a0-4a0f-a1f7-0aa3939ef7ad"},"vehicle_type_id":"4","last_reported":1697609395,"current_range_meters":26400,"station_id":"ce4bh312rcd13ifvqdk0","pricing_plan_id":"free"},{"bike_id":"e5a3ec54-ac59-4de6-b1bd-5d1724a9c7f3","system_id":"levelo_inurba_marseille","lat":43.292724,"lon":5.401131,"is_reserved":false,"is_disabled":false,"rental_uris":{"android":"levelo://app?vid=e5a3ec54-ac59-4de6-b1bd-5d1724a9c7f3","ios":"levelo://app?vid=e5a3ec54-ac59-4de6-b1bd-5d1724a9c7f3"},"vehicle_type_id":"4","last_reported":1697609395,"current_range_meters":30800,"station_id":"ce4bh312rcd13ifvqdk0","pricing_plan_id":"free"},{"bike_id":"11e31d55-084c-48ce-a962-103faf1a70d9","system_id":"levelo_inurba_marseille","lat":43.292724,"lon":5.401131,"is_reserved":false,"is_disabled":false,"rental_uris":{"android":"levelo://app?vid=11e31d55-084c-48ce-a962-103faf1a70d9","ios":"levelo://app?vid=11e31d55-084c-48ce-a962-103faf1a70d9"},"vehicle_type_id":"4","last_reported":1697609395,"current_range_meters":31200,"station_id":"ce4bh312rcd13ifvqdk0","pricing_plan_id":"free"},{"bike_id":"ee137380-ebf4-4fff-867c-4c4dadb68e4f","system_id":"levelo_inurba_marseille","lat":43.292724,"lon":5.401131,"is_reserved":false,"is_disabled":false,"rental_uris":{"android":"levelo://app?vid=ee137380-ebf4-4fff-867c-4c4dadb68e4f","ios":"levelo://app?vid=ee137380-ebf4-4fff-867c-4c4dadb68e4f"},"vehicle_type_id":"4","last_reported":1697609395,"current_range_meters":31200,"station_id":"ce4bh312rcd13ifvqdk0","pricing_plan_id":"free"},{"bike_id":"2c82892c-8bfe-4830-986b-07ca0262cd00","system_id":"levelo_inurba_marseille","lat":43.29277,"lon":5.40133,"is_reserved":false,"is_disabled":false,"rental_uris":{"android":"levelo://app?vid=2c82892c-8bfe-4830-986b-07ca0262cd00","ios":"levelo://app?vid=2c82892c-8bfe-4830-986b-07ca0262cd00"},"vehicle_type_id":"4","last_reported":1697609395,"current_range_meters":19200,"station_id":"ce4bh312rcd13ifvqdk0","pricing_plan_id":"free"},{"bike_id":"8cb9dd9b-92d1-4ea6-bb1f-d8cc86b5c404","system_id":"levelo_inurba_marseille","lat":43.282744,"lon":5.350533,"is_reserved":false,"is_disabled":false,"rental_uris":{"android":"levelo://app?vid=8cb9dd9b-92d1-4ea6-bb1f-d8cc86b5c404","ios":"levelo://app?vid=8cb9dd9b-92d1-4ea6-bb1f-d8cc86b5c404"},"vehicle_type_id":"4","last_reported":1697609395,"current_range_meters":31200,"station_id":"ce4bhbp2rcd13ifvqerg","pricing_plan_id":"free"},