{"last_updated":1742846980,"ttl":60,"version":"2.2","data":{"bikes":[{"bike_id":"b4bbba48-f0b8-4968-8df2-733a68348cd4","system_id":"levelo_inurba_marseille","lat":43.31214,"lon":5.36874,"is_reserved":false,"is_disabled":false,"rental_uris":{"android":"levelo://app?vid=b4bbba48-f0b8-4968-8df2-733a68348cd4","ios":"levelo://app?vid=b4bbba48-f0b8-4968-8df2-733a68348cd4"},"vehicle_type_id":"4","last_reported":1742846981,"current_range_meters":2800,"station_id":"ce4bgl92rcd13ifvqbq0","pricing_plan_id":"cebpf4jnsgd1na2vs0mg"},{"bike_id":"e3dbe45b-218b-4c36-bf52-b2c005a5561d","system_id":"levelo_inurba_marseille","lat":43.292508,"lon":5.366727,"is_reserved":false,"is_disabled":false,"rental_uris":{"android":"levelo://app?vid=e3dbe45b-218b-4c36-bf52-b2c005a5561d","ios":"levelo://app?vid=e3dbe45b-218b-4c36-bf52-b2c005a5561d"},"vehicle_type_id":"4","last_reported":1742846981,"current_range_meters":2000,"station_id":"ce4bguh2rcd13ifvqckg","pricing_plan_id":"cebpf4jnsgd1na2vs0mg"},{"bike_id":"e56ac6b6-cb8b-474c-af75-3d1bc7ee7b8e","system_id":"levelo_inurba_marseille","lat":43.31365,"lon":5.38493,"is_reserved":false,"is_disabled":false,"rental_uris":{"android":"levelo://app?vid=e56ac6b6-cb8b-474c-af75-3d1bc7ee7b8e","ios":"levelo://app?vid=e56ac6b6-cb8b-474c-af75-3d1bc7ee7b8e"},"vehicle_type_id":"4","last_reported":1742846981,"current_range_meters":3200,"station_id":"ce4bgt92rcd13ifvqcf0","pricing_plan_id":"cebpf4jnsgd1na2vs0mg"},{"bike_id":"cfda1c89-ca69-4901-87c4-6f415bb03239","system_id":"levelo_inurba_marseille","lat":43.3011,"lon":5.39056,"is_reserved":false,"is_disabled":false,"rental_uris":{"android":"levelo://app?vid=cfda1c89-ca69-4901-87c4-6f415bb03239","ios":"levelo://app?vid=cfda1c89-ca69-4901-87c4-6f415bb03239"},"vehicle_type_id":"4","last_reported":1742846981,"current_range_meters":3200,"station_id":"","pricing_plan_id":"cebpf4jnsgd1na2vs0mg"},{"bike_id":"86491cc3-e511-474e-9d79-bf1bb3a29b84","system_id":"levelo_inurba_marseille","lat":43.25116,"lon":5.4032,"is_reserved":false,"is_disabled":true,"rental_uris":{"android":"levelo://app?vid=86491cc3-e511-474e-9d79-bf1bb3a29b84","ios":"levelo://app?vid=86491cc3-e511-474e-9d79-bf1bb3a29b84"},"vehicle_type_id":"4","last_reported":1742846981,"current_range_meters":3200,"station_id":"ce4bhlh2rcd13ifvqgig","pricing_plan_id":"cebpf4jnsgd1na2vs0mg"},{"bike_id":"3c9a706d-e862-4dc6-9891-1d4823ecd04e","system_id":"levelo_inurba_marseille","lat":43.30794,"lon":5.38164,"is_reserved":false,"is_disabled":false,"rental_uris":{"android":"levelo://app?vid=3c9a706d-e862-4dc6-9891-1d4823ecd04e","ios":"levelo://app?vid=3c9a706d-e862-4dc6-9891-1d4823ecd04e"},"vehicle_type_id":"4","last_reported":1742846981,"current_range_meters":3600,"station_id":"ce4bgt12rcd13ifvqce0","pricing_plan_id":"cebpf4jnsgd1na2vs0mg"},{"bike_id":"2b97c6c8-6b27-48dc-abad-8bcf29b097e0","system_id":"levelo_inurba_marseille","lat":43.26777,"lon":5.39445,"is_reserved":false,"is_disabled":true,"rental_uris":{"android":"levelo://app?vid=2b97c6c8-6b27-48dc-abad-8bcf29b097e0","ios":"levelo://app?vid=2b97c6c8-6b27-48dc-abad-8bcf29b097e0"},"vehicle_type_id":"4","last_reported":1742846981,"current_range_meters":3600,"station_id":"ce4bhh12rcd13ifvqfg0","pricing_plan_id":"cebpf4jnsgd1na2vs0mg"},{"bike_id":"2eaf953b-583c-4ef4-80dd-1a0c625efc38","system_id":"levelo_inurba_marseille","lat":43.30885,"lon":5.396504,"is_reserved":false,"is_disabled":false,"rental_uris":{"android":"levelo://app?vid=2eaf953b-583c-4ef4-80dd-1a0c625efc38","ios":"levelo://app?vid=2eaf953b-583c-4ef4-80dd-1a0c625efc38"},"vehicle_type_id":"4","last_reported":1742846981,"current_range_meters":3600,"station_id":"ce4bh012rcd13ifvqcv0","pricing_plan_id":"cebpf4jnsgd1na2vs0mg"},{"bike_id":"8f78dd7a-9535-4415-806b-f6454bad9cba","system_id":"levelo_inurba_marseille","lat":43.31212,"lon":5.36869,"is_reserved":false,"is_disabled":false,"rental_uris":{"android":"levelo://app?vid=8f78dd7a-9535-4415-806b-f6454bad9cba","ios":"levelo://app?vid=8f78dd7a-9535-4415-806b-f6454bad9cba"},"vehicle_type_id":"4","last_reported":1742846981,"current_range_meters":3600,"station_id":"ce4bgl92rcd13ifvqbq0","pricing_plan_id":"cebpf4jnsgd1na2vs0mg"},{"bike_id":"5878d386-bb5e-4795-ab5d-7b6e114394f0","system_id":"levelo_inurba_marseille","lat":43.3203,"lon":5.41565,"is_reserved":false,"is_disabled":false,"rental_uris":{"android":"levelo://app?vid=5878d386-bb5e-4795-ab5d-7b6e114394f0","ios":"levelo://app?vid=5878d386-bb5e-4795-ab5d-7b6e114394f0"},"vehicle_type_id":"4","last_reported":1742846981,"current_range_meters":4000,"station_id":"ce4bhq92rcd13ifvqhkg","pricing_plan_id":"cebpf4jnsgd1na2vs0mg"},{"bike_id":"9099b1da-7fd7-401d-acb1-68ae757af661","system_id":"levelo_inurba_marseille","lat":43.23181,"lon":5.3999,"is_reserved":false,"is_disabled":false,"rental_uris":{"android":"levelo://app?vid=9099b1da-7fd7-401d-acb1-68ae757af661","ios":"levelo://app?vid=9099b1da-7fd7-401d-acb1-68ae757af661"},"vehicle_type_id":"4","last_reported":1742846981,"current_range_meters":4400,"station_id":"ce4bhn12rcd13ifvqgqg","pricing_plan_id":"cebpf4jnsgd1na2vs0mg"},{"bike_id":"515c9ef6-8580-4696-9b95-380634ee713c","system_id":"levelo_inurba_marseille","lat":43.31078,"lon":5.38351,"is_reserved":false,"is_disabled":false,"rental_uris":{"android":"levelo://app?vid=515c9ef6-8580-4696-9b95-380634ee713c","ios":"levelo://app?vid=515c9ef6-8580-4696-9b95-380634ee713c"},"vehicle_type_id":"4","last_reported":1742846981,"current_range_meters":4400,"station_id":"ce4bgv92rcd13ifvqcr0","pricing_plan_id":"cebpf4jnsgd1na2vs0mg"},{"bike_id":"bd13a9b0-d427-4d51-9885-01d020eb44e7","system_id":"levelo_inurba_marseille","lat":43.28076,"lon":5.39654,"is_reserved":false,"is_disabled":false,"rental_uris":{"android":"levelo://app?vid=bd13a9b0-d427-4d51-9885-01d020eb44e7","ios":"levelo://app?vid=bd13a9b0-d427-4d51-9885-01d020eb44e7"},"vehicle_type_id":"4","last_reported":1742846981,"current_range_meters":4800,"station_id":"ce4bho12rcd13ifvqh2g","pricing_plan_id":"cebpf4jnsgd1na2vs0mg"},{"bike_id":"c09425b1-e650-4cb8-b2df-ec541c9b51f0","system_id":"levelo_inurba_marseille","lat":43.29972,"lon":5.37089,"is_reserved":false,"is_disabled":false,"rental_uris":{"android":"levelo://app?vid=c09425b1-e650-4cb8-b2df-ec541c9b51f0","ios":"levelo://app?vid=c09425b1-e650-4cb8-b2df-ec541c9b51f0"},"vehicle_type_id":"4","last_reported":1742846981,"current_range_meters":4800,"station_id":"","pricing_plan_id":"cebpf4jnsgd1na2vs0mg"},{"bike_id":"e0ed8cc2-9097-4346-82db-8bde6af0ac55","system_id":"levelo_inurba_marseille","lat":43.255818,"lon":5.382305,"is_reserved":false,"is_disabled":false,"rental_uris":{"android":"levelo://app?vid=e0ed8cc2-9097-4346-82db-8bde6af0ac55","ios":"levelo://app?vid=e0ed8cc2-9097-4346-82db-8bde6af0ac55"},"vehicle_type_id":"4","last_reported":1742846981,"current_range_meters":4400,"station_id":"ce4bhjp2rcd13ifvqga0","pricing_plan_id":"cebpf4jnsgd1na2vs0mg"},{"bike_id":"bf9143c7-32e0-4b03-906c-d7a66a64c6a2","system_id":"levelo_inurba_marseille","lat":43.29965,"lon":5.38493,"is_reserved":false,"is_disabled":false,"rental_uris":{"android":"levelo://app?vid=bf9143c7-32e0-4b03-906c-d7a66a64c6a2","ios":"levelo://app?vid=bf9143c7-32e0-4b03-906c-d7a66a64c6a2"},"vehicle_type_id":"4","last_reported":1742846981,"current_range_meters":5600,"station_id":"ce4bgj92rcd13ifvqbd0","pricing_plan_id":"cebpf4jnsgd1na2vs0mg"},{"bike_id":"a8a90f3b-e99a-4a49-9b91-01ba2232dc32","system_id":"levelo_inurba_marseille","lat":43.31079,"lon":5.42433,"is_reserved":false,"is_disabled":false,"rental_uris":{"android":"levelo://app?vid=a8a90f3b-e99a-4a49-9b91-01ba2232dc32","ios":"levelo://app?vid=a8a90f3b-e99a-4a49-9b91-01ba2232dc32"},"vehicle_type_id":"4","last_reported":1742846981,"current_range_meters":5600,"station_id":"","pricing_plan_id":"cebpf4jnsgd1na2vs0mg"},{"bike_id":"485640ef-6ee1-4289-9f99-df9d7d8fdd36","system_id":"levelo_inurba_marseille","lat":43.282597,"lon":5.350622,"is_reserved":false,"is_disabled":false,"rental_uris":{"android":"levelo://app?vid=485640ef-6ee1-4289-9f99-df9d7d8fdd36","ios":"levelo://app?vid=485640ef-6ee1-4289-9f99-df9d7d8fdd36"},"vehicle_type_id":"4","last_reported":1742846981,"current_range_meters":5600,"station_id":"ce4bhbp2rcd13ifvqerg","pricing_plan_id":"cebpf4jnsgd1na2vs0mg"},{"bike_id":"1befdc84-9289-4922-a09d-c25f119703a9","system_id":"levelo_inurba_marseille","lat":43.3136,"lon":5.38488,"is_reserved":false,"is_disabled":false,"rental_uris":{"android":"levelo://app?vid=1befdc84-9289-4922-a09d-c25f119703a9","ios":"levelo://app?vid=1befdc84-9289-4922-a09d-c25f119703a9"},"vehicle_type_id":"4","last_reported":1742846981,"current_range_meters":5600,"station_id":"ce4bgt92rcd13ifvqcf0","pricing_plan_id":"cebpf4jnsgd1na2vs0mg"},{"bike_id":"3c0718b5-b8f2-4174-8657-71ede60325d6","system_id":"levelo_inurba_marseille","lat":43.28261,"lon":5.35097,"is_reserved":false,"is_disabled":false,"rental_uris":{"android":"levelo://app?vid=3c0718b5-b8f2-4174-8657-71ede60325d6","ios":"levelo://app?vid=3c0718b5-b8f2-4174-8657-71ede60325d6"},"vehicle_type_id":"4","last_reported":1742846981,"current_range_meters":5600,"station_id":"ce4bhbp2rcd13ifvqerg","pricing_plan_id":"cebpf4jnsgd1na2vs0mg"},{"bike_id":"c36cefb3-0db7-45d8-b171-a7dea51fd330","system_id":"levelo_inurba_marseille","lat":43.25709,"lon":5.41091,"is_reserved":false,"is_disabled":false,"rental_uris":{"android":"levelo://app?vid=c36cefb3-0db7-45d8-b171-a7dea51fd330","ios":"levelo://app?vid=c36cefb3-0db7-45d8-b171-a7dea51fd330"},"vehicle_type_id":"4","last_reported":1742846981,"current_range_meters":6400,"station_id":"ce4bhkp2rcd13ifvqgd0","pricing_plan_id":"cebpf4jnsgd1na2vs0mg"},{"bike_id":"49c3a9e2-cdb5-4e54-8510-154aa5ad26d8","system_id":"levelo_inurba_marseille","lat":43.29966,"lon":5.38497,"is_reserved":false,"is_disabled":false,"rental_uris":{"android":"levelo://app?vid=49c3a9e2-cdb5-4e54-8510-154aa5ad26d8","ios":"levelo://app?vid=49c3a9e2-cdb5-4e54-8510-154aa5ad26d8"},"vehicle_type_id":"4","last_reported":1742846981,"current_range_meters":6000,"station_id":"ce4bgj92rcd13ifvqbd0","pricing_plan_id":"cebpf4jnsgd1na2vs0mg"},{"bike_id":"1b7c5e4e-130d-4e75-8db2-feee0d51fa46","system_id":"levelo_inurba_marseille","lat":43.24179,"lon":5.397,"is_reserved":false,"is_disabled":false,"rental_uris":{"android":"levelo://app?vid=1b7c5e4e-130d-4e75-8db2-feee0d51fa46","ios":"levelo://app?vid=1b7c5e4e-130d-4e75-8db2-feee0d51fa46"},"vehicle_type_id":"4","last_reported":1742846981,"current_range_meters":6400,"station_id":"ce4bhn12rcd13ifvqgpg","pricing_plan_id":"cebpf4jnsgd1na2vs0mg"},{"bike_id":"c328c08b-84d1-40c7-ac2b-4e12c9cee56c","system_id":"levelo_inurba_marseille","lat":43.26556,"lon":5.37298,"is_reserved":false,"is_disabled":false,"rental_uris":{"android":"levelo://app?vid=c328c08b-84d1-40c7-ac2b-4e12c9cee56c","ios":"levelo://app?vid=c328c08b-84d1-40c7-ac2b-4e12c9cee56c"},"vehicle_type_id":"4","last_reported":1742846981,"current_range_meters":6400,"station_id":"ce4bhg12rcd13ifvqf70","pricing_plan_id":"cebpf4jnsgd1na2vs0mg"},{"bike_id":"bebbaaa4-9324-461e-b685-01f74c9202e0","system_id":"levelo_inurba_marseille","lat":43.23948,"lon":5.36583,"is_reserved":false,"is_disabled":false,"rental_uris":{"android":"levelo://app?vid=bebbaaa4-9324-461e-b685-01f74c9202e0","ios":"levelo://app?vid=bebbaaa4-9324-461e-b685-01f74c9202e0"},"vehicle_type_id":"4","last_reported":1742846981,"current_range_meters":6400,"station_id":"ce4bhi12rcd13ifvqfp0","pricing_plan_id":"cebpf4jnsgd1na2vs0mg"},{"bike_id":"d1f993ec-8e82-4e82-a38b-e848ded0cf74","system_id":"levelo_inurba_marseille","lat":43.25097,"lon":5.39513,"is_reserved":false,"is_disabled":false,"rental_uris":{"android":"levelo://app?vid=d1f993ec-8e82-4e82-a38b-e848ded0cf74","ios":"levelo://app?vid=d1f993ec-8e82-4e82-a38b-e848ded0cf74"},"vehicle_type_id":"4","last_reported":1742846981,"current_range_meters":6400,"station_id":"","pricing_plan_id":"cebpf4jnsgd1na2vs0mg"},{"bike_id":"732a627f-01b2-4ae6-a8e5-331bcbff3b4f","system_id":"levelo_inurba_marseille","lat":43.25128,"lon":5.40303,"is_reserved":false,"is_disabled":false,"rental_uris":{"android":"levelo://app?vid=732a627f-01b2-4ae6-a8e5-331bcbff3b4f","ios":"levelo://app?vid=732a627f-01b2-4ae6-a8e5-331bcbff3b4f"},"vehicle_type_id":"4","last_reported":1742846981,"current_range_meters":6400,"station_id":"","pricing_plan_id":"cebpf4jnsgd1na2vs0mg"},{"bike_id":"6767d65f-236c-4b2c-a7f3-3d513792b933","system_id":"levelo_inurba_marseille","lat":43.28082,"lon":5.39662,"is_reserved":false,"is_disabled":false,"rental_uris":{"android":"levelo://app?vid=6767d65f-236c-4b2c-a7f3-3d513792b933","ios":"levelo://app?vid=6767d65f-236c-4b2c-a7f3-3d513792b933"},"vehicle_type_id":"4","last_reported":1742846981,"current_range_meters":6400,"station_id":"ce4bho12rcd13ifvqh2g","pricing_plan_id":"cebpf4jnsgd1na2vs0mg"},{"bike_id":"2e5c3384-1873-494e-8faa-0ed376757580","system_id":"levelo_inurba_marseille","lat":43.30798,"lon":5.43536,"is_reserved":false,"is_disabled":false,"rental_uris":{"android":"levelo://app?vid=2e5c3384-1873-494e-8faa-0ed376757580","ios":"levelo://app?vid=2e5c3384-1873-494e-8faa-0ed376757580"},"vehicle_type_id":"4","last_reported":1742846981,"current_range_meters":6800,"station_id":"ce4bhph2rcd13ifvqheg","pricing_plan_id":"cebpf4jnsgd1na2vs0mg"},{"bike_id":"21e3a6e5-11f0-467c-9e11-90aab4ee0f83","system_id":"levelo_inurba_marseille","lat":43.2738,"lon":5.36252,"is_reserved":false,"is_disabled":false,"rental_uris":{"android":"levelo://app?vid=21e3a6e5-11f0-467c-9e11-90aab4ee0f83","ios":"levelo://app?vid=21e3a6e5-11f0-467c-9e11-90aab4ee0f83"},"vehicle_type_id":"4","last_reported":1742846981,"current_range_meters":6800,"station_id":"ce4bhbh2rcd13ifvqeo0","pricing_plan_id":"cebpf4jnsgd1na2vs0mg"},{"bike_id":"0e680333-b1df-418a-9e56-bc70c69af5af","system_id":"levelo_inurba_marseille","lat":43.27929,"lon":5.39597,"is_reserved":false,"is_disabled":false,"rental_uris":{"android":"levelo://app?vid=0e680333-b1df-418a-9e56-bc70c69af5af","ios":"levelo://app?vid=0e680333-b1df-418a-9e56-bc70c69af5af"},"vehicle_type_id":"4","last_reported":1742846981,"current_range_meters":6800,"station_id":"ce4bhf92rcd13ifvqf40","pricing_plan_id":"cebpf4jnsgd1na2vs0mg"},{"bike_id":"86a65fab-1faf-4fc4-885c-2b086e92c069","system_id":"levelo_inurba_marseille","lat":43.24178,"lon":5.36412,"is_reserved":false,"is_disabled":false,"rental_uris":{"android":"levelo://app?vid=86a65fab-1faf-4fc4-885c-2b086e92c069","ios":"levelo://app?vid=86a65fab-1faf-4fc4-885c-2b086e92c069"},"vehicle_type_id":"4","last_reported":1742846981,"current_range_meters":6800,"station_id":"cpo36qri1sfpv3e86is0","pricing_plan_id":"cebpf4jnsgd1na2vs0mg"},{"bike_id":"6f023766-497a-44b5-8b39-a397e2b8fcb8","system_id":"levelo_inurba_marseille","lat":43.31073,"lon":5.42443,"is_reserved":false,"is_disabled":false,"rental_uris":{"android":"levelo://app?vid=6f023766-497a-44b5-8b39-a397e2b8fcb8","ios":"levelo://app?vid=6f023766-497a-44b5-8b39-a397e2b8fcb8"},"vehicle_type_id":"4","last_reported":1742846981,"current_range_meters":7200,"station_id":"ce4bhp92rcd13ifvqhag","pricing_plan_id":"cebpf4jnsgd1na2vs0mg"},{"bike_id":"0b8199b9-6fa1-44b9-8e6c-7055893a47ca","system_id":"levelo_inurba_marseille","lat":43.28349,"lon":5.38108,"is_reserved":false,"is_disabled":false,"rental_uris":{"android":"levelo://app?vid=0b8199b9-6fa1-44b9-8e6c-7055893a47ca","ios":"levelo://app?vid=0b8199b9-6fa1-44b9-8e6c-7055893a47ca"},"vehicle_type_id":"4","last_reported":1742846981,"current_range_meters":7200,"station_id":"","pricing_plan_id":"cebpf4jnsgd1na2vs0mg"},{"bike_id":"bb7d553e-f91c-478a-a14a-5f3ea0dc4964","system_id":"levelo_inurba_marseille","lat":43.24546,"lon":5.3954,"is_reserved":false,"is_disabled":false,"rental_uris":{"android":"levelo://app?vid=bb7d553e-f91c-478a-a14a-5f3ea0dc4964","ios":"levelo://app?vid=bb7d553e-f91c-478a-a14a-5f3ea0dc4964"},"vehicle_type_id":"4","last_reported":1742846981,"current_range_meters":7200,"station_id":"ce4bhlp2rcd13ifvqgjg","pricing_plan_id":"cebpf4jnsgd1na2vs0mg"},{"bike_id":"76f3d16e-d7a5-4684-96dc-ab38a67e3c56","system_id":"levelo_inurba_marseille","lat":43.27819,"lon":5.40726,"is_reserved":false,"is_disabled":false,"rental_uris":{"android":"levelo://app?vid=76f3d16e-d7a5-4684-96dc-ab38a67e3c56","ios":"levelo://app?vid=76f3d16e-d7a5-4684-96dc-ab38a67e3c56"},"vehicle_type_id":"4","last_reported":1742846981,"current_range_meters":7200,"station_id":"ce4bhnh2rcd13ifvqgtg","pricing_plan_id":"cebpf4jnsgd1na2vs0mg"},{"bike_id":"91456e3b-facc-45cb-b00f-aea26e6eaf6c","system_id":"levelo_inurba_marseille","lat":43.2781,"lon":5.40724,"is_reserved":false,"is_disabled":true,"rental_uris":{"android":"levelo://app?vid=91456e3b-facc-45cb-b00f-aea26e6eaf6c","ios":"levelo://app?vid=91456e3b-facc-45cb-b00f-aea26e6eaf6c"},"vehicle_type_id":"4","last_reported":1742846981,"current_range_meters":7200,"station_id":"ce4bhnh2rcd13ifvqgtg","pricing_plan_id":"cebpf4jnsgd1na2vs0mg"},{"bike_id":"5cced8c2-e3b9-4f6d-88d2-83e105451a94","system_id":"levelo_inurba_marseille","lat":43.26565,"lon":5.39011,"is_reserved":false,"is_disabled":false,"rental_uris":{"android":"levelo://app?vid=5cced8c2-e3b9-4f6d-88d2-83e105451a94","ios":"levelo://app?vid=5cced8c2-e3b9-4f6d-88d2-83e105451a94"},"vehicle_type_id":"4","last_reported":1742846981,"current_range_meters":7200,"station_id":"ce4bhe12rcd13ifvqf30","pricing_plan_id":"cebpf4jnsgd1na2vs0mg"},{"bike_id":"763cfa5b-c33b-448e-9f64-07102448a732","system_id":"levelo_inurba_marseille","lat":43.28165,"lon":5.4265,"is_reserved":false,"is_disabled":false,"rental_uris":{"android":"levelo://app?vid=763cfa5b-c33b-448e-9f64-07102448a732","ios":"levelo://app?vid=763cfa5b-c33b-448e-9f64-07102448a732"},"vehicle_type_id":"4","last_reported":1742846981,"current_range_meters":7200,"station_id":"ce4bhnh2rcd13ifvqgug","pricing_plan_id":"cebpf4jnsgd1na2vs0mg"},{"bike_id":"6da44af1-8b7c-4791-bcb1-30013b0638eb","system_id":"levelo_inurba_marseille","lat":43.27306,"lon":5.39129,"is_reserved":false,"is_disabled":true,"rental_uris":{"android":"levelo://app?vid=6da44af1-8b7c-4791-bcb1-30013b0638eb","ios":"levelo://app?vid=6da44af1-8b7c-4791-bcb1-30013b0638eb"},"vehicle_type_id":"4","last_reported":1742846981,"current_range_meters":8000,"station_id":"ce4bhgp2rcd13ifvqfe0","pricing_plan_id":"cebpf4jnsgd1na2vs0mg"},{"bike_id":"3b80d575-b6f6-47f6-86af-968f2f87e0de","system_id":"levelo_inurba_marseille","lat":43.30877,"lon":5.39665,"is_reserved":false,"is_disabled":false,"rental_uris":{"android":"levelo://app?vid=3b80d575-b6f6-47f6-86af-968f2f87e0de","ios":"levelo://app?vid=3b80d575-b6f6-47f6-86af-968f2f87e0de"},"vehicle_type_id":"4","last_reported":1742846981,"current_range_meters":8000,"station_id":"ce4bh012rcd13ifvqcv0","pricing_plan_id":"cebpf4jnsgd1na2vs0mg"},{"bike_id":"9fc87cb3-4f61-4e11-a37d-bb25cfffc8b7","system_id":"levelo_inurba_marseille","lat":43.24534,"lon":5.42903,"is_reserved":false,"is_disabled":false,"rental_uris":{"android":"levelo://app?vid=9fc87cb3-4f61-4e11-a37d-bb25cfffc8b7","ios":"levelo://app?vid=9fc87cb3-4f61-4e11-a37d-bb25cfffc8b7"},"vehicle_type_id":"4","last_reported":1742846981,"current_range_meters":8000,"station_id":"","pricing_plan_id":"cebpf4jnsgd1na2vs0mg"},{"bike_id":"e3c6d100-9b3b-44e1-abd1-7cf3538ee12c","system_id":"levelo_inurba_marseille","lat":43.23185,"lon":5.35578,"is_reserved":false,"is_disabled":false,"rental_uris":{"android":"levelo://app?vid=e3c6d100-9b3b-44e1-abd1-7cf3538ee12c","ios":"levelo://app?vid=e3c6d100-9b3b-44e1-abd1-7cf3538ee12c"},"vehicle_type_id":"4","last_reported":1742846981,"current_range_meters":8000,"station_id":"ce4bhu92rcd13ifvqi70","pricing_plan_id":"cebpf4jnsgd1na2vs0mg"},{"bike_id":"f02a77b8-f810-41ff-bf5b-5ab742b469a7","system_id":"levelo_inurba_marseille","lat":43.23161,"lon":5.43709,"is_reserved":false,"is_disabled":false,"rental_uris":{"android":"levelo://app?vid=f02a77b8-f810-41ff-bf5b-5ab742b469a7","ios":"levelo://app?vid=f02a77b8-f810-41ff-bf5b-5ab742b469a7"},"vehicle_type_id":"4","last_reported":1742846981,"current_range_meters":8000,"station_id":"ce4bhmp2rcd13ifvqgog","pricing_plan_id":"cebpf4jnsgd1na2vs0mg"},{"bike_id":"8570eee4-fc2d-47b7-9282-293872bef70a","system_id":"levelo_inurba_marseille","lat":43.29696,"lon":5.37313,"is_reserved":false,"is_disabled":false,"rental_uris":{"android":"levelo://app?vid=8570eee4-fc2d-47b7-9282-293872bef70a","ios":"levelo://app?vid=8570eee4-fc2d-47b7-9282-293872bef70a"},"vehicle_type_id":"4","last_reported":1742846981,"current_range_meters":8000,"station_id":"ce4bgk12rcd13ifvqbj0","pricing_plan_id":"cebpf4jnsgd1na2vs0mg"},{"bike_id":"c840b16c-7138-4046-b231-8ea7fbfdc890","system_id":"levelo_inurba_marseille","lat":43.27808,"lon":5.407,"is_reserved":false,"is_disabled":false,"rental_uris":{"android":"levelo://app?vid=c840b16c-7138-4046-b231-8ea7fbfdc890","ios":"levelo://app?vid=c840b16c-7138-4046-b231-8ea7fbfdc890"},"vehicle_type_id":"4","last_reported":1742846981,"current_range_meters":8000,"station_id":"ce4bhnh2rcd13ifvqgtg","pricing_plan_id":"cebpf4jnsgd1na2vs0mg"},{"bike_id":"ba77c809-1111-412f-8eae-c3c885fbd6c5","system_id":"levelo_inurba_marseille","lat":43.24168,"lon":5.36397,"is_reserved":false,"is_disabled":false,"rental_uris":{"android":"levelo://app?vid=ba77c809-1111-412f-8eae-c3c885fbd6c5","ios":"levelo://app?vid=ba77c809-1111-412f-8eae-c3c885fbd6c5"},"vehicle_type_id":"4","last_reported":1742846981,"current_range_meters":8000,"station_id":"cpo36qri1sfpv3e86is0","pricing_plan_id":"cebpf4jnsgd1na2vs0mg"},{"bike_id":"c77ba74c-34b4-4065-8232-671a3f8577ef","system_id":"levelo_inurba_marseille","lat":43.26204,"lon":5.37932,"is_reserved":false,"is_disabled":false,"rental_uris":{"android":"levelo://app?vid=c77ba74c-34b4-4065-8232-671a3f8577ef","ios":"levelo://app?vid=c77ba74c-34b4-4065-8232-671a3f8577ef"},"vehicle_type_id":"4","last_reported":1742846981,"current_range_meters":8000,"station_id":"","pricing_plan_id":"cebpf4jnsgd1na2vs0mg"},{"bike_id":"80c5d116-3978-4fe6-acb0-534e96e2f1d8","system_id":"levelo_inurba_marseille","lat":43.30452,"lon":5.39745,"is_reserved":false,"is_disabled":false,"rental_uris":{"android":"levelo://app?vid=80c5d116-3978-4fe6-acb0-534e96e2f1d8","ios":"levelo://app?vid=80c5d116-3978-4fe6-acb0-534e96e2f1d8"},"vehicle_type_id":"4","last_reported":1742846981,"current_range_meters":8000,"station_id":"ce4bh092rcd13ifvqd20","pricing_plan_id":"cebpf4jnsgd1na2vs0mg"},{"bike_id":"7e392b4b-f521-41ae-841e-fe8a3cccc001","system_id":"levelo_inurba_marseille","lat":43.3081,"lon":5.43545,"is_reserved":false,"is_disabled":false,"rental_uris":{"android":"levelo://app?vid=7e392b4b-f521-41ae-841e-fe8a3cccc001","ios":"levelo://app?vid=7e392b4b-f521-41ae-841e-fe8a3cccc001"},"vehicle_type_id":"4","last_reported":1742846981,"current_range_meters":8000,"station_id":"ce4bhph2rcd13ifvqheg","pricing_plan_id":"cebpf4jnsgd1na2vs0mg"},{"bike_id":"63329a01-752b-4508-9d4f-454e5a3f92cf","system_id":"levelo_inurba_marseille","lat":43.25718,"lon":5.41113,"is_reserved":false,"is_disabled":false,"rental_uris":{"android":"levelo://app?vid=63329a01-752b-4508-9d4f-454e5a3f92cf","ios":"levelo://app?vid=63329a01-752b-4508-9d4f-454e5a3f92cf"},"vehicle_type_id":"4","last_reported":1742846981,"current_range_meters":7200,"station_id":"ce4bhkp2rcd13ifvqgd0","pricing_plan_id":"cebpf4jnsgd1na2vs0mg"},{"bike_id":"89e21462-a2eb-4a1f-9ac2-dd12c0078c73","system_id":"levelo_inurba_marseille","lat":43.3265,"lon":5.40997,"is_reserved":false,"is_disabled":false,"rental_uris":{"android":"levelo://app?vid=89e21462-a2eb-4a1f-9ac2-dd12c0078c73","ios":"levelo://app?vid=89e21462-a2eb-4a1f-9ac2-dd12c0078c73"},"vehicle_type_id":"4","last_reported":1742846981,"current_range_meters":8400,"station_id":"","pricing_plan_id":"cebpf4jnsgd1na2vs0mg"},{"bike_id":"3d50d2d4-f98c-466f-af60-d375a9debb10","system_id":"levelo_inurba_marseille","lat":43.32289,"lon":5.38286,"is_reserved":false,"is_disabled":false,"rental_uris":{"android":"levelo://app?vid=3d50d2d4-f98c-466f-af60-d375a9debb10","ios":"levelo://app?vid=3d50d2d4-f98c-466f-af60-d375a9debb10"},"vehicle_type_id":"4","last_reported":1742846981,"current_range_meters":8400,"station_id":"ce4bhr12rcd13ifvqhqg","pricing_plan_id":"cebpf4jnsgd1na2vs0mg"},{"bike_id":"df3de3cf-5b5a-47d5-a456-92e8b89591ba","system_id":"levelo_inurba_marseille","lat":43.30826,"lon":5.38134,"is_reserved":false,"is_disabled":false,"rental_uris":{"android":"levelo://app?vid=df3de3cf-5b5a-47d5-a456-92e8b89591ba","ios":"levelo://app?vid=df3de3cf-5b5a-47d5-a456-92e8b89591ba"},"vehicle_type_id":"4","last_reported":1742846981,"current_range_meters":8400,"station_id":"ce4bgt12rcd13ifvqce0","pricing_plan_id":"cebpf4jnsgd1na2vs0mg"},{"bike_id":"28425652-f974-4df1-848c-ba1a476f3a90","system_id":"levelo_inurba_marseille","lat":43.26557,"lon":5.39033,"is_reserved":false,"is_disabled":false,"rental_uris":{"android":"levelo://app?vid=28425652-f974-4df1-848c-ba1a476f3a90","ios":"levelo://app?vid=28425652-f974-4df1-848c-ba1a476f3a90"},"vehicle_type_id":"4","last_reported":1742846981,"current_range_meters":8400,"station_id":"ce4bhe12rcd13ifvqf30","pricing_plan_id":"cebpf4jnsgd1na2vs0mg"},{"bike_id":"d942f3e8-444a-4f08-8153-7c5e4dca0232","system_id":"levelo_inurba_marseille","lat":43.31706,"lon":5.43732,"is_reserved":false,"is_disabled":false,"rental_uris":{"android":"levelo://app?vid=d942f3e8-444a-4f08-8153-7c5e4dca0232","ios":"levelo://app?vid=d942f3e8-444a-4f08-8153-7c5e4dca0232"},"vehicle_type_id":"4","last_reported":1742846981,"current_range_meters":8400,"station_id":"ce4bhp92rcd13ifvqhcg","pricing_plan_id":"cebpf4jnsgd1na2vs0mg"},{"bike_id":"687ec228-ae03-4846-ad75-241de3990673","system_id":"levelo_inurba_marseille","lat":43.28152,"lon":5.42655,"is_reserved":false,"is_disabled":false,"rental_uris":{"android":"levelo://app?vid=687ec228-ae03-4846-ad75-241de3990673","ios":"levelo://app?vid=687ec228-ae03-4846-ad75-241de3990673"},"vehicle_type_id":"4","last_reported":1742846981,"current_range_meters":8000,"station_id":"ce4bhnh2rcd13ifvqgug","pricing_plan_id":"cebpf4jnsgd1na2vs0mg"},{"bike_id":"86a44a05-0a83-4313-982b-6cc18fac25e6","system_id":"levelo_inurba_marseille","lat":43.30646,"lon":5.40068,"is_reserved":false,"is_disabled":false,"rental_uris":{"android":"levelo://app?vid=86a44a05-0a83-4313-982b-6cc18fac25e6","ios":"levelo://app?vid=86a44a05-0a83-4313-982b-6cc18fac25e6"},"vehicle_type_id":"4","last_reported":1742846981,"current_range_meters":8800,"station_id":"ce4bh112rcd13ifvqda0","pricing_plan_id":"cebpf4jnsgd1na2vs0mg"},{"bike_id":"19c4d38c-721f-4a6d-8de0-ad162aee3dc3","system_id":"levelo_inurba_marseille","lat":43.29868,"lon":5.38902,"is_reserved":false,"is_disabled":true,"rental_uris":{"android":"levelo://app?vid=19c4d38c-721f-4a6d-8de0-ad162aee3dc3","ios":"levelo://app?vid=19c4d38c-721f-4a6d-8de0-ad162aee3dc3"},"vehicle_type_id":"4","last_reported":1742846981,"current_range_meters":8800,"station_id":"ce4bh392rcd13ifvqdl0","pricing_plan_id":"cebpf4jnsgd1na2vs0mg"},{"bike_id":"c01f4c10-17c1-42a3-8b0c-d1362dfcf7dc","system_id":"levelo_inurba_marseille","lat":43.28722,"lon":5.36087,"is_reserved":false,"is_disabled":false,"rental_uris":{"android":"levelo://app?vid=c01f4c10-17c1-42a3-8b0c-d1362dfcf7dc","ios":"levelo://app?vid=c01f4c10-17c1-42a3-8b0c-d1362dfcf7dc"},"vehicle_type_id":"4","last_reported":1742846981,"current_range_meters":8800,"station_id":"cki0cbj6b192h4jlfktg","pricing_plan_id":"cebpf4jnsgd1na2vs0mg"},{"bike_id":"2cf59170-5d3c-448c-b344-80b2db7870de","system_id":"levelo_inurba_marseille","lat":43.31226,"lon":5.36912,"is_reserved":false,"is_disabled":false,"rental_uris":{"android":"levelo://app?vid=2cf59170-5d3c-448c-b344-80b2db7870de","ios":"levelo://app?vid=2cf59170-5d3c-448c-b344-80b2db7870de"},"vehicle_type_id":"4","last_reported":1742846981,"current_range_meters":8800,"station_id":"ce4bgl92rcd13ifvqbq0","pricing_plan_id":"cebpf4jnsgd1na2vs0mg"},{"bike_id":"ae7aa3dd-7755-481c-9fe1-ef1d518137c2","system_id":"levelo_inurba_marseille","lat":43.28074,"lon":5.3965,"is_reserved":false,"is_disabled":false,"rental_uris":{"android":"levelo://app?vid=ae7aa3dd-7755-481c-9fe1-ef1d518137c2","ios":"levelo://app?vid=ae7aa3dd-7755-481c-9fe1-ef1d518137c2"},"vehicle_type_id":"4","last_reported":1742846981,"current_range_meters":8800,"station_id":"ce4bho12rcd13ifvqh2g","pricing_plan_id":"cebpf4jnsgd1na2vs0mg"},{"bike_id":"d9242ed6-515d-4a5e-bdea-86c5ab3f2c00","system_id":"levelo_inurba_marseille","lat":43.29275,"lon":5.368421,"is_reserved":false,"is_disabled":false,"rental_uris":{"android":"levelo://app?vid=d9242ed6-515d-4a5e-bdea-86c5ab3f2c00","ios":"levelo://app?vid=d9242ed6-515d-4a5e-bdea-86c5ab3f2c00"},"vehicle_type_id":"4","last_reported":1742846981,"current_range_meters":8800,"station_id":"ce4bhbp2rcd13ifvqesg","pricing_plan_id":"cebpf4jnsgd1na2vs0mg"},{"bike_id":"ab109a35-cb7d-438b-8db8-1c92b3f80847","system_id":"levelo_inurba_marseille","lat":43.31998,"lon":5.38118,"is_reserved":false,"is_disabled":false,"rental_uris":{"android":"levelo://app?vid=ab109a35-cb7d-438b-8db8-1c92b3f80847","ios":"levelo://app?vid=ab109a35-cb7d-438b-8db8-1c92b3f80847"},"vehicle_type_id":"4","last_reported":1742846981,"current_range_meters":8800,"station_id":"ce4bhr12rcd13ifvqhpg","pricing_plan_id":"cebpf4jnsgd1na2vs0mg"},{"bike_id":"2462aff4-312c-46a9-ae18-d864ef42c20c","system_id":"levelo_inurba_marseille","lat":43.24182,"lon":5.36405,"is_reserved":false,"is_disabled":false,"rental_uris":{"android":"levelo://app?vid=2462aff4-312c-46a9-ae18-d864ef42c20c","ios":"levelo://app?vid=2462aff4-312c-46a9-ae18-d864ef42c20c"},"vehicle_type_id":"4","last_reported":1742846981,"current_range_meters":9200,"station_id":"cpo36qri1sfpv3e86is0","pricing_plan_id":"cebpf4jnsgd1na2vs0mg"},{"bike_id":"dea78827-5819-4db6-a5a5-096277d8ed0c","system_id":"levelo_inurba_marseille","lat":43.27805,"lon":5.40718,"is_reserved":false,"is_disabled":false,"rental_uris":{"android":"levelo://app?vid=dea78827-5819-4db6-a5a5-096277d8ed0c","ios":"levelo://app?vid=dea78827-5819-4db6-a5a5-096277d8ed0c"},"vehicle_type_id":"4","last_reported":1742846981,"current_range_meters":9200,"station_id":"ce4bhnh2rcd13ifvqgtg","pricing_plan_id":"cebpf4jnsgd1na2vs0mg"},{"bike_id":"1b8779ee-15bd-411f-8230-66fb3b9d06b8","system_id":"levelo_inurba_marseille","lat":43.2991,"lon":5.43654,"is_reserved":false,"is_disabled":false,"rental_uris":{"android":"levelo://app?vid=1b8779ee-15bd-411f-8230-66fb3b9d06b8","ios":"levelo://app?vid=1b8779ee-15bd-411f-8230-66fb3b9d06b8"},"vehicle_type_id":"4","last_reported":1742846981,"current_range_meters":9200,"station_id":"","pricing_plan_id":"cebpf4jnsgd1na2vs0mg"},{"bike_id":"24ff73f4-4084-4e4f-a8ca-c49fb86c0c01","system_id":"levelo_inurba_marseille","lat":43.2988,"lon":5.39746,"is_reserved":false,"is_disabled":false,"rental_uris":{"android":"levelo://app?vid=24ff73f4-4084-4e4f-a8ca-c49fb86c0c01","ios":"levelo://app?vid=24ff73f4-4084-4e4f-a8ca-c49fb86c0c01"},"vehicle_type_id":"4","last_reported":1742846981,"current_range_meters":9200,"station_id":"ce4bh0h2rcd13ifvqd50","pricing_plan_id":"cebpf4jnsgd1na2vs0mg"},{"bike_id":"0645919f-9dda-4ed0-b513-9ca60289b446","system_id":"levelo_inurba_marseille","lat":43.30538,"lon":5.3654,"is_reserved":false,"is_disabled":false,"rental_uris":{"android":"levelo://app?vid=0645919f-9dda-4ed0-b513-9ca60289b446","ios":"levelo://app?vid=0645919f-9dda-4ed0-b513-9ca60289b446"},"vehicle_type_id":"4","last_reported":1742846981,"current_range_meters":9200,"station_id":"","pricing_plan_id":"cebpf4jnsgd1na2vs0mg"},{"bike_id":"42a0b69b-f29a-4ea2-80ed-6573bad37aeb","system_id":"levelo_inurba_marseille","lat":43.24624,"lon":5.3947,"is_reserved":false,"is_disabled":false,"rental_uris":{"android":"levelo://app?vid=42a0b69b-f29a-4ea2-80ed-6573bad37aeb","ios":"levelo://app?vid=42a0b69b-f29a-4ea2-80ed-6573bad37aeb"},"vehicle_type_id":"4","last_reported":1742846981,"current_range_meters":9200,"station_id":"","pricing_plan_id":"cebpf4jnsgd1na2vs0mg"},{"bike_id":"838305e4-94fd-4229-951b-8883b9396468","system_id":"levelo_inurba_marseille","lat":43.29794,"lon":5.39339,"is_reserved":false,"is_disabled":false,"rental_uris":{"android":"levelo://app?vid=838305e4-94fd-4229-951b-8883b9396468","ios":"levelo://app?vid=838305e4-94fd-4229-951b-8883b9396468"},"vehicle_type_id":"4","last_reported":1742846981,"current_range_meters":8800,"station_id":"chh1huq6cuj3fo74tm60","pricing_plan_id":"cebpf4jnsgd1na2vs0mg"},{"bike_id":"cc799e13-4938-4b46-8479-9b3783ed8fb9","system_id":"levelo_inurba_marseille","lat":43.30876,"lon":5.39642,"is_reserved":false,"is_disabled":false,"rental_uris":{"android":"levelo://app?vid=cc799e13-4938-4b46-8479-9b3783ed8fb9","ios":"levelo://app?vid=cc799e13-4938-4b46-8479-9b3783ed8fb9"},"vehicle_type_id":"4","last_reported":1742846981,"current_range_meters":9200,"station_id":"ce4bh012rcd13ifvqcv0","pricing_plan_id":"cebpf4jnsgd1na2vs0mg"},{"bike_id":"c094919f-14ee-4ffc-9259-e33190fa310d","system_id":"levelo_inurba_marseille","lat":43.29965,"lon":5.38486,"is_reserved":false,"is_disabled":false,"rental_uris":{"android":"levelo://app?vid=c094919f-14ee-4ffc-9259-e33190fa310d","ios":"levelo://app?vid=c094919f-14ee-4ffc-9259-e33190fa310d"},"vehicle_type_id":"4","last_reported":1742846981,"current_range_meters":9200,"station_id":"","pricing_plan_id":"cebpf4jnsgd1na2vs0mg"},{"bike_id":"97737839-0f51-4ecc-9c5a-823210b37893","system_id":"levelo_inurba_marseille","lat":43.28463,"lon":5.35883,"is_reserved":false,"is_disabled":false,"rental_uris":{"android":"levelo://app?vid=97737839-0f51-4ecc-9c5a-823210b37893","ios":"levelo://app?vid=97737839-0f51-4ecc-9c5a-823210b37893"},"vehicle_type_id":"4","last_reported":1742846981,"current_range_meters":9200,"station_id":"ce4bhah2rcd13ifvqei0","pricing_plan_id":"cebpf4jnsgd1na2vs0mg"},{"bike_id":"75927f7b-b7af-425d-be41-2c9e710eb30a","system_id":"levelo_inurba_marseille","lat":43.3233,"lon":5.40614,"is_reserved":false,"is_disabled":false,"rental_uris":{"android":"levelo://app?vid=75927f7b-b7af-425d-be41-2c9e710eb30a","ios":"levelo://app?vid=75927f7b-b7af-425d-be41-2c9e710eb30a"},"vehicle_type_id":"4","last_reported":1742846981,"current_range_meters":9200,"station_id":"ce4bhq92rcd13ifvqhjg","pricing_plan_id":"cebpf4jnsgd1na2vs0mg"},{"bike_id":"e17640c5-ba19-44b8-bb14-b93f2f688a5c","system_id":"levelo_inurba_marseille","lat":43.29415,"lon":5.38611,"is_reserved":false,"is_disabled":false,"rental_uris":{"android":"levelo://app?vid=e17640c5-ba19-44b8-bb14-b93f2f688a5c","ios":"levelo://app?vid=e17640c5-ba19-44b8-bb14-b93f2f688a5c"},"vehicle_type_id":"4","last_reported":1742846981,"current_range_meters":9600,"station_id":"ce4bh2h2rcd13ifvqdh0","pricing_plan_id":"cebpf4jnsgd1na2vs0mg"},{"bike_id":"e94bcbda-c791-47fe-8fab-a77251ed163d","system_id":"levelo_inurba_marseille","lat":43.25003,"lon":5.38921,"is_reserved":false,"is_disabled":false,"rental_uris":{"android":"levelo://app?vid=e94bcbda-c791-47fe-8fab-a77251ed163d","ios":"levelo://app?vid=e94bcbda-c791-47fe-8fab-a77251ed163d"},"vehicle_type_id":"4","last_reported":1742846981,"current_range_meters":9200,"station_id":"ce4bhgp2rcd13ifvqfd0","pricing_plan_id":"cebpf4jnsgd1na2vs0mg"},{"bike_id":"5580e4ac-8b29-419a-a3fc-7be41513ee11","system_id":"levelo_inurba_marseille","lat":43.30799,"lon":5.38152,"is_reserved":false,"is_disabled":false,"rental_uris":{"android":"levelo://app?vid=5580e4ac-8b29-419a-a3fc-7be41513ee11","ios":"levelo://app?vid=5580e4ac-8b29-419a-a3fc-7be41513ee11"},"vehicle_type_id":"4","last_reported":1742846981,"current_range_meters":9600,"station_id":"ce4bgt12rcd13ifvqce0","pricing_plan_id":"cebpf4jnsgd1na2vs0mg"},{"bike_id":"84aa0107-6c88-4a95-a434-a427ce63281b","system_id":"levelo_inurba_marseille","lat":43.29297,"lon":5.37463,"is_reserved":false,"is_disabled":false,"rental_uris":{"android":"levelo://app?vid=84aa0107-6c88-4a95-a434-a427ce63281b","ios":"levelo://app?vid=84aa0107-6c88-4a95-a434-a427ce63281b"},"vehicle_type_id":"4","last_reported":1742846981,"current_range_meters":9600,"station_id":"ce4bgi12rcd13ifvqb70","pricing_plan_id":"cebpf4jnsgd1na2vs0mg"},{"bike_id":"d543f821-732f-4852-9f80-b8add75fc982","system_id":"levelo_inurba_marseille","lat":43.29967,"lon":5.38493,"is_reserved":false,"is_disabled":false,"rental_uris":{"android":"levelo://app?vid=d543f821-732f-4852-9f80-b8add75fc982","ios":"levelo://app?vid=d543f821-732f-4852-9f80-b8add75fc982"},"vehicle_type_id":"4","last_reported":1742846981,"current_range_meters":9600,"station_id":"ce4bgj92rcd13ifvqbd0","pricing_plan_id":"cebpf4jnsgd1na2vs0mg"},{"bike_id":"2ff570d2-4d8e-48ed-9e8e-8a83ca9149b2","system_id":"levelo_inurba_marseille","lat":43.27082,"lon":5.42271,"is_reserved":false,"is_disabled":true,"rental_uris":{"android":"levelo://app?vid=2ff570d2-4d8e-48ed-9e8e-8a83ca9149b2","ios":"levelo://app?vid=2ff570d2-4d8e-48ed-9e8e-8a83ca9149b2"},"vehicle_type_id":"4","last_reported":1742846981,"current_range_meters":9600,"station_id":"ce4bhk92rcd13ifvqgb0","pricing_plan_id":"cebpf4jnsgd1na2vs0mg"},{"bike_id":"769841ed-7c63-4a0c-979f-cbf914ebac04","system_id":"levelo_inurba_marseille","lat":43.27834,"lon":5.39213,"is_reserved":false,"is_disabled":false,"rental_uris":{"android":"levelo://app?vid=769841ed-7c63-4a0c-979f-cbf914ebac04","ios":"levelo://app?vid=769841ed-7c63-4a0c-979f-cbf914ebac04"},"vehicle_type_id":"4","last_reported":1742846981,"current_range_meters":9600,"station_id":"ce4bhjp2rcd13ifvqga0","pricing_plan_id":"cebpf4jnsgd1na2vs0mg"},{"bike_id":"16a20090-4290-4041-8a23-3f924e32764f","system_id":"levelo_inurba_marseille","lat":43.30886,"lon":5.39637,"is_reserved":false,"is_disabled":false,"rental_uris":{"android":"levelo://app?vid=16a20090-4290-4041-8a23-3f924e32764f","ios":"levelo://app?vid=16a20090-4290-4041-8a23-3f924e32764f"},"vehicle_type_id":"4","last_reported":1742846981,"current_range_meters":9600,"station_id":"ce4bh012rcd13ifvqcv0","pricing_plan_id":"cebpf4jnsgd1na2vs0mg"},{"bike_id":"0dfb0d89-73f2-49b8-91e9-15d856e46939","system_id":"levelo_inurba_marseille","lat":43.24201,"lon":5.39763,"is_reserved":false,"is_disabled":false,"rental_uris":{"android":"levelo://app?vid=0dfb0d89-73f2-49b8-91e9-15d856e46939","ios":"levelo://app?vid=0dfb0d89-73f2-49b8-91e9-15d856e46939"},"vehicle_type_id":"4","last_reported":1742846981,"current_range_meters":9600,"station_id":"ce4bhn12rcd13ifvqgpg","pricing_plan_id":"cebpf4jnsgd1na2vs0mg"},{"bike_id":"b8bf4440-1171-40eb-8cc6-19786d84687b","system_id":"levelo_inurba_marseille","lat":43.28722,"lon":5.3609,"is_reserved":false,"is_disabled":false,"rental_uris":{"android":"levelo://app?vid=b8bf4440-1171-40eb-8cc6-19786d84687b","ios":"levelo://app?vid=b8bf4440-1171-40eb-8cc6-19786d84687b"},"vehicle_type_id":"4","last_reported":1742846981,"current_range_meters":9600,"station_id":"cki0cbj6b192h4jlfktg","pricing_plan_id":"cebpf4jnsgd1na2vs0mg"},{"bike_id":"d6b9068b-bec0-4f76-9c03-273151aa3d54","system_id":"levelo_inurba_marseille","lat":43.26542,"lon":5.37315,"is_reserved":false,"is_disabled":false,"rental_uris":{"android":"levelo://app?vid=d6b9068b-bec0-4f76-9c03-273151aa3d54","ios":"levelo://app?vid=d6b9068b-bec0-4f76-9c03-273151aa3d54"},"vehicle_type_id":"4","last_reported":1742846981,"current_range_meters":9600,"station_id":"","pricing_plan_id":"cebpf4jnsgd1na2vs0mg"},{"bike_id":"42331001-9f56-4e3c-a1d0-e9556a3c571c","system_id":"levelo_inurba_marseille","lat":43.30782,"lon":5.3814,"is_reserved":false,"is_disabled":false,"rental_uris":{"android":"levelo://app?vid=42331001-9f56-4e3c-a1d0-e9556a3c571c","ios":"levelo://app?vid=42331001-9f56-4e3c-a1d0-e9556a3c571c"},"vehicle_type_id":"4","last_reported":1742846981,"current_range_meters":9600,"station_id":"ce4bgt12rcd13ifvqce0","pricing_plan_id":"cebpf4jnsgd1na2vs0mg"},{"bike_id":"1bf06481-d9a0-4112-85ce-090f0c187592","system_id":"levelo_inurba_marseille","lat":43.30791,"lon":5.4353,"is_reserved":false,"is_disabled":false,"rental_uris":{"android":"levelo://app?vid=1bf06481-d9a0-4112-85ce-090f0c187592","ios":"levelo://app?vid=1bf06481-d9a0-4112-85ce-090f0c187592"},"vehicle_type_id":"4","last_reported":1742846981,"current_range_meters":10000,"station_id":"ce4bhph2rcd13ifvqheg","pricing_plan_id":"cebpf4jnsgd1na2vs0mg"},{"bike_id":"ebf86de8-a3f7-4563-b9cd-62f5316ef4ec","system_id":"levelo_inurba_marseille","lat":43.30915,"lon":5.40168,"is_reserved":false,"is_disabled":true,"rental_uris":{"android":"levelo://app?vid=ebf86de8-a3f7-4563-b9cd-62f5316ef4ec","ios":"levelo://app?vid=ebf86de8-a3f7-4563-b9cd-62f5316ef4ec"},"vehicle_type_id":"4","last_reported":1742846981,"current_range_meters":10000,"station_id":"ce4bgvp2rcd13ifvqct0","pricing_plan_id":"cebpf4jnsgd1na2vs0mg"},{"bike_id":"78f4fff1-6036-42ea-98f4-257baf5ff20b","system_id":"levelo_inurba_marseille","lat":43.31165,"lon":5.38716,"is_reserved":false,"is_disabled":false,"rental_uris":{"android":"levelo://app?vid=78f4fff1-6036-42ea-98f4-257baf5ff20b","ios":"levelo://app?vid=78f4fff1-6036-42ea-98f4-257baf5ff20b"},"vehicle_type_id":"4","last_reported":1742846981,"current_range_meters":10000,"station_id":"ce4bgv12rcd13ifvqcp0","pricing_plan_id":"cebpf4jnsgd1na2vs0mg"},{"bike_id":"f3299185-b777-4ae3-81f0-3fcc8afac1d5","system_id":"levelo_inurba_marseille","lat":43.27808,"lon":5.40709,"is_reserved":false,"is_disabled":false,"rental_uris":{"android":"levelo://app?vid=f3299185-b777-4ae3-81f0-3fcc8afac1d5","ios":"levelo://app?vid=f3299185-b777-4ae3-81f0-3fcc8afac1d5"},"vehicle_type_id":"4","last_reported":1742846981,"current_range_meters":10000,"station_id":"ce4bhnh2rcd13ifvqgtg","pricing_plan_id":"cebpf4jnsgd1na2vs0mg"},{"bike_id":"38e0f955-2686-4e43-b82b-9f7bda364270","system_id":"levelo_inurba_marseille","lat":43.28848,"lon":5.3585,"is_reserved":false,"is_disabled":false,"rental_uris":{"android":"levelo://app?vid=38e0f955-2686-4e43-b82b-9f7bda364270","ios":"levelo://app?vid=38e0f955-2686-4e43-b82b-9f7bda364270"},"vehicle_type_id":"4","last_reported":1742846981,"current_range_meters":10000,"station_id":"ce4bhb12rcd13ifvqem0","pricing_plan_id":"cebpf4jnsgd1na2vs0mg"},{"bike_id":"0c362fcf-65ba-4e5a-83a7-0b90070d3fa1","system_id":"levelo_inurba_marseille","lat":43.30326,"lon":5.36897,"is_reserved":false,"is_disabled":false,"rental_uris":{"android":"levelo://app?vid=0c362fcf-65ba-4e5a-83a7-0b90070d3fa1","ios":"levelo://app?vid=0c362fcf-65ba-4e5a-83a7-0b90070d3fa1"},"vehicle_type_id":"4","last_reported":1742846981,"current_range_meters":10000,"station_id":"ce4bgqh2rcd13ifvqc5g","pricing_plan_id":"cebpf4jnsgd1na2vs0mg"},{"bike_id":"a0a460eb-34d7-43d6-85ef-87b30455cbf0","system_id":"levelo_inurba_marseille","lat":43.23953,"lon":5.36651,"is_reserved":false,"is_disabled":false,"rental_uris":{"android":"levelo://app?vid=a0a460eb-34d7-43d6-85ef-87b30455cbf0","ios":"levelo://app?vid=a0a460eb-34d7-43d6-85ef-87b30455cbf0"},"vehicle_type_id":"4","last_reported":1742846981,"current_range_meters":10000,"station_id":"ce4bhi12rcd13ifvqfp0","pricing_plan_id":"cebpf4jnsgd1na2vs0mg"},{"bike_id":"9eef2c13-4412-429d-a6b0-e32bea5d5b99","system_id":"levelo_inurba_marseille","lat":43.324812,"lon":5.365685,"is_reserved":false,"is_disabled":false,"rental_uris":{"android":"levelo://app?vid=9eef2c13-4412-429d-a6b0-e32bea5d5b99","ios":"levelo://app?vid=9eef2c13-4412-429d-a6b0-e32bea5d5b99"},"vehicle_type_id":"4","last_reported":1742846981,"current_range_meters":10000,"station_id":"ce4bhs12rcd13ifvqhvg","pricing_plan_id":"cebpf4jnsgd1na2vs0mg"},{"bike_id":"ec228988-da6e-4e96-b53c-97c54f6fe394","system_id":"levelo_inurba_marseille","lat":43.302567,"lon":5.400533,"is_reserved":false,"is_disabled":false,"rental_uris":{"android":"levelo://app?vid=ec228988-da6e-4e96-b53c-97c54f6fe394","ios":"levelo://app?vid=ec228988-da6e-4e96-b53c-97c54f6fe394"},"vehicle_type_id":"4","last_reported":1742846981,"current_range_meters":9600,"station_id":"ce4bgvh2rcd13ifvqcs0","pricing_plan_id":"cebpf4jnsgd1na2vs0mg"},{"bike_id":"e1b0e5a5-4d2c-439f-a035-eadd5217d570","system_id":"levelo_inurba_marseille","lat":43.31207,"lon":5.36843,"is_reserved":false,"is_disabled":true,"rental_uris":{"android":"levelo://app?vid=e1b0e5a5-4d2c-439f-a035-eadd5217d570","ios":"levelo://app?vid=e1b0e5a5-4d2c-439f-a035-eadd5217d570"},"vehicle_type_id":"4","last_reported":1742846981,"current_range_meters":10000,"station_id":"ce4bgl92rcd13ifvqbq0","pricing_plan_id":"cebpf4jnsgd1na2vs0mg"},{"bike_id":"f6664b38-6fa8-45c8-8288-02210945ff5c","system_id":"levelo_inurba_marseille","lat":43.27813,"lon":5.40703,"is_reserved":false,"is_disabled":false,"rental_uris":{"android":"levelo://app?vid=f6664b38-6fa8-45c8-8288-02210945ff5c","ios":"levelo://app?vid=f6664b38-6fa8-45c8-8288-02210945ff5c"},"vehicle_type_id":"4","last_reported":1742846981,"current_range_meters":10000,"station_id":"ce4bhnh2rcd13ifvqgtg","pricing_plan_id":"cebpf4jnsgd1na2vs0mg"},{"bike_id":"f64a5f06-bff4-4284-a64d-ce271f664dc4","system_id":"levelo_inurba_marseille","lat":43.26186,"lon":5.40547,"is_reserved":false,"is_disabled":false,"rental_uris":{"android":"levelo://app?vid=f64a5f06-bff4-4284-a64d-ce271f664dc4","ios":"levelo://app?vid=f64a5f06-bff4-4284-a64d-ce271f664dc4"},"vehicle_type_id":"4","last_reported":1742846981,"current_range_meters":10000,"station_id":"","pricing_plan_id":"cebpf4jnsgd1na2vs0mg"},{"bike_id":"a0d4632a-7a87-4031-aeeb-061ca0feaca6","system_id":"levelo_inurba_marseille","lat":43.23955,"lon":5.36649,"is_reserved":false,"is_disabled":false,"rental_uris":{"android":"levelo://app?vid=a0d4632a-7a87-4031-aeeb-061ca0feaca6","ios":"levelo://app?vid=a0d4632a-7a87-4031-aeeb-061ca0feaca6"},"vehicle_type_id":"4","last_reported":1742846981,"current_range_meters":10800,"station_id":"ce4bhi12rcd13ifvqfp0","pricing_plan_id":"cebpf4jnsgd1na2vs0mg"},{"bike_id":"e006227a-8f5d-4e37-9f83-613dc47ffbd0","system_id":"levelo_inurba_marseille","lat":43.27815,"lon":5.40703,"is_reserved":false,"is_disabled":false,"rental_uris":{"android":"levelo://app?vid=e006227a-8f5d-4e37-9f83-613dc47ffbd0","ios":"levelo://app?vid=e006227a-8f5d-4e37-9f83-613dc47ffbd0"},"vehicle_type_id":"4","last_reported":1742846981,"current_range_meters":10800,"station_id":"ce4bhnh2rcd13ifvqgtg","pricing_plan_id":"cebpf4jnsgd1na2vs0mg"},{"bike_id":"26fa24fb-ac6c-440b-833a-f02e8547dc9a","system_id":"levelo_inurba_marseille","lat":43.30896,"lon":5.36819,"is_reserved":false,"is_disabled":false,"rental_uris":{"android":"levelo://app?vid=26fa24fb-ac6c-440b-833a-f02e8547dc9a","ios":"levelo://app?vid=26fa24fb-ac6c-440b-833a-f02e8547dc9a"},"vehicle_type_id":"4","last_reported":1742846981,"current_range_meters":10800,"station_id":"","pricing_plan_id":"cebpf4jnsgd1na2vs0mg"},{"bike_id":"8bc5683c-17b8-4b1f-b14d-e339237cc09d","system_id":"levelo_inurba_marseille","lat":43.28459,"lon":5.35879,"is_reserved":false,"is_disabled":false,"rental_uris":{"android":"levelo://app?vid=8bc5683c-17b8-4b1f-b14d-e339237cc09d","ios":"levelo://app?vid=8bc5683c-17b8-4b1f-b14d-e339237cc09d"},"vehicle_type_id":"4","last_reported":1742846981,"current_range_meters":10800,"station_id":"ce4bhah2rcd13ifvqei0","pricing_plan_id":"cebpf4jnsgd1na2vs0mg"},{"bike_id":"fb5f17ec-3d5f-4950-84cd-b514d24bc978","system_id":"levelo_inurba_marseille","lat":43.24806,"lon":5.37457,"is_reserved":false,"is_disabled":false,"rental_uris":{"android":"levelo://app?vid=fb5f17ec-3d5f-4950-84cd-b514d24bc978","ios":"levelo://app?vid=fb5f17ec-3d5f-4950-84cd-b514d24bc978"},"vehicle_type_id":"4","last_reported":1742846981,"current_range_meters":10000,"station_id":"ce4bhgh2rcd13ifvqfb0","pricing_plan_id":"cebpf4jnsgd1na2vs0mg"},{"bike_id":"c9c19aa6-3fe4-401b-ab2c-9612f3df5e72","system_id":"levelo_inurba_marseille","lat":43.30947,"lon":5.39008,"is_reserved":false,"is_disabled":true,"rental_uris":{"android":"levelo://app?vid=c9c19aa6-3fe4-401b-ab2c-9612f3df5e72","ios":"levelo://app?vid=c9c19aa6-3fe4-401b-ab2c-9612f3df5e72"},"vehicle_type_id":"4","last_reported":1742846981,"current_range_meters":10800,"station_id":"ce4bgup2rcd13ifvqco0","pricing_plan_id":"cebpf4jnsgd1na2vs0mg"},{"bike_id":"fbfecbb6-5794-4d9a-9176-1810e4b4a7ef","system_id":"levelo_inurba_marseille","lat":43.23071,"lon":5.3549,"is_reserved":false,"is_disabled":false,"rental_uris":{"android":"levelo://app?vid=fbfecbb6-5794-4d9a-9176-1810e4b4a7ef","ios":"levelo://app?vid=fbfecbb6-5794-4d9a-9176-1810e4b4a7ef"},"vehicle_type_id":"4","last_reported":1742846981,"current_range_meters":11200,"station_id":"","pricing_plan_id":"cebpf4jnsgd1na2vs0mg"},{"bike_id":"fa5f4d26-0b44-4b33-a0bf-00f8520cf3da","system_id":"levelo_inurba_marseille","lat":43.27971,"lon":5.38737,"is_reserved":false,"is_disabled":false,"rental_uris":{"android":"levelo://app?vid=fa5f4d26-0b44-4b33-a0bf-00f8520cf3da","ios":"levelo://app?vid=fa5f4d26-0b44-4b33-a0bf-00f8520cf3da"},"vehicle_type_id":"4","last_reported":1742846981,"current_range_meters":10800,"station_id":"ce4bhg12rcd13ifvqf80","pricing_plan_id":"cebpf4jnsgd1na2vs0mg"},{"bike_id":"a0d05f03-0e02-4b04-8fa4-3561235d49f8","system_id":"levelo_inurba_marseille","lat":43.28922,"lon":5.38398,"is_reserved":false,"is_disabled":true,"rental_uris":{"android":"levelo://app?vid=a0d05f03-0e02-4b04-8fa4-3561235d49f8","ios":"levelo://app?vid=a0d05f03-0e02-4b04-8fa4-3561235d49f8"},"vehicle_type_id":"4","last_reported":1742846981,"current_range_meters":11200,"station_id":"ce4bh612rcd13ifvqe6g","pricing_plan_id":"cebpf4jnsgd1na2vs0mg"},{"bike_id":"c988f033-032c-4cd0-bf3d-fe3cb41f8015","system_id":"levelo_inurba_marseille","lat":43.28719,"lon":5.36097,"is_reserved":false,"is_disabled":false,"rental_uris":{"android":"levelo://app?vid=c988f033-032c-4cd0-bf3d-fe3cb41f8015","ios":"levelo://app?vid=c988f033-032c-4cd0-bf3d-fe3cb41f8015"},"vehicle_type_id":"4","last_reported":1742846981,"current_range_meters":11200,"station_id":"cki0cbj6b192h4jlfktg","pricing_plan_id":"cebpf4jnsgd1na2vs0mg"},{"bike_id":"42e12277-2404-40c1-a358-f3ca2810181d","system_id":"levelo_inurba_marseille","lat":43.2985,"lon":5.36314,"is_reserved":false,"is_disabled":false,"rental_uris":{"android":"levelo://app?vid=42e12277-2404-40c1-a358-f3ca2810181d","ios":"levelo://app?vid=42e12277-2404-40c1-a358-f3ca2810181d"},"vehicle_type_id":"4","last_reported":1742846981,"current_range_meters":11200,"station_id":"ce4bgpp2rcd13ifvqc3g","pricing_plan_id":"cebpf4jnsgd1na2vs0mg"},{"bike_id":"938c0f4e-65bf-479a-ba6e-fe7a68ff9b08","system_id":"levelo_inurba_marseille","lat":43.26506,"lon":5.37316,"is_reserved":false,"is_disabled":false,"rental_uris":{"android":"levelo://app?vid=938c0f4e-65bf-479a-ba6e-fe7a68ff9b08","ios":"levelo://app?vid=938c0f4e-65bf-479a-ba6e-fe7a68ff9b08"},"vehicle_type_id":"4","last_reported":1742846981,"current_range_meters":11200,"station_id":"","pricing_plan_id":"cebpf4jnsgd1na2vs0mg"},{"bike_id":"033fd02a-369d-47fa-80d8-6fc1b8da07f1","system_id":"levelo_inurba_marseille","lat":43.30643,"lon":5.40106,"is_reserved":false,"is_disabled":false,"rental_uris":{"android":"levelo://app?vid=033fd02a-369d-47fa-80d8-6fc1b8da07f1","ios":"levelo://app?vid=033fd02a-369d-47fa-80d8-6fc1b8da07f1"},"vehicle_type_id":"4","last_reported":1742846981,"current_range_meters":11600,"station_id":"ce4bh112rcd13ifvqda0","pricing_plan_id":"cebpf4jnsgd1na2vs0mg"},{"bike_id":"8284de5c-d227-47cd-b1ac-1bc2e0170d0f","system_id":"levelo_inurba_marseille","lat":43.278173,"lon":5.407217,"is_reserved":false,"is_disabled":true,"rental_uris":{"android":"levelo://app?vid=8284de5c-d227-47cd-b1ac-1bc2e0170d0f","ios":"levelo://app?vid=8284de5c-d227-47cd-b1ac-1bc2e0170d0f"},"vehicle_type_id":"4","last_reported":1742846981,"current_range_meters":11600,"station_id":"ce4bhnh2rcd13ifvqgtg","pricing_plan_id":"cebpf4jnsgd1na2vs0mg"},{"bike_id":"720f40dd-8812-4841-b7b6-04bf24f36d6b","system_id":"levelo_inurba_marseille","lat":43.26062,"lon":5.39394,"is_reserved":false,"is_disabled":false,"rental_uris":{"android":"levelo://app?vid=720f40dd-8812-4841-b7b6-04bf24f36d6b","ios":"levelo://app?vid=720f40dd-8812-4841-b7b6-04bf24f36d6b"},"vehicle_type_id":"4","last_reported":1742846981,"current_range_meters":11200,"station_id":"ce4bhh92rcd13ifvqfj0","pricing_plan_id":"cebpf4jnsgd1na2vs0mg"},{"bike_id":"07273ad5-0d14-41f9-aa20-8a351943b18a","system_id":"levelo_inurba_marseille","lat":43.28168,"lon":5.4265,"is_reserved":false,"is_disabled":false,"rental_uris":{"android":"levelo://app?vid=07273ad5-0d14-41f9-aa20-8a351943b18a","ios":"levelo://app?vid=07273ad5-0d14-41f9-aa20-8a351943b18a"},"vehicle_type_id":"4","last_reported":1742846981,"current_range_meters":11600,"station_id":"ce4bhnh2rcd13ifvqgug","pricing_plan_id":"cebpf4jnsgd1na2vs0mg"},{"bike_id":"ef43d9bd-e531-4a59-b8a9-fdc80b41fa34","system_id":"levelo_inurba_marseille","lat":43.31273,"lon":5.40166,"is_reserved":false,"is_disabled":true,"rental_uris":{"android":"levelo://app?vid=ef43d9bd-e531-4a59-b8a9-fdc80b41fa34","ios":"levelo://app?vid=ef43d9bd-e531-4a59-b8a9-fdc80b41fa34"},"vehicle_type_id":"4","last_reported":1742846981,"current_range_meters":11600,"station_id":"ce4bh092rcd13ifvqd30","pricing_plan_id":"cebpf4jnsgd1na2vs0mg"},{"bike_id":"b80cef71-9250-491f-bbd3-83ef9ed785b3","system_id":"levelo_inurba_marseille","lat":43.27638,"lon":5.38893,"is_reserved":false,"is_disabled":false,"rental_uris":{"android":"levelo://app?vid=b80cef71-9250-491f-bbd3-83ef9ed785b3","ios":"levelo://app?vid=b80cef71-9250-491f-bbd3-83ef9ed785b3"},"vehicle_type_id":"4","last_reported":1742846981,"current_range_meters":11600,"station_id":"","pricing_plan_id":"cebpf4jnsgd1na2vs0mg"},{"bike_id":"2540ed39-f4a9-45e3-b1db-2fbdb9bbc735","system_id":"levelo_inurba_marseille","lat":43.297096,"lon":5.365914,"is_reserved":false,"is_disabled":false,"rental_uris":{"android":"levelo://app?vid=2540ed39-f4a9-45e3-b1db-2fbdb9bbc735","ios":"levelo://app?vid=2540ed39-f4a9-45e3-b1db-2fbdb9bbc735"},"vehicle_type_id":"4","last_reported":1742846981,"current_range_meters":11200,"station_id":"ce4bgn12rcd13ifvqbt0","pricing_plan_id":"cebpf4jnsgd1na2vs0mg"},{"bike_id":"008c8db6-be2b-43ce-8a53-8af51fd8b577","system_id":"levelo_inurba_marseille","lat":43.24165,"lon":5.39723,"is_reserved":false,"is_disabled":false,"rental_uris":{"android":"levelo://app?vid=008c8db6-be2b-43ce-8a53-8af51fd8b577","ios":"levelo://app?vid=008c8db6-be2b-43ce-8a53-8af51fd8b577"},"vehicle_type_id":"4","last_reported":1742846981,"current_range_meters":11600,"station_id":"ce4bhn12rcd13ifvqgpg","pricing_plan_id":"cebpf4jnsgd1na2vs0mg"},{"bike_id":"a6c20288-f5a1-4928-9f6b-d04bd827a79e","system_id":"levelo_inurba_marseille","lat":43.2456,"lon":5.39533,"is_reserved":false,"is_disabled":false,"rental_uris":{"android":"levelo://app?vid=a6c20288-f5a1-4928-9f6b-d04bd827a79e","ios":"levelo://app?vid=a6c20288-f5a1-4928-9f6b-d04bd827a79e"},"vehicle_type_id":"4","last_reported":1742846981,"current_range_meters":11600,"station_id":"ce4bhlp2rcd13ifvqgjg","pricing_plan_id":"cebpf4jnsgd1na2vs0mg"},{"bike_id":"2a4244eb-a8c7-492c-b00e-5c05064cd3d7","system_id":"levelo_inurba_marseille","lat":43.30655,"lon":5.40069,"is_reserved":false,"is_disabled":false,"rental_uris":{"android":"levelo://app?vid=2a4244eb-a8c7-492c-b00e-5c05064cd3d7","ios":"levelo://app?vid=2a4244eb-a8c7-492c-b00e-5c05064cd3d7"},"vehicle_type_id":"4","last_reported":1742846981,"current_range_meters":12000,"station_id":"ce4bh112rcd13ifvqda0","pricing_plan_id":"cebpf4jnsgd1na2vs0mg"},{"bike_id":"2a99ecb7-4bf0-4c00-89bb-11ff019b8a6d","system_id":"levelo_inurba_marseille","lat":43.22939,"lon":5.35375,"is_reserved":false,"is_disabled":false,"rental_uris":{"android":"levelo://app?vid=2a99ecb7-4bf0-4c00-89bb-11ff019b8a6d","ios":"levelo://app?vid=2a99ecb7-4bf0-4c00-89bb-11ff019b8a6d"},"vehicle_type_id":"4","last_reported":1742846981,"current_range_meters":12000,"station_id":"cpo3532slgdg3j2ikp40","pricing_plan_id":"cebpf4jnsgd1na2vs0mg"},{"bike_id":"37edeb0d-9f2a-4ca7-a5e6-671985783cf6","system_id":"levelo_inurba_marseille","lat":43.28101,"lon":5.37843,"is_reserved":false,"is_disabled":false,"rental_uris":{"android":"levelo://app?vid=37edeb0d-9f2a-4ca7-a5e6-671985783cf6","ios":"levelo://app?vid=37edeb0d-9f2a-4ca7-a5e6-671985783cf6"},"vehicle_type_id":"4","last_reported":1742846981,"current_range_meters":12000,"station_id":"ce4bha12rcd13ifvqee0","pricing_plan_id":"cebpf4jnsgd1na2vs0mg"},{"bike_id":"4fe82e65-425c-453e-9e10-5bbbfdd7a6b8","system_id":"levelo_inurba_marseille","lat":43.24175,"lon":5.39734,"is_reserved":false,"is_disabled":false,"rental_uris":{"android":"levelo://app?vid=4fe82e65-425c-453e-9e10-5bbbfdd7a6b8","ios":"levelo://app?vid=4fe82e65-425c-453e-9e10-5bbbfdd7a6b8"},"vehicle_type_id":"4","last_reported":1742846981,"current_range_meters":12000,"station_id":"ce4bhn12rcd13ifvqgpg","pricing_plan_id":"cebpf4jnsgd1na2vs0mg"},{"bike_id":"a5282f74-4fae-4145-92e0-0b61390c0994","system_id":"levelo_inurba_marseille","lat":43.23961,"lon":5.36639,"is_reserved":false,"is_disabled":false,"rental_uris":{"android":"levelo://app?vid=a5282f74-4fae-4145-92e0-0b61390c0994","ios":"levelo://app?vid=a5282f74-4fae-4145-92e0-0b61390c0994"},"vehicle_type_id":"4","last_reported":1742846981,"current_range_meters":12000,"station_id":"ce4bhi12rcd13ifvqfp0","pricing_plan_id":"cebpf4jnsgd1na2vs0mg"},{"bike_id":"c353c957-fbb8-408a-9097-46c8d6b68074","system_id":"levelo_inurba_marseille","lat":43.24177,"lon":5.39723,"is_reserved":false,"is_disabled":false,"rental_uris":{"android":"levelo://app?vid=c353c957-fbb8-408a-9097-46c8d6b68074","ios":"levelo://app?vid=c353c957-fbb8-408a-9097-46c8d6b68074"},"vehicle_type_id":"4","last_reported":1742846981,"current_range_meters":12000,"station_id":"ce4bhn12rcd13ifvqgpg","pricing_plan_id":"cebpf4jnsgd1na2vs0mg"},{"bike_id":"6bb6f1fc-5b4f-4f3d-97c1-f093e7e9a8ef","system_id":"levelo_inurba_marseille","lat":43.23049,"lon":5.35491,"is_reserved":false,"is_disabled":false,"rental_uris":{"android":"levelo://app?vid=6bb6f1fc-5b4f-4f3d-97c1-f093e7e9a8ef","ios":"levelo://app?vid=6bb6f1fc-5b4f-4f3d-97c1-f093e7e9a8ef"},"vehicle_type_id":"4","last_reported":1742846981,"current_range_meters":12000,"station_id":"cpo3342slgdg3j2ifvpg","pricing_plan_id":"cebpf4jnsgd1na2vs0mg"},{"bike_id":"9a4d2b64-53bf-4f7a-af59-18a071f51650","system_id":"levelo_inurba_marseille","lat":43.30672,"lon":5.40078,"is_reserved":false,"is_disabled":false,"rental_uris":{"android":"levelo://app?vid=9a4d2b64-53bf-4f7a-af59-18a071f51650","ios":"levelo://app?vid=9a4d2b64-53bf-4f7a-af59-18a071f51650"},"vehicle_type_id":"4","last_reported":1742846981,"current_range_meters":12000,"station_id":"ce4bh112rcd13ifvqda0","pricing_plan_id":"cebpf4jnsgd1na2vs0mg"},{"bike_id":"8871fee1-c30f-4721-bb9f-022f22051a94","system_id":"levelo_inurba_marseille","lat":43.24162,"lon":5.39734,"is_reserved":false,"is_disabled":false,"rental_uris":{"android":"levelo://app?vid=8871fee1-c30f-4721-bb9f-022f22051a94","ios":"levelo://app?vid=8871fee1-c30f-4721-bb9f-022f22051a94"},"vehicle_type_id":"4","last_reported":1742846981,"current_range_meters":12400,"station_id":"ce4bhn12rcd13ifvqgpg","pricing_plan_id":"cebpf4jnsgd1na2vs0mg"},{"bike_id":"1887fe37-51a0-4284-bd26-ea9ec274ce5e","system_id":"levelo_inurba_marseille","lat":43.25724,"lon":5.41113,"is_reserved":false,"is_disabled":false,"rental_uris":{"android":"levelo://app?vid=1887fe37-51a0-4284-bd26-ea9ec274ce5e","ios":"levelo://app?vid=1887fe37-51a0-4284-bd26-ea9ec274ce5e"},"vehicle_type_id":"4","last_reported":1742846981,"current_range_meters":12800,"station_id":"ce4bhkp2rcd13ifvqgd0","pricing_plan_id":"cebpf4jnsgd1na2vs0mg"},{"bike_id":"86d4c6cf-08a5-41e6-a161-19b9ea66fbb4","system_id":"levelo_inurba_marseille","lat":43.29972,"lon":5.37187,"is_reserved":false,"is_disabled":false,"rental_uris":{"android":"levelo://app?vid=86d4c6cf-08a5-41e6-a161-19b9ea66fbb4","ios":"levelo://app?vid=86d4c6cf-08a5-41e6-a161-19b9ea66fbb4"},"vehicle_type_id":"4","last_reported":1742846981,"current_range_meters":12400,"station_id":"ce4bgr92rcd13ifvqc7g","pricing_plan_id":"cebpf4jnsgd1na2vs0mg"},{"bike_id":"2c49ac05-b437-4e53-a732-dd335b95df30","system_id":"levelo_inurba_marseille","lat":43.31079,"lon":5.42436,"is_reserved":false,"is_disabled":false,"rental_uris":{"android":"levelo://app?vid=2c49ac05-b437-4e53-a732-dd335b95df30","ios":"levelo://app?vid=2c49ac05-b437-4e53-a732-dd335b95df30"},"vehicle_type_id":"4","last_reported":1742846981,"current_range_meters":12400,"station_id":"","pricing_plan_id":"cebpf4jnsgd1na2vs0mg"},{"bike_id":"ca469c17-d036-4129-a380-c8bfea11af8b","system_id":"levelo_inurba_marseille","lat":43.30902,"lon":5.36846,"is_reserved":false,"is_disabled":false,"rental_uris":{"android":"levelo://app?vid=ca469c17-d036-4129-a380-c8bfea11af8b","ios":"levelo://app?vid=ca469c17-d036-4129-a380-c8bfea11af8b"},"vehicle_type_id":"4","last_reported":1742846981,"current_range_meters":12400,"station_id":"ce4bgn92rcd13ifvqbvg","pricing_plan_id":"cebpf4jnsgd1na2vs0mg"},{"bike_id":"a9ede7df-1743-4e40-808d-2fa0d1817681","system_id":"levelo_inurba_marseille","lat":43.27821,"lon":5.40724,"is_reserved":false,"is_disabled":false,"rental_uris":{"android":"levelo://app?vid=a9ede7df-1743-4e40-808d-2fa0d1817681","ios":"levelo://app?vid=a9ede7df-1743-4e40-808d-2fa0d1817681"},"vehicle_type_id":"4","last_reported":1742846981,"current_range_meters":12400,"station_id":"ce4bhnh2rcd13ifvqgtg","pricing_plan_id":"cebpf4jnsgd1na2vs0mg"},{"bike_id":"fe1816da-da08-4661-8bde-69e34af47cfc","system_id":"levelo_inurba_marseille","lat":43.28458,"lon":5.39191,"is_reserved":false,"is_disabled":false,"rental_uris":{"android":"levelo://app?vid=fe1816da-da08-4661-8bde-69e34af47cfc","ios":"levelo://app?vid=fe1816da-da08-4661-8bde-69e34af47cfc"},"vehicle_type_id":"4","last_reported":1742846981,"current_range_meters":12800,"station_id":"ce4bhoh2rcd13ifvqh5g","pricing_plan_id":"cebpf4jnsgd1na2vs0mg"},{"bike_id":"7da1780c-a707-4e5c-9536-83f171012129","system_id":"levelo_inurba_marseille","lat":43.31072,"lon":5.38356,"is_reserved":false,"is_disabled":false,"rental_uris":{"android":"levelo://app?vid=7da1780c-a707-4e5c-9536-83f171012129","ios":"levelo://app?vid=7da1780c-a707-4e5c-9536-83f171012129"},"vehicle_type_id":"4","last_reported":1742846981,"current_range_meters":12800,"station_id":"ce4bgv92rcd13ifvqcr0","pricing_plan_id":"cebpf4jnsgd1na2vs0mg"},{"bike_id":"e7dec0c3-2a31-48d0-9426-9968e44d4f3c","system_id":"levelo_inurba_marseille","lat":43.30443,"lon":5.38884,"is_reserved":false,"is_disabled":false,"rental_uris":{"android":"levelo://app?vid=e7dec0c3-2a31-48d0-9426-9968e44d4f3c","ios":"levelo://app?vid=e7dec0c3-2a31-48d0-9426-9968e44d4f3c"},"vehicle_type_id":"4","last_reported":1742846981,"current_range_meters":12800,"station_id":"ce4bgk12rcd13ifvqbi0","pricing_plan_id":"cebpf4jnsgd1na2vs0mg"},{"bike_id":"9ef54973-d7d7-4db7-9359-823fb08a91ad","system_id":"levelo_inurba_marseille","lat":43.2396,"lon":5.36633,"is_reserved":false,"is_disabled":false,"rental_uris":{"android":"levelo://app?vid=9ef54973-d7d7-4db7-9359-823fb08a91ad","ios":"levelo://app?vid=9ef54973-d7d7-4db7-9359-823fb08a91ad"},"vehicle_type_id":"4","last_reported":1742846981,"current_range_meters":12800,"station_id":"ce4bhi12rcd13ifvqfp0","pricing_plan_id":"cebpf4jnsgd1na2vs0mg"},{"bike_id":"75bc38e8-f512-40bb-9b8f-451e05cc69cf","system_id":"levelo_inurba_marseille","lat":43.296176,"lon":5.400132,"is_reserved":false,"is_disabled":false,"rental_uris":{"android":"levelo://app?vid=75bc38e8-f512-40bb-9b8f-451e05cc69cf","ios":"levelo://app?vid=75bc38e8-f512-40bb-9b8f-451e05cc69cf"},"vehicle_type_id":"4","last_reported":1742846981,"current_range_meters":12800,"station_id":"ce4bh392rcd13ifvqdm0","pricing_plan_id":"cebpf4jnsgd1na2vs0mg"},{"bike_id":"0a2fd2bd-0465-4490-8bf0-a948a7c174a7","system_id":"levelo_inurba_marseille","lat":43.26559,"lon":5.3901,"is_reserved":false,"is_disabled":true,"rental_uris":{"android":"levelo://app?vid=0a2fd2bd-0465-4490-8bf0-a948a7c174a7","ios":"levelo://app?vid=0a2fd2bd-0465-4490-8bf0-a948a7c174a7"},"vehicle_type_id":"4","last_reported":1742846981,"current_range_meters":12800,"station_id":"ce4bhe12rcd13ifvqf30","pricing_plan_id":"cebpf4jnsgd1na2vs0mg"},{"bike_id":"5dda66b6-b8b3-44b4-a7d3-bbefedfbf646","system_id":"levelo_inurba_marseille","lat":43.28707,"lon":5.37406,"is_reserved":false,"is_disabled":false,"rental_uris":{"android":"levelo://app?vid=5dda66b6-b8b3-44b4-a7d3-bbefedfbf646","ios":"levelo://app?vid=5dda66b6-b8b3-44b4-a7d3-bbefedfbf646"},"vehicle_type_id":"4","last_reported":1742846981,"current_range_meters":12800,"station_id":"ce4bh3p2rcd13ifvqdq0","pricing_plan_id":"cebpf4jnsgd1na2vs0mg"},{"bike_id":"95b42187-a238-4522-8177-b58ab5963f5c","system_id":"levelo_inurba_marseille","lat":43.30926,"lon":5.40147,"is_reserved":false,"is_disabled":false,"rental_uris":{"android":"levelo://app?vid=95b42187-a238-4522-8177-b58ab5963f5c","ios":"levelo://app?vid=95b42187-a238-4522-8177-b58ab5963f5c"},"vehicle_type_id":"4","last_reported":1742846981,"current_range_meters":12800,"station_id":"ce4bgvp2rcd13ifvqct0","pricing_plan_id":"cebpf4jnsgd1na2vs0mg"},{"bike_id":"cfba7878-c036-461e-a1a6-18cd6c9a5373","system_id":"levelo_inurba_marseille","lat":43.30259,"lon":5.40058,"is_reserved":false,"is_disabled":false,"rental_uris":{"android":"levelo://app?vid=cfba7878-c036-461e-a1a6-18cd6c9a5373","ios":"levelo://app?vid=cfba7878-c036-461e-a1a6-18cd6c9a5373"},"vehicle_type_id":"4","last_reported":1742846981,"current_range_meters":12800,"station_id":"","pricing_plan_id":"cebpf4jnsgd1na2vs0mg"},{"bike_id":"134a205d-46ae-4dee-8c1a-5e151dd78ec4","system_id":"levelo_inurba_marseille","lat":43.33012,"lon":5.39032,"is_reserved":false,"is_disabled":false,"rental_uris":{"android":"levelo://app?vid=134a205d-46ae-4dee-8c1a-5e151dd78ec4","ios":"levelo://app?vid=134a205d-46ae-4dee-8c1a-5e151dd78ec4"},"vehicle_type_id":"4","last_reported":1742846981,"current_range_meters":13600,"station_id":"ce4bhr92rcd13ifvqhrg","pricing_plan_id":"cebpf4jnsgd1na2vs0mg"},{"bike_id":"e3f76d45-4904-44a7-aac2-e04832e991bb","system_id":"levelo_inurba_marseille","lat":43.30027,"lon":5.41352,"is_reserved":false,"is_disabled":true,"rental_uris":{"android":"levelo://app?vid=e3f76d45-4904-44a7-aac2-e04832e991bb","ios":"levelo://app?vid=e3f76d45-4904-44a7-aac2-e04832e991bb"},"vehicle_type_id":"4","last_reported":1742846981,"current_range_meters":13600,"station_id":"","pricing_plan_id":"cebpf4jnsgd1na2vs0mg"},{"bike_id":"2f3e2a92-1301-4a27-8eaa-7b0ea525530e","system_id":"levelo_inurba_marseille","lat":43.317,"lon":5.43718,"is_reserved":false,"is_disabled":false,"rental_uris":{"android":"levelo://app?vid=2f3e2a92-1301-4a27-8eaa-7b0ea525530e","ios":"levelo://app?vid=2f3e2a92-1301-4a27-8eaa-7b0ea525530e"},"vehicle_type_id":"4","last_reported":1742846981,"current_range_meters":13600,"station_id":"ce4bhp92rcd13ifvqhcg","pricing_plan_id":"cebpf4jnsgd1na2vs0mg"},{"bike_id":"552fb8ff-98a7-4106-b06d-1880af44f89c","system_id":"levelo_inurba_marseille","lat":43.30085,"lon":5.39089,"is_reserved":false,"is_disabled":false,"rental_uris":{"android":"levelo://app?vid=552fb8ff-98a7-4106-b06d-1880af44f89c","ios":"levelo://app?vid=552fb8ff-98a7-4106-b06d-1880af44f89c"},"vehicle_type_id":"4","last_reported":1742846981,"current_range_meters":13600,"station_id":"ce4bh192rcd13ifvqdb0","pricing_plan_id":"cebpf4jnsgd1na2vs0mg"},{"bike_id":"fee8dabf-4af3-4655-9fe1-7a1172d14609","system_id":"levelo_inurba_marseille","lat":43.27818,"lon":5.40672,"is_reserved":false,"is_disabled":false,"rental_uris":{"android":"levelo://app?vid=fee8dabf-4af3-4655-9fe1-7a1172d14609","ios":"levelo://app?vid=fee8dabf-4af3-4655-9fe1-7a1172d14609"},"vehicle_type_id":"4","last_reported":1742846981,"current_range_meters":13600,"station_id":"ce4bhnh2rcd13ifvqgtg","pricing_plan_id":"cebpf4jnsgd1na2vs0mg"},{"bike_id":"8f208df7-81e0-45c5-bd98-a49c85a38fa2","system_id":"levelo_inurba_marseille","lat":43.30312,"lon":5.3692,"is_reserved":false,"is_disabled":false,"rental_uris":{"android":"levelo://app?vid=8f208df7-81e0-45c5-bd98-a49c85a38fa2","ios":"levelo://app?vid=8f208df7-81e0-45c5-bd98-a49c85a38fa2"},"vehicle_type_id":"4","last_reported":1742846981,"current_range_meters":13600,"station_id":"ce4bgqh2rcd13ifvqc5g","pricing_plan_id":"cebpf4jnsgd1na2vs0mg"},{"bike_id":"7c2de8e8-262f-4f95-b05b-b7ebfc116ad0","system_id":"levelo_inurba_marseille","lat":43.28724,"lon":5.36085,"is_reserved":false,"is_disabled":false,"rental_uris":{"android":"levelo://app?vid=7c2de8e8-262f-4f95-b05b-b7ebfc116ad0","ios":"levelo://app?vid=7c2de8e8-262f-4f95-b05b-b7ebfc116ad0"},"vehicle_type_id":"4","last_reported":1742846981,"current_range_meters":13600,"station_id":"cki0cbj6b192h4jlfktg","pricing_plan_id":"cebpf4jnsgd1na2vs0mg"},{"bike_id":"6457a7c3-e47d-4e22-a706-55621349603c","system_id":"levelo_inurba_marseille","lat":43.26052,"lon":5.39387,"is_reserved":false,"is_disabled":false,"rental_uris":{"android":"levelo://app?vid=6457a7c3-e47d-4e22-a706-55621349603c","ios":"levelo://app?vid=6457a7c3-e47d-4e22-a706-55621349603c"},"vehicle_type_id":"4","last_reported":1742846981,"current_range_meters":13600,"station_id":"ce4bhh92rcd13ifvqfj0","pricing_plan_id":"cebpf4jnsgd1na2vs0mg"},{"bike_id":"6adb5407-e228-44f4-a1da-80d9852b3164","system_id":"levelo_inurba_marseille","lat":43.25021,"lon":5.38904,"is_reserved":false,"is_disabled":false,"rental_uris":{"android":"levelo://app?vid=6adb5407-e228-44f4-a1da-80d9852b3164","ios":"levelo://app?vid=6adb5407-e228-44f4-a1da-80d9852b3164"},"vehicle_type_id":"4","last_reported":1742846981,"current_range_meters":13600,"station_id":"ce4bhgp2rcd13ifvqfd0","pricing_plan_id":"cebpf4jnsgd1na2vs0mg"},{"bike_id":"89e75ed9-7f20-48f7-ad37-e0033e47c633","system_id":"levelo_inurba_marseille","lat":43.24641,"lon":5.38884,"is_reserved":false,"is_disabled":false,"rental_uris":{"android":"levelo://app?vid=89e75ed9-7f20-48f7-ad37-e0033e47c633","ios":"levelo://app?vid=89e75ed9-7f20-48f7-ad37-e0033e47c633"},"vehicle_type_id":"4","last_reported":1742846981,"current_range_meters":13600,"station_id":"ce4bhg12rcd13ifvqf60","pricing_plan_id":"cebpf4jnsgd1na2vs0mg"},{"bike_id":"6cacd646-d929-49ec-bc8d-32b19dcf3130","system_id":"levelo_inurba_marseille","lat":43.28084,"lon":5.39654,"is_reserved":false,"is_disabled":false,"rental_uris":{"android":"levelo://app?vid=6cacd646-d929-49ec-bc8d-32b19dcf3130","ios":"levelo://app?vid=6cacd646-d929-49ec-bc8d-32b19dcf3130"},"vehicle_type_id":"4","last_reported":1742846981,"current_range_meters":14000,"station_id":"ce4bho12rcd13ifvqh2g","pricing_plan_id":"cebpf4jnsgd1na2vs0mg"},{"bike_id":"d7c9b119-99cc-4acd-80c4-6ecaf67a26b1","system_id":"levelo_inurba_marseille","lat":43.23085,"lon":5.35477,"is_reserved":false,"is_disabled":false,"rental_uris":{"android":"levelo://app?vid=d7c9b119-99cc-4acd-80c4-6ecaf67a26b1","ios":"levelo://app?vid=d7c9b119-99cc-4acd-80c4-6ecaf67a26b1"},"vehicle_type_id":"4","last_reported":1742846981,"current_range_meters":14400,"station_id":"cpo3342slgdg3j2ifvpg","pricing_plan_id":"cebpf4jnsgd1na2vs0mg"},{"bike_id":"5356bea1-2e47-434a-af4b-e0287f4be96f","system_id":"levelo_inurba_marseille","lat":43.30803,"lon":5.38155,"is_reserved":false,"is_disabled":false,"rental_uris":{"android":"levelo://app?vid=5356bea1-2e47-434a-af4b-e0287f4be96f","ios":"levelo://app?vid=5356bea1-2e47-434a-af4b-e0287f4be96f"},"vehicle_type_id":"4","last_reported":1742846981,"current_range_meters":14000,"station_id":"ce4bgt12rcd13ifvqce0","pricing_plan_id":"cebpf4jnsgd1na2vs0mg"},{"bike_id":"93596d23-8e0d-4c09-8ef0-971b8627618d","system_id":"levelo_inurba_marseille","lat":43.28152,"lon":5.42648,"is_reserved":false,"is_disabled":false,"rental_uris":{"android":"levelo://app?vid=93596d23-8e0d-4c09-8ef0-971b8627618d","ios":"levelo://app?vid=93596d23-8e0d-4c09-8ef0-971b8627618d"},"vehicle_type_id":"4","last_reported":1742846981,"current_range_meters":14000,"station_id":"ce4bhnh2rcd13ifvqgug","pricing_plan_id":"cebpf4jnsgd1na2vs0mg"},{"bike_id":"b82c062b-ed6f-4114-8bdf-6d996a293c90","system_id":"levelo_inurba_marseille","lat":43.32118,"lon":5.36762,"is_reserved":false,"is_disabled":false,"rental_uris":{"android":"levelo://app?vid=b82c062b-ed6f-4114-8bdf-6d996a293c90","ios":"levelo://app?vid=b82c062b-ed6f-4114-8bdf-6d996a293c90"},"vehicle_type_id":"4","last_reported":1742846981,"current_range_meters":14000,"station_id":"ce4bhrh2rcd13ifvqhug","pricing_plan_id":"cebpf4jnsgd1na2vs0mg"},{"bike_id":"75433386-527c-4886-a740-aad143890352","system_id":"levelo_inurba_marseille","lat":43.27825,"lon":5.4072,"is_reserved":false,"is_disabled":false,"rental_uris":{"android":"levelo://app?vid=75433386-527c-4886-a740-aad143890352","ios":"levelo://app?vid=75433386-527c-4886-a740-aad143890352"},"vehicle_type_id":"4","last_reported":1742846981,"current_range_meters":14000,"station_id":"ce4bhnh2rcd13ifvqgtg","pricing_plan_id":"cebpf4jnsgd1na2vs0mg"},{"bike_id":"b28ecb00-2b9b-4665-8ad5-1aeb61554a5a","system_id":"levelo_inurba_marseille","lat":43.29904,"lon":5.39716,"is_reserved":false,"is_disabled":false,"rental_uris":{"android":"levelo://app?vid=b28ecb00-2b9b-4665-8ad5-1aeb61554a5a","ios":"levelo://app?vid=b28ecb00-2b9b-4665-8ad5-1aeb61554a5a"},"vehicle_type_id":"4","last_reported":1742846981,"current_range_meters":14400,"station_id":"ce4bh0h2rcd13ifvqd50","pricing_plan_id":"cebpf4jnsgd1na2vs0mg"},{"bike_id":"bfd7af30-8168-44b7-b1b1-bbdec027d110","system_id":"levelo_inurba_marseille","lat":43.281558,"lon":5.426492,"is_reserved":false,"is_disabled":false,"rental_uris":{"android":"levelo://app?vid=bfd7af30-8168-44b7-b1b1-bbdec027d110","ios":"levelo://app?vid=bfd7af30-8168-44b7-b1b1-bbdec027d110"},"vehicle_type_id":"4","last_reported":1742846981,"current_range_meters":14000,"station_id":"ce4bh012rcd13ifvqd10","pricing_plan_id":"cebpf4jnsgd1na2vs0mg"},{"bike_id":"7584421b-5f55-4823-bcd1-3abb9d43bf24","system_id":"levelo_inurba_marseille","lat":43.298783,"lon":5.389109,"is_reserved":false,"is_disabled":false,"rental_uris":{"android":"levelo://app?vid=7584421b-5f55-4823-bcd1-3abb9d43bf24","ios":"levelo://app?vid=7584421b-5f55-4823-bcd1-3abb9d43bf24"},"vehicle_type_id":"4","last_reported":1742846981,"current_range_meters":14400,"station_id":"ce4bgrp2rcd13ifvqc9g","pricing_plan_id":"cebpf4jnsgd1na2vs0mg"},{"bike_id":"dff2fd6c-7cca-4177-9033-41c24865d1b9","system_id":"levelo_inurba_marseille","lat":43.29197,"lon":5.39313,"is_reserved":false,"is_disabled":false,"rental_uris":{"android":"levelo://app?vid=dff2fd6c-7cca-4177-9033-41c24865d1b9","ios":"levelo://app?vid=dff2fd6c-7cca-4177-9033-41c24865d1b9"},"vehicle_type_id":"4","last_reported":1742846981,"current_range_meters":14000,"station_id":"ce4bh192rcd13ifvqdd0","pricing_plan_id":"cebpf4jnsgd1na2vs0mg"},{"bike_id":"88d6069d-f037-45f7-be7c-b4545e1dca83","system_id":"levelo_inurba_marseille","lat":43.29529,"lon":5.39404,"is_reserved":false,"is_disabled":false,"rental_uris":{"android":"levelo://app?vid=88d6069d-f037-45f7-be7c-b4545e1dca83","ios":"levelo://app?vid=88d6069d-f037-45f7-be7c-b4545e1dca83"},"vehicle_type_id":"4","last_reported":1742846981,"current_range_meters":14000,"station_id":"ce4bh292rcd13ifvqdf0","pricing_plan_id":"cebpf4jnsgd1na2vs0mg"},{"bike_id":"74406c35-ee35-437d-be26-2d7711378046","system_id":"levelo_inurba_marseille","lat":43.32352,"lon":5.36753,"is_reserved":false,"is_disabled":false,"rental_uris":{"android":"levelo://app?vid=74406c35-ee35-437d-be26-2d7711378046","ios":"levelo://app?vid=74406c35-ee35-437d-be26-2d7711378046"},"vehicle_type_id":"4","last_reported":1742846981,"current_range_meters":14400,"station_id":"ce4bhsh2rcd13ifvqi2g","pricing_plan_id":"cebpf4jnsgd1na2vs0mg"},{"bike_id":"7a9234be-c463-42f5-9ebf-955bf12fe6f7","system_id":"levelo_inurba_marseille","lat":43.28036,"lon":5.36948,"is_reserved":false,"is_disabled":false,"rental_uris":{"android":"levelo://app?vid=7a9234be-c463-42f5-9ebf-955bf12fe6f7","ios":"levelo://app?vid=7a9234be-c463-42f5-9ebf-955bf12fe6f7"},"vehicle_type_id":"4","last_reported":1742846981,"current_range_meters":14400,"station_id":"ce4bha12rcd13ifvqef0","pricing_plan_id":"cebpf4jnsgd1na2vs0mg"},{"bike_id":"0ccd79b2-51ea-4b93-86a9-89925d01380f","system_id":"levelo_inurba_marseille","lat":43.23966,"lon":5.36635,"is_reserved":false,"is_disabled":false,"rental_uris":{"android":"levelo://app?vid=0ccd79b2-51ea-4b93-86a9-89925d01380f","ios":"levelo://app?vid=0ccd79b2-51ea-4b93-86a9-89925d01380f"},"vehicle_type_id":"4","last_reported":1742846981,"current_range_meters":14400,"station_id":"ce4bhi12rcd13ifvqfp0","pricing_plan_id":"cebpf4jnsgd1na2vs0mg"},{"bike_id":"31853493-08cd-48ca-8af6-a1f588cefafe","system_id":"levelo_inurba_marseille","lat":43.25814,"lon":5.39447,"is_reserved":false,"is_disabled":false,"rental_uris":{"android":"levelo://app?vid=31853493-08cd-48ca-8af6-a1f588cefafe","ios":"levelo://app?vid=31853493-08cd-48ca-8af6-a1f588cefafe"},"vehicle_type_id":"4","last_reported":1742846981,"current_range_meters":14800,"station_id":"ce4bhip2rcd13ifvqft0","pricing_plan_id":"cebpf4jnsgd1na2vs0mg"},{"bike_id":"11638dcf-c183-4940-bebb-985f736789bf","system_id":"levelo_inurba_marseille","lat":43.27627,"lon":5.38901,"is_reserved":false,"is_disabled":true,"rental_uris":{"android":"levelo://app?vid=11638dcf-c183-4940-bebb-985f736789bf","ios":"levelo://app?vid=11638dcf-c183-4940-bebb-985f736789bf"},"vehicle_type_id":"4","last_reported":1742846981,"current_range_meters":14800,"station_id":"ce4bhi12rcd13ifvqfo0","pricing_plan_id":"cebpf4jnsgd1na2vs0mg"},{"bike_id":"41ad4fa5-4e76-43e7-893b-5c16c0062632","system_id":"levelo_inurba_marseille","lat":43.30794,"lon":5.38146,"is_reserved":false,"is_disabled":false,"rental_uris":{"android":"levelo://app?vid=41ad4fa5-4e76-43e7-893b-5c16c0062632","ios":"levelo://app?vid=41ad4fa5-4e76-43e7-893b-5c16c0062632"},"vehicle_type_id":"4","last_reported":1742846981,"current_range_meters":14800,"station_id":"ce4bgt12rcd13ifvqce0","pricing_plan_id":"cebpf4jnsgd1na2vs0mg"},{"bike_id":"2f9b5888-753e-4b20-a5fe-8983bbb006bb","system_id":"levelo_inurba_marseille","lat":43.288561,"lon":5.358537,"is_reserved":false,"is_disabled":false,"rental_uris":{"android":"levelo://app?vid=2f9b5888-753e-4b20-a5fe-8983bbb006bb","ios":"levelo://app?vid=2f9b5888-753e-4b20-a5fe-8983bbb006bb"},"vehicle_type_id":"4","last_reported":1742846981,"current_range_meters":14800,"station_id":"ce4bh512rcd13ifvqe2g","pricing_plan_id":"cebpf4jnsgd1na2vs0mg"},{"bike_id":"51327c1d-e5c1-4735-835b-8b0794d93670","system_id":"levelo_inurba_marseille","lat":43.27662,"lon":5.38868,"is_reserved":false,"is_disabled":false,"rental_uris":{"android":"levelo://app?vid=51327c1d-e5c1-4735-835b-8b0794d93670","ios":"levelo://app?vid=51327c1d-e5c1-4735-835b-8b0794d93670"},"vehicle_type_id":"4","last_reported":1742846981,"current_range_meters":14800,"station_id":"ce4bhi12rcd13ifvqfo0","pricing_plan_id":"cebpf4jnsgd1na2vs0mg"},{"bike_id":"2f95d84a-f03d-40d7-98e6-71c071e2bbde","system_id":"levelo_inurba_marseille","lat":43.28079,"lon":5.39656,"is_reserved":false,"is_disabled":false,"rental_uris":{"android":"levelo://app?vid=2f95d84a-f03d-40d7-98e6-71c071e2bbde","ios":"levelo://app?vid=2f95d84a-f03d-40d7-98e6-71c071e2bbde"},"vehicle_type_id":"4","last_reported":1742846981,"current_range_meters":14800,"station_id":"ce4bho12rcd13ifvqh2g","pricing_plan_id":"cebpf4jnsgd1na2vs0mg"},{"bike_id":"2967c8de-439e-49ff-87ae-fa158d268f76","system_id":"levelo_inurba_marseille","lat":43.29709,"lon":5.37694,"is_reserved":false,"is_disabled":false,"rental_uris":{"android":"levelo://app?vid=2967c8de-439e-49ff-87ae-fa158d268f76","ios":"levelo://app?vid=2967c8de-439e-49ff-87ae-fa158d268f76"},"vehicle_type_id":"4","last_reported":1742846981,"current_range_meters":14400,"station_id":"ce4bgkh2rcd13ifvqbl0","pricing_plan_id":"cebpf4jnsgd1na2vs0mg"},{"bike_id":"2a2e80c7-5e5d-48a0-ad06-163980d205b0","system_id":"levelo_inurba_marseille","lat":43.30945,"lon":5.39056,"is_reserved":false,"is_disabled":true,"rental_uris":{"android":"levelo://app?vid=2a2e80c7-5e5d-48a0-ad06-163980d205b0","ios":"levelo://app?vid=2a2e80c7-5e5d-48a0-ad06-163980d205b0"},"vehicle_type_id":"4","last_reported":1742846981,"current_range_meters":14800,"station_id":"ce4bgup2rcd13ifvqco0","pricing_plan_id":"cebpf4jnsgd1na2vs0mg"},{"bike_id":"9d901bcb-7adf-402a-b67f-43b2cf34de78","system_id":"levelo_inurba_marseille","lat":43.28729,"lon":5.36052,"is_reserved":false,"is_disabled":false,"rental_uris":{"android":"levelo://app?vid=9d901bcb-7adf-402a-b67f-43b2cf34de78","ios":"levelo://app?vid=9d901bcb-7adf-402a-b67f-43b2cf34de78"},"vehicle_type_id":"4","last_reported":1742846981,"current_range_meters":14800,"station_id":"cki0cbj6b192h4jlfktg","pricing_plan_id":"cebpf4jnsgd1na2vs0mg"},{"bike_id":"8583bcae-e817-4db7-ab92-448c595780ea","system_id":"levelo_inurba_marseille","lat":43.33,"lon":5.39049,"is_reserved":false,"is_disabled":false,"rental_uris":{"android":"levelo://app?vid=8583bcae-e817-4db7-ab92-448c595780ea","ios":"levelo://app?vid=8583bcae-e817-4db7-ab92-448c595780ea"},"vehicle_type_id":"4","last_reported":1742846981,"current_range_meters":14800,"station_id":"","pricing_plan_id":"cebpf4jnsgd1na2vs0mg"},{"bike_id":"670214b8-0c1a-44c6-9ec1-e4e7883cf534","system_id":"levelo_inurba_marseille","lat":43.30521,"lon":5.36534,"is_reserved":false,"is_disabled":false,"rental_uris":{"android":"levelo://app?vid=670214b8-0c1a-44c6-9ec1-e4e7883cf534","ios":"levelo://app?vid=670214b8-0c1a-44c6-9ec1-e4e7883cf534"},"vehicle_type_id":"4","last_reported":1742846981,"current_range_meters":15200,"station_id":"","pricing_plan_id":"cebpf4jnsgd1na2vs0mg"},{"bike_id":"e1e35c11-11be-4d6b-9a98-3de91e1bd819","system_id":"levelo_inurba_marseille","lat":43.3249,"lon":5.36569,"is_reserved":false,"is_disabled":false,"rental_uris":{"android":"levelo://app?vid=e1e35c11-11be-4d6b-9a98-3de91e1bd819","ios":"levelo://app?vid=e1e35c11-11be-4d6b-9a98-3de91e1bd819"},"vehicle_type_id":"4","last_reported":1742846981,"current_range_meters":15200,"station_id":"ce4bhs12rcd13ifvqhvg","pricing_plan_id":"cebpf4jnsgd1na2vs0mg"},{"bike_id":"18a7fec5-cd4f-470b-b4aa-49a452d96c3f","system_id":"levelo_inurba_marseille","lat":43.30614,"lon":5.39345,"is_reserved":false,"is_disabled":true,"rental_uris":{"android":"levelo://app?vid=18a7fec5-cd4f-470b-b4aa-49a452d96c3f","ios":"levelo://app?vid=18a7fec5-cd4f-470b-b4aa-49a452d96c3f"},"vehicle_type_id":"4","last_reported":1742846981,"current_range_meters":15200,"station_id":"ce4bh0p2rcd13ifvqd80","pricing_plan_id":"cebpf4jnsgd1na2vs0mg"},{"bike_id":"dea1f70c-3a59-4563-bb09-a9d3b04a8744","system_id":"levelo_inurba_marseille","lat":43.25876,"lon":5.38895,"is_reserved":false,"is_disabled":false,"rental_uris":{"android":"levelo://app?vid=dea1f70c-3a59-4563-bb09-a9d3b04a8744","ios":"levelo://app?vid=dea1f70c-3a59-4563-bb09-a9d3b04a8744"},"vehicle_type_id":"4","last_reported":1742846981,"current_range_meters":15200,"station_id":"","pricing_plan_id":"cebpf4jnsgd1na2vs0mg"},{"bike_id":"b87d7c5f-3e7b-414d-a376-af862132192b","system_id":"levelo_inurba_marseille","lat":43.2963,"lon":5.40604,"is_reserved":false,"is_disabled":false,"rental_uris":{"android":"levelo://app?vid=b87d7c5f-3e7b-414d-a376-af862132192b","ios":"levelo://app?vid=b87d7c5f-3e7b-414d-a376-af862132192b"},"vehicle_type_id":"4","last_reported":1742846981,"current_range_meters":15200,"station_id":"ce4bh0h2rcd13ifvqd60","pricing_plan_id":"cebpf4jnsgd1na2vs0mg"},{"bike_id":"70af42f8-fc54-4a49-85af-2f5a6fbb45ab","system_id":"levelo_inurba_marseille","lat":43.30174,"lon":5.3782,"is_reserved":false,"is_disabled":false,"rental_uris":{"android":"levelo://app?vid=70af42f8-fc54-4a49-85af-2f5a6fbb45ab","ios":"levelo://app?vid=70af42f8-fc54-4a49-85af-2f5a6fbb45ab"},"vehicle_type_id":"4","last_reported":1742846981,"current_range_meters":16400,"station_id":"","pricing_plan_id":"cebpf4jnsgd1na2vs0mg"},{"bike_id":"93949e32-0ff0-487a-86d4-d1650d8e5134","system_id":"levelo_inurba_marseille","lat":43.30553,"lon":5.36529,"is_reserved":false,"is_disabled":false,"rental_uris":{"android":"levelo://app?vid=93949e32-0ff0-487a-86d4-d1650d8e5134","ios":"levelo://app?vid=93949e32-0ff0-487a-86d4-d1650d8e5134"},"vehicle_type_id":"4","last_reported":1742846981,"current_range_meters":15200,"station_id":"ce4bgs12rcd13ifvqcag","pricing_plan_id":"cebpf4jnsgd1na2vs0mg"},{"bike_id":"0d89eca0-5671-404f-88cc-d263b1555cb5","system_id":"levelo_inurba_marseille","lat":43.2573,"lon":5.41073,"is_reserved":false,"is_disabled":false,"rental_uris":{"android":"levelo://app?vid=0d89eca0-5671-404f-88cc-d263b1555cb5","ios":"levelo://app?vid=0d89eca0-5671-404f-88cc-d263b1555cb5"},"vehicle_type_id":"4","last_reported":1742846981,"current_range_meters":15200,"station_id":"","pricing_plan_id":"cebpf4jnsgd1na2vs0mg"},{"bike_id":"319fbde0-f02d-47c8-9ea3-00bb37a99bb2","system_id":"levelo_inurba_marseille","lat":43.24533,"lon":5.39514,"is_reserved":false,"is_disabled":false,"rental_uris":{"android":"levelo://app?vid=319fbde0-f02d-47c8-9ea3-00bb37a99bb2","ios":"levelo://app?vid=319fbde0-f02d-47c8-9ea3-00bb37a99bb2"},"vehicle_type_id":"4","last_reported":1742846981,"current_range_meters":16000,"station_id":"ce4bhlp2rcd13ifvqgjg","pricing_plan_id":"cebpf4jnsgd1na2vs0mg"},{"bike_id":"7dc177f4-73bc-4a70-8c36-4c14f45d3918","system_id":"levelo_inurba_marseille","lat":43.29511,"lon":5.39043,"is_reserved":false,"is_disabled":false,"rental_uris":{"android":"levelo://app?vid=7dc177f4-73bc-4a70-8c36-4c14f45d3918","ios":"levelo://app?vid=7dc177f4-73bc-4a70-8c36-4c14f45d3918"},"vehicle_type_id":"4","last_reported":1742846981,"current_range_meters":16000,"station_id":"ce4bh3p2rcd13ifvqdp0","pricing_plan_id":"cebpf4jnsgd1na2vs0mg"},{"bike_id":"481bb1ff-e869-4e0c-bff6-d144a56689b8","system_id":"levelo_inurba_marseille","lat":43.31355,"lon":5.38494,"is_reserved":false,"is_disabled":false,"rental_uris":{"android":"levelo://app?vid=481bb1ff-e869-4e0c-bff6-d144a56689b8","ios":"levelo://app?vid=481bb1ff-e869-4e0c-bff6-d144a56689b8"},"vehicle_type_id":"4","last_reported":1742846981,"current_range_meters":16000,"station_id":"ce4bgt92rcd13ifvqcf0","pricing_plan_id":"cebpf4jnsgd1na2vs0mg"},{"bike_id":"00d8699e-eac7-4b25-a5e5-4d2f462e0645","system_id":"levelo_inurba_marseille","lat":43.23198,"lon":5.39982,"is_reserved":false,"is_disabled":false,"rental_uris":{"android":"levelo://app?vid=00d8699e-eac7-4b25-a5e5-4d2f462e0645","ios":"levelo://app?vid=00d8699e-eac7-4b25-a5e5-4d2f462e0645"},"vehicle_type_id":"4","last_reported":1742846981,"current_range_meters":16000,"station_id":"ce4bhn12rcd13ifvqgqg","pricing_plan_id":"cebpf4jnsgd1na2vs0mg"},{"bike_id":"844d3370-21e5-4de2-9d45-2b091e1157d6","system_id":"levelo_inurba_marseille","lat":43.23964,"lon":5.36646,"is_reserved":false,"is_disabled":false,"rental_uris":{"android":"levelo://app?vid=844d3370-21e5-4de2-9d45-2b091e1157d6","ios":"levelo://app?vid=844d3370-21e5-4de2-9d45-2b091e1157d6"},"vehicle_type_id":"4","last_reported":1742846981,"current_range_meters":16000,"station_id":"ce4bhi12rcd13ifvqfp0","pricing_plan_id":"cebpf4jnsgd1na2vs0mg"},{"bike_id":"04357187-31a2-4621-9b88-fc476381d72a","system_id":"levelo_inurba_marseille","lat":43.25822,"lon":5.39446,"is_reserved":false,"is_disabled":false,"rental_uris":{"android":"levelo://app?vid=04357187-31a2-4621-9b88-fc476381d72a","ios":"levelo://app?vid=04357187-31a2-4621-9b88-fc476381d72a"},"vehicle_type_id":"4","last_reported":1742846981,"current_range_meters":16000,"station_id":"ce4bhip2rcd13ifvqft0","pricing_plan_id":"cebpf4jnsgd1na2vs0mg"},{"bike_id":"16d1a1e8-6833-46ef-8ac2-dd05daf383fb","system_id":"levelo_inurba_marseille","lat":43.27132,"lon":5.4169,"is_reserved":false,"is_disabled":false,"rental_uris":{"android":"levelo://app?vid=16d1a1e8-6833-46ef-8ac2-dd05daf383fb","ios":"levelo://app?vid=16d1a1e8-6833-46ef-8ac2-dd05daf383fb"},"vehicle_type_id":"4","last_reported":1742846981,"current_range_meters":16000,"station_id":"","pricing_plan_id":"cebpf4jnsgd1na2vs0mg"},{"bike_id":"4db1dd2f-8eaf-4617-8227-770753384b19","system_id":"levelo_inurba_marseille","lat":43.30795,"lon":5.38143,"is_reserved":false,"is_disabled":false,"rental_uris":{"android":"levelo://app?vid=4db1dd2f-8eaf-4617-8227-770753384b19","ios":"levelo://app?vid=4db1dd2f-8eaf-4617-8227-770753384b19"},"vehicle_type_id":"4","last_reported":1742846981,"current_range_meters":16000,"station_id":"ce4bgt12rcd13ifvqce0","pricing_plan_id":"cebpf4jnsgd1na2vs0mg"},{"bike_id":"bb58f931-d39b-4674-bcbc-5096c1d815e7","system_id":"levelo_inurba_marseille","lat":43.24199,"lon":5.39737,"is_reserved":false,"is_disabled":false,"rental_uris":{"android":"levelo://app?vid=bb58f931-d39b-4674-bcbc-5096c1d815e7","ios":"levelo://app?vid=bb58f931-d39b-4674-bcbc-5096c1d815e7"},"vehicle_type_id":"4","last_reported":1742846981,"current_range_meters":16000,"station_id":"","pricing_plan_id":"cebpf4jnsgd1na2vs0mg"},{"bike_id":"87bc971d-7f2a-4f5b-9231-d1a713fc5fde","system_id":"levelo_inurba_marseille","lat":43.32011,"lon":5.38139,"is_reserved":false,"is_disabled":false,"rental_uris":{"android":"levelo://app?vid=87bc971d-7f2a-4f5b-9231-d1a713fc5fde","ios":"levelo://app?vid=87bc971d-7f2a-4f5b-9231-d1a713fc5fde"},"vehicle_type_id":"4","last_reported":1742846981,"current_range_meters":16000,"station_id":"ce4bhr12rcd13ifvqhpg","pricing_plan_id":"cebpf4jnsgd1na2vs0mg"},{"bike_id":"71d053fe-72cd-4674-8064-9f91eaaa9762","system_id":"levelo_inurba_marseille","lat":43.28461,"lon":5.38542,"is_reserved":false,"is_disabled":true,"rental_uris":{"android":"levelo://app?vid=71d053fe-72cd-4674-8064-9f91eaaa9762","ios":"levelo://app?vid=71d053fe-72cd-4674-8064-9f91eaaa9762"},"vehicle_type_id":"4","last_reported":1742846981,"current_range_meters":16000,"station_id":"ce4bh8p2rcd13ifvqeb0","pricing_plan_id":"cebpf4jnsgd1na2vs0mg"},{"bike_id":"fa90bee8-1990-457a-b560-cb202a82d93d","system_id":"levelo_inurba_marseille","lat":43.30669,"lon":5.40067,"is_reserved":false,"is_disabled":false,"rental_uris":{"android":"levelo://app?vid=fa90bee8-1990-457a-b560-cb202a82d93d","ios":"levelo://app?vid=fa90bee8-1990-457a-b560-cb202a82d93d"},"vehicle_type_id":"4","last_reported":1742846981,"current_range_meters":16400,"station_id":"ce4bh112rcd13ifvqda0","pricing_plan_id":"cebpf4jnsgd1na2vs0mg"},{"bike_id":"7fbb5cc4-ceec-4424-b26c-0b8b49614ca0","system_id":"levelo_inurba_marseille","lat":43.30136,"lon":5.39902,"is_reserved":false,"is_disabled":true,"rental_uris":{"android":"levelo://app?vid=7fbb5cc4-ceec-4424-b26c-0b8b49614ca0","ios":"levelo://app?vid=7fbb5cc4-ceec-4424-b26c-0b8b49614ca0"},"vehicle_type_id":"4","last_reported":1742846981,"current_range_meters":16800,"station_id":"","pricing_plan_id":"cebpf4jnsgd1na2vs0mg"},{"bike_id":"3a507784-1e32-42f9-9210-f04a2955b962","system_id":"levelo_inurba_marseille","lat":43.28086,"lon":5.39649,"is_reserved":false,"is_disabled":false,"rental_uris":{"android":"levelo://app?vid=3a507784-1e32-42f9-9210-f04a2955b962","ios":"levelo://app?vid=3a507784-1e32-42f9-9210-f04a2955b962"},"vehicle_type_id":"4","last_reported":1742846981,"current_range_meters":16400,"station_id":"ce4bho12rcd13ifvqh2g","pricing_plan_id":"cebpf4jnsgd1na2vs0mg"},{"bike_id":"8a080269-c7fc-4ff2-918f-13f2e45250e4","system_id":"levelo_inurba_marseille","lat":43.30646,"lon":5.40076,"is_reserved":false,"is_disabled":false,"rental_uris":{"android":"levelo://app?vid=8a080269-c7fc-4ff2-918f-13f2e45250e4","ios":"levelo://app?vid=8a080269-c7fc-4ff2-918f-13f2e45250e4"},"vehicle_type_id":"4","last_reported":1742846981,"current_range_meters":16000,"station_id":"ce4bh112rcd13ifvqda0","pricing_plan_id":"cebpf4jnsgd1na2vs0mg"},{"bike_id":"c17e766d-72fd-4570-b62c-2beb5e983b80","system_id":"levelo_inurba_marseille","lat":43.286916,"lon":5.373914,"is_reserved":false,"is_disabled":false,"rental_uris":{"android":"levelo://app?vid=c17e766d-72fd-4570-b62c-2beb5e983b80","ios":"levelo://app?vid=c17e766d-72fd-4570-b62c-2beb5e983b80"},"vehicle_type_id":"4","last_reported":1742846981,"current_range_meters":16400,"station_id":"ce4bh3p2rcd13ifvqdq0","pricing_plan_id":"cebpf4jnsgd1na2vs0mg"},{"bike_id":"4984db66-5241-446c-94cd-2a35586b6040","system_id":"levelo_inurba_marseille","lat":43.27915,"lon":5.41061,"is_reserved":false,"is_disabled":false,"rental_uris":{"android":"levelo://app?vid=4984db66-5241-446c-94cd-2a35586b6040","ios":"levelo://app?vid=4984db66-5241-446c-94cd-2a35586b6040"},"vehicle_type_id":"4","last_reported":1742846981,"current_range_meters":16400,"station_id":"ce4bhnp2rcd13ifvqh0g","pricing_plan_id":"cebpf4jnsgd1na2vs0mg"},{"bike_id":"b599ec8c-9116-4cb3-980c-d0a7d1e83114","system_id":"levelo_inurba_marseille","lat":43.32477,"lon":5.36562,"is_reserved":false,"is_disabled":false,"rental_uris":{"android":"levelo://app?vid=b599ec8c-9116-4cb3-980c-d0a7d1e83114","ios":"levelo://app?vid=b599ec8c-9116-4cb3-980c-d0a7d1e83114"},"vehicle_type_id":"4","last_reported":1742846981,"current_range_meters":16400,"station_id":"ce4bhs12rcd13ifvqhvg","pricing_plan_id":"cebpf4jnsgd1na2vs0mg"},{"bike_id":"0580aff4-76e8-419e-9230-1528d8eceefe","system_id":"levelo_inurba_marseille","lat":43.27938,"lon":5.41058,"is_reserved":false,"is_disabled":false,"rental_uris":{"android":"levelo://app?vid=0580aff4-76e8-419e-9230-1528d8eceefe","ios":"levelo://app?vid=0580aff4-76e8-419e-9230-1528d8eceefe"},"vehicle_type_id":"4","last_reported":1742846981,"current_range_meters":16400,"station_id":"ce4bhnp2rcd13ifvqh0g","pricing_plan_id":"cebpf4jnsgd1na2vs0mg"},{"bike_id":"4a3cef67-7854-486a-96a1-875577c9d100","system_id":"levelo_inurba_marseille","lat":43.2808,"lon":5.39637,"is_reserved":false,"is_disabled":true,"rental_uris":{"android":"levelo://app?vid=4a3cef67-7854-486a-96a1-875577c9d100","ios":"levelo://app?vid=4a3cef67-7854-486a-96a1-875577c9d100"},"vehicle_type_id":"4","last_reported":1742846981,"current_range_meters":16400,"station_id":"ce4bho12rcd13ifvqh2g","pricing_plan_id":"cebpf4jnsgd1na2vs0mg"},{"bike_id":"c08f36de-9207-4e35-be10-a697dbdea5a1","system_id":"levelo_inurba_marseille","lat":43.27813,"lon":5.40706,"is_reserved":false,"is_disabled":false,"rental_uris":{"android":"levelo://app?vid=c08f36de-9207-4e35-be10-a697dbdea5a1","ios":"levelo://app?vid=c08f36de-9207-4e35-be10-a697dbdea5a1"},"vehicle_type_id":"4","last_reported":1742846981,"current_range_meters":16400,"station_id":"ce4bhnh2rcd13ifvqgtg","pricing_plan_id":"cebpf4jnsgd1na2vs0mg"},{"bike_id":"98d38a64-15b2-410c-b614-5635d097b9ba","system_id":"levelo_inurba_marseille","lat":43.30312,"lon":5.39213,"is_reserved":false,"is_disabled":true,"rental_uris":{"android":"levelo://app?vid=98d38a64-15b2-410c-b614-5635d097b9ba","ios":"levelo://app?vid=98d38a64-15b2-410c-b614-5635d097b9ba"},"vehicle_type_id":"4","last_reported":1742846981,"current_range_meters":16400,"station_id":"ce4bgkh2rcd13ifvqbk0","pricing_plan_id":"cebpf4jnsgd1na2vs0mg"},{"bike_id":"10437be8-350e-400b-b098-db98aef3ea2f","system_id":"levelo_inurba_marseille","lat":43.3058,"lon":5.37224,"is_reserved":false,"is_disabled":false,"rental_uris":{"android":"levelo://app?vid=10437be8-350e-400b-b098-db98aef3ea2f","ios":"levelo://app?vid=10437be8-350e-400b-b098-db98aef3ea2f"},"vehicle_type_id":"4","last_reported":1742846981,"current_range_meters":16400,"station_id":"ce4bgqh2rcd13ifvqc4g","pricing_plan_id":"cebpf4jnsgd1na2vs0mg"},{"bike_id":"9b4cd04c-3210-4573-a639-423ef9aba72a","system_id":"levelo_inurba_marseille","lat":43.30004,"lon":5.37218,"is_reserved":false,"is_disabled":false,"rental_uris":{"android":"levelo://app?vid=9b4cd04c-3210-4573-a639-423ef9aba72a","ios":"levelo://app?vid=9b4cd04c-3210-4573-a639-423ef9aba72a"},"vehicle_type_id":"4","last_reported":1742846981,"current_range_meters":16400,"station_id":"ce4bgr92rcd13ifvqc7g","pricing_plan_id":"cebpf4jnsgd1na2vs0mg"},{"bike_id":"62d3e845-03ac-4ecc-85de-0fb5d37fb5f9","system_id":"levelo_inurba_marseille","lat":43.29181,"lon":5.39313,"is_reserved":false,"is_disabled":false,"rental_uris":{"android":"levelo://app?vid=62d3e845-03ac-4ecc-85de-0fb5d37fb5f9","ios":"levelo://app?vid=62d3e845-03ac-4ecc-85de-0fb5d37fb5f9"},"vehicle_type_id":"4","last_reported":1742846981,"current_range_meters":16400,"station_id":"","pricing_plan_id":"cebpf4jnsgd1na2vs0mg"},{"bike_id":"fcad863c-f9c5-4629-82fc-8afb907e8d78","system_id":"levelo_inurba_marseille","lat":43.30929,"lon":5.40145,"is_reserved":false,"is_disabled":false,"rental_uris":{"android":"levelo://app?vid=fcad863c-f9c5-4629-82fc-8afb907e8d78","ios":"levelo://app?vid=fcad863c-f9c5-4629-82fc-8afb907e8d78"},"vehicle_type_id":"4","last_reported":1742846981,"current_range_meters":16400,"station_id":"ce4bgvp2rcd13ifvqct0","pricing_plan_id":"cebpf4jnsgd1na2vs0mg"},{"bike_id":"1c775580-d1ab-41a6-9ca2-2ebea91682b8","system_id":"levelo_inurba_marseille","lat":43.27812,"lon":5.40712,"is_reserved":false,"is_disabled":false,"rental_uris":{"android":"levelo://app?vid=1c775580-d1ab-41a6-9ca2-2ebea91682b8","ios":"levelo://app?vid=1c775580-d1ab-41a6-9ca2-2ebea91682b8"},"vehicle_type_id":"4","last_reported":1742846981,"current_range_meters":16400,"station_id":"","pricing_plan_id":"cebpf4jnsgd1na2vs0mg"},{"bike_id":"7fb3d7ff-c714-4e78-87b5-654a2565f53f","system_id":"levelo_inurba_marseille","lat":43.31165,"lon":5.38723,"is_reserved":false,"is_disabled":false,"rental_uris":{"android":"levelo://app?vid=7fb3d7ff-c714-4e78-87b5-654a2565f53f","ios":"levelo://app?vid=7fb3d7ff-c714-4e78-87b5-654a2565f53f"},"vehicle_type_id":"4","last_reported":1742846981,"current_range_meters":16400,"station_id":"ce4bgv12rcd13ifvqcp0","pricing_plan_id":"cebpf4jnsgd1na2vs0mg"},{"bike_id":"ab4776ff-6b27-4499-80aa-79c9d542b375","system_id":"levelo_inurba_marseille","lat":43.29908,"lon":5.37454,"is_reserved":false,"is_disabled":false,"rental_uris":{"android":"levelo://app?vid=ab4776ff-6b27-4499-80aa-79c9d542b375","ios":"levelo://app?vid=ab4776ff-6b27-4499-80aa-79c9d542b375"},"vehicle_type_id":"4","last_reported":1742846981,"current_range_meters":16800,"station_id":"ce4bgjh2rcd13ifvqbg0","pricing_plan_id":"cebpf4jnsgd1na2vs0mg"},{"bike_id":"49fbe21e-ba16-4e56-8617-5066ed12268a","system_id":"levelo_inurba_marseille","lat":43.31071,"lon":5.42451,"is_reserved":false,"is_disabled":false,"rental_uris":{"android":"levelo://app?vid=49fbe21e-ba16-4e56-8617-5066ed12268a","ios":"levelo://app?vid=49fbe21e-ba16-4e56-8617-5066ed12268a"},"vehicle_type_id":"4","last_reported":1742846981,"current_range_meters":16800,"station_id":"","pricing_plan_id":"cebpf4jnsgd1na2vs0mg"},{"bike_id":"28b8bdb3-c73f-4e95-859b-e9db1be690ff","system_id":"levelo_inurba_marseille","lat":43.33031,"lon":5.39049,"is_reserved":false,"is_disabled":false,"rental_uris":{"android":"levelo://app?vid=28b8bdb3-c73f-4e95-859b-e9db1be690ff","ios":"levelo://app?vid=28b8bdb3-c73f-4e95-859b-e9db1be690ff"},"vehicle_type_id":"4","last_reported":1742846981,"current_range_meters":16800,"station_id":"","pricing_plan_id":"cebpf4jnsgd1na2vs0mg"},{"bike_id":"1aeecb8e-b006-4f49-8edc-947d6456e728","system_id":"levelo_inurba_marseille","lat":43.30899,"lon":5.36861,"is_reserved":false,"is_disabled":false,"rental_uris":{"android":"levelo://app?vid=1aeecb8e-b006-4f49-8edc-947d6456e728","ios":"levelo://app?vid=1aeecb8e-b006-4f49-8edc-947d6456e728"},"vehicle_type_id":"4","last_reported":1742846981,"current_range_meters":16800,"station_id":"","pricing_plan_id":"cebpf4jnsgd1na2vs0mg"},{"bike_id":"85be6fdd-7e00-4192-a669-6344acf18d2c","system_id":"levelo_inurba_marseille","lat":43.29602,"lon":5.37559,"is_reserved":false,"is_disabled":true,"rental_uris":{"android":"levelo://app?vid=85be6fdd-7e00-4192-a669-6344acf18d2c","ios":"levelo://app?vid=85be6fdd-7e00-4192-a669-6344acf18d2c"},"vehicle_type_id":"4","last_reported":1742846981,"current_range_meters":16800,"station_id":"ce4bgh92rcd13ifvqb50","pricing_plan_id":"cebpf4jnsgd1na2vs0mg"},{"bike_id":"9e61c971-7d3d-4684-a88b-9a35883d3dab","system_id":"levelo_inurba_marseille","lat":43.27906,"lon":5.39576,"is_reserved":false,"is_disabled":false,"rental_uris":{"android":"levelo://app?vid=9e61c971-7d3d-4684-a88b-9a35883d3dab","ios":"levelo://app?vid=9e61c971-7d3d-4684-a88b-9a35883d3dab"},"vehicle_type_id":"4","last_reported":1742846981,"current_range_meters":16800,"station_id":"ce4bhf92rcd13ifvqf40","pricing_plan_id":"cebpf4jnsgd1na2vs0mg"},{"bike_id":"7e1a9145-ca6a-4a17-b5e6-320201ea3679","system_id":"levelo_inurba_marseille","lat":43.26548,"lon":5.39013,"is_reserved":false,"is_disabled":true,"rental_uris":{"android":"levelo://app?vid=7e1a9145-ca6a-4a17-b5e6-320201ea3679","ios":"levelo://app?vid=7e1a9145-ca6a-4a17-b5e6-320201ea3679"},"vehicle_type_id":"4","last_reported":1742846981,"current_range_meters":16800,"station_id":"ce4bhe12rcd13ifvqf30","pricing_plan_id":"cebpf4jnsgd1na2vs0mg"},