{"last_updated":1705338380,"ttl":30,"version":"2.2","data":{"bikes":[{"bike_id":"d48b09c6-b9c6-4183-9b5e-3d985a036d48","system_id":"levelo_inurba_marseille","lat":43.31341,"lon":5.367098,"is_reserved":false,"is_disabled":false,"rental_uris":{"android":"levelo://app?vid=d48b09c6-b9c6-4183-9b5e-3d985a036d48","ios":"levelo://app?vid=d48b09c6-b9c6-4183-9b5e-3d985a036d48"},"vehicle_type_id":"4","last_reported":1705338380,"current_range_meters":31200,"station_id":"ce4bgr92rcd13ifvqc6g","pricing_plan_id":"free"},{"bike_id":"7886e8bd-7ec7-4e6a-b6e4-7615b2f425c5","system_id":"levelo_inurba_marseille","lat":43.313562,"lon":5.367073,"is_reserved":false,"is_disabled":false,"rental_uris":{"android":"levelo://app?vid=7886e8bd-7ec7-4e6a-b6e4-7615b2f425c5","ios":"levelo://app?vid=7886e8bd-7ec7-4e6a-b6e4-7615b2f425c5"},"vehicle_type_id":"4","last_reported":1705338380,"current_range_meters":29600,"station_id":"ce4bgr92rcd13ifvqc6g","pricing_plan_id":"free"},{"bike_id":"5732d2da-d87e-4f92-a1eb-11d97d0aeca0","system_id":"levelo_inurba_marseille","lat":43.31361,"lon":5.367084,"is_reserved":false,"is_disabled":false,"rental_uris":{"android":"levelo://app?vid=5732d2da-d87e-4f92-a1eb-11d97d0aeca0","ios":"levelo://app?vid=5732d2da-d87e-4f92-a1eb-11d97d0aeca0"},"vehicle_type_id":"4","last_reported":1705338380,"current_range_meters":30000,"station_id":"ce4bgr92rcd13ifvqc6g","pricing_plan_id":"free"},{"bike_id":"a1578017-92f3-4dcb-870f-2624d68afe26","system_id":"levelo_inurba_marseille","lat":43.312239,"lon":5.368562,"is_reserved":false,"is_disabled":false,"rental_uris":{"android":"levelo://app?vid=a1578017-92f3-4dcb-870f-2624d68afe26","ios":"levelo://app?vid=a1578017-92f3-4dcb-870f-2624d68afe26"},"vehicle_type_id":"4","last_reported":1705338380,"current_range_meters":30000,"station_id":"ce4bgl92rcd13ifvqbq0","pricing_plan_id":"free"},{"bike_id":"717df459-9b55-41a2-8844-35a77b1aacd3","system_id":"levelo_inurba_marseille","lat":43.312239,"lon":5.368562,"is_reserved":false,"is_disabled":false,"rental_uris":{"android":"levelo://app?vid=717df459-9b55-41a2-8844-35a77b1aacd3","ios":"levelo://app?vid=717df459-9b55-41a2-8844-35a77b1aacd3"},"vehicle_type_id":"4","last_reported":1705338380,"current_range_meters":30800,"station_id":"ce4bgl92rcd13ifvqbq0","pricing_plan_id":"free"},{"bike_id":"c0a6b11b-e18f-4954-afe1-c9ec2007ebc4","system_id":"levelo_inurba_marseille","lat":43.312239,"lon":5.368562,"is_reserved":false,"is_disabled":false,"rental_uris":{"android":"levelo://app?vid=c0a6b11b-e18f-4954-afe1-c9ec2007ebc4","ios":"levelo://app?vid=c0a6b11b-e18f-4954-afe1-c9ec2007ebc4"},"vehicle_type_id":"4","last_reported":1705338380,"current_range_meters":23600,"station_id":"ce4bgl92rcd13ifvqbq0","pricing_plan_id":"free"},{"bike_id":"c7ba30e8-6cb7-47db-9998-73e527f98461","system_id":"levelo_inurba_marseille","lat":43.312239,"lon":5.368562,"is_reserved":false,"is_disabled":false,"rental_uris":{"android":"levelo://app?vid=c7ba30e8-6cb7-47db-9998-73e527f98461","ios":"levelo://app?vid=c7ba30e8-6cb7-47db-9998-73e527f98461"},"vehicle_type_id":"4","last_reported":1705338380,"current_range_meters":14400,"station_id":"ce4bgl92rcd13ifvqbq0","pricing_plan_id":"free"},{"bike_id":"b8e7ac2a-b099-4fe3-8387-9886a441846f","system_id":"levelo_inurba_marseille","lat":43.312239,"lon":5.368562,"is_reserved":false,"is_disabled":false,"rental_uris":{"android":"levelo://app?vid=b8e7ac2a-b099-4fe3-8387-9886a441846f","ios":"levelo://app?vid=b8e7ac2a-b099-4fe3-8387-9886a441846f"},"vehicle_type_id":"4","last_reported":1705338380,"current_range_meters":2800,"station_id":"ce4bgl92rcd13ifvqbq0","pricing_plan_id":"free"},{"bike_id":"aba88fbf-a3d9-4491-9b4a-6a739692a3f8","system_id":"levelo_inurba_marseille","lat":43.312239,"lon":5.368562,"is_reserved":false,"is_disabled":false,"rental_uris":{"android":"levelo://app?vid=aba88fbf-a3d9-4491-9b4a-6a739692a3f8","ios":"levelo://app?vid=aba88fbf-a3d9-4491-9b4a-6a739692a3f8"},"vehicle_type_id":"4","last_reported":1705338380,"current_range_meters":17600,"station_id":"ce4bgl92rcd13ifvqbq0","pricing_plan_id":"free"},{"bike_id":"f1d492a6-6515-43a3-a9e3-19c8125738bd","system_id":"levelo_inurba_marseille","lat":43.312239,"lon":5.368562,"is_reserved":false,"is_disabled":false,"rental_uris":{"android":"levelo://app?vid=f1d492a6-6515-43a3-a9e3-19c8125738bd","ios":"levelo://app?vid=f1d492a6-6515-43a3-a9e3-19c8125738bd"},"vehicle_type_id":"4","last_reported":1705338380,"current_range_meters":26000,"station_id":"ce4bgl92rcd13ifvqbq0","pricing_plan_id":"free"},{"bike_id":"576644f4-cedd-48c9-b212-02092d3df037","system_id":"levelo_inurba_marseille","lat":43.312239,"lon":5.368562,"is_reserved":false,"is_disabled":false,"rental_uris":{"android":"levelo://app?vid=576644f4-cedd-48c9-b212-02092d3df037","ios":"levelo://app?vid=576644f4-cedd-48c9-b212-02092d3df037"},"vehicle_type_id":"4","last_reported":1705338380,"current_range_meters":4000,"station_id":"ce4bgl92rcd13ifvqbq0","pricing_plan_id":"free"},{"bike_id":"a4feffa5-64fb-42e4-96ed-64b645b45b72","system_id":"levelo_inurba_marseille","lat":43.312239,"lon":5.368562,"is_reserved":false,"is_disabled":false,"rental_uris":{"android":"levelo://app?vid=a4feffa5-64fb-42e4-96ed-64b645b45b72","ios":"levelo://app?vid=a4feffa5-64fb-42e4-96ed-64b645b45b72"},"vehicle_type_id":"4","last_reported":1705338380,"current_range_meters":18800,"station_id":"ce4bgl92rcd13ifvqbq0","pricing_plan_id":"free"},{"bike_id":"a510091b-8acc-4ead-bdb6-32562eceae90","system_id":"levelo_inurba_marseille","lat":43.314811,"lon":5.373103,"is_reserved":false,"is_disabled":false,"rental_uris":{"android":"levelo://app?vid=a510091b-8acc-4ead-bdb6-32562eceae90","ios":"levelo://app?vid=a510091b-8acc-4ead-bdb6-32562eceae90"},"vehicle_type_id":"4","last_reported":1705338380,"current_range_meters":11600,"station_id":"ce4bgt12rcd13ifvqcd0","pricing_plan_id":"free"},{"bike_id":"0514e286-05bb-4f6b-982f-1e1fd3565fda","system_id":"levelo_inurba_marseille","lat":43.314811,"lon":5.373103,"is_reserved":false,"is_disabled":false,"rental_uris":{"android":"levelo://app?vid=0514e286-05bb-4f6b-982f-1e1fd3565fda","ios":"levelo://app?vid=0514e286-05bb-4f6b-982f-1e1fd3565fda"},"vehicle_type_id":"4","last_reported":1705338380,"current_range_meters":26800,"station_id":"ce4bgt12rcd13ifvqcd0","pricing_plan_id":"free"},{"bike_id":"82a27243-119a-406f-b91d-76d37b2d66b6","system_id":"levelo_inurba_marseille","lat":43.314811,"lon":5.373103,"is_reserved":false,"is_disabled":false,"rental_uris":{"android":"levelo://app?vid=82a27243-119a-406f-b91d-76d37b2d66b6","ios":"levelo://app?vid=82a27243-119a-406f-b91d-76d37b2d66b6"},"vehicle_type_id":"4","last_reported":1705338380,"current_range_meters":12000,"station_id":"ce4bgt12rcd13ifvqcd0","pricing_plan_id":"free"},{"bike_id":"41e9f663-e5f3-4ef0-bdaf-81894e2be944","system_id":"levelo_inurba_marseille","lat":43.314811,"lon":5.373104,"is_reserved":false,"is_disabled":false,"rental_uris":{"android":"levelo://app?vid=41e9f663-e5f3-4ef0-bdaf-81894e2be944","ios":"levelo://app?vid=41e9f663-e5f3-4ef0-bdaf-81894e2be944"},"vehicle_type_id":"4","last_reported":1705338380,"current_range_meters":18800,"station_id":"ce4bgt12rcd13ifvqcd0","pricing_plan_id":"free"},{"bike_id":"a18d23e5-6a29-4c79-bd04-9fa45de04e60","system_id":"levelo_inurba_marseille","lat":43.31499,"lon":5.37309,"is_reserved":false,"is_disabled":false,"rental_uris":{"android":"levelo://app?vid=a18d23e5-6a29-4c79-bd04-9fa45de04e60","ios":"levelo://app?vid=a18d23e5-6a29-4c79-bd04-9fa45de04e60"},"vehicle_type_id":"4","last_reported":1705338380,"current_range_meters":31200,"station_id":"ce4bgt12rcd13ifvqcd0","pricing_plan_id":"free"},{"bike_id":"2751fe63-7b8e-4a23-aa70-8680c00ee2b6","system_id":"levelo_inurba_marseille","lat":43.3102,"lon":5.37317,"is_reserved":false,"is_disabled":false,"rental_uris":{"android":"levelo://app?vid=2751fe63-7b8e-4a23-aa70-8680c00ee2b6","ios":"levelo://app?vid=2751fe63-7b8e-4a23-aa70-8680c00ee2b6"},"vehicle_type_id":"4","last_reported":1705338380,"current_range_meters":6800,"station_id":"","pricing_plan_id":"free"},{"bike_id":"21756fff-cd2e-463c-8244-307e26c40654","system_id":"levelo_inurba_marseille","lat":43.309039,"lon":5.371797,"is_reserved":false,"is_disabled":false,"rental_uris":{"android":"levelo://app?vid=21756fff-cd2e-463c-8244-307e26c40654","ios":"levelo://app?vid=21756fff-cd2e-463c-8244-307e26c40654"},"vehicle_type_id":"4","last_reported":1705338380,"current_range_meters":13600,"station_id":"ce4bguh2rcd13ifvqckg","pricing_plan_id":"free"},{"bike_id":"d8259f6e-5091-4c78-8f1a-5e94026bf6eb","system_id":"levelo_inurba_marseille","lat":43.305706,"lon":5.365654,"is_reserved":false,"is_disabled":false,"rental_uris":{"android":"levelo://app?vid=d8259f6e-5091-4c78-8f1a-5e94026bf6eb","ios":"levelo://app?vid=d8259f6e-5091-4c78-8f1a-5e94026bf6eb"},"vehicle_type_id":"4","last_reported":1705338380,"current_range_meters":12400,"station_id":"ce4bgs12rcd13ifvqcag","pricing_plan_id":"free"},{"bike_id":"1804e947-f2fe-4ca2-9c07-40c51fc9a9e7","system_id":"levelo_inurba_marseille","lat":43.313571,"lon":5.384829,"is_reserved":false,"is_disabled":false,"rental_uris":{"android":"levelo://app?vid=1804e947-f2fe-4ca2-9c07-40c51fc9a9e7","ios":"levelo://app?vid=1804e947-f2fe-4ca2-9c07-40c51fc9a9e7"},"vehicle_type_id":"4","last_reported":1705338380,"current_range_meters":26000,"station_id":"ce4bgt92rcd13ifvqcf0","pricing_plan_id":"free"},{"bike_id":"66b4ca92-d725-4ca3-8875-c617977ba785","system_id":"levelo_inurba_marseille","lat":43.311131,"lon":5.377651,"is_reserved":false,"is_disabled":false,"rental_uris":{"android":"levelo://app?vid=66b4ca92-d725-4ca3-8875-c617977ba785","ios":"levelo://app?vid=66b4ca92-d725-4ca3-8875-c617977ba785"},"vehicle_type_id":"4","last_reported":1705338380,"current_range_meters":13200,"station_id":"ce4bgt92rcd13ifvqcg0","pricing_plan_id":"free"},{"bike_id":"d603f887-14bb-4612-be4e-a135d56697d3","system_id":"levelo_inurba_marseille","lat":43.307945,"lon":5.376487,"is_reserved":false,"is_disabled":false,"rental_uris":{"android":"levelo://app?vid=d603f887-14bb-4612-be4e-a135d56697d3","ios":"levelo://app?vid=d603f887-14bb-4612-be4e-a135d56697d3"},"vehicle_type_id":"4","last_reported":1705338380,"current_range_meters":27600,"station_id":"ce4bgv92rcd13ifvqcq0","pricing_plan_id":"free"},{"bike_id":"024b5393-c624-4245-b513-a363969a0a17","system_id":"levelo_inurba_marseille","lat":43.307945,"lon":5.376487,"is_reserved":false,"is_disabled":false,"rental_uris":{"android":"levelo://app?vid=024b5393-c624-4245-b513-a363969a0a17","ios":"levelo://app?vid=024b5393-c624-4245-b513-a363969a0a17"},"vehicle_type_id":"4","last_reported":1705338380,"current_range_meters":5200,"station_id":"ce4bgv92rcd13ifvqcq0","pricing_plan_id":"free"},{"bike_id":"ba9458d4-865a-4e2a-9617-d97dbbf28042","system_id":"levelo_inurba_marseille","lat":43.31709,"lon":5.37738,"is_reserved":false,"is_disabled":false,"rental_uris":{"android":"levelo://app?vid=ba9458d4-865a-4e2a-9617-d97dbbf28042","ios":"levelo://app?vid=ba9458d4-865a-4e2a-9617-d97dbbf28042"},"vehicle_type_id":"4","last_reported":1705338380,"current_range_meters":26000,"station_id":"ce4bgth2rcd13ifvqch0","pricing_plan_id":"free"},{"bike_id":"c3693f65-6d4f-417d-9113-c677ab748206","system_id":"levelo_inurba_marseille","lat":43.317075,"lon":5.377367,"is_reserved":false,"is_disabled":false,"rental_uris":{"android":"levelo://app?vid=c3693f65-6d4f-417d-9113-c677ab748206","ios":"levelo://app?vid=c3693f65-6d4f-417d-9113-c677ab748206"},"vehicle_type_id":"4","last_reported":1705338380,"current_range_meters":25600,"station_id":"ce4bgth2rcd13ifvqch0","pricing_plan_id":"free"},{"bike_id":"95249445-5af6-4e4d-94fe-bd6a68385312","system_id":"levelo_inurba_marseille","lat":43.317018,"lon":5.3777,"is_reserved":false,"is_disabled":false,"rental_uris":{"android":"levelo://app?vid=95249445-5af6-4e4d-94fe-bd6a68385312","ios":"levelo://app?vid=95249445-5af6-4e4d-94fe-bd6a68385312"},"vehicle_type_id":"4","last_reported":1705338380,"current_range_meters":15200,"station_id":"ce4bgth2rcd13ifvqch0","pricing_plan_id":"free"},{"bike_id":"b8f727c3-604e-4b60-b1e6-c0263297cafe","system_id":"levelo_inurba_marseille","lat":43.303046,"lon":5.368981,"is_reserved":false,"is_disabled":false,"rental_uris":{"android":"levelo://app?vid=b8f727c3-604e-4b60-b1e6-c0263297cafe","ios":"levelo://app?vid=b8f727c3-604e-4b60-b1e6-c0263297cafe"},"vehicle_type_id":"4","last_reported":1705338380,"current_range_meters":17200,"station_id":"ce4bgqh2rcd13ifvqc5g","pricing_plan_id":"free"},{"bike_id":"c25b7c05-9c28-4f11-a2f6-9cdba6f6336b","system_id":"levelo_inurba_marseille","lat":43.30304,"lon":5.368987,"is_reserved":false,"is_disabled":false,"rental_uris":{"android":"levelo://app?vid=c25b7c05-9c28-4f11-a2f6-9cdba6f6336b","ios":"levelo://app?vid=c25b7c05-9c28-4f11-a2f6-9cdba6f6336b"},"vehicle_type_id":"4","last_reported":1705338380,"current_range_meters":3600,"station_id":"ce4bgqh2rcd13ifvqc5g","pricing_plan_id":"free"},{"bike_id":"34481da4-989f-464f-a0c0-9cfb5ecfb22f","system_id":"levelo_inurba_marseille","lat":43.313291,"lon":5.396838,"is_reserved":false,"is_disabled":false,"rental_uris":{"android":"levelo://app?vid=34481da4-989f-464f-a0c0-9cfb5ecfb22f","ios":"levelo://app?vid=34481da4-989f-464f-a0c0-9cfb5ecfb22f"},"vehicle_type_id":"4","last_reported":1705338380,"current_range_meters":11200,"station_id":"ce4bgvp2rcd13ifvqcu0","pricing_plan_id":"free"},{"bike_id":"6d2f31ea-c837-4d99-a317-3693bbf8d1ed","system_id":"levelo_inurba_marseille","lat":43.301939,"lon":5.366286,"is_reserved":false,"is_disabled":false,"rental_uris":{"android":"levelo://app?vid=6d2f31ea-c837-4d99-a317-3693bbf8d1ed","ios":"levelo://app?vid=6d2f31ea-c837-4d99-a317-3693bbf8d1ed"},"vehicle_type_id":"4","last_reported":1705338380,"current_range_meters":10800,"station_id":"ce4bgrh2rcd13ifvqc8g","pricing_plan_id":"free"},{"bike_id":"e0ff9e55-3e4c-4a2a-bf4f-0f941eeac16f","system_id":"levelo_inurba_marseille","lat":43.301939,"lon":5.366286,"is_reserved":false,"is_disabled":false,"rental_uris":{"android":"levelo://app?vid=e0ff9e55-3e4c-4a2a-bf4f-0f941eeac16f","ios":"levelo://app?vid=e0ff9e55-3e4c-4a2a-bf4f-0f941eeac16f"},"vehicle_type_id":"4","last_reported":1705338380,"current_range_meters":14400,"station_id":"ce4bgrh2rcd13ifvqc8g","pricing_plan_id":"free"},{"bike_id":"d7771ac8-1988-4e95-bc71-2b8db700d9ac","system_id":"levelo_inurba_marseille","lat":43.301939,"lon":5.366286,"is_reserved":false,"is_disabled":false,"rental_uris":{"android":"levelo://app?vid=d7771ac8-1988-4e95-bc71-2b8db700d9ac","ios":"levelo://app?vid=d7771ac8-1988-4e95-bc71-2b8db700d9ac"},"vehicle_type_id":"4","last_reported":1705338380,"current_range_meters":1600,"station_id":"ce4bgrh2rcd13ifvqc8g","pricing_plan_id":"free"},{"bike_id":"636e3d40-f9d6-45ea-aaca-3a510c4392e0","system_id":"levelo_inurba_marseille","lat":43.301939,"lon":5.366286,"is_reserved":false,"is_disabled":false,"rental_uris":{"android":"levelo://app?vid=636e3d40-f9d6-45ea-aaca-3a510c4392e0","ios":"levelo://app?vid=636e3d40-f9d6-45ea-aaca-3a510c4392e0"},"vehicle_type_id":"4","last_reported":1705338380,"current_range_meters":400,"station_id":"ce4bgrh2rcd13ifvqc8g","pricing_plan_id":"free"},{"bike_id":"0295a273-f460-47a6-bcba-ab1a9db9a24d","system_id":"levelo_inurba_marseille","lat":43.301939,"lon":5.366286,"is_reserved":false,"is_disabled":false,"rental_uris":{"android":"levelo://app?vid=0295a273-f460-47a6-bcba-ab1a9db9a24d","ios":"levelo://app?vid=0295a273-f460-47a6-bcba-ab1a9db9a24d"},"vehicle_type_id":"4","last_reported":1705338380,"current_range_meters":20000,"station_id":"ce4bgrh2rcd13ifvqc8g","pricing_plan_id":"free"},{"bike_id":"20564d4b-c001-451d-a555-a243219cb879","system_id":"levelo_inurba_marseille","lat":43.308012,"lon":5.381511,"is_reserved":false,"is_disabled":false,"rental_uris":{"android":"levelo://app?vid=20564d4b-c001-451d-a555-a243219cb879","ios":"levelo://app?vid=20564d4b-c001-451d-a555-a243219cb879"},"vehicle_type_id":"4","last_reported":1705338380,"current_range_meters":12800,"station_id":"ce4bgt12rcd13ifvqce0","pricing_plan_id":"free"},{"bike_id":"66b06ba0-7ce9-4b0b-bb60-6ff74c604e02","system_id":"levelo_inurba_marseille","lat":43.308012,"lon":5.381511,"is_reserved":false,"is_disabled":false,"rental_uris":{"android":"levelo://app?vid=66b06ba0-7ce9-4b0b-bb60-6ff74c604e02","ios":"levelo://app?vid=66b06ba0-7ce9-4b0b-bb60-6ff74c604e02"},"vehicle_type_id":"4","last_reported":1705338380,"current_range_meters":2400,"station_id":"ce4bgt12rcd13ifvqce0","pricing_plan_id":"free"},{"bike_id":"f96b8bb3-b222-4039-aa38-13fcedcf985f","system_id":"levelo_inurba_marseille","lat":43.308012,"lon":5.381511,"is_reserved":false,"is_disabled":false,"rental_uris":{"android":"levelo://app?vid=f96b8bb3-b222-4039-aa38-13fcedcf985f","ios":"levelo://app?vid=f96b8bb3-b222-4039-aa38-13fcedcf985f"},"vehicle_type_id":"4","last_reported":1705338380,"current_range_meters":26000,"station_id":"ce4bgt12rcd13ifvqce0","pricing_plan_id":"free"},{"bike_id":"dd1c2bc8-7786-4c3f-831f-0b7d654f076b","system_id":"levelo_inurba_marseille","lat":43.304606,"lon":5.379026,"is_reserved":false,"is_disabled":false,"rental_uris":{"android":"levelo://app?vid=dd1c2bc8-7786-4c3f-831f-0b7d654f076b","ios":"levelo://app?vid=dd1c2bc8-7786-4c3f-831f-0b7d654f076b"},"vehicle_type_id":"4","last_reported":1705338380,"current_range_meters":28400,"station_id":"ce4bgup2rcd13ifvqcn0","pricing_plan_id":"free"},{"bike_id":"f84f59aa-9755-4cff-b94f-3aaeb709a4a2","system_id":"levelo_inurba_marseille","lat":43.324771,"lon":5.36557,"is_reserved":false,"is_disabled":false,"rental_uris":{"android":"levelo://app?vid=f84f59aa-9755-4cff-b94f-3aaeb709a4a2","ios":"levelo://app?vid=f84f59aa-9755-4cff-b94f-3aaeb709a4a2"},"vehicle_type_id":"4","last_reported":1705338380,"current_range_meters":14400,"station_id":"ce4bhs12rcd13ifvqhvg","pricing_plan_id":"free"},{"bike_id":"59cd3589-2c96-48e7-971b-4e4599b76c4d","system_id":"levelo_inurba_marseille","lat":43.324771,"lon":5.36557,"is_reserved":false,"is_disabled":false,"rental_uris":{"android":"levelo://app?vid=59cd3589-2c96-48e7-971b-4e4599b76c4d","ios":"levelo://app?vid=59cd3589-2c96-48e7-971b-4e4599b76c4d"},"vehicle_type_id":"4","last_reported":1705338380,"current_range_meters":15200,"station_id":"ce4bhs12rcd13ifvqhvg","pricing_plan_id":"free"},{"bike_id":"fa3ab309-d9a3-4112-a5ab-4b51c48d0b83","system_id":"levelo_inurba_marseille","lat":43.324771,"lon":5.36557,"is_reserved":false,"is_disabled":false,"rental_uris":{"android":"levelo://app?vid=fa3ab309-d9a3-4112-a5ab-4b51c48d0b83","ios":"levelo://app?vid=fa3ab309-d9a3-4112-a5ab-4b51c48d0b83"},"vehicle_type_id":"4","last_reported":1705338380,"current_range_meters":400,"station_id":"ce4bhs12rcd13ifvqhvg","pricing_plan_id":"free"},{"bike_id":"af63ebf0-376c-4b10-ad75-e535dada07f5","system_id":"levelo_inurba_marseille","lat":43.324771,"lon":5.36557,"is_reserved":false,"is_disabled":false,"rental_uris":{"android":"levelo://app?vid=af63ebf0-376c-4b10-ad75-e535dada07f5","ios":"levelo://app?vid=af63ebf0-376c-4b10-ad75-e535dada07f5"},"vehicle_type_id":"4","last_reported":1705338380,"current_range_meters":13200,"station_id":"ce4bhs12rcd13ifvqhvg","pricing_plan_id":"free"},{"bike_id":"401095d5-8356-4130-93d9-1f393892df95","system_id":"levelo_inurba_marseille","lat":43.30276,"lon":5.3772,"is_reserved":false,"is_disabled":false,"rental_uris":{"android":"levelo://app?vid=401095d5-8356-4130-93d9-1f393892df95","ios":"levelo://app?vid=401095d5-8356-4130-93d9-1f393892df95"},"vehicle_type_id":"4","last_reported":1705338380,"current_range_meters":8400,"station_id":"","pricing_plan_id":"free"},{"bike_id":"60af52b6-7dfb-477b-badd-d95f86636527","system_id":"levelo_inurba_marseille","lat":43.30143,"lon":5.37413,"is_reserved":false,"is_disabled":false,"rental_uris":{"android":"levelo://app?vid=60af52b6-7dfb-477b-badd-d95f86636527","ios":"levelo://app?vid=60af52b6-7dfb-477b-badd-d95f86636527"},"vehicle_type_id":"4","last_reported":1705338380,"current_range_meters":5200,"station_id":"ce4bgs92rcd13ifvqcc0","pricing_plan_id":"free"},{"bike_id":"a67a9b5c-56a7-49d9-ad78-42eabee32dd4","system_id":"levelo_inurba_marseille","lat":43.30133,"lon":5.37399,"is_reserved":false,"is_disabled":false,"rental_uris":{"android":"levelo://app?vid=a67a9b5c-56a7-49d9-ad78-42eabee32dd4","ios":"levelo://app?vid=a67a9b5c-56a7-49d9-ad78-42eabee32dd4"},"vehicle_type_id":"4","last_reported":1705338380,"current_range_meters":21200,"station_id":"ce4bgs92rcd13ifvqcc0","pricing_plan_id":"free"},{"bike_id":"8a69b4bb-38b7-4beb-aa2f-45028b2eee05","system_id":"levelo_inurba_marseille","lat":43.31996,"lon":5.38166,"is_reserved":false,"is_disabled":false,"rental_uris":{"android":"levelo://app?vid=8a69b4bb-38b7-4beb-aa2f-45028b2eee05","ios":"levelo://app?vid=8a69b4bb-38b7-4beb-aa2f-45028b2eee05"},"vehicle_type_id":"4","last_reported":1705338380,"current_range_meters":7200,"station_id":"ce4bhr12rcd13ifvqhpg","pricing_plan_id":"free"},{"bike_id":"173bc767-4fa9-4076-a558-efde0cc60f7c","system_id":"levelo_inurba_marseille","lat":43.319935,"lon":5.381699,"is_reserved":false,"is_disabled":false,"rental_uris":{"android":"levelo://app?vid=173bc767-4fa9-4076-a558-efde0cc60f7c","ios":"levelo://app?vid=173bc767-4fa9-4076-a558-efde0cc60f7c"},"vehicle_type_id":"4","last_reported":1705338380,"current_range_meters":16000,"station_id":"ce4bhr12rcd13ifvqhpg","pricing_plan_id":"free"},{"bike_id":"8d394dc3-defd-4892-82d5-93f92cccc786","system_id":"levelo_inurba_marseille","lat":43.313571,"lon":5.384829,"is_reserved":false,"is_disabled":false,"rental_uris":{"android":"levelo://app?vid=8d394dc3-defd-4892-82d5-93f92cccc786","ios":"levelo://app?vid=8d394dc3-defd-4892-82d5-93f92cccc786"},"vehicle_type_id":"4","last_reported":1705338380,"current_range_meters":30400,"station_id":"ce4bgt92rcd13ifvqcf0","pricing_plan_id":"free"},{"bike_id":"ff067333-f810-497a-a4ac-4d50a0b18406","system_id":"levelo_inurba_marseille","lat":43.299222,"lon":5.365554,"is_reserved":false,"is_disabled":false,"rental_uris":{"android":"levelo://app?vid=ff067333-f810-497a-a4ac-4d50a0b18406","ios":"levelo://app?vid=ff067333-f810-497a-a4ac-4d50a0b18406"},"vehicle_type_id":"4","last_reported":1705338380,"current_range_meters":4400,"station_id":"ce4bgm92rcd13ifvqbr0","pricing_plan_id":"free"},{"bike_id":"c09b9f79-4e28-498d-b1a6-b2a7156a97e4","system_id":"levelo_inurba_marseille","lat":43.299222,"lon":5.365554,"is_reserved":false,"is_disabled":false,"rental_uris":{"android":"levelo://app?vid=c09b9f79-4e28-498d-b1a6-b2a7156a97e4","ios":"levelo://app?vid=c09b9f79-4e28-498d-b1a6-b2a7156a97e4"},"vehicle_type_id":"4","last_reported":1705338380,"current_range_meters":5600,"station_id":"ce4bgm92rcd13ifvqbr0","pricing_plan_id":"free"},{"bike_id":"de89197d-6cfb-494a-84bd-8c86060a416d","system_id":"levelo_inurba_marseille","lat":43.299209,"lon":5.365547,"is_reserved":false,"is_disabled":false,"rental_uris":{"android":"levelo://app?vid=de89197d-6cfb-494a-84bd-8c86060a416d","ios":"levelo://app?vid=de89197d-6cfb-494a-84bd-8c86060a416d"},"vehicle_type_id":"4","last_reported":1705338380,"current_range_meters":17200,"station_id":"ce4bgm92rcd13ifvqbr0","pricing_plan_id":"free"},{"bike_id":"62b7145e-5c70-470e-ab5f-e132627e7145","system_id":"levelo_inurba_marseille","lat":43.299222,"lon":5.365554,"is_reserved":false,"is_disabled":false,"rental_uris":{"android":"levelo://app?vid=62b7145e-5c70-470e-ab5f-e132627e7145","ios":"levelo://app?vid=62b7145e-5c70-470e-ab5f-e132627e7145"},"vehicle_type_id":"4","last_reported":1705338380,"current_range_meters":24400,"station_id":"ce4bgm92rcd13ifvqbr0","pricing_plan_id":"free"},{"bike_id":"661408d2-069f-4f8d-afd0-0ac1eb1c351e","system_id":"levelo_inurba_marseille","lat":43.299222,"lon":5.365554,"is_reserved":false,"is_disabled":false,"rental_uris":{"android":"levelo://app?vid=661408d2-069f-4f8d-afd0-0ac1eb1c351e","ios":"levelo://app?vid=661408d2-069f-4f8d-afd0-0ac1eb1c351e"},"vehicle_type_id":"4","last_reported":1705338380,"current_range_meters":5600,"station_id":"ce4bgm92rcd13ifvqbr0","pricing_plan_id":"free"},{"bike_id":"7568b06e-55ca-45b4-b8ac-c39d771126dd","system_id":"levelo_inurba_marseille","lat":43.300136,"lon":5.374417,"is_reserved":false,"is_disabled":false,"rental_uris":{"android":"levelo://app?vid=7568b06e-55ca-45b4-b8ac-c39d771126dd","ios":"levelo://app?vid=7568b06e-55ca-45b4-b8ac-c39d771126dd"},"vehicle_type_id":"4","last_reported":1705338380,"current_range_meters":6400,"station_id":"","pricing_plan_id":"free"},{"bike_id":"dbd94a6a-117d-4fe2-b447-18039072d809","system_id":"levelo_inurba_marseille","lat":43.298433,"lon":5.362774,"is_reserved":false,"is_disabled":false,"rental_uris":{"android":"levelo://app?vid=dbd94a6a-117d-4fe2-b447-18039072d809","ios":"levelo://app?vid=dbd94a6a-117d-4fe2-b447-18039072d809"},"vehicle_type_id":"4","last_reported":1705338380,"current_range_meters":7200,"station_id":"ce4bgpp2rcd13ifvqc3g","pricing_plan_id":"free"},{"bike_id":"67845e15-d3cc-4e0e-943b-8c8662fe26b4","system_id":"levelo_inurba_marseille","lat":43.298433,"lon":5.362774,"is_reserved":false,"is_disabled":false,"rental_uris":{"android":"levelo://app?vid=67845e15-d3cc-4e0e-943b-8c8662fe26b4","ios":"levelo://app?vid=67845e15-d3cc-4e0e-943b-8c8662fe26b4"},"vehicle_type_id":"4","last_reported":1705338380,"current_range_meters":24000,"station_id":"ce4bgpp2rcd13ifvqc3g","pricing_plan_id":"free"},{"bike_id":"88fe1b54-6345-45c0-97b6-d44f31b1caa2","system_id":"levelo_inurba_marseille","lat":43.305364,"lon":5.384119,"is_reserved":false,"is_disabled":false,"rental_uris":{"android":"levelo://app?vid=88fe1b54-6345-45c0-97b6-d44f31b1caa2","ios":"levelo://app?vid=88fe1b54-6345-45c0-97b6-d44f31b1caa2"},"vehicle_type_id":"4","last_reported":1705338380,"current_range_meters":16800,"station_id":"ce4bgg92rcd13ifvqb30","pricing_plan_id":"free"},{"bike_id":"fb1b08f5-582c-476b-aea1-628fdcea161f","system_id":"levelo_inurba_marseille","lat":43.298433,"lon":5.362774,"is_reserved":false,"is_disabled":false,"rental_uris":{"android":"levelo://app?vid=fb1b08f5-582c-476b-aea1-628fdcea161f","ios":"levelo://app?vid=fb1b08f5-582c-476b-aea1-628fdcea161f"},"vehicle_type_id":"4","last_reported":1705338380,"current_range_meters":22800,"station_id":"ce4bgpp2rcd13ifvqc3g","pricing_plan_id":"free"},{"bike_id":"a602e73b-18d1-41ac-9728-cfdca7356bf6","system_id":"levelo_inurba_marseille","lat":43.297639,"lon":5.366759,"is_reserved":false,"is_disabled":false,"rental_uris":{"android":"levelo://app?vid=a602e73b-18d1-41ac-9728-cfdca7356bf6","ios":"levelo://app?vid=a602e73b-18d1-41ac-9728-cfdca7356bf6"},"vehicle_type_id":"4","last_reported":1705338380,"current_range_meters":3600,"station_id":"ce4bgrh2rcd13ifvqc8g","pricing_plan_id":"free"},{"bike_id":"34c8b400-5074-46e3-aa02-f5d274dfaa4f","system_id":"levelo_inurba_marseille","lat":43.322872,"lon":5.382756,"is_reserved":false,"is_disabled":false,"rental_uris":{"android":"levelo://app?vid=34c8b400-5074-46e3-aa02-f5d274dfaa4f","ios":"levelo://app?vid=34c8b400-5074-46e3-aa02-f5d274dfaa4f"},"vehicle_type_id":"4","last_reported":1705338380,"current_range_meters":24000,"station_id":"ce4bhr12rcd13ifvqhqg","pricing_plan_id":"free"},{"bike_id":"0d666429-792d-477e-b03b-8d07152545bb","system_id":"levelo_inurba_marseille","lat":43.322872,"lon":5.382756,"is_reserved":false,"is_disabled":false,"rental_uris":{"android":"levelo://app?vid=0d666429-792d-477e-b03b-8d07152545bb","ios":"levelo://app?vid=0d666429-792d-477e-b03b-8d07152545bb"},"vehicle_type_id":"4","last_reported":1705338380,"current_range_meters":12400,"station_id":"ce4bhr12rcd13ifvqhqg","pricing_plan_id":"free"},{"bike_id":"360d8370-a6d5-4eeb-9fdc-87624eb21c71","system_id":"levelo_inurba_marseille","lat":43.322872,"lon":5.382756,"is_reserved":false,"is_disabled":false,"rental_uris":{"android":"levelo://app?vid=360d8370-a6d5-4eeb-9fdc-87624eb21c71","ios":"levelo://app?vid=360d8370-a6d5-4eeb-9fdc-87624eb21c71"},"vehicle_type_id":"4","last_reported":1705338380,"current_range_meters":8800,"station_id":"ce4bhr12rcd13ifvqhqg","pricing_plan_id":"free"},{"bike_id":"9c1b8a19-45ab-4b8b-ad67-e93f349439a6","system_id":"levelo_inurba_marseille","lat":43.322872,"lon":5.382756,"is_reserved":false,"is_disabled":false,"rental_uris":{"android":"levelo://app?vid=9c1b8a19-45ab-4b8b-ad67-e93f349439a6","ios":"levelo://app?vid=9c1b8a19-45ab-4b8b-ad67-e93f349439a6"},"vehicle_type_id":"4","last_reported":1705338380,"current_range_meters":26000,"station_id":"ce4bhr12rcd13ifvqhqg","pricing_plan_id":"free"},{"bike_id":"717847e4-a784-40f8-a1bf-5a94b6cabac5","system_id":"levelo_inurba_marseille","lat":43.322872,"lon":5.382756,"is_reserved":false,"is_disabled":false,"rental_uris":{"android":"levelo://app?vid=717847e4-a784-40f8-a1bf-5a94b6cabac5","ios":"levelo://app?vid=717847e4-a784-40f8-a1bf-5a94b6cabac5"},"vehicle_type_id":"4","last_reported":1705338380,"current_range_meters":16400,"station_id":"ce4bhr12rcd13ifvqhqg","pricing_plan_id":"free"},{"bike_id":"034cc7ad-d6a8-4154-a3ea-ced9b23eb5aa","system_id":"levelo_inurba_marseille","lat":43.322872,"lon":5.382756,"is_reserved":false,"is_disabled":false,"rental_uris":{"android":"levelo://app?vid=034cc7ad-d6a8-4154-a3ea-ced9b23eb5aa","ios":"levelo://app?vid=034cc7ad-d6a8-4154-a3ea-ced9b23eb5aa"},"vehicle_type_id":"4","last_reported":1705338380,"current_range_meters":24800,"station_id":"ce4bhr12rcd13ifvqhqg","pricing_plan_id":"free"},{"bike_id":"3a46592c-9142-46ce-8556-a80e672a6412","system_id":"levelo_inurba_marseille","lat":43.32289,"lon":5.38272,"is_reserved":false,"is_disabled":false,"rental_uris":{"android":"levelo://app?vid=3a46592c-9142-46ce-8556-a80e672a6412","ios":"levelo://app?vid=3a46592c-9142-46ce-8556-a80e672a6412"},"vehicle_type_id":"4","last_reported":1705338380,"current_range_meters":4400,"station_id":"ce4bhr12rcd13ifvqhqg","pricing_plan_id":"free"},{"bike_id":"e4cad359-bf16-42a6-b7ad-19b9dba9592b","system_id":"levelo_inurba_marseille","lat":43.322909,"lon":5.382739,"is_reserved":false,"is_disabled":false,"rental_uris":{"android":"levelo://app?vid=e4cad359-bf16-42a6-b7ad-19b9dba9592b","ios":"levelo://app?vid=e4cad359-bf16-42a6-b7ad-19b9dba9592b"},"vehicle_type_id":"4","last_reported":1705338380,"current_range_meters":15200,"station_id":"ce4bhr12rcd13ifvqhqg","pricing_plan_id":"free"},{"bike_id":"54c016cb-8c77-4e50-9390-12cf4cc10ed1","system_id":"levelo_inurba_marseille","lat":43.328205,"lon":5.366863,"is_reserved":false,"is_disabled":false,"rental_uris":{"android":"levelo://app?vid=54c016cb-8c77-4e50-9390-12cf4cc10ed1","ios":"levelo://app?vid=54c016cb-8c77-4e50-9390-12cf4cc10ed1"},"vehicle_type_id":"4","last_reported":1705338380,"current_range_meters":31200,"station_id":"ce4bhs92rcd13ifvqi0g","pricing_plan_id":"free"},{"bike_id":"be5c14c2-d069-4824-b2b4-323fba6ab1b5","system_id":"levelo_inurba_marseille","lat":43.32822,"lon":5.3668,"is_reserved":false,"is_disabled":false,"rental_uris":{"android":"levelo://app?vid=be5c14c2-d069-4824-b2b4-323fba6ab1b5","ios":"levelo://app?vid=be5c14c2-d069-4824-b2b4-323fba6ab1b5"},"vehicle_type_id":"4","last_reported":1705338380,"current_range_meters":13600,"station_id":"ce4bhs92rcd13ifvqi0g","pricing_plan_id":"free"},{"bike_id":"ea0178f3-2c6b-4af6-b062-91b0b8dde1df","system_id":"levelo_inurba_marseille","lat":43.32824,"lon":5.36687,"is_reserved":false,"is_disabled":false,"rental_uris":{"android":"levelo://app?vid=ea0178f3-2c6b-4af6-b062-91b0b8dde1df","ios":"levelo://app?vid=ea0178f3-2c6b-4af6-b062-91b0b8dde1df"},"vehicle_type_id":"4","last_reported":1705338380,"current_range_meters":16000,"station_id":"ce4bhs92rcd13ifvqi0g","pricing_plan_id":"free"},{"bike_id":"9e10fca8-afff-413a-a971-97b89741c75b","system_id":"levelo_inurba_marseille","lat":43.32825,"lon":5.36688,"is_reserved":false,"is_disabled":false,"rental_uris":{"android":"levelo://app?vid=9e10fca8-afff-413a-a971-97b89741c75b","ios":"levelo://app?vid=9e10fca8-afff-413a-a971-97b89741c75b"},"vehicle_type_id":"4","last_reported":1705338380,"current_range_meters":18000,"station_id":"ce4bhs92rcd13ifvqi0g","pricing_plan_id":"free"},{"bike_id":"8463d0da-e03a-4a02-8a84-4dd7b137838e","system_id":"levelo_inurba_marseille","lat":43.32827,"lon":5.36689,"is_reserved":false,"is_disabled":false,"rental_uris":{"android":"levelo://app?vid=8463d0da-e03a-4a02-8a84-4dd7b137838e","ios":"levelo://app?vid=8463d0da-e03a-4a02-8a84-4dd7b137838e"},"vehicle_type_id":"4","last_reported":1705338380,"current_range_meters":29200,"station_id":"ce4bhs92rcd13ifvqi0g","pricing_plan_id":"free"},{"bike_id":"d6e71fc0-c662-46a4-9ce2-a4da97cef68b","system_id":"levelo_inurba_marseille","lat":43.32827,"lon":5.36676,"is_reserved":false,"is_disabled":false,"rental_uris":{"android":"levelo://app?vid=d6e71fc0-c662-46a4-9ce2-a4da97cef68b","ios":"levelo://app?vid=d6e71fc0-c662-46a4-9ce2-a4da97cef68b"},"vehicle_type_id":"4","last_reported":1705338380,"current_range_meters":24000,"station_id":"ce4bhs92rcd13ifvqi0g","pricing_plan_id":"free"},{"bike_id":"947a5c0b-0299-4cd2-aecd-5f351114aaf8","system_id":"levelo_inurba_marseille","lat":43.328274,"lon":5.366775,"is_reserved":false,"is_disabled":false,"rental_uris":{"android":"levelo://app?vid=947a5c0b-0299-4cd2-aecd-5f351114aaf8","ios":"levelo://app?vid=947a5c0b-0299-4cd2-aecd-5f351114aaf8"},"vehicle_type_id":"4","last_reported":1705338380,"current_range_meters":30000,"station_id":"ce4bhs92rcd13ifvqi0g","pricing_plan_id":"free"},{"bike_id":"b47ac642-666b-4fa3-9c1d-748c98ce0511","system_id":"levelo_inurba_marseille","lat":43.328279,"lon":5.366805,"is_reserved":false,"is_disabled":false,"rental_uris":{"android":"levelo://app?vid=b47ac642-666b-4fa3-9c1d-748c98ce0511","ios":"levelo://app?vid=b47ac642-666b-4fa3-9c1d-748c98ce0511"},"vehicle_type_id":"4","last_reported":1705338380,"current_range_meters":19200,"station_id":"ce4bhs92rcd13ifvqi0g","pricing_plan_id":"free"},{"bike_id":"317be026-d265-4964-8b9f-14b31317b61c","system_id":"levelo_inurba_marseille","lat":43.32828,"lon":5.36687,"is_reserved":false,"is_disabled":false,"rental_uris":{"android":"levelo://app?vid=317be026-d265-4964-8b9f-14b31317b61c","ios":"levelo://app?vid=317be026-d265-4964-8b9f-14b31317b61c"},"vehicle_type_id":"4","last_reported":1705338380,"current_range_meters":13200,"station_id":"ce4bhs92rcd13ifvqi0g","pricing_plan_id":"free"},{"bike_id":"85cedcff-9e9a-415d-8415-195178ea3cb7","system_id":"levelo_inurba_marseille","lat":43.32828,"lon":5.36675,"is_reserved":false,"is_disabled":false,"rental_uris":{"android":"levelo://app?vid=85cedcff-9e9a-415d-8415-195178ea3cb7","ios":"levelo://app?vid=85cedcff-9e9a-415d-8415-195178ea3cb7"},"vehicle_type_id":"4","last_reported":1705338380,"current_range_meters":28800,"station_id":"ce4bhs92rcd13ifvqi0g","pricing_plan_id":"free"},{"bike_id":"1782ad4d-7cbc-4ac0-af82-b65688e9d34c","system_id":"levelo_inurba_marseille","lat":43.328286,"lon":5.366929,"is_reserved":false,"is_disabled":false,"rental_uris":{"android":"levelo://app?vid=1782ad4d-7cbc-4ac0-af82-b65688e9d34c","ios":"levelo://app?vid=1782ad4d-7cbc-4ac0-af82-b65688e9d34c"},"vehicle_type_id":"4","last_reported":1705338380,"current_range_meters":31200,"station_id":"ce4bhs92rcd13ifvqi0g","pricing_plan_id":"free"},{"bike_id":"09621f87-561a-4138-9bcf-5568c59432a9","system_id":"levelo_inurba_marseille","lat":43.32829,"lon":5.36679,"is_reserved":false,"is_disabled":false,"rental_uris":{"android":"levelo://app?vid=09621f87-561a-4138-9bcf-5568c59432a9","ios":"levelo://app?vid=09621f87-561a-4138-9bcf-5568c59432a9"},"vehicle_type_id":"4","last_reported":1705338380,"current_range_meters":9600,"station_id":"ce4bhs92rcd13ifvqi0g","pricing_plan_id":"free"},{"bike_id":"6b4ea496-3016-42db-af64-ba8beb6e73fc","system_id":"levelo_inurba_marseille","lat":43.328371,"lon":5.366909,"is_reserved":false,"is_disabled":false,"rental_uris":{"android":"levelo://app?vid=6b4ea496-3016-42db-af64-ba8beb6e73fc","ios":"levelo://app?vid=6b4ea496-3016-42db-af64-ba8beb6e73fc"},"vehicle_type_id":"4","last_reported":1705338380,"current_range_meters":31200,"station_id":"ce4bhs92rcd13ifvqi0g","pricing_plan_id":"free"},{"bike_id":"de8453f6-af4c-4f9d-91f4-6c1cc39bd96e","system_id":"levelo_inurba_marseille","lat":43.3283,"lon":5.36688,"is_reserved":false,"is_disabled":false,"rental_uris":{"android":"levelo://app?vid=de8453f6-af4c-4f9d-91f4-6c1cc39bd96e","ios":"levelo://app?vid=de8453f6-af4c-4f9d-91f4-6c1cc39bd96e"},"vehicle_type_id":"4","last_reported":1705338380,"current_range_meters":26000,"station_id":"ce4bhs92rcd13ifvqi0g","pricing_plan_id":"free"},{"bike_id":"eb82efee-7e46-4cef-a643-d731882b95f4","system_id":"levelo_inurba_marseille","lat":43.32831,"lon":5.36678,"is_reserved":false,"is_disabled":false,"rental_uris":{"android":"levelo://app?vid=eb82efee-7e46-4cef-a643-d731882b95f4","ios":"levelo://app?vid=eb82efee-7e46-4cef-a643-d731882b95f4"},"vehicle_type_id":"4","last_reported":1705338380,"current_range_meters":18400,"station_id":"ce4bhs92rcd13ifvqi0g","pricing_plan_id":"free"},{"bike_id":"9949c318-cd33-4e7f-93e5-9b978c57ddec","system_id":"levelo_inurba_marseille","lat":43.32832,"lon":5.36676,"is_reserved":false,"is_disabled":false,"rental_uris":{"android":"levelo://app?vid=9949c318-cd33-4e7f-93e5-9b978c57ddec","ios":"levelo://app?vid=9949c318-cd33-4e7f-93e5-9b978c57ddec"},"vehicle_type_id":"4","last_reported":1705338380,"current_range_meters":29200,"station_id":"ce4bhs92rcd13ifvqi0g","pricing_plan_id":"free"},{"bike_id":"64c3f387-35e4-4aaf-8a00-356e575aa7ae","system_id":"levelo_inurba_marseille","lat":43.297163,"lon":5.365866,"is_reserved":false,"is_disabled":false,"rental_uris":{"android":"levelo://app?vid=64c3f387-35e4-4aaf-8a00-356e575aa7ae","ios":"levelo://app?vid=64c3f387-35e4-4aaf-8a00-356e575aa7ae"},"vehicle_type_id":"4","last_reported":1705338380,"current_range_meters":20800,"station_id":"ce4bgn12rcd13ifvqbt0","pricing_plan_id":"free"},{"bike_id":"d6ffc100-b75a-4ec5-bd31-f537672cea7e","system_id":"levelo_inurba_marseille","lat":43.297163,"lon":5.365866,"is_reserved":false,"is_disabled":false,"rental_uris":{"android":"levelo://app?vid=d6ffc100-b75a-4ec5-bd31-f537672cea7e","ios":"levelo://app?vid=d6ffc100-b75a-4ec5-bd31-f537672cea7e"},"vehicle_type_id":"4","last_reported":1705338380,"current_range_meters":11200,"station_id":"ce4bgn12rcd13ifvqbt0","pricing_plan_id":"free"},{"bike_id":"88638e12-da12-4596-b7e2-600ab2f62219","system_id":"levelo_inurba_marseille","lat":43.328336,"lon":5.366856,"is_reserved":false,"is_disabled":false,"rental_uris":{"android":"levelo://app?vid=88638e12-da12-4596-b7e2-600ab2f62219","ios":"levelo://app?vid=88638e12-da12-4596-b7e2-600ab2f62219"},"vehicle_type_id":"4","last_reported":1705338380,"current_range_meters":18800,"station_id":"ce4bhs92rcd13ifvqi0g","pricing_plan_id":"free"},{"bike_id":"c17c074b-d152-4390-be91-e6a6ee3d80d7","system_id":"levelo_inurba_marseille","lat":43.328338,"lon":5.366777,"is_reserved":false,"is_disabled":false,"rental_uris":{"android":"levelo://app?vid=c17c074b-d152-4390-be91-e6a6ee3d80d7","ios":"levelo://app?vid=c17c074b-d152-4390-be91-e6a6ee3d80d7"},"vehicle_type_id":"4","last_reported":1705338380,"current_range_meters":25200,"station_id":"ce4bhs92rcd13ifvqi0g","pricing_plan_id":"free"},{"bike_id":"0bc9666f-407a-45ee-a647-9e7db5d81a5c","system_id":"levelo_inurba_marseille","lat":43.297163,"lon":5.365866,"is_reserved":false,"is_disabled":false,"rental_uris":{"android":"levelo://app?vid=0bc9666f-407a-45ee-a647-9e7db5d81a5c","ios":"levelo://app?vid=0bc9666f-407a-45ee-a647-9e7db5d81a5c"},"vehicle_type_id":"4","last_reported":1705338380,"current_range_meters":14800,"station_id":"ce4bgn12rcd13ifvqbt0","pricing_plan_id":"free"},{"bike_id":"00240506-f51a-4e5e-8e4b-da47fbef48ec","system_id":"levelo_inurba_marseille","lat":43.32836,"lon":5.36674,"is_reserved":false,"is_disabled":false,"rental_uris":{"android":"levelo://app?vid=00240506-f51a-4e5e-8e4b-da47fbef48ec","ios":"levelo://app?vid=00240506-f51a-4e5e-8e4b-da47fbef48ec"},"vehicle_type_id":"4","last_reported":1705338380,"current_range_meters":31200,"station_id":"ce4bhs92rcd13ifvqi0g","pricing_plan_id":"free"},{"bike_id":"42f5b626-5e71-456b-8041-5da45f31b04b","system_id":"levelo_inurba_marseille","lat":43.297163,"lon":5.365866,"is_reserved":false,"is_disabled":false,"rental_uris":{"android":"levelo://app?vid=42f5b626-5e71-456b-8041-5da45f31b04b","ios":"levelo://app?vid=42f5b626-5e71-456b-8041-5da45f31b04b"},"vehicle_type_id":"4","last_reported":1705338380,"current_range_meters":28800,"station_id":"ce4bgn12rcd13ifvqbt0","pricing_plan_id":"free"},{"bike_id":"da093ae5-1f9b-4c78-aaf1-9f0fe1705d47","system_id":"levelo_inurba_marseille","lat":43.29712,"lon":5.36611,"is_reserved":false,"is_disabled":false,"rental_uris":{"android":"levelo://app?vid=da093ae5-1f9b-4c78-aaf1-9f0fe1705d47","ios":"levelo://app?vid=da093ae5-1f9b-4c78-aaf1-9f0fe1705d47"},"vehicle_type_id":"4","last_reported":1705338380,"current_range_meters":12000,"station_id":"ce4bgn12rcd13ifvqbt0","pricing_plan_id":"free"},{"bike_id":"38082c03-fac1-44d3-a79f-5142b4a113a9","system_id":"levelo_inurba_marseille","lat":43.328373,"lon":5.366902,"is_reserved":false,"is_disabled":false,"rental_uris":{"android":"levelo://app?vid=38082c03-fac1-44d3-a79f-5142b4a113a9","ios":"levelo://app?vid=38082c03-fac1-44d3-a79f-5142b4a113a9"},"vehicle_type_id":"4","last_reported":1705338380,"current_range_meters":30400,"station_id":"ce4bhs92rcd13ifvqi0g","pricing_plan_id":"free"},{"bike_id":"7c960355-bc65-4ce2-b191-b1c17561f2d9","system_id":"levelo_inurba_marseille","lat":43.297163,"lon":5.365866,"is_reserved":false,"is_disabled":false,"rental_uris":{"android":"levelo://app?vid=7c960355-bc65-4ce2-b191-b1c17561f2d9","ios":"levelo://app?vid=7c960355-bc65-4ce2-b191-b1c17561f2d9"},"vehicle_type_id":"4","last_reported":1705338380,"current_range_meters":22400,"station_id":"ce4bgn12rcd13ifvqbt0","pricing_plan_id":"free"},{"bike_id":"3bf0cd0d-54d2-407b-809a-766378451449","system_id":"levelo_inurba_marseille","lat":43.297163,"lon":5.365866,"is_reserved":false,"is_disabled":false,"rental_uris":{"android":"levelo://app?vid=3bf0cd0d-54d2-407b-809a-766378451449","ios":"levelo://app?vid=3bf0cd0d-54d2-407b-809a-766378451449"},"vehicle_type_id":"4","last_reported":1705338380,"current_range_meters":15200,"station_id":"ce4bgn12rcd13ifvqbt0","pricing_plan_id":"free"},{"bike_id":"d07e8a63-7e92-4df2-9ba6-cd2efc8aa597","system_id":"levelo_inurba_marseille","lat":43.297163,"lon":5.365866,"is_reserved":false,"is_disabled":false,"rental_uris":{"android":"levelo://app?vid=d07e8a63-7e92-4df2-9ba6-cd2efc8aa597","ios":"levelo://app?vid=d07e8a63-7e92-4df2-9ba6-cd2efc8aa597"},"vehicle_type_id":"4","last_reported":1705338380,"current_range_meters":22000,"station_id":"ce4bgn12rcd13ifvqbt0","pricing_plan_id":"free"},{"bike_id":"5b531715-f859-4ce7-b4d9-97b3cbbc54d4","system_id":"levelo_inurba_marseille","lat":43.29708,"lon":5.36605,"is_reserved":false,"is_disabled":false,"rental_uris":{"android":"levelo://app?vid=5b531715-f859-4ce7-b4d9-97b3cbbc54d4","ios":"levelo://app?vid=5b531715-f859-4ce7-b4d9-97b3cbbc54d4"},"vehicle_type_id":"4","last_reported":1705338380,"current_range_meters":22000,"station_id":"ce4bgn12rcd13ifvqbt0","pricing_plan_id":"free"},{"bike_id":"b7f19553-caf3-42e9-85f2-de3629dabc8e","system_id":"levelo_inurba_marseille","lat":43.328415,"lon":5.366742,"is_reserved":false,"is_disabled":false,"rental_uris":{"android":"levelo://app?vid=b7f19553-caf3-42e9-85f2-de3629dabc8e","ios":"levelo://app?vid=b7f19553-caf3-42e9-85f2-de3629dabc8e"},"vehicle_type_id":"4","last_reported":1705338380,"current_range_meters":28000,"station_id":"ce4bhs92rcd13ifvqi0g","pricing_plan_id":"free"},{"bike_id":"54ecc17b-7683-4623-a502-4bc336d1ef8a","system_id":"levelo_inurba_marseille","lat":43.297163,"lon":5.365866,"is_reserved":false,"is_disabled":false,"rental_uris":{"android":"levelo://app?vid=54ecc17b-7683-4623-a502-4bc336d1ef8a","ios":"levelo://app?vid=54ecc17b-7683-4623-a502-4bc336d1ef8a"},"vehicle_type_id":"4","last_reported":1705338380,"current_range_meters":14800,"station_id":"ce4bgn12rcd13ifvqbt0","pricing_plan_id":"free"},{"bike_id":"a07aca90-d738-4a9c-9c07-8b0897ad99ba","system_id":"levelo_inurba_marseille","lat":43.297163,"lon":5.365866,"is_reserved":false,"is_disabled":false,"rental_uris":{"android":"levelo://app?vid=a07aca90-d738-4a9c-9c07-8b0897ad99ba","ios":"levelo://app?vid=a07aca90-d738-4a9c-9c07-8b0897ad99ba"},"vehicle_type_id":"4","last_reported":1705338380,"current_range_meters":5600,"station_id":"ce4bgn12rcd13ifvqbt0","pricing_plan_id":"free"},{"bike_id":"641739e6-19de-47df-9491-35da26c3c9da","system_id":"levelo_inurba_marseille","lat":43.328371,"lon":5.366909,"is_reserved":false,"is_disabled":false,"rental_uris":{"android":"levelo://app?vid=641739e6-19de-47df-9491-35da26c3c9da","ios":"levelo://app?vid=641739e6-19de-47df-9491-35da26c3c9da"},"vehicle_type_id":"4","last_reported":1705338380,"current_range_meters":11600,"station_id":"ce4bhs92rcd13ifvqi0g","pricing_plan_id":"free"},{"bike_id":"cc249608-6a43-41d8-a019-2a9e52c7e346","system_id":"levelo_inurba_marseille","lat":43.297163,"lon":5.365866,"is_reserved":false,"is_disabled":false,"rental_uris":{"android":"levelo://app?vid=cc249608-6a43-41d8-a019-2a9e52c7e346","ios":"levelo://app?vid=cc249608-6a43-41d8-a019-2a9e52c7e346"},"vehicle_type_id":"4","last_reported":1705338380,"current_range_meters":5200,"station_id":"ce4bgn12rcd13ifvqbt0","pricing_plan_id":"free"},{"bike_id":"d7853949-ae2f-4022-b304-b24f911f3140","system_id":"levelo_inurba_marseille","lat":43.297163,"lon":5.365866,"is_reserved":false,"is_disabled":false,"rental_uris":{"android":"levelo://app?vid=d7853949-ae2f-4022-b304-b24f911f3140","ios":"levelo://app?vid=d7853949-ae2f-4022-b304-b24f911f3140"},"vehicle_type_id":"4","last_reported":1705338380,"current_range_meters":18800,"station_id":"ce4bgn12rcd13ifvqbt0","pricing_plan_id":"free"},{"bike_id":"d3518af8-8637-4123-951d-10586aba6c9d","system_id":"levelo_inurba_marseille","lat":43.29573,"lon":5.367355,"is_reserved":false,"is_disabled":false,"rental_uris":{"android":"levelo://app?vid=d3518af8-8637-4123-951d-10586aba6c9d","ios":"levelo://app?vid=d3518af8-8637-4123-951d-10586aba6c9d"},"vehicle_type_id":"4","last_reported":1705338380,"current_range_meters":25200,"station_id":"ce4bgph2rcd13ifvqc2g","pricing_plan_id":"free"},{"bike_id":"500d9a30-be43-47dc-92e0-ef276180c838","system_id":"levelo_inurba_marseille","lat":43.29573,"lon":5.367355,"is_reserved":false,"is_disabled":false,"rental_uris":{"android":"levelo://app?vid=500d9a30-be43-47dc-92e0-ef276180c838","ios":"levelo://app?vid=500d9a30-be43-47dc-92e0-ef276180c838"},"vehicle_type_id":"4","last_reported":1705338380,"current_range_meters":30800,"station_id":"ce4bgph2rcd13ifvqc2g","pricing_plan_id":"free"},{"bike_id":"a9a91145-8576-4095-96f0-f91382b0cf5d","system_id":"levelo_inurba_marseille","lat":43.29573,"lon":5.367355,"is_reserved":false,"is_disabled":false,"rental_uris":{"android":"levelo://app?vid=a9a91145-8576-4095-96f0-f91382b0cf5d","ios":"levelo://app?vid=a9a91145-8576-4095-96f0-f91382b0cf5d"},"vehicle_type_id":"4","last_reported":1705338380,"current_range_meters":0,"station_id":"ce4bgph2rcd13ifvqc2g","pricing_plan_id":"free"},{"bike_id":"43c8de84-6393-4974-980c-d6166e05c22e","system_id":"levelo_inurba_marseille","lat":43.29573,"lon":5.367355,"is_reserved":false,"is_disabled":false,"rental_uris":{"android":"levelo://app?vid=43c8de84-6393-4974-980c-d6166e05c22e","ios":"levelo://app?vid=43c8de84-6393-4974-980c-d6166e05c22e"},"vehicle_type_id":"4","last_reported":1705338380,"current_range_meters":25600,"station_id":"ce4bgph2rcd13ifvqc2g","pricing_plan_id":"free"},{"bike_id":"da4ba5e5-bed9-47b3-af86-2c8c19f1d5cb","system_id":"levelo_inurba_marseille","lat":43.29573,"lon":5.367355,"is_reserved":false,"is_disabled":false,"rental_uris":{"android":"levelo://app?vid=da4ba5e5-bed9-47b3-af86-2c8c19f1d5cb","ios":"levelo://app?vid=da4ba5e5-bed9-47b3-af86-2c8c19f1d5cb"},"vehicle_type_id":"4","last_reported":1705338380,"current_range_meters":28000,"station_id":"ce4bgph2rcd13ifvqc2g","pricing_plan_id":"free"},{"bike_id":"562acfc5-4d3c-4812-b34d-90d071f1477a","system_id":"levelo_inurba_marseille","lat":43.29753,"lon":5.37711,"is_reserved":false,"is_disabled":false,"rental_uris":{"android":"levelo://app?vid=562acfc5-4d3c-4812-b34d-90d071f1477a","ios":"levelo://app?vid=562acfc5-4d3c-4812-b34d-90d071f1477a"},"vehicle_type_id":"4","last_reported":1705338380,"current_range_meters":12800,"station_id":"","pricing_plan_id":"free"},{"bike_id":"fce065e3-750c-4222-a6fa-2416519b407d","system_id":"levelo_inurba_marseille","lat":43.29573,"lon":5.367355,"is_reserved":false,"is_disabled":false,"rental_uris":{"android":"levelo://app?vid=fce065e3-750c-4222-a6fa-2416519b407d","ios":"levelo://app?vid=fce065e3-750c-4222-a6fa-2416519b407d"},"vehicle_type_id":"4","last_reported":1705338380,"current_range_meters":26800,"station_id":"ce4bgph2rcd13ifvqc2g","pricing_plan_id":"free"},{"bike_id":"0257f64c-66d4-4425-9f9e-f3200ecb6ee3","system_id":"levelo_inurba_marseille","lat":43.29573,"lon":5.367355,"is_reserved":false,"is_disabled":false,"rental_uris":{"android":"levelo://app?vid=0257f64c-66d4-4425-9f9e-f3200ecb6ee3","ios":"levelo://app?vid=0257f64c-66d4-4425-9f9e-f3200ecb6ee3"},"vehicle_type_id":"4","last_reported":1705338380,"current_range_meters":31200,"station_id":"ce4bgph2rcd13ifvqc2g","pricing_plan_id":"free"},{"bike_id":"23c7e1af-f8be-4bf4-8c62-2aa14a515801","system_id":"levelo_inurba_marseille","lat":43.29573,"lon":5.367355,"is_reserved":false,"is_disabled":false,"rental_uris":{"android":"levelo://app?vid=23c7e1af-f8be-4bf4-8c62-2aa14a515801","ios":"levelo://app?vid=23c7e1af-f8be-4bf4-8c62-2aa14a515801"},"vehicle_type_id":"4","last_reported":1705338380,"current_range_meters":23200,"station_id":"ce4bgph2rcd13ifvqc2g","pricing_plan_id":"free"},{"bike_id":"3ea8bff3-f72c-4161-aada-9fa46ec1b47d","system_id":"levelo_inurba_marseille","lat":43.29573,"lon":5.367355,"is_reserved":false,"is_disabled":false,"rental_uris":{"android":"levelo://app?vid=3ea8bff3-f72c-4161-aada-9fa46ec1b47d","ios":"levelo://app?vid=3ea8bff3-f72c-4161-aada-9fa46ec1b47d"},"vehicle_type_id":"4","last_reported":1705338380,"current_range_meters":6800,"station_id":"ce4bgph2rcd13ifvqc2g","pricing_plan_id":"free"},{"bike_id":"d93778a3-e7c5-4aab-97b7-b2c927b2178b","system_id":"levelo_inurba_marseille","lat":43.29573,"lon":5.367355,"is_reserved":false,"is_disabled":false,"rental_uris":{"android":"levelo://app?vid=d93778a3-e7c5-4aab-97b7-b2c927b2178b","ios":"levelo://app?vid=d93778a3-e7c5-4aab-97b7-b2c927b2178b"},"vehicle_type_id":"4","last_reported":1705338380,"current_range_meters":20400,"station_id":"ce4bgph2rcd13ifvqc2g","pricing_plan_id":"free"},{"bike_id":"61679428-0450-4252-b30f-6262395b3a0a","system_id":"levelo_inurba_marseille","lat":43.309589,"lon":5.390258,"is_reserved":false,"is_disabled":false,"rental_uris":{"android":"levelo://app?vid=61679428-0450-4252-b30f-6262395b3a0a","ios":"levelo://app?vid=61679428-0450-4252-b30f-6262395b3a0a"},"vehicle_type_id":"4","last_reported":1705338380,"current_range_meters":4000,"station_id":"ce4bgup2rcd13ifvqco0","pricing_plan_id":"free"},{"bike_id":"ca837b07-86d7-42f7-a045-e3da06473611","system_id":"levelo_inurba_marseille","lat":43.31753,"lon":5.39001,"is_reserved":false,"is_disabled":false,"rental_uris":{"android":"levelo://app?vid=ca837b07-86d7-42f7-a045-e3da06473611","ios":"levelo://app?vid=ca837b07-86d7-42f7-a045-e3da06473611"},"vehicle_type_id":"4","last_reported":1705338380,"current_range_meters":3600,"station_id":"ce4bhqp2rcd13ifvqhng","pricing_plan_id":"free"},{"bike_id":"e99e594e-c50f-4f52-a4e3-6d5dadda6d66","system_id":"levelo_inurba_marseille","lat":43.298037,"lon":5.381066,"is_reserved":false,"is_disabled":false,"rental_uris":{"android":"levelo://app?vid=e99e594e-c50f-4f52-a4e3-6d5dadda6d66","ios":"levelo://app?vid=e99e594e-c50f-4f52-a4e3-6d5dadda6d66"},"vehicle_type_id":"4","last_reported":1705338380,"current_range_meters":16000,"station_id":"ce4bgip2rcd13ifvqbb0","pricing_plan_id":"free"},{"bike_id":"2a72140c-3f97-44f3-a9b5-4616f6e585e9","system_id":"levelo_inurba_marseille","lat":43.304274,"lon":5.388873,"is_reserved":false,"is_disabled":false,"rental_uris":{"android":"levelo://app?vid=2a72140c-3f97-44f3-a9b5-4616f6e585e9","ios":"levelo://app?vid=2a72140c-3f97-44f3-a9b5-4616f6e585e9"},"vehicle_type_id":"4","last_reported":1705338380,"current_range_meters":19600,"station_id":"ce4bgk12rcd13ifvqbi0","pricing_plan_id":"free"},{"bike_id":"882db8c4-a5f2-411e-ac36-0fafbe69b993","system_id":"levelo_inurba_marseille","lat":43.304274,"lon":5.388873,"is_reserved":false,"is_disabled":false,"rental_uris":{"android":"levelo://app?vid=882db8c4-a5f2-411e-ac36-0fafbe69b993","ios":"levelo://app?vid=882db8c4-a5f2-411e-ac36-0fafbe69b993"},"vehicle_type_id":"4","last_reported":1705338380,"current_range_meters":0,"station_id":"ce4bgk12rcd13ifvqbi0","pricing_plan_id":"free"},{"bike_id":"7ac6d7d1-b6b0-4824-a0b5-9ddb4445f1fe","system_id":"levelo_inurba_marseille","lat":43.304274,"lon":5.388873,"is_reserved":false,"is_disabled":false,"rental_uris":{"android":"levelo://app?vid=7ac6d7d1-b6b0-4824-a0b5-9ddb4445f1fe","ios":"levelo://app?vid=7ac6d7d1-b6b0-4824-a0b5-9ddb4445f1fe"},"vehicle_type_id":"4","last_reported":1705338380,"current_range_meters":13200,"station_id":"ce4bgk12rcd13ifvqbi0","pricing_plan_id":"free"},{"bike_id":"ec7449f7-3677-4aeb-8de9-5f8411ec7494","system_id":"levelo_inurba_marseille","lat":43.298037,"lon":5.381066,"is_reserved":false,"is_disabled":false,"rental_uris":{"android":"levelo://app?vid=ec7449f7-3677-4aeb-8de9-5f8411ec7494","ios":"levelo://app?vid=ec7449f7-3677-4aeb-8de9-5f8411ec7494"},"vehicle_type_id":"4","last_reported":1705338380,"current_range_meters":7200,"station_id":"ce4bgip2rcd13ifvqbb0","pricing_plan_id":"free"},{"bike_id":"d089758d-302e-4c37-bce5-f885aaf82222","system_id":"levelo_inurba_marseille","lat":43.304278,"lon":5.388868,"is_reserved":false,"is_disabled":false,"rental_uris":{"android":"levelo://app?vid=d089758d-302e-4c37-bce5-f885aaf82222","ios":"levelo://app?vid=d089758d-302e-4c37-bce5-f885aaf82222"},"vehicle_type_id":"4","last_reported":1705338380,"current_range_meters":14000,"station_id":"ce4bgk12rcd13ifvqbi0","pricing_plan_id":"free"},{"bike_id":"55d3dfdf-70cf-4af5-badb-90699f83d486","system_id":"levelo_inurba_marseille","lat":43.295748,"lon":5.37522,"is_reserved":false,"is_disabled":false,"rental_uris":{"android":"levelo://app?vid=55d3dfdf-70cf-4af5-badb-90699f83d486","ios":"levelo://app?vid=55d3dfdf-70cf-4af5-badb-90699f83d486"},"vehicle_type_id":"4","last_reported":1705338380,"current_range_meters":23200,"station_id":"ce4bgh92rcd13ifvqb50","pricing_plan_id":"free"},{"bike_id":"34c5b04f-a4aa-419a-83f9-dc4b1f9fcb0d","system_id":"levelo_inurba_marseille","lat":43.296277,"lon":5.377108,"is_reserved":false,"is_disabled":false,"rental_uris":{"android":"levelo://app?vid=34c5b04f-a4aa-419a-83f9-dc4b1f9fcb0d","ios":"levelo://app?vid=34c5b04f-a4aa-419a-83f9-dc4b1f9fcb0d"},"vehicle_type_id":"4","last_reported":1705338380,"current_range_meters":19200,"station_id":"ce4bgi92rcd13ifvqb90","pricing_plan_id":"free"},{"bike_id":"59a55896-06a0-42d8-b15c-0d331b843d16","system_id":"levelo_inurba_marseille","lat":43.29976,"lon":5.38494,"is_reserved":false,"is_disabled":false,"rental_uris":{"android":"levelo://app?vid=59a55896-06a0-42d8-b15c-0d331b843d16","ios":"levelo://app?vid=59a55896-06a0-42d8-b15c-0d331b843d16"},"vehicle_type_id":"4","last_reported":1705338380,"current_range_meters":14800,"station_id":"ce4bgj92rcd13ifvqbd0","pricing_plan_id":"free"},{"bike_id":"b33494a0-a514-4c68-be85-e3cf2ed73e17","system_id":"levelo_inurba_marseille","lat":43.29969,"lon":5.384918,"is_reserved":false,"is_disabled":false,"rental_uris":{"android":"levelo://app?vid=b33494a0-a514-4c68-be85-e3cf2ed73e17","ios":"levelo://app?vid=b33494a0-a514-4c68-be85-e3cf2ed73e17"},"vehicle_type_id":"4","last_reported":1705338380,"current_range_meters":20000,"station_id":"ce4bgj92rcd13ifvqbd0","pricing_plan_id":"free"},{"bike_id":"d90bce1f-b574-494e-8167-571363d9df50","system_id":"levelo_inurba_marseille","lat":43.299724,"lon":5.384848,"is_reserved":false,"is_disabled":false,"rental_uris":{"android":"levelo://app?vid=d90bce1f-b574-494e-8167-571363d9df50","ios":"levelo://app?vid=d90bce1f-b574-494e-8167-571363d9df50"},"vehicle_type_id":"4","last_reported":1705338380,"current_range_meters":0,"station_id":"ce4bgj92rcd13ifvqbd0","pricing_plan_id":"free"},{"bike_id":"20111373-a342-428a-ba5e-3b8be82ebd0a","system_id":"levelo_inurba_marseille","lat":43.29969,"lon":5.38495,"is_reserved":false,"is_disabled":false,"rental_uris":{"android":"levelo://app?vid=20111373-a342-428a-ba5e-3b8be82ebd0a","ios":"levelo://app?vid=20111373-a342-428a-ba5e-3b8be82ebd0a"},"vehicle_type_id":"4","last_reported":1705338380,"current_range_meters":29600,"station_id":"ce4bgj92rcd13ifvqbd0","pricing_plan_id":"free"},{"bike_id":"65200528-92c8-43dc-a28c-65f22643d5f6","system_id":"levelo_inurba_marseille","lat":43.32365,"lon":5.38885,"is_reserved":false,"is_disabled":false,"rental_uris":{"android":"levelo://app?vid=65200528-92c8-43dc-a28c-65f22643d5f6","ios":"levelo://app?vid=65200528-92c8-43dc-a28c-65f22643d5f6"},"vehicle_type_id":"4","last_reported":1705338380,"current_range_meters":19600,"station_id":"ce4bhqp2rcd13ifvqhog","pricing_plan_id":"free"},{"bike_id":"cc87a345-89b3-41ab-8017-45dd8003fb76","system_id":"levelo_inurba_marseille","lat":43.32367,"lon":5.388836,"is_reserved":false,"is_disabled":false,"rental_uris":{"android":"levelo://app?vid=cc87a345-89b3-41ab-8017-45dd8003fb76","ios":"levelo://app?vid=cc87a345-89b3-41ab-8017-45dd8003fb76"},"vehicle_type_id":"4","last_reported":1705338380,"current_range_meters":0,"station_id":"ce4bhqp2rcd13ifvqhog","pricing_plan_id":"free"},{"bike_id":"93a7541d-594c-4713-9c37-84d0b76dd655","system_id":"levelo_inurba_marseille","lat":43.32366,"lon":5.38888,"is_reserved":false,"is_disabled":false,"rental_uris":{"android":"levelo://app?vid=93a7541d-594c-4713-9c37-84d0b76dd655","ios":"levelo://app?vid=93a7541d-594c-4713-9c37-84d0b76dd655"},"vehicle_type_id":"4","last_reported":1705338380,"current_range_meters":3600,"station_id":"ce4bhqp2rcd13ifvqhog","pricing_plan_id":"free"},{"bike_id":"4112cef9-408d-4db3-bf0e-cb7443a1101b","system_id":"levelo_inurba_marseille","lat":43.29601,"lon":5.381084,"is_reserved":false,"is_disabled":false,"rental_uris":{"android":"levelo://app?vid=4112cef9-408d-4db3-bf0e-cb7443a1101b","ios":"levelo://app?vid=4112cef9-408d-4db3-bf0e-cb7443a1101b"},"vehicle_type_id":"4","last_reported":1705338380,"current_range_meters":10800,"station_id":"ce4bgl12rcd13ifvqbo0","pricing_plan_id":"free"},{"bike_id":"1ae884f8-25fe-4708-8025-bcdbc2615771","system_id":"levelo_inurba_marseille","lat":43.29601,"lon":5.381084,"is_reserved":false,"is_disabled":false,"rental_uris":{"android":"levelo://app?vid=1ae884f8-25fe-4708-8025-bcdbc2615771","ios":"levelo://app?vid=1ae884f8-25fe-4708-8025-bcdbc2615771"},"vehicle_type_id":"4","last_reported":1705338380,"current_range_meters":23600,"station_id":"ce4bgl12rcd13ifvqbo0","pricing_plan_id":"free"},{"bike_id":"5f77cd68-ab94-4245-a1f7-88164e03550f","system_id":"levelo_inurba_marseille","lat":43.305994,"lon":5.393687,"is_reserved":false,"is_disabled":false,"rental_uris":{"android":"levelo://app?vid=5f77cd68-ab94-4245-a1f7-88164e03550f","ios":"levelo://app?vid=5f77cd68-ab94-4245-a1f7-88164e03550f"},"vehicle_type_id":"4","last_reported":1705338380,"current_range_meters":14800,"station_id":"ce4bh0p2rcd13ifvqd80","pricing_plan_id":"free"},{"bike_id":"4edd1126-b869-4a67-89e4-4129dc3c3adb","system_id":"levelo_inurba_marseille","lat":43.292644,"lon":5.384257,"is_reserved":false,"is_disabled":false,"rental_uris":{"android":"levelo://app?vid=4edd1126-b869-4a67-89e4-4129dc3c3adb","ios":"levelo://app?vid=4edd1126-b869-4a67-89e4-4129dc3c3adb"},"vehicle_type_id":"4","last_reported":1705338380,"current_range_meters":12800,"station_id":"ce4bh692rcd13ifvqea0","pricing_plan_id":"free"},{"bike_id":"9adf4477-8c77-4de0-bb44-4d0008fcc36a","system_id":"levelo_inurba_marseille","lat":43.305994,"lon":5.393687,"is_reserved":false,"is_disabled":false,"rental_uris":{"android":"levelo://app?vid=9adf4477-8c77-4de0-bb44-4d0008fcc36a","ios":"levelo://app?vid=9adf4477-8c77-4de0-bb44-4d0008fcc36a"},"vehicle_type_id":"4","last_reported":1705338380,"current_range_meters":13200,"station_id":"ce4bh0p2rcd13ifvqd80","pricing_plan_id":"free"},{"bike_id":"78e843b9-b325-448d-b65d-b5ac2a337aca","system_id":"levelo_inurba_marseille","lat":43.293009,"lon":5.374584,"is_reserved":false,"is_disabled":false,"rental_uris":{"android":"levelo://app?vid=78e843b9-b325-448d-b65d-b5ac2a337aca","ios":"levelo://app?vid=78e843b9-b325-448d-b65d-b5ac2a337aca"},"vehicle_type_id":"4","last_reported":1705338380,"current_range_meters":14400,"station_id":"ce4bgi12rcd13ifvqb70","pricing_plan_id":"free"},{"bike_id":"1de1fd88-f4ac-48c2-8d6a-a9253ddae1f5","system_id":"levelo_inurba_marseille","lat":43.293009,"lon":5.374584,"is_reserved":false,"is_disabled":false,"rental_uris":{"android":"levelo://app?vid=1de1fd88-f4ac-48c2-8d6a-a9253ddae1f5","ios":"levelo://app?vid=1de1fd88-f4ac-48c2-8d6a-a9253ddae1f5"},"vehicle_type_id":"4","last_reported":1705338380,"current_range_meters":15200,"station_id":"ce4bgi12rcd13ifvqb70","pricing_plan_id":"free"},{"bike_id":"f855a85b-2d35-4026-a77b-0c6bd483f3f3","system_id":"levelo_inurba_marseille","lat":43.303002,"lon":5.392142,"is_reserved":false,"is_disabled":false,"rental_uris":{"android":"levelo://app?vid=f855a85b-2d35-4026-a77b-0c6bd483f3f3","ios":"levelo://app?vid=f855a85b-2d35-4026-a77b-0c6bd483f3f3"},"vehicle_type_id":"4","last_reported":1705338380,"current_range_meters":14800,"station_id":"ce4bgkh2rcd13ifvqbk0","pricing_plan_id":"free"},{"bike_id":"27af08c6-c543-4e3f-a44b-6e25a364e1b8","system_id":"levelo_inurba_marseille","lat":43.297163,"lon":5.365866,"is_reserved":false,"is_disabled":false,"rental_uris":{"android":"levelo://app?vid=27af08c6-c543-4e3f-a44b-6e25a364e1b8","ios":"levelo://app?vid=27af08c6-c543-4e3f-a44b-6e25a364e1b8"},"vehicle_type_id":"4","last_reported":1705338380,"current_range_meters":4000,"station_id":"ce4bgn12rcd13ifvqbt0","pricing_plan_id":"free"},{"bike_id":"d0a5b1e5-06af-4757-bfe7-d773631ba526","system_id":"levelo_inurba_marseille","lat":43.2936,"lon":5.37835,"is_reserved":false,"is_disabled":false,"rental_uris":{"android":"levelo://app?vid=d0a5b1e5-06af-4757-bfe7-d773631ba526","ios":"levelo://app?vid=d0a5b1e5-06af-4757-bfe7-d773631ba526"},"vehicle_type_id":"4","last_reported":1705338380,"current_range_meters":6800,"station_id":"ce4bgjh2rcd13ifvqbf0","pricing_plan_id":"free"},{"bike_id":"ae536875-6693-4b59-96a9-b3033e003a77","system_id":"levelo_inurba_marseille","lat":43.300852,"lon":5.390859,"is_reserved":false,"is_disabled":false,"rental_uris":{"android":"levelo://app?vid=ae536875-6693-4b59-96a9-b3033e003a77","ios":"levelo://app?vid=ae536875-6693-4b59-96a9-b3033e003a77"},"vehicle_type_id":"4","last_reported":1705338380,"current_range_meters":10000,"station_id":"ce4bh192rcd13ifvqdb0","pricing_plan_id":"free"},{"bike_id":"706741c2-a2c8-4d97-9730-f695a2d9ad88","system_id":"levelo_inurba_marseille","lat":43.300852,"lon":5.390859,"is_reserved":false,"is_disabled":false,"rental_uris":{"android":"levelo://app?vid=706741c2-a2c8-4d97-9730-f695a2d9ad88","ios":"levelo://app?vid=706741c2-a2c8-4d97-9730-f695a2d9ad88"},"vehicle_type_id":"4","last_reported":1705338380,"current_range_meters":11600,"station_id":"ce4bh192rcd13ifvqdb0","pricing_plan_id":"free"},{"bike_id":"b2ec3eae-0261-4024-bf32-457a539e3d18","system_id":"levelo_inurba_marseille","lat":43.291994,"lon":5.357886,"is_reserved":false,"is_disabled":false,"rental_uris":{"android":"levelo://app?vid=b2ec3eae-0261-4024-bf32-457a539e3d18","ios":"levelo://app?vid=b2ec3eae-0261-4024-bf32-457a539e3d18"},"vehicle_type_id":"4","last_reported":1705338380,"current_range_meters":0,"station_id":"ce4bhb12rcd13ifvqel0","pricing_plan_id":"free"},{"bike_id":"7946c141-ed00-4576-bcf1-75cf5225dd8f","system_id":"levelo_inurba_marseille","lat":43.307254,"lon":5.395925,"is_reserved":false,"is_disabled":false,"rental_uris":{"android":"levelo://app?vid=7946c141-ed00-4576-bcf1-75cf5225dd8f","ios":"levelo://app?vid=7946c141-ed00-4576-bcf1-75cf5225dd8f"},"vehicle_type_id":"4","last_reported":1705338380,"current_range_meters":21600,"station_id":"","pricing_plan_id":"free"},{"bike_id":"e02c11c2-9959-4cf7-a61f-5572f7381533","system_id":"levelo_inurba_marseille","lat":43.313291,"lon":5.396838,"is_reserved":false,"is_disabled":false,"rental_uris":{"android":"levelo://app?vid=e02c11c2-9959-4cf7-a61f-5572f7381533","ios":"levelo://app?vid=e02c11c2-9959-4cf7-a61f-5572f7381533"},"vehicle_type_id":"4","last_reported":1705338380,"current_range_meters":11600,"station_id":"ce4bgvp2rcd13ifvqcu0","pricing_plan_id":"free"},{"bike_id":"05f3e013-f23f-4e19-b210-e978d2056fba","system_id":"levelo_inurba_marseille","lat":43.313291,"lon":5.396838,"is_reserved":false,"is_disabled":false,"rental_uris":{"android":"levelo://app?vid=05f3e013-f23f-4e19-b210-e978d2056fba","ios":"levelo://app?vid=05f3e013-f23f-4e19-b210-e978d2056fba"},"vehicle_type_id":"4","last_reported":1705338380,"current_range_meters":16800,"station_id":"ce4bgvp2rcd13ifvqcu0","pricing_plan_id":"free"},{"bike_id":"d32bb74b-777c-47ce-b0b4-c4c03b0bf715","system_id":"levelo_inurba_marseille","lat":43.313291,"lon":5.396838,"is_reserved":false,"is_disabled":false,"rental_uris":{"android":"levelo://app?vid=d32bb74b-777c-47ce-b0b4-c4c03b0bf715","ios":"levelo://app?vid=d32bb74b-777c-47ce-b0b4-c4c03b0bf715"},"vehicle_type_id":"4","last_reported":1705338380,"current_range_meters":17600,"station_id":"ce4bgvp2rcd13ifvqcu0","pricing_plan_id":"free"},{"bike_id":"c0f02293-aa3d-4dce-b4c6-0ccc51373fd8","system_id":"levelo_inurba_marseille","lat":43.313291,"lon":5.396838,"is_reserved":false,"is_disabled":false,"rental_uris":{"android":"levelo://app?vid=c0f02293-aa3d-4dce-b4c6-0ccc51373fd8","ios":"levelo://app?vid=c0f02293-aa3d-4dce-b4c6-0ccc51373fd8"},"vehicle_type_id":"4","last_reported":1705338380,"current_range_meters":30000,"station_id":"ce4bgvp2rcd13ifvqcu0","pricing_plan_id":"free"},{"bike_id":"2136494a-63e9-48e2-b09d-20a9b552a9c0","system_id":"levelo_inurba_marseille","lat":43.313291,"lon":5.396838,"is_reserved":false,"is_disabled":false,"rental_uris":{"android":"levelo://app?vid=2136494a-63e9-48e2-b09d-20a9b552a9c0","ios":"levelo://app?vid=2136494a-63e9-48e2-b09d-20a9b552a9c0"},"vehicle_type_id":"4","last_reported":1705338380,"current_range_meters":1200,"station_id":"ce4bgvp2rcd13ifvqcu0","pricing_plan_id":"free"},{"bike_id":"c9738b09-a985-4735-a3af-e5f363189aae","system_id":"levelo_inurba_marseille","lat":43.29189,"lon":5.358,"is_reserved":false,"is_disabled":false,"rental_uris":{"android":"levelo://app?vid=c9738b09-a985-4735-a3af-e5f363189aae","ios":"levelo://app?vid=c9738b09-a985-4735-a3af-e5f363189aae"},"vehicle_type_id":"4","last_reported":1705338380,"current_range_meters":400,"station_id":"ce4bhb12rcd13ifvqel0","pricing_plan_id":"free"},{"bike_id":"f633d584-c7ae-4af1-8cf8-7c8c7d38dde4","system_id":"levelo_inurba_marseille","lat":43.313291,"lon":5.396838,"is_reserved":false,"is_disabled":false,"rental_uris":{"android":"levelo://app?vid=f633d584-c7ae-4af1-8cf8-7c8c7d38dde4","ios":"levelo://app?vid=f633d584-c7ae-4af1-8cf8-7c8c7d38dde4"},"vehicle_type_id":"4","last_reported":1705338380,"current_range_meters":31200,"station_id":"ce4bgvp2rcd13ifvqcu0","pricing_plan_id":"free"},{"bike_id":"a0a3e436-f134-47e5-ac13-980dabf9329c","system_id":"levelo_inurba_marseille","lat":43.313291,"lon":5.396838,"is_reserved":false,"is_disabled":false,"rental_uris":{"android":"levelo://app?vid=a0a3e436-f134-47e5-ac13-980dabf9329c","ios":"levelo://app?vid=a0a3e436-f134-47e5-ac13-980dabf9329c"},"vehicle_type_id":"4","last_reported":1705338380,"current_range_meters":24400,"station_id":"ce4bgvp2rcd13ifvqcu0","pricing_plan_id":"free"},{"bike_id":"9401e676-a838-49e0-abe4-8a414a8ce041","system_id":"levelo_inurba_marseille","lat":43.313291,"lon":5.396838,"is_reserved":false,"is_disabled":false,"rental_uris":{"android":"levelo://app?vid=9401e676-a838-49e0-abe4-8a414a8ce041","ios":"levelo://app?vid=9401e676-a838-49e0-abe4-8a414a8ce041"},"vehicle_type_id":"4","last_reported":1705338380,"current_range_meters":14000,"station_id":"ce4bgvp2rcd13ifvqcu0","pricing_plan_id":"free"},{"bike_id":"6559cdb6-2faf-49f7-801e-39131101e175","system_id":"levelo_inurba_marseille","lat":43.313291,"lon":5.396838,"is_reserved":false,"is_disabled":false,"rental_uris":{"android":"levelo://app?vid=6559cdb6-2faf-49f7-801e-39131101e175","ios":"levelo://app?vid=6559cdb6-2faf-49f7-801e-39131101e175"},"vehicle_type_id":"4","last_reported":1705338380,"current_range_meters":22400,"station_id":"ce4bgvp2rcd13ifvqcu0","pricing_plan_id":"free"},{"bike_id":"dc7fc9eb-be7e-48ed-b16e-98f66dd11501","system_id":"levelo_inurba_marseille","lat":43.313291,"lon":5.396838,"is_reserved":false,"is_disabled":false,"rental_uris":{"android":"levelo://app?vid=dc7fc9eb-be7e-48ed-b16e-98f66dd11501","ios":"levelo://app?vid=dc7fc9eb-be7e-48ed-b16e-98f66dd11501"},"vehicle_type_id":"4","last_reported":1705338380,"current_range_meters":16800,"station_id":"ce4bgvp2rcd13ifvqcu0","pricing_plan_id":"free"},{"bike_id":"d745d548-4b45-4abc-8a5c-fac4a834e3a5","system_id":"levelo_inurba_marseille","lat":43.313291,"lon":5.396838,"is_reserved":false,"is_disabled":false,"rental_uris":{"android":"levelo://app?vid=d745d548-4b45-4abc-8a5c-fac4a834e3a5","ios":"levelo://app?vid=d745d548-4b45-4abc-8a5c-fac4a834e3a5"},"vehicle_type_id":"4","last_reported":1705338380,"current_range_meters":18000,"station_id":"ce4bgvp2rcd13ifvqcu0","pricing_plan_id":"free"},{"bike_id":"fc46f031-4bfe-4350-beb6-e07d8d809c48","system_id":"levelo_inurba_marseille","lat":43.308872,"lon":5.396553,"is_reserved":false,"is_disabled":false,"rental_uris":{"android":"levelo://app?vid=fc46f031-4bfe-4350-beb6-e07d8d809c48","ios":"levelo://app?vid=fc46f031-4bfe-4350-beb6-e07d8d809c48"},"vehicle_type_id":"4","last_reported":1705338380,"current_range_meters":4800,"station_id":"ce4bh012rcd13ifvqcv0","pricing_plan_id":"free"},{"bike_id":"32d91121-d766-4137-9df2-1977d98c812e","system_id":"levelo_inurba_marseille","lat":43.309047,"lon":5.396551,"is_reserved":false,"is_disabled":false,"rental_uris":{"android":"levelo://app?vid=32d91121-d766-4137-9df2-1977d98c812e","ios":"levelo://app?vid=32d91121-d766-4137-9df2-1977d98c812e"},"vehicle_type_id":"4","last_reported":1705338380,"current_range_meters":14800,"station_id":"ce4bh012rcd13ifvqcv0","pricing_plan_id":"free"},{"bike_id":"55bc5049-5018-43c6-9d2a-616868c4c54d","system_id":"levelo_inurba_marseille","lat":43.309047,"lon":5.396551,"is_reserved":false,"is_disabled":false,"rental_uris":{"android":"levelo://app?vid=55bc5049-5018-43c6-9d2a-616868c4c54d","ios":"levelo://app?vid=55bc5049-5018-43c6-9d2a-616868c4c54d"},"vehicle_type_id":"4","last_reported":1705338380,"current_range_meters":20000,"station_id":"ce4bh012rcd13ifvqcv0","pricing_plan_id":"free"},{"bike_id":"22a7d552-70f4-4682-b104-cdba73aa8255","system_id":"levelo_inurba_marseille","lat":43.29529,"lon":5.385581,"is_reserved":false,"is_disabled":false,"rental_uris":{"android":"levelo://app?vid=22a7d552-70f4-4682-b104-cdba73aa8255","ios":"levelo://app?vid=22a7d552-70f4-4682-b104-cdba73aa8255"},"vehicle_type_id":"4","last_reported":1705338380,"current_range_meters":2800,"station_id":"ce4bgih2rcd13ifvqba0","pricing_plan_id":"free"},{"bike_id":"ced66af6-c8a6-4042-819e-63ab5049bb68","system_id":"levelo_inurba_marseille","lat":43.29529,"lon":5.385581,"is_reserved":false,"is_disabled":false,"rental_uris":{"android":"levelo://app?vid=ced66af6-c8a6-4042-819e-63ab5049bb68","ios":"levelo://app?vid=ced66af6-c8a6-4042-819e-63ab5049bb68"},"vehicle_type_id":"4","last_reported":1705338380,"current_range_meters":22000,"station_id":"ce4bgih2rcd13ifvqba0","pricing_plan_id":"free"},{"bike_id":"32174326-f010-45f0-b637-4b7b044df106","system_id":"levelo_inurba_marseille","lat":43.302008,"lon":5.394694,"is_reserved":false,"is_disabled":false,"rental_uris":{"android":"levelo://app?vid=32174326-f010-45f0-b637-4b7b044df106","ios":"levelo://app?vid=32174326-f010-45f0-b637-4b7b044df106"},"vehicle_type_id":"4","last_reported":1705338380,"current_range_meters":12400,"station_id":"ce4bh0p2rcd13ifvqd70","pricing_plan_id":"free"},{"bike_id":"ad65d30b-1ec4-4296-8663-f31824d11f75","system_id":"levelo_inurba_marseille","lat":43.302008,"lon":5.394694,"is_reserved":false,"is_disabled":false,"rental_uris":{"android":"levelo://app?vid=ad65d30b-1ec4-4296-8663-f31824d11f75","ios":"levelo://app?vid=ad65d30b-1ec4-4296-8663-f31824d11f75"},"vehicle_type_id":"4","last_reported":1705338380,"current_range_meters":10000,"station_id":"ce4bh0p2rcd13ifvqd70","pricing_plan_id":"free"},{"bike_id":"5b1700da-b142-46cf-ab6f-4bf48b7e1ac5","system_id":"levelo_inurba_marseille","lat":43.302008,"lon":5.394694,"is_reserved":false,"is_disabled":false,"rental_uris":{"android":"levelo://app?vid=5b1700da-b142-46cf-ab6f-4bf48b7e1ac5","ios":"levelo://app?vid=5b1700da-b142-46cf-ab6f-4bf48b7e1ac5"},"vehicle_type_id":"4","last_reported":1705338380,"current_range_meters":13600,"station_id":"ce4bh0p2rcd13ifvqd70","pricing_plan_id":"free"},{"bike_id":"67db45a8-31ce-4b7f-b933-27f047257c2e","system_id":"levelo_inurba_marseille","lat":43.290624,"lon":5.359245,"is_reserved":false,"is_disabled":false,"rental_uris":{"android":"levelo://app?vid=67db45a8-31ce-4b7f-b933-27f047257c2e","ios":"levelo://app?vid=67db45a8-31ce-4b7f-b933-27f047257c2e"},"vehicle_type_id":"4","last_reported":1705338380,"current_range_meters":27200,"station_id":"ce4bha92rcd13ifvqeg0","pricing_plan_id":"free"},{"bike_id":"d77ef732-34fc-4bd7-baa2-41b22caa4fce","system_id":"levelo_inurba_marseille","lat":43.294153,"lon":5.386305,"is_reserved":false,"is_disabled":false,"rental_uris":{"android":"levelo://app?vid=d77ef732-34fc-4bd7-baa2-41b22caa4fce","ios":"levelo://app?vid=d77ef732-34fc-4bd7-baa2-41b22caa4fce"},"vehicle_type_id":"4","last_reported":1705338380,"current_range_meters":4800,"station_id":"ce4bh2h2rcd13ifvqdh0","pricing_plan_id":"free"},{"bike_id":"e7739e3a-dad1-410a-9853-a7d1f22c5702","system_id":"levelo_inurba_marseille","lat":43.294153,"lon":5.386305,"is_reserved":false,"is_disabled":false,"rental_uris":{"android":"levelo://app?vid=e7739e3a-dad1-410a-9853-a7d1f22c5702","ios":"levelo://app?vid=e7739e3a-dad1-410a-9853-a7d1f22c5702"},"vehicle_type_id":"4","last_reported":1705338380,"current_range_meters":3600,"station_id":"ce4bh2h2rcd13ifvqdh0","pricing_plan_id":"free"},{"bike_id":"48129d67-d2d6-49df-bdb7-de84e14d02cf","system_id":"levelo_inurba_marseille","lat":43.294153,"lon":5.386305,"is_reserved":false,"is_disabled":false,"rental_uris":{"android":"levelo://app?vid=48129d67-d2d6-49df-bdb7-de84e14d02cf","ios":"levelo://app?vid=48129d67-d2d6-49df-bdb7-de84e14d02cf"},"vehicle_type_id":"4","last_reported":1705338380,"current_range_meters":14400,"station_id":"ce4bh2h2rcd13ifvqdh0","pricing_plan_id":"free"},{"bike_id":"a9d9f32a-8274-4623-8414-8439a0d2a12b","system_id":"levelo_inurba_marseille","lat":43.294153,"lon":5.386305,"is_reserved":false,"is_disabled":false,"rental_uris":{"android":"levelo://app?vid=a9d9f32a-8274-4623-8414-8439a0d2a12b","ios":"levelo://app?vid=a9d9f32a-8274-4623-8414-8439a0d2a12b"},"vehicle_type_id":"4","last_reported":1705338380,"current_range_meters":4000,"station_id":"ce4bh2h2rcd13ifvqdh0","pricing_plan_id":"free"},{"bike_id":"f230f96a-24dd-4875-9e24-53515e2cdf06","system_id":"levelo_inurba_marseille","lat":43.28943,"lon":5.36628,"is_reserved":false,"is_disabled":false,"rental_uris":{"android":"levelo://app?vid=f230f96a-24dd-4875-9e24-53515e2cdf06","ios":"levelo://app?vid=f230f96a-24dd-4875-9e24-53515e2cdf06"},"vehicle_type_id":"4","last_reported":1705338380,"current_range_meters":0,"station_id":"ce4bhap2rcd13ifvqek0","pricing_plan_id":"free"},{"bike_id":"d7d604d7-fd3e-4c49-934c-996963812cd5","system_id":"levelo_inurba_marseille","lat":43.289468,"lon":5.363719,"is_reserved":false,"is_disabled":false,"rental_uris":{"android":"levelo://app?vid=d7d604d7-fd3e-4c49-934c-996963812cd5","ios":"levelo://app?vid=d7d604d7-fd3e-4c49-934c-996963812cd5"},"vehicle_type_id":"4","last_reported":1705338380,"current_range_meters":16800,"station_id":"ce4bhc92rcd13ifvqetg","pricing_plan_id":"free"},{"bike_id":"7c8fdcd9-7e43-4532-9595-999595acacea","system_id":"levelo_inurba_marseille","lat":43.289184,"lon":5.366408,"is_reserved":false,"is_disabled":false,"rental_uris":{"android":"levelo://app?vid=7c8fdcd9-7e43-4532-9595-999595acacea","ios":"levelo://app?vid=7c8fdcd9-7e43-4532-9595-999595acacea"},"vehicle_type_id":"4","last_reported":1705338380,"current_range_meters":2400,"station_id":"ce4bhap2rcd13ifvqek0","pricing_plan_id":"free"},{"bike_id":"32e0e343-dee2-4696-858d-29e321a92806","system_id":"levelo_inurba_marseille","lat":43.292642,"lon":5.384254,"is_reserved":false,"is_disabled":false,"rental_uris":{"android":"levelo://app?vid=32e0e343-dee2-4696-858d-29e321a92806","ios":"levelo://app?vid=32e0e343-dee2-4696-858d-29e321a92806"},"vehicle_type_id":"4","last_reported":1705338380,"current_range_meters":17600,"station_id":"ce4bh692rcd13ifvqea0","pricing_plan_id":"free"},{"bike_id":"fb07d15a-42f3-4b11-9735-5c6cf7b9d55a","system_id":"levelo_inurba_marseille","lat":43.292642,"lon":5.384254,"is_reserved":false,"is_disabled":false,"rental_uris":{"android":"levelo://app?vid=fb07d15a-42f3-4b11-9735-5c6cf7b9d55a","ios":"levelo://app?vid=fb07d15a-42f3-4b11-9735-5c6cf7b9d55a"},"vehicle_type_id":"4","last_reported":1705338380,"current_range_meters":22400,"station_id":"ce4bh692rcd13ifvqea0","pricing_plan_id":"free"},{"bike_id":"185fe6e5-f726-4a6a-aaee-1a096e0033ad","system_id":"levelo_inurba_marseille","lat":43.290995,"lon":5.381361,"is_reserved":false,"is_disabled":false,"rental_uris":{"android":"levelo://app?vid=185fe6e5-f726-4a6a-aaee-1a096e0033ad","ios":"levelo://app?vid=185fe6e5-f726-4a6a-aaee-1a096e0033ad"},"vehicle_type_id":"4","last_reported":1705338380,"current_range_meters":23200,"station_id":"ce4bh512rcd13ifvqe2g","pricing_plan_id":"free"},{"bike_id":"42fde5db-d54c-4b1d-8b46-33603db2d2d1","system_id":"levelo_inurba_marseille","lat":43.3302,"lon":5.39035,"is_reserved":false,"is_disabled":false,"rental_uris":{"android":"levelo://app?vid=42fde5db-d54c-4b1d-8b46-33603db2d2d1","ios":"levelo://app?vid=42fde5db-d54c-4b1d-8b46-33603db2d2d1"},"vehicle_type_id":"4","last_reported":1705338380,"current_range_meters":14400,"station_id":"ce4bhr92rcd13ifvqhrg","pricing_plan_id":"free"},{"bike_id":"5e21ea74-79fb-445f-a1fd-0d2b8da69ae3","system_id":"levelo_inurba_marseille","lat":43.33022,"lon":5.39039,"is_reserved":false,"is_disabled":false,"rental_uris":{"android":"levelo://app?vid=5e21ea74-79fb-445f-a1fd-0d2b8da69ae3","ios":"levelo://app?vid=5e21ea74-79fb-445f-a1fd-0d2b8da69ae3"},"vehicle_type_id":"4","last_reported":1705338380,"current_range_meters":23200,"station_id":"ce4bhr92rcd13ifvqhrg","pricing_plan_id":"free"},{"bike_id":"7c64a78d-cf44-415c-a807-707bdbdb0e66","system_id":"levelo_inurba_marseille","lat":43.33023,"lon":5.39039,"is_reserved":false,"is_disabled":false,"rental_uris":{"android":"levelo://app?vid=7c64a78d-cf44-415c-a807-707bdbdb0e66","ios":"levelo://app?vid=7c64a78d-cf44-415c-a807-707bdbdb0e66"},"vehicle_type_id":"4","last_reported":1705338380,"current_range_meters":6000,"station_id":"ce4bhr92rcd13ifvqhrg","pricing_plan_id":"free"},{"bike_id":"cf2a8e79-1286-47b7-b507-ef7bebc2955c","system_id":"levelo_inurba_marseille","lat":43.330442,"lon":5.389148,"is_reserved":false,"is_disabled":false,"rental_uris":{"android":"levelo://app?vid=cf2a8e79-1286-47b7-b507-ef7bebc2955c","ios":"levelo://app?vid=cf2a8e79-1286-47b7-b507-ef7bebc2955c"},"vehicle_type_id":"4","last_reported":1705338380,"current_range_meters":6800,"station_id":"ce4bhr92rcd13ifvqhrg","pricing_plan_id":"free"},{"bike_id":"12cf2268-0c09-4f12-b5d8-7ee86d88a231","system_id":"levelo_inurba_marseille","lat":43.330442,"lon":5.389148,"is_reserved":false,"is_disabled":false,"rental_uris":{"android":"levelo://app?vid=12cf2268-0c09-4f12-b5d8-7ee86d88a231","ios":"levelo://app?vid=12cf2268-0c09-4f12-b5d8-7ee86d88a231"},"vehicle_type_id":"4","last_reported":1705338380,"current_range_meters":25600,"station_id":"ce4bhr92rcd13ifvqhrg","pricing_plan_id":"free"},{"bike_id":"517b0d0b-d608-45bf-9461-35b6ce418c5d","system_id":"levelo_inurba_marseille","lat":43.330442,"lon":5.389148,"is_reserved":false,"is_disabled":false,"rental_uris":{"android":"levelo://app?vid=517b0d0b-d608-45bf-9461-35b6ce418c5d","ios":"levelo://app?vid=517b0d0b-d608-45bf-9461-35b6ce418c5d"},"vehicle_type_id":"4","last_reported":1705338380,"current_range_meters":2000,"station_id":"ce4bhr92rcd13ifvqhrg","pricing_plan_id":"free"},{"bike_id":"95d7b378-6f0f-43ff-a8e6-7582e575c578","system_id":"levelo_inurba_marseille","lat":43.330442,"lon":5.389148,"is_reserved":false,"is_disabled":false,"rental_uris":{"android":"levelo://app?vid=95d7b378-6f0f-43ff-a8e6-7582e575c578","ios":"levelo://app?vid=95d7b378-6f0f-43ff-a8e6-7582e575c578"},"vehicle_type_id":"4","last_reported":1705338380,"current_range_meters":20400,"station_id":"ce4bhr92rcd13ifvqhrg","pricing_plan_id":"free"},{"bike_id":"8d2e7982-b1fd-42e5-9f73-d9ebc784f624","system_id":"levelo_inurba_marseille","lat":43.295216,"lon":5.390498,"is_reserved":false,"is_disabled":false,"rental_uris":{"android":"levelo://app?vid=8d2e7982-b1fd-42e5-9f73-d9ebc784f624","ios":"levelo://app?vid=8d2e7982-b1fd-42e5-9f73-d9ebc784f624"},"vehicle_type_id":"4","last_reported":1705338380,"current_range_meters":0,"station_id":"ce4bh3p2rcd13ifvqdp0","pricing_plan_id":"free"},{"bike_id":"32a0a02e-5b44-4243-aa10-3a924a534e60","system_id":"levelo_inurba_marseille","lat":43.295169,"lon":5.390426,"is_reserved":false,"is_disabled":false,"rental_uris":{"android":"levelo://app?vid=32a0a02e-5b44-4243-aa10-3a924a534e60","ios":"levelo://app?vid=32a0a02e-5b44-4243-aa10-3a924a534e60"},"vehicle_type_id":"4","last_reported":1705338380,"current_range_meters":6800,"station_id":"ce4bh3p2rcd13ifvqdp0","pricing_plan_id":"free"},{"bike_id":"59bdac10-b5e9-4f03-b04f-68439b974a96","system_id":"levelo_inurba_marseille","lat":43.33034,"lon":5.39042,"is_reserved":false,"is_disabled":false,"rental_uris":{"android":"levelo://app?vid=59bdac10-b5e9-4f03-b04f-68439b974a96","ios":"levelo://app?vid=59bdac10-b5e9-4f03-b04f-68439b974a96"},"vehicle_type_id":"4","last_reported":1705338380,"current_range_meters":18400,"station_id":"ce4bhr92rcd13ifvqhrg","pricing_plan_id":"free"},{"bike_id":"67affa55-6dee-4b0d-aeaa-30e9be8984de","system_id":"levelo_inurba_marseille","lat":43.28856,"lon":5.358371,"is_reserved":false,"is_disabled":false,"rental_uris":{"android":"levelo://app?vid=67affa55-6dee-4b0d-aeaa-30e9be8984de","ios":"levelo://app?vid=67affa55-6dee-4b0d-aeaa-30e9be8984de"},"vehicle_type_id":"4","last_reported":1705338380,"current_range_meters":19200,"station_id":"ce4bhb12rcd13ifvqem0","pricing_plan_id":"free"},{"bike_id":"01c8fe3b-8929-45c4-8ddd-cf2f64cb3102","system_id":"levelo_inurba_marseille","lat":43.28856,"lon":5.358371,"is_reserved":false,"is_disabled":false,"rental_uris":{"android":"levelo://app?vid=01c8fe3b-8929-45c4-8ddd-cf2f64cb3102","ios":"levelo://app?vid=01c8fe3b-8929-45c4-8ddd-cf2f64cb3102"},"vehicle_type_id":"4","last_reported":1705338380,"current_range_meters":18000,"station_id":"ce4bhb12rcd13ifvqem0","pricing_plan_id":"free"},{"bike_id":"6a3a1ea5-b29b-4ce6-9549-fee70484c873","system_id":"levelo_inurba_marseille","lat":43.307617,"lon":5.400548,"is_reserved":false,"is_disabled":false,"rental_uris":{"android":"levelo://app?vid=6a3a1ea5-b29b-4ce6-9549-fee70484c873","ios":"levelo://app?vid=6a3a1ea5-b29b-4ce6-9549-fee70484c873"},"vehicle_type_id":"4","last_reported":1705338380,"current_range_meters":14400,"station_id":"","pricing_plan_id":"free"},{"bike_id":"d90b0516-407e-48cf-90e5-f42772a8e5d1","system_id":"levelo_inurba_marseille","lat":43.312609,"lon":5.401662,"is_reserved":false,"is_disabled":false,"rental_uris":{"android":"levelo://app?vid=d90b0516-407e-48cf-90e5-f42772a8e5d1","ios":"levelo://app?vid=d90b0516-407e-48cf-90e5-f42772a8e5d1"},"vehicle_type_id":"4","last_reported":1705338380,"current_range_meters":25600,"station_id":"ce4bh092rcd13ifvqd30","pricing_plan_id":"free"},{"bike_id":"dadb062d-9243-46eb-beee-41e951ad970f","system_id":"levelo_inurba_marseille","lat":43.309371,"lon":5.401449,"is_reserved":false,"is_disabled":false,"rental_uris":{"android":"levelo://app?vid=dadb062d-9243-46eb-beee-41e951ad970f","ios":"levelo://app?vid=dadb062d-9243-46eb-beee-41e951ad970f"},"vehicle_type_id":"4","last_reported":1705338380,"current_range_meters":2400,"station_id":"ce4bgvp2rcd13ifvqct0","pricing_plan_id":"free"},{"bike_id":"dc41b4fb-ec2d-4148-b3b6-3c66f748eeeb","system_id":"levelo_inurba_marseille","lat":43.309371,"lon":5.401449,"is_reserved":false,"is_disabled":false,"rental_uris":{"android":"levelo://app?vid=dc41b4fb-ec2d-4148-b3b6-3c66f748eeeb","ios":"levelo://app?vid=dc41b4fb-ec2d-4148-b3b6-3c66f748eeeb"},"vehicle_type_id":"4","last_reported":1705338380,"current_range_meters":17600,"station_id":"ce4bgvp2rcd13ifvqct0","pricing_plan_id":"free"},{"bike_id":"fe6b2129-717f-42bf-91e3-eacc33db0eb0","system_id":"levelo_inurba_marseille","lat":43.30642,"lon":5.401031,"is_reserved":false,"is_disabled":false,"rental_uris":{"android":"levelo://app?vid=fe6b2129-717f-42bf-91e3-eacc33db0eb0","ios":"levelo://app?vid=fe6b2129-717f-42bf-91e3-eacc33db0eb0"},"vehicle_type_id":"4","last_reported":1705338380,"current_range_meters":7200,"station_id":"ce4bh112rcd13ifvqda0","pricing_plan_id":"free"},{"bike_id":"95a50b63-6baf-42eb-8bc3-5e4539dbb81f","system_id":"levelo_inurba_marseille","lat":43.301117,"lon":5.398795,"is_reserved":false,"is_disabled":false,"rental_uris":{"android":"levelo://app?vid=95a50b63-6baf-42eb-8bc3-5e4539dbb81f","ios":"levelo://app?vid=95a50b63-6baf-42eb-8bc3-5e4539dbb81f"},"vehicle_type_id":"4","last_reported":1705338380,"current_range_meters":14000,"station_id":"ce4bh0h2rcd13ifvqd40","pricing_plan_id":"free"},{"bike_id":"c2276712-b0e3-41ec-817d-9d2c123cac3f","system_id":"levelo_inurba_marseille","lat":43.301117,"lon":5.398795,"is_reserved":false,"is_disabled":false,"rental_uris":{"android":"levelo://app?vid=c2276712-b0e3-41ec-817d-9d2c123cac3f","ios":"levelo://app?vid=c2276712-b0e3-41ec-817d-9d2c123cac3f"},"vehicle_type_id":"4","last_reported":1705338380,"current_range_meters":0,"station_id":"ce4bh0h2rcd13ifvqd40","pricing_plan_id":"free"},{"bike_id":"697aacd8-9a49-4840-81d2-4ab955fda697","system_id":"levelo_inurba_marseille","lat":43.301117,"lon":5.398795,"is_reserved":false,"is_disabled":false,"rental_uris":{"android":"levelo://app?vid=697aacd8-9a49-4840-81d2-4ab955fda697","ios":"levelo://app?vid=697aacd8-9a49-4840-81d2-4ab955fda697"},"vehicle_type_id":"4","last_reported":1705338380,"current_range_meters":11200,"station_id":"ce4bh0h2rcd13ifvqd40","pricing_plan_id":"free"},{"bike_id":"b8a97e74-7344-419b-ae80-3353600080ad","system_id":"levelo_inurba_marseille","lat":43.301117,"lon":5.398795,"is_reserved":false,"is_disabled":false,"rental_uris":{"android":"levelo://app?vid=b8a97e74-7344-419b-ae80-3353600080ad","ios":"levelo://app?vid=b8a97e74-7344-419b-ae80-3353600080ad"},"vehicle_type_id":"4","last_reported":1705338380,"current_range_meters":10800,"station_id":"ce4bh0h2rcd13ifvqd40","pricing_plan_id":"free"},{"bike_id":"d907a7ed-c95c-4403-9c63-ce65b86da356","system_id":"levelo_inurba_marseille","lat":43.28727,"lon":5.36078,"is_reserved":false,"is_disabled":false,"rental_uris":{"android":"levelo://app?vid=d907a7ed-c95c-4403-9c63-ce65b86da356","ios":"levelo://app?vid=d907a7ed-c95c-4403-9c63-ce65b86da356"},"vehicle_type_id":"4","last_reported":1705338380,"current_range_meters":23200,"station_id":"cki0cbj6b192h4jlfktg","pricing_plan_id":"free"},{"bike_id":"05dce771-841d-4c26-ad1e-dfddc78520dd","system_id":"levelo_inurba_marseille","lat":43.301117,"lon":5.398795,"is_reserved":false,"is_disabled":false,"rental_uris":{"android":"levelo://app?vid=05dce771-841d-4c26-ad1e-dfddc78520dd","ios":"levelo://app?vid=05dce771-841d-4c26-ad1e-dfddc78520dd"},"vehicle_type_id":"4","last_reported":1705338380,"current_range_meters":16000,"station_id":"ce4bh0h2rcd13ifvqd40","pricing_plan_id":"free"},{"bike_id":"099be6f4-2b47-4b75-9d56-4d7386e3701b","system_id":"levelo_inurba_marseille","lat":43.28727,"lon":5.36078,"is_reserved":false,"is_disabled":false,"rental_uris":{"android":"levelo://app?vid=099be6f4-2b47-4b75-9d56-4d7386e3701b","ios":"levelo://app?vid=099be6f4-2b47-4b75-9d56-4d7386e3701b"},"vehicle_type_id":"4","last_reported":1705338380,"current_range_meters":11200,"station_id":"cki0cbj6b192h4jlfktg","pricing_plan_id":"free"},{"bike_id":"92ecd2af-1327-4ce9-9362-5b37e167a92f","system_id":"levelo_inurba_marseille","lat":43.286961,"lon":5.373785,"is_reserved":false,"is_disabled":false,"rental_uris":{"android":"levelo://app?vid=92ecd2af-1327-4ce9-9362-5b37e167a92f","ios":"levelo://app?vid=92ecd2af-1327-4ce9-9362-5b37e167a92f"},"vehicle_type_id":"4","last_reported":1705338380,"current_range_meters":16400,"station_id":"ce4bh3p2rcd13ifvqdq0","pricing_plan_id":"free"},{"bike_id":"c626f7f4-4b1d-493a-b4e1-8a1c81b96f3e","system_id":"levelo_inurba_marseille","lat":43.298681,"lon":5.397225,"is_reserved":false,"is_disabled":false,"rental_uris":{"android":"levelo://app?vid=c626f7f4-4b1d-493a-b4e1-8a1c81b96f3e","ios":"levelo://app?vid=c626f7f4-4b1d-493a-b4e1-8a1c81b96f3e"},"vehicle_type_id":"4","last_reported":1705338380,"current_range_meters":20800,"station_id":"ce4bh0h2rcd13ifvqd50","pricing_plan_id":"free"},{"bike_id":"90310819-8a18-478b-aa5a-5a6e26a1e995","system_id":"levelo_inurba_marseille","lat":43.298681,"lon":5.397225,"is_reserved":false,"is_disabled":false,"rental_uris":{"android":"levelo://app?vid=90310819-8a18-478b-aa5a-5a6e26a1e995","ios":"levelo://app?vid=90310819-8a18-478b-aa5a-5a6e26a1e995"},"vehicle_type_id":"4","last_reported":1705338380,"current_range_meters":4800,"station_id":"ce4bh0h2rcd13ifvqd50","pricing_plan_id":"free"},{"bike_id":"c0bacc23-377f-4ca4-b5f6-58b05edc531b","system_id":"levelo_inurba_marseille","lat":43.286961,"lon":5.373785,"is_reserved":false,"is_disabled":false,"rental_uris":{"android":"levelo://app?vid=c0bacc23-377f-4ca4-b5f6-58b05edc531b","ios":"levelo://app?vid=c0bacc23-377f-4ca4-b5f6-58b05edc531b"},"vehicle_type_id":"4","last_reported":1705338380,"current_range_meters":31600,"station_id":"ce4bh3p2rcd13ifvqdq0","pricing_plan_id":"free"},{"bike_id":"cd42ef09-78bf-459c-87d2-017457c3c7da","system_id":"levelo_inurba_marseille","lat":43.298681,"lon":5.397225,"is_reserved":false,"is_disabled":false,"rental_uris":{"android":"levelo://app?vid=cd42ef09-78bf-459c-87d2-017457c3c7da","ios":"levelo://app?vid=cd42ef09-78bf-459c-87d2-017457c3c7da"},"vehicle_type_id":"4","last_reported":1705338380,"current_range_meters":30000,"station_id":"ce4bh0h2rcd13ifvqd50","pricing_plan_id":"free"},{"bike_id":"748ff3a9-dd90-45a3-917a-edfd6bf144f9","system_id":"levelo_inurba_marseille","lat":43.286961,"lon":5.373785,"is_reserved":false,"is_disabled":false,"rental_uris":{"android":"levelo://app?vid=748ff3a9-dd90-45a3-917a-edfd6bf144f9","ios":"levelo://app?vid=748ff3a9-dd90-45a3-917a-edfd6bf144f9"},"vehicle_type_id":"4","last_reported":1705338380,"current_range_meters":9200,"station_id":"ce4bh3p2rcd13ifvqdq0","pricing_plan_id":"free"},{"bike_id":"cc184a6d-ee2b-4a3e-bc67-34046cc7a2c4","system_id":"levelo_inurba_marseille","lat":43.286591,"lon":5.363346,"is_reserved":false,"is_disabled":false,"rental_uris":{"android":"levelo://app?vid=cc184a6d-ee2b-4a3e-bc67-34046cc7a2c4","ios":"levelo://app?vid=cc184a6d-ee2b-4a3e-bc67-34046cc7a2c4"},"vehicle_type_id":"4","last_reported":1705338380,"current_range_meters":18000,"station_id":"ce4bhah2rcd13ifvqej0","pricing_plan_id":"free"},{"bike_id":"5c916b74-1c76-4e13-90c9-2fed6b840c55","system_id":"levelo_inurba_marseille","lat":43.286961,"lon":5.373785,"is_reserved":false,"is_disabled":false,"rental_uris":{"android":"levelo://app?vid=5c916b74-1c76-4e13-90c9-2fed6b840c55","ios":"levelo://app?vid=5c916b74-1c76-4e13-90c9-2fed6b840c55"},"vehicle_type_id":"4","last_reported":1705338380,"current_range_meters":24400,"station_id":"ce4bh3p2rcd13ifvqdq0","pricing_plan_id":"free"},{"bike_id":"7fbdfdac-7fad-42b6-9d87-a7e5d85d285e","system_id":"levelo_inurba_marseille","lat":43.298681,"lon":5.397225,"is_reserved":false,"is_disabled":false,"rental_uris":{"android":"levelo://app?vid=7fbdfdac-7fad-42b6-9d87-a7e5d85d285e","ios":"levelo://app?vid=7fbdfdac-7fad-42b6-9d87-a7e5d85d285e"},"vehicle_type_id":"4","last_reported":1705338380,"current_range_meters":22400,"station_id":"ce4bh0h2rcd13ifvqd50","pricing_plan_id":"free"},{"bike_id":"00f72dcd-4af3-4b31-884e-eb0ca6dc3827","system_id":"levelo_inurba_marseille","lat":43.286653,"lon":5.363457,"is_reserved":false,"is_disabled":false,"rental_uris":{"android":"levelo://app?vid=00f72dcd-4af3-4b31-884e-eb0ca6dc3827","ios":"levelo://app?vid=00f72dcd-4af3-4b31-884e-eb0ca6dc3827"},"vehicle_type_id":"4","last_reported":1705338380,"current_range_meters":0,"station_id":"ce4bhah2rcd13ifvqej0","pricing_plan_id":"free"},{"bike_id":"3e4f9109-69f1-45ff-8153-743d67c963c1","system_id":"levelo_inurba_marseille","lat":43.286961,"lon":5.373785,"is_reserved":false,"is_disabled":false,"rental_uris":{"android":"levelo://app?vid=3e4f9109-69f1-45ff-8153-743d67c963c1","ios":"levelo://app?vid=3e4f9109-69f1-45ff-8153-743d67c963c1"},"vehicle_type_id":"4","last_reported":1705338380,"current_range_meters":3600,"station_id":"ce4bh3p2rcd13ifvqdq0","pricing_plan_id":"free"},{"bike_id":"7cf7a9e2-dd64-4ce0-8c62-03199b0e5bf2","system_id":"levelo_inurba_marseille","lat":43.286961,"lon":5.373785,"is_reserved":false,"is_disabled":false,"rental_uris":{"android":"levelo://app?vid=7cf7a9e2-dd64-4ce0-8c62-03199b0e5bf2","ios":"levelo://app?vid=7cf7a9e2-dd64-4ce0-8c62-03199b0e5bf2"},"vehicle_type_id":"4","last_reported":1705338380,"current_range_meters":26400,"station_id":"ce4bh3p2rcd13ifvqdq0","pricing_plan_id":"free"},{"bike_id":"66da564a-d195-4742-ab34-ae4e90839509","system_id":"levelo_inurba_marseille","lat":43.298681,"lon":5.397225,"is_reserved":false,"is_disabled":false,"rental_uris":{"android":"levelo://app?vid=66da564a-d195-4742-ab34-ae4e90839509","ios":"levelo://app?vid=66da564a-d195-4742-ab34-ae4e90839509"},"vehicle_type_id":"4","last_reported":1705338380,"current_range_meters":800,"station_id":"ce4bh0h2rcd13ifvqd50","pricing_plan_id":"free"},{"bike_id":"b834b2a7-2e3f-414b-bd99-22ff9e9e691e","system_id":"levelo_inurba_marseille","lat":43.295194,"lon":5.39397,"is_reserved":false,"is_disabled":false,"rental_uris":{"android":"levelo://app?vid=b834b2a7-2e3f-414b-bd99-22ff9e9e691e","ios":"levelo://app?vid=b834b2a7-2e3f-414b-bd99-22ff9e9e691e"},"vehicle_type_id":"4","last_reported":1705338380,"current_range_meters":24000,"station_id":"ce4bh292rcd13ifvqdf0","pricing_plan_id":"free"},{"bike_id":"e4fa75d2-befb-40a2-8794-ccbd6c83047b","system_id":"levelo_inurba_marseille","lat":43.289307,"lon":5.38406,"is_reserved":false,"is_disabled":false,"rental_uris":{"android":"levelo://app?vid=e4fa75d2-befb-40a2-8794-ccbd6c83047b","ios":"levelo://app?vid=e4fa75d2-befb-40a2-8794-ccbd6c83047b"},"vehicle_type_id":"4","last_reported":1705338380,"current_range_meters":24400,"station_id":"ce4bh612rcd13ifvqe6g","pricing_plan_id":"free"},{"bike_id":"ed6841a0-5c72-4969-87bc-76c9b605559b","system_id":"levelo_inurba_marseille","lat":43.28925,"lon":5.383917,"is_reserved":false,"is_disabled":false,"rental_uris":{"android":"levelo://app?vid=ed6841a0-5c72-4969-87bc-76c9b605559b","ios":"levelo://app?vid=ed6841a0-5c72-4969-87bc-76c9b605559b"},"vehicle_type_id":"4","last_reported":1705338380,"current_range_meters":6000,"station_id":"ce4bh612rcd13ifvqe6g","pricing_plan_id":"free"},{"bike_id":"69dfe2c0-7909-4f77-a3dd-7629b67c4775","system_id":"levelo_inurba_marseille","lat":43.290345,"lon":5.38646,"is_reserved":false,"is_disabled":false,"rental_uris":{"android":"levelo://app?vid=69dfe2c0-7909-4f77-a3dd-7629b67c4775","ios":"levelo://app?vid=69dfe2c0-7909-4f77-a3dd-7629b67c4775"},"vehicle_type_id":"4","last_reported":1705338380,"current_range_meters":5200,"station_id":"ce4bh4p2rcd13ifvqe0g","pricing_plan_id":"free"},{"bike_id":"83ddd6e7-4ce7-49ff-adde-c2333e15fdb9","system_id":"levelo_inurba_marseille","lat":43.287184,"lon":5.37937,"is_reserved":false,"is_disabled":false,"rental_uris":{"android":"levelo://app?vid=83ddd6e7-4ce7-49ff-adde-c2333e15fdb9","ios":"levelo://app?vid=83ddd6e7-4ce7-49ff-adde-c2333e15fdb9"},"vehicle_type_id":"4","last_reported":1705338380,"current_range_meters":27600,"station_id":"ce4bh9p2rcd13ifvqec0","pricing_plan_id":"free"},{"bike_id":"68a5f6fa-0bb1-40d0-ad5a-52c9963bfe01","system_id":"levelo_inurba_marseille","lat":43.287184,"lon":5.37937,"is_reserved":false,"is_disabled":false,"rental_uris":{"android":"levelo://app?vid=68a5f6fa-0bb1-40d0-ad5a-52c9963bfe01","ios":"levelo://app?vid=68a5f6fa-0bb1-40d0-ad5a-52c9963bfe01"},"vehicle_type_id":"4","last_reported":1705338380,"current_range_meters":12800,"station_id":"ce4bh9p2rcd13ifvqec0","pricing_plan_id":"free"},{"bike_id":"98ece42e-336d-48d9-a3de-8c9eaa12f061","system_id":"levelo_inurba_marseille","lat":43.300965,"lon":5.4005,"is_reserved":false,"is_disabled":false,"rental_uris":{"android":"levelo://app?vid=98ece42e-336d-48d9-a3de-8c9eaa12f061","ios":"levelo://app?vid=98ece42e-336d-48d9-a3de-8c9eaa12f061"},"vehicle_type_id":"4","last_reported":1705338380,"current_range_meters":25200,"station_id":"","pricing_plan_id":"free"},{"bike_id":"d0758570-1d3c-4870-917d-1cfe96e34b7a","system_id":"levelo_inurba_marseille","lat":43.316828,"lon":5.404723,"is_reserved":false,"is_disabled":false,"rental_uris":{"android":"levelo://app?vid=d0758570-1d3c-4870-917d-1cfe96e34b7a","ios":"levelo://app?vid=d0758570-1d3c-4870-917d-1cfe96e34b7a"},"vehicle_type_id":"4","last_reported":1705338380,"current_range_meters":18000,"station_id":"ce4bh012rcd13ifvqd00","pricing_plan_id":"free"},{"bike_id":"9885b38a-70de-4a7a-acd0-a56b6dc0cf5e","system_id":"levelo_inurba_marseille","lat":43.291994,"lon":5.392907,"is_reserved":false,"is_disabled":false,"rental_uris":{"android":"levelo://app?vid=9885b38a-70de-4a7a-acd0-a56b6dc0cf5e","ios":"levelo://app?vid=9885b38a-70de-4a7a-acd0-a56b6dc0cf5e"},"vehicle_type_id":"4","last_reported":1705338380,"current_range_meters":11600,"station_id":"ce4bh192rcd13ifvqdd0","pricing_plan_id":"free"},{"bike_id":"b2541ed2-954d-449c-b2cd-621f578a8f0c","system_id":"levelo_inurba_marseille","lat":43.291994,"lon":5.392907,"is_reserved":false,"is_disabled":false,"rental_uris":{"android":"levelo://app?vid=b2541ed2-954d-449c-b2cd-621f578a8f0c","ios":"levelo://app?vid=b2541ed2-954d-449c-b2cd-621f578a8f0c"},"vehicle_type_id":"4","last_reported":1705338380,"current_range_meters":15200,"station_id":"ce4bh192rcd13ifvqdd0","pricing_plan_id":"free"},{"bike_id":"187f32d4-667f-442f-9f16-3aa2d4985ef1","system_id":"levelo_inurba_marseille","lat":43.291994,"lon":5.392907,"is_reserved":false,"is_disabled":false,"rental_uris":{"android":"levelo://app?vid=187f32d4-667f-442f-9f16-3aa2d4985ef1","ios":"levelo://app?vid=187f32d4-667f-442f-9f16-3aa2d4985ef1"},"vehicle_type_id":"4","last_reported":1705338380,"current_range_meters":1200,"station_id":"ce4bh192rcd13ifvqdd0","pricing_plan_id":"free"},{"bike_id":"b9ee3f85-e71e-4261-a4b7-72cf751ee2d7","system_id":"levelo_inurba_marseille","lat":43.291994,"lon":5.392907,"is_reserved":false,"is_disabled":false,"rental_uris":{"android":"levelo://app?vid=b9ee3f85-e71e-4261-a4b7-72cf751ee2d7","ios":"levelo://app?vid=b9ee3f85-e71e-4261-a4b7-72cf751ee2d7"},"vehicle_type_id":"4","last_reported":1705338380,"current_range_meters":24000,"station_id":"ce4bh192rcd13ifvqdd0","pricing_plan_id":"free"},{"bike_id":"506eea32-0c31-454f-aed9-8fb9bbea662d","system_id":"levelo_inurba_marseille","lat":43.291994,"lon":5.392907,"is_reserved":false,"is_disabled":false,"rental_uris":{"android":"levelo://app?vid=506eea32-0c31-454f-aed9-8fb9bbea662d","ios":"levelo://app?vid=506eea32-0c31-454f-aed9-8fb9bbea662d"},"vehicle_type_id":"4","last_reported":1705338380,"current_range_meters":2800,"station_id":"ce4bh192rcd13ifvqdd0","pricing_plan_id":"free"},