{"last_updated":1740996643,"ttl":60,"version":"2.2","data":{"bikes":[{"bike_id":"79feedda-f181-4666-b735-dd3cfb2d8c0f","system_id":"levelo_inurba_marseille","lat":43.31904,"lon":5.41142,"is_reserved":false,"is_disabled":true,"rental_uris":{"android":"levelo://app?vid=79feedda-f181-4666-b735-dd3cfb2d8c0f","ios":"levelo://app?vid=79feedda-f181-4666-b735-dd3cfb2d8c0f"},"vehicle_type_id":"4","last_reported":1740996643,"current_range_meters":0,"station_id":"","pricing_plan_id":"cebpf4jnsgd1na2vs0mg"},{"bike_id":"d5458f89-73a3-43f1-9894-000389f52995","system_id":"levelo_inurba_marseille","lat":43.27614,"lon":5.41489,"is_reserved":false,"is_disabled":true,"rental_uris":{"android":"levelo://app?vid=d5458f89-73a3-43f1-9894-000389f52995","ios":"levelo://app?vid=d5458f89-73a3-43f1-9894-000389f52995"},"vehicle_type_id":"4","last_reported":1740996643,"current_range_meters":0,"station_id":"","pricing_plan_id":"cebpf4jnsgd1na2vs0mg"},{"bike_id":"5ed974d0-e815-4356-aea9-23a7a86e1688","system_id":"levelo_inurba_marseille","lat":43.337444,"lon":5.374475,"is_reserved":false,"is_disabled":true,"rental_uris":{"android":"levelo://app?vid=5ed974d0-e815-4356-aea9-23a7a86e1688","ios":"levelo://app?vid=5ed974d0-e815-4356-aea9-23a7a86e1688"},"vehicle_type_id":"4","last_reported":1740996643,"current_range_meters":0,"station_id":"","pricing_plan_id":"cebpf4jnsgd1na2vs0mg"},{"bike_id":"afcec8eb-28d8-4889-8879-0897cb5957e3","system_id":"levelo_inurba_marseille","lat":43.28001,"lon":5.405894,"is_reserved":false,"is_disabled":true,"rental_uris":{"android":"levelo://app?vid=afcec8eb-28d8-4889-8879-0897cb5957e3","ios":"levelo://app?vid=afcec8eb-28d8-4889-8879-0897cb5957e3"},"vehicle_type_id":"4","last_reported":1740996643,"current_range_meters":0,"station_id":"","pricing_plan_id":"cebpf4jnsgd1na2vs0mg"},{"bike_id":"7299c7f5-b19a-415a-98fb-92e8f867f54e","system_id":"levelo_inurba_marseille","lat":43.31659,"lon":5.39728,"is_reserved":false,"is_disabled":true,"rental_uris":{"android":"levelo://app?vid=7299c7f5-b19a-415a-98fb-92e8f867f54e","ios":"levelo://app?vid=7299c7f5-b19a-415a-98fb-92e8f867f54e"},"vehicle_type_id":"4","last_reported":1740996643,"current_range_meters":0,"station_id":"","pricing_plan_id":"cebpf4jnsgd1na2vs0mg"},{"bike_id":"6bead628-b45f-47a3-8763-22c7c035af2e","system_id":"levelo_inurba_marseille","lat":43.33193,"lon":5.39753,"is_reserved":false,"is_disabled":true,"rental_uris":{"android":"levelo://app?vid=6bead628-b45f-47a3-8763-22c7c035af2e","ios":"levelo://app?vid=6bead628-b45f-47a3-8763-22c7c035af2e"},"vehicle_type_id":"4","last_reported":1740996643,"current_range_meters":0,"station_id":"","pricing_plan_id":"cebpf4jnsgd1na2vs0mg"},{"bike_id":"0aba857b-44fd-4c08-a47b-aac762062db1","system_id":"levelo_inurba_marseille","lat":43.26846,"lon":5.39372,"is_reserved":false,"is_disabled":true,"rental_uris":{"android":"levelo://app?vid=0aba857b-44fd-4c08-a47b-aac762062db1","ios":"levelo://app?vid=0aba857b-44fd-4c08-a47b-aac762062db1"},"vehicle_type_id":"4","last_reported":1740996643,"current_range_meters":0,"station_id":"","pricing_plan_id":"cebpf4jnsgd1na2vs0mg"},{"bike_id":"a2217394-fab8-431a-9ac5-008b5f3ad1de","system_id":"levelo_inurba_marseille","lat":43.28413,"lon":5.34987,"is_reserved":false,"is_disabled":false,"rental_uris":{"android":"levelo://app?vid=a2217394-fab8-431a-9ac5-008b5f3ad1de","ios":"levelo://app?vid=a2217394-fab8-431a-9ac5-008b5f3ad1de"},"vehicle_type_id":"4","last_reported":1740996643,"current_range_meters":0,"station_id":"ce4bhbh2rcd13ifvqepg","pricing_plan_id":"cebpf4jnsgd1na2vs0mg"},{"bike_id":"7661d539-bffb-44cc-a64d-67a8684941c2","system_id":"levelo_inurba_marseille","lat":43.26036,"lon":5.37552,"is_reserved":false,"is_disabled":true,"rental_uris":{"android":"levelo://app?vid=7661d539-bffb-44cc-a64d-67a8684941c2","ios":"levelo://app?vid=7661d539-bffb-44cc-a64d-67a8684941c2"},"vehicle_type_id":"4","last_reported":1740996643,"current_range_meters":0,"station_id":"ce4bhgh2rcd13ifvqfa0","pricing_plan_id":"cebpf4jnsgd1na2vs0mg"},{"bike_id":"2f91dc2e-9bfe-4b4b-9407-d984fd8ccf1f","system_id":"levelo_inurba_marseille","lat":43.2315,"lon":5.43711,"is_reserved":false,"is_disabled":true,"rental_uris":{"android":"levelo://app?vid=2f91dc2e-9bfe-4b4b-9407-d984fd8ccf1f","ios":"levelo://app?vid=2f91dc2e-9bfe-4b4b-9407-d984fd8ccf1f"},"vehicle_type_id":"4","last_reported":1740996643,"current_range_meters":0,"station_id":"ce4bhmp2rcd13ifvqgog","pricing_plan_id":"cebpf4jnsgd1na2vs0mg"},{"bike_id":"757eba66-4149-42bd-b948-108e047a6ee8","system_id":"levelo_inurba_marseille","lat":43.231505,"lon":5.437015,"is_reserved":false,"is_disabled":true,"rental_uris":{"android":"levelo://app?vid=757eba66-4149-42bd-b948-108e047a6ee8","ios":"levelo://app?vid=757eba66-4149-42bd-b948-108e047a6ee8"},"vehicle_type_id":"4","last_reported":1740996643,"current_range_meters":0,"station_id":"ce4bhmp2rcd13ifvqgog","pricing_plan_id":"cebpf4jnsgd1na2vs0mg"},{"bike_id":"0b7f5b71-f4ed-4763-9583-67e09d08abcf","system_id":"levelo_inurba_marseille","lat":43.24172,"lon":5.39734,"is_reserved":false,"is_disabled":true,"rental_uris":{"android":"levelo://app?vid=0b7f5b71-f4ed-4763-9583-67e09d08abcf","ios":"levelo://app?vid=0b7f5b71-f4ed-4763-9583-67e09d08abcf"},"vehicle_type_id":"4","last_reported":1740996643,"current_range_meters":0,"station_id":"ce4bhn12rcd13ifvqgpg","pricing_plan_id":"cebpf4jnsgd1na2vs0mg"},{"bike_id":"77566084-a98d-4dc2-916a-266e71e8472f","system_id":"levelo_inurba_marseille","lat":43.24162,"lon":5.39737,"is_reserved":false,"is_disabled":true,"rental_uris":{"android":"levelo://app?vid=77566084-a98d-4dc2-916a-266e71e8472f","ios":"levelo://app?vid=77566084-a98d-4dc2-916a-266e71e8472f"},"vehicle_type_id":"4","last_reported":1740996643,"current_range_meters":0,"station_id":"ce4bhn12rcd13ifvqgpg","pricing_plan_id":"cebpf4jnsgd1na2vs0mg"},{"bike_id":"ff0da286-9351-4fed-91ef-98d57d73839a","system_id":"levelo_inurba_marseille","lat":43.23167,"lon":5.40017,"is_reserved":false,"is_disabled":true,"rental_uris":{"android":"levelo://app?vid=ff0da286-9351-4fed-91ef-98d57d73839a","ios":"levelo://app?vid=ff0da286-9351-4fed-91ef-98d57d73839a"},"vehicle_type_id":"4","last_reported":1740996643,"current_range_meters":0,"station_id":"ce4bhn12rcd13ifvqgqg","pricing_plan_id":"cebpf4jnsgd1na2vs0mg"},{"bike_id":"28f34d60-4464-4cd7-a2b7-feed8edfc586","system_id":"levelo_inurba_marseille","lat":43.27492,"lon":5.42457,"is_reserved":false,"is_disabled":true,"rental_uris":{"android":"levelo://app?vid=28f34d60-4464-4cd7-a2b7-feed8edfc586","ios":"levelo://app?vid=28f34d60-4464-4cd7-a2b7-feed8edfc586"},"vehicle_type_id":"4","last_reported":1740996643,"current_range_meters":0,"station_id":"ce4bhn92rcd13ifvqgrg","pricing_plan_id":"cebpf4jnsgd1na2vs0mg"},{"bike_id":"d7ee2a0c-5521-43cd-b5d8-51146eb86d00","system_id":"levelo_inurba_marseille","lat":43.28146,"lon":5.42674,"is_reserved":false,"is_disabled":true,"rental_uris":{"android":"levelo://app?vid=d7ee2a0c-5521-43cd-b5d8-51146eb86d00","ios":"levelo://app?vid=d7ee2a0c-5521-43cd-b5d8-51146eb86d00"},"vehicle_type_id":"4","last_reported":1740996643,"current_range_meters":0,"station_id":"ce4bhnh2rcd13ifvqgug","pricing_plan_id":"cebpf4jnsgd1na2vs0mg"},{"bike_id":"2b3ffbed-53e1-4abd-aef4-e1ad79b4146a","system_id":"levelo_inurba_marseille","lat":43.27939,"lon":5.41039,"is_reserved":false,"is_disabled":true,"rental_uris":{"android":"levelo://app?vid=2b3ffbed-53e1-4abd-aef4-e1ad79b4146a","ios":"levelo://app?vid=2b3ffbed-53e1-4abd-aef4-e1ad79b4146a"},"vehicle_type_id":"4","last_reported":1740996643,"current_range_meters":0,"station_id":"ce4bhnp2rcd13ifvqh0g","pricing_plan_id":"cebpf4jnsgd1na2vs0mg"},{"bike_id":"bfdffacc-57e7-4b26-ac88-982817e70f42","system_id":"levelo_inurba_marseille","lat":43.32368,"lon":5.38882,"is_reserved":false,"is_disabled":true,"rental_uris":{"android":"levelo://app?vid=bfdffacc-57e7-4b26-ac88-982817e70f42","ios":"levelo://app?vid=bfdffacc-57e7-4b26-ac88-982817e70f42"},"vehicle_type_id":"4","last_reported":1740996643,"current_range_meters":0,"station_id":"ce4bhqp2rcd13ifvqhog","pricing_plan_id":"cebpf4jnsgd1na2vs0mg"},{"bike_id":"21762d5f-08a9-43d5-a2a2-f08660ddcc46","system_id":"levelo_inurba_marseille","lat":43.23073,"lon":5.35513,"is_reserved":false,"is_disabled":true,"rental_uris":{"android":"levelo://app?vid=21762d5f-08a9-43d5-a2a2-f08660ddcc46","ios":"levelo://app?vid=21762d5f-08a9-43d5-a2a2-f08660ddcc46"},"vehicle_type_id":"4","last_reported":1740996643,"current_range_meters":0,"station_id":"cpo3342slgdg3j2ifvpg","pricing_plan_id":"cebpf4jnsgd1na2vs0mg"},{"bike_id":"613e3526-b6a4-409f-b980-9e4eb31ee1fd","system_id":"levelo_inurba_marseille","lat":43.23067,"lon":5.35493,"is_reserved":false,"is_disabled":true,"rental_uris":{"android":"levelo://app?vid=613e3526-b6a4-409f-b980-9e4eb31ee1fd","ios":"levelo://app?vid=613e3526-b6a4-409f-b980-9e4eb31ee1fd"},"vehicle_type_id":"4","last_reported":1740996643,"current_range_meters":0,"station_id":"cpo3342slgdg3j2ifvpg","pricing_plan_id":"cebpf4jnsgd1na2vs0mg"},{"bike_id":"05efb80a-a1a5-4b4d-8733-2780fddf4e5b","system_id":"levelo_inurba_marseille","lat":43.28085,"lon":5.40797,"is_reserved":false,"is_disabled":true,"rental_uris":{"android":"levelo://app?vid=05efb80a-a1a5-4b4d-8733-2780fddf4e5b","ios":"levelo://app?vid=05efb80a-a1a5-4b4d-8733-2780fddf4e5b"},"vehicle_type_id":"4","last_reported":1740996643,"current_range_meters":400,"station_id":"","pricing_plan_id":"cebpf4jnsgd1na2vs0mg"},{"bike_id":"d5de36dd-5d22-4765-8f01-09ddd8b02c2e","system_id":"levelo_inurba_marseille","lat":43.32958,"lon":5.40886,"is_reserved":false,"is_disabled":true,"rental_uris":{"android":"levelo://app?vid=d5de36dd-5d22-4765-8f01-09ddd8b02c2e","ios":"levelo://app?vid=d5de36dd-5d22-4765-8f01-09ddd8b02c2e"},"vehicle_type_id":"4","last_reported":1740996643,"current_range_meters":400,"station_id":"","pricing_plan_id":"cebpf4jnsgd1na2vs0mg"},{"bike_id":"d81b2cc8-fb23-4c08-9ddd-89d546b76a90","system_id":"levelo_inurba_marseille","lat":43.325163,"lon":5.385983,"is_reserved":false,"is_disabled":true,"rental_uris":{"android":"levelo://app?vid=d81b2cc8-fb23-4c08-9ddd-89d546b76a90","ios":"levelo://app?vid=d81b2cc8-fb23-4c08-9ddd-89d546b76a90"},"vehicle_type_id":"4","last_reported":1740996643,"current_range_meters":800,"station_id":"","pricing_plan_id":"cebpf4jnsgd1na2vs0mg"},{"bike_id":"e65d2be1-9161-4ae6-9036-c75e0fa7ad1f","system_id":"levelo_inurba_marseille","lat":43.2656,"lon":5.39044,"is_reserved":false,"is_disabled":true,"rental_uris":{"android":"levelo://app?vid=e65d2be1-9161-4ae6-9036-c75e0fa7ad1f","ios":"levelo://app?vid=e65d2be1-9161-4ae6-9036-c75e0fa7ad1f"},"vehicle_type_id":"4","last_reported":1740996643,"current_range_meters":800,"station_id":"ce4bhe12rcd13ifvqf30","pricing_plan_id":"cebpf4jnsgd1na2vs0mg"},{"bike_id":"798b8017-ff68-4ca6-bf96-b9cd86f1a27b","system_id":"levelo_inurba_marseille","lat":43.24061,"lon":5.37725,"is_reserved":false,"is_disabled":true,"rental_uris":{"android":"levelo://app?vid=798b8017-ff68-4ca6-bf96-b9cd86f1a27b","ios":"levelo://app?vid=798b8017-ff68-4ca6-bf96-b9cd86f1a27b"},"vehicle_type_id":"4","last_reported":1740996643,"current_range_meters":800,"station_id":"ce4bhnp2rcd13ifvqgvg","pricing_plan_id":"cebpf4jnsgd1na2vs0mg"},{"bike_id":"318e62ec-c992-4c2f-8ce0-cf60457d06ba","system_id":"levelo_inurba_marseille","lat":43.21767,"lon":5.34632,"is_reserved":false,"is_disabled":true,"rental_uris":{"android":"levelo://app?vid=318e62ec-c992-4c2f-8ce0-cf60457d06ba","ios":"levelo://app?vid=318e62ec-c992-4c2f-8ce0-cf60457d06ba"},"vehicle_type_id":"4","last_reported":1740996643,"current_range_meters":1200,"station_id":"","pricing_plan_id":"cebpf4jnsgd1na2vs0mg"},{"bike_id":"d5f3545a-d7d3-4bdb-b9ca-af46e105f623","system_id":"levelo_inurba_marseille","lat":43.27438,"lon":5.39425,"is_reserved":false,"is_disabled":true,"rental_uris":{"android":"levelo://app?vid=d5f3545a-d7d3-4bdb-b9ca-af46e105f623","ios":"levelo://app?vid=d5f3545a-d7d3-4bdb-b9ca-af46e105f623"},"vehicle_type_id":"4","last_reported":1740996643,"current_range_meters":1200,"station_id":"ce4bhdp2rcd13ifvqf20","pricing_plan_id":"cebpf4jnsgd1na2vs0mg"},{"bike_id":"b7201307-5540-4438-b750-e30d3ffb19e8","system_id":"levelo_inurba_marseille","lat":43.27965,"lon":5.38749,"is_reserved":false,"is_disabled":true,"rental_uris":{"android":"levelo://app?vid=b7201307-5540-4438-b750-e30d3ffb19e8","ios":"levelo://app?vid=b7201307-5540-4438-b750-e30d3ffb19e8"},"vehicle_type_id":"4","last_reported":1740996643,"current_range_meters":1200,"station_id":"ce4bhg12rcd13ifvqf80","pricing_plan_id":"cebpf4jnsgd1na2vs0mg"},{"bike_id":"27b7843e-3934-44bc-8565-42c1b5629bf5","system_id":"levelo_inurba_marseille","lat":43.27068,"lon":5.4227,"is_reserved":false,"is_disabled":true,"rental_uris":{"android":"levelo://app?vid=27b7843e-3934-44bc-8565-42c1b5629bf5","ios":"levelo://app?vid=27b7843e-3934-44bc-8565-42c1b5629bf5"},"vehicle_type_id":"4","last_reported":1740996643,"current_range_meters":1200,"station_id":"ce4bhk92rcd13ifvqgb0","pricing_plan_id":"cebpf4jnsgd1na2vs0mg"},{"bike_id":"b009fe55-4d59-4f52-910b-e497dc53dfe6","system_id":"levelo_inurba_marseille","lat":43.23141,"lon":5.43692,"is_reserved":false,"is_disabled":true,"rental_uris":{"android":"levelo://app?vid=b009fe55-4d59-4f52-910b-e497dc53dfe6","ios":"levelo://app?vid=b009fe55-4d59-4f52-910b-e497dc53dfe6"},"vehicle_type_id":"4","last_reported":1740996643,"current_range_meters":1200,"station_id":"ce4bhmp2rcd13ifvqgog","pricing_plan_id":"cebpf4jnsgd1na2vs0mg"},{"bike_id":"2a6c84cf-c8a9-4f5d-86a2-89faec862185","system_id":"levelo_inurba_marseille","lat":43.24079,"lon":5.3778,"is_reserved":false,"is_disabled":true,"rental_uris":{"android":"levelo://app?vid=2a6c84cf-c8a9-4f5d-86a2-89faec862185","ios":"levelo://app?vid=2a6c84cf-c8a9-4f5d-86a2-89faec862185"},"vehicle_type_id":"4","last_reported":1740996643,"current_range_meters":1200,"station_id":"ce4bhnp2rcd13ifvqgvg","pricing_plan_id":"cebpf4jnsgd1na2vs0mg"},{"bike_id":"cae47438-eddb-4ea7-ad60-e45ef1cce088","system_id":"levelo_inurba_marseille","lat":43.32535,"lon":5.4145,"is_reserved":false,"is_disabled":true,"rental_uris":{"android":"levelo://app?vid=cae47438-eddb-4ea7-ad60-e45ef1cce088","ios":"levelo://app?vid=cae47438-eddb-4ea7-ad60-e45ef1cce088"},"vehicle_type_id":"4","last_reported":1740996643,"current_range_meters":1200,"station_id":"ce4bhq12rcd13ifvqhhg","pricing_plan_id":"cebpf4jnsgd1na2vs0mg"},{"bike_id":"c3c3d679-d8a3-40a3-9587-2faa69db1b36","system_id":"levelo_inurba_marseille","lat":43.272,"lon":5.39183,"is_reserved":false,"is_disabled":true,"rental_uris":{"android":"levelo://app?vid=c3c3d679-d8a3-40a3-9587-2faa69db1b36","ios":"levelo://app?vid=c3c3d679-d8a3-40a3-9587-2faa69db1b36"},"vehicle_type_id":"4","last_reported":1740996643,"current_range_meters":1600,"station_id":"ce4bhhp2rcd13ifvqfm0","pricing_plan_id":"cebpf4jnsgd1na2vs0mg"},{"bike_id":"0ff708a2-103c-4c72-8ccd-a8d1bdf0b6cd","system_id":"levelo_inurba_marseille","lat":43.26946,"lon":5.38651,"is_reserved":false,"is_disabled":true,"rental_uris":{"android":"levelo://app?vid=0ff708a2-103c-4c72-8ccd-a8d1bdf0b6cd","ios":"levelo://app?vid=0ff708a2-103c-4c72-8ccd-a8d1bdf0b6cd"},"vehicle_type_id":"4","last_reported":1740996643,"current_range_meters":2000,"station_id":"ce4bhh92rcd13ifvqfh0","pricing_plan_id":"cebpf4jnsgd1na2vs0mg"},{"bike_id":"ee6e3b57-f457-4562-a1f7-ca09c7fbf8b5","system_id":"levelo_inurba_marseille","lat":43.26948,"lon":5.38635,"is_reserved":false,"is_disabled":false,"rental_uris":{"android":"levelo://app?vid=ee6e3b57-f457-4562-a1f7-ca09c7fbf8b5","ios":"levelo://app?vid=ee6e3b57-f457-4562-a1f7-ca09c7fbf8b5"},"vehicle_type_id":"4","last_reported":1740996643,"current_range_meters":2800,"station_id":"ce4bhh92rcd13ifvqfh0","pricing_plan_id":"cebpf4jnsgd1na2vs0mg"},{"bike_id":"c78fec7b-10dd-4f35-bf5c-3ba2e863bd50","system_id":"levelo_inurba_marseille","lat":43.25502,"lon":5.37655,"is_reserved":false,"is_disabled":false,"rental_uris":{"android":"levelo://app?vid=c78fec7b-10dd-4f35-bf5c-3ba2e863bd50","ios":"levelo://app?vid=c78fec7b-10dd-4f35-bf5c-3ba2e863bd50"},"vehicle_type_id":"4","last_reported":1740996643,"current_range_meters":3200,"station_id":"ce4bhh12rcd13ifvqff0","pricing_plan_id":"cebpf4jnsgd1na2vs0mg"},{"bike_id":"bb8d91f6-7806-417e-9f40-7af7d2a367da","system_id":"levelo_inurba_marseille","lat":43.23187,"lon":5.39983,"is_reserved":false,"is_disabled":false,"rental_uris":{"android":"levelo://app?vid=bb8d91f6-7806-417e-9f40-7af7d2a367da","ios":"levelo://app?vid=bb8d91f6-7806-417e-9f40-7af7d2a367da"},"vehicle_type_id":"4","last_reported":1740996643,"current_range_meters":3200,"station_id":"ce4bhn12rcd13ifvqgqg","pricing_plan_id":"cebpf4jnsgd1na2vs0mg"},{"bike_id":"2555f18d-006c-4f7c-955a-8736815bc42c","system_id":"levelo_inurba_marseille","lat":43.29794,"lon":5.38121,"is_reserved":false,"is_disabled":false,"rental_uris":{"android":"levelo://app?vid=2555f18d-006c-4f7c-955a-8736815bc42c","ios":"levelo://app?vid=2555f18d-006c-4f7c-955a-8736815bc42c"},"vehicle_type_id":"4","last_reported":1740996643,"current_range_meters":3600,"station_id":"ce4bgip2rcd13ifvqbb0","pricing_plan_id":"cebpf4jnsgd1na2vs0mg"},{"bike_id":"e0ee554c-8d2a-466e-b09a-24f0dce660bc","system_id":"levelo_inurba_marseille","lat":43.29165,"lon":5.37159,"is_reserved":false,"is_disabled":false,"rental_uris":{"android":"levelo://app?vid=e0ee554c-8d2a-466e-b09a-24f0dce660bc","ios":"levelo://app?vid=e0ee554c-8d2a-466e-b09a-24f0dce660bc"},"vehicle_type_id":"4","last_reported":1740996643,"current_range_meters":3600,"station_id":"ce4bha92rcd13ifvqeh0","pricing_plan_id":"cebpf4jnsgd1na2vs0mg"},{"bike_id":"c2e99ae2-851a-4b6e-8385-5623b2a9d201","system_id":"levelo_inurba_marseille","lat":43.30146,"lon":5.38085,"is_reserved":false,"is_disabled":false,"rental_uris":{"android":"levelo://app?vid=c2e99ae2-851a-4b6e-8385-5623b2a9d201","ios":"levelo://app?vid=c2e99ae2-851a-4b6e-8385-5623b2a9d201"},"vehicle_type_id":"4","last_reported":1740996643,"current_range_meters":4400,"station_id":"ce4bgjp2rcd13ifvqbh0","pricing_plan_id":"cebpf4jnsgd1na2vs0mg"},{"bike_id":"9b343c9b-3d76-42d1-8766-061c15ba1e36","system_id":"levelo_inurba_marseille","lat":43.273846,"lon":5.36141,"is_reserved":false,"is_disabled":false,"rental_uris":{"android":"levelo://app?vid=9b343c9b-3d76-42d1-8766-061c15ba1e36","ios":"levelo://app?vid=9b343c9b-3d76-42d1-8766-061c15ba1e36"},"vehicle_type_id":"4","last_reported":1740996643,"current_range_meters":4800,"station_id":"","pricing_plan_id":"cebpf4jnsgd1na2vs0mg"},{"bike_id":"994c0033-a900-4288-a57b-ef4b2df6880f","system_id":"levelo_inurba_marseille","lat":43.3023,"lon":5.37789,"is_reserved":false,"is_disabled":false,"rental_uris":{"android":"levelo://app?vid=994c0033-a900-4288-a57b-ef4b2df6880f","ios":"levelo://app?vid=994c0033-a900-4288-a57b-ef4b2df6880f"},"vehicle_type_id":"4","last_reported":1740996643,"current_range_meters":4800,"station_id":"ce4bguh2rcd13ifvqcj0","pricing_plan_id":"cebpf4jnsgd1na2vs0mg"},{"bike_id":"6f11d198-b6d9-4dd3-ba4e-754d90956bde","system_id":"levelo_inurba_marseille","lat":43.25085,"lon":5.3952,"is_reserved":false,"is_disabled":false,"rental_uris":{"android":"levelo://app?vid=6f11d198-b6d9-4dd3-ba4e-754d90956bde","ios":"levelo://app?vid=6f11d198-b6d9-4dd3-ba4e-754d90956bde"},"vehicle_type_id":"4","last_reported":1740996643,"current_range_meters":4800,"station_id":"ce4bhm12rcd13ifvqgkg","pricing_plan_id":"cebpf4jnsgd1na2vs0mg"},{"bike_id":"0677b421-a0e9-4507-94d0-59c61f133610","system_id":"levelo_inurba_marseille","lat":43.24079,"lon":5.37778,"is_reserved":false,"is_disabled":false,"rental_uris":{"android":"levelo://app?vid=0677b421-a0e9-4507-94d0-59c61f133610","ios":"levelo://app?vid=0677b421-a0e9-4507-94d0-59c61f133610"},"vehicle_type_id":"4","last_reported":1740996643,"current_range_meters":4800,"station_id":"ce4bhnp2rcd13ifvqgvg","pricing_plan_id":"cebpf4jnsgd1na2vs0mg"},{"bike_id":"eafe4694-db55-4cde-85aa-971c3787bde8","system_id":"levelo_inurba_marseille","lat":43.24168,"lon":5.36412,"is_reserved":false,"is_disabled":false,"rental_uris":{"android":"levelo://app?vid=eafe4694-db55-4cde-85aa-971c3787bde8","ios":"levelo://app?vid=eafe4694-db55-4cde-85aa-971c3787bde8"},"vehicle_type_id":"4","last_reported":1740996643,"current_range_meters":4800,"station_id":"cpo36qri1sfpv3e86is0","pricing_plan_id":"cebpf4jnsgd1na2vs0mg"},{"bike_id":"97e8d4c3-f9a5-4604-95d3-9a0f93d23194","system_id":"levelo_inurba_marseille","lat":43.29175,"lon":5.40932,"is_reserved":false,"is_disabled":false,"rental_uris":{"android":"levelo://app?vid=97e8d4c3-f9a5-4604-95d3-9a0f93d23194","ios":"levelo://app?vid=97e8d4c3-f9a5-4604-95d3-9a0f93d23194"},"vehicle_type_id":"4","last_reported":1740996643,"current_range_meters":6000,"station_id":"","pricing_plan_id":"cebpf4jnsgd1na2vs0mg"},{"bike_id":"3cbb5843-7d6f-4ab1-8221-c879ecca96e4","system_id":"levelo_inurba_marseille","lat":43.32724,"lon":5.3627,"is_reserved":false,"is_disabled":false,"rental_uris":{"android":"levelo://app?vid=3cbb5843-7d6f-4ab1-8221-c879ecca96e4","ios":"levelo://app?vid=3cbb5843-7d6f-4ab1-8221-c879ecca96e4"},"vehicle_type_id":"4","last_reported":1740996643,"current_range_meters":6000,"station_id":"","pricing_plan_id":"cebpf4jnsgd1na2vs0mg"},{"bike_id":"822ba722-c0d0-4cc1-831a-ec528db99bbb","system_id":"levelo_inurba_marseille","lat":43.25004,"lon":5.38923,"is_reserved":false,"is_disabled":false,"rental_uris":{"android":"levelo://app?vid=822ba722-c0d0-4cc1-831a-ec528db99bbb","ios":"levelo://app?vid=822ba722-c0d0-4cc1-831a-ec528db99bbb"},"vehicle_type_id":"4","last_reported":1740996643,"current_range_meters":6000,"station_id":"ce4bhgp2rcd13ifvqfd0","pricing_plan_id":"cebpf4jnsgd1na2vs0mg"},{"bike_id":"020649c5-f757-446f-939b-0a62e3a653d6","system_id":"levelo_inurba_marseille","lat":43.24665,"lon":5.3816,"is_reserved":false,"is_disabled":false,"rental_uris":{"android":"levelo://app?vid=020649c5-f757-446f-939b-0a62e3a653d6","ios":"levelo://app?vid=020649c5-f757-446f-939b-0a62e3a653d6"},"vehicle_type_id":"4","last_reported":1740996643,"current_range_meters":6000,"station_id":"ce4bhih2rcd13ifvqfr0","pricing_plan_id":"cebpf4jnsgd1na2vs0mg"},{"bike_id":"7f47d482-09e6-40be-bf28-f1af69f2fc72","system_id":"levelo_inurba_marseille","lat":43.24079,"lon":5.37737,"is_reserved":false,"is_disabled":false,"rental_uris":{"android":"levelo://app?vid=7f47d482-09e6-40be-bf28-f1af69f2fc72","ios":"levelo://app?vid=7f47d482-09e6-40be-bf28-f1af69f2fc72"},"vehicle_type_id":"4","last_reported":1740996643,"current_range_meters":6000,"station_id":"ce4bhnp2rcd13ifvqgvg","pricing_plan_id":"cebpf4jnsgd1na2vs0mg"},{"bike_id":"7e57feb3-b099-4928-a843-4bcc80e172de","system_id":"levelo_inurba_marseille","lat":43.33605,"lon":5.41031,"is_reserved":false,"is_disabled":false,"rental_uris":{"android":"levelo://app?vid=7e57feb3-b099-4928-a843-4bcc80e172de","ios":"levelo://app?vid=7e57feb3-b099-4928-a843-4bcc80e172de"},"vehicle_type_id":"4","last_reported":1740996643,"current_range_meters":6000,"station_id":"ce4bhqh2rcd13ifvqhmg","pricing_plan_id":"cebpf4jnsgd1na2vs0mg"},{"bike_id":"926c1bda-983c-4a02-8b9b-c145d55d3b98","system_id":"levelo_inurba_marseille","lat":43.24069,"lon":5.37757,"is_reserved":false,"is_disabled":false,"rental_uris":{"android":"levelo://app?vid=926c1bda-983c-4a02-8b9b-c145d55d3b98","ios":"levelo://app?vid=926c1bda-983c-4a02-8b9b-c145d55d3b98"},"vehicle_type_id":"4","last_reported":1740996643,"current_range_meters":6400,"station_id":"ce4bhnp2rcd13ifvqgvg","pricing_plan_id":"cebpf4jnsgd1na2vs0mg"},{"bike_id":"0693b9d6-4a9d-4e38-bfa2-80f934bcc2e3","system_id":"levelo_inurba_marseille","lat":43.241667,"lon":5.364034,"is_reserved":false,"is_disabled":false,"rental_uris":{"android":"levelo://app?vid=0693b9d6-4a9d-4e38-bfa2-80f934bcc2e3","ios":"levelo://app?vid=0693b9d6-4a9d-4e38-bfa2-80f934bcc2e3"},"vehicle_type_id":"4","last_reported":1740996643,"current_range_meters":6400,"station_id":"cpo36qri1sfpv3e86is0","pricing_plan_id":"cebpf4jnsgd1na2vs0mg"},{"bike_id":"45c63551-ba7c-402b-ae67-a6020c30c5c0","system_id":"levelo_inurba_marseille","lat":43.31229,"lon":5.36868,"is_reserved":false,"is_disabled":false,"rental_uris":{"android":"levelo://app?vid=45c63551-ba7c-402b-ae67-a6020c30c5c0","ios":"levelo://app?vid=45c63551-ba7c-402b-ae67-a6020c30c5c0"},"vehicle_type_id":"4","last_reported":1740996643,"current_range_meters":6800,"station_id":"ce4bgl92rcd13ifvqbq0","pricing_plan_id":"cebpf4jnsgd1na2vs0mg"},{"bike_id":"c0bccde1-e56b-4413-b75d-ff2c76b63b67","system_id":"levelo_inurba_marseille","lat":43.30907,"lon":5.36831,"is_reserved":false,"is_disabled":false,"rental_uris":{"android":"levelo://app?vid=c0bccde1-e56b-4413-b75d-ff2c76b63b67","ios":"levelo://app?vid=c0bccde1-e56b-4413-b75d-ff2c76b63b67"},"vehicle_type_id":"4","last_reported":1740996643,"current_range_meters":6800,"station_id":"ce4bgn92rcd13ifvqbvg","pricing_plan_id":"cebpf4jnsgd1na2vs0mg"},{"bike_id":"2da3d4e5-bf9d-4cd3-b7fa-4e79daa1c81d","system_id":"levelo_inurba_marseille","lat":43.31361,"lon":5.36746,"is_reserved":false,"is_disabled":false,"rental_uris":{"android":"levelo://app?vid=2da3d4e5-bf9d-4cd3-b7fa-4e79daa1c81d","ios":"levelo://app?vid=2da3d4e5-bf9d-4cd3-b7fa-4e79daa1c81d"},"vehicle_type_id":"4","last_reported":1740996643,"current_range_meters":6800,"station_id":"ce4bgr92rcd13ifvqc6g","pricing_plan_id":"cebpf4jnsgd1na2vs0mg"},{"bike_id":"7eba43a7-8e2c-49b9-a472-5d1908d08c6d","system_id":"levelo_inurba_marseille","lat":43.25115,"lon":5.40321,"is_reserved":false,"is_disabled":false,"rental_uris":{"android":"levelo://app?vid=7eba43a7-8e2c-49b9-a472-5d1908d08c6d","ios":"levelo://app?vid=7eba43a7-8e2c-49b9-a472-5d1908d08c6d"},"vehicle_type_id":"4","last_reported":1740996643,"current_range_meters":6800,"station_id":"ce4bhlh2rcd13ifvqgig","pricing_plan_id":"cebpf4jnsgd1na2vs0mg"},{"bike_id":"7dbc97d2-8d43-423b-a2e9-b386d44d772f","system_id":"levelo_inurba_marseille","lat":43.27494,"lon":5.4247,"is_reserved":false,"is_disabled":false,"rental_uris":{"android":"levelo://app?vid=7dbc97d2-8d43-423b-a2e9-b386d44d772f","ios":"levelo://app?vid=7dbc97d2-8d43-423b-a2e9-b386d44d772f"},"vehicle_type_id":"4","last_reported":1740996643,"current_range_meters":6800,"station_id":"ce4bhn92rcd13ifvqgrg","pricing_plan_id":"cebpf4jnsgd1na2vs0mg"},{"bike_id":"769136f3-f3ae-4411-b6d7-424e2510d081","system_id":"levelo_inurba_marseille","lat":43.31381,"lon":5.3672,"is_reserved":false,"is_disabled":false,"rental_uris":{"android":"levelo://app?vid=769136f3-f3ae-4411-b6d7-424e2510d081","ios":"levelo://app?vid=769136f3-f3ae-4411-b6d7-424e2510d081"},"vehicle_type_id":"4","last_reported":1740996643,"current_range_meters":7200,"station_id":"ce4bgr92rcd13ifvqc6g","pricing_plan_id":"cebpf4jnsgd1na2vs0mg"},{"bike_id":"0ae26234-8d13-496b-85ef-ee7fcde2c590","system_id":"levelo_inurba_marseille","lat":43.24098,"lon":5.37739,"is_reserved":false,"is_disabled":false,"rental_uris":{"android":"levelo://app?vid=0ae26234-8d13-496b-85ef-ee7fcde2c590","ios":"levelo://app?vid=0ae26234-8d13-496b-85ef-ee7fcde2c590"},"vehicle_type_id":"4","last_reported":1740996643,"current_range_meters":7200,"station_id":"ce4bhnp2rcd13ifvqgvg","pricing_plan_id":"cebpf4jnsgd1na2vs0mg"},{"bike_id":"9b215d68-0d27-40bf-8c82-8eb47b1d2777","system_id":"levelo_inurba_marseille","lat":43.30548,"lon":5.36505,"is_reserved":false,"is_disabled":false,"rental_uris":{"android":"levelo://app?vid=9b215d68-0d27-40bf-8c82-8eb47b1d2777","ios":"levelo://app?vid=9b215d68-0d27-40bf-8c82-8eb47b1d2777"},"vehicle_type_id":"4","last_reported":1740996643,"current_range_meters":8000,"station_id":"ce4bgs12rcd13ifvqcag","pricing_plan_id":"cebpf4jnsgd1na2vs0mg"},{"bike_id":"4d778452-e76d-47f5-beab-4ccf6323e14b","system_id":"levelo_inurba_marseille","lat":43.31484,"lon":5.37309,"is_reserved":false,"is_disabled":false,"rental_uris":{"android":"levelo://app?vid=4d778452-e76d-47f5-beab-4ccf6323e14b","ios":"levelo://app?vid=4d778452-e76d-47f5-beab-4ccf6323e14b"},"vehicle_type_id":"4","last_reported":1740996643,"current_range_meters":8000,"station_id":"ce4bgt12rcd13ifvqcd0","pricing_plan_id":"cebpf4jnsgd1na2vs0mg"},{"bike_id":"c6f0544d-6a4b-46e4-a558-5d445d64bed6","system_id":"levelo_inurba_marseille","lat":43.29279,"lon":5.38474,"is_reserved":false,"is_disabled":false,"rental_uris":{"android":"levelo://app?vid=c6f0544d-6a4b-46e4-a558-5d445d64bed6","ios":"levelo://app?vid=c6f0544d-6a4b-46e4-a558-5d445d64bed6"},"vehicle_type_id":"4","last_reported":1740996643,"current_range_meters":8000,"station_id":"ce4bh2h2rcd13ifvqdh0","pricing_plan_id":"cebpf4jnsgd1na2vs0mg"},{"bike_id":"44abc8e1-136f-4f19-8bb1-20a3638ebffa","system_id":"levelo_inurba_marseille","lat":43.29525,"lon":5.39051,"is_reserved":false,"is_disabled":false,"rental_uris":{"android":"levelo://app?vid=44abc8e1-136f-4f19-8bb1-20a3638ebffa","ios":"levelo://app?vid=44abc8e1-136f-4f19-8bb1-20a3638ebffa"},"vehicle_type_id":"4","last_reported":1740996643,"current_range_meters":8000,"station_id":"ce4bh3p2rcd13ifvqdp0","pricing_plan_id":"cebpf4jnsgd1na2vs0mg"},{"bike_id":"25df8132-4386-4da2-bc35-759c58bda8ec","system_id":"levelo_inurba_marseille","lat":43.26553,"lon":5.39047,"is_reserved":false,"is_disabled":false,"rental_uris":{"android":"levelo://app?vid=25df8132-4386-4da2-bc35-759c58bda8ec","ios":"levelo://app?vid=25df8132-4386-4da2-bc35-759c58bda8ec"},"vehicle_type_id":"4","last_reported":1740996643,"current_range_meters":8000,"station_id":"ce4bhe12rcd13ifvqf30","pricing_plan_id":"cebpf4jnsgd1na2vs0mg"},{"bike_id":"d7e4b643-f4bb-4858-b99e-1e809ea6bd9a","system_id":"levelo_inurba_marseille","lat":43.24403,"lon":5.37063,"is_reserved":false,"is_disabled":false,"rental_uris":{"android":"levelo://app?vid=d7e4b643-f4bb-4858-b99e-1e809ea6bd9a","ios":"levelo://app?vid=d7e4b643-f4bb-4858-b99e-1e809ea6bd9a"},"vehicle_type_id":"4","last_reported":1740996643,"current_range_meters":8000,"station_id":"ce4bhhh2rcd13ifvqfk0","pricing_plan_id":"cebpf4jnsgd1na2vs0mg"},{"bike_id":"7c4be158-4b98-4ffa-8fd3-45ef392532d1","system_id":"levelo_inurba_marseille","lat":43.23157,"lon":5.43694,"is_reserved":false,"is_disabled":false,"rental_uris":{"android":"levelo://app?vid=7c4be158-4b98-4ffa-8fd3-45ef392532d1","ios":"levelo://app?vid=7c4be158-4b98-4ffa-8fd3-45ef392532d1"},"vehicle_type_id":"4","last_reported":1740996643,"current_range_meters":8000,"station_id":"ce4bhmp2rcd13ifvqgog","pricing_plan_id":"cebpf4jnsgd1na2vs0mg"},{"bike_id":"3284e9b8-acd3-4c31-a875-3d42ab73c106","system_id":"levelo_inurba_marseille","lat":43.31521,"lon":5.37284,"is_reserved":false,"is_disabled":false,"rental_uris":{"android":"levelo://app?vid=3284e9b8-acd3-4c31-a875-3d42ab73c106","ios":"levelo://app?vid=3284e9b8-acd3-4c31-a875-3d42ab73c106"},"vehicle_type_id":"4","last_reported":1740996643,"current_range_meters":8400,"station_id":"ce4bgt12rcd13ifvqcd0","pricing_plan_id":"cebpf4jnsgd1na2vs0mg"},{"bike_id":"96f394c5-686e-4cf9-9cca-970195a46b3e","system_id":"levelo_inurba_marseille","lat":43.26675,"lon":5.38272,"is_reserved":false,"is_disabled":false,"rental_uris":{"android":"levelo://app?vid=96f394c5-686e-4cf9-9cca-970195a46b3e","ios":"levelo://app?vid=96f394c5-686e-4cf9-9cca-970195a46b3e"},"vehicle_type_id":"4","last_reported":1740996643,"current_range_meters":8400,"station_id":"ce4bhg92rcd13ifvqf90","pricing_plan_id":"cebpf4jnsgd1na2vs0mg"},{"bike_id":"1dd4abe7-652c-4db5-9c15-f76be88de608","system_id":"levelo_inurba_marseille","lat":43.26945,"lon":5.38649,"is_reserved":false,"is_disabled":false,"rental_uris":{"android":"levelo://app?vid=1dd4abe7-652c-4db5-9c15-f76be88de608","ios":"levelo://app?vid=1dd4abe7-652c-4db5-9c15-f76be88de608"},"vehicle_type_id":"4","last_reported":1740996643,"current_range_meters":8400,"station_id":"ce4bhh92rcd13ifvqfh0","pricing_plan_id":"cebpf4jnsgd1na2vs0mg"},{"bike_id":"95bb5a60-e338-4ea7-a971-63dccfeeec35","system_id":"levelo_inurba_marseille","lat":43.25816,"lon":5.39447,"is_reserved":false,"is_disabled":false,"rental_uris":{"android":"levelo://app?vid=95bb5a60-e338-4ea7-a971-63dccfeeec35","ios":"levelo://app?vid=95bb5a60-e338-4ea7-a971-63dccfeeec35"},"vehicle_type_id":"4","last_reported":1740996643,"current_range_meters":8400,"station_id":"ce4bhip2rcd13ifvqft0","pricing_plan_id":"cebpf4jnsgd1na2vs0mg"},{"bike_id":"ed7da576-e349-42a9-b88d-fc5826b9e322","system_id":"levelo_inurba_marseille","lat":43.25085,"lon":5.39508,"is_reserved":false,"is_disabled":false,"rental_uris":{"android":"levelo://app?vid=ed7da576-e349-42a9-b88d-fc5826b9e322","ios":"levelo://app?vid=ed7da576-e349-42a9-b88d-fc5826b9e322"},"vehicle_type_id":"4","last_reported":1740996643,"current_range_meters":8400,"station_id":"ce4bhm12rcd13ifvqgkg","pricing_plan_id":"cebpf4jnsgd1na2vs0mg"},{"bike_id":"4178758f-5fb6-4574-a559-1de008b66805","system_id":"levelo_inurba_marseille","lat":43.27815,"lon":5.40712,"is_reserved":false,"is_disabled":false,"rental_uris":{"android":"levelo://app?vid=4178758f-5fb6-4574-a559-1de008b66805","ios":"levelo://app?vid=4178758f-5fb6-4574-a559-1de008b66805"},"vehicle_type_id":"4","last_reported":1740996643,"current_range_meters":8400,"station_id":"ce4bhnh2rcd13ifvqgtg","pricing_plan_id":"cebpf4jnsgd1na2vs0mg"},{"bike_id":"1d3c7fd7-b709-4008-8e9f-a0f764fe60d9","system_id":"levelo_inurba_marseille","lat":43.28259,"lon":5.38573,"is_reserved":false,"is_disabled":false,"rental_uris":{"android":"levelo://app?vid=1d3c7fd7-b709-4008-8e9f-a0f764fe60d9","ios":"levelo://app?vid=1d3c7fd7-b709-4008-8e9f-a0f764fe60d9"},"vehicle_type_id":"4","last_reported":1740996643,"current_range_meters":8800,"station_id":"","pricing_plan_id":"cebpf4jnsgd1na2vs0mg"},{"bike_id":"05e9cf7b-c090-4ef5-8c8c-4775308fa653","system_id":"levelo_inurba_marseille","lat":43.31199,"lon":5.36853,"is_reserved":false,"is_disabled":false,"rental_uris":{"android":"levelo://app?vid=05e9cf7b-c090-4ef5-8c8c-4775308fa653","ios":"levelo://app?vid=05e9cf7b-c090-4ef5-8c8c-4775308fa653"},"vehicle_type_id":"4","last_reported":1740996643,"current_range_meters":8800,"station_id":"ce4bgl92rcd13ifvqbq0","pricing_plan_id":"cebpf4jnsgd1na2vs0mg"},{"bike_id":"5ab167e4-8d15-489e-9a20-5365f41b52c0","system_id":"levelo_inurba_marseille","lat":43.29508,"lon":5.39054,"is_reserved":false,"is_disabled":false,"rental_uris":{"android":"levelo://app?vid=5ab167e4-8d15-489e-9a20-5365f41b52c0","ios":"levelo://app?vid=5ab167e4-8d15-489e-9a20-5365f41b52c0"},"vehicle_type_id":"4","last_reported":1740996643,"current_range_meters":8800,"station_id":"ce4bh3p2rcd13ifvqdp0","pricing_plan_id":"cebpf4jnsgd1na2vs0mg"},{"bike_id":"2c55aca9-d174-4631-8942-b6914aebcd18","system_id":"levelo_inurba_marseille","lat":43.24179,"lon":5.39736,"is_reserved":false,"is_disabled":false,"rental_uris":{"android":"levelo://app?vid=2c55aca9-d174-4631-8942-b6914aebcd18","ios":"levelo://app?vid=2c55aca9-d174-4631-8942-b6914aebcd18"},"vehicle_type_id":"4","last_reported":1740996643,"current_range_meters":8800,"station_id":"ce4bhn12rcd13ifvqgpg","pricing_plan_id":"cebpf4jnsgd1na2vs0mg"},{"bike_id":"e9c24fe2-7e9b-4330-ba27-2bb80e7481df","system_id":"levelo_inurba_marseille","lat":43.2781,"lon":5.40705,"is_reserved":false,"is_disabled":false,"rental_uris":{"android":"levelo://app?vid=e9c24fe2-7e9b-4330-ba27-2bb80e7481df","ios":"levelo://app?vid=e9c24fe2-7e9b-4330-ba27-2bb80e7481df"},"vehicle_type_id":"4","last_reported":1740996643,"current_range_meters":8800,"station_id":"ce4bhnh2rcd13ifvqgtg","pricing_plan_id":"cebpf4jnsgd1na2vs0mg"},{"bike_id":"a3e4e670-96af-42cb-8c2e-a7c558780b0b","system_id":"levelo_inurba_marseille","lat":43.24061,"lon":5.37737,"is_reserved":false,"is_disabled":false,"rental_uris":{"android":"levelo://app?vid=a3e4e670-96af-42cb-8c2e-a7c558780b0b","ios":"levelo://app?vid=a3e4e670-96af-42cb-8c2e-a7c558780b0b"},"vehicle_type_id":"4","last_reported":1740996643,"current_range_meters":8800,"station_id":"ce4bhnp2rcd13ifvqgvg","pricing_plan_id":"cebpf4jnsgd1na2vs0mg"},{"bike_id":"88d09cbc-1497-4fea-99b9-c1fe29ff58f0","system_id":"levelo_inurba_marseille","lat":43.28039,"lon":5.36623,"is_reserved":false,"is_disabled":false,"rental_uris":{"android":"levelo://app?vid=88d09cbc-1497-4fea-99b9-c1fe29ff58f0","ios":"levelo://app?vid=88d09cbc-1497-4fea-99b9-c1fe29ff58f0"},"vehicle_type_id":"4","last_reported":1740996643,"current_range_meters":9200,"station_id":"","pricing_plan_id":"cebpf4jnsgd1na2vs0mg"},{"bike_id":"edc2ba51-4f5e-4cbf-8563-7b141dc3a37b","system_id":"levelo_inurba_marseille","lat":43.31206,"lon":5.36865,"is_reserved":false,"is_disabled":false,"rental_uris":{"android":"levelo://app?vid=edc2ba51-4f5e-4cbf-8563-7b141dc3a37b","ios":"levelo://app?vid=edc2ba51-4f5e-4cbf-8563-7b141dc3a37b"},"vehicle_type_id":"4","last_reported":1740996643,"current_range_meters":9200,"station_id":"ce4bgl92rcd13ifvqbq0","pricing_plan_id":"cebpf4jnsgd1na2vs0mg"},{"bike_id":"b378824e-6ef2-4fb3-9c98-04780319094a","system_id":"levelo_inurba_marseille","lat":43.29542,"lon":5.39045,"is_reserved":false,"is_disabled":false,"rental_uris":{"android":"levelo://app?vid=b378824e-6ef2-4fb3-9c98-04780319094a","ios":"levelo://app?vid=b378824e-6ef2-4fb3-9c98-04780319094a"},"vehicle_type_id":"4","last_reported":1740996643,"current_range_meters":9200,"station_id":"ce4bh3p2rcd13ifvqdp0","pricing_plan_id":"cebpf4jnsgd1na2vs0mg"},{"bike_id":"14691fab-3b2a-472c-8059-e47ab0efef83","system_id":"levelo_inurba_marseille","lat":43.2905,"lon":5.37573,"is_reserved":false,"is_disabled":false,"rental_uris":{"android":"levelo://app?vid=14691fab-3b2a-472c-8059-e47ab0efef83","ios":"levelo://app?vid=14691fab-3b2a-472c-8059-e47ab0efef83"},"vehicle_type_id":"4","last_reported":1740996643,"current_range_meters":9200,"station_id":"ce4bh692rcd13ifvqe90","pricing_plan_id":"cebpf4jnsgd1na2vs0mg"},{"bike_id":"c6bf5415-84b0-4d39-b868-a9c8637351f6","system_id":"levelo_inurba_marseille","lat":43.24651,"lon":5.38896,"is_reserved":false,"is_disabled":false,"rental_uris":{"android":"levelo://app?vid=c6bf5415-84b0-4d39-b868-a9c8637351f6","ios":"levelo://app?vid=c6bf5415-84b0-4d39-b868-a9c8637351f6"},"vehicle_type_id":"4","last_reported":1740996643,"current_range_meters":9200,"station_id":"ce4bhg12rcd13ifvqf60","pricing_plan_id":"cebpf4jnsgd1na2vs0mg"},{"bike_id":"338397bb-e730-4ae0-a572-8356f4ec3da1","system_id":"levelo_inurba_marseille","lat":43.262022,"lon":5.375153,"is_reserved":false,"is_disabled":false,"rental_uris":{"android":"levelo://app?vid=338397bb-e730-4ae0-a572-8356f4ec3da1","ios":"levelo://app?vid=338397bb-e730-4ae0-a572-8356f4ec3da1"},"vehicle_type_id":"4","last_reported":1740996643,"current_range_meters":9200,"station_id":"ce4bhg12rcd13ifvqf80","pricing_plan_id":"cebpf4jnsgd1na2vs0mg"},{"bike_id":"a860675f-01c4-49a9-bc48-68f8b5f286c8","system_id":"levelo_inurba_marseille","lat":43.24383,"lon":5.37056,"is_reserved":false,"is_disabled":false,"rental_uris":{"android":"levelo://app?vid=a860675f-01c4-49a9-bc48-68f8b5f286c8","ios":"levelo://app?vid=a860675f-01c4-49a9-bc48-68f8b5f286c8"},"vehicle_type_id":"4","last_reported":1740996643,"current_range_meters":9200,"station_id":"ce4bhhh2rcd13ifvqfk0","pricing_plan_id":"cebpf4jnsgd1na2vs0mg"},{"bike_id":"dd94c117-66b0-42e1-85c3-29bb393d5c22","system_id":"levelo_inurba_marseille","lat":43.27801,"lon":5.40706,"is_reserved":false,"is_disabled":false,"rental_uris":{"android":"levelo://app?vid=dd94c117-66b0-42e1-85c3-29bb393d5c22","ios":"levelo://app?vid=dd94c117-66b0-42e1-85c3-29bb393d5c22"},"vehicle_type_id":"4","last_reported":1740996643,"current_range_meters":9200,"station_id":"ce4bhnh2rcd13ifvqgtg","pricing_plan_id":"cebpf4jnsgd1na2vs0mg"},{"bike_id":"61e3c74e-7012-4cb6-8ef4-17db5d82fdf7","system_id":"levelo_inurba_marseille","lat":43.25322,"lon":5.39277,"is_reserved":false,"is_disabled":false,"rental_uris":{"android":"levelo://app?vid=61e3c74e-7012-4cb6-8ef4-17db5d82fdf7","ios":"levelo://app?vid=61e3c74e-7012-4cb6-8ef4-17db5d82fdf7"},"vehicle_type_id":"4","last_reported":1740996643,"current_range_meters":9600,"station_id":"","pricing_plan_id":"cebpf4jnsgd1na2vs0mg"},{"bike_id":"67914107-e830-4c63-85fa-638b268eca8e","system_id":"levelo_inurba_marseille","lat":43.31493,"lon":5.37297,"is_reserved":false,"is_disabled":false,"rental_uris":{"android":"levelo://app?vid=67914107-e830-4c63-85fa-638b268eca8e","ios":"levelo://app?vid=67914107-e830-4c63-85fa-638b268eca8e"},"vehicle_type_id":"4","last_reported":1740996643,"current_range_meters":9600,"station_id":"ce4bgt12rcd13ifvqcd0","pricing_plan_id":"cebpf4jnsgd1na2vs0mg"},{"bike_id":"b85e9692-3b95-43c8-bc94-fcdeaec91111","system_id":"levelo_inurba_marseille","lat":43.303337,"lon":5.404353,"is_reserved":false,"is_disabled":false,"rental_uris":{"android":"levelo://app?vid=b85e9692-3b95-43c8-bc94-fcdeaec91111","ios":"levelo://app?vid=b85e9692-3b95-43c8-bc94-fcdeaec91111"},"vehicle_type_id":"4","last_reported":1740996643,"current_range_meters":9600,"station_id":"ce4bh012rcd13ifvqd10","pricing_plan_id":"cebpf4jnsgd1na2vs0mg"},{"bike_id":"65aba62b-0b2b-4f51-8cd7-221fb4d5da99","system_id":"levelo_inurba_marseille","lat":43.29517,"lon":5.39043,"is_reserved":false,"is_disabled":false,"rental_uris":{"android":"levelo://app?vid=65aba62b-0b2b-4f51-8cd7-221fb4d5da99","ios":"levelo://app?vid=65aba62b-0b2b-4f51-8cd7-221fb4d5da99"},"vehicle_type_id":"4","last_reported":1740996643,"current_range_meters":9600,"station_id":"ce4bh3p2rcd13ifvqdp0","pricing_plan_id":"cebpf4jnsgd1na2vs0mg"},{"bike_id":"9fe32dd4-8c83-4f55-8d4d-26816ab2fe7e","system_id":"levelo_inurba_marseille","lat":43.231478,"lon":5.437223,"is_reserved":false,"is_disabled":false,"rental_uris":{"android":"levelo://app?vid=9fe32dd4-8c83-4f55-8d4d-26816ab2fe7e","ios":"levelo://app?vid=9fe32dd4-8c83-4f55-8d4d-26816ab2fe7e"},"vehicle_type_id":"4","last_reported":1740996643,"current_range_meters":9600,"station_id":"ce4bhmp2rcd13ifvqgog","pricing_plan_id":"cebpf4jnsgd1na2vs0mg"},{"bike_id":"e0c607bf-7f3d-4c22-8ed8-7156f04c1a25","system_id":"levelo_inurba_marseille","lat":43.2815,"lon":5.42658,"is_reserved":false,"is_disabled":false,"rental_uris":{"android":"levelo://app?vid=e0c607bf-7f3d-4c22-8ed8-7156f04c1a25","ios":"levelo://app?vid=e0c607bf-7f3d-4c22-8ed8-7156f04c1a25"},"vehicle_type_id":"4","last_reported":1740996643,"current_range_meters":9600,"station_id":"ce4bhnh2rcd13ifvqgug","pricing_plan_id":"cebpf4jnsgd1na2vs0mg"},{"bike_id":"53682d1a-3c4c-48d8-86fb-90fac64cd913","system_id":"levelo_inurba_marseille","lat":43.29225,"lon":5.40091,"is_reserved":false,"is_disabled":false,"rental_uris":{"android":"levelo://app?vid=53682d1a-3c4c-48d8-86fb-90fac64cd913","ios":"levelo://app?vid=53682d1a-3c4c-48d8-86fb-90fac64cd913"},"vehicle_type_id":"4","last_reported":1740996643,"current_range_meters":10000,"station_id":"","pricing_plan_id":"cebpf4jnsgd1na2vs0mg"},{"bike_id":"23e61b9a-52fb-4d4e-84e3-f076eabbf239","system_id":"levelo_inurba_marseille","lat":43.29296,"lon":5.37462,"is_reserved":false,"is_disabled":false,"rental_uris":{"android":"levelo://app?vid=23e61b9a-52fb-4d4e-84e3-f076eabbf239","ios":"levelo://app?vid=23e61b9a-52fb-4d4e-84e3-f076eabbf239"},"vehicle_type_id":"4","last_reported":1740996643,"current_range_meters":10000,"station_id":"ce4bgi12rcd13ifvqb70","pricing_plan_id":"cebpf4jnsgd1na2vs0mg"},{"bike_id":"2cd1d484-9a1b-427e-8eba-a2971082a0e0","system_id":"levelo_inurba_marseille","lat":43.29982,"lon":5.38487,"is_reserved":false,"is_disabled":false,"rental_uris":{"android":"levelo://app?vid=2cd1d484-9a1b-427e-8eba-a2971082a0e0","ios":"levelo://app?vid=2cd1d484-9a1b-427e-8eba-a2971082a0e0"},"vehicle_type_id":"4","last_reported":1740996643,"current_range_meters":10000,"station_id":"ce4bgj92rcd13ifvqbd0","pricing_plan_id":"cebpf4jnsgd1na2vs0mg"},{"bike_id":"3db63e1c-f912-4551-bfd3-ee24e3e2eebe","system_id":"levelo_inurba_marseille","lat":43.30908,"lon":5.36852,"is_reserved":false,"is_disabled":false,"rental_uris":{"android":"levelo://app?vid=3db63e1c-f912-4551-bfd3-ee24e3e2eebe","ios":"levelo://app?vid=3db63e1c-f912-4551-bfd3-ee24e3e2eebe"},"vehicle_type_id":"4","last_reported":1740996643,"current_range_meters":10000,"station_id":"ce4bgn92rcd13ifvqbvg","pricing_plan_id":"cebpf4jnsgd1na2vs0mg"},{"bike_id":"0eae54cf-5a76-49c7-892e-4d3cc3fd3de6","system_id":"levelo_inurba_marseille","lat":43.29929,"lon":5.37382,"is_reserved":false,"is_disabled":false,"rental_uris":{"android":"levelo://app?vid=0eae54cf-5a76-49c7-892e-4d3cc3fd3de6","ios":"levelo://app?vid=0eae54cf-5a76-49c7-892e-4d3cc3fd3de6"},"vehicle_type_id":"4","last_reported":1740996643,"current_range_meters":10000,"station_id":"ce4bgr92rcd13ifvqc7g","pricing_plan_id":"cebpf4jnsgd1na2vs0mg"},{"bike_id":"11ec5e2c-091f-43ea-9e28-889e2f836e87","system_id":"levelo_inurba_marseille","lat":43.23156,"lon":5.43715,"is_reserved":false,"is_disabled":false,"rental_uris":{"android":"levelo://app?vid=11ec5e2c-091f-43ea-9e28-889e2f836e87","ios":"levelo://app?vid=11ec5e2c-091f-43ea-9e28-889e2f836e87"},"vehicle_type_id":"4","last_reported":1740996643,"current_range_meters":10000,"station_id":"ce4bhmp2rcd13ifvqgog","pricing_plan_id":"cebpf4jnsgd1na2vs0mg"},{"bike_id":"9f6b431d-a5b8-4b48-ab67-931e4dd7486d","system_id":"levelo_inurba_marseille","lat":43.27953,"lon":5.41047,"is_reserved":false,"is_disabled":false,"rental_uris":{"android":"levelo://app?vid=9f6b431d-a5b8-4b48-ab67-931e4dd7486d","ios":"levelo://app?vid=9f6b431d-a5b8-4b48-ab67-931e4dd7486d"},"vehicle_type_id":"4","last_reported":1740996643,"current_range_meters":10000,"station_id":"ce4bhnp2rcd13ifvqh0g","pricing_plan_id":"cebpf4jnsgd1na2vs0mg"},{"bike_id":"25e602fd-0d80-4fdc-bdd8-eca9a035e8ec","system_id":"levelo_inurba_marseille","lat":43.336044,"lon":5.410392,"is_reserved":false,"is_disabled":false,"rental_uris":{"android":"levelo://app?vid=25e602fd-0d80-4fdc-bdd8-eca9a035e8ec","ios":"levelo://app?vid=25e602fd-0d80-4fdc-bdd8-eca9a035e8ec"},"vehicle_type_id":"4","last_reported":1740996643,"current_range_meters":10000,"station_id":"ce4bhq92rcd13ifvqhkg","pricing_plan_id":"cebpf4jnsgd1na2vs0mg"},{"bike_id":"b013add8-306f-455f-8106-4ff222c92509","system_id":"levelo_inurba_marseille","lat":43.3361,"lon":5.41027,"is_reserved":false,"is_disabled":false,"rental_uris":{"android":"levelo://app?vid=b013add8-306f-455f-8106-4ff222c92509","ios":"levelo://app?vid=b013add8-306f-455f-8106-4ff222c92509"},"vehicle_type_id":"4","last_reported":1740996643,"current_range_meters":10000,"station_id":"ce4bhqh2rcd13ifvqhmg","pricing_plan_id":"cebpf4jnsgd1na2vs0mg"},{"bike_id":"fa99dc59-4ea3-41b1-bdef-0fd8a7de9150","system_id":"levelo_inurba_marseille","lat":43.27691,"lon":5.41543,"is_reserved":false,"is_disabled":false,"rental_uris":{"android":"levelo://app?vid=fa99dc59-4ea3-41b1-bdef-0fd8a7de9150","ios":"levelo://app?vid=fa99dc59-4ea3-41b1-bdef-0fd8a7de9150"},"vehicle_type_id":"4","last_reported":1740996643,"current_range_meters":10800,"station_id":"","pricing_plan_id":"cebpf4jnsgd1na2vs0mg"},{"bike_id":"370d1a81-985c-4d99-ab61-562439783278","system_id":"levelo_inurba_marseille","lat":43.3135,"lon":5.36696,"is_reserved":false,"is_disabled":false,"rental_uris":{"android":"levelo://app?vid=370d1a81-985c-4d99-ab61-562439783278","ios":"levelo://app?vid=370d1a81-985c-4d99-ab61-562439783278"},"vehicle_type_id":"4","last_reported":1740996643,"current_range_meters":10800,"station_id":"ce4bgr92rcd13ifvqc6g","pricing_plan_id":"cebpf4jnsgd1na2vs0mg"},{"bike_id":"13337301-4dd7-4856-a2df-e5f214ca5002","system_id":"levelo_inurba_marseille","lat":43.30209,"lon":5.39479,"is_reserved":false,"is_disabled":false,"rental_uris":{"android":"levelo://app?vid=13337301-4dd7-4856-a2df-e5f214ca5002","ios":"levelo://app?vid=13337301-4dd7-4856-a2df-e5f214ca5002"},"vehicle_type_id":"4","last_reported":1740996643,"current_range_meters":10800,"station_id":"ce4bh0p2rcd13ifvqd70","pricing_plan_id":"cebpf4jnsgd1na2vs0mg"},{"bike_id":"09393a00-973d-43b6-814c-ce2027404caf","system_id":"levelo_inurba_marseille","lat":43.25826,"lon":5.39434,"is_reserved":false,"is_disabled":false,"rental_uris":{"android":"levelo://app?vid=09393a00-973d-43b6-814c-ce2027404caf","ios":"levelo://app?vid=09393a00-973d-43b6-814c-ce2027404caf"},"vehicle_type_id":"4","last_reported":1740996643,"current_range_meters":10800,"station_id":"ce4bhip2rcd13ifvqft0","pricing_plan_id":"cebpf4jnsgd1na2vs0mg"},{"bike_id":"ad32254e-8609-42c5-8df7-9012f5ec17c7","system_id":"levelo_inurba_marseille","lat":43.23155,"lon":5.43702,"is_reserved":false,"is_disabled":false,"rental_uris":{"android":"levelo://app?vid=ad32254e-8609-42c5-8df7-9012f5ec17c7","ios":"levelo://app?vid=ad32254e-8609-42c5-8df7-9012f5ec17c7"},"vehicle_type_id":"4","last_reported":1740996643,"current_range_meters":10800,"station_id":"ce4bhmp2rcd13ifvqgog","pricing_plan_id":"cebpf4jnsgd1na2vs0mg"},{"bike_id":"c5b35fc3-133b-4fcd-9bc1-000b1b46221f","system_id":"levelo_inurba_marseille","lat":43.24165,"lon":5.36395,"is_reserved":false,"is_disabled":false,"rental_uris":{"android":"levelo://app?vid=c5b35fc3-133b-4fcd-9bc1-000b1b46221f","ios":"levelo://app?vid=c5b35fc3-133b-4fcd-9bc1-000b1b46221f"},"vehicle_type_id":"4","last_reported":1740996643,"current_range_meters":10800,"station_id":"cpo36qri1sfpv3e86is0","pricing_plan_id":"cebpf4jnsgd1na2vs0mg"},{"bike_id":"d55bc5d6-7957-454d-bc05-b37e9f5d5c19","system_id":"levelo_inurba_marseille","lat":43.31385,"lon":5.36693,"is_reserved":false,"is_disabled":false,"rental_uris":{"android":"levelo://app?vid=d55bc5d6-7957-454d-bc05-b37e9f5d5c19","ios":"levelo://app?vid=d55bc5d6-7957-454d-bc05-b37e9f5d5c19"},"vehicle_type_id":"4","last_reported":1740996643,"current_range_meters":11200,"station_id":"ce4bgr92rcd13ifvqc6g","pricing_plan_id":"cebpf4jnsgd1na2vs0mg"},{"bike_id":"8afe136c-0c51-4aca-ad51-f30e81f8c519","system_id":"levelo_inurba_marseille","lat":43.32426,"lon":5.4268,"is_reserved":false,"is_disabled":false,"rental_uris":{"android":"levelo://app?vid=8afe136c-0c51-4aca-ad51-f30e81f8c519","ios":"levelo://app?vid=8afe136c-0c51-4aca-ad51-f30e81f8c519"},"vehicle_type_id":"4","last_reported":1740996643,"current_range_meters":11600,"station_id":"","pricing_plan_id":"cebpf4jnsgd1na2vs0mg"},{"bike_id":"0c6a4bfc-bdbb-4728-9eb0-169c8510cdcb","system_id":"levelo_inurba_marseille","lat":43.29299,"lon":5.3746,"is_reserved":false,"is_disabled":false,"rental_uris":{"android":"levelo://app?vid=0c6a4bfc-bdbb-4728-9eb0-169c8510cdcb","ios":"levelo://app?vid=0c6a4bfc-bdbb-4728-9eb0-169c8510cdcb"},"vehicle_type_id":"4","last_reported":1740996643,"current_range_meters":11600,"station_id":"ce4bgi12rcd13ifvqb70","pricing_plan_id":"cebpf4jnsgd1na2vs0mg"},{"bike_id":"a5d67b8b-c1b7-4de5-ba1e-c23dbefc7e59","system_id":"levelo_inurba_marseille","lat":43.30322,"lon":5.36893,"is_reserved":false,"is_disabled":false,"rental_uris":{"android":"levelo://app?vid=a5d67b8b-c1b7-4de5-ba1e-c23dbefc7e59","ios":"levelo://app?vid=a5d67b8b-c1b7-4de5-ba1e-c23dbefc7e59"},"vehicle_type_id":"4","last_reported":1740996643,"current_range_meters":11600,"station_id":"ce4bgqh2rcd13ifvqc5g","pricing_plan_id":"cebpf4jnsgd1na2vs0mg"},{"bike_id":"39c96016-82f3-4e88-925d-4fe115fc2bdb","system_id":"levelo_inurba_marseille","lat":43.290131,"lon":5.381271,"is_reserved":false,"is_disabled":false,"rental_uris":{"android":"levelo://app?vid=39c96016-82f3-4e88-925d-4fe115fc2bdb","ios":"levelo://app?vid=39c96016-82f3-4e88-925d-4fe115fc2bdb"},"vehicle_type_id":"4","last_reported":1740996643,"current_range_meters":11600,"station_id":"ce4bh4p2rcd13ifvqe0g","pricing_plan_id":"cebpf4jnsgd1na2vs0mg"},{"bike_id":"863f55cc-c0c4-4563-897a-55522253b1fa","system_id":"levelo_inurba_marseille","lat":43.273213,"lon":5.39093,"is_reserved":false,"is_disabled":false,"rental_uris":{"android":"levelo://app?vid=863f55cc-c0c4-4563-897a-55522253b1fa","ios":"levelo://app?vid=863f55cc-c0c4-4563-897a-55522253b1fa"},"vehicle_type_id":"4","last_reported":1740996643,"current_range_meters":11600,"station_id":"ce4bhgp2rcd13ifvqfe0","pricing_plan_id":"cebpf4jnsgd1na2vs0mg"},{"bike_id":"edc1a413-247b-4125-8ff6-3193d9b9b0b7","system_id":"levelo_inurba_marseille","lat":43.24393,"lon":5.37057,"is_reserved":false,"is_disabled":false,"rental_uris":{"android":"levelo://app?vid=edc1a413-247b-4125-8ff6-3193d9b9b0b7","ios":"levelo://app?vid=edc1a413-247b-4125-8ff6-3193d9b9b0b7"},"vehicle_type_id":"4","last_reported":1740996643,"current_range_meters":11600,"station_id":"ce4bhhh2rcd13ifvqfk0","pricing_plan_id":"cebpf4jnsgd1na2vs0mg"},{"bike_id":"30452236-79fc-4cba-8ba7-e268e5bb0e99","system_id":"levelo_inurba_marseille","lat":43.23149,"lon":5.43738,"is_reserved":false,"is_disabled":false,"rental_uris":{"android":"levelo://app?vid=30452236-79fc-4cba-8ba7-e268e5bb0e99","ios":"levelo://app?vid=30452236-79fc-4cba-8ba7-e268e5bb0e99"},"vehicle_type_id":"4","last_reported":1740996643,"current_range_meters":11600,"station_id":"ce4bhmp2rcd13ifvqgog","pricing_plan_id":"cebpf4jnsgd1na2vs0mg"},{"bike_id":"1dbb7892-6d49-4ed6-a1e0-b97a2ae818b1","system_id":"levelo_inurba_marseille","lat":43.27818,"lon":5.40709,"is_reserved":false,"is_disabled":false,"rental_uris":{"android":"levelo://app?vid=1dbb7892-6d49-4ed6-a1e0-b97a2ae818b1","ios":"levelo://app?vid=1dbb7892-6d49-4ed6-a1e0-b97a2ae818b1"},"vehicle_type_id":"4","last_reported":1740996643,"current_range_meters":11600,"station_id":"ce4bhnh2rcd13ifvqgtg","pricing_plan_id":"cebpf4jnsgd1na2vs0mg"},{"bike_id":"687cd9e6-0cef-4cf3-a0fd-75f582330f2e","system_id":"levelo_inurba_marseille","lat":43.337444,"lon":5.374475,"is_reserved":false,"is_disabled":false,"rental_uris":{"android":"levelo://app?vid=687cd9e6-0cef-4cf3-a0fd-75f582330f2e","ios":"levelo://app?vid=687cd9e6-0cef-4cf3-a0fd-75f582330f2e"},"vehicle_type_id":"4","last_reported":1740996643,"current_range_meters":12000,"station_id":"","pricing_plan_id":"cebpf4jnsgd1na2vs0mg"},{"bike_id":"21a25fa3-011a-487c-a6a1-9a4a8b99ec63","system_id":"levelo_inurba_marseille","lat":43.31301,"lon":5.37734,"is_reserved":false,"is_disabled":false,"rental_uris":{"android":"levelo://app?vid=21a25fa3-011a-487c-a6a1-9a4a8b99ec63","ios":"levelo://app?vid=21a25fa3-011a-487c-a6a1-9a4a8b99ec63"},"vehicle_type_id":"4","last_reported":1740996643,"current_range_meters":12000,"station_id":"","pricing_plan_id":"cebpf4jnsgd1na2vs0mg"},{"bike_id":"11372d2f-059e-4b15-a96c-fa82bd27dd40","system_id":"levelo_inurba_marseille","lat":43.27424,"lon":5.39417,"is_reserved":false,"is_disabled":false,"rental_uris":{"android":"levelo://app?vid=11372d2f-059e-4b15-a96c-fa82bd27dd40","ios":"levelo://app?vid=11372d2f-059e-4b15-a96c-fa82bd27dd40"},"vehicle_type_id":"4","last_reported":1740996643,"current_range_meters":12000,"station_id":"ce4bhdp2rcd13ifvqf20","pricing_plan_id":"cebpf4jnsgd1na2vs0mg"},{"bike_id":"f164bd11-0ab8-433b-8827-632ef0abcfea","system_id":"levelo_inurba_marseille","lat":43.24165,"lon":5.39716,"is_reserved":false,"is_disabled":false,"rental_uris":{"android":"levelo://app?vid=f164bd11-0ab8-433b-8827-632ef0abcfea","ios":"levelo://app?vid=f164bd11-0ab8-433b-8827-632ef0abcfea"},"vehicle_type_id":"4","last_reported":1740996643,"current_range_meters":12000,"station_id":"ce4bhn12rcd13ifvqgpg","pricing_plan_id":"cebpf4jnsgd1na2vs0mg"},{"bike_id":"d0e90060-d634-4f5f-8a3a-6f8ec476c326","system_id":"levelo_inurba_marseille","lat":43.32484,"lon":5.36563,"is_reserved":false,"is_disabled":false,"rental_uris":{"android":"levelo://app?vid=d0e90060-d634-4f5f-8a3a-6f8ec476c326","ios":"levelo://app?vid=d0e90060-d634-4f5f-8a3a-6f8ec476c326"},"vehicle_type_id":"4","last_reported":1740996643,"current_range_meters":12000,"station_id":"ce4bhs12rcd13ifvqhvg","pricing_plan_id":"cebpf4jnsgd1na2vs0mg"},{"bike_id":"8a176c24-9cad-47e8-8777-72b0e258a9fd","system_id":"levelo_inurba_marseille","lat":43.29299,"lon":5.37471,"is_reserved":false,"is_disabled":false,"rental_uris":{"android":"levelo://app?vid=8a176c24-9cad-47e8-8777-72b0e258a9fd","ios":"levelo://app?vid=8a176c24-9cad-47e8-8777-72b0e258a9fd"},"vehicle_type_id":"4","last_reported":1740996643,"current_range_meters":12400,"station_id":"ce4bgi12rcd13ifvqb70","pricing_plan_id":"cebpf4jnsgd1na2vs0mg"},{"bike_id":"2848430c-e0ac-406b-99f8-d4a1f7459337","system_id":"levelo_inurba_marseille","lat":43.21258,"lon":5.35338,"is_reserved":false,"is_disabled":false,"rental_uris":{"android":"levelo://app?vid=2848430c-e0ac-406b-99f8-d4a1f7459337","ios":"levelo://app?vid=2848430c-e0ac-406b-99f8-d4a1f7459337"},"vehicle_type_id":"4","last_reported":1740996643,"current_range_meters":12800,"station_id":"","pricing_plan_id":"cebpf4jnsgd1na2vs0mg"},{"bike_id":"18dda957-3659-4111-8f9d-293dfb6e4e36","system_id":"levelo_inurba_marseille","lat":43.30149,"lon":5.380897,"is_reserved":false,"is_disabled":false,"rental_uris":{"android":"levelo://app?vid=18dda957-3659-4111-8f9d-293dfb6e4e36","ios":"levelo://app?vid=18dda957-3659-4111-8f9d-293dfb6e4e36"},"vehicle_type_id":"4","last_reported":1740996643,"current_range_meters":12800,"station_id":"ce4bgjp2rcd13ifvqbh0","pricing_plan_id":"cebpf4jnsgd1na2vs0mg"},{"bike_id":"003579b7-224f-4fd5-9014-b9cc0d5e0822","system_id":"levelo_inurba_marseille","lat":43.24667,"lon":5.38166,"is_reserved":false,"is_disabled":false,"rental_uris":{"android":"levelo://app?vid=003579b7-224f-4fd5-9014-b9cc0d5e0822","ios":"levelo://app?vid=003579b7-224f-4fd5-9014-b9cc0d5e0822"},"vehicle_type_id":"4","last_reported":1740996643,"current_range_meters":12800,"station_id":"ce4bhih2rcd13ifvqfr0","pricing_plan_id":"cebpf4jnsgd1na2vs0mg"},{"bike_id":"16e1da39-9676-4d26-8eab-a05616e22cb3","system_id":"levelo_inurba_marseille","lat":43.2558,"lon":5.38232,"is_reserved":false,"is_disabled":false,"rental_uris":{"android":"levelo://app?vid=16e1da39-9676-4d26-8eab-a05616e22cb3","ios":"levelo://app?vid=16e1da39-9676-4d26-8eab-a05616e22cb3"},"vehicle_type_id":"4","last_reported":1740996643,"current_range_meters":12800,"station_id":"ce4bhih2rcd13ifvqfs0","pricing_plan_id":"cebpf4jnsgd1na2vs0mg"},{"bike_id":"f80adb4d-755a-4c9d-867d-4ad01abe820c","system_id":"levelo_inurba_marseille","lat":43.24179,"lon":5.39726,"is_reserved":false,"is_disabled":false,"rental_uris":{"android":"levelo://app?vid=f80adb4d-755a-4c9d-867d-4ad01abe820c","ios":"levelo://app?vid=f80adb4d-755a-4c9d-867d-4ad01abe820c"},"vehicle_type_id":"4","last_reported":1740996643,"current_range_meters":12800,"station_id":"ce4bhn12rcd13ifvqgpg","pricing_plan_id":"cebpf4jnsgd1na2vs0mg"},{"bike_id":"935c7c08-3b59-435d-b114-e2199c8ba38f","system_id":"levelo_inurba_marseille","lat":43.27939,"lon":5.41044,"is_reserved":false,"is_disabled":false,"rental_uris":{"android":"levelo://app?vid=935c7c08-3b59-435d-b114-e2199c8ba38f","ios":"levelo://app?vid=935c7c08-3b59-435d-b114-e2199c8ba38f"},"vehicle_type_id":"4","last_reported":1740996643,"current_range_meters":12800,"station_id":"ce4bhnp2rcd13ifvqh0g","pricing_plan_id":"cebpf4jnsgd1na2vs0mg"},{"bike_id":"bf72e4a3-7934-4bc1-9cab-fc846dfd16d4","system_id":"levelo_inurba_marseille","lat":43.28363,"lon":5.38627,"is_reserved":false,"is_disabled":false,"rental_uris":{"android":"levelo://app?vid=bf72e4a3-7934-4bc1-9cab-fc846dfd16d4","ios":"levelo://app?vid=bf72e4a3-7934-4bc1-9cab-fc846dfd16d4"},"vehicle_type_id":"4","last_reported":1740996643,"current_range_meters":13600,"station_id":"ce4bh492rcd13ifvqdvg","pricing_plan_id":"cebpf4jnsgd1na2vs0mg"},{"bike_id":"b5f391b4-8290-4d38-bcc3-5f4409dc1c14","system_id":"levelo_inurba_marseille","lat":43.25575,"lon":5.38247,"is_reserved":false,"is_disabled":false,"rental_uris":{"android":"levelo://app?vid=b5f391b4-8290-4d38-bcc3-5f4409dc1c14","ios":"levelo://app?vid=b5f391b4-8290-4d38-bcc3-5f4409dc1c14"},"vehicle_type_id":"4","last_reported":1740996643,"current_range_meters":13600,"station_id":"ce4bhih2rcd13ifvqfs0","pricing_plan_id":"cebpf4jnsgd1na2vs0mg"},{"bike_id":"c8eaf2f8-ab7d-4786-bda2-c9d256f33341","system_id":"levelo_inurba_marseille","lat":43.28721,"lon":5.36085,"is_reserved":false,"is_disabled":false,"rental_uris":{"android":"levelo://app?vid=c8eaf2f8-ab7d-4786-bda2-c9d256f33341","ios":"levelo://app?vid=c8eaf2f8-ab7d-4786-bda2-c9d256f33341"},"vehicle_type_id":"4","last_reported":1740996643,"current_range_meters":13600,"station_id":"cki0cbj6b192h4jlfktg","pricing_plan_id":"cebpf4jnsgd1na2vs0mg"},{"bike_id":"62cb0cc9-5e6c-492a-b088-33fea151eb3e","system_id":"levelo_inurba_marseille","lat":43.27918,"lon":5.41662,"is_reserved":false,"is_disabled":false,"rental_uris":{"android":"levelo://app?vid=62cb0cc9-5e6c-492a-b088-33fea151eb3e","ios":"levelo://app?vid=62cb0cc9-5e6c-492a-b088-33fea151eb3e"},"vehicle_type_id":"4","last_reported":1740996643,"current_range_meters":14000,"station_id":"","pricing_plan_id":"cebpf4jnsgd1na2vs0mg"},{"bike_id":"76f0ecc2-74d2-4458-9089-c4bdf8553e65","system_id":"levelo_inurba_marseille","lat":43.27164,"lon":5.41867,"is_reserved":false,"is_disabled":false,"rental_uris":{"android":"levelo://app?vid=76f0ecc2-74d2-4458-9089-c4bdf8553e65","ios":"levelo://app?vid=76f0ecc2-74d2-4458-9089-c4bdf8553e65"},"vehicle_type_id":"4","last_reported":1740996643,"current_range_meters":14000,"station_id":"","pricing_plan_id":"cebpf4jnsgd1na2vs0mg"},{"bike_id":"f4eb20d0-e62f-4954-b7a9-ec4720bef3aa","system_id":"levelo_inurba_marseille","lat":43.25941,"lon":5.40904,"is_reserved":false,"is_disabled":false,"rental_uris":{"android":"levelo://app?vid=f4eb20d0-e62f-4954-b7a9-ec4720bef3aa","ios":"levelo://app?vid=f4eb20d0-e62f-4954-b7a9-ec4720bef3aa"},"vehicle_type_id":"4","last_reported":1740996643,"current_range_meters":14000,"station_id":"ce4bhm92rcd13ifvqglg","pricing_plan_id":"cebpf4jnsgd1na2vs0mg"},{"bike_id":"c5757567-7fa3-4b4d-90b8-3ab5cc086022","system_id":"levelo_inurba_marseille","lat":43.31084,"lon":5.42431,"is_reserved":false,"is_disabled":false,"rental_uris":{"android":"levelo://app?vid=c5757567-7fa3-4b4d-90b8-3ab5cc086022","ios":"levelo://app?vid=c5757567-7fa3-4b4d-90b8-3ab5cc086022"},"vehicle_type_id":"4","last_reported":1740996643,"current_range_meters":14000,"station_id":"ce4bhp92rcd13ifvqhag","pricing_plan_id":"cebpf4jnsgd1na2vs0mg"},{"bike_id":"59317dac-1441-4fd5-8954-af597947cc00","system_id":"levelo_inurba_marseille","lat":43.293653,"lon":5.378542,"is_reserved":false,"is_disabled":false,"rental_uris":{"android":"levelo://app?vid=59317dac-1441-4fd5-8954-af597947cc00","ios":"levelo://app?vid=59317dac-1441-4fd5-8954-af597947cc00"},"vehicle_type_id":"4","last_reported":1740996643,"current_range_meters":14400,"station_id":"ce4bgjh2rcd13ifvqbf0","pricing_plan_id":"cebpf4jnsgd1na2vs0mg"},{"bike_id":"8f91da26-e2cf-46fe-b02f-7e053f55b38a","system_id":"levelo_inurba_marseille","lat":43.30168,"lon":5.37386,"is_reserved":false,"is_disabled":false,"rental_uris":{"android":"levelo://app?vid=8f91da26-e2cf-46fe-b02f-7e053f55b38a","ios":"levelo://app?vid=8f91da26-e2cf-46fe-b02f-7e053f55b38a"},"vehicle_type_id":"4","last_reported":1740996643,"current_range_meters":14400,"station_id":"ce4bgs92rcd13ifvqcc0","pricing_plan_id":"cebpf4jnsgd1na2vs0mg"},{"bike_id":"2de073ad-d9d1-4c35-9f8e-b8b136ae6986","system_id":"levelo_inurba_marseille","lat":43.298674,"lon":5.397281,"is_reserved":false,"is_disabled":false,"rental_uris":{"android":"levelo://app?vid=2de073ad-d9d1-4c35-9f8e-b8b136ae6986","ios":"levelo://app?vid=2de073ad-d9d1-4c35-9f8e-b8b136ae6986"},"vehicle_type_id":"4","last_reported":1740996643,"current_range_meters":14400,"station_id":"ce4bh0h2rcd13ifvqd50","pricing_plan_id":"cebpf4jnsgd1na2vs0mg"},{"bike_id":"8474e65a-12c0-4925-857b-50c7089e6556","system_id":"levelo_inurba_marseille","lat":43.26681,"lon":5.38273,"is_reserved":false,"is_disabled":false,"rental_uris":{"android":"levelo://app?vid=8474e65a-12c0-4925-857b-50c7089e6556","ios":"levelo://app?vid=8474e65a-12c0-4925-857b-50c7089e6556"},"vehicle_type_id":"4","last_reported":1740996643,"current_range_meters":14400,"station_id":"ce4bhg92rcd13ifvqf90","pricing_plan_id":"cebpf4jnsgd1na2vs0mg"},{"bike_id":"7d3f29a2-77e1-43cf-a74e-c2df62166b7a","system_id":"levelo_inurba_marseille","lat":43.2481,"lon":5.37472,"is_reserved":false,"is_disabled":false,"rental_uris":{"android":"levelo://app?vid=7d3f29a2-77e1-43cf-a74e-c2df62166b7a","ios":"levelo://app?vid=7d3f29a2-77e1-43cf-a74e-c2df62166b7a"},"vehicle_type_id":"4","last_reported":1740996643,"current_range_meters":14400,"station_id":"ce4bhgh2rcd13ifvqfb0","pricing_plan_id":"cebpf4jnsgd1na2vs0mg"},{"bike_id":"e29fd0eb-3e58-4a7a-a443-326a44504d37","system_id":"levelo_inurba_marseille","lat":43.29297,"lon":5.37457,"is_reserved":false,"is_disabled":false,"rental_uris":{"android":"levelo://app?vid=e29fd0eb-3e58-4a7a-a443-326a44504d37","ios":"levelo://app?vid=e29fd0eb-3e58-4a7a-a443-326a44504d37"},"vehicle_type_id":"4","last_reported":1740996643,"current_range_meters":14800,"station_id":"ce4bgi12rcd13ifvqb70","pricing_plan_id":"cebpf4jnsgd1na2vs0mg"},{"bike_id":"ed5d0ef3-c829-4838-97e0-fd2bf3c2b10d","system_id":"levelo_inurba_marseille","lat":43.25947,"lon":5.40868,"is_reserved":false,"is_disabled":false,"rental_uris":{"android":"levelo://app?vid=ed5d0ef3-c829-4838-97e0-fd2bf3c2b10d","ios":"levelo://app?vid=ed5d0ef3-c829-4838-97e0-fd2bf3c2b10d"},"vehicle_type_id":"4","last_reported":1740996643,"current_range_meters":14800,"station_id":"ce4bhm92rcd13ifvqglg","pricing_plan_id":"cebpf4jnsgd1na2vs0mg"},{"bike_id":"e204fd30-63b9-4381-9afd-88dd57bf1024","system_id":"levelo_inurba_marseille","lat":43.28154,"lon":5.42648,"is_reserved":false,"is_disabled":false,"rental_uris":{"android":"levelo://app?vid=e204fd30-63b9-4381-9afd-88dd57bf1024","ios":"levelo://app?vid=e204fd30-63b9-4381-9afd-88dd57bf1024"},"vehicle_type_id":"4","last_reported":1740996643,"current_range_meters":14800,"station_id":"ce4bhnh2rcd13ifvqgug","pricing_plan_id":"cebpf4jnsgd1na2vs0mg"},{"bike_id":"b94571a4-2bdc-4bdb-bb79-84efe8609c50","system_id":"levelo_inurba_marseille","lat":43.32491,"lon":5.36555,"is_reserved":false,"is_disabled":false,"rental_uris":{"android":"levelo://app?vid=b94571a4-2bdc-4bdb-bb79-84efe8609c50","ios":"levelo://app?vid=b94571a4-2bdc-4bdb-bb79-84efe8609c50"},"vehicle_type_id":"4","last_reported":1740996643,"current_range_meters":15200,"station_id":"ce4bhs12rcd13ifvqhvg","pricing_plan_id":"cebpf4jnsgd1na2vs0mg"},{"bike_id":"bbfc1f0b-7516-482b-ba93-62568297a8ed","system_id":"levelo_inurba_marseille","lat":43.23066,"lon":5.35503,"is_reserved":false,"is_disabled":false,"rental_uris":{"android":"levelo://app?vid=bbfc1f0b-7516-482b-ba93-62568297a8ed","ios":"levelo://app?vid=bbfc1f0b-7516-482b-ba93-62568297a8ed"},"vehicle_type_id":"4","last_reported":1740996643,"current_range_meters":15200,"station_id":"cpo3342slgdg3j2ifvpg","pricing_plan_id":"cebpf4jnsgd1na2vs0mg"},{"bike_id":"db6557e3-d612-45f1-870f-c403bf17088e","system_id":"levelo_inurba_marseille","lat":43.21241,"lon":5.35314,"is_reserved":false,"is_disabled":false,"rental_uris":{"android":"levelo://app?vid=db6557e3-d612-45f1-870f-c403bf17088e","ios":"levelo://app?vid=db6557e3-d612-45f1-870f-c403bf17088e"},"vehicle_type_id":"4","last_reported":1740996643,"current_range_meters":16000,"station_id":"","pricing_plan_id":"cebpf4jnsgd1na2vs0mg"},{"bike_id":"1024a527-973e-4d90-8c0e-33da3577f919","system_id":"levelo_inurba_marseille","lat":43.25016,"lon":5.38993,"is_reserved":false,"is_disabled":false,"rental_uris":{"android":"levelo://app?vid=1024a527-973e-4d90-8c0e-33da3577f919","ios":"levelo://app?vid=1024a527-973e-4d90-8c0e-33da3577f919"},"vehicle_type_id":"4","last_reported":1740996643,"current_range_meters":16000,"station_id":"","pricing_plan_id":"cebpf4jnsgd1na2vs0mg"},{"bike_id":"45433a9d-cd00-433d-9da8-01d123b61e2c","system_id":"levelo_inurba_marseille","lat":43.30144,"lon":5.38094,"is_reserved":false,"is_disabled":false,"rental_uris":{"android":"levelo://app?vid=45433a9d-cd00-433d-9da8-01d123b61e2c","ios":"levelo://app?vid=45433a9d-cd00-433d-9da8-01d123b61e2c"},"vehicle_type_id":"4","last_reported":1740996643,"current_range_meters":16000,"station_id":"ce4bgjp2rcd13ifvqbh0","pricing_plan_id":"cebpf4jnsgd1na2vs0mg"},{"bike_id":"b0155e5e-bf89-45a0-bb1d-1e3cbfdfd791","system_id":"levelo_inurba_marseille","lat":43.30891,"lon":5.37194,"is_reserved":false,"is_disabled":false,"rental_uris":{"android":"levelo://app?vid=b0155e5e-bf89-45a0-bb1d-1e3cbfdfd791","ios":"levelo://app?vid=b0155e5e-bf89-45a0-bb1d-1e3cbfdfd791"},"vehicle_type_id":"4","last_reported":1740996643,"current_range_meters":16000,"station_id":"ce4bguh2rcd13ifvqckg","pricing_plan_id":"cebpf4jnsgd1na2vs0mg"},{"bike_id":"da05a705-edd5-4ce6-b814-081aaba38171","system_id":"levelo_inurba_marseille","lat":43.31168,"lon":5.38735,"is_reserved":false,"is_disabled":false,"rental_uris":{"android":"levelo://app?vid=da05a705-edd5-4ce6-b814-081aaba38171","ios":"levelo://app?vid=da05a705-edd5-4ce6-b814-081aaba38171"},"vehicle_type_id":"4","last_reported":1740996643,"current_range_meters":16000,"station_id":"ce4bgv12rcd13ifvqcp0","pricing_plan_id":"cebpf4jnsgd1na2vs0mg"},{"bike_id":"360cb8fb-ae2d-4942-a777-0b20fe1843ea","system_id":"levelo_inurba_marseille","lat":43.26547,"lon":5.37309,"is_reserved":false,"is_disabled":false,"rental_uris":{"android":"levelo://app?vid=360cb8fb-ae2d-4942-a777-0b20fe1843ea","ios":"levelo://app?vid=360cb8fb-ae2d-4942-a777-0b20fe1843ea"},"vehicle_type_id":"4","last_reported":1740996643,"current_range_meters":16000,"station_id":"ce4bhg12rcd13ifvqf70","pricing_plan_id":"cebpf4jnsgd1na2vs0mg"},{"bike_id":"ba1ba081-a651-458b-864c-f93419b9b0b6","system_id":"levelo_inurba_marseille","lat":43.25008,"lon":5.38913,"is_reserved":false,"is_disabled":false,"rental_uris":{"android":"levelo://app?vid=ba1ba081-a651-458b-864c-f93419b9b0b6","ios":"levelo://app?vid=ba1ba081-a651-458b-864c-f93419b9b0b6"},"vehicle_type_id":"4","last_reported":1740996643,"current_range_meters":16000,"station_id":"ce4bhgp2rcd13ifvqfd0","pricing_plan_id":"cebpf4jnsgd1na2vs0mg"},{"bike_id":"3bb60d81-263f-4c01-b89b-e6042baf1c71","system_id":"levelo_inurba_marseille","lat":43.24997,"lon":5.38948,"is_reserved":false,"is_disabled":false,"rental_uris":{"android":"levelo://app?vid=3bb60d81-263f-4c01-b89b-e6042baf1c71","ios":"levelo://app?vid=3bb60d81-263f-4c01-b89b-e6042baf1c71"},"vehicle_type_id":"4","last_reported":1740996643,"current_range_meters":16000,"station_id":"ce4bhgp2rcd13ifvqfd0","pricing_plan_id":"cebpf4jnsgd1na2vs0mg"},{"bike_id":"1ee6ee85-aacf-4f28-85b7-1722f623e4c8","system_id":"levelo_inurba_marseille","lat":43.27298,"lon":5.39105,"is_reserved":false,"is_disabled":false,"rental_uris":{"android":"levelo://app?vid=1ee6ee85-aacf-4f28-85b7-1722f623e4c8","ios":"levelo://app?vid=1ee6ee85-aacf-4f28-85b7-1722f623e4c8"},"vehicle_type_id":"4","last_reported":1740996643,"current_range_meters":16000,"station_id":"ce4bhgp2rcd13ifvqfe0","pricing_plan_id":"cebpf4jnsgd1na2vs0mg"},{"bike_id":"aab51bbc-3ab4-4d20-9eb7-ef91ecee4234","system_id":"levelo_inurba_marseille","lat":43.26079,"lon":5.39409,"is_reserved":false,"is_disabled":false,"rental_uris":{"android":"levelo://app?vid=aab51bbc-3ab4-4d20-9eb7-ef91ecee4234","ios":"levelo://app?vid=aab51bbc-3ab4-4d20-9eb7-ef91ecee4234"},"vehicle_type_id":"4","last_reported":1740996643,"current_range_meters":16000,"station_id":"ce4bhh92rcd13ifvqfj0","pricing_plan_id":"cebpf4jnsgd1na2vs0mg"},{"bike_id":"055ab47c-8e75-4994-b5c1-d7d38d0588a8","system_id":"levelo_inurba_marseille","lat":43.27072,"lon":5.42276,"is_reserved":false,"is_disabled":false,"rental_uris":{"android":"levelo://app?vid=055ab47c-8e75-4994-b5c1-d7d38d0588a8","ios":"levelo://app?vid=055ab47c-8e75-4994-b5c1-d7d38d0588a8"},"vehicle_type_id":"4","last_reported":1740996643,"current_range_meters":16000,"station_id":"ce4bhk92rcd13ifvqgb0","pricing_plan_id":"cebpf4jnsgd1na2vs0mg"},{"bike_id":"4f975b79-5d87-410f-bedd-cd7f3224893a","system_id":"levelo_inurba_marseille","lat":43.25083,"lon":5.39508,"is_reserved":false,"is_disabled":false,"rental_uris":{"android":"levelo://app?vid=4f975b79-5d87-410f-bedd-cd7f3224893a","ios":"levelo://app?vid=4f975b79-5d87-410f-bedd-cd7f3224893a"},"vehicle_type_id":"4","last_reported":1740996643,"current_range_meters":16000,"station_id":"ce4bhm12rcd13ifvqgkg","pricing_plan_id":"cebpf4jnsgd1na2vs0mg"},{"bike_id":"f8a6667f-b1cb-45b4-af07-08e19aba090b","system_id":"levelo_inurba_marseille","lat":43.25064,"lon":5.39509,"is_reserved":false,"is_disabled":false,"rental_uris":{"android":"levelo://app?vid=f8a6667f-b1cb-45b4-af07-08e19aba090b","ios":"levelo://app?vid=f8a6667f-b1cb-45b4-af07-08e19aba090b"},"vehicle_type_id":"4","last_reported":1740996643,"current_range_meters":16000,"station_id":"ce4bhm12rcd13ifvqgkg","pricing_plan_id":"cebpf4jnsgd1na2vs0mg"},{"bike_id":"335de567-973d-4d4a-a45e-574d6adac4d8","system_id":"levelo_inurba_marseille","lat":43.32528,"lon":5.41457,"is_reserved":false,"is_disabled":false,"rental_uris":{"android":"levelo://app?vid=335de567-973d-4d4a-a45e-574d6adac4d8","ios":"levelo://app?vid=335de567-973d-4d4a-a45e-574d6adac4d8"},"vehicle_type_id":"4","last_reported":1740996643,"current_range_meters":16000,"station_id":"ce4bhq12rcd13ifvqhhg","pricing_plan_id":"cebpf4jnsgd1na2vs0mg"},{"bike_id":"76394e5b-b5d3-409a-954a-e09b2559a295","system_id":"levelo_inurba_marseille","lat":43.231852,"lon":5.355605,"is_reserved":false,"is_disabled":false,"rental_uris":{"android":"levelo://app?vid=76394e5b-b5d3-409a-954a-e09b2559a295","ios":"levelo://app?vid=76394e5b-b5d3-409a-954a-e09b2559a295"},"vehicle_type_id":"4","last_reported":1740996643,"current_range_meters":16000,"station_id":"ce4bhu92rcd13ifvqi70","pricing_plan_id":"cebpf4jnsgd1na2vs0mg"},{"bike_id":"e6ac82a9-b4b6-4bdf-b786-417ee8e9dabb","system_id":"levelo_inurba_marseille","lat":43.30209,"lon":5.3947,"is_reserved":false,"is_disabled":false,"rental_uris":{"android":"levelo://app?vid=e6ac82a9-b4b6-4bdf-b786-417ee8e9dabb","ios":"levelo://app?vid=e6ac82a9-b4b6-4bdf-b786-417ee8e9dabb"},"vehicle_type_id":"4","last_reported":1740996643,"current_range_meters":16400,"station_id":"ce4bh0p2rcd13ifvqd70","pricing_plan_id":"cebpf4jnsgd1na2vs0mg"},{"bike_id":"93438fff-58bf-4216-bc0c-7c19d8920a47","system_id":"levelo_inurba_marseille","lat":43.28997,"lon":5.37834,"is_reserved":false,"is_disabled":false,"rental_uris":{"android":"levelo://app?vid=93438fff-58bf-4216-bc0c-7c19d8920a47","ios":"levelo://app?vid=93438fff-58bf-4216-bc0c-7c19d8920a47"},"vehicle_type_id":"4","last_reported":1740996643,"current_range_meters":16400,"station_id":"ce4bh9p2rcd13ifvqed0","pricing_plan_id":"cebpf4jnsgd1na2vs0mg"},{"bike_id":"4e533b6f-32b1-4a18-bdb8-b8d67c752285","system_id":"levelo_inurba_marseille","lat":43.28268,"lon":5.35069,"is_reserved":false,"is_disabled":false,"rental_uris":{"android":"levelo://app?vid=4e533b6f-32b1-4a18-bdb8-b8d67c752285","ios":"levelo://app?vid=4e533b6f-32b1-4a18-bdb8-b8d67c752285"},"vehicle_type_id":"4","last_reported":1740996643,"current_range_meters":16400,"station_id":"ce4bhbp2rcd13ifvqerg","pricing_plan_id":"cebpf4jnsgd1na2vs0mg"},{"bike_id":"a3fdac1b-69a8-42b0-ae47-bcf671ff3241","system_id":"levelo_inurba_marseille","lat":43.24997,"lon":5.38919,"is_reserved":false,"is_disabled":false,"rental_uris":{"android":"levelo://app?vid=a3fdac1b-69a8-42b0-ae47-bcf671ff3241","ios":"levelo://app?vid=a3fdac1b-69a8-42b0-ae47-bcf671ff3241"},"vehicle_type_id":"4","last_reported":1740996643,"current_range_meters":16400,"station_id":"ce4bhgp2rcd13ifvqfd0","pricing_plan_id":"cebpf4jnsgd1na2vs0mg"},{"bike_id":"123d5adf-8e93-46cc-93b8-80cd2a012f7c","system_id":"levelo_inurba_marseille","lat":43.27091,"lon":5.42274,"is_reserved":false,"is_disabled":false,"rental_uris":{"android":"levelo://app?vid=123d5adf-8e93-46cc-93b8-80cd2a012f7c","ios":"levelo://app?vid=123d5adf-8e93-46cc-93b8-80cd2a012f7c"},"vehicle_type_id":"4","last_reported":1740996643,"current_range_meters":16400,"station_id":"ce4bhk92rcd13ifvqgb0","pricing_plan_id":"cebpf4jnsgd1na2vs0mg"},{"bike_id":"3b778583-4fa4-4286-b3fb-8e250bde10fe","system_id":"levelo_inurba_marseille","lat":43.2417,"lon":5.39729,"is_reserved":false,"is_disabled":false,"rental_uris":{"android":"levelo://app?vid=3b778583-4fa4-4286-b3fb-8e250bde10fe","ios":"levelo://app?vid=3b778583-4fa4-4286-b3fb-8e250bde10fe"},"vehicle_type_id":"4","last_reported":1740996643,"current_range_meters":16400,"station_id":"ce4bhn12rcd13ifvqgpg","pricing_plan_id":"cebpf4jnsgd1na2vs0mg"},{"bike_id":"056e5918-eaae-4bb0-a14f-4ff0f6c20d5c","system_id":"levelo_inurba_marseille","lat":43.24164,"lon":5.36419,"is_reserved":false,"is_disabled":false,"rental_uris":{"android":"levelo://app?vid=056e5918-eaae-4bb0-a14f-4ff0f6c20d5c","ios":"levelo://app?vid=056e5918-eaae-4bb0-a14f-4ff0f6c20d5c"},"vehicle_type_id":"4","last_reported":1740996643,"current_range_meters":16400,"station_id":"cpo36qri1sfpv3e86is0","pricing_plan_id":"cebpf4jnsgd1na2vs0mg"},{"bike_id":"88858c28-5a08-41e9-b766-6b2e555e71e3","system_id":"levelo_inurba_marseille","lat":43.29609,"lon":5.38174,"is_reserved":false,"is_disabled":false,"rental_uris":{"android":"levelo://app?vid=88858c28-5a08-41e9-b766-6b2e555e71e3","ios":"levelo://app?vid=88858c28-5a08-41e9-b766-6b2e555e71e3"},"vehicle_type_id":"4","last_reported":1740996643,"current_range_meters":16800,"station_id":"","pricing_plan_id":"cebpf4jnsgd1na2vs0mg"},{"bike_id":"440876d4-dc42-40f0-b4a2-14a0a7b63572","system_id":"levelo_inurba_marseille","lat":43.31375,"lon":5.36701,"is_reserved":false,"is_disabled":false,"rental_uris":{"android":"levelo://app?vid=440876d4-dc42-40f0-b4a2-14a0a7b63572","ios":"levelo://app?vid=440876d4-dc42-40f0-b4a2-14a0a7b63572"},"vehicle_type_id":"4","last_reported":1740996643,"current_range_meters":16800,"station_id":"ce4bgr92rcd13ifvqc6g","pricing_plan_id":"cebpf4jnsgd1na2vs0mg"},{"bike_id":"fa29dcb6-2607-4ad4-851e-c0b5f9e03763","system_id":"levelo_inurba_marseille","lat":43.27439,"lon":5.39398,"is_reserved":false,"is_disabled":false,"rental_uris":{"android":"levelo://app?vid=fa29dcb6-2607-4ad4-851e-c0b5f9e03763","ios":"levelo://app?vid=fa29dcb6-2607-4ad4-851e-c0b5f9e03763"},"vehicle_type_id":"4","last_reported":1740996643,"current_range_meters":16800,"station_id":"ce4bhdp2rcd13ifvqf20","pricing_plan_id":"cebpf4jnsgd1na2vs0mg"},{"bike_id":"dcefda7a-8047-46fc-8fea-f39639b35fc2","system_id":"levelo_inurba_marseille","lat":43.2668,"lon":5.38268,"is_reserved":false,"is_disabled":false,"rental_uris":{"android":"levelo://app?vid=dcefda7a-8047-46fc-8fea-f39639b35fc2","ios":"levelo://app?vid=dcefda7a-8047-46fc-8fea-f39639b35fc2"},"vehicle_type_id":"4","last_reported":1740996643,"current_range_meters":16800,"station_id":"ce4bhg92rcd13ifvqf90","pricing_plan_id":"cebpf4jnsgd1na2vs0mg"},{"bike_id":"6df526da-e0fc-42b8-897e-57cca2fda7cc","system_id":"levelo_inurba_marseille","lat":43.27063,"lon":5.42263,"is_reserved":false,"is_disabled":false,"rental_uris":{"android":"levelo://app?vid=6df526da-e0fc-42b8-897e-57cca2fda7cc","ios":"levelo://app?vid=6df526da-e0fc-42b8-897e-57cca2fda7cc"},"vehicle_type_id":"4","last_reported":1740996643,"current_range_meters":16800,"station_id":"ce4bhk92rcd13ifvqgb0","pricing_plan_id":"cebpf4jnsgd1na2vs0mg"},{"bike_id":"a3ca239a-a279-4c5c-805b-6c183853c02e","system_id":"levelo_inurba_marseille","lat":43.23066,"lon":5.35498,"is_reserved":false,"is_disabled":false,"rental_uris":{"android":"levelo://app?vid=a3ca239a-a279-4c5c-805b-6c183853c02e","ios":"levelo://app?vid=a3ca239a-a279-4c5c-805b-6c183853c02e"},"vehicle_type_id":"4","last_reported":1740996643,"current_range_meters":16800,"station_id":"cpo3342slgdg3j2ifvpg","pricing_plan_id":"cebpf4jnsgd1na2vs0mg"},{"bike_id":"4300cf9b-3f21-4db1-957e-9b9d93ea7ac9","system_id":"levelo_inurba_marseille","lat":43.3107,"lon":5.38137,"is_reserved":false,"is_disabled":false,"rental_uris":{"android":"levelo://app?vid=4300cf9b-3f21-4db1-957e-9b9d93ea7ac9","ios":"levelo://app?vid=4300cf9b-3f21-4db1-957e-9b9d93ea7ac9"},"vehicle_type_id":"4","last_reported":1740996643,"current_range_meters":17200,"station_id":"","pricing_plan_id":"cebpf4jnsgd1na2vs0mg"},{"bike_id":"2e98121c-8891-4ab6-a9c5-0c0bca4f1004","system_id":"levelo_inurba_marseille","lat":43.299367,"lon":5.365648,"is_reserved":false,"is_disabled":false,"rental_uris":{"android":"levelo://app?vid=2e98121c-8891-4ab6-a9c5-0c0bca4f1004","ios":"levelo://app?vid=2e98121c-8891-4ab6-a9c5-0c0bca4f1004"},"vehicle_type_id":"4","last_reported":1740996643,"current_range_meters":17200,"station_id":"ce4bgm92rcd13ifvqbr0","pricing_plan_id":"cebpf4jnsgd1na2vs0mg"},{"bike_id":"461ffa8d-67a7-4de7-91e4-8e943cdf9bae","system_id":"levelo_inurba_marseille","lat":43.29043,"lon":5.37575,"is_reserved":false,"is_disabled":false,"rental_uris":{"android":"levelo://app?vid=461ffa8d-67a7-4de7-91e4-8e943cdf9bae","ios":"levelo://app?vid=461ffa8d-67a7-4de7-91e4-8e943cdf9bae"},"vehicle_type_id":"4","last_reported":1740996643,"current_range_meters":17200,"station_id":"ce4bh692rcd13ifvqe90","pricing_plan_id":"cebpf4jnsgd1na2vs0mg"},{"bike_id":"b6e6106f-0746-491a-9be6-56aeaff10cea","system_id":"levelo_inurba_marseille","lat":43.23153,"lon":5.43708,"is_reserved":false,"is_disabled":false,"rental_uris":{"android":"levelo://app?vid=b6e6106f-0746-491a-9be6-56aeaff10cea","ios":"levelo://app?vid=b6e6106f-0746-491a-9be6-56aeaff10cea"},"vehicle_type_id":"4","last_reported":1740996643,"current_range_meters":17200,"station_id":"ce4bhmp2rcd13ifvqgog","pricing_plan_id":"cebpf4jnsgd1na2vs0mg"},{"bike_id":"13203078-7922-4853-ab3a-32638914891f","system_id":"levelo_inurba_marseille","lat":43.240705,"lon":5.377535,"is_reserved":false,"is_disabled":false,"rental_uris":{"android":"levelo://app?vid=13203078-7922-4853-ab3a-32638914891f","ios":"levelo://app?vid=13203078-7922-4853-ab3a-32638914891f"},"vehicle_type_id":"4","last_reported":1740996643,"current_range_meters":17200,"station_id":"ce4bhnp2rcd13ifvqgvg","pricing_plan_id":"cebpf4jnsgd1na2vs0mg"},{"bike_id":"31b68950-9614-4f37-8c01-60100b683157","system_id":"levelo_inurba_marseille","lat":43.24086,"lon":5.3777,"is_reserved":false,"is_disabled":false,"rental_uris":{"android":"levelo://app?vid=31b68950-9614-4f37-8c01-60100b683157","ios":"levelo://app?vid=31b68950-9614-4f37-8c01-60100b683157"},"vehicle_type_id":"4","last_reported":1740996643,"current_range_meters":17200,"station_id":"ce4bhnp2rcd13ifvqgvg","pricing_plan_id":"cebpf4jnsgd1na2vs0mg"},{"bike_id":"c986bd4c-3766-4a76-8c78-4827ba0c9de7","system_id":"levelo_inurba_marseille","lat":43.24066,"lon":5.37764,"is_reserved":false,"is_disabled":false,"rental_uris":{"android":"levelo://app?vid=c986bd4c-3766-4a76-8c78-4827ba0c9de7","ios":"levelo://app?vid=c986bd4c-3766-4a76-8c78-4827ba0c9de7"},"vehicle_type_id":"4","last_reported":1740996643,"current_range_meters":17200,"station_id":"ce4bhnp2rcd13ifvqgvg","pricing_plan_id":"cebpf4jnsgd1na2vs0mg"},{"bike_id":"19d83ee1-26f1-4341-a3a6-d91ee3b4ed52","system_id":"levelo_inurba_marseille","lat":43.28,"lon":5.40009,"is_reserved":false,"is_disabled":false,"rental_uris":{"android":"levelo://app?vid=19d83ee1-26f1-4341-a3a6-d91ee3b4ed52","ios":"levelo://app?vid=19d83ee1-26f1-4341-a3a6-d91ee3b4ed52"},"vehicle_type_id":"4","last_reported":1740996643,"current_range_meters":17200,"station_id":"ce4bho92rcd13ifvqh4g","pricing_plan_id":"cebpf4jnsgd1na2vs0mg"},{"bike_id":"e088df72-0a54-43e3-aa17-f7f9803813ed","system_id":"levelo_inurba_marseille","lat":43.30541,"lon":5.36545,"is_reserved":false,"is_disabled":false,"rental_uris":{"android":"levelo://app?vid=e088df72-0a54-43e3-aa17-f7f9803813ed","ios":"levelo://app?vid=e088df72-0a54-43e3-aa17-f7f9803813ed"},"vehicle_type_id":"4","last_reported":1740996643,"current_range_meters":17600,"station_id":"ce4bgs12rcd13ifvqcag","pricing_plan_id":"cebpf4jnsgd1na2vs0mg"},{"bike_id":"4aaec2e6-2dfb-4159-821a-7a493fa8e5f4","system_id":"levelo_inurba_marseille","lat":43.25005,"lon":5.38921,"is_reserved":false,"is_disabled":false,"rental_uris":{"android":"levelo://app?vid=4aaec2e6-2dfb-4159-821a-7a493fa8e5f4","ios":"levelo://app?vid=4aaec2e6-2dfb-4159-821a-7a493fa8e5f4"},"vehicle_type_id":"4","last_reported":1740996643,"current_range_meters":17600,"station_id":"ce4bhgp2rcd13ifvqfd0","pricing_plan_id":"cebpf4jnsgd1na2vs0mg"},{"bike_id":"bf17c198-d903-43e0-b82d-4fa46fe4c1fa","system_id":"levelo_inurba_marseille","lat":43.23188,"lon":5.39974,"is_reserved":false,"is_disabled":false,"rental_uris":{"android":"levelo://app?vid=bf17c198-d903-43e0-b82d-4fa46fe4c1fa","ios":"levelo://app?vid=bf17c198-d903-43e0-b82d-4fa46fe4c1fa"},"vehicle_type_id":"4","last_reported":1740996643,"current_range_meters":17600,"station_id":"ce4bhn12rcd13ifvqgqg","pricing_plan_id":"cebpf4jnsgd1na2vs0mg"},{"bike_id":"69379c57-b1c7-4e95-b8eb-049067b38329","system_id":"levelo_inurba_marseille","lat":43.27489,"lon":5.42476,"is_reserved":false,"is_disabled":false,"rental_uris":{"android":"levelo://app?vid=69379c57-b1c7-4e95-b8eb-049067b38329","ios":"levelo://app?vid=69379c57-b1c7-4e95-b8eb-049067b38329"},"vehicle_type_id":"4","last_reported":1740996643,"current_range_meters":17600,"station_id":"ce4bhn92rcd13ifvqgrg","pricing_plan_id":"cebpf4jnsgd1na2vs0mg"},{"bike_id":"dea98afb-bb4e-4a6d-b20e-200595b5e05a","system_id":"levelo_inurba_marseille","lat":43.29844,"lon":5.36269,"is_reserved":false,"is_disabled":false,"rental_uris":{"android":"levelo://app?vid=dea98afb-bb4e-4a6d-b20e-200595b5e05a","ios":"levelo://app?vid=dea98afb-bb4e-4a6d-b20e-200595b5e05a"},"vehicle_type_id":"4","last_reported":1740996643,"current_range_meters":18000,"station_id":"ce4bgpp2rcd13ifvqc3g","pricing_plan_id":"cebpf4jnsgd1na2vs0mg"},{"bike_id":"fda92bef-506c-4939-af7d-4ce1dca0e499","system_id":"levelo_inurba_marseille","lat":43.2985,"lon":5.3629,"is_reserved":false,"is_disabled":false,"rental_uris":{"android":"levelo://app?vid=fda92bef-506c-4939-af7d-4ce1dca0e499","ios":"levelo://app?vid=fda92bef-506c-4939-af7d-4ce1dca0e499"},"vehicle_type_id":"4","last_reported":1740996643,"current_range_meters":18000,"station_id":"ce4bgpp2rcd13ifvqc3g","pricing_plan_id":"cebpf4jnsgd1na2vs0mg"},{"bike_id":"f230aa52-0a6a-4b8e-9015-f6c3b15842fb","system_id":"levelo_inurba_marseille","lat":43.3046,"lon":5.37916,"is_reserved":false,"is_disabled":false,"rental_uris":{"android":"levelo://app?vid=f230aa52-0a6a-4b8e-9015-f6c3b15842fb","ios":"levelo://app?vid=f230aa52-0a6a-4b8e-9015-f6c3b15842fb"},"vehicle_type_id":"4","last_reported":1740996643,"current_range_meters":18000,"station_id":"ce4bgup2rcd13ifvqcn0","pricing_plan_id":"cebpf4jnsgd1na2vs0mg"},{"bike_id":"f1dcfab8-8c4b-4001-beee-8a2b3c7442f3","system_id":"levelo_inurba_marseille","lat":43.26681,"lon":5.38257,"is_reserved":false,"is_disabled":false,"rental_uris":{"android":"levelo://app?vid=f1dcfab8-8c4b-4001-beee-8a2b3c7442f3","ios":"levelo://app?vid=f1dcfab8-8c4b-4001-beee-8a2b3c7442f3"},"vehicle_type_id":"4","last_reported":1740996643,"current_range_meters":18000,"station_id":"ce4bhg92rcd13ifvqf90","pricing_plan_id":"cebpf4jnsgd1na2vs0mg"},{"bike_id":"60dd4efc-4924-4e7d-95a9-c7fec06f8636","system_id":"levelo_inurba_marseille","lat":43.25086,"lon":5.39525,"is_reserved":false,"is_disabled":false,"rental_uris":{"android":"levelo://app?vid=60dd4efc-4924-4e7d-95a9-c7fec06f8636","ios":"levelo://app?vid=60dd4efc-4924-4e7d-95a9-c7fec06f8636"},"vehicle_type_id":"4","last_reported":1740996643,"current_range_meters":18000,"station_id":"ce4bhm12rcd13ifvqgkg","pricing_plan_id":"cebpf4jnsgd1na2vs0mg"},{"bike_id":"421ce352-ab5c-4b13-8269-38bbc74586a2","system_id":"levelo_inurba_marseille","lat":43.2315,"lon":5.43726,"is_reserved":false,"is_disabled":false,"rental_uris":{"android":"levelo://app?vid=421ce352-ab5c-4b13-8269-38bbc74586a2","ios":"levelo://app?vid=421ce352-ab5c-4b13-8269-38bbc74586a2"},"vehicle_type_id":"4","last_reported":1740996643,"current_range_meters":18000,"station_id":"ce4bhmp2rcd13ifvqgog","pricing_plan_id":"cebpf4jnsgd1na2vs0mg"},{"bike_id":"127a1fac-5e85-4bf8-a2a4-9dd40f0473f7","system_id":"levelo_inurba_marseille","lat":43.27495,"lon":5.42462,"is_reserved":false,"is_disabled":false,"rental_uris":{"android":"levelo://app?vid=127a1fac-5e85-4bf8-a2a4-9dd40f0473f7","ios":"levelo://app?vid=127a1fac-5e85-4bf8-a2a4-9dd40f0473f7"},"vehicle_type_id":"4","last_reported":1740996643,"current_range_meters":18000,"station_id":"ce4bhn92rcd13ifvqgrg","pricing_plan_id":"cebpf4jnsgd1na2vs0mg"},{"bike_id":"9afb8708-8cf6-4de9-881a-8ebd94929a66","system_id":"levelo_inurba_marseille","lat":43.24076,"lon":5.37761,"is_reserved":false,"is_disabled":false,"rental_uris":{"android":"levelo://app?vid=9afb8708-8cf6-4de9-881a-8ebd94929a66","ios":"levelo://app?vid=9afb8708-8cf6-4de9-881a-8ebd94929a66"},"vehicle_type_id":"4","last_reported":1740996643,"current_range_meters":18000,"station_id":"ce4bhnp2rcd13ifvqgvg","pricing_plan_id":"cebpf4jnsgd1na2vs0mg"},{"bike_id":"b49050a7-0ea8-46d2-9831-68f0b93f9b29","system_id":"levelo_inurba_marseille","lat":43.24175,"lon":5.36395,"is_reserved":false,"is_disabled":false,"rental_uris":{"android":"levelo://app?vid=b49050a7-0ea8-46d2-9831-68f0b93f9b29","ios":"levelo://app?vid=b49050a7-0ea8-46d2-9831-68f0b93f9b29"},"vehicle_type_id":"4","last_reported":1740996643,"current_range_meters":18000,"station_id":"cpo36qri1sfpv3e86is0","pricing_plan_id":"cebpf4jnsgd1na2vs0mg"},{"bike_id":"88ea3635-d6ec-4847-b8de-04e30512df40","system_id":"levelo_inurba_marseille","lat":43.29922,"lon":5.36528,"is_reserved":false,"is_disabled":false,"rental_uris":{"android":"levelo://app?vid=88ea3635-d6ec-4847-b8de-04e30512df40","ios":"levelo://app?vid=88ea3635-d6ec-4847-b8de-04e30512df40"},"vehicle_type_id":"4","last_reported":1740996643,"current_range_meters":18800,"station_id":"ce4bgm92rcd13ifvqbr0","pricing_plan_id":"cebpf4jnsgd1na2vs0mg"},{"bike_id":"843110ea-367e-4f41-be60-9d5d0b8fd9f4","system_id":"levelo_inurba_marseille","lat":43.31378,"lon":5.385,"is_reserved":false,"is_disabled":false,"rental_uris":{"android":"levelo://app?vid=843110ea-367e-4f41-be60-9d5d0b8fd9f4","ios":"levelo://app?vid=843110ea-367e-4f41-be60-9d5d0b8fd9f4"},"vehicle_type_id":"4","last_reported":1740996643,"current_range_meters":18800,"station_id":"ce4bgt92rcd13ifvqcf0","pricing_plan_id":"cebpf4jnsgd1na2vs0mg"},{"bike_id":"c3bee511-6167-4ea0-8a35-dad8393e941c","system_id":"levelo_inurba_marseille","lat":43.2666,"lon":5.38257,"is_reserved":false,"is_disabled":false,"rental_uris":{"android":"levelo://app?vid=c3bee511-6167-4ea0-8a35-dad8393e941c","ios":"levelo://app?vid=c3bee511-6167-4ea0-8a35-dad8393e941c"},"vehicle_type_id":"4","last_reported":1740996643,"current_range_meters":18800,"station_id":"ce4bhg92rcd13ifvqf90","pricing_plan_id":"cebpf4jnsgd1na2vs0mg"},{"bike_id":"7b33248e-7f92-49da-bb66-36d5c14b9ff1","system_id":"levelo_inurba_marseille","lat":43.27497,"lon":5.42449,"is_reserved":false,"is_disabled":false,"rental_uris":{"android":"levelo://app?vid=7b33248e-7f92-49da-bb66-36d5c14b9ff1","ios":"levelo://app?vid=7b33248e-7f92-49da-bb66-36d5c14b9ff1"},"vehicle_type_id":"4","last_reported":1740996643,"current_range_meters":18800,"station_id":"ce4bhn92rcd13ifvqgrg","pricing_plan_id":"cebpf4jnsgd1na2vs0mg"},{"bike_id":"43099ed8-c284-4b7a-993c-835512f450ad","system_id":"levelo_inurba_marseille","lat":43.32929,"lon":5.43022,"is_reserved":false,"is_disabled":false,"rental_uris":{"android":"levelo://app?vid=43099ed8-c284-4b7a-993c-835512f450ad","ios":"levelo://app?vid=43099ed8-c284-4b7a-993c-835512f450ad"},"vehicle_type_id":"4","last_reported":1740996643,"current_range_meters":19200,"station_id":"","pricing_plan_id":"cebpf4jnsgd1na2vs0mg"},{"bike_id":"a3050bd8-3576-4431-b7b7-506f4220f02a","system_id":"levelo_inurba_marseille","lat":43.26565,"lon":5.39014,"is_reserved":false,"is_disabled":false,"rental_uris":{"android":"levelo://app?vid=a3050bd8-3576-4431-b7b7-506f4220f02a","ios":"levelo://app?vid=a3050bd8-3576-4431-b7b7-506f4220f02a"},"vehicle_type_id":"4","last_reported":1740996643,"current_range_meters":19200,"station_id":"ce4bhe12rcd13ifvqf30","pricing_plan_id":"cebpf4jnsgd1na2vs0mg"},{"bike_id":"f57abd34-ece4-42fe-a8b8-f10a92956111","system_id":"levelo_inurba_marseille","lat":43.23159,"lon":5.43694,"is_reserved":false,"is_disabled":false,"rental_uris":{"android":"levelo://app?vid=f57abd34-ece4-42fe-a8b8-f10a92956111","ios":"levelo://app?vid=f57abd34-ece4-42fe-a8b8-f10a92956111"},"vehicle_type_id":"4","last_reported":1740996643,"current_range_meters":19200,"station_id":"ce4bhmp2rcd13ifvqgog","pricing_plan_id":"cebpf4jnsgd1na2vs0mg"},{"bike_id":"01333c71-467a-4d0e-b9c0-b2a3e789710a","system_id":"levelo_inurba_marseille","lat":43.2407,"lon":5.37759,"is_reserved":false,"is_disabled":false,"rental_uris":{"android":"levelo://app?vid=01333c71-467a-4d0e-b9c0-b2a3e789710a","ios":"levelo://app?vid=01333c71-467a-4d0e-b9c0-b2a3e789710a"},"vehicle_type_id":"4","last_reported":1740996643,"current_range_meters":19200,"station_id":"ce4bhnp2rcd13ifvqgvg","pricing_plan_id":"cebpf4jnsgd1na2vs0mg"},{"bike_id":"eae398bc-91bf-451a-bd78-bc0ce4649278","system_id":"levelo_inurba_marseille","lat":43.2955,"lon":5.422913,"is_reserved":false,"is_disabled":false,"rental_uris":{"android":"levelo://app?vid=eae398bc-91bf-451a-bd78-bc0ce4649278","ios":"levelo://app?vid=eae398bc-91bf-451a-bd78-bc0ce4649278"},"vehicle_type_id":"4","last_reported":1740996643,"current_range_meters":19200,"station_id":"ce4bhph2rcd13ifvqhdg","pricing_plan_id":"cebpf4jnsgd1na2vs0mg"},{"bike_id":"193a7fce-68a7-4829-81c2-1059da8fce27","system_id":"levelo_inurba_marseille","lat":43.288194,"lon":5.382567,"is_reserved":false,"is_disabled":false,"rental_uris":{"android":"levelo://app?vid=193a7fce-68a7-4829-81c2-1059da8fce27","ios":"levelo://app?vid=193a7fce-68a7-4829-81c2-1059da8fce27"},"vehicle_type_id":"4","last_reported":1740996643,"current_range_meters":19600,"station_id":"ce4bgh92rcd13ifvqb50","pricing_plan_id":"cebpf4jnsgd1na2vs0mg"},{"bike_id":"e3d7d43b-d33e-4764-883d-77097c242d7a","system_id":"levelo_inurba_marseille","lat":43.30548,"lon":5.36704,"is_reserved":false,"is_disabled":false,"rental_uris":{"android":"levelo://app?vid=e3d7d43b-d33e-4764-883d-77097c242d7a","ios":"levelo://app?vid=e3d7d43b-d33e-4764-883d-77097c242d7a"},"vehicle_type_id":"4","last_reported":1740996643,"current_range_meters":19600,"station_id":"ce4bgrp2rcd13ifvqc9g","pricing_plan_id":"cebpf4jnsgd1na2vs0mg"},{"bike_id":"71d2d9e1-13cc-4811-9025-ef4d811ce446","system_id":"levelo_inurba_marseille","lat":43.30285,"lon":5.37736,"is_reserved":false,"is_disabled":false,"rental_uris":{"android":"levelo://app?vid=71d2d9e1-13cc-4811-9025-ef4d811ce446","ios":"levelo://app?vid=71d2d9e1-13cc-4811-9025-ef4d811ce446"},"vehicle_type_id":"4","last_reported":1740996643,"current_range_meters":19600,"station_id":"ce4bguh2rcd13ifvqcj0","pricing_plan_id":"cebpf4jnsgd1na2vs0mg"},{"bike_id":"1e42ea53-463b-4a03-92f5-c395ff4abf73","system_id":"levelo_inurba_marseille","lat":43.25494,"lon":5.37654,"is_reserved":false,"is_disabled":false,"rental_uris":{"android":"levelo://app?vid=1e42ea53-463b-4a03-92f5-c395ff4abf73","ios":"levelo://app?vid=1e42ea53-463b-4a03-92f5-c395ff4abf73"},"vehicle_type_id":"4","last_reported":1740996643,"current_range_meters":19600,"station_id":"ce4bhh12rcd13ifvqff0","pricing_plan_id":"cebpf4jnsgd1na2vs0mg"},{"bike_id":"b4ae3626-ccca-44d9-b709-1f4704f40444","system_id":"levelo_inurba_marseille","lat":43.2679,"lon":5.39412,"is_reserved":false,"is_disabled":false,"rental_uris":{"android":"levelo://app?vid=b4ae3626-ccca-44d9-b709-1f4704f40444","ios":"levelo://app?vid=b4ae3626-ccca-44d9-b709-1f4704f40444"},"vehicle_type_id":"4","last_reported":1740996643,"current_range_meters":19600,"station_id":"ce4bhh12rcd13ifvqfg0","pricing_plan_id":"cebpf4jnsgd1na2vs0mg"},{"bike_id":"23e7b74e-5cc3-434b-85a0-4486a824dddd","system_id":"levelo_inurba_marseille","lat":43.23156,"lon":5.43715,"is_reserved":false,"is_disabled":false,"rental_uris":{"android":"levelo://app?vid=23e7b74e-5cc3-434b-85a0-4486a824dddd","ios":"levelo://app?vid=23e7b74e-5cc3-434b-85a0-4486a824dddd"},"vehicle_type_id":"4","last_reported":1740996643,"current_range_meters":19600,"station_id":"ce4bhmp2rcd13ifvqgog","pricing_plan_id":"cebpf4jnsgd1na2vs0mg"},{"bike_id":"4f551869-2e5c-4ab0-9fec-8a0af82682a5","system_id":"levelo_inurba_marseille","lat":43.28691,"lon":5.39984,"is_reserved":false,"is_disabled":false,"rental_uris":{"android":"levelo://app?vid=4f551869-2e5c-4ab0-9fec-8a0af82682a5","ios":"levelo://app?vid=4f551869-2e5c-4ab0-9fec-8a0af82682a5"},"vehicle_type_id":"4","last_reported":1740996643,"current_range_meters":19600,"station_id":"ce4bho92rcd13ifvqh3g","pricing_plan_id":"cebpf4jnsgd1na2vs0mg"},{"bike_id":"d5871994-6bbc-4539-90ae-04244fd18631","system_id":"levelo_inurba_marseille","lat":43.28689,"lon":5.40072,"is_reserved":false,"is_disabled":false,"rental_uris":{"android":"levelo://app?vid=d5871994-6bbc-4539-90ae-04244fd18631","ios":"levelo://app?vid=d5871994-6bbc-4539-90ae-04244fd18631"},"vehicle_type_id":"4","last_reported":1740996643,"current_range_meters":20000,"station_id":"","pricing_plan_id":"cebpf4jnsgd1na2vs0mg"},{"bike_id":"73d30b01-c62a-4110-b405-9fd8cc43096e","system_id":"levelo_inurba_marseille","lat":43.30166,"lon":5.38083,"is_reserved":false,"is_disabled":false,"rental_uris":{"android":"levelo://app?vid=73d30b01-c62a-4110-b405-9fd8cc43096e","ios":"levelo://app?vid=73d30b01-c62a-4110-b405-9fd8cc43096e"},"vehicle_type_id":"4","last_reported":1740996643,"current_range_meters":20000,"station_id":"ce4bgjp2rcd13ifvqbh0","pricing_plan_id":"cebpf4jnsgd1na2vs0mg"},{"bike_id":"2d8674e1-af8f-4f30-8fb5-f4c9a098905f","system_id":"levelo_inurba_marseille","lat":43.27817,"lon":5.40706,"is_reserved":false,"is_disabled":false,"rental_uris":{"android":"levelo://app?vid=2d8674e1-af8f-4f30-8fb5-f4c9a098905f","ios":"levelo://app?vid=2d8674e1-af8f-4f30-8fb5-f4c9a098905f"},"vehicle_type_id":"4","last_reported":1740996643,"current_range_meters":20000,"station_id":"ce4bhnh2rcd13ifvqgtg","pricing_plan_id":"cebpf4jnsgd1na2vs0mg"},{"bike_id":"31accac7-daa1-48e4-9364-efbbdee2d729","system_id":"levelo_inurba_marseille","lat":43.31433,"lon":5.38598,"is_reserved":false,"is_disabled":false,"rental_uris":{"android":"levelo://app?vid=31accac7-daa1-48e4-9364-efbbdee2d729","ios":"levelo://app?vid=31accac7-daa1-48e4-9364-efbbdee2d729"},"vehicle_type_id":"4","last_reported":1740996643,"current_range_meters":20400,"station_id":"","pricing_plan_id":"cebpf4jnsgd1na2vs0mg"},{"bike_id":"b5ccea05-d5f0-4c55-8e0a-e9d39e58f27a","system_id":"levelo_inurba_marseille","lat":43.31202,"lon":5.3688,"is_reserved":false,"is_disabled":false,"rental_uris":{"android":"levelo://app?vid=b5ccea05-d5f0-4c55-8e0a-e9d39e58f27a","ios":"levelo://app?vid=b5ccea05-d5f0-4c55-8e0a-e9d39e58f27a"},"vehicle_type_id":"4","last_reported":1740996643,"current_range_meters":20400,"station_id":"ce4bgl92rcd13ifvqbq0","pricing_plan_id":"cebpf4jnsgd1na2vs0mg"},{"bike_id":"95d7eba7-b59c-44f6-a7be-fb4eb21d975b","system_id":"levelo_inurba_marseille","lat":43.25011,"lon":5.38935,"is_reserved":false,"is_disabled":false,"rental_uris":{"android":"levelo://app?vid=95d7eba7-b59c-44f6-a7be-fb4eb21d975b","ios":"levelo://app?vid=95d7eba7-b59c-44f6-a7be-fb4eb21d975b"},"vehicle_type_id":"4","last_reported":1740996643,"current_range_meters":20400,"station_id":"ce4bhgp2rcd13ifvqfd0","pricing_plan_id":"cebpf4jnsgd1na2vs0mg"},{"bike_id":"5adca0c6-4b24-4647-938a-5901c7772c02","system_id":"levelo_inurba_marseille","lat":43.25954,"lon":5.40909,"is_reserved":false,"is_disabled":false,"rental_uris":{"android":"levelo://app?vid=5adca0c6-4b24-4647-938a-5901c7772c02","ios":"levelo://app?vid=5adca0c6-4b24-4647-938a-5901c7772c02"},"vehicle_type_id":"4","last_reported":1740996643,"current_range_meters":20400,"station_id":"ce4bhm92rcd13ifvqglg","pricing_plan_id":"cebpf4jnsgd1na2vs0mg"},{"bike_id":"c1f55817-34f7-48aa-aedd-e75f099eaecf","system_id":"levelo_inurba_marseille","lat":43.32648,"lon":5.40996,"is_reserved":false,"is_disabled":false,"rental_uris":{"android":"levelo://app?vid=c1f55817-34f7-48aa-aedd-e75f099eaecf","ios":"levelo://app?vid=c1f55817-34f7-48aa-aedd-e75f099eaecf"},"vehicle_type_id":"4","last_reported":1740996643,"current_range_meters":20400,"station_id":"ce4bhpp2rcd13ifvqhgg","pricing_plan_id":"cebpf4jnsgd1na2vs0mg"},{"bike_id":"97d2bd57-6755-471c-bdc9-8f0916d0fcd8","system_id":"levelo_inurba_marseille","lat":43.3101,"lon":5.38474,"is_reserved":false,"is_disabled":false,"rental_uris":{"android":"levelo://app?vid=97d2bd57-6755-471c-bdc9-8f0916d0fcd8","ios":"levelo://app?vid=97d2bd57-6755-471c-bdc9-8f0916d0fcd8"},"vehicle_type_id":"4","last_reported":1740996643,"current_range_meters":20800,"station_id":"","pricing_plan_id":"cebpf4jnsgd1na2vs0mg"},