{"last_updated":1761152977,"ttl":60,"version":"2.2","data":{"bikes":[{"bike_id":"fd129672-d599-4886-aeb0-ff027ed2ad86","system_id":"levelo_inurba_marseille","lat":43.28862,"lon":5.39318,"is_reserved":false,"is_disabled":false,"rental_uris":{"android":"levelo://app?vid=fd129672-d599-4886-aeb0-ff027ed2ad86","ios":"levelo://app?vid=fd129672-d599-4886-aeb0-ff027ed2ad86"},"vehicle_type_id":"4","last_reported":1761152977,"current_range_meters":2800,"station_id":"ce4bh2p2rcd13ifvqdi0","pricing_plan_id":"cebpf4jnsgd1na2vs0mg"},{"bike_id":"5cc77950-9e47-4e02-83e4-bdf38fe98b63","system_id":"levelo_inurba_marseille","lat":43.30093,"lon":5.3908,"is_reserved":false,"is_disabled":false,"rental_uris":{"android":"levelo://app?vid=5cc77950-9e47-4e02-83e4-bdf38fe98b63","ios":"levelo://app?vid=5cc77950-9e47-4e02-83e4-bdf38fe98b63"},"vehicle_type_id":"4","last_reported":1761152977,"current_range_meters":2800,"station_id":"ce4bh192rcd13ifvqdb0","pricing_plan_id":"cebpf4jnsgd1na2vs0mg"},{"bike_id":"50107c35-c23d-406b-b052-855a74aa44ec","system_id":"levelo_inurba_marseille","lat":43.29391,"lon":5.37872,"is_reserved":false,"is_disabled":false,"rental_uris":{"android":"levelo://app?vid=50107c35-c23d-406b-b052-855a74aa44ec","ios":"levelo://app?vid=50107c35-c23d-406b-b052-855a74aa44ec"},"vehicle_type_id":"4","last_reported":1761152977,"current_range_meters":2800,"station_id":"ce4bgjh2rcd13ifvqbf0","pricing_plan_id":"cebpf4jnsgd1na2vs0mg"},{"bike_id":"59769644-1b57-430f-b2ad-b9298839822f","system_id":"levelo_inurba_marseille","lat":43.279237,"lon":5.396264,"is_reserved":false,"is_disabled":false,"rental_uris":{"android":"levelo://app?vid=59769644-1b57-430f-b2ad-b9298839822f","ios":"levelo://app?vid=59769644-1b57-430f-b2ad-b9298839822f"},"vehicle_type_id":"4","last_reported":1761152977,"current_range_meters":2800,"station_id":"ce4bhmp2rcd13ifvqgng","pricing_plan_id":"cebpf4jnsgd1na2vs0mg"},{"bike_id":"d0140e14-99fc-4b79-a301-54f4bcf2691f","system_id":"levelo_inurba_marseille","lat":43.2996,"lon":5.41324,"is_reserved":false,"is_disabled":false,"rental_uris":{"android":"levelo://app?vid=d0140e14-99fc-4b79-a301-54f4bcf2691f","ios":"levelo://app?vid=d0140e14-99fc-4b79-a301-54f4bcf2691f"},"vehicle_type_id":"4","last_reported":1761152977,"current_range_meters":2800,"station_id":"ce4bhp12rcd13ifvqh9g","pricing_plan_id":"cebpf4jnsgd1na2vs0mg"},{"bike_id":"30ebb9ec-f73c-4d9f-baab-fc3e75e566b1","system_id":"levelo_inurba_marseille","lat":43.28608,"lon":5.37064,"is_reserved":false,"is_disabled":false,"rental_uris":{"android":"levelo://app?vid=30ebb9ec-f73c-4d9f-baab-fc3e75e566b1","ios":"levelo://app?vid=30ebb9ec-f73c-4d9f-baab-fc3e75e566b1"},"vehicle_type_id":"4","last_reported":1761152977,"current_range_meters":2800,"station_id":"ce4bht12rcd13ifvqi60","pricing_plan_id":"cebpf4jnsgd1na2vs0mg"},{"bike_id":"a55d56be-84c1-4529-aa8c-003d24030d9d","system_id":"levelo_inurba_marseille","lat":43.29277,"lon":5.40115,"is_reserved":false,"is_disabled":false,"rental_uris":{"android":"levelo://app?vid=a55d56be-84c1-4529-aa8c-003d24030d9d","ios":"levelo://app?vid=a55d56be-84c1-4529-aa8c-003d24030d9d"},"vehicle_type_id":"4","last_reported":1761152977,"current_range_meters":3200,"station_id":"ce4bh312rcd13ifvqdk0","pricing_plan_id":"cebpf4jnsgd1na2vs0mg"},{"bike_id":"335fb2d0-95fe-4257-a826-29423fa22a0c","system_id":"levelo_inurba_marseille","lat":43.28568,"lon":5.39495,"is_reserved":false,"is_disabled":false,"rental_uris":{"android":"levelo://app?vid=335fb2d0-95fe-4257-a826-29423fa22a0c","ios":"levelo://app?vid=335fb2d0-95fe-4257-a826-29423fa22a0c"},"vehicle_type_id":"4","last_reported":1761152977,"current_range_meters":3600,"station_id":"ce4bh292rcd13ifvqdg0","pricing_plan_id":"cebpf4jnsgd1na2vs0mg"},{"bike_id":"7e6d8b7e-da98-467b-a845-14994cc0f1b8","system_id":"levelo_inurba_marseille","lat":43.29503,"lon":5.394,"is_reserved":false,"is_disabled":false,"rental_uris":{"android":"levelo://app?vid=7e6d8b7e-da98-467b-a845-14994cc0f1b8","ios":"levelo://app?vid=7e6d8b7e-da98-467b-a845-14994cc0f1b8"},"vehicle_type_id":"4","last_reported":1761152977,"current_range_meters":3600,"station_id":"ce4bh292rcd13ifvqdf0","pricing_plan_id":"cebpf4jnsgd1na2vs0mg"},{"bike_id":"b9f96a20-2df9-4e3d-8ba6-b3da7714ed52","system_id":"levelo_inurba_marseille","lat":43.275023,"lon":5.424435,"is_reserved":false,"is_disabled":false,"rental_uris":{"android":"levelo://app?vid=b9f96a20-2df9-4e3d-8ba6-b3da7714ed52","ios":"levelo://app?vid=b9f96a20-2df9-4e3d-8ba6-b3da7714ed52"},"vehicle_type_id":"4","last_reported":1761152977,"current_range_meters":3600,"station_id":"ce4bhn92rcd13ifvqgrg","pricing_plan_id":"cebpf4jnsgd1na2vs0mg"},{"bike_id":"c49aa2ac-af45-4114-b616-07b44c8d96d5","system_id":"levelo_inurba_marseille","lat":43.28379,"lon":5.37506,"is_reserved":false,"is_disabled":false,"rental_uris":{"android":"levelo://app?vid=c49aa2ac-af45-4114-b616-07b44c8d96d5","ios":"levelo://app?vid=c49aa2ac-af45-4114-b616-07b44c8d96d5"},"vehicle_type_id":"4","last_reported":1761152977,"current_range_meters":4000,"station_id":"ce4bh412rcd13ifvqds0","pricing_plan_id":"cebpf4jnsgd1na2vs0mg"},{"bike_id":"bd5f76f7-18c6-49f9-bd24-b07d92318091","system_id":"levelo_inurba_marseille","lat":43.284987,"lon":5.350111,"is_reserved":false,"is_disabled":false,"rental_uris":{"android":"levelo://app?vid=bd5f76f7-18c6-49f9-bd24-b07d92318091","ios":"levelo://app?vid=bd5f76f7-18c6-49f9-bd24-b07d92318091"},"vehicle_type_id":"4","last_reported":1761152977,"current_range_meters":4000,"station_id":"","pricing_plan_id":"cebpf4jnsgd1na2vs0mg"},{"bike_id":"1c5127c1-a8d2-4fa8-94d7-fe17673f93a9","system_id":"levelo_inurba_marseille","lat":43.28683,"lon":5.38658,"is_reserved":false,"is_disabled":false,"rental_uris":{"android":"levelo://app?vid=1c5127c1-a8d2-4fa8-94d7-fe17673f93a9","ios":"levelo://app?vid=1c5127c1-a8d2-4fa8-94d7-fe17673f93a9"},"vehicle_type_id":"4","last_reported":1761152977,"current_range_meters":4400,"station_id":"ce4bh492rcd13ifvqdug","pricing_plan_id":"cebpf4jnsgd1na2vs0mg"},{"bike_id":"4154d683-e72a-4592-9e60-2a3872848698","system_id":"levelo_inurba_marseille","lat":43.28489,"lon":5.48393,"is_reserved":false,"is_disabled":false,"rental_uris":{"android":"levelo://app?vid=4154d683-e72a-4592-9e60-2a3872848698","ios":"levelo://app?vid=4154d683-e72a-4592-9e60-2a3872848698"},"vehicle_type_id":"4","last_reported":1761152977,"current_range_meters":4400,"station_id":"st_d3jp68qikq2c7381ktn0","pricing_plan_id":"cebpf4jnsgd1na2vs0mg"},{"bike_id":"cbdc2458-41ff-4e29-a20a-1a1dcfa40252","system_id":"levelo_inurba_marseille","lat":43.28162,"lon":5.42648,"is_reserved":false,"is_disabled":false,"rental_uris":{"android":"levelo://app?vid=cbdc2458-41ff-4e29-a20a-1a1dcfa40252","ios":"levelo://app?vid=cbdc2458-41ff-4e29-a20a-1a1dcfa40252"},"vehicle_type_id":"4","last_reported":1761152977,"current_range_meters":4400,"station_id":"ce4bhnh2rcd13ifvqgug","pricing_plan_id":"cebpf4jnsgd1na2vs0mg"},{"bike_id":"a870d8c4-d388-4bd8-a292-a2b1665e7e0e","system_id":"levelo_inurba_marseille","lat":43.304308,"lon":5.405861,"is_reserved":false,"is_disabled":false,"rental_uris":{"android":"levelo://app?vid=a870d8c4-d388-4bd8-a292-a2b1665e7e0e","ios":"levelo://app?vid=a870d8c4-d388-4bd8-a292-a2b1665e7e0e"},"vehicle_type_id":"4","last_reported":1761152977,"current_range_meters":4400,"station_id":"","pricing_plan_id":"cebpf4jnsgd1na2vs0mg"},{"bike_id":"de6e7184-a66e-4a84-acfd-25f4d7820316","system_id":"levelo_inurba_marseille","lat":43.21191,"lon":5.35074,"is_reserved":false,"is_disabled":false,"rental_uris":{"android":"levelo://app?vid=de6e7184-a66e-4a84-acfd-25f4d7820316","ios":"levelo://app?vid=de6e7184-a66e-4a84-acfd-25f4d7820316"},"vehicle_type_id":"4","last_reported":1761152977,"current_range_meters":4400,"station_id":"","pricing_plan_id":"cebpf4jnsgd1na2vs0mg"},{"bike_id":"52f603a5-81c7-431e-82cb-459174d61771","system_id":"levelo_inurba_marseille","lat":43.30456,"lon":5.37901,"is_reserved":false,"is_disabled":false,"rental_uris":{"android":"levelo://app?vid=52f603a5-81c7-431e-82cb-459174d61771","ios":"levelo://app?vid=52f603a5-81c7-431e-82cb-459174d61771"},"vehicle_type_id":"4","last_reported":1761152977,"current_range_meters":4400,"station_id":"ce4bgup2rcd13ifvqcn0","pricing_plan_id":"cebpf4jnsgd1na2vs0mg"},{"bike_id":"1f9a1c54-0b1f-472a-9f34-deda94837d41","system_id":"levelo_inurba_marseille","lat":43.29436,"lon":5.39752,"is_reserved":false,"is_disabled":false,"rental_uris":{"android":"levelo://app?vid=1f9a1c54-0b1f-472a-9f34-deda94837d41","ios":"levelo://app?vid=1f9a1c54-0b1f-472a-9f34-deda94837d41"},"vehicle_type_id":"4","last_reported":1761152977,"current_range_meters":4400,"station_id":"ce4bh3h2rcd13ifvqdo0","pricing_plan_id":"cebpf4jnsgd1na2vs0mg"},{"bike_id":"6ff9e597-53e6-4285-ad9c-44300b714333","system_id":"levelo_inurba_marseille","lat":43.29534,"lon":5.38542,"is_reserved":false,"is_disabled":false,"rental_uris":{"android":"levelo://app?vid=6ff9e597-53e6-4285-ad9c-44300b714333","ios":"levelo://app?vid=6ff9e597-53e6-4285-ad9c-44300b714333"},"vehicle_type_id":"4","last_reported":1761152977,"current_range_meters":4400,"station_id":"ce4bgih2rcd13ifvqba0","pricing_plan_id":"cebpf4jnsgd1na2vs0mg"},{"bike_id":"e7cb61d9-84d9-41c0-8427-00fc6a9e436b","system_id":"levelo_inurba_marseille","lat":43.31058,"lon":5.37566,"is_reserved":false,"is_disabled":false,"rental_uris":{"android":"levelo://app?vid=e7cb61d9-84d9-41c0-8427-00fc6a9e436b","ios":"levelo://app?vid=e7cb61d9-84d9-41c0-8427-00fc6a9e436b"},"vehicle_type_id":"4","last_reported":1761152977,"current_range_meters":4400,"station_id":"","pricing_plan_id":"cebpf4jnsgd1na2vs0mg"},{"bike_id":"cb9c1fa3-33fa-441d-a796-2e0c52891b1a","system_id":"levelo_inurba_marseille","lat":43.29264,"lon":5.38437,"is_reserved":false,"is_disabled":false,"rental_uris":{"android":"levelo://app?vid=cb9c1fa3-33fa-441d-a796-2e0c52891b1a","ios":"levelo://app?vid=cb9c1fa3-33fa-441d-a796-2e0c52891b1a"},"vehicle_type_id":"4","last_reported":1761152977,"current_range_meters":4800,"station_id":"ce4bh692rcd13ifvqea0","pricing_plan_id":"cebpf4jnsgd1na2vs0mg"},{"bike_id":"33b8261b-9b9a-496a-8d21-ce9c6dc6173d","system_id":"levelo_inurba_marseille","lat":43.30735,"lon":5.42448,"is_reserved":false,"is_disabled":false,"rental_uris":{"android":"levelo://app?vid=33b8261b-9b9a-496a-8d21-ce9c6dc6173d","ios":"levelo://app?vid=33b8261b-9b9a-496a-8d21-ce9c6dc6173d"},"vehicle_type_id":"4","last_reported":1761152977,"current_range_meters":4800,"station_id":"st_cvj6ca6bvosntc0bfgr0","pricing_plan_id":"cebpf4jnsgd1na2vs0mg"},{"bike_id":"f085b3ca-9e4f-40ec-baa1-c3b2740a7054","system_id":"levelo_inurba_marseille","lat":43.29526,"lon":5.39034,"is_reserved":false,"is_disabled":false,"rental_uris":{"android":"levelo://app?vid=f085b3ca-9e4f-40ec-baa1-c3b2740a7054","ios":"levelo://app?vid=f085b3ca-9e4f-40ec-baa1-c3b2740a7054"},"vehicle_type_id":"4","last_reported":1761152977,"current_range_meters":4800,"station_id":"ce4bh3p2rcd13ifvqdp0","pricing_plan_id":"cebpf4jnsgd1na2vs0mg"},{"bike_id":"6cf9014a-6bb2-418c-93ef-633924a9b0dd","system_id":"levelo_inurba_marseille","lat":43.30425,"lon":5.38892,"is_reserved":false,"is_disabled":false,"rental_uris":{"android":"levelo://app?vid=6cf9014a-6bb2-418c-93ef-633924a9b0dd","ios":"levelo://app?vid=6cf9014a-6bb2-418c-93ef-633924a9b0dd"},"vehicle_type_id":"4","last_reported":1761152977,"current_range_meters":4800,"station_id":"ce4bgk12rcd13ifvqbi0","pricing_plan_id":"cebpf4jnsgd1na2vs0mg"},{"bike_id":"13b606c0-1e3f-47fd-9d2a-5c9fa84cc461","system_id":"levelo_inurba_marseille","lat":43.25718,"lon":5.41114,"is_reserved":false,"is_disabled":false,"rental_uris":{"android":"levelo://app?vid=13b606c0-1e3f-47fd-9d2a-5c9fa84cc461","ios":"levelo://app?vid=13b606c0-1e3f-47fd-9d2a-5c9fa84cc461"},"vehicle_type_id":"4","last_reported":1761152977,"current_range_meters":4800,"station_id":"ce4bhkp2rcd13ifvqgd0","pricing_plan_id":"cebpf4jnsgd1na2vs0mg"},{"bike_id":"58b537c5-97ab-46d0-9a55-2d4fe97d2e76","system_id":"levelo_inurba_marseille","lat":43.283996,"lon":5.385515,"is_reserved":false,"is_disabled":true,"rental_uris":{"android":"levelo://app?vid=58b537c5-97ab-46d0-9a55-2d4fe97d2e76","ios":"levelo://app?vid=58b537c5-97ab-46d0-9a55-2d4fe97d2e76"},"vehicle_type_id":"4","last_reported":1761152977,"current_range_meters":4800,"station_id":"ce4bh492rcd13ifvqdvg","pricing_plan_id":"cebpf4jnsgd1na2vs0mg"},{"bike_id":"9e79b9cb-1796-4784-8d71-c523327fa43f","system_id":"levelo_inurba_marseille","lat":43.29029,"lon":5.38646,"is_reserved":false,"is_disabled":false,"rental_uris":{"android":"levelo://app?vid=9e79b9cb-1796-4784-8d71-c523327fa43f","ios":"levelo://app?vid=9e79b9cb-1796-4784-8d71-c523327fa43f"},"vehicle_type_id":"4","last_reported":1761152977,"current_range_meters":5600,"station_id":"","pricing_plan_id":"cebpf4jnsgd1na2vs0mg"},{"bike_id":"953ee31c-f7b1-4bec-b8b8-eebe51f1267d","system_id":"levelo_inurba_marseille","lat":43.31169,"lon":5.387247,"is_reserved":false,"is_disabled":false,"rental_uris":{"android":"levelo://app?vid=953ee31c-f7b1-4bec-b8b8-eebe51f1267d","ios":"levelo://app?vid=953ee31c-f7b1-4bec-b8b8-eebe51f1267d"},"vehicle_type_id":"4","last_reported":1761152977,"current_range_meters":5600,"station_id":"ce4bh692rcd13ifvqea0","pricing_plan_id":"cebpf4jnsgd1na2vs0mg"},{"bike_id":"eea3c3c3-734f-4fd3-8061-ed84cfe47b38","system_id":"levelo_inurba_marseille","lat":43.326,"lon":5.39199,"is_reserved":false,"is_disabled":false,"rental_uris":{"android":"levelo://app?vid=eea3c3c3-734f-4fd3-8061-ed84cfe47b38","ios":"levelo://app?vid=eea3c3c3-734f-4fd3-8061-ed84cfe47b38"},"vehicle_type_id":"4","last_reported":1761152977,"current_range_meters":5600,"station_id":"","pricing_plan_id":"cebpf4jnsgd1na2vs0mg"},{"bike_id":"225ba175-2e3c-49c9-b701-b403851eb358","system_id":"levelo_inurba_marseille","lat":43.284088,"lon":5.375088,"is_reserved":false,"is_disabled":false,"rental_uris":{"android":"levelo://app?vid=225ba175-2e3c-49c9-b701-b403851eb358","ios":"levelo://app?vid=225ba175-2e3c-49c9-b701-b403851eb358"},"vehicle_type_id":"4","last_reported":1761152977,"current_range_meters":5600,"station_id":"ce4bh492rcd13ifvqdug","pricing_plan_id":"cebpf4jnsgd1na2vs0mg"},{"bike_id":"fe944292-f1e1-4acc-80f2-92a6047276d5","system_id":"levelo_inurba_marseille","lat":43.28355,"lon":5.38649,"is_reserved":false,"is_disabled":false,"rental_uris":{"android":"levelo://app?vid=fe944292-f1e1-4acc-80f2-92a6047276d5","ios":"levelo://app?vid=fe944292-f1e1-4acc-80f2-92a6047276d5"},"vehicle_type_id":"4","last_reported":1761152977,"current_range_meters":5600,"station_id":"ce4bh492rcd13ifvqdvg","pricing_plan_id":"cebpf4jnsgd1na2vs0mg"},{"bike_id":"805cc412-434c-4829-8363-1954f7f430fd","system_id":"levelo_inurba_marseille","lat":43.298879,"lon":5.383717,"is_reserved":false,"is_disabled":false,"rental_uris":{"android":"levelo://app?vid=805cc412-434c-4829-8363-1954f7f430fd","ios":"levelo://app?vid=805cc412-434c-4829-8363-1954f7f430fd"},"vehicle_type_id":"4","last_reported":1761152977,"current_range_meters":5600,"station_id":"","pricing_plan_id":"cebpf4jnsgd1na2vs0mg"},{"bike_id":"c3196573-90ac-47a7-b513-50dd1b313606","system_id":"levelo_inurba_marseille","lat":43.279761,"lon":5.399864,"is_reserved":false,"is_disabled":false,"rental_uris":{"android":"levelo://app?vid=c3196573-90ac-47a7-b513-50dd1b313606","ios":"levelo://app?vid=c3196573-90ac-47a7-b513-50dd1b313606"},"vehicle_type_id":"4","last_reported":1761152977,"current_range_meters":6000,"station_id":"ce4bho92rcd13ifvqh4g","pricing_plan_id":"cebpf4jnsgd1na2vs0mg"},{"bike_id":"244b927c-472d-4dca-ab2a-062e850cc84f","system_id":"levelo_inurba_marseille","lat":43.292736,"lon":5.384324,"is_reserved":false,"is_disabled":false,"rental_uris":{"android":"levelo://app?vid=244b927c-472d-4dca-ab2a-062e850cc84f","ios":"levelo://app?vid=244b927c-472d-4dca-ab2a-062e850cc84f"},"vehicle_type_id":"4","last_reported":1761152977,"current_range_meters":6000,"station_id":"ce4bh692rcd13ifvqea0","pricing_plan_id":"cebpf4jnsgd1na2vs0mg"},{"bike_id":"d7a1a462-f340-4775-b839-d5b6f0da218e","system_id":"levelo_inurba_marseille","lat":43.27989,"lon":5.41664,"is_reserved":false,"is_disabled":false,"rental_uris":{"android":"levelo://app?vid=d7a1a462-f340-4775-b839-d5b6f0da218e","ios":"levelo://app?vid=d7a1a462-f340-4775-b839-d5b6f0da218e"},"vehicle_type_id":"4","last_reported":1761152977,"current_range_meters":6000,"station_id":"ce4bho12rcd13ifvqh1g","pricing_plan_id":"cebpf4jnsgd1na2vs0mg"},{"bike_id":"562d4d8e-b434-473f-aa74-66ebdbe019b5","system_id":"levelo_inurba_marseille","lat":43.26229,"lon":5.40453,"is_reserved":false,"is_disabled":false,"rental_uris":{"android":"levelo://app?vid=562d4d8e-b434-473f-aa74-66ebdbe019b5","ios":"levelo://app?vid=562d4d8e-b434-473f-aa74-66ebdbe019b5"},"vehicle_type_id":"4","last_reported":1761152977,"current_range_meters":6000,"station_id":"ce4bhmh2rcd13ifvqgmg","pricing_plan_id":"cebpf4jnsgd1na2vs0mg"},{"bike_id":"8b2410c3-f35a-49be-a947-637d01e7606b","system_id":"levelo_inurba_marseille","lat":43.240767,"lon":5.377565,"is_reserved":false,"is_disabled":false,"rental_uris":{"android":"levelo://app?vid=8b2410c3-f35a-49be-a947-637d01e7606b","ios":"levelo://app?vid=8b2410c3-f35a-49be-a947-637d01e7606b"},"vehicle_type_id":"4","last_reported":1761152977,"current_range_meters":6400,"station_id":"ce4bhnp2rcd13ifvqgvg","pricing_plan_id":"cebpf4jnsgd1na2vs0mg"},{"bike_id":"db684711-3706-4b75-b2f7-6b6fc57a4247","system_id":"levelo_inurba_marseille","lat":43.30138,"lon":5.38777,"is_reserved":false,"is_disabled":false,"rental_uris":{"android":"levelo://app?vid=db684711-3706-4b75-b2f7-6b6fc57a4247","ios":"levelo://app?vid=db684711-3706-4b75-b2f7-6b6fc57a4247"},"vehicle_type_id":"4","last_reported":1761152977,"current_range_meters":6400,"station_id":"ce4bghh2rcd13ifvqb60","pricing_plan_id":"cebpf4jnsgd1na2vs0mg"},{"bike_id":"d18323a3-089d-49e1-b19e-4f398a6f7aba","system_id":"levelo_inurba_marseille","lat":43.2998,"lon":5.37174,"is_reserved":false,"is_disabled":false,"rental_uris":{"android":"levelo://app?vid=d18323a3-089d-49e1-b19e-4f398a6f7aba","ios":"levelo://app?vid=d18323a3-089d-49e1-b19e-4f398a6f7aba"},"vehicle_type_id":"4","last_reported":1761152977,"current_range_meters":6400,"station_id":"","pricing_plan_id":"cebpf4jnsgd1na2vs0mg"},{"bike_id":"a5426da4-f6b4-4554-a826-cfba0597e2a0","system_id":"levelo_inurba_marseille","lat":43.27375,"lon":5.36259,"is_reserved":false,"is_disabled":false,"rental_uris":{"android":"levelo://app?vid=a5426da4-f6b4-4554-a826-cfba0597e2a0","ios":"levelo://app?vid=a5426da4-f6b4-4554-a826-cfba0597e2a0"},"vehicle_type_id":"4","last_reported":1761152977,"current_range_meters":6400,"station_id":"ce4bhbh2rcd13ifvqeo0","pricing_plan_id":"cebpf4jnsgd1na2vs0mg"},{"bike_id":"3d068a7d-8c2c-4f97-8d7d-54140fa95800","system_id":"levelo_inurba_marseille","lat":43.273583,"lon":5.39879,"is_reserved":false,"is_disabled":false,"rental_uris":{"android":"levelo://app?vid=3d068a7d-8c2c-4f97-8d7d-54140fa95800","ios":"levelo://app?vid=3d068a7d-8c2c-4f97-8d7d-54140fa95800"},"vehicle_type_id":"4","last_reported":1761152977,"current_range_meters":6400,"station_id":"","pricing_plan_id":"cebpf4jnsgd1na2vs0mg"},{"bike_id":"08e03dfd-c0ed-4610-983b-acee4787ab1e","system_id":"levelo_inurba_marseille","lat":43.32048,"lon":5.4155,"is_reserved":false,"is_disabled":false,"rental_uris":{"android":"levelo://app?vid=08e03dfd-c0ed-4610-983b-acee4787ab1e","ios":"levelo://app?vid=08e03dfd-c0ed-4610-983b-acee4787ab1e"},"vehicle_type_id":"4","last_reported":1761152977,"current_range_meters":6400,"station_id":"ce4bhq92rcd13ifvqhkg","pricing_plan_id":"cebpf4jnsgd1na2vs0mg"},{"bike_id":"438fb953-cc0b-48eb-bac5-047e4685b170","system_id":"levelo_inurba_marseille","lat":43.29006,"lon":5.35613,"is_reserved":false,"is_disabled":false,"rental_uris":{"android":"levelo://app?vid=438fb953-cc0b-48eb-bac5-047e4685b170","ios":"levelo://app?vid=438fb953-cc0b-48eb-bac5-047e4685b170"},"vehicle_type_id":"4","last_reported":1761152977,"current_range_meters":6400,"station_id":"ce4bhb92rcd13ifvqen0","pricing_plan_id":"cebpf4jnsgd1na2vs0mg"},{"bike_id":"d3d4de0d-4d68-46a2-b337-0c12ab79d3e8","system_id":"levelo_inurba_marseille","lat":43.31999,"lon":5.38168,"is_reserved":false,"is_disabled":false,"rental_uris":{"android":"levelo://app?vid=d3d4de0d-4d68-46a2-b337-0c12ab79d3e8","ios":"levelo://app?vid=d3d4de0d-4d68-46a2-b337-0c12ab79d3e8"},"vehicle_type_id":"4","last_reported":1761152977,"current_range_meters":6400,"station_id":"ce4bhr12rcd13ifvqhpg","pricing_plan_id":"cebpf4jnsgd1na2vs0mg"},{"bike_id":"66bec76d-d7e9-4a1e-a715-39e56334bf96","system_id":"levelo_inurba_marseille","lat":43.2828,"lon":5.39652,"is_reserved":false,"is_disabled":false,"rental_uris":{"android":"levelo://app?vid=66bec76d-d7e9-4a1e-a715-39e56334bf96","ios":"levelo://app?vid=66bec76d-d7e9-4a1e-a715-39e56334bf96"},"vehicle_type_id":"4","last_reported":1761152977,"current_range_meters":6800,"station_id":"","pricing_plan_id":"cebpf4jnsgd1na2vs0mg"},{"bike_id":"2bf3f5a1-1b00-4eaf-92aa-2a082249e6c9","system_id":"levelo_inurba_marseille","lat":43.303281,"lon":5.404309,"is_reserved":false,"is_disabled":false,"rental_uris":{"android":"levelo://app?vid=2bf3f5a1-1b00-4eaf-92aa-2a082249e6c9","ios":"levelo://app?vid=2bf3f5a1-1b00-4eaf-92aa-2a082249e6c9"},"vehicle_type_id":"4","last_reported":1761152977,"current_range_meters":6800,"station_id":"ce4bh012rcd13ifvqd10","pricing_plan_id":"cebpf4jnsgd1na2vs0mg"},{"bike_id":"4a3a7bc7-d0ed-4525-8dbf-d7f78f615921","system_id":"levelo_inurba_marseille","lat":43.27382,"lon":5.36259,"is_reserved":false,"is_disabled":false,"rental_uris":{"android":"levelo://app?vid=4a3a7bc7-d0ed-4525-8dbf-d7f78f615921","ios":"levelo://app?vid=4a3a7bc7-d0ed-4525-8dbf-d7f78f615921"},"vehicle_type_id":"4","last_reported":1761152977,"current_range_meters":7200,"station_id":"ce4bhbh2rcd13ifvqeo0","pricing_plan_id":"cebpf4jnsgd1na2vs0mg"},{"bike_id":"c8065ff9-daa9-49b2-9447-898ec7788627","system_id":"levelo_inurba_marseille","lat":43.24686,"lon":5.38159,"is_reserved":false,"is_disabled":false,"rental_uris":{"android":"levelo://app?vid=c8065ff9-daa9-49b2-9447-898ec7788627","ios":"levelo://app?vid=c8065ff9-daa9-49b2-9447-898ec7788627"},"vehicle_type_id":"4","last_reported":1761152977,"current_range_meters":7200,"station_id":"ce4bhih2rcd13ifvqfr0","pricing_plan_id":"cebpf4jnsgd1na2vs0mg"},{"bike_id":"97585d63-cae0-46a3-8fec-9651d52b3156","system_id":"levelo_inurba_marseille","lat":43.27877,"lon":5.37989,"is_reserved":false,"is_disabled":true,"rental_uris":{"android":"levelo://app?vid=97585d63-cae0-46a3-8fec-9651d52b3156","ios":"levelo://app?vid=97585d63-cae0-46a3-8fec-9651d52b3156"},"vehicle_type_id":"4","last_reported":1761152977,"current_range_meters":7200,"station_id":"ce4bhf92rcd13ifvqf50","pricing_plan_id":"cebpf4jnsgd1na2vs0mg"},{"bike_id":"89aa0589-0337-4bda-8b64-dee300361111","system_id":"levelo_inurba_marseille","lat":43.29188,"lon":5.35824,"is_reserved":false,"is_disabled":false,"rental_uris":{"android":"levelo://app?vid=89aa0589-0337-4bda-8b64-dee300361111","ios":"levelo://app?vid=89aa0589-0337-4bda-8b64-dee300361111"},"vehicle_type_id":"4","last_reported":1761152977,"current_range_meters":7200,"station_id":"ce4bhb12rcd13ifvqel0","pricing_plan_id":"cebpf4jnsgd1na2vs0mg"},{"bike_id":"158efa80-12ab-4b7d-8a51-8d3a468fcc07","system_id":"levelo_inurba_marseille","lat":43.212,"lon":5.35075,"is_reserved":false,"is_disabled":true,"rental_uris":{"android":"levelo://app?vid=158efa80-12ab-4b7d-8a51-8d3a468fcc07","ios":"levelo://app?vid=158efa80-12ab-4b7d-8a51-8d3a468fcc07"},"vehicle_type_id":"4","last_reported":1761152977,"current_range_meters":7200,"station_id":"","pricing_plan_id":"cebpf4jnsgd1na2vs0mg"},{"bike_id":"e499c9d9-08ab-43ab-854d-1c49f0c5b630","system_id":"levelo_inurba_marseille","lat":43.25124,"lon":5.40314,"is_reserved":false,"is_disabled":false,"rental_uris":{"android":"levelo://app?vid=e499c9d9-08ab-43ab-854d-1c49f0c5b630","ios":"levelo://app?vid=e499c9d9-08ab-43ab-854d-1c49f0c5b630"},"vehicle_type_id":"4","last_reported":1761152977,"current_range_meters":7200,"station_id":"ce4bhlh2rcd13ifvqgig","pricing_plan_id":"cebpf4jnsgd1na2vs0mg"},{"bike_id":"c2970204-9d84-4197-a7fe-147c1837e494","system_id":"levelo_inurba_marseille","lat":43.28617,"lon":5.35103,"is_reserved":false,"is_disabled":false,"rental_uris":{"android":"levelo://app?vid=c2970204-9d84-4197-a7fe-147c1837e494","ios":"levelo://app?vid=c2970204-9d84-4197-a7fe-147c1837e494"},"vehicle_type_id":"4","last_reported":1761152977,"current_range_meters":7200,"station_id":"ce4bhch2rcd13ifvqeug","pricing_plan_id":"cebpf4jnsgd1na2vs0mg"},{"bike_id":"da3c5d5d-639d-4a11-88e1-f7b9c2ad220a","system_id":"levelo_inurba_marseille","lat":43.3173,"lon":5.37785,"is_reserved":false,"is_disabled":true,"rental_uris":{"android":"levelo://app?vid=da3c5d5d-639d-4a11-88e1-f7b9c2ad220a","ios":"levelo://app?vid=da3c5d5d-639d-4a11-88e1-f7b9c2ad220a"},"vehicle_type_id":"4","last_reported":1761152977,"current_range_meters":7200,"station_id":"ce4bgth2rcd13ifvqch0","pricing_plan_id":"cebpf4jnsgd1na2vs0mg"},{"bike_id":"b7e41c34-cad5-468c-aadc-3ef8a1845b5a","system_id":"levelo_inurba_marseille","lat":43.281646,"lon":5.361175,"is_reserved":false,"is_disabled":false,"rental_uris":{"android":"levelo://app?vid=b7e41c34-cad5-468c-aadc-3ef8a1845b5a","ios":"levelo://app?vid=b7e41c34-cad5-468c-aadc-3ef8a1845b5a"},"vehicle_type_id":"4","last_reported":1761152977,"current_range_meters":8000,"station_id":"","pricing_plan_id":"cebpf4jnsgd1na2vs0mg"},{"bike_id":"3201e625-69d5-420e-838c-f4c3f44666ef","system_id":"levelo_inurba_marseille","lat":43.33775,"lon":5.37438,"is_reserved":false,"is_disabled":false,"rental_uris":{"android":"levelo://app?vid=3201e625-69d5-420e-838c-f4c3f44666ef","ios":"levelo://app?vid=3201e625-69d5-420e-838c-f4c3f44666ef"},"vehicle_type_id":"4","last_reported":1761152977,"current_range_meters":8000,"station_id":"","pricing_plan_id":"cebpf4jnsgd1na2vs0mg"},{"bike_id":"b7eb91dd-e20f-4730-98de-ad63b618f2b3","system_id":"levelo_inurba_marseille","lat":43.29265,"lon":5.38435,"is_reserved":false,"is_disabled":false,"rental_uris":{"android":"levelo://app?vid=b7eb91dd-e20f-4730-98de-ad63b618f2b3","ios":"levelo://app?vid=b7eb91dd-e20f-4730-98de-ad63b618f2b3"},"vehicle_type_id":"4","last_reported":1761152977,"current_range_meters":8000,"station_id":"ce4bh692rcd13ifvqea0","pricing_plan_id":"cebpf4jnsgd1na2vs0mg"},{"bike_id":"12c36be3-5162-4923-9735-810a93ad89d7","system_id":"levelo_inurba_marseille","lat":43.288598,"lon":5.425289,"is_reserved":false,"is_disabled":false,"rental_uris":{"android":"levelo://app?vid=12c36be3-5162-4923-9735-810a93ad89d7","ios":"levelo://app?vid=12c36be3-5162-4923-9735-810a93ad89d7"},"vehicle_type_id":"4","last_reported":1761152977,"current_range_meters":8000,"station_id":"st_d3b462108ojc7389ooeg","pricing_plan_id":"cebpf4jnsgd1na2vs0mg"},{"bike_id":"6d86973d-268f-4b67-9c93-eb2b258c1fd7","system_id":"levelo_inurba_marseille","lat":43.27172,"lon":5.40992,"is_reserved":false,"is_disabled":false,"rental_uris":{"android":"levelo://app?vid=6d86973d-268f-4b67-9c93-eb2b258c1fd7","ios":"levelo://app?vid=6d86973d-268f-4b67-9c93-eb2b258c1fd7"},"vehicle_type_id":"4","last_reported":1761152977,"current_range_meters":8400,"station_id":"ce4bhl12rcd13ifvqgf0","pricing_plan_id":"cebpf4jnsgd1na2vs0mg"},{"bike_id":"a7b06526-aea6-4369-9939-dc263cf58f1c","system_id":"levelo_inurba_marseille","lat":43.278326,"lon":5.391976,"is_reserved":false,"is_disabled":true,"rental_uris":{"android":"levelo://app?vid=a7b06526-aea6-4369-9939-dc263cf58f1c","ios":"levelo://app?vid=a7b06526-aea6-4369-9939-dc263cf58f1c"},"vehicle_type_id":"4","last_reported":1761152977,"current_range_meters":8400,"station_id":"ce4bhjp2rcd13ifvqga0","pricing_plan_id":"cebpf4jnsgd1na2vs0mg"},{"bike_id":"b8457e49-45d1-4539-8d31-1eb0283df508","system_id":"levelo_inurba_marseille","lat":43.33168,"lon":5.35498,"is_reserved":false,"is_disabled":false,"rental_uris":{"android":"levelo://app?vid=b8457e49-45d1-4539-8d31-1eb0283df508","ios":"levelo://app?vid=b8457e49-45d1-4539-8d31-1eb0283df508"},"vehicle_type_id":"4","last_reported":1761152977,"current_range_meters":8400,"station_id":"","pricing_plan_id":"cebpf4jnsgd1na2vs0mg"},{"bike_id":"4a1e1df6-1b85-4767-8d5f-f781328531db","system_id":"levelo_inurba_marseille","lat":43.28658,"lon":5.3635,"is_reserved":false,"is_disabled":false,"rental_uris":{"android":"levelo://app?vid=4a1e1df6-1b85-4767-8d5f-f781328531db","ios":"levelo://app?vid=4a1e1df6-1b85-4767-8d5f-f781328531db"},"vehicle_type_id":"4","last_reported":1761152977,"current_range_meters":8400,"station_id":"ce4bhah2rcd13ifvqej0","pricing_plan_id":"cebpf4jnsgd1na2vs0mg"},{"bike_id":"577ecd2b-914e-4a10-9632-ee5c0350e5e6","system_id":"levelo_inurba_marseille","lat":43.295312,"lon":5.385415,"is_reserved":false,"is_disabled":false,"rental_uris":{"android":"levelo://app?vid=577ecd2b-914e-4a10-9632-ee5c0350e5e6","ios":"levelo://app?vid=577ecd2b-914e-4a10-9632-ee5c0350e5e6"},"vehicle_type_id":"4","last_reported":1761152977,"current_range_meters":8400,"station_id":"","pricing_plan_id":"cebpf4jnsgd1na2vs0mg"},{"bike_id":"03526fbf-8124-4719-8e28-03e849272c37","system_id":"levelo_inurba_marseille","lat":43.29788,"lon":5.39338,"is_reserved":false,"is_disabled":false,"rental_uris":{"android":"levelo://app?vid=03526fbf-8124-4719-8e28-03e849272c37","ios":"levelo://app?vid=03526fbf-8124-4719-8e28-03e849272c37"},"vehicle_type_id":"4","last_reported":1761152977,"current_range_meters":8400,"station_id":"chh1huq6cuj3fo74tm60","pricing_plan_id":"cebpf4jnsgd1na2vs0mg"},{"bike_id":"73845d70-817e-466d-a91f-551a1bf5e243","system_id":"levelo_inurba_marseille","lat":43.30947,"lon":5.39036,"is_reserved":false,"is_disabled":true,"rental_uris":{"android":"levelo://app?vid=73845d70-817e-466d-a91f-551a1bf5e243","ios":"levelo://app?vid=73845d70-817e-466d-a91f-551a1bf5e243"},"vehicle_type_id":"4","last_reported":1761152977,"current_range_meters":8800,"station_id":"ce4bgup2rcd13ifvqco0","pricing_plan_id":"cebpf4jnsgd1na2vs0mg"},{"bike_id":"fbadbd40-4a6a-433a-9f6f-895938a42f24","system_id":"levelo_inurba_marseille","lat":43.24659,"lon":5.38167,"is_reserved":false,"is_disabled":false,"rental_uris":{"android":"levelo://app?vid=fbadbd40-4a6a-433a-9f6f-895938a42f24","ios":"levelo://app?vid=fbadbd40-4a6a-433a-9f6f-895938a42f24"},"vehicle_type_id":"4","last_reported":1761152977,"current_range_meters":8800,"station_id":"ce4bhih2rcd13ifvqfr0","pricing_plan_id":"cebpf4jnsgd1na2vs0mg"},{"bike_id":"c82d50a7-56b9-4844-97ae-89289a27ba7f","system_id":"levelo_inurba_marseille","lat":43.29979,"lon":5.38488,"is_reserved":false,"is_disabled":false,"rental_uris":{"android":"levelo://app?vid=c82d50a7-56b9-4844-97ae-89289a27ba7f","ios":"levelo://app?vid=c82d50a7-56b9-4844-97ae-89289a27ba7f"},"vehicle_type_id":"4","last_reported":1761152977,"current_range_meters":8800,"station_id":"ce4bgj92rcd13ifvqbd0","pricing_plan_id":"cebpf4jnsgd1na2vs0mg"},{"bike_id":"c4432b73-0adb-475d-83b3-18f6e7bba483","system_id":"levelo_inurba_marseille","lat":43.31639,"lon":5.40533,"is_reserved":false,"is_disabled":false,"rental_uris":{"android":"levelo://app?vid=c4432b73-0adb-475d-83b3-18f6e7bba483","ios":"levelo://app?vid=c4432b73-0adb-475d-83b3-18f6e7bba483"},"vehicle_type_id":"4","last_reported":1761152977,"current_range_meters":8800,"station_id":"","pricing_plan_id":"cebpf4jnsgd1na2vs0mg"},{"bike_id":"ac1df8dc-41e5-4954-977f-6f21ed12d11a","system_id":"levelo_inurba_marseille","lat":43.21748,"lon":5.34602,"is_reserved":false,"is_disabled":false,"rental_uris":{"android":"levelo://app?vid=ac1df8dc-41e5-4954-977f-6f21ed12d11a","ios":"levelo://app?vid=ac1df8dc-41e5-4954-977f-6f21ed12d11a"},"vehicle_type_id":"4","last_reported":1761152977,"current_range_meters":9200,"station_id":"st_cvj6r9ubvosntc0bgbag","pricing_plan_id":"cebpf4jnsgd1na2vs0mg"},{"bike_id":"76d6d785-2795-4deb-a05c-2a8c101baca6","system_id":"levelo_inurba_marseille","lat":43.28942,"lon":5.36383,"is_reserved":false,"is_disabled":false,"rental_uris":{"android":"levelo://app?vid=76d6d785-2795-4deb-a05c-2a8c101baca6","ios":"levelo://app?vid=76d6d785-2795-4deb-a05c-2a8c101baca6"},"vehicle_type_id":"4","last_reported":1761152977,"current_range_meters":9200,"station_id":"ce4bhc92rcd13ifvqetg","pricing_plan_id":"cebpf4jnsgd1na2vs0mg"},{"bike_id":"26783a03-9698-46ac-aa1d-c574795890da","system_id":"levelo_inurba_marseille","lat":43.26572,"lon":5.39013,"is_reserved":false,"is_disabled":false,"rental_uris":{"android":"levelo://app?vid=26783a03-9698-46ac-aa1d-c574795890da","ios":"levelo://app?vid=26783a03-9698-46ac-aa1d-c574795890da"},"vehicle_type_id":"4","last_reported":1761152977,"current_range_meters":9200,"station_id":"ce4bhe12rcd13ifvqf30","pricing_plan_id":"cebpf4jnsgd1na2vs0mg"},{"bike_id":"d38bb17a-4ac6-4da6-829b-fc2ffe260364","system_id":"levelo_inurba_marseille","lat":43.31918,"lon":5.40746,"is_reserved":false,"is_disabled":true,"rental_uris":{"android":"levelo://app?vid=d38bb17a-4ac6-4da6-829b-fc2ffe260364","ios":"levelo://app?vid=d38bb17a-4ac6-4da6-829b-fc2ffe260364"},"vehicle_type_id":"4","last_reported":1761152977,"current_range_meters":9200,"station_id":"ce4bhq12rcd13ifvqhig","pricing_plan_id":"cebpf4jnsgd1na2vs0mg"},{"bike_id":"af9dd7c0-fe02-452e-ba39-1f6f461d5d6b","system_id":"levelo_inurba_marseille","lat":43.286674,"lon":5.386832,"is_reserved":false,"is_disabled":false,"rental_uris":{"android":"levelo://app?vid=af9dd7c0-fe02-452e-ba39-1f6f461d5d6b","ios":"levelo://app?vid=af9dd7c0-fe02-452e-ba39-1f6f461d5d6b"},"vehicle_type_id":"4","last_reported":1761152977,"current_range_meters":9200,"station_id":"ce4bh492rcd13ifvqdug","pricing_plan_id":"cebpf4jnsgd1na2vs0mg"},{"bike_id":"f2286bd7-2aa8-4988-87de-c391bdbcb9d6","system_id":"levelo_inurba_marseille","lat":43.31361,"lon":5.38495,"is_reserved":false,"is_disabled":false,"rental_uris":{"android":"levelo://app?vid=f2286bd7-2aa8-4988-87de-c391bdbcb9d6","ios":"levelo://app?vid=f2286bd7-2aa8-4988-87de-c391bdbcb9d6"},"vehicle_type_id":"4","last_reported":1761152977,"current_range_meters":9600,"station_id":"ce4bgt92rcd13ifvqcf0","pricing_plan_id":"cebpf4jnsgd1na2vs0mg"},{"bike_id":"ee987c1e-fb0f-41b8-9286-e7491e40197d","system_id":"levelo_inurba_marseille","lat":43.29972,"lon":5.38482,"is_reserved":false,"is_disabled":true,"rental_uris":{"android":"levelo://app?vid=ee987c1e-fb0f-41b8-9286-e7491e40197d","ios":"levelo://app?vid=ee987c1e-fb0f-41b8-9286-e7491e40197d"},"vehicle_type_id":"4","last_reported":1761152977,"current_range_meters":9600,"station_id":"ce4bgj92rcd13ifvqbd0","pricing_plan_id":"cebpf4jnsgd1na2vs0mg"},{"bike_id":"e7c85849-3a76-42c7-9785-a6a155be1a45","system_id":"levelo_inurba_marseille","lat":43.24675,"lon":5.38155,"is_reserved":false,"is_disabled":false,"rental_uris":{"android":"levelo://app?vid=e7c85849-3a76-42c7-9785-a6a155be1a45","ios":"levelo://app?vid=e7c85849-3a76-42c7-9785-a6a155be1a45"},"vehicle_type_id":"4","last_reported":1761152977,"current_range_meters":9600,"station_id":"ce4bhih2rcd13ifvqfr0","pricing_plan_id":"cebpf4jnsgd1na2vs0mg"},{"bike_id":"cd14cbec-7dfc-431f-b944-5a3bde58cb7f","system_id":"levelo_inurba_marseille","lat":43.253358,"lon":5.421655,"is_reserved":false,"is_disabled":false,"rental_uris":{"android":"levelo://app?vid=cd14cbec-7dfc-431f-b944-5a3bde58cb7f","ios":"levelo://app?vid=cd14cbec-7dfc-431f-b944-5a3bde58cb7f"},"vehicle_type_id":"4","last_reported":1761152977,"current_range_meters":9600,"station_id":"st_d2m65c5bi1j21697t3ng","pricing_plan_id":"cebpf4jnsgd1na2vs0mg"},{"bike_id":"a986f261-f68b-4e9f-a207-4ce6d8980d44","system_id":"levelo_inurba_marseille","lat":43.284691,"lon":5.384222,"is_reserved":false,"is_disabled":false,"rental_uris":{"android":"levelo://app?vid=a986f261-f68b-4e9f-a207-4ce6d8980d44","ios":"levelo://app?vid=a986f261-f68b-4e9f-a207-4ce6d8980d44"},"vehicle_type_id":"4","last_reported":1761152977,"current_range_meters":9600,"station_id":"ce4bh512rcd13ifvqe3g","pricing_plan_id":"cebpf4jnsgd1na2vs0mg"},{"bike_id":"3ca1550b-e82a-48ed-8a70-636560258051","system_id":"levelo_inurba_marseille","lat":43.29197,"lon":5.35811,"is_reserved":false,"is_disabled":false,"rental_uris":{"android":"levelo://app?vid=3ca1550b-e82a-48ed-8a70-636560258051","ios":"levelo://app?vid=3ca1550b-e82a-48ed-8a70-636560258051"},"vehicle_type_id":"4","last_reported":1761152977,"current_range_meters":9600,"station_id":"ce4bhb12rcd13ifvqel0","pricing_plan_id":"cebpf4jnsgd1na2vs0mg"},{"bike_id":"f4ecfd5e-3d1d-499e-99da-445cf52f1bd3","system_id":"levelo_inurba_marseille","lat":43.308912,"lon":5.396618,"is_reserved":false,"is_disabled":false,"rental_uris":{"android":"levelo://app?vid=f4ecfd5e-3d1d-499e-99da-445cf52f1bd3","ios":"levelo://app?vid=f4ecfd5e-3d1d-499e-99da-445cf52f1bd3"},"vehicle_type_id":"4","last_reported":1761152977,"current_range_meters":9600,"station_id":"","pricing_plan_id":"cebpf4jnsgd1na2vs0mg"},{"bike_id":"32bd7560-ba4e-418c-a938-f341018c83a1","system_id":"levelo_inurba_marseille","lat":43.25583,"lon":5.3823,"is_reserved":false,"is_disabled":false,"rental_uris":{"android":"levelo://app?vid=32bd7560-ba4e-418c-a938-f341018c83a1","ios":"levelo://app?vid=32bd7560-ba4e-418c-a938-f341018c83a1"},"vehicle_type_id":"4","last_reported":1761152977,"current_range_meters":9600,"station_id":"ce4bhih2rcd13ifvqfs0","pricing_plan_id":"cebpf4jnsgd1na2vs0mg"},{"bike_id":"a66c645e-dcc6-4087-995f-17e976aa7a81","system_id":"levelo_inurba_marseille","lat":43.27907,"lon":5.38017,"is_reserved":false,"is_disabled":false,"rental_uris":{"android":"levelo://app?vid=a66c645e-dcc6-4087-995f-17e976aa7a81","ios":"levelo://app?vid=a66c645e-dcc6-4087-995f-17e976aa7a81"},"vehicle_type_id":"4","last_reported":1761152977,"current_range_meters":9600,"station_id":"ce4bhf92rcd13ifvqf50","pricing_plan_id":"cebpf4jnsgd1na2vs0mg"},{"bike_id":"46ce4a6a-405b-4153-b2be-2dbc5814180a","system_id":"levelo_inurba_marseille","lat":43.28101,"lon":5.37845,"is_reserved":false,"is_disabled":false,"rental_uris":{"android":"levelo://app?vid=46ce4a6a-405b-4153-b2be-2dbc5814180a","ios":"levelo://app?vid=46ce4a6a-405b-4153-b2be-2dbc5814180a"},"vehicle_type_id":"4","last_reported":1761152977,"current_range_meters":10000,"station_id":"ce4bha12rcd13ifvqee0","pricing_plan_id":"cebpf4jnsgd1na2vs0mg"},{"bike_id":"02f7835e-8895-43db-bc46-dc0659a292d5","system_id":"levelo_inurba_marseille","lat":43.29331,"lon":5.3707,"is_reserved":false,"is_disabled":false,"rental_uris":{"android":"levelo://app?vid=02f7835e-8895-43db-bc46-dc0659a292d5","ios":"levelo://app?vid=02f7835e-8895-43db-bc46-dc0659a292d5"},"vehicle_type_id":"4","last_reported":1761152977,"current_range_meters":10000,"station_id":"","pricing_plan_id":"cebpf4jnsgd1na2vs0mg"},{"bike_id":"eaa10aa5-3daf-4df5-b413-9912b742c949","system_id":"levelo_inurba_marseille","lat":43.29873,"lon":5.39728,"is_reserved":false,"is_disabled":false,"rental_uris":{"android":"levelo://app?vid=eaa10aa5-3daf-4df5-b413-9912b742c949","ios":"levelo://app?vid=eaa10aa5-3daf-4df5-b413-9912b742c949"},"vehicle_type_id":"4","last_reported":1761152977,"current_range_meters":10000,"station_id":"ce4bh0h2rcd13ifvqd50","pricing_plan_id":"cebpf4jnsgd1na2vs0mg"},{"bike_id":"271e4d9c-278c-4825-a2eb-abed882400fe","system_id":"levelo_inurba_marseille","lat":43.28879,"lon":5.3584,"is_reserved":false,"is_disabled":false,"rental_uris":{"android":"levelo://app?vid=271e4d9c-278c-4825-a2eb-abed882400fe","ios":"levelo://app?vid=271e4d9c-278c-4825-a2eb-abed882400fe"},"vehicle_type_id":"4","last_reported":1761152977,"current_range_meters":10800,"station_id":"ce4bhb12rcd13ifvqem0","pricing_plan_id":"cebpf4jnsgd1na2vs0mg"},{"bike_id":"5f6a306a-fff1-48b9-92f7-5d68c73cd4b0","system_id":"levelo_inurba_marseille","lat":43.294891,"lon":5.420947,"is_reserved":false,"is_disabled":false,"rental_uris":{"android":"levelo://app?vid=5f6a306a-fff1-48b9-92f7-5d68c73cd4b0","ios":"levelo://app?vid=5f6a306a-fff1-48b9-92f7-5d68c73cd4b0"},"vehicle_type_id":"4","last_reported":1761152977,"current_range_meters":10800,"station_id":"ce4bhph2rcd13ifvqhdg","pricing_plan_id":"cebpf4jnsgd1na2vs0mg"},{"bike_id":"79e8ea3e-55a6-4f49-b239-57d17b161b44","system_id":"levelo_inurba_marseille","lat":43.29541,"lon":5.38558,"is_reserved":false,"is_disabled":false,"rental_uris":{"android":"levelo://app?vid=79e8ea3e-55a6-4f49-b239-57d17b161b44","ios":"levelo://app?vid=79e8ea3e-55a6-4f49-b239-57d17b161b44"},"vehicle_type_id":"4","last_reported":1761152977,"current_range_meters":10800,"station_id":"ce4bgih2rcd13ifvqba0","pricing_plan_id":"cebpf4jnsgd1na2vs0mg"},{"bike_id":"39083ec8-945e-4ebf-ad3e-ed5056f7aa68","system_id":"levelo_inurba_marseille","lat":43.27371,"lon":5.36258,"is_reserved":false,"is_disabled":false,"rental_uris":{"android":"levelo://app?vid=39083ec8-945e-4ebf-ad3e-ed5056f7aa68","ios":"levelo://app?vid=39083ec8-945e-4ebf-ad3e-ed5056f7aa68"},"vehicle_type_id":"4","last_reported":1761152977,"current_range_meters":10800,"station_id":"ce4bhbh2rcd13ifvqeo0","pricing_plan_id":"cebpf4jnsgd1na2vs0mg"},{"bike_id":"632c193c-e488-4935-b796-5025dbe10f2f","system_id":"levelo_inurba_marseille","lat":43.30126,"lon":5.37019,"is_reserved":false,"is_disabled":false,"rental_uris":{"android":"levelo://app?vid=632c193c-e488-4935-b796-5025dbe10f2f","ios":"levelo://app?vid=632c193c-e488-4935-b796-5025dbe10f2f"},"vehicle_type_id":"4","last_reported":1761152977,"current_range_meters":10800,"station_id":"","pricing_plan_id":"cebpf4jnsgd1na2vs0mg"},{"bike_id":"6146b6a3-a2f0-4083-b0dd-fa6ecd5a65f0","system_id":"levelo_inurba_marseille","lat":43.27373,"lon":5.36268,"is_reserved":false,"is_disabled":false,"rental_uris":{"android":"levelo://app?vid=6146b6a3-a2f0-4083-b0dd-fa6ecd5a65f0","ios":"levelo://app?vid=6146b6a3-a2f0-4083-b0dd-fa6ecd5a65f0"},"vehicle_type_id":"4","last_reported":1761152977,"current_range_meters":11200,"station_id":"ce4bhbh2rcd13ifvqeo0","pricing_plan_id":"cebpf4jnsgd1na2vs0mg"},{"bike_id":"44b1ad6b-1a98-4e37-a182-f58df3beccce","system_id":"levelo_inurba_marseille","lat":43.212,"lon":5.35078,"is_reserved":false,"is_disabled":true,"rental_uris":{"android":"levelo://app?vid=44b1ad6b-1a98-4e37-a182-f58df3beccce","ios":"levelo://app?vid=44b1ad6b-1a98-4e37-a182-f58df3beccce"},"vehicle_type_id":"4","last_reported":1761152977,"current_range_meters":11200,"station_id":"","pricing_plan_id":"cebpf4jnsgd1na2vs0mg"},{"bike_id":"82576c51-8b9b-43eb-aa43-fc4a18c9ea5b","system_id":"levelo_inurba_marseille","lat":43.21766,"lon":5.34603,"is_reserved":false,"is_disabled":false,"rental_uris":{"android":"levelo://app?vid=82576c51-8b9b-43eb-aa43-fc4a18c9ea5b","ios":"levelo://app?vid=82576c51-8b9b-43eb-aa43-fc4a18c9ea5b"},"vehicle_type_id":"4","last_reported":1761152977,"current_range_meters":11200,"station_id":"st_cvj6r9ubvosntc0bgbag","pricing_plan_id":"cebpf4jnsgd1na2vs0mg"},{"bike_id":"89dd87c4-c8d0-4de7-8902-2b0447e67475","system_id":"levelo_inurba_marseille","lat":43.31232,"lon":5.36877,"is_reserved":false,"is_disabled":true,"rental_uris":{"android":"levelo://app?vid=89dd87c4-c8d0-4de7-8902-2b0447e67475","ios":"levelo://app?vid=89dd87c4-c8d0-4de7-8902-2b0447e67475"},"vehicle_type_id":"4","last_reported":1761152977,"current_range_meters":11200,"station_id":"","pricing_plan_id":"cebpf4jnsgd1na2vs0mg"},{"bike_id":"fe5786a2-3cbd-4e30-8ddf-18df8db18ee6","system_id":"levelo_inurba_marseille","lat":43.29984,"lon":5.37195,"is_reserved":false,"is_disabled":true,"rental_uris":{"android":"levelo://app?vid=fe5786a2-3cbd-4e30-8ddf-18df8db18ee6","ios":"levelo://app?vid=fe5786a2-3cbd-4e30-8ddf-18df8db18ee6"},"vehicle_type_id":"4","last_reported":1761152977,"current_range_meters":11200,"station_id":"ce4bgr92rcd13ifvqc7g","pricing_plan_id":"cebpf4jnsgd1na2vs0mg"},{"bike_id":"a9edb240-f118-4ae6-b35f-b78f3f46608a","system_id":"levelo_inurba_marseille","lat":43.316852,"lon":5.404718,"is_reserved":false,"is_disabled":false,"rental_uris":{"android":"levelo://app?vid=a9edb240-f118-4ae6-b35f-b78f3f46608a","ios":"levelo://app?vid=a9edb240-f118-4ae6-b35f-b78f3f46608a"},"vehicle_type_id":"4","last_reported":1761152977,"current_range_meters":11200,"station_id":"ce4bh012rcd13ifvqd00","pricing_plan_id":"cebpf4jnsgd1na2vs0mg"},{"bike_id":"43a5f508-6b7c-4629-8ac2-bd8728645505","system_id":"levelo_inurba_marseille","lat":43.330079,"lon":5.390275,"is_reserved":false,"is_disabled":false,"rental_uris":{"android":"levelo://app?vid=43a5f508-6b7c-4629-8ac2-bd8728645505","ios":"levelo://app?vid=43a5f508-6b7c-4629-8ac2-bd8728645505"},"vehicle_type_id":"4","last_reported":1761152977,"current_range_meters":11600,"station_id":"ce4bhr92rcd13ifvqhrg","pricing_plan_id":"cebpf4jnsgd1na2vs0mg"},{"bike_id":"d15e0669-d754-4c45-aecc-c63bf51b2613","system_id":"levelo_inurba_marseille","lat":43.28438,"lon":5.3919,"is_reserved":false,"is_disabled":false,"rental_uris":{"android":"levelo://app?vid=d15e0669-d754-4c45-aecc-c63bf51b2613","ios":"levelo://app?vid=d15e0669-d754-4c45-aecc-c63bf51b2613"},"vehicle_type_id":"4","last_reported":1761152977,"current_range_meters":12000,"station_id":"ce4bhoh2rcd13ifvqh5g","pricing_plan_id":"cebpf4jnsgd1na2vs0mg"},{"bike_id":"a8025be6-7631-45b0-85a9-5bda17f68b98","system_id":"levelo_inurba_marseille","lat":43.29765,"lon":5.370065,"is_reserved":false,"is_disabled":false,"rental_uris":{"android":"levelo://app?vid=a8025be6-7631-45b0-85a9-5bda17f68b98","ios":"levelo://app?vid=a8025be6-7631-45b0-85a9-5bda17f68b98"},"vehicle_type_id":"4","last_reported":1761152977,"current_range_meters":12000,"station_id":"","pricing_plan_id":"cebpf4jnsgd1na2vs0mg"},{"bike_id":"b084912b-4a31-404b-9c9b-e8f05fbbfd92","system_id":"levelo_inurba_marseille","lat":43.29524,"lon":5.38534,"is_reserved":false,"is_disabled":false,"rental_uris":{"android":"levelo://app?vid=b084912b-4a31-404b-9c9b-e8f05fbbfd92","ios":"levelo://app?vid=b084912b-4a31-404b-9c9b-e8f05fbbfd92"},"vehicle_type_id":"4","last_reported":1761152977,"current_range_meters":12000,"station_id":"ce4bgih2rcd13ifvqba0","pricing_plan_id":"cebpf4jnsgd1na2vs0mg"},{"bike_id":"2afdac76-fa77-48a0-aef6-a893c5371f4c","system_id":"levelo_inurba_marseille","lat":43.25113,"lon":5.40319,"is_reserved":false,"is_disabled":false,"rental_uris":{"android":"levelo://app?vid=2afdac76-fa77-48a0-aef6-a893c5371f4c","ios":"levelo://app?vid=2afdac76-fa77-48a0-aef6-a893c5371f4c"},"vehicle_type_id":"4","last_reported":1761152977,"current_range_meters":12000,"station_id":"ce4bhlh2rcd13ifvqgig","pricing_plan_id":"cebpf4jnsgd1na2vs0mg"},{"bike_id":"396aaa55-c35f-41fc-8337-93bac25c9dde","system_id":"levelo_inurba_marseille","lat":43.292402,"lon":5.355663,"is_reserved":false,"is_disabled":false,"rental_uris":{"android":"levelo://app?vid=396aaa55-c35f-41fc-8337-93bac25c9dde","ios":"levelo://app?vid=396aaa55-c35f-41fc-8337-93bac25c9dde"},"vehicle_type_id":"4","last_reported":1761152977,"current_range_meters":12000,"station_id":"","pricing_plan_id":"cebpf4jnsgd1na2vs0mg"},{"bike_id":"27e4da55-03ac-4a27-9cbb-4218c6a866bf","system_id":"levelo_inurba_marseille","lat":43.280642,"lon":5.352788,"is_reserved":false,"is_disabled":false,"rental_uris":{"android":"levelo://app?vid=27e4da55-03ac-4a27-9cbb-4218c6a866bf","ios":"levelo://app?vid=27e4da55-03ac-4a27-9cbb-4218c6a866bf"},"vehicle_type_id":"4","last_reported":1761152977,"current_range_meters":12000,"station_id":"","pricing_plan_id":"cebpf4jnsgd1na2vs0mg"},{"bike_id":"2442e267-18d7-478d-891e-59a974b2d27a","system_id":"levelo_inurba_marseille","lat":43.29874,"lon":5.39734,"is_reserved":false,"is_disabled":false,"rental_uris":{"android":"levelo://app?vid=2442e267-18d7-478d-891e-59a974b2d27a","ios":"levelo://app?vid=2442e267-18d7-478d-891e-59a974b2d27a"},"vehicle_type_id":"4","last_reported":1761152977,"current_range_meters":12000,"station_id":"ce4bh0h2rcd13ifvqd50","pricing_plan_id":"cebpf4jnsgd1na2vs0mg"},{"bike_id":"4b73ca64-3a1e-452e-a4fb-da88597492c6","system_id":"levelo_inurba_marseille","lat":43.30302,"lon":5.36912,"is_reserved":false,"is_disabled":false,"rental_uris":{"android":"levelo://app?vid=4b73ca64-3a1e-452e-a4fb-da88597492c6","ios":"levelo://app?vid=4b73ca64-3a1e-452e-a4fb-da88597492c6"},"vehicle_type_id":"4","last_reported":1761152977,"current_range_meters":12400,"station_id":"ce4bgqh2rcd13ifvqc5g","pricing_plan_id":"cebpf4jnsgd1na2vs0mg"},{"bike_id":"61c47949-89b9-4c27-95f4-2b581fa26bb6","system_id":"levelo_inurba_marseille","lat":43.23196,"lon":5.39978,"is_reserved":false,"is_disabled":false,"rental_uris":{"android":"levelo://app?vid=61c47949-89b9-4c27-95f4-2b581fa26bb6","ios":"levelo://app?vid=61c47949-89b9-4c27-95f4-2b581fa26bb6"},"vehicle_type_id":"4","last_reported":1761152977,"current_range_meters":12400,"station_id":"ce4bhn12rcd13ifvqgqg","pricing_plan_id":"cebpf4jnsgd1na2vs0mg"},{"bike_id":"23e9fed8-daad-4293-b3dd-f1b7bb6706c2","system_id":"levelo_inurba_marseille","lat":43.22924,"lon":5.35374,"is_reserved":false,"is_disabled":false,"rental_uris":{"android":"levelo://app?vid=23e9fed8-daad-4293-b3dd-f1b7bb6706c2","ios":"levelo://app?vid=23e9fed8-daad-4293-b3dd-f1b7bb6706c2"},"vehicle_type_id":"4","last_reported":1761152977,"current_range_meters":12400,"station_id":"cpo3532slgdg3j2ikp40","pricing_plan_id":"cebpf4jnsgd1na2vs0mg"},{"bike_id":"5a2f364e-d433-44f2-bfe9-0673db0d2c69","system_id":"levelo_inurba_marseille","lat":43.28414,"lon":5.34991,"is_reserved":false,"is_disabled":false,"rental_uris":{"android":"levelo://app?vid=5a2f364e-d433-44f2-bfe9-0673db0d2c69","ios":"levelo://app?vid=5a2f364e-d433-44f2-bfe9-0673db0d2c69"},"vehicle_type_id":"4","last_reported":1761152977,"current_range_meters":12400,"station_id":"ce4bhbh2rcd13ifvqepg","pricing_plan_id":"cebpf4jnsgd1na2vs0mg"},{"bike_id":"37d01fc8-4b4d-4652-a489-1254eb9d4c80","system_id":"levelo_inurba_marseille","lat":43.34076,"lon":5.40411,"is_reserved":false,"is_disabled":false,"rental_uris":{"android":"levelo://app?vid=37d01fc8-4b4d-4652-a489-1254eb9d4c80","ios":"levelo://app?vid=37d01fc8-4b4d-4652-a489-1254eb9d4c80"},"vehicle_type_id":"4","last_reported":1761152977,"current_range_meters":12400,"station_id":"","pricing_plan_id":"cebpf4jnsgd1na2vs0mg"},{"bike_id":"a5ac9e0b-5a84-4f9c-845f-5698ef669772","system_id":"levelo_inurba_marseille","lat":43.25582,"lon":5.38233,"is_reserved":false,"is_disabled":false,"rental_uris":{"android":"levelo://app?vid=a5ac9e0b-5a84-4f9c-845f-5698ef669772","ios":"levelo://app?vid=a5ac9e0b-5a84-4f9c-845f-5698ef669772"},"vehicle_type_id":"4","last_reported":1761152977,"current_range_meters":12400,"station_id":"ce4bhih2rcd13ifvqfs0","pricing_plan_id":"cebpf4jnsgd1na2vs0mg"},{"bike_id":"ec60652f-d3c2-400e-8251-0e42407708db","system_id":"levelo_inurba_marseille","lat":43.27072,"lon":5.4229,"is_reserved":false,"is_disabled":false,"rental_uris":{"android":"levelo://app?vid=ec60652f-d3c2-400e-8251-0e42407708db","ios":"levelo://app?vid=ec60652f-d3c2-400e-8251-0e42407708db"},"vehicle_type_id":"4","last_reported":1761152977,"current_range_meters":12800,"station_id":"ce4bhk92rcd13ifvqgb0","pricing_plan_id":"cebpf4jnsgd1na2vs0mg"},{"bike_id":"27938040-5f97-48c9-b073-25f510f7592c","system_id":"levelo_inurba_marseille","lat":43.33023,"lon":5.39039,"is_reserved":false,"is_disabled":false,"rental_uris":{"android":"levelo://app?vid=27938040-5f97-48c9-b073-25f510f7592c","ios":"levelo://app?vid=27938040-5f97-48c9-b073-25f510f7592c"},"vehicle_type_id":"4","last_reported":1761152977,"current_range_meters":12800,"station_id":"ce4bhr92rcd13ifvqhrg","pricing_plan_id":"cebpf4jnsgd1na2vs0mg"},{"bike_id":"5e16ea21-38f4-4cda-b3f8-a8525b75589b","system_id":"levelo_inurba_marseille","lat":43.28851,"lon":5.39313,"is_reserved":false,"is_disabled":false,"rental_uris":{"android":"levelo://app?vid=5e16ea21-38f4-4cda-b3f8-a8525b75589b","ios":"levelo://app?vid=5e16ea21-38f4-4cda-b3f8-a8525b75589b"},"vehicle_type_id":"4","last_reported":1761152977,"current_range_meters":12800,"station_id":"ce4bh2p2rcd13ifvqdi0","pricing_plan_id":"cebpf4jnsgd1na2vs0mg"},{"bike_id":"b44c8e72-8f92-4c7b-9588-b88d929ef13c","system_id":"levelo_inurba_marseille","lat":43.263687,"lon":5.378105,"is_reserved":false,"is_disabled":false,"rental_uris":{"android":"levelo://app?vid=b44c8e72-8f92-4c7b-9588-b88d929ef13c","ios":"levelo://app?vid=b44c8e72-8f92-4c7b-9588-b88d929ef13c"},"vehicle_type_id":"4","last_reported":1761152977,"current_range_meters":12800,"station_id":"ce4bhjp2rcd13ifvqg90","pricing_plan_id":"cebpf4jnsgd1na2vs0mg"},{"bike_id":"0cc58f73-f47f-4cde-b59d-f907b99744b0","system_id":"levelo_inurba_marseille","lat":43.28725,"lon":5.36094,"is_reserved":false,"is_disabled":false,"rental_uris":{"android":"levelo://app?vid=0cc58f73-f47f-4cde-b59d-f907b99744b0","ios":"levelo://app?vid=0cc58f73-f47f-4cde-b59d-f907b99744b0"},"vehicle_type_id":"4","last_reported":1761152977,"current_range_meters":12800,"station_id":"cki0cbj6b192h4jlfktg","pricing_plan_id":"cebpf4jnsgd1na2vs0mg"},{"bike_id":"12290105-e321-471e-b37f-3354d68dfc24","system_id":"levelo_inurba_marseille","lat":43.26491,"lon":5.39549,"is_reserved":false,"is_disabled":false,"rental_uris":{"android":"levelo://app?vid=12290105-e321-471e-b37f-3354d68dfc24","ios":"levelo://app?vid=12290105-e321-471e-b37f-3354d68dfc24"},"vehicle_type_id":"4","last_reported":1761152977,"current_range_meters":13600,"station_id":"ce4bhi12rcd13ifvqfq0","pricing_plan_id":"cebpf4jnsgd1na2vs0mg"},{"bike_id":"266f9072-4fb9-4e8a-ac1f-046374305f4f","system_id":"levelo_inurba_marseille","lat":43.304206,"lon":5.377986,"is_reserved":false,"is_disabled":false,"rental_uris":{"android":"levelo://app?vid=266f9072-4fb9-4e8a-ac1f-046374305f4f","ios":"levelo://app?vid=266f9072-4fb9-4e8a-ac1f-046374305f4f"},"vehicle_type_id":"4","last_reported":1761152977,"current_range_meters":13600,"station_id":"","pricing_plan_id":"cebpf4jnsgd1na2vs0mg"},{"bike_id":"3aa8c3e6-230d-4538-ac39-2b944611f536","system_id":"levelo_inurba_marseille","lat":43.31365,"lon":5.3671,"is_reserved":false,"is_disabled":true,"rental_uris":{"android":"levelo://app?vid=3aa8c3e6-230d-4538-ac39-2b944611f536","ios":"levelo://app?vid=3aa8c3e6-230d-4538-ac39-2b944611f536"},"vehicle_type_id":"4","last_reported":1761152977,"current_range_meters":13600,"station_id":"ce4bgr92rcd13ifvqc6g","pricing_plan_id":"cebpf4jnsgd1na2vs0mg"},{"bike_id":"ac4f7d3c-5af7-44ad-8c8b-463d26f4b847","system_id":"levelo_inurba_marseille","lat":43.274451,"lon":5.390878,"is_reserved":false,"is_disabled":false,"rental_uris":{"android":"levelo://app?vid=ac4f7d3c-5af7-44ad-8c8b-463d26f4b847","ios":"levelo://app?vid=ac4f7d3c-5af7-44ad-8c8b-463d26f4b847"},"vehicle_type_id":"4","last_reported":1761152977,"current_range_meters":13600,"station_id":"ce4bhg12rcd13ifvqf80","pricing_plan_id":"cebpf4jnsgd1na2vs0mg"},{"bike_id":"ac5b9d81-cf50-4bdd-8203-b53d138e8469","system_id":"levelo_inurba_marseille","lat":43.28708,"lon":5.37927,"is_reserved":false,"is_disabled":false,"rental_uris":{"android":"levelo://app?vid=ac5b9d81-cf50-4bdd-8203-b53d138e8469","ios":"levelo://app?vid=ac5b9d81-cf50-4bdd-8203-b53d138e8469"},"vehicle_type_id":"4","last_reported":1761152977,"current_range_meters":14000,"station_id":"ce4bh9p2rcd13ifvqec0","pricing_plan_id":"cebpf4jnsgd1na2vs0mg"},{"bike_id":"5b2fb394-b654-4cda-abea-19d87e1a4938","system_id":"levelo_inurba_marseille","lat":43.240822,"lon":5.377519,"is_reserved":false,"is_disabled":false,"rental_uris":{"android":"levelo://app?vid=5b2fb394-b654-4cda-abea-19d87e1a4938","ios":"levelo://app?vid=5b2fb394-b654-4cda-abea-19d87e1a4938"},"vehicle_type_id":"4","last_reported":1761152977,"current_range_meters":14000,"station_id":"ce4bhnp2rcd13ifvqgvg","pricing_plan_id":"cebpf4jnsgd1na2vs0mg"},{"bike_id":"da19cf54-3963-4f1d-a62b-5703c0ffe407","system_id":"levelo_inurba_marseille","lat":43.29042,"lon":5.37611,"is_reserved":false,"is_disabled":false,"rental_uris":{"android":"levelo://app?vid=da19cf54-3963-4f1d-a62b-5703c0ffe407","ios":"levelo://app?vid=da19cf54-3963-4f1d-a62b-5703c0ffe407"},"vehicle_type_id":"4","last_reported":1761152977,"current_range_meters":14000,"station_id":"ce4bh692rcd13ifvqe90","pricing_plan_id":"cebpf4jnsgd1na2vs0mg"},{"bike_id":"07e992db-48e1-481b-a50e-3b491cfc1455","system_id":"levelo_inurba_marseille","lat":43.31991,"lon":5.41291,"is_reserved":false,"is_disabled":false,"rental_uris":{"android":"levelo://app?vid=07e992db-48e1-481b-a50e-3b491cfc1455","ios":"levelo://app?vid=07e992db-48e1-481b-a50e-3b491cfc1455"},"vehicle_type_id":"4","last_reported":1761152977,"current_range_meters":14000,"station_id":"","pricing_plan_id":"cebpf4jnsgd1na2vs0mg"},{"bike_id":"000cc276-8c32-488b-94dd-1225e21bbae5","system_id":"levelo_inurba_marseille","lat":43.25091,"lon":5.39513,"is_reserved":false,"is_disabled":false,"rental_uris":{"android":"levelo://app?vid=000cc276-8c32-488b-94dd-1225e21bbae5","ios":"levelo://app?vid=000cc276-8c32-488b-94dd-1225e21bbae5"},"vehicle_type_id":"4","last_reported":1761152977,"current_range_meters":14000,"station_id":"ce4bhm12rcd13ifvqgkg","pricing_plan_id":"cebpf4jnsgd1na2vs0mg"},{"bike_id":"e8f9c384-066c-4a2d-95ce-e3e8a6d06146","system_id":"levelo_inurba_marseille","lat":43.28733,"lon":5.37945,"is_reserved":false,"is_disabled":false,"rental_uris":{"android":"levelo://app?vid=e8f9c384-066c-4a2d-95ce-e3e8a6d06146","ios":"levelo://app?vid=e8f9c384-066c-4a2d-95ce-e3e8a6d06146"},"vehicle_type_id":"4","last_reported":1761152977,"current_range_meters":14000,"station_id":"ce4bh9p2rcd13ifvqec0","pricing_plan_id":"cebpf4jnsgd1na2vs0mg"},{"bike_id":"9314deb0-b2b7-47e8-a91b-f7022e77932a","system_id":"levelo_inurba_marseille","lat":43.31892,"lon":5.40735,"is_reserved":false,"is_disabled":false,"rental_uris":{"android":"levelo://app?vid=9314deb0-b2b7-47e8-a91b-f7022e77932a","ios":"levelo://app?vid=9314deb0-b2b7-47e8-a91b-f7022e77932a"},"vehicle_type_id":"4","last_reported":1761152977,"current_range_meters":14000,"station_id":"ce4bhq12rcd13ifvqhig","pricing_plan_id":"cebpf4jnsgd1na2vs0mg"},{"bike_id":"b92e79a9-568e-4007-b52e-330cfa1fd6e4","system_id":"levelo_inurba_marseille","lat":43.262204,"lon":5.374726,"is_reserved":false,"is_disabled":false,"rental_uris":{"android":"levelo://app?vid=b92e79a9-568e-4007-b52e-330cfa1fd6e4","ios":"levelo://app?vid=b92e79a9-568e-4007-b52e-330cfa1fd6e4"},"vehicle_type_id":"4","last_reported":1761152977,"current_range_meters":14400,"station_id":"ce4bhg12rcd13ifvqf70","pricing_plan_id":"cebpf4jnsgd1na2vs0mg"},{"bike_id":"61f001a3-2cb1-43fb-bfe4-e4a1763b22c1","system_id":"levelo_inurba_marseille","lat":43.27091,"lon":5.42292,"is_reserved":false,"is_disabled":false,"rental_uris":{"android":"levelo://app?vid=61f001a3-2cb1-43fb-bfe4-e4a1763b22c1","ios":"levelo://app?vid=61f001a3-2cb1-43fb-bfe4-e4a1763b22c1"},"vehicle_type_id":"4","last_reported":1761152977,"current_range_meters":14400,"station_id":"ce4bhk92rcd13ifvqgb0","pricing_plan_id":"cebpf4jnsgd1na2vs0mg"},{"bike_id":"b61e6817-4496-4ad7-ab43-b524af2e26e5","system_id":"levelo_inurba_marseille","lat":43.2866,"lon":5.38661,"is_reserved":false,"is_disabled":false,"rental_uris":{"android":"levelo://app?vid=b61e6817-4496-4ad7-ab43-b524af2e26e5","ios":"levelo://app?vid=b61e6817-4496-4ad7-ab43-b524af2e26e5"},"vehicle_type_id":"4","last_reported":1761152977,"current_range_meters":14400,"station_id":"","pricing_plan_id":"cebpf4jnsgd1na2vs0mg"},{"bike_id":"3d16de38-da75-4c11-ae80-6828f68dd13a","system_id":"levelo_inurba_marseille","lat":43.26568,"lon":5.3901,"is_reserved":false,"is_disabled":false,"rental_uris":{"android":"levelo://app?vid=3d16de38-da75-4c11-ae80-6828f68dd13a","ios":"levelo://app?vid=3d16de38-da75-4c11-ae80-6828f68dd13a"},"vehicle_type_id":"4","last_reported":1761152977,"current_range_meters":14400,"station_id":"ce4bhe12rcd13ifvqf30","pricing_plan_id":"cebpf4jnsgd1na2vs0mg"},{"bike_id":"af1a4975-ab1c-4628-91cd-7ddeb94d72f9","system_id":"levelo_inurba_marseille","lat":43.3117,"lon":5.38724,"is_reserved":false,"is_disabled":false,"rental_uris":{"android":"levelo://app?vid=af1a4975-ab1c-4628-91cd-7ddeb94d72f9","ios":"levelo://app?vid=af1a4975-ab1c-4628-91cd-7ddeb94d72f9"},"vehicle_type_id":"4","last_reported":1761152977,"current_range_meters":14400,"station_id":"ce4bgv12rcd13ifvqcp0","pricing_plan_id":"cebpf4jnsgd1na2vs0mg"},{"bike_id":"4eae2ec4-8862-466e-a3d9-395cca4276d0","system_id":"levelo_inurba_marseille","lat":43.303085,"lon":5.37515,"is_reserved":false,"is_disabled":false,"rental_uris":{"android":"levelo://app?vid=4eae2ec4-8862-466e-a3d9-395cca4276d0","ios":"levelo://app?vid=4eae2ec4-8862-466e-a3d9-395cca4276d0"},"vehicle_type_id":"4","last_reported":1761152977,"current_range_meters":14400,"station_id":"","pricing_plan_id":"cebpf4jnsgd1na2vs0mg"},{"bike_id":"e7709aff-f080-4c40-b225-77642ea3c5cc","system_id":"levelo_inurba_marseille","lat":43.24152,"lon":5.36392,"is_reserved":false,"is_disabled":false,"rental_uris":{"android":"levelo://app?vid=e7709aff-f080-4c40-b225-77642ea3c5cc","ios":"levelo://app?vid=e7709aff-f080-4c40-b225-77642ea3c5cc"},"vehicle_type_id":"4","last_reported":1761152977,"current_range_meters":14400,"station_id":"cpo36qri1sfpv3e86is0","pricing_plan_id":"cebpf4jnsgd1na2vs0mg"},{"bike_id":"71f3f088-7e67-4058-82d2-63debc56b55b","system_id":"levelo_inurba_marseille","lat":43.307312,"lon":5.424399,"is_reserved":false,"is_disabled":false,"rental_uris":{"android":"levelo://app?vid=71f3f088-7e67-4058-82d2-63debc56b55b","ios":"levelo://app?vid=71f3f088-7e67-4058-82d2-63debc56b55b"},"vehicle_type_id":"4","last_reported":1761152977,"current_range_meters":14400,"station_id":"","pricing_plan_id":"cebpf4jnsgd1na2vs0mg"},{"bike_id":"0a5fdbb7-ad12-4f06-91ac-5841142999cd","system_id":"levelo_inurba_marseille","lat":43.28418,"lon":5.34995,"is_reserved":false,"is_disabled":false,"rental_uris":{"android":"levelo://app?vid=0a5fdbb7-ad12-4f06-91ac-5841142999cd","ios":"levelo://app?vid=0a5fdbb7-ad12-4f06-91ac-5841142999cd"},"vehicle_type_id":"4","last_reported":1761152977,"current_range_meters":14800,"station_id":"ce4bhbh2rcd13ifvqepg","pricing_plan_id":"cebpf4jnsgd1na2vs0mg"},{"bike_id":"9870a68d-ae62-4bec-82c3-a7443a850bdc","system_id":"levelo_inurba_marseille","lat":43.3128,"lon":5.37772,"is_reserved":false,"is_disabled":false,"rental_uris":{"android":"levelo://app?vid=9870a68d-ae62-4bec-82c3-a7443a850bdc","ios":"levelo://app?vid=9870a68d-ae62-4bec-82c3-a7443a850bdc"},"vehicle_type_id":"4","last_reported":1761152977,"current_range_meters":14800,"station_id":"","pricing_plan_id":"cebpf4jnsgd1na2vs0mg"},{"bike_id":"abaf5235-d4e1-4a73-ac11-def67e122d33","system_id":"levelo_inurba_marseille","lat":43.28446,"lon":5.39188,"is_reserved":false,"is_disabled":false,"rental_uris":{"android":"levelo://app?vid=abaf5235-d4e1-4a73-ac11-def67e122d33","ios":"levelo://app?vid=abaf5235-d4e1-4a73-ac11-def67e122d33"},"vehicle_type_id":"4","last_reported":1761152977,"current_range_meters":14800,"station_id":"ce4bhoh2rcd13ifvqh5g","pricing_plan_id":"cebpf4jnsgd1na2vs0mg"},{"bike_id":"95c712b2-43f3-4d1a-b858-1379e45db3d9","system_id":"levelo_inurba_marseille","lat":43.28612,"lon":5.37063,"is_reserved":false,"is_disabled":false,"rental_uris":{"android":"levelo://app?vid=95c712b2-43f3-4d1a-b858-1379e45db3d9","ios":"levelo://app?vid=95c712b2-43f3-4d1a-b858-1379e45db3d9"},"vehicle_type_id":"4","last_reported":1761152977,"current_range_meters":14800,"station_id":"ce4bht12rcd13ifvqi60","pricing_plan_id":"cebpf4jnsgd1na2vs0mg"},{"bike_id":"c7b9837e-da7f-48df-9970-e13eaa4f0aa6","system_id":"levelo_inurba_marseille","lat":43.29017,"lon":5.38628,"is_reserved":false,"is_disabled":false,"rental_uris":{"android":"levelo://app?vid=c7b9837e-da7f-48df-9970-e13eaa4f0aa6","ios":"levelo://app?vid=c7b9837e-da7f-48df-9970-e13eaa4f0aa6"},"vehicle_type_id":"4","last_reported":1761152977,"current_range_meters":14800,"station_id":"ce4bh4p2rcd13ifvqe0g","pricing_plan_id":"cebpf4jnsgd1na2vs0mg"},{"bike_id":"c34e03fc-7769-4826-bbf2-0a121d96308e","system_id":"levelo_inurba_marseille","lat":43.29521,"lon":5.38539,"is_reserved":false,"is_disabled":false,"rental_uris":{"android":"levelo://app?vid=c34e03fc-7769-4826-bbf2-0a121d96308e","ios":"levelo://app?vid=c34e03fc-7769-4826-bbf2-0a121d96308e"},"vehicle_type_id":"4","last_reported":1761152977,"current_range_meters":14800,"station_id":"ce4bgih2rcd13ifvqba0","pricing_plan_id":"cebpf4jnsgd1na2vs0mg"},{"bike_id":"ba498770-432c-426c-9117-06c6b389a3da","system_id":"levelo_inurba_marseille","lat":43.25583,"lon":5.38241,"is_reserved":false,"is_disabled":false,"rental_uris":{"android":"levelo://app?vid=ba498770-432c-426c-9117-06c6b389a3da","ios":"levelo://app?vid=ba498770-432c-426c-9117-06c6b389a3da"},"vehicle_type_id":"4","last_reported":1761152977,"current_range_meters":15200,"station_id":"ce4bhih2rcd13ifvqfs0","pricing_plan_id":"cebpf4jnsgd1na2vs0mg"},{"bike_id":"e986eb56-ca00-4dbf-ada0-578bc3d8f529","system_id":"levelo_inurba_marseille","lat":43.290401,"lon":5.376155,"is_reserved":false,"is_disabled":false,"rental_uris":{"android":"levelo://app?vid=e986eb56-ca00-4dbf-ada0-578bc3d8f529","ios":"levelo://app?vid=e986eb56-ca00-4dbf-ada0-578bc3d8f529"},"vehicle_type_id":"4","last_reported":1761152977,"current_range_meters":15200,"station_id":"","pricing_plan_id":"cebpf4jnsgd1na2vs0mg"},{"bike_id":"16e6990c-85d4-4654-b7f6-12c2ae8b82b7","system_id":"levelo_inurba_marseille","lat":43.29194,"lon":5.39316,"is_reserved":false,"is_disabled":false,"rental_uris":{"android":"levelo://app?vid=16e6990c-85d4-4654-b7f6-12c2ae8b82b7","ios":"levelo://app?vid=16e6990c-85d4-4654-b7f6-12c2ae8b82b7"},"vehicle_type_id":"4","last_reported":1761152977,"current_range_meters":15200,"station_id":"ce4bh192rcd13ifvqdd0","pricing_plan_id":"cebpf4jnsgd1na2vs0mg"},{"bike_id":"618a9c44-e479-45b6-b144-58d3228e3132","system_id":"levelo_inurba_marseille","lat":43.246411,"lon":5.388974,"is_reserved":false,"is_disabled":false,"rental_uris":{"android":"levelo://app?vid=618a9c44-e479-45b6-b144-58d3228e3132","ios":"levelo://app?vid=618a9c44-e479-45b6-b144-58d3228e3132"},"vehicle_type_id":"4","last_reported":1761152977,"current_range_meters":15200,"station_id":"ce4bhg12rcd13ifvqf60","pricing_plan_id":"cebpf4jnsgd1na2vs0mg"},{"bike_id":"b3b13e92-d401-45af-ad84-a41c7bbeb5fe","system_id":"levelo_inurba_marseille","lat":43.2949,"lon":5.37584,"is_reserved":false,"is_disabled":false,"rental_uris":{"android":"levelo://app?vid=b3b13e92-d401-45af-ad84-a41c7bbeb5fe","ios":"levelo://app?vid=b3b13e92-d401-45af-ad84-a41c7bbeb5fe"},"vehicle_type_id":"4","last_reported":1761152977,"current_range_meters":15200,"station_id":"","pricing_plan_id":"cebpf4jnsgd1na2vs0mg"},{"bike_id":"aee7d02b-6b4e-4244-9e3a-df427c876a20","system_id":"levelo_inurba_marseille","lat":43.28665,"lon":5.36353,"is_reserved":false,"is_disabled":false,"rental_uris":{"android":"levelo://app?vid=aee7d02b-6b4e-4244-9e3a-df427c876a20","ios":"levelo://app?vid=aee7d02b-6b4e-4244-9e3a-df427c876a20"},"vehicle_type_id":"4","last_reported":1761152977,"current_range_meters":15200,"station_id":"ce4bhah2rcd13ifvqej0","pricing_plan_id":"cebpf4jnsgd1na2vs0mg"},{"bike_id":"464ea46f-12a9-4ff3-bfa7-25e1d07be809","system_id":"levelo_inurba_marseille","lat":43.29248,"lon":5.40906,"is_reserved":false,"is_disabled":false,"rental_uris":{"android":"levelo://app?vid=464ea46f-12a9-4ff3-bfa7-25e1d07be809","ios":"levelo://app?vid=464ea46f-12a9-4ff3-bfa7-25e1d07be809"},"vehicle_type_id":"4","last_reported":1761152977,"current_range_meters":15200,"station_id":"ce4bh192rcd13ifvqdc0","pricing_plan_id":"cebpf4jnsgd1na2vs0mg"},{"bike_id":"cb59e4db-6fb6-4196-8e69-b10d4d91f60d","system_id":"levelo_inurba_marseille","lat":43.28629,"lon":5.35187,"is_reserved":false,"is_disabled":false,"rental_uris":{"android":"levelo://app?vid=cb59e4db-6fb6-4196-8e69-b10d4d91f60d","ios":"levelo://app?vid=cb59e4db-6fb6-4196-8e69-b10d4d91f60d"},"vehicle_type_id":"4","last_reported":1761152977,"current_range_meters":15200,"station_id":"","pricing_plan_id":"cebpf4jnsgd1na2vs0mg"},{"bike_id":"4b9c2cda-db75-4124-b7ef-647f11a03088","system_id":"levelo_inurba_marseille","lat":43.28106,"lon":5.37843,"is_reserved":false,"is_disabled":false,"rental_uris":{"android":"levelo://app?vid=4b9c2cda-db75-4124-b7ef-647f11a03088","ios":"levelo://app?vid=4b9c2cda-db75-4124-b7ef-647f11a03088"},"vehicle_type_id":"4","last_reported":1761152977,"current_range_meters":15200,"station_id":"ce4bha12rcd13ifvqee0","pricing_plan_id":"cebpf4jnsgd1na2vs0mg"},{"bike_id":"2ff2319d-129a-4d22-a25d-01d96c2dcbc1","system_id":"levelo_inurba_marseille","lat":43.24648,"lon":5.38887,"is_reserved":false,"is_disabled":false,"rental_uris":{"android":"levelo://app?vid=2ff2319d-129a-4d22-a25d-01d96c2dcbc1","ios":"levelo://app?vid=2ff2319d-129a-4d22-a25d-01d96c2dcbc1"},"vehicle_type_id":"4","last_reported":1761152977,"current_range_meters":16000,"station_id":"ce4bhg12rcd13ifvqf60","pricing_plan_id":"cebpf4jnsgd1na2vs0mg"},{"bike_id":"fa0be1b3-ac79-46dd-bbc1-835a3fafa9e1","system_id":"levelo_inurba_marseille","lat":43.30099,"lon":5.39083,"is_reserved":false,"is_disabled":false,"rental_uris":{"android":"levelo://app?vid=fa0be1b3-ac79-46dd-bbc1-835a3fafa9e1","ios":"levelo://app?vid=fa0be1b3-ac79-46dd-bbc1-835a3fafa9e1"},"vehicle_type_id":"4","last_reported":1761152977,"current_range_meters":16000,"station_id":"ce4bh192rcd13ifvqdb0","pricing_plan_id":"cebpf4jnsgd1na2vs0mg"},{"bike_id":"cf06ee6f-d420-499d-8dee-1fab4c8be77b","system_id":"levelo_inurba_marseille","lat":43.301286,"lon":5.38775,"is_reserved":false,"is_disabled":false,"rental_uris":{"android":"levelo://app?vid=cf06ee6f-d420-499d-8dee-1fab4c8be77b","ios":"levelo://app?vid=cf06ee6f-d420-499d-8dee-1fab4c8be77b"},"vehicle_type_id":"4","last_reported":1761152977,"current_range_meters":16000,"station_id":"","pricing_plan_id":"cebpf4jnsgd1na2vs0mg"},{"bike_id":"5c5f86d4-45e0-4ad5-a478-5119cd222b7f","system_id":"levelo_inurba_marseille","lat":43.33146,"lon":5.38176,"is_reserved":false,"is_disabled":false,"rental_uris":{"android":"levelo://app?vid=5c5f86d4-45e0-4ad5-a478-5119cd222b7f","ios":"levelo://app?vid=5c5f86d4-45e0-4ad5-a478-5119cd222b7f"},"vehicle_type_id":"4","last_reported":1761152977,"current_range_meters":16000,"station_id":"","pricing_plan_id":"cebpf4jnsgd1na2vs0mg"},{"bike_id":"ff3a5290-2e30-448c-b743-370f2bfd9ebc","system_id":"levelo_inurba_marseille","lat":43.30731,"lon":5.42444,"is_reserved":false,"is_disabled":false,"rental_uris":{"android":"levelo://app?vid=ff3a5290-2e30-448c-b743-370f2bfd9ebc","ios":"levelo://app?vid=ff3a5290-2e30-448c-b743-370f2bfd9ebc"},"vehicle_type_id":"4","last_reported":1761152977,"current_range_meters":16000,"station_id":"st_cvj6ca6bvosntc0bfgr0","pricing_plan_id":"cebpf4jnsgd1na2vs0mg"},{"bike_id":"ed3ee07f-6031-44d7-ba15-086d71e4a90d","system_id":"levelo_inurba_marseille","lat":43.289373,"lon":5.363928,"is_reserved":false,"is_disabled":false,"rental_uris":{"android":"levelo://app?vid=ed3ee07f-6031-44d7-ba15-086d71e4a90d","ios":"levelo://app?vid=ed3ee07f-6031-44d7-ba15-086d71e4a90d"},"vehicle_type_id":"4","last_reported":1761152977,"current_range_meters":16000,"station_id":"ce4bhc92rcd13ifvqetg","pricing_plan_id":"cebpf4jnsgd1na2vs0mg"},{"bike_id":"c8c0fa58-a519-4343-9887-b0c694f93aef","system_id":"levelo_inurba_marseille","lat":43.28864,"lon":5.42514,"is_reserved":false,"is_disabled":false,"rental_uris":{"android":"levelo://app?vid=c8c0fa58-a519-4343-9887-b0c694f93aef","ios":"levelo://app?vid=c8c0fa58-a519-4343-9887-b0c694f93aef"},"vehicle_type_id":"4","last_reported":1761152977,"current_range_meters":16400,"station_id":"st_d3b462108ojc7389ooeg","pricing_plan_id":"cebpf4jnsgd1na2vs0mg"},{"bike_id":"6b9158cc-993e-4fdb-bafb-7fa32e0adab3","system_id":"levelo_inurba_marseille","lat":43.21751,"lon":5.34601,"is_reserved":false,"is_disabled":false,"rental_uris":{"android":"levelo://app?vid=6b9158cc-993e-4fdb-bafb-7fa32e0adab3","ios":"levelo://app?vid=6b9158cc-993e-4fdb-bafb-7fa32e0adab3"},"vehicle_type_id":"4","last_reported":1761152977,"current_range_meters":16400,"station_id":"","pricing_plan_id":"cebpf4jnsgd1na2vs0mg"},{"bike_id":"1243514d-5228-41d4-b819-c7ff4cee0949","system_id":"levelo_inurba_marseille","lat":43.31711,"lon":5.43708,"is_reserved":false,"is_disabled":false,"rental_uris":{"android":"levelo://app?vid=1243514d-5228-41d4-b819-c7ff4cee0949","ios":"levelo://app?vid=1243514d-5228-41d4-b819-c7ff4cee0949"},"vehicle_type_id":"4","last_reported":1761152977,"current_range_meters":16400,"station_id":"ce4bhp92rcd13ifvqhcg","pricing_plan_id":"cebpf4jnsgd1na2vs0mg"},{"bike_id":"e26a4ba5-d1f0-450a-a9c3-d00a5fad899d","system_id":"levelo_inurba_marseille","lat":43.24164,"lon":5.36399,"is_reserved":false,"is_disabled":false,"rental_uris":{"android":"levelo://app?vid=e26a4ba5-d1f0-450a-a9c3-d00a5fad899d","ios":"levelo://app?vid=e26a4ba5-d1f0-450a-a9c3-d00a5fad899d"},"vehicle_type_id":"4","last_reported":1761152977,"current_range_meters":16400,"station_id":"cpo36qri1sfpv3e86is0","pricing_plan_id":"cebpf4jnsgd1na2vs0mg"},{"bike_id":"ad8a5e5f-3650-4aa9-a6cb-bf6e197ae429","system_id":"levelo_inurba_marseille","lat":43.24176,"lon":5.39733,"is_reserved":false,"is_disabled":false,"rental_uris":{"android":"levelo://app?vid=ad8a5e5f-3650-4aa9-a6cb-bf6e197ae429","ios":"levelo://app?vid=ad8a5e5f-3650-4aa9-a6cb-bf6e197ae429"},"vehicle_type_id":"4","last_reported":1761152977,"current_range_meters":16400,"station_id":"ce4bhn12rcd13ifvqgpg","pricing_plan_id":"cebpf4jnsgd1na2vs0mg"},{"bike_id":"833a2ffe-ca4a-4cad-992e-15ae3c7ca819","system_id":"levelo_inurba_marseille","lat":43.29276,"lon":5.38468,"is_reserved":false,"is_disabled":false,"rental_uris":{"android":"levelo://app?vid=833a2ffe-ca4a-4cad-992e-15ae3c7ca819","ios":"levelo://app?vid=833a2ffe-ca4a-4cad-992e-15ae3c7ca819"},"vehicle_type_id":"4","last_reported":1761152977,"current_range_meters":16400,"station_id":"ce4bh692rcd13ifvqea0","pricing_plan_id":"cebpf4jnsgd1na2vs0mg"},{"bike_id":"12560c82-fdef-4887-a8c4-b201c21f8929","system_id":"levelo_inurba_marseille","lat":43.2987,"lon":5.38912,"is_reserved":false,"is_disabled":false,"rental_uris":{"android":"levelo://app?vid=12560c82-fdef-4887-a8c4-b201c21f8929","ios":"levelo://app?vid=12560c82-fdef-4887-a8c4-b201c21f8929"},"vehicle_type_id":"4","last_reported":1761152977,"current_range_meters":16400,"station_id":"ce4bh392rcd13ifvqdl0","pricing_plan_id":"cebpf4jnsgd1na2vs0mg"},{"bike_id":"cb20c28f-53e6-4ccf-a786-a291e3e0b665","system_id":"levelo_inurba_marseille","lat":43.28655,"lon":5.36362,"is_reserved":false,"is_disabled":false,"rental_uris":{"android":"levelo://app?vid=cb20c28f-53e6-4ccf-a786-a291e3e0b665","ios":"levelo://app?vid=cb20c28f-53e6-4ccf-a786-a291e3e0b665"},"vehicle_type_id":"4","last_reported":1761152977,"current_range_meters":16400,"station_id":"ce4bhah2rcd13ifvqej0","pricing_plan_id":"cebpf4jnsgd1na2vs0mg"},{"bike_id":"45af610f-f67e-4906-9284-3521c68ff005","system_id":"levelo_inurba_marseille","lat":43.29725,"lon":5.36998,"is_reserved":false,"is_disabled":false,"rental_uris":{"android":"levelo://app?vid=45af610f-f67e-4906-9284-3521c68ff005","ios":"levelo://app?vid=45af610f-f67e-4906-9284-3521c68ff005"},"vehicle_type_id":"4","last_reported":1761152977,"current_range_meters":16400,"station_id":"","pricing_plan_id":"cebpf4jnsgd1na2vs0mg"},{"bike_id":"5f7b2fe3-7ea9-4fca-bc65-67e9414d607c","system_id":"levelo_inurba_marseille","lat":43.291921,"lon":5.375929,"is_reserved":false,"is_disabled":false,"rental_uris":{"android":"levelo://app?vid=5f7b2fe3-7ea9-4fca-bc65-67e9414d607c","ios":"levelo://app?vid=5f7b2fe3-7ea9-4fca-bc65-67e9414d607c"},"vehicle_type_id":"4","last_reported":1761152977,"current_range_meters":16400,"station_id":"ce4bhbh2rcd13ifvqepg","pricing_plan_id":"cebpf4jnsgd1na2vs0mg"},{"bike_id":"c682a211-d828-4d82-b83b-00b9f6ed54f6","system_id":"levelo_inurba_marseille","lat":43.31163,"lon":5.38724,"is_reserved":false,"is_disabled":false,"rental_uris":{"android":"levelo://app?vid=c682a211-d828-4d82-b83b-00b9f6ed54f6","ios":"levelo://app?vid=c682a211-d828-4d82-b83b-00b9f6ed54f6"},"vehicle_type_id":"4","last_reported":1761152977,"current_range_meters":16400,"station_id":"ce4bgv12rcd13ifvqcp0","pricing_plan_id":"cebpf4jnsgd1na2vs0mg"},{"bike_id":"ff3839d3-16ac-4aa9-9120-d4030bd2a260","system_id":"levelo_inurba_marseille","lat":43.29774,"lon":5.39359,"is_reserved":false,"is_disabled":true,"rental_uris":{"android":"levelo://app?vid=ff3839d3-16ac-4aa9-9120-d4030bd2a260","ios":"levelo://app?vid=ff3839d3-16ac-4aa9-9120-d4030bd2a260"},"vehicle_type_id":"4","last_reported":1761152977,"current_range_meters":16400,"station_id":"chh1huq6cuj3fo74tm60","pricing_plan_id":"cebpf4jnsgd1na2vs0mg"},{"bike_id":"5432992c-1bdf-4c9d-ac6e-484acf818035","system_id":"levelo_inurba_marseille","lat":43.29444,"lon":5.39752,"is_reserved":false,"is_disabled":false,"rental_uris":{"android":"levelo://app?vid=5432992c-1bdf-4c9d-ac6e-484acf818035","ios":"levelo://app?vid=5432992c-1bdf-4c9d-ac6e-484acf818035"},"vehicle_type_id":"4","last_reported":1761152977,"current_range_meters":16400,"station_id":"ce4bh3h2rcd13ifvqdo0","pricing_plan_id":"cebpf4jnsgd1na2vs0mg"},{"bike_id":"fecbe1f9-5b39-4a18-9133-88eaf36dc64f","system_id":"levelo_inurba_marseille","lat":43.29718,"lon":5.38105,"is_reserved":false,"is_disabled":false,"rental_uris":{"android":"levelo://app?vid=fecbe1f9-5b39-4a18-9133-88eaf36dc64f","ios":"levelo://app?vid=fecbe1f9-5b39-4a18-9133-88eaf36dc64f"},"vehicle_type_id":"4","last_reported":1761152977,"current_range_meters":16400,"station_id":"","pricing_plan_id":"cebpf4jnsgd1na2vs0mg"},{"bike_id":"61525fe3-26d4-4c5c-a075-e59599c296c4","system_id":"levelo_inurba_marseille","lat":43.314424,"lon":5.393077,"is_reserved":false,"is_disabled":false,"rental_uris":{"android":"levelo://app?vid=61525fe3-26d4-4c5c-a075-e59599c296c4","ios":"levelo://app?vid=61525fe3-26d4-4c5c-a075-e59599c296c4"},"vehicle_type_id":"4","last_reported":1761152977,"current_range_meters":16800,"station_id":"","pricing_plan_id":"cebpf4jnsgd1na2vs0mg"},{"bike_id":"15abd45f-da01-4e9c-8011-01e96853782b","system_id":"levelo_inurba_marseille","lat":43.284099,"lon":5.375036,"is_reserved":false,"is_disabled":true,"rental_uris":{"android":"levelo://app?vid=15abd45f-da01-4e9c-8011-01e96853782b","ios":"levelo://app?vid=15abd45f-da01-4e9c-8011-01e96853782b"},"vehicle_type_id":"4","last_reported":1761152977,"current_range_meters":16800,"station_id":"","pricing_plan_id":"cebpf4jnsgd1na2vs0mg"},{"bike_id":"797c23b1-666f-424d-8501-a4f95f964e1c","system_id":"levelo_inurba_marseille","lat":43.28623,"lon":5.35105,"is_reserved":false,"is_disabled":false,"rental_uris":{"android":"levelo://app?vid=797c23b1-666f-424d-8501-a4f95f964e1c","ios":"levelo://app?vid=797c23b1-666f-424d-8501-a4f95f964e1c"},"vehicle_type_id":"4","last_reported":1761152977,"current_range_meters":16800,"station_id":"ce4bhch2rcd13ifvqeug","pricing_plan_id":"cebpf4jnsgd1na2vs0mg"},{"bike_id":"f6a0d10b-4409-4765-9e0c-c5066002603a","system_id":"levelo_inurba_marseille","lat":43.2866,"lon":5.36369,"is_reserved":false,"is_disabled":false,"rental_uris":{"android":"levelo://app?vid=f6a0d10b-4409-4765-9e0c-c5066002603a","ios":"levelo://app?vid=f6a0d10b-4409-4765-9e0c-c5066002603a"},"vehicle_type_id":"4","last_reported":1761152977,"current_range_meters":16800,"station_id":"ce4bhah2rcd13ifvqej0","pricing_plan_id":"cebpf4jnsgd1na2vs0mg"},{"bike_id":"dc5c3017-a22c-4502-bf91-b855d7cfb6f4","system_id":"levelo_inurba_marseille","lat":43.29,"lon":5.35607,"is_reserved":false,"is_disabled":false,"rental_uris":{"android":"levelo://app?vid=dc5c3017-a22c-4502-bf91-b855d7cfb6f4","ios":"levelo://app?vid=dc5c3017-a22c-4502-bf91-b855d7cfb6f4"},"vehicle_type_id":"4","last_reported":1761152977,"current_range_meters":16800,"station_id":"ce4bhb92rcd13ifvqen0","pricing_plan_id":"cebpf4jnsgd1na2vs0mg"},{"bike_id":"87e39a96-6cd3-4928-8f9b-247d06f9e10f","system_id":"levelo_inurba_marseille","lat":43.29073,"lon":5.37167,"is_reserved":false,"is_disabled":false,"rental_uris":{"android":"levelo://app?vid=87e39a96-6cd3-4928-8f9b-247d06f9e10f","ios":"levelo://app?vid=87e39a96-6cd3-4928-8f9b-247d06f9e10f"},"vehicle_type_id":"4","last_reported":1761152977,"current_range_meters":16800,"station_id":"ce4bh5p2rcd13ifvqe4g","pricing_plan_id":"cebpf4jnsgd1na2vs0mg"},{"bike_id":"29eec891-120a-4856-9c62-4be38e55d456","system_id":"levelo_inurba_marseille","lat":43.30211,"lon":5.3946,"is_reserved":false,"is_disabled":false,"rental_uris":{"android":"levelo://app?vid=29eec891-120a-4856-9c62-4be38e55d456","ios":"levelo://app?vid=29eec891-120a-4856-9c62-4be38e55d456"},"vehicle_type_id":"4","last_reported":1761152977,"current_range_meters":16800,"station_id":"ce4bh0p2rcd13ifvqd70","pricing_plan_id":"cebpf4jnsgd1na2vs0mg"},{"bike_id":"c775e1ea-9a62-4435-8d4f-004bf2c26047","system_id":"levelo_inurba_marseille","lat":43.29806,"lon":5.44049,"is_reserved":false,"is_disabled":false,"rental_uris":{"android":"levelo://app?vid=c775e1ea-9a62-4435-8d4f-004bf2c26047","ios":"levelo://app?vid=c775e1ea-9a62-4435-8d4f-004bf2c26047"},"vehicle_type_id":"4","last_reported":1761152977,"current_range_meters":17200,"station_id":"st_d3jp68qikq2c7381ktn0","pricing_plan_id":"cebpf4jnsgd1na2vs0mg"},{"bike_id":"73c6b3dc-7e98-40e9-b718-cf3a9d445f7b","system_id":"levelo_inurba_marseille","lat":43.29631,"lon":5.40598,"is_reserved":false,"is_disabled":false,"rental_uris":{"android":"levelo://app?vid=73c6b3dc-7e98-40e9-b718-cf3a9d445f7b","ios":"levelo://app?vid=73c6b3dc-7e98-40e9-b718-cf3a9d445f7b"},"vehicle_type_id":"4","last_reported":1761152977,"current_range_meters":17200,"station_id":"ce4bh0h2rcd13ifvqd60","pricing_plan_id":"cebpf4jnsgd1na2vs0mg"},{"bike_id":"22556366-5b35-4879-b6f5-b944bfc8418c","system_id":"levelo_inurba_marseille","lat":43.30175,"lon":5.38097,"is_reserved":false,"is_disabled":true,"rental_uris":{"android":"levelo://app?vid=22556366-5b35-4879-b6f5-b944bfc8418c","ios":"levelo://app?vid=22556366-5b35-4879-b6f5-b944bfc8418c"},"vehicle_type_id":"4","last_reported":1761152977,"current_range_meters":17200,"station_id":"ce4bgjp2rcd13ifvqbh0","pricing_plan_id":"cebpf4jnsgd1na2vs0mg"},{"bike_id":"bda3ed1a-3199-4eb8-8229-577855d09dbb","system_id":"levelo_inurba_marseille","lat":43.3163,"lon":5.37876,"is_reserved":false,"is_disabled":false,"rental_uris":{"android":"levelo://app?vid=bda3ed1a-3199-4eb8-8229-577855d09dbb","ios":"levelo://app?vid=bda3ed1a-3199-4eb8-8229-577855d09dbb"},"vehicle_type_id":"4","last_reported":1761152977,"current_range_meters":17200,"station_id":"","pricing_plan_id":"cebpf4jnsgd1na2vs0mg"},{"bike_id":"258419c4-4579-4d97-a0a7-858aa5ebeeee","system_id":"levelo_inurba_marseille","lat":43.29276,"lon":5.4014,"is_reserved":false,"is_disabled":false,"rental_uris":{"android":"levelo://app?vid=258419c4-4579-4d97-a0a7-858aa5ebeeee","ios":"levelo://app?vid=258419c4-4579-4d97-a0a7-858aa5ebeeee"},"vehicle_type_id":"4","last_reported":1761152977,"current_range_meters":17200,"station_id":"ce4bh312rcd13ifvqdk0","pricing_plan_id":"cebpf4jnsgd1na2vs0mg"},{"bike_id":"9393f9ef-7253-457f-bdcb-e284d908af29","system_id":"levelo_inurba_marseille","lat":43.288522,"lon":5.358503,"is_reserved":false,"is_disabled":false,"rental_uris":{"android":"levelo://app?vid=9393f9ef-7253-457f-bdcb-e284d908af29","ios":"levelo://app?vid=9393f9ef-7253-457f-bdcb-e284d908af29"},"vehicle_type_id":"4","last_reported":1761152977,"current_range_meters":17200,"station_id":"ce4bhb12rcd13ifvqem0","pricing_plan_id":"cebpf4jnsgd1na2vs0mg"},{"bike_id":"7a274fe2-bedc-42c6-a736-99d3183a0359","system_id":"levelo_inurba_marseille","lat":43.28536,"lon":5.44093,"is_reserved":false,"is_disabled":false,"rental_uris":{"android":"levelo://app?vid=7a274fe2-bedc-42c6-a736-99d3183a0359","ios":"levelo://app?vid=7a274fe2-bedc-42c6-a736-99d3183a0359"},"vehicle_type_id":"4","last_reported":1761152977,"current_range_meters":17200,"station_id":"st_d3j3df2ikq2c7380ej80","pricing_plan_id":"cebpf4jnsgd1na2vs0mg"},{"bike_id":"d9247930-f477-4727-872b-24c5b02f6614","system_id":"levelo_inurba_marseille","lat":43.27179,"lon":5.40992,"is_reserved":false,"is_disabled":false,"rental_uris":{"android":"levelo://app?vid=d9247930-f477-4727-872b-24c5b02f6614","ios":"levelo://app?vid=d9247930-f477-4727-872b-24c5b02f6614"},"vehicle_type_id":"4","last_reported":1761152977,"current_range_meters":17200,"station_id":"ce4bhl12rcd13ifvqgf0","pricing_plan_id":"cebpf4jnsgd1na2vs0mg"},{"bike_id":"8ce26c75-2d72-4026-a48b-6acb0fbff416","system_id":"levelo_inurba_marseille","lat":43.29635,"lon":5.40597,"is_reserved":false,"is_disabled":false,"rental_uris":{"android":"levelo://app?vid=8ce26c75-2d72-4026-a48b-6acb0fbff416","ios":"levelo://app?vid=8ce26c75-2d72-4026-a48b-6acb0fbff416"},"vehicle_type_id":"4","last_reported":1761152977,"current_range_meters":17600,"station_id":"ce4bh0h2rcd13ifvqd60","pricing_plan_id":"cebpf4jnsgd1na2vs0mg"},{"bike_id":"c6deac3b-7813-409d-9f63-cf97e7475c2d","system_id":"levelo_inurba_marseille","lat":43.30187,"lon":5.36624,"is_reserved":false,"is_disabled":false,"rental_uris":{"android":"levelo://app?vid=c6deac3b-7813-409d-9f63-cf97e7475c2d","ios":"levelo://app?vid=c6deac3b-7813-409d-9f63-cf97e7475c2d"},"vehicle_type_id":"4","last_reported":1761152977,"current_range_meters":17600,"station_id":"ce4bgrh2rcd13ifvqc8g","pricing_plan_id":"cebpf4jnsgd1na2vs0mg"},{"bike_id":"2a22829e-2bd6-41ec-a3e5-ef826e7425d3","system_id":"levelo_inurba_marseille","lat":43.32099,"lon":5.36805,"is_reserved":false,"is_disabled":false,"rental_uris":{"android":"levelo://app?vid=2a22829e-2bd6-41ec-a3e5-ef826e7425d3","ios":"levelo://app?vid=2a22829e-2bd6-41ec-a3e5-ef826e7425d3"},"vehicle_type_id":"4","last_reported":1761152977,"current_range_meters":17600,"station_id":"ce4bhrh2rcd13ifvqhug","pricing_plan_id":"cebpf4jnsgd1na2vs0mg"},{"bike_id":"95ba66d8-fc97-484b-aa01-bcab361ae06f","system_id":"levelo_inurba_marseille","lat":43.28268,"lon":5.35055,"is_reserved":false,"is_disabled":false,"rental_uris":{"android":"levelo://app?vid=95ba66d8-fc97-484b-aa01-bcab361ae06f","ios":"levelo://app?vid=95ba66d8-fc97-484b-aa01-bcab361ae06f"},"vehicle_type_id":"4","last_reported":1761152977,"current_range_meters":17600,"station_id":"ce4bhbp2rcd13ifvqerg","pricing_plan_id":"cebpf4jnsgd1na2vs0mg"},{"bike_id":"37e6b374-e513-462a-9a1b-5e3ded1d4bad","system_id":"levelo_inurba_marseille","lat":43.31174,"lon":5.387118,"is_reserved":false,"is_disabled":false,"rental_uris":{"android":"levelo://app?vid=37e6b374-e513-462a-9a1b-5e3ded1d4bad","ios":"levelo://app?vid=37e6b374-e513-462a-9a1b-5e3ded1d4bad"},"vehicle_type_id":"4","last_reported":1761152977,"current_range_meters":17600,"station_id":"ce4bgv12rcd13ifvqcp0","pricing_plan_id":"cebpf4jnsgd1na2vs0mg"},{"bike_id":"f2d7c4d6-6cd6-487c-8d71-0dcf6c3b9a5c","system_id":"levelo_inurba_marseille","lat":43.28619,"lon":5.35109,"is_reserved":false,"is_disabled":false,"rental_uris":{"android":"levelo://app?vid=f2d7c4d6-6cd6-487c-8d71-0dcf6c3b9a5c","ios":"levelo://app?vid=f2d7c4d6-6cd6-487c-8d71-0dcf6c3b9a5c"},"vehicle_type_id":"4","last_reported":1761152977,"current_range_meters":17600,"station_id":"ce4bhch2rcd13ifvqeug","pricing_plan_id":"cebpf4jnsgd1na2vs0mg"},{"bike_id":"4b57f639-91e4-4b76-b70a-71ec481a791c","system_id":"levelo_inurba_marseille","lat":43.25124,"lon":5.40317,"is_reserved":false,"is_disabled":false,"rental_uris":{"android":"levelo://app?vid=4b57f639-91e4-4b76-b70a-71ec481a791c","ios":"levelo://app?vid=4b57f639-91e4-4b76-b70a-71ec481a791c"},"vehicle_type_id":"4","last_reported":1761152977,"current_range_meters":18000,"station_id":"ce4bhlh2rcd13ifvqgig","pricing_plan_id":"cebpf4jnsgd1na2vs0mg"},{"bike_id":"e05cf8aa-d9fb-4d72-aeb9-da31725d92f2","system_id":"levelo_inurba_marseille","lat":43.24947,"lon":5.40489,"is_reserved":false,"is_disabled":false,"rental_uris":{"android":"levelo://app?vid=e05cf8aa-d9fb-4d72-aeb9-da31725d92f2","ios":"levelo://app?vid=e05cf8aa-d9fb-4d72-aeb9-da31725d92f2"},"vehicle_type_id":"4","last_reported":1761152977,"current_range_meters":18000,"station_id":"st_d2ngiaodas8pm72gd1h0","pricing_plan_id":"cebpf4jnsgd1na2vs0mg"},{"bike_id":"3f707b38-66c5-4642-864e-7e5859071c0a","system_id":"levelo_inurba_marseille","lat":43.29263,"lon":5.384402,"is_reserved":false,"is_disabled":false,"rental_uris":{"android":"levelo://app?vid=3f707b38-66c5-4642-864e-7e5859071c0a","ios":"levelo://app?vid=3f707b38-66c5-4642-864e-7e5859071c0a"},"vehicle_type_id":"4","last_reported":1761152977,"current_range_meters":18000,"station_id":"ce4bh692rcd13ifvqea0","pricing_plan_id":"cebpf4jnsgd1na2vs0mg"},{"bike_id":"fb6fdbb2-c5f4-4cfa-bfc7-104766b2c55e","system_id":"levelo_inurba_marseille","lat":43.28364,"lon":5.38633,"is_reserved":false,"is_disabled":false,"rental_uris":{"android":"levelo://app?vid=fb6fdbb2-c5f4-4cfa-bfc7-104766b2c55e","ios":"levelo://app?vid=fb6fdbb2-c5f4-4cfa-bfc7-104766b2c55e"},"vehicle_type_id":"4","last_reported":1761152977,"current_range_meters":18000,"station_id":"ce4bh492rcd13ifvqdvg","pricing_plan_id":"cebpf4jnsgd1na2vs0mg"},{"bike_id":"ac28592c-f8d0-4683-b0f2-2b7100c9bb65","system_id":"levelo_inurba_marseille","lat":43.29534,"lon":5.38549,"is_reserved":false,"is_disabled":false,"rental_uris":{"android":"levelo://app?vid=ac28592c-f8d0-4683-b0f2-2b7100c9bb65","ios":"levelo://app?vid=ac28592c-f8d0-4683-b0f2-2b7100c9bb65"},"vehicle_type_id":"4","last_reported":1761152977,"current_range_meters":18000,"station_id":"ce4bgih2rcd13ifvqba0","pricing_plan_id":"cebpf4jnsgd1na2vs0mg"},{"bike_id":"7038f0a8-74b5-47bc-b94e-9894d2d8b80e","system_id":"levelo_inurba_marseille","lat":43.28415,"lon":5.34979,"is_reserved":false,"is_disabled":false,"rental_uris":{"android":"levelo://app?vid=7038f0a8-74b5-47bc-b94e-9894d2d8b80e","ios":"levelo://app?vid=7038f0a8-74b5-47bc-b94e-9894d2d8b80e"},"vehicle_type_id":"4","last_reported":1761152977,"current_range_meters":18000,"station_id":"ce4bhbh2rcd13ifvqepg","pricing_plan_id":"cebpf4jnsgd1na2vs0mg"},{"bike_id":"a72f33d4-c8c3-41c7-9f2f-0c59907fcbba","system_id":"levelo_inurba_marseille","lat":43.273751,"lon":5.362626,"is_reserved":false,"is_disabled":false,"rental_uris":{"android":"levelo://app?vid=a72f33d4-c8c3-41c7-9f2f-0c59907fcbba","ios":"levelo://app?vid=a72f33d4-c8c3-41c7-9f2f-0c59907fcbba"},"vehicle_type_id":"4","last_reported":1761152977,"current_range_meters":18000,"station_id":"ce4bhbh2rcd13ifvqeo0","pricing_plan_id":"cebpf4jnsgd1na2vs0mg"},{"bike_id":"900512a2-14c6-421d-969e-c3dc812fd854","system_id":"levelo_inurba_marseille","lat":43.290305,"lon":5.372418,"is_reserved":false,"is_disabled":false,"rental_uris":{"android":"levelo://app?vid=900512a2-14c6-421d-969e-c3dc812fd854","ios":"levelo://app?vid=900512a2-14c6-421d-969e-c3dc812fd854"},"vehicle_type_id":"4","last_reported":1761152977,"current_range_meters":18000,"station_id":"","pricing_plan_id":"cebpf4jnsgd1na2vs0mg"},{"bike_id":"62e025b3-e0fd-470f-bb93-c8ce647595ac","system_id":"levelo_inurba_marseille","lat":43.29533,"lon":5.38552,"is_reserved":false,"is_disabled":false,"rental_uris":{"android":"levelo://app?vid=62e025b3-e0fd-470f-bb93-c8ce647595ac","ios":"levelo://app?vid=62e025b3-e0fd-470f-bb93-c8ce647595ac"},"vehicle_type_id":"4","last_reported":1761152977,"current_range_meters":18800,"station_id":"ce4bgih2rcd13ifvqba0","pricing_plan_id":"cebpf4jnsgd1na2vs0mg"},{"bike_id":"c076f489-5202-4965-89e2-aa9d61ed2887","system_id":"levelo_inurba_marseille","lat":43.2997,"lon":5.3849,"is_reserved":false,"is_disabled":false,"rental_uris":{"android":"levelo://app?vid=c076f489-5202-4965-89e2-aa9d61ed2887","ios":"levelo://app?vid=c076f489-5202-4965-89e2-aa9d61ed2887"},"vehicle_type_id":"4","last_reported":1761152977,"current_range_meters":18800,"station_id":"ce4bgj92rcd13ifvqbd0","pricing_plan_id":"cebpf4jnsgd1na2vs0mg"},{"bike_id":"a30a178c-c5a5-4d91-aac9-a1bf098eb0be","system_id":"levelo_inurba_marseille","lat":43.29053,"lon":5.35919,"is_reserved":false,"is_disabled":false,"rental_uris":{"android":"levelo://app?vid=a30a178c-c5a5-4d91-aac9-a1bf098eb0be","ios":"levelo://app?vid=a30a178c-c5a5-4d91-aac9-a1bf098eb0be"},"vehicle_type_id":"4","last_reported":1761152977,"current_range_meters":18800,"station_id":"ce4bha92rcd13ifvqeg0","pricing_plan_id":"cebpf4jnsgd1na2vs0mg"},{"bike_id":"4ef0489f-e7b2-4aa8-950b-34bfa22a7c0e","system_id":"levelo_inurba_marseille","lat":43.28839,"lon":5.35852,"is_reserved":false,"is_disabled":false,"rental_uris":{"android":"levelo://app?vid=4ef0489f-e7b2-4aa8-950b-34bfa22a7c0e","ios":"levelo://app?vid=4ef0489f-e7b2-4aa8-950b-34bfa22a7c0e"},"vehicle_type_id":"4","last_reported":1761152977,"current_range_meters":18800,"station_id":"ce4bhb12rcd13ifvqem0","pricing_plan_id":"cebpf4jnsgd1na2vs0mg"},{"bike_id":"cf7e6181-f832-4854-bd01-e5e6077deb61","system_id":"levelo_inurba_marseille","lat":43.30892,"lon":5.39661,"is_reserved":false,"is_disabled":false,"rental_uris":{"android":"levelo://app?vid=cf7e6181-f832-4854-bd01-e5e6077deb61","ios":"levelo://app?vid=cf7e6181-f832-4854-bd01-e5e6077deb61"},"vehicle_type_id":"4","last_reported":1761152977,"current_range_meters":18800,"station_id":"ce4bh012rcd13ifvqcv0","pricing_plan_id":"cebpf4jnsgd1na2vs0mg"},{"bike_id":"692a999f-f646-43fe-b949-d58fd32447f4","system_id":"levelo_inurba_marseille","lat":43.32551,"lon":5.39007,"is_reserved":false,"is_disabled":false,"rental_uris":{"android":"levelo://app?vid=692a999f-f646-43fe-b949-d58fd32447f4","ios":"levelo://app?vid=692a999f-f646-43fe-b949-d58fd32447f4"},"vehicle_type_id":"4","last_reported":1761152977,"current_range_meters":18800,"station_id":"","pricing_plan_id":"cebpf4jnsgd1na2vs0mg"},{"bike_id":"13ffca06-ecc4-46ee-aa82-6818647126c8","system_id":"levelo_inurba_marseille","lat":43.29904,"lon":5.43662,"is_reserved":false,"is_disabled":false,"rental_uris":{"android":"levelo://app?vid=13ffca06-ecc4-46ee-aa82-6818647126c8","ios":"levelo://app?vid=13ffca06-ecc4-46ee-aa82-6818647126c8"},"vehicle_type_id":"4","last_reported":1761152977,"current_range_meters":18800,"station_id":"ce4bhpp2rcd13ifvqhfg","pricing_plan_id":"cebpf4jnsgd1na2vs0mg"},{"bike_id":"c7a8d20a-06ca-4f24-9c67-aea97824e43b","system_id":"levelo_inurba_marseille","lat":43.24809,"lon":5.37462,"is_reserved":false,"is_disabled":false,"rental_uris":{"android":"levelo://app?vid=c7a8d20a-06ca-4f24-9c67-aea97824e43b","ios":"levelo://app?vid=c7a8d20a-06ca-4f24-9c67-aea97824e43b"},"vehicle_type_id":"4","last_reported":1761152977,"current_range_meters":19200,"station_id":"ce4bhgh2rcd13ifvqfb0","pricing_plan_id":"cebpf4jnsgd1na2vs0mg"},{"bike_id":"26ecfd90-2879-4ffd-b3cb-633752b421a5","system_id":"levelo_inurba_marseille","lat":43.26549,"lon":5.37292,"is_reserved":false,"is_disabled":false,"rental_uris":{"android":"levelo://app?vid=26ecfd90-2879-4ffd-b3cb-633752b421a5","ios":"levelo://app?vid=26ecfd90-2879-4ffd-b3cb-633752b421a5"},"vehicle_type_id":"4","last_reported":1761152977,"current_range_meters":19200,"station_id":"ce4bhg12rcd13ifvqf70","pricing_plan_id":"cebpf4jnsgd1na2vs0mg"},{"bike_id":"bd58df2d-1faa-4f24-9a12-f8bb5991cf61","system_id":"levelo_inurba_marseille","lat":43.29264,"lon":5.38446,"is_reserved":false,"is_disabled":false,"rental_uris":{"android":"levelo://app?vid=bd58df2d-1faa-4f24-9a12-f8bb5991cf61","ios":"levelo://app?vid=bd58df2d-1faa-4f24-9a12-f8bb5991cf61"},"vehicle_type_id":"4","last_reported":1761152977,"current_range_meters":19200,"station_id":"ce4bh692rcd13ifvqea0","pricing_plan_id":"cebpf4jnsgd1na2vs0mg"},{"bike_id":"035ca1d7-233f-4f69-9569-4f3393764361","system_id":"levelo_inurba_marseille","lat":43.30874,"lon":5.37321,"is_reserved":false,"is_disabled":false,"rental_uris":{"android":"levelo://app?vid=035ca1d7-233f-4f69-9569-4f3393764361","ios":"levelo://app?vid=035ca1d7-233f-4f69-9569-4f3393764361"},"vehicle_type_id":"4","last_reported":1761152977,"current_range_meters":19200,"station_id":"","pricing_plan_id":"cebpf4jnsgd1na2vs0mg"},{"bike_id":"d09984c8-17c1-4179-bda7-9a511c4719ab","system_id":"levelo_inurba_marseille","lat":43.25575,"lon":5.38243,"is_reserved":false,"is_disabled":false,"rental_uris":{"android":"levelo://app?vid=d09984c8-17c1-4179-bda7-9a511c4719ab","ios":"levelo://app?vid=d09984c8-17c1-4179-bda7-9a511c4719ab"},"vehicle_type_id":"4","last_reported":1761152977,"current_range_meters":19200,"station_id":"ce4bhih2rcd13ifvqfs0","pricing_plan_id":"cebpf4jnsgd1na2vs0mg"},{"bike_id":"8bcacd78-80de-4026-af75-b37ebe3030fe","system_id":"levelo_inurba_marseille","lat":43.334756,"lon":5.404255,"is_reserved":false,"is_disabled":false,"rental_uris":{"android":"levelo://app?vid=8bcacd78-80de-4026-af75-b37ebe3030fe","ios":"levelo://app?vid=8bcacd78-80de-4026-af75-b37ebe3030fe"},"vehicle_type_id":"4","last_reported":1761152977,"current_range_meters":19200,"station_id":"","pricing_plan_id":"cebpf4jnsgd1na2vs0mg"},{"bike_id":"52357258-42f0-45ae-a4e1-bc1ac6fcabec","system_id":"levelo_inurba_marseille","lat":43.2867,"lon":5.38672,"is_reserved":false,"is_disabled":false,"rental_uris":{"android":"levelo://app?vid=52357258-42f0-45ae-a4e1-bc1ac6fcabec","ios":"levelo://app?vid=52357258-42f0-45ae-a4e1-bc1ac6fcabec"},"vehicle_type_id":"4","last_reported":1761152977,"current_range_meters":19200,"station_id":"ce4bh492rcd13ifvqdug","pricing_plan_id":"cebpf4jnsgd1na2vs0mg"},{"bike_id":"b98a5ae8-d8d1-4b53-9010-f1c67c5b652e","system_id":"levelo_inurba_marseille","lat":43.29537,"lon":5.38549,"is_reserved":false,"is_disabled":false,"rental_uris":{"android":"levelo://app?vid=b98a5ae8-d8d1-4b53-9010-f1c67c5b652e","ios":"levelo://app?vid=b98a5ae8-d8d1-4b53-9010-f1c67c5b652e"},"vehicle_type_id":"4","last_reported":1761152977,"current_range_meters":19200,"station_id":"ce4bgih2rcd13ifvqba0","pricing_plan_id":"cebpf4jnsgd1na2vs0mg"},{"bike_id":"9c023054-f387-47db-bf1d-2774b5d6d642","system_id":"levelo_inurba_marseille","lat":43.31709,"lon":5.38177,"is_reserved":false,"is_disabled":false,"rental_uris":{"android":"levelo://app?vid=9c023054-f387-47db-bf1d-2774b5d6d642","ios":"levelo://app?vid=9c023054-f387-47db-bf1d-2774b5d6d642"},"vehicle_type_id":"4","last_reported":1761152977,"current_range_meters":19200,"station_id":"","pricing_plan_id":"cebpf4jnsgd1na2vs0mg"},{"bike_id":"883d5c18-82f2-4bf4-85b3-be735d0a38cf","system_id":"levelo_inurba_marseille","lat":43.25578,"lon":5.38234,"is_reserved":false,"is_disabled":false,"rental_uris":{"android":"levelo://app?vid=883d5c18-82f2-4bf4-85b3-be735d0a38cf","ios":"levelo://app?vid=883d5c18-82f2-4bf4-85b3-be735d0a38cf"},"vehicle_type_id":"4","last_reported":1761152977,"current_range_meters":19200,"station_id":"ce4bhih2rcd13ifvqfs0","pricing_plan_id":"cebpf4jnsgd1na2vs0mg"},{"bike_id":"37103572-7352-4a51-9966-3c78d0065feb","system_id":"levelo_inurba_marseille","lat":43.249816,"lon":5.404522,"is_reserved":false,"is_disabled":false,"rental_uris":{"android":"levelo://app?vid=37103572-7352-4a51-9966-3c78d0065feb","ios":"levelo://app?vid=37103572-7352-4a51-9966-3c78d0065feb"},"vehicle_type_id":"4","last_reported":1761152977,"current_range_meters":19600,"station_id":"st_d2ngiaodas8pm72gd1h0","pricing_plan_id":"cebpf4jnsgd1na2vs0mg"},{"bike_id":"b942fba7-a141-4122-b641-9cd43163e54f","system_id":"levelo_inurba_marseille","lat":43.29526,"lon":5.38512,"is_reserved":false,"is_disabled":false,"rental_uris":{"android":"levelo://app?vid=b942fba7-a141-4122-b641-9cd43163e54f","ios":"levelo://app?vid=b942fba7-a141-4122-b641-9cd43163e54f"},"vehicle_type_id":"4","last_reported":1761152977,"current_range_meters":19600,"station_id":"ce4bgih2rcd13ifvqba0","pricing_plan_id":"cebpf4jnsgd1na2vs0mg"},{"bike_id":"3c5bffd8-322f-4631-a714-0972e4530d4b","system_id":"levelo_inurba_marseille","lat":43.27375,"lon":5.36271,"is_reserved":false,"is_disabled":false,"rental_uris":{"android":"levelo://app?vid=3c5bffd8-322f-4631-a714-0972e4530d4b","ios":"levelo://app?vid=3c5bffd8-322f-4631-a714-0972e4530d4b"},"vehicle_type_id":"4","last_reported":1761152977,"current_range_meters":19600,"station_id":"ce4bhbh2rcd13ifvqeo0","pricing_plan_id":"cebpf4jnsgd1na2vs0mg"},{"bike_id":"afa8bef4-51a4-4abd-b2d5-f33084414576","system_id":"levelo_inurba_marseille","lat":43.27811,"lon":5.40715,"is_reserved":false,"is_disabled":false,"rental_uris":{"android":"levelo://app?vid=afa8bef4-51a4-4abd-b2d5-f33084414576","ios":"levelo://app?vid=afa8bef4-51a4-4abd-b2d5-f33084414576"},"vehicle_type_id":"4","last_reported":1761152977,"current_range_meters":19600,"station_id":"ce4bhnh2rcd13ifvqgtg","pricing_plan_id":"cebpf4jnsgd1na2vs0mg"},{"bike_id":"fdb8b24c-6466-4df2-8970-ec29c8be235e","system_id":"levelo_inurba_marseille","lat":43.25117,"lon":5.40339,"is_reserved":false,"is_disabled":false,"rental_uris":{"android":"levelo://app?vid=fdb8b24c-6466-4df2-8970-ec29c8be235e","ios":"levelo://app?vid=fdb8b24c-6466-4df2-8970-ec29c8be235e"},