{"last_updated":1690319136,"ttl":30,"version":"2.2","data":{"bikes":[{"bike_id":"07a06af9-96a6-4443-b441-de37bc350bc3","system_id":"levelo_inurba_marseille","lat":43.312239,"lon":5.368562,"is_reserved":false,"is_disabled":false,"rental_uris":{"android":"levelo://app?vid=07a06af9-96a6-4443-b441-de37bc350bc3","ios":"levelo://app?vid=07a06af9-96a6-4443-b441-de37bc350bc3"},"vehicle_type_id":"4","last_reported":1690319136,"current_range_meters":31200,"station_id":"ce4bgl92rcd13ifvqbq0","pricing_plan_id":"free"},{"bike_id":"a10657f3-ffe1-4fb4-b8ca-441e5eafd1cd","system_id":"levelo_inurba_marseille","lat":43.309076,"lon":5.368465,"is_reserved":false,"is_disabled":false,"rental_uris":{"android":"levelo://app?vid=a10657f3-ffe1-4fb4-b8ca-441e5eafd1cd","ios":"levelo://app?vid=a10657f3-ffe1-4fb4-b8ca-441e5eafd1cd"},"vehicle_type_id":"4","last_reported":1690319136,"current_range_meters":31200,"station_id":"ce4bgn92rcd13ifvqbvg","pricing_plan_id":"free"},{"bike_id":"0f832d07-8cf6-41ee-8d69-877f33e37090","system_id":"levelo_inurba_marseille","lat":43.309076,"lon":5.368465,"is_reserved":false,"is_disabled":false,"rental_uris":{"android":"levelo://app?vid=0f832d07-8cf6-41ee-8d69-877f33e37090","ios":"levelo://app?vid=0f832d07-8cf6-41ee-8d69-877f33e37090"},"vehicle_type_id":"4","last_reported":1690319136,"current_range_meters":30800,"station_id":"ce4bgn92rcd13ifvqbvg","pricing_plan_id":"free"},{"bike_id":"4356d637-c918-49a7-a7f2-9cf01d687755","system_id":"levelo_inurba_marseille","lat":43.309076,"lon":5.368465,"is_reserved":false,"is_disabled":false,"rental_uris":{"android":"levelo://app?vid=4356d637-c918-49a7-a7f2-9cf01d687755","ios":"levelo://app?vid=4356d637-c918-49a7-a7f2-9cf01d687755"},"vehicle_type_id":"4","last_reported":1690319136,"current_range_meters":30800,"station_id":"ce4bgn92rcd13ifvqbvg","pricing_plan_id":"free"},{"bike_id":"5a392a2e-5ffc-4ee3-81ff-f47924ee44f1","system_id":"levelo_inurba_marseille","lat":43.309076,"lon":5.368465,"is_reserved":false,"is_disabled":false,"rental_uris":{"android":"levelo://app?vid=5a392a2e-5ffc-4ee3-81ff-f47924ee44f1","ios":"levelo://app?vid=5a392a2e-5ffc-4ee3-81ff-f47924ee44f1"},"vehicle_type_id":"4","last_reported":1690319136,"current_range_meters":31200,"station_id":"ce4bgn92rcd13ifvqbvg","pricing_plan_id":"free"},{"bike_id":"e7f0b3f9-6f78-4a42-947e-4fc279e82c20","system_id":"levelo_inurba_marseille","lat":43.309076,"lon":5.368465,"is_reserved":false,"is_disabled":false,"rental_uris":{"android":"levelo://app?vid=e7f0b3f9-6f78-4a42-947e-4fc279e82c20","ios":"levelo://app?vid=e7f0b3f9-6f78-4a42-947e-4fc279e82c20"},"vehicle_type_id":"4","last_reported":1690319136,"current_range_meters":30800,"station_id":"ce4bgn92rcd13ifvqbvg","pricing_plan_id":"free"},{"bike_id":"844f1d0d-a7f0-4873-9d4f-1d800cf17432","system_id":"levelo_inurba_marseille","lat":43.309076,"lon":5.368465,"is_reserved":false,"is_disabled":false,"rental_uris":{"android":"levelo://app?vid=844f1d0d-a7f0-4873-9d4f-1d800cf17432","ios":"levelo://app?vid=844f1d0d-a7f0-4873-9d4f-1d800cf17432"},"vehicle_type_id":"4","last_reported":1690319136,"current_range_meters":31600,"station_id":"ce4bgn92rcd13ifvqbvg","pricing_plan_id":"free"},{"bike_id":"53122f60-d25b-40e4-bdcb-e4cd5f955c63","system_id":"levelo_inurba_marseille","lat":43.309076,"lon":5.368465,"is_reserved":false,"is_disabled":false,"rental_uris":{"android":"levelo://app?vid=53122f60-d25b-40e4-bdcb-e4cd5f955c63","ios":"levelo://app?vid=53122f60-d25b-40e4-bdcb-e4cd5f955c63"},"vehicle_type_id":"4","last_reported":1690319136,"current_range_meters":30800,"station_id":"ce4bgn92rcd13ifvqbvg","pricing_plan_id":"free"},{"bike_id":"a9ec981b-1af6-4ab1-9fea-e8b669b60633","system_id":"levelo_inurba_marseille","lat":43.309076,"lon":5.368465,"is_reserved":false,"is_disabled":false,"rental_uris":{"android":"levelo://app?vid=a9ec981b-1af6-4ab1-9fea-e8b669b60633","ios":"levelo://app?vid=a9ec981b-1af6-4ab1-9fea-e8b669b60633"},"vehicle_type_id":"4","last_reported":1690319136,"current_range_meters":31200,"station_id":"ce4bgn92rcd13ifvqbvg","pricing_plan_id":"free"},{"bike_id":"59f6dd47-9b36-4dd2-88e9-c9d4e11c926a","system_id":"levelo_inurba_marseille","lat":43.309076,"lon":5.368465,"is_reserved":false,"is_disabled":false,"rental_uris":{"android":"levelo://app?vid=59f6dd47-9b36-4dd2-88e9-c9d4e11c926a","ios":"levelo://app?vid=59f6dd47-9b36-4dd2-88e9-c9d4e11c926a"},"vehicle_type_id":"4","last_reported":1690319136,"current_range_meters":21600,"station_id":"ce4bgn92rcd13ifvqbvg","pricing_plan_id":"free"},{"bike_id":"f4a78ee3-d2f6-438f-a34f-f62cbac84bd6","system_id":"levelo_inurba_marseille","lat":43.314811,"lon":5.373103,"is_reserved":false,"is_disabled":false,"rental_uris":{"android":"levelo://app?vid=f4a78ee3-d2f6-438f-a34f-f62cbac84bd6","ios":"levelo://app?vid=f4a78ee3-d2f6-438f-a34f-f62cbac84bd6"},"vehicle_type_id":"4","last_reported":1690319136,"current_range_meters":30400,"station_id":"ce4bgt12rcd13ifvqcd0","pricing_plan_id":"free"},{"bike_id":"56d8e901-d249-4936-96c9-4a8b01819759","system_id":"levelo_inurba_marseille","lat":43.30883,"lon":5.37183,"is_reserved":false,"is_disabled":false,"rental_uris":{"android":"levelo://app?vid=56d8e901-d249-4936-96c9-4a8b01819759","ios":"levelo://app?vid=56d8e901-d249-4936-96c9-4a8b01819759"},"vehicle_type_id":"4","last_reported":1690319136,"current_range_meters":18000,"station_id":"ce4bguh2rcd13ifvqckg","pricing_plan_id":"free"},{"bike_id":"08bf1f86-d552-4532-8950-8c56cafc88fb","system_id":"levelo_inurba_marseille","lat":43.309039,"lon":5.371797,"is_reserved":false,"is_disabled":false,"rental_uris":{"android":"levelo://app?vid=08bf1f86-d552-4532-8950-8c56cafc88fb","ios":"levelo://app?vid=08bf1f86-d552-4532-8950-8c56cafc88fb"},"vehicle_type_id":"4","last_reported":1690319136,"current_range_meters":18400,"station_id":"ce4bguh2rcd13ifvqckg","pricing_plan_id":"free"},{"bike_id":"0e350d5b-fd30-40c3-aac5-5105c2f9d843","system_id":"levelo_inurba_marseille","lat":43.305989,"lon":5.37225,"is_reserved":false,"is_disabled":false,"rental_uris":{"android":"levelo://app?vid=0e350d5b-fd30-40c3-aac5-5105c2f9d843","ios":"levelo://app?vid=0e350d5b-fd30-40c3-aac5-5105c2f9d843"},"vehicle_type_id":"4","last_reported":1690319136,"current_range_meters":16000,"station_id":"ce4bgqh2rcd13ifvqc4g","pricing_plan_id":"free"},{"bike_id":"dee7945b-6287-459e-8437-7720d5dd90f2","system_id":"levelo_inurba_marseille","lat":43.305989,"lon":5.37225,"is_reserved":false,"is_disabled":false,"rental_uris":{"android":"levelo://app?vid=dee7945b-6287-459e-8437-7720d5dd90f2","ios":"levelo://app?vid=dee7945b-6287-459e-8437-7720d5dd90f2"},"vehicle_type_id":"4","last_reported":1690319136,"current_range_meters":15200,"station_id":"ce4bgqh2rcd13ifvqc4g","pricing_plan_id":"free"},{"bike_id":"f9515e9c-9dac-4391-9691-eeb0fb9d8ffd","system_id":"levelo_inurba_marseille","lat":43.305989,"lon":5.37225,"is_reserved":false,"is_disabled":false,"rental_uris":{"android":"levelo://app?vid=f9515e9c-9dac-4391-9691-eeb0fb9d8ffd","ios":"levelo://app?vid=f9515e9c-9dac-4391-9691-eeb0fb9d8ffd"},"vehicle_type_id":"4","last_reported":1690319136,"current_range_meters":13600,"station_id":"ce4bgqh2rcd13ifvqc4g","pricing_plan_id":"free"},{"bike_id":"cdc6ec7d-ae37-4d20-af03-42dc8a5ad5d7","system_id":"levelo_inurba_marseille","lat":43.305989,"lon":5.37225,"is_reserved":false,"is_disabled":false,"rental_uris":{"android":"levelo://app?vid=cdc6ec7d-ae37-4d20-af03-42dc8a5ad5d7","ios":"levelo://app?vid=cdc6ec7d-ae37-4d20-af03-42dc8a5ad5d7"},"vehicle_type_id":"4","last_reported":1690319136,"current_range_meters":28800,"station_id":"ce4bgqh2rcd13ifvqc4g","pricing_plan_id":"free"},{"bike_id":"7f36034c-82e6-4929-be79-4c4251941972","system_id":"levelo_inurba_marseille","lat":43.305989,"lon":5.37225,"is_reserved":false,"is_disabled":false,"rental_uris":{"android":"levelo://app?vid=7f36034c-82e6-4929-be79-4c4251941972","ios":"levelo://app?vid=7f36034c-82e6-4929-be79-4c4251941972"},"vehicle_type_id":"4","last_reported":1690319136,"current_range_meters":19200,"station_id":"ce4bgqh2rcd13ifvqc4g","pricing_plan_id":"free"},{"bike_id":"f11b65b7-eb16-420e-9a2b-024c5da340de","system_id":"levelo_inurba_marseille","lat":43.305989,"lon":5.37225,"is_reserved":false,"is_disabled":false,"rental_uris":{"android":"levelo://app?vid=f11b65b7-eb16-420e-9a2b-024c5da340de","ios":"levelo://app?vid=f11b65b7-eb16-420e-9a2b-024c5da340de"},"vehicle_type_id":"4","last_reported":1690319136,"current_range_meters":9600,"station_id":"ce4bgqh2rcd13ifvqc4g","pricing_plan_id":"free"},{"bike_id":"8fb2ad29-613b-47f9-b366-5c6ba992495b","system_id":"levelo_inurba_marseille","lat":43.311125,"lon":5.377624,"is_reserved":false,"is_disabled":false,"rental_uris":{"android":"levelo://app?vid=8fb2ad29-613b-47f9-b366-5c6ba992495b","ios":"levelo://app?vid=8fb2ad29-613b-47f9-b366-5c6ba992495b"},"vehicle_type_id":"4","last_reported":1690319136,"current_range_meters":24000,"station_id":"ce4bgt92rcd13ifvqcg0","pricing_plan_id":"free"},{"bike_id":"6b926e33-66b3-4013-b123-4872cd3b9629","system_id":"levelo_inurba_marseille","lat":43.32016,"lon":5.37122,"is_reserved":false,"is_disabled":false,"rental_uris":{"android":"levelo://app?vid=6b926e33-66b3-4013-b123-4872cd3b9629","ios":"levelo://app?vid=6b926e33-66b3-4013-b123-4872cd3b9629"},"vehicle_type_id":"4","last_reported":1690319136,"current_range_meters":24400,"station_id":"","pricing_plan_id":"free"},{"bike_id":"1b191623-72c1-4e01-98f1-08b3c181d1bb","system_id":"levelo_inurba_marseille","lat":43.30793,"lon":5.37654,"is_reserved":false,"is_disabled":false,"rental_uris":{"android":"levelo://app?vid=1b191623-72c1-4e01-98f1-08b3c181d1bb","ios":"levelo://app?vid=1b191623-72c1-4e01-98f1-08b3c181d1bb"},"vehicle_type_id":"4","last_reported":1690319136,"current_range_meters":14000,"station_id":"ce4bgv92rcd13ifvqcq0","pricing_plan_id":"free"},{"bike_id":"d7b3e4a0-a7ce-435f-a3ba-8de595fbc2b8","system_id":"levelo_inurba_marseille","lat":43.307945,"lon":5.376487,"is_reserved":false,"is_disabled":false,"rental_uris":{"android":"levelo://app?vid=d7b3e4a0-a7ce-435f-a3ba-8de595fbc2b8","ios":"levelo://app?vid=d7b3e4a0-a7ce-435f-a3ba-8de595fbc2b8"},"vehicle_type_id":"4","last_reported":1690319136,"current_range_meters":4000,"station_id":"ce4bgv92rcd13ifvqcq0","pricing_plan_id":"free"},{"bike_id":"d67de633-3fe1-4914-8b51-c188f469933a","system_id":"levelo_inurba_marseille","lat":43.317075,"lon":5.377367,"is_reserved":false,"is_disabled":false,"rental_uris":{"android":"levelo://app?vid=d67de633-3fe1-4914-8b51-c188f469933a","ios":"levelo://app?vid=d67de633-3fe1-4914-8b51-c188f469933a"},"vehicle_type_id":"4","last_reported":1690319136,"current_range_meters":13200,"station_id":"ce4bgth2rcd13ifvqch0","pricing_plan_id":"free"},{"bike_id":"089a9f37-f4f7-4672-9aec-5117c14a9106","system_id":"levelo_inurba_marseille","lat":43.30314,"lon":5.3689,"is_reserved":false,"is_disabled":false,"rental_uris":{"android":"levelo://app?vid=089a9f37-f4f7-4672-9aec-5117c14a9106","ios":"levelo://app?vid=089a9f37-f4f7-4672-9aec-5117c14a9106"},"vehicle_type_id":"4","last_reported":1690319136,"current_range_meters":3600,"station_id":"ce4bgqh2rcd13ifvqc5g","pricing_plan_id":"free"},{"bike_id":"2c6d2b2d-ce3f-4acc-a228-1639566fc80d","system_id":"levelo_inurba_marseille","lat":43.304606,"lon":5.379026,"is_reserved":false,"is_disabled":false,"rental_uris":{"android":"levelo://app?vid=2c6d2b2d-ce3f-4acc-a228-1639566fc80d","ios":"levelo://app?vid=2c6d2b2d-ce3f-4acc-a228-1639566fc80d"},"vehicle_type_id":"4","last_reported":1690319136,"current_range_meters":12000,"station_id":"ce4bgup2rcd13ifvqcn0","pricing_plan_id":"free"},{"bike_id":"cdfa2510-1175-421f-b83b-1dd652b6e1d1","system_id":"levelo_inurba_marseille","lat":43.302784,"lon":5.377158,"is_reserved":false,"is_disabled":false,"rental_uris":{"android":"levelo://app?vid=cdfa2510-1175-421f-b83b-1dd652b6e1d1","ios":"levelo://app?vid=cdfa2510-1175-421f-b83b-1dd652b6e1d1"},"vehicle_type_id":"4","last_reported":1690319136,"current_range_meters":15600,"station_id":"ce4bguh2rcd13ifvqcj0","pricing_plan_id":"free"},{"bike_id":"23a7998b-9851-49c9-8c30-f781eb18a649","system_id":"levelo_inurba_marseille","lat":43.301429,"lon":5.37413,"is_reserved":false,"is_disabled":false,"rental_uris":{"android":"levelo://app?vid=23a7998b-9851-49c9-8c30-f781eb18a649","ios":"levelo://app?vid=23a7998b-9851-49c9-8c30-f781eb18a649"},"vehicle_type_id":"4","last_reported":1690319136,"current_range_meters":21600,"station_id":"ce4bgs92rcd13ifvqcc0","pricing_plan_id":"free"},{"bike_id":"2283b58d-d047-4f9f-92d7-32928554a04e","system_id":"levelo_inurba_marseille","lat":43.319935,"lon":5.381699,"is_reserved":false,"is_disabled":false,"rental_uris":{"android":"levelo://app?vid=2283b58d-d047-4f9f-92d7-32928554a04e","ios":"levelo://app?vid=2283b58d-d047-4f9f-92d7-32928554a04e"},"vehicle_type_id":"4","last_reported":1690319136,"current_range_meters":6400,"station_id":"ce4bhr12rcd13ifvqhpg","pricing_plan_id":"free"},{"bike_id":"9b3add93-a0f2-450b-8f65-911fce5f6321","system_id":"levelo_inurba_marseille","lat":43.319942,"lon":5.381635,"is_reserved":false,"is_disabled":false,"rental_uris":{"android":"levelo://app?vid=9b3add93-a0f2-450b-8f65-911fce5f6321","ios":"levelo://app?vid=9b3add93-a0f2-450b-8f65-911fce5f6321"},"vehicle_type_id":"4","last_reported":1690319136,"current_range_meters":5200,"station_id":"ce4bhr12rcd13ifvqhpg","pricing_plan_id":"free"},{"bike_id":"fe7e24e8-447a-40a7-bbc9-4f1c632a3fee","system_id":"levelo_inurba_marseille","lat":43.30533,"lon":5.38419,"is_reserved":false,"is_disabled":false,"rental_uris":{"android":"levelo://app?vid=fe7e24e8-447a-40a7-bbc9-4f1c632a3fee","ios":"levelo://app?vid=fe7e24e8-447a-40a7-bbc9-4f1c632a3fee"},"vehicle_type_id":"4","last_reported":1690319136,"current_range_meters":6800,"station_id":"ce4bgg92rcd13ifvqb30","pricing_plan_id":"free"},{"bike_id":"90cd6324-8a42-4bfb-8660-f849262f292b","system_id":"levelo_inurba_marseille","lat":43.29925,"lon":5.37461,"is_reserved":false,"is_disabled":false,"rental_uris":{"android":"levelo://app?vid=90cd6324-8a42-4bfb-8660-f849262f292b","ios":"levelo://app?vid=90cd6324-8a42-4bfb-8660-f849262f292b"},"vehicle_type_id":"4","last_reported":1690319136,"current_range_meters":12000,"station_id":"ce4bgjh2rcd13ifvqbg0","pricing_plan_id":"free"},{"bike_id":"750dc9f7-599a-4cdc-bb0f-cd48e6722369","system_id":"levelo_inurba_marseille","lat":43.298433,"lon":5.362774,"is_reserved":false,"is_disabled":false,"rental_uris":{"android":"levelo://app?vid=750dc9f7-599a-4cdc-bb0f-cd48e6722369","ios":"levelo://app?vid=750dc9f7-599a-4cdc-bb0f-cd48e6722369"},"vehicle_type_id":"4","last_reported":1690319136,"current_range_meters":18400,"station_id":"ce4bgpp2rcd13ifvqc3g","pricing_plan_id":"free"},{"bike_id":"7e4842de-3b73-4de2-815c-4279f81cf108","system_id":"levelo_inurba_marseille","lat":43.29922,"lon":5.37473,"is_reserved":false,"is_disabled":false,"rental_uris":{"android":"levelo://app?vid=7e4842de-3b73-4de2-815c-4279f81cf108","ios":"levelo://app?vid=7e4842de-3b73-4de2-815c-4279f81cf108"},"vehicle_type_id":"4","last_reported":1690319136,"current_range_meters":30000,"station_id":"ce4bgjh2rcd13ifvqbg0","pricing_plan_id":"free"},{"bike_id":"ad393a9e-5ccc-40b3-b6e1-13e69ed95542","system_id":"levelo_inurba_marseille","lat":43.311722,"lon":5.387247,"is_reserved":false,"is_disabled":false,"rental_uris":{"android":"levelo://app?vid=ad393a9e-5ccc-40b3-b6e1-13e69ed95542","ios":"levelo://app?vid=ad393a9e-5ccc-40b3-b6e1-13e69ed95542"},"vehicle_type_id":"4","last_reported":1690319136,"current_range_meters":1600,"station_id":"ce4bgv12rcd13ifvqcp0","pricing_plan_id":"free"},{"bike_id":"c01a9765-a653-4804-9413-fe0d93010d24","system_id":"levelo_inurba_marseille","lat":43.311722,"lon":5.387247,"is_reserved":false,"is_disabled":false,"rental_uris":{"android":"levelo://app?vid=c01a9765-a653-4804-9413-fe0d93010d24","ios":"levelo://app?vid=c01a9765-a653-4804-9413-fe0d93010d24"},"vehicle_type_id":"4","last_reported":1690319136,"current_range_meters":12400,"station_id":"ce4bgv12rcd13ifvqcp0","pricing_plan_id":"free"},{"bike_id":"966e6a5f-206f-4021-9e03-4956e652b5a1","system_id":"levelo_inurba_marseille","lat":43.297794,"lon":5.370888,"is_reserved":false,"is_disabled":false,"rental_uris":{"android":"levelo://app?vid=966e6a5f-206f-4021-9e03-4956e652b5a1","ios":"levelo://app?vid=966e6a5f-206f-4021-9e03-4956e652b5a1"},"vehicle_type_id":"4","last_reported":1690319136,"current_range_meters":29200,"station_id":"ce4bgop2rcd13ifvqc1g","pricing_plan_id":"free"},{"bike_id":"ea22182c-2818-4916-9d12-ae47e45e2365","system_id":"levelo_inurba_marseille","lat":43.29786,"lon":5.37104,"is_reserved":false,"is_disabled":false,"rental_uris":{"android":"levelo://app?vid=ea22182c-2818-4916-9d12-ae47e45e2365","ios":"levelo://app?vid=ea22182c-2818-4916-9d12-ae47e45e2365"},"vehicle_type_id":"4","last_reported":1690319136,"current_range_meters":31200,"station_id":"ce4bgop2rcd13ifvqc1g","pricing_plan_id":"free"},{"bike_id":"419feeae-b75a-4c1b-be43-d34d2c7bbef2","system_id":"levelo_inurba_marseille","lat":43.297794,"lon":5.370888,"is_reserved":false,"is_disabled":false,"rental_uris":{"android":"levelo://app?vid=419feeae-b75a-4c1b-be43-d34d2c7bbef2","ios":"levelo://app?vid=419feeae-b75a-4c1b-be43-d34d2c7bbef2"},"vehicle_type_id":"4","last_reported":1690319136,"current_range_meters":31600,"station_id":"ce4bgop2rcd13ifvqc1g","pricing_plan_id":"free"},{"bike_id":"479792a4-73ae-4ad9-8ed7-cc70434a4d6d","system_id":"levelo_inurba_marseille","lat":43.297863,"lon":5.371079,"is_reserved":false,"is_disabled":false,"rental_uris":{"android":"levelo://app?vid=479792a4-73ae-4ad9-8ed7-cc70434a4d6d","ios":"levelo://app?vid=479792a4-73ae-4ad9-8ed7-cc70434a4d6d"},"vehicle_type_id":"4","last_reported":1690319136,"current_range_meters":31200,"station_id":"ce4bgop2rcd13ifvqc1g","pricing_plan_id":"free"},{"bike_id":"6d110b21-e58d-4124-858a-783a64d47a2d","system_id":"levelo_inurba_marseille","lat":43.297862,"lon":5.371083,"is_reserved":false,"is_disabled":false,"rental_uris":{"android":"levelo://app?vid=6d110b21-e58d-4124-858a-783a64d47a2d","ios":"levelo://app?vid=6d110b21-e58d-4124-858a-783a64d47a2d"},"vehicle_type_id":"4","last_reported":1690319136,"current_range_meters":30800,"station_id":"ce4bgop2rcd13ifvqc1g","pricing_plan_id":"free"},{"bike_id":"3d44805f-7b9d-4c08-97ca-f19147f8c4b5","system_id":"levelo_inurba_marseille","lat":43.29786,"lon":5.371069,"is_reserved":false,"is_disabled":false,"rental_uris":{"android":"levelo://app?vid=3d44805f-7b9d-4c08-97ca-f19147f8c4b5","ios":"levelo://app?vid=3d44805f-7b9d-4c08-97ca-f19147f8c4b5"},"vehicle_type_id":"4","last_reported":1690319136,"current_range_meters":30400,"station_id":"ce4bgop2rcd13ifvqc1g","pricing_plan_id":"free"},{"bike_id":"a8724604-1bf9-4719-a612-6868024d44cf","system_id":"levelo_inurba_marseille","lat":43.297862,"lon":5.371082,"is_reserved":false,"is_disabled":false,"rental_uris":{"android":"levelo://app?vid=a8724604-1bf9-4719-a612-6868024d44cf","ios":"levelo://app?vid=a8724604-1bf9-4719-a612-6868024d44cf"},"vehicle_type_id":"4","last_reported":1690319136,"current_range_meters":31200,"station_id":"ce4bgop2rcd13ifvqc1g","pricing_plan_id":"free"},{"bike_id":"0bc8a10e-1682-4d39-90af-52a4c33d2c3a","system_id":"levelo_inurba_marseille","lat":43.297854,"lon":5.371062,"is_reserved":false,"is_disabled":false,"rental_uris":{"android":"levelo://app?vid=0bc8a10e-1682-4d39-90af-52a4c33d2c3a","ios":"levelo://app?vid=0bc8a10e-1682-4d39-90af-52a4c33d2c3a"},"vehicle_type_id":"4","last_reported":1690319136,"current_range_meters":31200,"station_id":"ce4bgop2rcd13ifvqc1g","pricing_plan_id":"free"},{"bike_id":"a5dedbf1-1439-4f9c-85cc-8ad7429d94ab","system_id":"levelo_inurba_marseille","lat":43.297794,"lon":5.370888,"is_reserved":false,"is_disabled":false,"rental_uris":{"android":"levelo://app?vid=a5dedbf1-1439-4f9c-85cc-8ad7429d94ab","ios":"levelo://app?vid=a5dedbf1-1439-4f9c-85cc-8ad7429d94ab"},"vehicle_type_id":"4","last_reported":1690319136,"current_range_meters":31200,"station_id":"ce4bgop2rcd13ifvqc1g","pricing_plan_id":"free"},{"bike_id":"6c6832f2-1648-4597-b6b4-a6364fb07656","system_id":"levelo_inurba_marseille","lat":43.297794,"lon":5.370888,"is_reserved":false,"is_disabled":false,"rental_uris":{"android":"levelo://app?vid=6c6832f2-1648-4597-b6b4-a6364fb07656","ios":"levelo://app?vid=6c6832f2-1648-4597-b6b4-a6364fb07656"},"vehicle_type_id":"4","last_reported":1690319136,"current_range_meters":31200,"station_id":"ce4bgop2rcd13ifvqc1g","pricing_plan_id":"free"},{"bike_id":"bee3b49a-9c2c-4ea6-b3f7-0cfa05d97631","system_id":"levelo_inurba_marseille","lat":43.29783,"lon":5.37109,"is_reserved":false,"is_disabled":false,"rental_uris":{"android":"levelo://app?vid=bee3b49a-9c2c-4ea6-b3f7-0cfa05d97631","ios":"levelo://app?vid=bee3b49a-9c2c-4ea6-b3f7-0cfa05d97631"},"vehicle_type_id":"4","last_reported":1690319136,"current_range_meters":31200,"station_id":"ce4bgop2rcd13ifvqc1g","pricing_plan_id":"free"},{"bike_id":"475b31fc-1bde-4784-9029-959472b377d5","system_id":"levelo_inurba_marseille","lat":43.29758,"lon":5.36925,"is_reserved":false,"is_disabled":false,"rental_uris":{"android":"levelo://app?vid=475b31fc-1bde-4784-9029-959472b377d5","ios":"levelo://app?vid=475b31fc-1bde-4784-9029-959472b377d5"},"vehicle_type_id":"4","last_reported":1690319136,"current_range_meters":30000,"station_id":"","pricing_plan_id":"free"},{"bike_id":"d5e19152-5958-44ec-bce8-e631869ba045","system_id":"levelo_inurba_marseille","lat":43.322872,"lon":5.382756,"is_reserved":false,"is_disabled":false,"rental_uris":{"android":"levelo://app?vid=d5e19152-5958-44ec-bce8-e631869ba045","ios":"levelo://app?vid=d5e19152-5958-44ec-bce8-e631869ba045"},"vehicle_type_id":"4","last_reported":1690319136,"current_range_meters":17600,"station_id":"ce4bhr12rcd13ifvqhqg","pricing_plan_id":"free"},{"bike_id":"c2c6066b-1e47-4638-8c90-bdb54e553fc9","system_id":"levelo_inurba_marseille","lat":43.29774,"lon":5.37109,"is_reserved":false,"is_disabled":false,"rental_uris":{"android":"levelo://app?vid=c2c6066b-1e47-4638-8c90-bdb54e553fc9","ios":"levelo://app?vid=c2c6066b-1e47-4638-8c90-bdb54e553fc9"},"vehicle_type_id":"4","last_reported":1690319136,"current_range_meters":31200,"station_id":"ce4bgop2rcd13ifvqc1g","pricing_plan_id":"free"},{"bike_id":"0c7d2108-a072-4ade-a12c-4807b35ce707","system_id":"levelo_inurba_marseille","lat":43.32821,"lon":5.3668,"is_reserved":false,"is_disabled":false,"rental_uris":{"android":"levelo://app?vid=0c7d2108-a072-4ade-a12c-4807b35ce707","ios":"levelo://app?vid=0c7d2108-a072-4ade-a12c-4807b35ce707"},"vehicle_type_id":"4","last_reported":1690319136,"current_range_meters":7600,"station_id":"ce4bhs92rcd13ifvqi0g","pricing_plan_id":"free"},{"bike_id":"2bdd88ed-7112-4eec-8eeb-99b49e4f8277","system_id":"levelo_inurba_marseille","lat":43.32824,"lon":5.36693,"is_reserved":false,"is_disabled":false,"rental_uris":{"android":"levelo://app?vid=2bdd88ed-7112-4eec-8eeb-99b49e4f8277","ios":"levelo://app?vid=2bdd88ed-7112-4eec-8eeb-99b49e4f8277"},"vehicle_type_id":"4","last_reported":1690319136,"current_range_meters":14400,"station_id":"ce4bhs92rcd13ifvqi0g","pricing_plan_id":"free"},{"bike_id":"a3387bb6-b4ca-425f-a712-529b7ceed56f","system_id":"levelo_inurba_marseille","lat":43.32824,"lon":5.36684,"is_reserved":false,"is_disabled":false,"rental_uris":{"android":"levelo://app?vid=a3387bb6-b4ca-425f-a712-529b7ceed56f","ios":"levelo://app?vid=a3387bb6-b4ca-425f-a712-529b7ceed56f"},"vehicle_type_id":"4","last_reported":1690319136,"current_range_meters":800,"station_id":"ce4bhs92rcd13ifvqi0g","pricing_plan_id":"free"},{"bike_id":"639e2a24-816e-45e6-a1b4-fc69f231d7b7","system_id":"levelo_inurba_marseille","lat":43.32826,"lon":5.36687,"is_reserved":false,"is_disabled":false,"rental_uris":{"android":"levelo://app?vid=639e2a24-816e-45e6-a1b4-fc69f231d7b7","ios":"levelo://app?vid=639e2a24-816e-45e6-a1b4-fc69f231d7b7"},"vehicle_type_id":"4","last_reported":1690319136,"current_range_meters":12400,"station_id":"ce4bhs92rcd13ifvqi0g","pricing_plan_id":"free"},{"bike_id":"42e7e2ea-edb2-4143-b36a-ec328e76506c","system_id":"levelo_inurba_marseille","lat":43.32832,"lon":5.36693,"is_reserved":false,"is_disabled":false,"rental_uris":{"android":"levelo://app?vid=42e7e2ea-edb2-4143-b36a-ec328e76506c","ios":"levelo://app?vid=42e7e2ea-edb2-4143-b36a-ec328e76506c"},"vehicle_type_id":"4","last_reported":1690319136,"current_range_meters":22000,"station_id":"ce4bhs92rcd13ifvqi0g","pricing_plan_id":"free"},{"bike_id":"f376f06a-3cdf-4388-ade3-9cb3ea05c059","system_id":"levelo_inurba_marseille","lat":43.297163,"lon":5.365866,"is_reserved":false,"is_disabled":false,"rental_uris":{"android":"levelo://app?vid=f376f06a-3cdf-4388-ade3-9cb3ea05c059","ios":"levelo://app?vid=f376f06a-3cdf-4388-ade3-9cb3ea05c059"},"vehicle_type_id":"4","last_reported":1690319136,"current_range_meters":31200,"station_id":"ce4bgn12rcd13ifvqbt0","pricing_plan_id":"free"},{"bike_id":"85fff363-9e83-4719-a04c-6fa175f220d5","system_id":"levelo_inurba_marseille","lat":43.295748,"lon":5.37522,"is_reserved":false,"is_disabled":false,"rental_uris":{"android":"levelo://app?vid=85fff363-9e83-4719-a04c-6fa175f220d5","ios":"levelo://app?vid=85fff363-9e83-4719-a04c-6fa175f220d5"},"vehicle_type_id":"4","last_reported":1690319136,"current_range_meters":4800,"station_id":"ce4bgh92rcd13ifvqb50","pricing_plan_id":"free"},{"bike_id":"ea3f9402-7a7c-462e-aafe-ebc9e02f96fd","system_id":"levelo_inurba_marseille","lat":43.29615,"lon":5.37173,"is_reserved":false,"is_disabled":false,"rental_uris":{"android":"levelo://app?vid=ea3f9402-7a7c-462e-aafe-ebc9e02f96fd","ios":"levelo://app?vid=ea3f9402-7a7c-462e-aafe-ebc9e02f96fd"},"vehicle_type_id":"4","last_reported":1690319136,"current_range_meters":18800,"station_id":"","pricing_plan_id":"free"},{"bike_id":"9eb05f1f-25fa-476c-9893-ffee5a591424","system_id":"levelo_inurba_marseille","lat":43.29918,"lon":5.38099,"is_reserved":false,"is_disabled":false,"rental_uris":{"android":"levelo://app?vid=9eb05f1f-25fa-476c-9893-ffee5a591424","ios":"levelo://app?vid=9eb05f1f-25fa-476c-9893-ffee5a591424"},"vehicle_type_id":"4","last_reported":1690319136,"current_range_meters":23200,"station_id":"ce4bgj12rcd13ifvqbc0","pricing_plan_id":"free"},{"bike_id":"a4735eae-6bca-4875-bf6f-326d29f45d15","system_id":"levelo_inurba_marseille","lat":43.296935,"lon":5.376544,"is_reserved":false,"is_disabled":false,"rental_uris":{"android":"levelo://app?vid=a4735eae-6bca-4875-bf6f-326d29f45d15","ios":"levelo://app?vid=a4735eae-6bca-4875-bf6f-326d29f45d15"},"vehicle_type_id":"4","last_reported":1690319136,"current_range_meters":18000,"station_id":"ce4bgkh2rcd13ifvqbl0","pricing_plan_id":"free"},{"bike_id":"2323c14e-2f73-4a35-83c3-2f780365a431","system_id":"levelo_inurba_marseille","lat":43.296935,"lon":5.376544,"is_reserved":false,"is_disabled":false,"rental_uris":{"android":"levelo://app?vid=2323c14e-2f73-4a35-83c3-2f780365a431","ios":"levelo://app?vid=2323c14e-2f73-4a35-83c3-2f780365a431"},"vehicle_type_id":"4","last_reported":1690319136,"current_range_meters":6400,"station_id":"ce4bgkh2rcd13ifvqbl0","pricing_plan_id":"free"},{"bike_id":"e553fb4d-98f1-45e3-8874-88bd80edf68d","system_id":"levelo_inurba_marseille","lat":43.299028,"lon":5.381509,"is_reserved":false,"is_disabled":false,"rental_uris":{"android":"levelo://app?vid=e553fb4d-98f1-45e3-8874-88bd80edf68d","ios":"levelo://app?vid=e553fb4d-98f1-45e3-8874-88bd80edf68d"},"vehicle_type_id":"4","last_reported":1690319136,"current_range_meters":31600,"station_id":"ce4bgj12rcd13ifvqbc0","pricing_plan_id":"free"},{"bike_id":"20a3e6e7-ae58-4ca6-a260-356367b020ff","system_id":"levelo_inurba_marseille","lat":43.299028,"lon":5.381509,"is_reserved":false,"is_disabled":false,"rental_uris":{"android":"levelo://app?vid=20a3e6e7-ae58-4ca6-a260-356367b020ff","ios":"levelo://app?vid=20a3e6e7-ae58-4ca6-a260-356367b020ff"},"vehicle_type_id":"4","last_reported":1690319136,"current_range_meters":28000,"station_id":"ce4bgj12rcd13ifvqbc0","pricing_plan_id":"free"},{"bike_id":"5abbe953-e59e-4b5c-9a54-7f183360d95d","system_id":"levelo_inurba_marseille","lat":43.299028,"lon":5.381509,"is_reserved":false,"is_disabled":false,"rental_uris":{"android":"levelo://app?vid=5abbe953-e59e-4b5c-9a54-7f183360d95d","ios":"levelo://app?vid=5abbe953-e59e-4b5c-9a54-7f183360d95d"},"vehicle_type_id":"4","last_reported":1690319136,"current_range_meters":30800,"station_id":"ce4bgj12rcd13ifvqbc0","pricing_plan_id":"free"},{"bike_id":"821c5723-97d4-4c46-979d-8e568943616f","system_id":"levelo_inurba_marseille","lat":43.299028,"lon":5.381509,"is_reserved":false,"is_disabled":false,"rental_uris":{"android":"levelo://app?vid=821c5723-97d4-4c46-979d-8e568943616f","ios":"levelo://app?vid=821c5723-97d4-4c46-979d-8e568943616f"},"vehicle_type_id":"4","last_reported":1690319136,"current_range_meters":11600,"station_id":"ce4bgj12rcd13ifvqbc0","pricing_plan_id":"free"},{"bike_id":"5f970b67-9725-48fe-8056-14056cb0b944","system_id":"levelo_inurba_marseille","lat":43.296935,"lon":5.376544,"is_reserved":false,"is_disabled":false,"rental_uris":{"android":"levelo://app?vid=5f970b67-9725-48fe-8056-14056cb0b944","ios":"levelo://app?vid=5f970b67-9725-48fe-8056-14056cb0b944"},"vehicle_type_id":"4","last_reported":1690319136,"current_range_meters":21200,"station_id":"ce4bgkh2rcd13ifvqbl0","pricing_plan_id":"free"},{"bike_id":"2731f2eb-f12a-4f1c-a89c-bdfaaec01c66","system_id":"levelo_inurba_marseille","lat":43.309589,"lon":5.390258,"is_reserved":false,"is_disabled":false,"rental_uris":{"android":"levelo://app?vid=2731f2eb-f12a-4f1c-a89c-bdfaaec01c66","ios":"levelo://app?vid=2731f2eb-f12a-4f1c-a89c-bdfaaec01c66"},"vehicle_type_id":"4","last_reported":1690319136,"current_range_meters":24400,"station_id":"ce4bgup2rcd13ifvqco0","pricing_plan_id":"free"},{"bike_id":"f4666395-a131-4937-b0fa-e77fb9e24729","system_id":"levelo_inurba_marseille","lat":43.309589,"lon":5.390258,"is_reserved":false,"is_disabled":false,"rental_uris":{"android":"levelo://app?vid=f4666395-a131-4937-b0fa-e77fb9e24729","ios":"levelo://app?vid=f4666395-a131-4937-b0fa-e77fb9e24729"},"vehicle_type_id":"4","last_reported":1690319136,"current_range_meters":20000,"station_id":"ce4bgup2rcd13ifvqco0","pricing_plan_id":"free"},{"bike_id":"b310f729-85ce-421c-8421-de568e290733","system_id":"levelo_inurba_marseille","lat":43.309589,"lon":5.390258,"is_reserved":false,"is_disabled":false,"rental_uris":{"android":"levelo://app?vid=b310f729-85ce-421c-8421-de568e290733","ios":"levelo://app?vid=b310f729-85ce-421c-8421-de568e290733"},"vehicle_type_id":"4","last_reported":1690319136,"current_range_meters":16000,"station_id":"ce4bgup2rcd13ifvqco0","pricing_plan_id":"free"},{"bike_id":"edd9c18a-6126-42c1-bf8f-1f46592aa7d8","system_id":"levelo_inurba_marseille","lat":43.30945,"lon":5.39043,"is_reserved":false,"is_disabled":false,"rental_uris":{"android":"levelo://app?vid=edd9c18a-6126-42c1-bf8f-1f46592aa7d8","ios":"levelo://app?vid=edd9c18a-6126-42c1-bf8f-1f46592aa7d8"},"vehicle_type_id":"4","last_reported":1690319136,"current_range_meters":21200,"station_id":"ce4bgup2rcd13ifvqco0","pricing_plan_id":"free"},{"bike_id":"1f524139-5b0e-4af6-9023-120ceec5f4b8","system_id":"levelo_inurba_marseille","lat":43.309589,"lon":5.390258,"is_reserved":false,"is_disabled":false,"rental_uris":{"android":"levelo://app?vid=1f524139-5b0e-4af6-9023-120ceec5f4b8","ios":"levelo://app?vid=1f524139-5b0e-4af6-9023-120ceec5f4b8"},"vehicle_type_id":"4","last_reported":1690319136,"current_range_meters":17600,"station_id":"ce4bgup2rcd13ifvqco0","pricing_plan_id":"free"},{"bike_id":"6d655131-56c4-4b2c-a516-08e20e25b707","system_id":"levelo_inurba_marseille","lat":43.317557,"lon":5.390173,"is_reserved":false,"is_disabled":false,"rental_uris":{"android":"levelo://app?vid=6d655131-56c4-4b2c-a516-08e20e25b707","ios":"levelo://app?vid=6d655131-56c4-4b2c-a516-08e20e25b707"},"vehicle_type_id":"4","last_reported":1690319136,"current_range_meters":31600,"station_id":"ce4bhqp2rcd13ifvqhng","pricing_plan_id":"free"},{"bike_id":"f0d0d4b9-c9d5-4616-aed3-54da424c8aee","system_id":"levelo_inurba_marseille","lat":43.31761,"lon":5.39012,"is_reserved":false,"is_disabled":false,"rental_uris":{"android":"levelo://app?vid=f0d0d4b9-c9d5-4616-aed3-54da424c8aee","ios":"levelo://app?vid=f0d0d4b9-c9d5-4616-aed3-54da424c8aee"},"vehicle_type_id":"4","last_reported":1690319136,"current_range_meters":26000,"station_id":"ce4bhqp2rcd13ifvqhng","pricing_plan_id":"free"},{"bike_id":"50a6ef4f-52c9-4747-9223-407bc1883781","system_id":"levelo_inurba_marseille","lat":43.31758,"lon":5.39017,"is_reserved":false,"is_disabled":false,"rental_uris":{"android":"levelo://app?vid=50a6ef4f-52c9-4747-9223-407bc1883781","ios":"levelo://app?vid=50a6ef4f-52c9-4747-9223-407bc1883781"},"vehicle_type_id":"4","last_reported":1690319136,"current_range_meters":29200,"station_id":"ce4bhqp2rcd13ifvqhng","pricing_plan_id":"free"},{"bike_id":"8c600855-2962-456a-8646-af430e1398db","system_id":"levelo_inurba_marseille","lat":43.317557,"lon":5.390173,"is_reserved":false,"is_disabled":false,"rental_uris":{"android":"levelo://app?vid=8c600855-2962-456a-8646-af430e1398db","ios":"levelo://app?vid=8c600855-2962-456a-8646-af430e1398db"},"vehicle_type_id":"4","last_reported":1690319136,"current_range_meters":18400,"station_id":"ce4bhqp2rcd13ifvqhng","pricing_plan_id":"free"},{"bike_id":"8d1478a9-8a79-4a64-9f65-9677ffa57e37","system_id":"levelo_inurba_marseille","lat":43.304278,"lon":5.388868,"is_reserved":false,"is_disabled":false,"rental_uris":{"android":"levelo://app?vid=8d1478a9-8a79-4a64-9f65-9677ffa57e37","ios":"levelo://app?vid=8d1478a9-8a79-4a64-9f65-9677ffa57e37"},"vehicle_type_id":"4","last_reported":1690319136,"current_range_meters":800,"station_id":"ce4bgk12rcd13ifvqbi0","pricing_plan_id":"free"},{"bike_id":"78796621-c3dd-4cdd-84a5-a68766f343e3","system_id":"levelo_inurba_marseille","lat":43.30423,"lon":5.38883,"is_reserved":false,"is_disabled":false,"rental_uris":{"android":"levelo://app?vid=78796621-c3dd-4cdd-84a5-a68766f343e3","ios":"levelo://app?vid=78796621-c3dd-4cdd-84a5-a68766f343e3"},"vehicle_type_id":"4","last_reported":1690319136,"current_range_meters":9600,"station_id":"ce4bgk12rcd13ifvqbi0","pricing_plan_id":"free"},{"bike_id":"d4306048-4fe6-4ce6-a4a5-14a53d7ca556","system_id":"levelo_inurba_marseille","lat":43.295748,"lon":5.37522,"is_reserved":false,"is_disabled":false,"rental_uris":{"android":"levelo://app?vid=d4306048-4fe6-4ce6-a4a5-14a53d7ca556","ios":"levelo://app?vid=d4306048-4fe6-4ce6-a4a5-14a53d7ca556"},"vehicle_type_id":"4","last_reported":1690319136,"current_range_meters":12400,"station_id":"ce4bgh92rcd13ifvqb50","pricing_plan_id":"free"},{"bike_id":"fb2576f5-9bd8-4648-bacc-c8772e699153","system_id":"levelo_inurba_marseille","lat":43.29524,"lon":5.37436,"is_reserved":false,"is_disabled":false,"rental_uris":{"android":"levelo://app?vid=fb2576f5-9bd8-4648-bacc-c8772e699153","ios":"levelo://app?vid=fb2576f5-9bd8-4648-bacc-c8772e699153"},"vehicle_type_id":"4","last_reported":1690319136,"current_range_meters":28800,"station_id":"","pricing_plan_id":"free"},{"bike_id":"a2936cc3-9b93-47cd-bc26-b6949fe15a30","system_id":"levelo_inurba_marseille","lat":43.299707,"lon":5.384859,"is_reserved":false,"is_disabled":false,"rental_uris":{"android":"levelo://app?vid=a2936cc3-9b93-47cd-bc26-b6949fe15a30","ios":"levelo://app?vid=a2936cc3-9b93-47cd-bc26-b6949fe15a30"},"vehicle_type_id":"4","last_reported":1690319136,"current_range_meters":7600,"station_id":"ce4bgj92rcd13ifvqbd0","pricing_plan_id":"free"},{"bike_id":"3dd4f0f6-77ad-4d5b-90f7-854514428971","system_id":"levelo_inurba_marseille","lat":43.299707,"lon":5.384859,"is_reserved":false,"is_disabled":false,"rental_uris":{"android":"levelo://app?vid=3dd4f0f6-77ad-4d5b-90f7-854514428971","ios":"levelo://app?vid=3dd4f0f6-77ad-4d5b-90f7-854514428971"},"vehicle_type_id":"4","last_reported":1690319136,"current_range_meters":7600,"station_id":"ce4bgj92rcd13ifvqbd0","pricing_plan_id":"free"},{"bike_id":"0f0be926-fd4b-426c-a512-055010b28d6b","system_id":"levelo_inurba_marseille","lat":43.299707,"lon":5.384859,"is_reserved":false,"is_disabled":false,"rental_uris":{"android":"levelo://app?vid=0f0be926-fd4b-426c-a512-055010b28d6b","ios":"levelo://app?vid=0f0be926-fd4b-426c-a512-055010b28d6b"},"vehicle_type_id":"4","last_reported":1690319136,"current_range_meters":29200,"station_id":"ce4bgj92rcd13ifvqbd0","pricing_plan_id":"free"},{"bike_id":"8e639fcf-4e33-4a4b-b869-574fd95a04af","system_id":"levelo_inurba_marseille","lat":43.299717,"lon":5.384845,"is_reserved":false,"is_disabled":false,"rental_uris":{"android":"levelo://app?vid=8e639fcf-4e33-4a4b-b869-574fd95a04af","ios":"levelo://app?vid=8e639fcf-4e33-4a4b-b869-574fd95a04af"},"vehicle_type_id":"4","last_reported":1690319136,"current_range_meters":4000,"station_id":"ce4bgj92rcd13ifvqbd0","pricing_plan_id":"free"},{"bike_id":"8e7bf575-22a5-4c54-856c-e4b5fbca628b","system_id":"levelo_inurba_marseille","lat":43.299717,"lon":5.384845,"is_reserved":false,"is_disabled":false,"rental_uris":{"android":"levelo://app?vid=8e7bf575-22a5-4c54-856c-e4b5fbca628b","ios":"levelo://app?vid=8e7bf575-22a5-4c54-856c-e4b5fbca628b"},"vehicle_type_id":"4","last_reported":1690319136,"current_range_meters":18800,"station_id":"ce4bgj92rcd13ifvqbd0","pricing_plan_id":"free"},{"bike_id":"285bf5b7-0279-47f4-a104-b51df7628d5d","system_id":"levelo_inurba_marseille","lat":43.299717,"lon":5.384845,"is_reserved":false,"is_disabled":false,"rental_uris":{"android":"levelo://app?vid=285bf5b7-0279-47f4-a104-b51df7628d5d","ios":"levelo://app?vid=285bf5b7-0279-47f4-a104-b51df7628d5d"},"vehicle_type_id":"4","last_reported":1690319136,"current_range_meters":26000,"station_id":"ce4bgj92rcd13ifvqbd0","pricing_plan_id":"free"},{"bike_id":"890ae183-e86e-4f17-b0fe-3e8eb325d029","system_id":"levelo_inurba_marseille","lat":43.299717,"lon":5.384845,"is_reserved":false,"is_disabled":false,"rental_uris":{"android":"levelo://app?vid=890ae183-e86e-4f17-b0fe-3e8eb325d029","ios":"levelo://app?vid=890ae183-e86e-4f17-b0fe-3e8eb325d029"},"vehicle_type_id":"4","last_reported":1690319136,"current_range_meters":10400,"station_id":"ce4bgj92rcd13ifvqbd0","pricing_plan_id":"free"},{"bike_id":"b97da17e-71da-4aa9-bd18-94e6d2f3ad1f","system_id":"levelo_inurba_marseille","lat":43.299724,"lon":5.384848,"is_reserved":false,"is_disabled":false,"rental_uris":{"android":"levelo://app?vid=b97da17e-71da-4aa9-bd18-94e6d2f3ad1f","ios":"levelo://app?vid=b97da17e-71da-4aa9-bd18-94e6d2f3ad1f"},"vehicle_type_id":"4","last_reported":1690319136,"current_range_meters":10400,"station_id":"ce4bgj92rcd13ifvqbd0","pricing_plan_id":"free"},{"bike_id":"7ebd33b2-dbdf-402a-a8a8-4605c96da92c","system_id":"levelo_inurba_marseille","lat":43.299724,"lon":5.384848,"is_reserved":false,"is_disabled":false,"rental_uris":{"android":"levelo://app?vid=7ebd33b2-dbdf-402a-a8a8-4605c96da92c","ios":"levelo://app?vid=7ebd33b2-dbdf-402a-a8a8-4605c96da92c"},"vehicle_type_id":"4","last_reported":1690319136,"current_range_meters":28800,"station_id":"ce4bgj92rcd13ifvqbd0","pricing_plan_id":"free"},{"bike_id":"819f354b-a0b9-44f3-87c1-cfc255fea769","system_id":"levelo_inurba_marseille","lat":43.29512,"lon":5.37512,"is_reserved":false,"is_disabled":false,"rental_uris":{"android":"levelo://app?vid=819f354b-a0b9-44f3-87c1-cfc255fea769","ios":"levelo://app?vid=819f354b-a0b9-44f3-87c1-cfc255fea769"},"vehicle_type_id":"4","last_reported":1690319136,"current_range_meters":16400,"station_id":"","pricing_plan_id":"free"},{"bike_id":"f7599574-7f97-4c07-8aea-8ae5a8e05a97","system_id":"levelo_inurba_marseille","lat":43.32364,"lon":5.38877,"is_reserved":false,"is_disabled":false,"rental_uris":{"android":"levelo://app?vid=f7599574-7f97-4c07-8aea-8ae5a8e05a97","ios":"levelo://app?vid=f7599574-7f97-4c07-8aea-8ae5a8e05a97"},"vehicle_type_id":"4","last_reported":1690319136,"current_range_meters":28000,"station_id":"ce4bhqp2rcd13ifvqhog","pricing_plan_id":"free"},{"bike_id":"e3c59db1-acd6-44c6-97f3-35c7602ef342","system_id":"levelo_inurba_marseille","lat":43.32364,"lon":5.38877,"is_reserved":false,"is_disabled":false,"rental_uris":{"android":"levelo://app?vid=e3c59db1-acd6-44c6-97f3-35c7602ef342","ios":"levelo://app?vid=e3c59db1-acd6-44c6-97f3-35c7602ef342"},"vehicle_type_id":"4","last_reported":1690319136,"current_range_meters":1200,"station_id":"ce4bhqp2rcd13ifvqhog","pricing_plan_id":"free"},{"bike_id":"425a80e7-065f-4281-be2e-973c7306c26f","system_id":"levelo_inurba_marseille","lat":43.29602,"lon":5.381084,"is_reserved":false,"is_disabled":false,"rental_uris":{"android":"levelo://app?vid=425a80e7-065f-4281-be2e-973c7306c26f","ios":"levelo://app?vid=425a80e7-065f-4281-be2e-973c7306c26f"},"vehicle_type_id":"4","last_reported":1690319136,"current_range_meters":22400,"station_id":"ce4bgl12rcd13ifvqbo0","pricing_plan_id":"free"},{"bike_id":"9c1f000a-b44f-424e-a93b-dc86911322e3","system_id":"levelo_inurba_marseille","lat":43.29595,"lon":5.38107,"is_reserved":false,"is_disabled":false,"rental_uris":{"android":"levelo://app?vid=9c1f000a-b44f-424e-a93b-dc86911322e3","ios":"levelo://app?vid=9c1f000a-b44f-424e-a93b-dc86911322e3"},"vehicle_type_id":"4","last_reported":1690319136,"current_range_meters":30800,"station_id":"","pricing_plan_id":"free"},{"bike_id":"bd4a080f-dd0c-4d1e-853d-975dbaa410d9","system_id":"levelo_inurba_marseille","lat":43.293,"lon":5.37181,"is_reserved":false,"is_disabled":false,"rental_uris":{"android":"levelo://app?vid=bd4a080f-dd0c-4d1e-853d-975dbaa410d9","ios":"levelo://app?vid=bd4a080f-dd0c-4d1e-853d-975dbaa410d9"},"vehicle_type_id":"4","last_reported":1690319136,"current_range_meters":2000,"station_id":"ce4bgh92rcd13ifvqb40","pricing_plan_id":"free"},{"bike_id":"20e0eda0-95ac-4a52-b5f0-505f6a4f9bdd","system_id":"levelo_inurba_marseille","lat":43.292749,"lon":5.368398,"is_reserved":false,"is_disabled":false,"rental_uris":{"android":"levelo://app?vid=20e0eda0-95ac-4a52-b5f0-505f6a4f9bdd","ios":"levelo://app?vid=20e0eda0-95ac-4a52-b5f0-505f6a4f9bdd"},"vehicle_type_id":"4","last_reported":1690319136,"current_range_meters":21200,"station_id":"ce4bhbp2rcd13ifvqesg","pricing_plan_id":"free"},{"bike_id":"c0e3b19b-5c4c-439d-89a8-4d050a7e05c0","system_id":"levelo_inurba_marseille","lat":43.292749,"lon":5.368398,"is_reserved":false,"is_disabled":false,"rental_uris":{"android":"levelo://app?vid=c0e3b19b-5c4c-439d-89a8-4d050a7e05c0","ios":"levelo://app?vid=c0e3b19b-5c4c-439d-89a8-4d050a7e05c0"},"vehicle_type_id":"4","last_reported":1690319136,"current_range_meters":16000,"station_id":"ce4bhbp2rcd13ifvqesg","pricing_plan_id":"free"},{"bike_id":"6cf87a9e-97bf-4777-90cc-c8d7a31560d4","system_id":"levelo_inurba_marseille","lat":43.305994,"lon":5.393687,"is_reserved":false,"is_disabled":false,"rental_uris":{"android":"levelo://app?vid=6cf87a9e-97bf-4777-90cc-c8d7a31560d4","ios":"levelo://app?vid=6cf87a9e-97bf-4777-90cc-c8d7a31560d4"},"vehicle_type_id":"4","last_reported":1690319136,"current_range_meters":29200,"station_id":"ce4bh0p2rcd13ifvqd80","pricing_plan_id":"free"},{"bike_id":"c4b7dc72-4480-413e-a310-02cc4175fe1b","system_id":"levelo_inurba_marseille","lat":43.293009,"lon":5.374584,"is_reserved":false,"is_disabled":false,"rental_uris":{"android":"levelo://app?vid=c4b7dc72-4480-413e-a310-02cc4175fe1b","ios":"levelo://app?vid=c4b7dc72-4480-413e-a310-02cc4175fe1b"},"vehicle_type_id":"4","last_reported":1690319136,"current_range_meters":16000,"station_id":"ce4bgi12rcd13ifvqb70","pricing_plan_id":"free"},{"bike_id":"22419187-425c-4a46-b1d7-08dcc655ba12","system_id":"levelo_inurba_marseille","lat":43.29259,"lon":5.35968,"is_reserved":false,"is_disabled":false,"rental_uris":{"android":"levelo://app?vid=22419187-425c-4a46-b1d7-08dcc655ba12","ios":"levelo://app?vid=22419187-425c-4a46-b1d7-08dcc655ba12"},"vehicle_type_id":"4","last_reported":1690319136,"current_range_meters":19200,"station_id":"","pricing_plan_id":"free"},{"bike_id":"a91c7aba-5b5f-4e7f-b694-d6f7e1057058","system_id":"levelo_inurba_marseille","lat":43.2936,"lon":5.37835,"is_reserved":false,"is_disabled":false,"rental_uris":{"android":"levelo://app?vid=a91c7aba-5b5f-4e7f-b694-d6f7e1057058","ios":"levelo://app?vid=a91c7aba-5b5f-4e7f-b694-d6f7e1057058"},"vehicle_type_id":"4","last_reported":1690319136,"current_range_meters":12800,"station_id":"ce4bgjh2rcd13ifvqbf0","pricing_plan_id":"free"},{"bike_id":"38835880-35fd-4d7b-88d5-fc76e1c6fd33","system_id":"levelo_inurba_marseille","lat":43.300852,"lon":5.390859,"is_reserved":false,"is_disabled":false,"rental_uris":{"android":"levelo://app?vid=38835880-35fd-4d7b-88d5-fc76e1c6fd33","ios":"levelo://app?vid=38835880-35fd-4d7b-88d5-fc76e1c6fd33"},"vehicle_type_id":"4","last_reported":1690319136,"current_range_meters":27600,"station_id":"ce4bh192rcd13ifvqdb0","pricing_plan_id":"free"},{"bike_id":"d1993406-401e-4087-84fb-637cad22e889","system_id":"levelo_inurba_marseille","lat":43.2936,"lon":5.37835,"is_reserved":false,"is_disabled":false,"rental_uris":{"android":"levelo://app?vid=d1993406-401e-4087-84fb-637cad22e889","ios":"levelo://app?vid=d1993406-401e-4087-84fb-637cad22e889"},"vehicle_type_id":"4","last_reported":1690319136,"current_range_meters":15600,"station_id":"ce4bgjh2rcd13ifvqbf0","pricing_plan_id":"free"},{"bike_id":"ab83d1c4-2e7f-4d8d-b2b0-cf6b9884d15a","system_id":"levelo_inurba_marseille","lat":43.29222,"lon":5.36053,"is_reserved":false,"is_disabled":false,"rental_uris":{"android":"levelo://app?vid=ab83d1c4-2e7f-4d8d-b2b0-cf6b9884d15a","ios":"levelo://app?vid=ab83d1c4-2e7f-4d8d-b2b0-cf6b9884d15a"},"vehicle_type_id":"4","last_reported":1690319136,"current_range_meters":16400,"station_id":"ce4bhbh2rcd13ifvqeqg","pricing_plan_id":"free"},{"bike_id":"2825fa30-3755-4e41-b536-03ab57aab8c0","system_id":"levelo_inurba_marseille","lat":43.2922,"lon":5.36063,"is_reserved":false,"is_disabled":false,"rental_uris":{"android":"levelo://app?vid=2825fa30-3755-4e41-b536-03ab57aab8c0","ios":"levelo://app?vid=2825fa30-3755-4e41-b536-03ab57aab8c0"},"vehicle_type_id":"4","last_reported":1690319136,"current_range_meters":27200,"station_id":"ce4bhbh2rcd13ifvqeqg","pricing_plan_id":"free"},{"bike_id":"a2b57dc4-2217-462a-848c-18323207061e","system_id":"levelo_inurba_marseille","lat":43.300852,"lon":5.390859,"is_reserved":false,"is_disabled":false,"rental_uris":{"android":"levelo://app?vid=a2b57dc4-2217-462a-848c-18323207061e","ios":"levelo://app?vid=a2b57dc4-2217-462a-848c-18323207061e"},"vehicle_type_id":"4","last_reported":1690319136,"current_range_meters":25600,"station_id":"ce4bh192rcd13ifvqdb0","pricing_plan_id":"free"},{"bike_id":"62233a0d-4891-4ab0-9218-36bbcecb391a","system_id":"levelo_inurba_marseille","lat":43.291675,"lon":5.371583,"is_reserved":false,"is_disabled":false,"rental_uris":{"android":"levelo://app?vid=62233a0d-4891-4ab0-9218-36bbcecb391a","ios":"levelo://app?vid=62233a0d-4891-4ab0-9218-36bbcecb391a"},"vehicle_type_id":"4","last_reported":1690319136,"current_range_meters":13600,"station_id":"ce4bha92rcd13ifvqeh0","pricing_plan_id":"free"},{"bike_id":"a3c81df4-8a79-4c9b-b10e-aa622cfa864e","system_id":"levelo_inurba_marseille","lat":43.298764,"lon":5.388973,"is_reserved":false,"is_disabled":false,"rental_uris":{"android":"levelo://app?vid=a3c81df4-8a79-4c9b-b10e-aa622cfa864e","ios":"levelo://app?vid=a3c81df4-8a79-4c9b-b10e-aa622cfa864e"},"vehicle_type_id":"4","last_reported":1690319136,"current_range_meters":19600,"station_id":"ce4bh392rcd13ifvqdl0","pricing_plan_id":"free"},{"bike_id":"076def06-61f2-4d94-bb47-ef0fd1ee2ffe","system_id":"levelo_inurba_marseille","lat":43.291671,"lon":5.371575,"is_reserved":false,"is_disabled":false,"rental_uris":{"android":"levelo://app?vid=076def06-61f2-4d94-bb47-ef0fd1ee2ffe","ios":"levelo://app?vid=076def06-61f2-4d94-bb47-ef0fd1ee2ffe"},"vehicle_type_id":"4","last_reported":1690319136,"current_range_meters":15600,"station_id":"ce4bha92rcd13ifvqeh0","pricing_plan_id":"free"},{"bike_id":"87e7e5fc-9b94-4b49-9582-bde866858b37","system_id":"levelo_inurba_marseille","lat":43.309038,"lon":5.396546,"is_reserved":false,"is_disabled":false,"rental_uris":{"android":"levelo://app?vid=87e7e5fc-9b94-4b49-9582-bde866858b37","ios":"levelo://app?vid=87e7e5fc-9b94-4b49-9582-bde866858b37"},"vehicle_type_id":"4","last_reported":1690319136,"current_range_meters":19600,"station_id":"ce4bh012rcd13ifvqcv0","pricing_plan_id":"free"},{"bike_id":"21ee9228-2cce-446a-a8b8-a7c43cfefddf","system_id":"levelo_inurba_marseille","lat":43.31329,"lon":5.39688,"is_reserved":false,"is_disabled":false,"rental_uris":{"android":"levelo://app?vid=21ee9228-2cce-446a-a8b8-a7c43cfefddf","ios":"levelo://app?vid=21ee9228-2cce-446a-a8b8-a7c43cfefddf"},"vehicle_type_id":"4","last_reported":1690319136,"current_range_meters":20400,"station_id":"ce4bgvp2rcd13ifvqcu0","pricing_plan_id":"free"},{"bike_id":"ebbbaeb7-494f-4888-9b60-3bdf2dee896d","system_id":"levelo_inurba_marseille","lat":43.31326,"lon":5.39689,"is_reserved":false,"is_disabled":false,"rental_uris":{"android":"levelo://app?vid=ebbbaeb7-494f-4888-9b60-3bdf2dee896d","ios":"levelo://app?vid=ebbbaeb7-494f-4888-9b60-3bdf2dee896d"},"vehicle_type_id":"4","last_reported":1690319136,"current_range_meters":26800,"station_id":"ce4bgvp2rcd13ifvqcu0","pricing_plan_id":"free"},{"bike_id":"6295eed0-0c03-4d7e-aaf1-2ac027350341","system_id":"levelo_inurba_marseille","lat":43.309038,"lon":5.396546,"is_reserved":false,"is_disabled":false,"rental_uris":{"android":"levelo://app?vid=6295eed0-0c03-4d7e-aaf1-2ac027350341","ios":"levelo://app?vid=6295eed0-0c03-4d7e-aaf1-2ac027350341"},"vehicle_type_id":"4","last_reported":1690319136,"current_range_meters":6000,"station_id":"ce4bh012rcd13ifvqcv0","pricing_plan_id":"free"},{"bike_id":"c7845bd5-02e7-4e24-ae5e-65a6f85c28b6","system_id":"levelo_inurba_marseille","lat":43.31326,"lon":5.39694,"is_reserved":false,"is_disabled":false,"rental_uris":{"android":"levelo://app?vid=c7845bd5-02e7-4e24-ae5e-65a6f85c28b6","ios":"levelo://app?vid=c7845bd5-02e7-4e24-ae5e-65a6f85c28b6"},"vehicle_type_id":"4","last_reported":1690319136,"current_range_meters":8800,"station_id":"ce4bgvp2rcd13ifvqcu0","pricing_plan_id":"free"},{"bike_id":"2c9f1dbe-b976-421d-b88b-b3436a4501a7","system_id":"levelo_inurba_marseille","lat":43.31323,"lon":5.39695,"is_reserved":false,"is_disabled":false,"rental_uris":{"android":"levelo://app?vid=2c9f1dbe-b976-421d-b88b-b3436a4501a7","ios":"levelo://app?vid=2c9f1dbe-b976-421d-b88b-b3436a4501a7"},"vehicle_type_id":"4","last_reported":1690319136,"current_range_meters":3200,"station_id":"ce4bgvp2rcd13ifvqcu0","pricing_plan_id":"free"},{"bike_id":"80e0cf5e-1685-4094-84f1-6c6fc5bffeed","system_id":"levelo_inurba_marseille","lat":43.31328,"lon":5.39697,"is_reserved":false,"is_disabled":false,"rental_uris":{"android":"levelo://app?vid=80e0cf5e-1685-4094-84f1-6c6fc5bffeed","ios":"levelo://app?vid=80e0cf5e-1685-4094-84f1-6c6fc5bffeed"},"vehicle_type_id":"4","last_reported":1690319136,"current_range_meters":16800,"station_id":"ce4bgvp2rcd13ifvqcu0","pricing_plan_id":"free"},{"bike_id":"c8fd73b3-b013-48b3-ac0c-7cabff80b4f0","system_id":"levelo_inurba_marseille","lat":43.31332,"lon":5.397,"is_reserved":false,"is_disabled":false,"rental_uris":{"android":"levelo://app?vid=c8fd73b3-b013-48b3-ac0c-7cabff80b4f0","ios":"levelo://app?vid=c8fd73b3-b013-48b3-ac0c-7cabff80b4f0"},"vehicle_type_id":"4","last_reported":1690319136,"current_range_meters":10000,"station_id":"ce4bgvp2rcd13ifvqcu0","pricing_plan_id":"free"},{"bike_id":"532ca00a-07fc-4abe-9a29-4fb8f91e3195","system_id":"levelo_inurba_marseille","lat":43.30884,"lon":5.39659,"is_reserved":false,"is_disabled":false,"rental_uris":{"android":"levelo://app?vid=532ca00a-07fc-4abe-9a29-4fb8f91e3195","ios":"levelo://app?vid=532ca00a-07fc-4abe-9a29-4fb8f91e3195"},"vehicle_type_id":"4","last_reported":1690319136,"current_range_meters":29200,"station_id":"ce4bh012rcd13ifvqcv0","pricing_plan_id":"free"},{"bike_id":"f9d688a4-b6a2-4266-a87f-56e82c479951","system_id":"levelo_inurba_marseille","lat":43.30886,"lon":5.3966,"is_reserved":false,"is_disabled":false,"rental_uris":{"android":"levelo://app?vid=f9d688a4-b6a2-4266-a87f-56e82c479951","ios":"levelo://app?vid=f9d688a4-b6a2-4266-a87f-56e82c479951"},"vehicle_type_id":"4","last_reported":1690319136,"current_range_meters":3600,"station_id":"ce4bh012rcd13ifvqcv0","pricing_plan_id":"free"},{"bike_id":"74a863dc-d580-46df-b47c-6331c657d01b","system_id":"levelo_inurba_marseille","lat":43.29529,"lon":5.385581,"is_reserved":false,"is_disabled":false,"rental_uris":{"android":"levelo://app?vid=74a863dc-d580-46df-b47c-6331c657d01b","ios":"levelo://app?vid=74a863dc-d580-46df-b47c-6331c657d01b"},"vehicle_type_id":"4","last_reported":1690319136,"current_range_meters":31600,"station_id":"ce4bgih2rcd13ifvqba0","pricing_plan_id":"free"},{"bike_id":"a0af0cc1-cdb1-4843-bad4-acf35d9e38ea","system_id":"levelo_inurba_marseille","lat":43.29529,"lon":5.385581,"is_reserved":false,"is_disabled":false,"rental_uris":{"android":"levelo://app?vid=a0af0cc1-cdb1-4843-bad4-acf35d9e38ea","ios":"levelo://app?vid=a0af0cc1-cdb1-4843-bad4-acf35d9e38ea"},"vehicle_type_id":"4","last_reported":1690319136,"current_range_meters":15200,"station_id":"ce4bgih2rcd13ifvqba0","pricing_plan_id":"free"},{"bike_id":"b8b8a54c-b0c4-4d34-819d-49b683993553","system_id":"levelo_inurba_marseille","lat":43.29529,"lon":5.385581,"is_reserved":false,"is_disabled":false,"rental_uris":{"android":"levelo://app?vid=b8b8a54c-b0c4-4d34-819d-49b683993553","ios":"levelo://app?vid=b8b8a54c-b0c4-4d34-819d-49b683993553"},"vehicle_type_id":"4","last_reported":1690319136,"current_range_meters":30400,"station_id":"ce4bgih2rcd13ifvqba0","pricing_plan_id":"free"},{"bike_id":"bb61cc42-72c0-4b6d-94fc-07a441990ed6","system_id":"levelo_inurba_marseille","lat":43.29529,"lon":5.385581,"is_reserved":false,"is_disabled":false,"rental_uris":{"android":"levelo://app?vid=bb61cc42-72c0-4b6d-94fc-07a441990ed6","ios":"levelo://app?vid=bb61cc42-72c0-4b6d-94fc-07a441990ed6"},"vehicle_type_id":"4","last_reported":1690319136,"current_range_meters":14000,"station_id":"ce4bgih2rcd13ifvqba0","pricing_plan_id":"free"},{"bike_id":"cac1e185-a1f3-403d-8e13-cf3ae50c3f04","system_id":"levelo_inurba_marseille","lat":43.29529,"lon":5.385581,"is_reserved":false,"is_disabled":false,"rental_uris":{"android":"levelo://app?vid=cac1e185-a1f3-403d-8e13-cf3ae50c3f04","ios":"levelo://app?vid=cac1e185-a1f3-403d-8e13-cf3ae50c3f04"},"vehicle_type_id":"4","last_reported":1690319136,"current_range_meters":3200,"station_id":"ce4bgih2rcd13ifvqba0","pricing_plan_id":"free"},{"bike_id":"6e8875c0-830c-4e49-ae73-590a9a1d6e9a","system_id":"levelo_inurba_marseille","lat":43.29529,"lon":5.385581,"is_reserved":false,"is_disabled":false,"rental_uris":{"android":"levelo://app?vid=6e8875c0-830c-4e49-ae73-590a9a1d6e9a","ios":"levelo://app?vid=6e8875c0-830c-4e49-ae73-590a9a1d6e9a"},"vehicle_type_id":"4","last_reported":1690319136,"current_range_meters":18400,"station_id":"ce4bgih2rcd13ifvqba0","pricing_plan_id":"free"},{"bike_id":"21259d08-f5e0-4f16-9f6e-55c51cae14a6","system_id":"levelo_inurba_marseille","lat":43.290779,"lon":5.371482,"is_reserved":false,"is_disabled":false,"rental_uris":{"android":"levelo://app?vid=21259d08-f5e0-4f16-9f6e-55c51cae14a6","ios":"levelo://app?vid=21259d08-f5e0-4f16-9f6e-55c51cae14a6"},"vehicle_type_id":"4","last_reported":1690319136,"current_range_meters":13200,"station_id":"ce4bh5p2rcd13ifvqe4g","pricing_plan_id":"free"},{"bike_id":"591e93a7-3f69-4122-a60a-2f61c7a5cb1a","system_id":"levelo_inurba_marseille","lat":43.290779,"lon":5.371482,"is_reserved":false,"is_disabled":false,"rental_uris":{"android":"levelo://app?vid=591e93a7-3f69-4122-a60a-2f61c7a5cb1a","ios":"levelo://app?vid=591e93a7-3f69-4122-a60a-2f61c7a5cb1a"},"vehicle_type_id":"4","last_reported":1690319136,"current_range_meters":31600,"station_id":"ce4bh5p2rcd13ifvqe4g","pricing_plan_id":"free"},{"bike_id":"d24a4677-cbb7-4aba-9563-8102bbc052d8","system_id":"levelo_inurba_marseille","lat":43.290617,"lon":5.371635,"is_reserved":false,"is_disabled":false,"rental_uris":{"android":"levelo://app?vid=d24a4677-cbb7-4aba-9563-8102bbc052d8","ios":"levelo://app?vid=d24a4677-cbb7-4aba-9563-8102bbc052d8"},"vehicle_type_id":"4","last_reported":1690319136,"current_range_meters":29200,"station_id":"","pricing_plan_id":"free"},{"bike_id":"ab63c3e0-f887-422c-a814-042e149be71d","system_id":"levelo_inurba_marseille","lat":43.302008,"lon":5.394694,"is_reserved":false,"is_disabled":false,"rental_uris":{"android":"levelo://app?vid=ab63c3e0-f887-422c-a814-042e149be71d","ios":"levelo://app?vid=ab63c3e0-f887-422c-a814-042e149be71d"},"vehicle_type_id":"4","last_reported":1690319136,"current_range_meters":18800,"station_id":"ce4bh0p2rcd13ifvqd70","pricing_plan_id":"free"},{"bike_id":"39606fa1-a175-426c-b10f-16cd5f3091c6","system_id":"levelo_inurba_marseille","lat":43.302008,"lon":5.394694,"is_reserved":false,"is_disabled":false,"rental_uris":{"android":"levelo://app?vid=39606fa1-a175-426c-b10f-16cd5f3091c6","ios":"levelo://app?vid=39606fa1-a175-426c-b10f-16cd5f3091c6"},"vehicle_type_id":"4","last_reported":1690319136,"current_range_meters":31200,"station_id":"ce4bh0p2rcd13ifvqd70","pricing_plan_id":"free"},{"bike_id":"84f62b75-5cd7-4f7e-bdac-5530ec2c9637","system_id":"levelo_inurba_marseille","lat":43.302008,"lon":5.394694,"is_reserved":false,"is_disabled":false,"rental_uris":{"android":"levelo://app?vid=84f62b75-5cd7-4f7e-bdac-5530ec2c9637","ios":"levelo://app?vid=84f62b75-5cd7-4f7e-bdac-5530ec2c9637"},"vehicle_type_id":"4","last_reported":1690319136,"current_range_meters":5200,"station_id":"ce4bh0p2rcd13ifvqd70","pricing_plan_id":"free"},{"bike_id":"b72df813-c7d6-4110-affc-0ff7721e8a8a","system_id":"levelo_inurba_marseille","lat":43.30201,"lon":5.39473,"is_reserved":false,"is_disabled":false,"rental_uris":{"android":"levelo://app?vid=b72df813-c7d6-4110-affc-0ff7721e8a8a","ios":"levelo://app?vid=b72df813-c7d6-4110-affc-0ff7721e8a8a"},"vehicle_type_id":"4","last_reported":1690319136,"current_range_meters":19200,"station_id":"ce4bh0p2rcd13ifvqd70","pricing_plan_id":"free"},{"bike_id":"a711c00c-d122-491c-a668-b110ffee2d03","system_id":"levelo_inurba_marseille","lat":43.294162,"lon":5.386292,"is_reserved":false,"is_disabled":false,"rental_uris":{"android":"levelo://app?vid=a711c00c-d122-491c-a668-b110ffee2d03","ios":"levelo://app?vid=a711c00c-d122-491c-a668-b110ffee2d03"},"vehicle_type_id":"4","last_reported":1690319136,"current_range_meters":25200,"station_id":"ce4bh2h2rcd13ifvqdh0","pricing_plan_id":"free"},{"bike_id":"13132224-d0ae-4524-be8d-dd64ceef57cd","system_id":"levelo_inurba_marseille","lat":43.294153,"lon":5.386305,"is_reserved":false,"is_disabled":false,"rental_uris":{"android":"levelo://app?vid=13132224-d0ae-4524-be8d-dd64ceef57cd","ios":"levelo://app?vid=13132224-d0ae-4524-be8d-dd64ceef57cd"},"vehicle_type_id":"4","last_reported":1690319136,"current_range_meters":19200,"station_id":"ce4bh2h2rcd13ifvqdh0","pricing_plan_id":"free"},{"bike_id":"a95ff5c6-75a8-4a51-844e-7ff31382af5c","system_id":"levelo_inurba_marseille","lat":43.294162,"lon":5.386292,"is_reserved":false,"is_disabled":false,"rental_uris":{"android":"levelo://app?vid=a95ff5c6-75a8-4a51-844e-7ff31382af5c","ios":"levelo://app?vid=a95ff5c6-75a8-4a51-844e-7ff31382af5c"},"vehicle_type_id":"4","last_reported":1690319136,"current_range_meters":5600,"station_id":"ce4bh2h2rcd13ifvqdh0","pricing_plan_id":"free"},{"bike_id":"48cac101-0491-4467-882f-8a351f86d399","system_id":"levelo_inurba_marseille","lat":43.294162,"lon":5.386292,"is_reserved":false,"is_disabled":false,"rental_uris":{"android":"levelo://app?vid=48cac101-0491-4467-882f-8a351f86d399","ios":"levelo://app?vid=48cac101-0491-4467-882f-8a351f86d399"},"vehicle_type_id":"4","last_reported":1690319136,"current_range_meters":27600,"station_id":"ce4bh2h2rcd13ifvqdh0","pricing_plan_id":"free"},{"bike_id":"4f3f38e1-c0dc-4e8e-92d1-1bae9bce150b","system_id":"levelo_inurba_marseille","lat":43.294153,"lon":5.386305,"is_reserved":false,"is_disabled":false,"rental_uris":{"android":"levelo://app?vid=4f3f38e1-c0dc-4e8e-92d1-1bae9bce150b","ios":"levelo://app?vid=4f3f38e1-c0dc-4e8e-92d1-1bae9bce150b"},"vehicle_type_id":"4","last_reported":1690319136,"current_range_meters":16000,"station_id":"ce4bh2h2rcd13ifvqdh0","pricing_plan_id":"free"},{"bike_id":"0f0d19e1-2803-480c-8308-478e209cb068","system_id":"levelo_inurba_marseille","lat":43.294162,"lon":5.386292,"is_reserved":false,"is_disabled":false,"rental_uris":{"android":"levelo://app?vid=0f0d19e1-2803-480c-8308-478e209cb068","ios":"levelo://app?vid=0f0d19e1-2803-480c-8308-478e209cb068"},"vehicle_type_id":"4","last_reported":1690319136,"current_range_meters":6000,"station_id":"ce4bh2h2rcd13ifvqdh0","pricing_plan_id":"free"},{"bike_id":"1f204543-4905-4ce7-87fc-26b35ff2f0f3","system_id":"levelo_inurba_marseille","lat":43.289184,"lon":5.366408,"is_reserved":false,"is_disabled":false,"rental_uris":{"android":"levelo://app?vid=1f204543-4905-4ce7-87fc-26b35ff2f0f3","ios":"levelo://app?vid=1f204543-4905-4ce7-87fc-26b35ff2f0f3"},"vehicle_type_id":"4","last_reported":1690319136,"current_range_meters":31600,"station_id":"ce4bhap2rcd13ifvqek0","pricing_plan_id":"free"},{"bike_id":"e42068b3-f9eb-4d37-ba88-eaa7a2d0683d","system_id":"levelo_inurba_marseille","lat":43.294162,"lon":5.386292,"is_reserved":false,"is_disabled":false,"rental_uris":{"android":"levelo://app?vid=e42068b3-f9eb-4d37-ba88-eaa7a2d0683d","ios":"levelo://app?vid=e42068b3-f9eb-4d37-ba88-eaa7a2d0683d"},"vehicle_type_id":"4","last_reported":1690319136,"current_range_meters":6000,"station_id":"ce4bh2h2rcd13ifvqdh0","pricing_plan_id":"free"},{"bike_id":"07e69af6-e66a-491d-93b2-043f91de8188","system_id":"levelo_inurba_marseille","lat":43.290327,"lon":5.375711,"is_reserved":false,"is_disabled":false,"rental_uris":{"android":"levelo://app?vid=07e69af6-e66a-491d-93b2-043f91de8188","ios":"levelo://app?vid=07e69af6-e66a-491d-93b2-043f91de8188"},"vehicle_type_id":"4","last_reported":1690319136,"current_range_meters":15600,"station_id":"ce4bh692rcd13ifvqe90","pricing_plan_id":"free"},{"bike_id":"ed65f69e-8eba-4c82-a90d-c2a94ec7a8fd","system_id":"levelo_inurba_marseille","lat":43.289184,"lon":5.366408,"is_reserved":false,"is_disabled":false,"rental_uris":{"android":"levelo://app?vid=ed65f69e-8eba-4c82-a90d-c2a94ec7a8fd","ios":"levelo://app?vid=ed65f69e-8eba-4c82-a90d-c2a94ec7a8fd"},"vehicle_type_id":"4","last_reported":1690319136,"current_range_meters":31600,"station_id":"ce4bhap2rcd13ifvqek0","pricing_plan_id":"free"},{"bike_id":"5886a947-968a-4041-a32c-e2547ad6d768","system_id":"levelo_inurba_marseille","lat":43.289468,"lon":5.363719,"is_reserved":false,"is_disabled":false,"rental_uris":{"android":"levelo://app?vid=5886a947-968a-4041-a32c-e2547ad6d768","ios":"levelo://app?vid=5886a947-968a-4041-a32c-e2547ad6d768"},"vehicle_type_id":"4","last_reported":1690319136,"current_range_meters":10400,"station_id":"ce4bhc92rcd13ifvqetg","pricing_plan_id":"free"},{"bike_id":"c07b6e57-ead2-4f67-8765-836565d3243a","system_id":"levelo_inurba_marseille","lat":43.289184,"lon":5.366408,"is_reserved":false,"is_disabled":false,"rental_uris":{"android":"levelo://app?vid=c07b6e57-ead2-4f67-8765-836565d3243a","ios":"levelo://app?vid=c07b6e57-ead2-4f67-8765-836565d3243a"},"vehicle_type_id":"4","last_reported":1690319136,"current_range_meters":30400,"station_id":"ce4bhap2rcd13ifvqek0","pricing_plan_id":"free"},{"bike_id":"a73debc3-6820-452b-aa4f-1f34cad552b8","system_id":"levelo_inurba_marseille","lat":43.289468,"lon":5.363719,"is_reserved":false,"is_disabled":false,"rental_uris":{"android":"levelo://app?vid=a73debc3-6820-452b-aa4f-1f34cad552b8","ios":"levelo://app?vid=a73debc3-6820-452b-aa4f-1f34cad552b8"},"vehicle_type_id":"4","last_reported":1690319136,"current_range_meters":6800,"station_id":"ce4bhc92rcd13ifvqetg","pricing_plan_id":"free"},{"bike_id":"d17beb3b-1b17-451c-8c57-2eb6efc207b5","system_id":"levelo_inurba_marseille","lat":43.289468,"lon":5.363719,"is_reserved":false,"is_disabled":false,"rental_uris":{"android":"levelo://app?vid=d17beb3b-1b17-451c-8c57-2eb6efc207b5","ios":"levelo://app?vid=d17beb3b-1b17-451c-8c57-2eb6efc207b5"},"vehicle_type_id":"4","last_reported":1690319136,"current_range_meters":22800,"station_id":"ce4bhc92rcd13ifvqetg","pricing_plan_id":"free"},{"bike_id":"f939db57-2d28-4c41-b189-ee158c77201b","system_id":"levelo_inurba_marseille","lat":43.289184,"lon":5.366408,"is_reserved":false,"is_disabled":false,"rental_uris":{"android":"levelo://app?vid=f939db57-2d28-4c41-b189-ee158c77201b","ios":"levelo://app?vid=f939db57-2d28-4c41-b189-ee158c77201b"},"vehicle_type_id":"4","last_reported":1690319136,"current_range_meters":11600,"station_id":"ce4bhap2rcd13ifvqek0","pricing_plan_id":"free"},{"bike_id":"5247823e-de56-4d68-bec6-be9d2f3e3e59","system_id":"levelo_inurba_marseille","lat":43.289468,"lon":5.363719,"is_reserved":false,"is_disabled":false,"rental_uris":{"android":"levelo://app?vid=5247823e-de56-4d68-bec6-be9d2f3e3e59","ios":"levelo://app?vid=5247823e-de56-4d68-bec6-be9d2f3e3e59"},"vehicle_type_id":"4","last_reported":1690319136,"current_range_meters":0,"station_id":"ce4bhc92rcd13ifvqetg","pricing_plan_id":"free"},{"bike_id":"a9cc6561-8e5d-40b1-a567-df85a547fe51","system_id":"levelo_inurba_marseille","lat":43.289468,"lon":5.363719,"is_reserved":false,"is_disabled":false,"rental_uris":{"android":"levelo://app?vid=a9cc6561-8e5d-40b1-a567-df85a547fe51","ios":"levelo://app?vid=a9cc6561-8e5d-40b1-a567-df85a547fe51"},"vehicle_type_id":"4","last_reported":1690319136,"current_range_meters":2400,"station_id":"ce4bhc92rcd13ifvqetg","pricing_plan_id":"free"},{"bike_id":"90de343c-a139-42af-983c-763c9ea12652","system_id":"levelo_inurba_marseille","lat":43.292642,"lon":5.384254,"is_reserved":false,"is_disabled":false,"rental_uris":{"android":"levelo://app?vid=90de343c-a139-42af-983c-763c9ea12652","ios":"levelo://app?vid=90de343c-a139-42af-983c-763c9ea12652"},"vehicle_type_id":"4","last_reported":1690319136,"current_range_meters":23600,"station_id":"ce4bh692rcd13ifvqea0","pricing_plan_id":"free"},{"bike_id":"19b4762e-029a-4b51-a072-8e46d60cff51","system_id":"levelo_inurba_marseille","lat":43.292642,"lon":5.384254,"is_reserved":false,"is_disabled":false,"rental_uris":{"android":"levelo://app?vid=19b4762e-029a-4b51-a072-8e46d60cff51","ios":"levelo://app?vid=19b4762e-029a-4b51-a072-8e46d60cff51"},"vehicle_type_id":"4","last_reported":1690319136,"current_range_meters":12400,"station_id":"ce4bh692rcd13ifvqea0","pricing_plan_id":"free"},{"bike_id":"814db409-f995-44a6-ae4e-9d4d9189a21b","system_id":"levelo_inurba_marseille","lat":43.292642,"lon":5.384254,"is_reserved":false,"is_disabled":false,"rental_uris":{"android":"levelo://app?vid=814db409-f995-44a6-ae4e-9d4d9189a21b","ios":"levelo://app?vid=814db409-f995-44a6-ae4e-9d4d9189a21b"},"vehicle_type_id":"4","last_reported":1690319136,"current_range_meters":4400,"station_id":"ce4bh692rcd13ifvqea0","pricing_plan_id":"free"},{"bike_id":"aacd1471-34ee-40a9-9f0b-b887072d8551","system_id":"levelo_inurba_marseille","lat":43.292642,"lon":5.384254,"is_reserved":false,"is_disabled":false,"rental_uris":{"android":"levelo://app?vid=aacd1471-34ee-40a9-9f0b-b887072d8551","ios":"levelo://app?vid=aacd1471-34ee-40a9-9f0b-b887072d8551"},"vehicle_type_id":"4","last_reported":1690319136,"current_range_meters":2800,"station_id":"ce4bh692rcd13ifvqea0","pricing_plan_id":"free"},{"bike_id":"f4926c46-10d7-424e-8f1f-e1a5e225771b","system_id":"levelo_inurba_marseille","lat":43.292642,"lon":5.384254,"is_reserved":false,"is_disabled":false,"rental_uris":{"android":"levelo://app?vid=f4926c46-10d7-424e-8f1f-e1a5e225771b","ios":"levelo://app?vid=f4926c46-10d7-424e-8f1f-e1a5e225771b"},"vehicle_type_id":"4","last_reported":1690319136,"current_range_meters":19200,"station_id":"ce4bh692rcd13ifvqea0","pricing_plan_id":"free"},{"bike_id":"d3b1e8c3-fd75-48a4-bb1b-6a6675a9fa72","system_id":"levelo_inurba_marseille","lat":43.304296,"lon":5.397513,"is_reserved":false,"is_disabled":false,"rental_uris":{"android":"levelo://app?vid=d3b1e8c3-fd75-48a4-bb1b-6a6675a9fa72","ios":"levelo://app?vid=d3b1e8c3-fd75-48a4-bb1b-6a6675a9fa72"},"vehicle_type_id":"4","last_reported":1690319136,"current_range_meters":25600,"station_id":"ce4bh092rcd13ifvqd20","pricing_plan_id":"free"},{"bike_id":"99f4dfe6-1db7-401e-b9e6-2f903fda5570","system_id":"levelo_inurba_marseille","lat":43.29261,"lon":5.38447,"is_reserved":false,"is_disabled":false,"rental_uris":{"android":"levelo://app?vid=99f4dfe6-1db7-401e-b9e6-2f903fda5570","ios":"levelo://app?vid=99f4dfe6-1db7-401e-b9e6-2f903fda5570"},"vehicle_type_id":"4","last_reported":1690319136,"current_range_meters":4800,"station_id":"ce4bh692rcd13ifvqea0","pricing_plan_id":"free"},{"bike_id":"87589821-7154-4309-bdbe-052a0dd71dfc","system_id":"levelo_inurba_marseille","lat":43.29258,"lon":5.38443,"is_reserved":false,"is_disabled":false,"rental_uris":{"android":"levelo://app?vid=87589821-7154-4309-bdbe-052a0dd71dfc","ios":"levelo://app?vid=87589821-7154-4309-bdbe-052a0dd71dfc"},"vehicle_type_id":"4","last_reported":1690319136,"current_range_meters":0,"station_id":"ce4bh692rcd13ifvqea0","pricing_plan_id":"free"},{"bike_id":"95d5d528-f0e0-41d7-af12-6312dd5a5801","system_id":"levelo_inurba_marseille","lat":43.292642,"lon":5.384254,"is_reserved":false,"is_disabled":false,"rental_uris":{"android":"levelo://app?vid=95d5d528-f0e0-41d7-af12-6312dd5a5801","ios":"levelo://app?vid=95d5d528-f0e0-41d7-af12-6312dd5a5801"},"vehicle_type_id":"4","last_reported":1690319136,"current_range_meters":26000,"station_id":"ce4bh692rcd13ifvqea0","pricing_plan_id":"free"},{"bike_id":"3f8f7c86-ebbe-4cf3-8501-8ac21722a33a","system_id":"levelo_inurba_marseille","lat":43.29261,"lon":5.38451,"is_reserved":false,"is_disabled":false,"rental_uris":{"android":"levelo://app?vid=3f8f7c86-ebbe-4cf3-8501-8ac21722a33a","ios":"levelo://app?vid=3f8f7c86-ebbe-4cf3-8501-8ac21722a33a"},"vehicle_type_id":"4","last_reported":1690319136,"current_range_meters":0,"station_id":"ce4bh692rcd13ifvqea0","pricing_plan_id":"free"},{"bike_id":"43a717a4-0026-4d28-a0ee-05eec393a0bc","system_id":"levelo_inurba_marseille","lat":43.292642,"lon":5.384254,"is_reserved":false,"is_disabled":false,"rental_uris":{"android":"levelo://app?vid=43a717a4-0026-4d28-a0ee-05eec393a0bc","ios":"levelo://app?vid=43a717a4-0026-4d28-a0ee-05eec393a0bc"},"vehicle_type_id":"4","last_reported":1690319136,"current_range_meters":2400,"station_id":"ce4bh692rcd13ifvqea0","pricing_plan_id":"free"},{"bike_id":"98dc00fd-9d25-42ce-bd83-345953d263c4","system_id":"levelo_inurba_marseille","lat":43.29259,"lon":5.38452,"is_reserved":false,"is_disabled":false,"rental_uris":{"android":"levelo://app?vid=98dc00fd-9d25-42ce-bd83-345953d263c4","ios":"levelo://app?vid=98dc00fd-9d25-42ce-bd83-345953d263c4"},"vehicle_type_id":"4","last_reported":1690319136,"current_range_meters":28400,"station_id":"ce4bh692rcd13ifvqea0","pricing_plan_id":"free"},{"bike_id":"3b4f623d-500c-416b-9b24-a19ccfebdc50","system_id":"levelo_inurba_marseille","lat":43.29256,"lon":5.38446,"is_reserved":false,"is_disabled":false,"rental_uris":{"android":"levelo://app?vid=3b4f623d-500c-416b-9b24-a19ccfebdc50","ios":"levelo://app?vid=3b4f623d-500c-416b-9b24-a19ccfebdc50"},"vehicle_type_id":"4","last_reported":1690319136,"current_range_meters":6800,"station_id":"ce4bh692rcd13ifvqea0","pricing_plan_id":"free"},{"bike_id":"76dac345-5e0a-427f-a66b-bc98fa56fc1f","system_id":"levelo_inurba_marseille","lat":43.29253,"lon":5.38442,"is_reserved":false,"is_disabled":false,"rental_uris":{"android":"levelo://app?vid=76dac345-5e0a-427f-a66b-bc98fa56fc1f","ios":"levelo://app?vid=76dac345-5e0a-427f-a66b-bc98fa56fc1f"},"vehicle_type_id":"4","last_reported":1690319136,"current_range_meters":8800,"station_id":"ce4bh692rcd13ifvqea0","pricing_plan_id":"free"},{"bike_id":"9b8c46f0-80cd-4b63-b18c-cb8d98ff7e4a","system_id":"levelo_inurba_marseille","lat":43.292642,"lon":5.384254,"is_reserved":false,"is_disabled":false,"rental_uris":{"android":"levelo://app?vid=9b8c46f0-80cd-4b63-b18c-cb8d98ff7e4a","ios":"levelo://app?vid=9b8c46f0-80cd-4b63-b18c-cb8d98ff7e4a"},"vehicle_type_id":"4","last_reported":1690319136,"current_range_meters":10000,"station_id":"ce4bh692rcd13ifvqea0","pricing_plan_id":"free"},{"bike_id":"0d94d076-ffab-4079-ba9a-682efa185014","system_id":"levelo_inurba_marseille","lat":43.292642,"lon":5.384254,"is_reserved":false,"is_disabled":false,"rental_uris":{"android":"levelo://app?vid=0d94d076-ffab-4079-ba9a-682efa185014","ios":"levelo://app?vid=0d94d076-ffab-4079-ba9a-682efa185014"},"vehicle_type_id":"4","last_reported":1690319136,"current_range_meters":6400,"station_id":"ce4bh692rcd13ifvqea0","pricing_plan_id":"free"},{"bike_id":"2b614b85-75a6-46d1-8fb2-f8b4324cdce9","system_id":"levelo_inurba_marseille","lat":43.33039,"lon":5.38912,"is_reserved":false,"is_disabled":false,"rental_uris":{"android":"levelo://app?vid=2b614b85-75a6-46d1-8fb2-f8b4324cdce9","ios":"levelo://app?vid=2b614b85-75a6-46d1-8fb2-f8b4324cdce9"},"vehicle_type_id":"4","last_reported":1690319136,"current_range_meters":23200,"station_id":"ce4bhr92rcd13ifvqhrg","pricing_plan_id":"free"},{"bike_id":"592d6d2d-a145-4e07-8d6e-d07c1c9dba85","system_id":"levelo_inurba_marseille","lat":43.29246,"lon":5.38441,"is_reserved":false,"is_disabled":false,"rental_uris":{"android":"levelo://app?vid=592d6d2d-a145-4e07-8d6e-d07c1c9dba85","ios":"levelo://app?vid=592d6d2d-a145-4e07-8d6e-d07c1c9dba85"},"vehicle_type_id":"4","last_reported":1690319136,"current_range_meters":7600,"station_id":"ce4bh692rcd13ifvqea0","pricing_plan_id":"free"},{"bike_id":"8fdf7c56-0a0a-48f3-8c5d-53434843cd34","system_id":"levelo_inurba_marseille","lat":43.33041,"lon":5.38916,"is_reserved":false,"is_disabled":false,"rental_uris":{"android":"levelo://app?vid=8fdf7c56-0a0a-48f3-8c5d-53434843cd34","ios":"levelo://app?vid=8fdf7c56-0a0a-48f3-8c5d-53434843cd34"},"vehicle_type_id":"4","last_reported":1690319136,"current_range_meters":24000,"station_id":"ce4bhr92rcd13ifvqhrg","pricing_plan_id":"free"},{"bike_id":"4246a506-28cb-43ef-811c-16d8bd754c74","system_id":"levelo_inurba_marseille","lat":43.33041,"lon":5.38916,"is_reserved":false,"is_disabled":false,"rental_uris":{"android":"levelo://app?vid=4246a506-28cb-43ef-811c-16d8bd754c74","ios":"levelo://app?vid=4246a506-28cb-43ef-811c-16d8bd754c74"},"vehicle_type_id":"4","last_reported":1690319136,"current_range_meters":28400,"station_id":"ce4bhr92rcd13ifvqhrg","pricing_plan_id":"free"},{"bike_id":"06780769-6c49-42ba-9882-693b562c3a7c","system_id":"levelo_inurba_marseille","lat":43.33042,"lon":5.38918,"is_reserved":false,"is_disabled":false,"rental_uris":{"android":"levelo://app?vid=06780769-6c49-42ba-9882-693b562c3a7c","ios":"levelo://app?vid=06780769-6c49-42ba-9882-693b562c3a7c"},"vehicle_type_id":"4","last_reported":1690319136,"current_range_meters":18800,"station_id":"ce4bhr92rcd13ifvqhrg","pricing_plan_id":"free"},{"bike_id":"b3b93cc3-cf54-4f80-bd15-3efa37354db7","system_id":"levelo_inurba_marseille","lat":43.33043,"lon":5.38918,"is_reserved":false,"is_disabled":false,"rental_uris":{"android":"levelo://app?vid=b3b93cc3-cf54-4f80-bd15-3efa37354db7","ios":"levelo://app?vid=b3b93cc3-cf54-4f80-bd15-3efa37354db7"},"vehicle_type_id":"4","last_reported":1690319136,"current_range_meters":4400,"station_id":"ce4bhr92rcd13ifvqhrg","pricing_plan_id":"free"},{"bike_id":"e0e41acf-4489-42f8-b133-7935c80c0842","system_id":"levelo_inurba_marseille","lat":43.33045,"lon":5.38917,"is_reserved":false,"is_disabled":false,"rental_uris":{"android":"levelo://app?vid=e0e41acf-4489-42f8-b133-7935c80c0842","ios":"levelo://app?vid=e0e41acf-4489-42f8-b133-7935c80c0842"},"vehicle_type_id":"4","last_reported":1690319136,"current_range_meters":12000,"station_id":"ce4bhr92rcd13ifvqhrg","pricing_plan_id":"free"},{"bike_id":"7fbb5cf9-061e-4efb-a54c-4e18770d1f91","system_id":"levelo_inurba_marseille","lat":43.33044,"lon":5.38919,"is_reserved":false,"is_disabled":false,"rental_uris":{"android":"levelo://app?vid=7fbb5cf9-061e-4efb-a54c-4e18770d1f91","ios":"levelo://app?vid=7fbb5cf9-061e-4efb-a54c-4e18770d1f91"},"vehicle_type_id":"4","last_reported":1690319136,"current_range_meters":17600,"station_id":"ce4bhr92rcd13ifvqhrg","pricing_plan_id":"free"},{"bike_id":"e01c2995-b843-4429-bae2-c9d0f3af56a8","system_id":"levelo_inurba_marseille","lat":43.29241,"lon":5.38453,"is_reserved":false,"is_disabled":false,"rental_uris":{"android":"levelo://app?vid=e01c2995-b843-4429-bae2-c9d0f3af56a8","ios":"levelo://app?vid=e01c2995-b843-4429-bae2-c9d0f3af56a8"},"vehicle_type_id":"4","last_reported":1690319136,"current_range_meters":21200,"station_id":"ce4bh692rcd13ifvqea0","pricing_plan_id":"free"},{"bike_id":"1c923e87-ebd1-4aff-a79c-ed47dc377041","system_id":"levelo_inurba_marseille","lat":43.290104,"lon":5.356111,"is_reserved":false,"is_disabled":false,"rental_uris":{"android":"levelo://app?vid=1c923e87-ebd1-4aff-a79c-ed47dc377041","ios":"levelo://app?vid=1c923e87-ebd1-4aff-a79c-ed47dc377041"},"vehicle_type_id":"4","last_reported":1690319136,"current_range_meters":20400,"station_id":"ce4bhb92rcd13ifvqen0","pricing_plan_id":"free"},{"bike_id":"1e5adbc3-f47c-43a1-9cd1-6383bb43f658","system_id":"levelo_inurba_marseille","lat":43.290104,"lon":5.356111,"is_reserved":false,"is_disabled":false,"rental_uris":{"android":"levelo://app?vid=1e5adbc3-f47c-43a1-9cd1-6383bb43f658","ios":"levelo://app?vid=1e5adbc3-f47c-43a1-9cd1-6383bb43f658"},"vehicle_type_id":"4","last_reported":1690319136,"current_range_meters":31600,"station_id":"ce4bhb92rcd13ifvqen0","pricing_plan_id":"free"},{"bike_id":"6388f2dd-6185-4d82-97d0-7625d71e1f5b","system_id":"levelo_inurba_marseille","lat":43.29001,"lon":5.35611,"is_reserved":false,"is_disabled":false,"rental_uris":{"android":"levelo://app?vid=6388f2dd-6185-4d82-97d0-7625d71e1f5b","ios":"levelo://app?vid=6388f2dd-6185-4d82-97d0-7625d71e1f5b"},"vehicle_type_id":"4","last_reported":1690319136,"current_range_meters":31200,"station_id":"ce4bhb92rcd13ifvqen0","pricing_plan_id":"free"},{"bike_id":"c4a7bd63-8b31-4ab8-9ba1-6038b084c126","system_id":"levelo_inurba_marseille","lat":43.290995,"lon":5.381361,"is_reserved":false,"is_disabled":false,"rental_uris":{"android":"levelo://app?vid=c4a7bd63-8b31-4ab8-9ba1-6038b084c126","ios":"levelo://app?vid=c4a7bd63-8b31-4ab8-9ba1-6038b084c126"},"vehicle_type_id":"4","last_reported":1690319136,"current_range_meters":19200,"station_id":"ce4bh512rcd13ifvqe2g","pricing_plan_id":"free"},{"bike_id":"1cde340a-6715-41c6-8277-e3b6d8c6fa66","system_id":"levelo_inurba_marseille","lat":43.290995,"lon":5.381361,"is_reserved":false,"is_disabled":false,"rental_uris":{"android":"levelo://app?vid=1cde340a-6715-41c6-8277-e3b6d8c6fa66","ios":"levelo://app?vid=1cde340a-6715-41c6-8277-e3b6d8c6fa66"},"vehicle_type_id":"4","last_reported":1690319136,"current_range_meters":14000,"station_id":"ce4bh512rcd13ifvqe2g","pricing_plan_id":"free"},{"bike_id":"44f5fb3b-d5ad-4671-9361-3f00473afa21","system_id":"levelo_inurba_marseille","lat":43.290104,"lon":5.356111,"is_reserved":false,"is_disabled":false,"rental_uris":{"android":"levelo://app?vid=44f5fb3b-d5ad-4671-9361-3f00473afa21","ios":"levelo://app?vid=44f5fb3b-d5ad-4671-9361-3f00473afa21"},"vehicle_type_id":"4","last_reported":1690319136,"current_range_meters":31200,"station_id":"ce4bhb92rcd13ifvqen0","pricing_plan_id":"free"},{"bike_id":"a8551fc5-5629-471c-a424-ea87caca4120","system_id":"levelo_inurba_marseille","lat":43.290995,"lon":5.381361,"is_reserved":false,"is_disabled":false,"rental_uris":{"android":"levelo://app?vid=a8551fc5-5629-471c-a424-ea87caca4120","ios":"levelo://app?vid=a8551fc5-5629-471c-a424-ea87caca4120"},"vehicle_type_id":"4","last_reported":1690319136,"current_range_meters":6000,"station_id":"ce4bh512rcd13ifvqe2g","pricing_plan_id":"free"},{"bike_id":"dad22573-df4c-418b-94d9-288f1f11b46c","system_id":"levelo_inurba_marseille","lat":43.290104,"lon":5.356111,"is_reserved":false,"is_disabled":false,"rental_uris":{"android":"levelo://app?vid=dad22573-df4c-418b-94d9-288f1f11b46c","ios":"levelo://app?vid=dad22573-df4c-418b-94d9-288f1f11b46c"},"vehicle_type_id":"4","last_reported":1690319136,"current_range_meters":31200,"station_id":"ce4bhb92rcd13ifvqen0","pricing_plan_id":"free"},{"bike_id":"1d1a7a3a-ea5c-4518-b805-50c821e9cbfd","system_id":"levelo_inurba_marseille","lat":43.290995,"lon":5.381361,"is_reserved":false,"is_disabled":false,"rental_uris":{"android":"levelo://app?vid=1d1a7a3a-ea5c-4518-b805-50c821e9cbfd","ios":"levelo://app?vid=1d1a7a3a-ea5c-4518-b805-50c821e9cbfd"},"vehicle_type_id":"4","last_reported":1690319136,"current_range_meters":20000,"station_id":"ce4bh512rcd13ifvqe2g","pricing_plan_id":"free"},{"bike_id":"9897c0b0-c964-4d04-b229-e4675244b5b1","system_id":"levelo_inurba_marseille","lat":43.290995,"lon":5.381361,"is_reserved":false,"is_disabled":false,"rental_uris":{"android":"levelo://app?vid=9897c0b0-c964-4d04-b229-e4675244b5b1","ios":"levelo://app?vid=9897c0b0-c964-4d04-b229-e4675244b5b1"},"vehicle_type_id":"4","last_reported":1690319136,"current_range_meters":2800,"station_id":"ce4bh512rcd13ifvqe2g","pricing_plan_id":"free"},{"bike_id":"4f1fbdf5-8636-49df-84c0-68318584a9fb","system_id":"levelo_inurba_marseille","lat":43.289741,"lon":5.378306,"is_reserved":false,"is_disabled":false,"rental_uris":{"android":"levelo://app?vid=4f1fbdf5-8636-49df-84c0-68318584a9fb","ios":"levelo://app?vid=4f1fbdf5-8636-49df-84c0-68318584a9fb"},"vehicle_type_id":"4","last_reported":1690319136,"current_range_meters":16000,"station_id":"ce4bh9p2rcd13ifvqed0","pricing_plan_id":"free"},{"bike_id":"d2c8c1b1-d30c-44b2-94b6-86289f04f3a7","system_id":"levelo_inurba_marseille","lat":43.29789,"lon":5.39339,"is_reserved":false,"is_disabled":false,"rental_uris":{"android":"levelo://app?vid=d2c8c1b1-d30c-44b2-94b6-86289f04f3a7","ios":"levelo://app?vid=d2c8c1b1-d30c-44b2-94b6-86289f04f3a7"},"vehicle_type_id":"4","last_reported":1690319136,"current_range_meters":3200,"station_id":"chh1huq6cuj3fo74tm60","pricing_plan_id":"free"},{"bike_id":"a272ce8e-4c5f-4810-9e7f-702309fae6a9","system_id":"levelo_inurba_marseille","lat":43.289741,"lon":5.378306,"is_reserved":false,"is_disabled":false,"rental_uris":{"android":"levelo://app?vid=a272ce8e-4c5f-4810-9e7f-702309fae6a9","ios":"levelo://app?vid=a272ce8e-4c5f-4810-9e7f-702309fae6a9"},"vehicle_type_id":"4","last_reported":1690319136,"current_range_meters":5200,"station_id":"ce4bh9p2rcd13ifvqed0","pricing_plan_id":"free"},{"bike_id":"bb380bb9-b0d8-4e28-adcc-c5857ca50209","system_id":"levelo_inurba_marseille","lat":43.297815,"lon":5.393548,"is_reserved":false,"is_disabled":false,"rental_uris":{"android":"levelo://app?vid=bb380bb9-b0d8-4e28-adcc-c5857ca50209","ios":"levelo://app?vid=bb380bb9-b0d8-4e28-adcc-c5857ca50209"},"vehicle_type_id":"4","last_reported":1690319136,"current_range_meters":27200,"station_id":"chh1huq6cuj3fo74tm60","pricing_plan_id":"free"},{"bike_id":"e4bb7ca1-e25d-4278-8062-624aad874a33","system_id":"levelo_inurba_marseille","lat":43.30303,"lon":5.39773,"is_reserved":false,"is_disabled":false,"rental_uris":{"android":"levelo://app?vid=e4bb7ca1-e25d-4278-8062-624aad874a33","ios":"levelo://app?vid=e4bb7ca1-e25d-4278-8062-624aad874a33"},"vehicle_type_id":"4","last_reported":1690319136,"current_range_meters":30000,"station_id":"","pricing_plan_id":"free"},{"bike_id":"e2f14c9e-2227-4e49-ab8d-e4a065fbaade","system_id":"levelo_inurba_marseille","lat":43.295169,"lon":5.390426,"is_reserved":false,"is_disabled":false,"rental_uris":{"android":"levelo://app?vid=e2f14c9e-2227-4e49-ab8d-e4a065fbaade","ios":"levelo://app?vid=e2f14c9e-2227-4e49-ab8d-e4a065fbaade"},"vehicle_type_id":"4","last_reported":1690319136,"current_range_meters":11200,"station_id":"ce4bh3p2rcd13ifvqdp0","pricing_plan_id":"free"},{"bike_id":"f8289e2c-52c5-4254-b8e9-deeb0ed08c00","system_id":"levelo_inurba_marseille","lat":43.29034,"lon":5.38141,"is_reserved":false,"is_disabled":false,"rental_uris":{"android":"levelo://app?vid=f8289e2c-52c5-4254-b8e9-deeb0ed08c00","ios":"levelo://app?vid=f8289e2c-52c5-4254-b8e9-deeb0ed08c00"},"vehicle_type_id":"4","last_reported":1690319136,"current_range_meters":28800,"station_id":"ce4bh4p2rcd13ifvqe1g","pricing_plan_id":"free"},{"bike_id":"c367b3ec-658e-4116-84ff-447db4680ff4","system_id":"levelo_inurba_marseille","lat":43.29023,"lon":5.38138,"is_reserved":false,"is_disabled":false,"rental_uris":{"android":"levelo://app?vid=c367b3ec-658e-4116-84ff-447db4680ff4","ios":"levelo://app?vid=c367b3ec-658e-4116-84ff-447db4680ff4"},"vehicle_type_id":"4","last_reported":1690319136,"current_range_meters":24800,"station_id":"ce4bh4p2rcd13ifvqe1g","pricing_plan_id":"free"},{"bike_id":"85d31314-bd0a-481b-8347-c6d4dd21505c","system_id":"levelo_inurba_marseille","lat":43.28856,"lon":5.358371,"is_reserved":false,"is_disabled":false,"rental_uris":{"android":"levelo://app?vid=85d31314-bd0a-481b-8347-c6d4dd21505c","ios":"levelo://app?vid=85d31314-bd0a-481b-8347-c6d4dd21505c"},"vehicle_type_id":"4","last_reported":1690319136,"current_range_meters":28000,"station_id":"ce4bhb12rcd13ifvqem0","pricing_plan_id":"free"},{"bike_id":"ca9d201a-71a1-475c-8693-9ecfe47864ad","system_id":"levelo_inurba_marseille","lat":43.312609,"lon":5.401662,"is_reserved":false,"is_disabled":false,"rental_uris":{"android":"levelo://app?vid=ca9d201a-71a1-475c-8693-9ecfe47864ad","ios":"levelo://app?vid=ca9d201a-71a1-475c-8693-9ecfe47864ad"},"vehicle_type_id":"4","last_reported":1690319136,"current_range_meters":19200,"station_id":"ce4bh092rcd13ifvqd30","pricing_plan_id":"free"},{"bike_id":"7fc4b87b-afaa-4c54-a9df-a406fc226eef","system_id":"levelo_inurba_marseille","lat":43.31274,"lon":5.40169,"is_reserved":false,"is_disabled":false,"rental_uris":{"android":"levelo://app?vid=7fc4b87b-afaa-4c54-a9df-a406fc226eef","ios":"levelo://app?vid=7fc4b87b-afaa-4c54-a9df-a406fc226eef"},"vehicle_type_id":"4","last_reported":1690319136,"current_range_meters":2400,"station_id":"ce4bh092rcd13ifvqd30","pricing_plan_id":"free"},{"bike_id":"323f9806-5f79-4c9e-be2e-0635055ea0e8","system_id":"levelo_inurba_marseille","lat":43.309371,"lon":5.401449,"is_reserved":false,"is_disabled":false,"rental_uris":{"android":"levelo://app?vid=323f9806-5f79-4c9e-be2e-0635055ea0e8","ios":"levelo://app?vid=323f9806-5f79-4c9e-be2e-0635055ea0e8"},"vehicle_type_id":"4","last_reported":1690319136,"current_range_meters":0,"station_id":"ce4bgvp2rcd13ifvqct0","pricing_plan_id":"free"},{"bike_id":"316abfd0-9dec-473a-8724-4bbf2cf08fe9","system_id":"levelo_inurba_marseille","lat":43.309371,"lon":5.401449,"is_reserved":false,"is_disabled":false,"rental_uris":{"android":"levelo://app?vid=316abfd0-9dec-473a-8724-4bbf2cf08fe9","ios":"levelo://app?vid=316abfd0-9dec-473a-8724-4bbf2cf08fe9"},"vehicle_type_id":"4","last_reported":1690319136,"current_range_meters":0,"station_id":"ce4bgvp2rcd13ifvqct0","pricing_plan_id":"free"},{"bike_id":"dfdbbd83-a88c-48f8-a69c-dc25a45eab84","system_id":"levelo_inurba_marseille","lat":43.30628,"lon":5.40085,"is_reserved":false,"is_disabled":false,"rental_uris":{"android":"levelo://app?vid=dfdbbd83-a88c-48f8-a69c-dc25a45eab84","ios":"levelo://app?vid=dfdbbd83-a88c-48f8-a69c-dc25a45eab84"},"vehicle_type_id":"4","last_reported":1690319136,"current_range_meters":16800,"station_id":"ce4bh112rcd13ifvqda0","pricing_plan_id":"free"},{"bike_id":"093121f9-54cb-40b8-9cb6-e7ea538a6c7f","system_id":"levelo_inurba_marseille","lat":43.306412,"lon":5.401035,"is_reserved":false,"is_disabled":false,"rental_uris":{"android":"levelo://app?vid=093121f9-54cb-40b8-9cb6-e7ea538a6c7f","ios":"levelo://app?vid=093121f9-54cb-40b8-9cb6-e7ea538a6c7f"},"vehicle_type_id":"4","last_reported":1690319136,"current_range_meters":1200,"station_id":"ce4bh112rcd13ifvqda0","pricing_plan_id":"free"},{"bike_id":"9b1f0281-1ce8-4471-9541-bf13c10cbb67","system_id":"levelo_inurba_marseille","lat":43.3064,"lon":5.40102,"is_reserved":false,"is_disabled":false,"rental_uris":{"android":"levelo://app?vid=9b1f0281-1ce8-4471-9541-bf13c10cbb67","ios":"levelo://app?vid=9b1f0281-1ce8-4471-9541-bf13c10cbb67"},"vehicle_type_id":"4","last_reported":1690319136,"current_range_meters":28400,"station_id":"ce4bh112rcd13ifvqda0","pricing_plan_id":"free"},{"bike_id":"c09a32f0-e219-4137-b76f-aef2d24952f9","system_id":"levelo_inurba_marseille","lat":43.298681,"lon":5.397225,"is_reserved":false,"is_disabled":false,"rental_uris":{"android":"levelo://app?vid=c09a32f0-e219-4137-b76f-aef2d24952f9","ios":"levelo://app?vid=c09a32f0-e219-4137-b76f-aef2d24952f9"},"vehicle_type_id":"4","last_reported":1690319136,"current_range_meters":20400,"station_id":"ce4bh0h2rcd13ifvqd50","pricing_plan_id":"free"},{"bike_id":"f4960c46-a465-48aa-9a69-76466d28dce5","system_id":"levelo_inurba_marseille","lat":43.286591,"lon":5.363346,"is_reserved":false,"is_disabled":false,"rental_uris":{"android":"levelo://app?vid=f4960c46-a465-48aa-9a69-76466d28dce5","ios":"levelo://app?vid=f4960c46-a465-48aa-9a69-76466d28dce5"},"vehicle_type_id":"4","last_reported":1690319136,"current_range_meters":21600,"station_id":"ce4bhah2rcd13ifvqej0","pricing_plan_id":"free"},{"bike_id":"57829706-68b3-491d-ab0a-44763117628d","system_id":"levelo_inurba_marseille","lat":43.298681,"lon":5.397225,"is_reserved":false,"is_disabled":false,"rental_uris":{"android":"levelo://app?vid=57829706-68b3-491d-ab0a-44763117628d","ios":"levelo://app?vid=57829706-68b3-491d-ab0a-44763117628d"},"vehicle_type_id":"4","last_reported":1690319136,"current_range_meters":29200,"station_id":"ce4bh0h2rcd13ifvqd50","pricing_plan_id":"free"},{"bike_id":"eb2e49f3-c956-45cf-9874-876af46b15ae","system_id":"levelo_inurba_marseille","lat":43.286593,"lon":5.363346,"is_reserved":false,"is_disabled":false,"rental_uris":{"android":"levelo://app?vid=eb2e49f3-c956-45cf-9874-876af46b15ae","ios":"levelo://app?vid=eb2e49f3-c956-45cf-9874-876af46b15ae"},"vehicle_type_id":"4","last_reported":1690319136,"current_range_meters":20000,"station_id":"ce4bhah2rcd13ifvqej0","pricing_plan_id":"free"},{"bike_id":"8b97db89-8dfc-4639-ab9d-13fc58b342a5","system_id":"levelo_inurba_marseille","lat":43.286591,"lon":5.363346,"is_reserved":false,"is_disabled":false,"rental_uris":{"android":"levelo://app?vid=8b97db89-8dfc-4639-ab9d-13fc58b342a5","ios":"levelo://app?vid=8b97db89-8dfc-4639-ab9d-13fc58b342a5"},"vehicle_type_id":"4","last_reported":1690319136,"current_range_meters":31600,"station_id":"ce4bhah2rcd13ifvqej0","pricing_plan_id":"free"},{"bike_id":"d0672855-e922-42ac-bb65-014192a527ca","system_id":"levelo_inurba_marseille","lat":43.29529,"lon":5.385581,"is_reserved":false,"is_disabled":false,"rental_uris":{"android":"levelo://app?vid=d0672855-e922-42ac-bb65-014192a527ca","ios":"levelo://app?vid=d0672855-e922-42ac-bb65-014192a527ca"},"vehicle_type_id":"4","last_reported":1690319136,"current_range_meters":7200,"station_id":"ce4bgih2rcd13ifvqba0","pricing_plan_id":"free"},{"bike_id":"2496655b-2b82-43b6-a273-10b92a776b9c","system_id":"levelo_inurba_marseille","lat":43.29865,"lon":5.39734,"is_reserved":false,"is_disabled":false,"rental_uris":{"android":"levelo://app?vid=2496655b-2b82-43b6-a273-10b92a776b9c","ios":"levelo://app?vid=2496655b-2b82-43b6-a273-10b92a776b9c"},"vehicle_type_id":"4","last_reported":1690319136,"current_range_meters":15600,"station_id":"ce4bh0h2rcd13ifvqd50","pricing_plan_id":"free"},{"bike_id":"6272cc87-84e5-4ba3-8cb9-7ba14df91727","system_id":"levelo_inurba_marseille","lat":43.298681,"lon":5.397225,"is_reserved":false,"is_disabled":false,"rental_uris":{"android":"levelo://app?vid=6272cc87-84e5-4ba3-8cb9-7ba14df91727","ios":"levelo://app?vid=6272cc87-84e5-4ba3-8cb9-7ba14df91727"},"vehicle_type_id":"4","last_reported":1690319136,"current_range_meters":19600,"station_id":"ce4bh0h2rcd13ifvqd50","pricing_plan_id":"free"},{"bike_id":"0727f792-6778-43ed-85ee-f6a5977b22a3","system_id":"levelo_inurba_marseille","lat":43.286961,"lon":5.373785,"is_reserved":false,"is_disabled":false,"rental_uris":{"android":"levelo://app?vid=0727f792-6778-43ed-85ee-f6a5977b22a3","ios":"levelo://app?vid=0727f792-6778-43ed-85ee-f6a5977b22a3"},"vehicle_type_id":"4","last_reported":1690319136,"current_range_meters":25200,"station_id":"ce4bh3p2rcd13ifvqdq0","pricing_plan_id":"free"},{"bike_id":"e230c09f-fd66-4155-879d-f466a073c926","system_id":"levelo_inurba_marseille","lat":43.286961,"lon":5.373785,"is_reserved":false,"is_disabled":false,"rental_uris":{"android":"levelo://app?vid=e230c09f-fd66-4155-879d-f466a073c926","ios":"levelo://app?vid=e230c09f-fd66-4155-879d-f466a073c926"},"vehicle_type_id":"4","last_reported":1690319136,"current_range_meters":13200,"station_id":"ce4bh3p2rcd13ifvqdq0","pricing_plan_id":"free"},{"bike_id":"505e6e42-d64a-4e81-ac92-f61c7917894b","system_id":"levelo_inurba_marseille","lat":43.302759,"lon":5.400793,"is_reserved":false,"is_disabled":false,"rental_uris":{"android":"levelo://app?vid=505e6e42-d64a-4e81-ac92-f61c7917894b","ios":"levelo://app?vid=505e6e42-d64a-4e81-ac92-f61c7917894b"},"vehicle_type_id":"4","last_reported":1690319136,"current_range_meters":31200,"station_id":"ce4bgvh2rcd13ifvqcs0","pricing_plan_id":"free"},{"bike_id":"955c81a7-d6d5-451d-a110-c496ad0e5fdb","system_id":"levelo_inurba_marseille","lat":43.295194,"lon":5.39397,"is_reserved":false,"is_disabled":false,"rental_uris":{"android":"levelo://app?vid=955c81a7-d6d5-451d-a110-c496ad0e5fdb","ios":"levelo://app?vid=955c81a7-d6d5-451d-a110-c496ad0e5fdb"},"vehicle_type_id":"4","last_reported":1690319136,"current_range_meters":1600,"station_id":"ce4bh292rcd13ifvqdf0","pricing_plan_id":"free"},{"bike_id":"23eca4e3-72c1-4bc2-a372-b4d410c44335","system_id":"levelo_inurba_marseille","lat":43.29519,"lon":5.39405,"is_reserved":false,"is_disabled":false,"rental_uris":{"android":"levelo://app?vid=23eca4e3-72c1-4bc2-a372-b4d410c44335","ios":"levelo://app?vid=23eca4e3-72c1-4bc2-a372-b4d410c44335"},"vehicle_type_id":"4","last_reported":1690319136,"current_range_meters":31200,"station_id":"ce4bh292rcd13ifvqdf0","pricing_plan_id":"free"},{"bike_id":"b975726e-3c71-4d06-8c12-61b1adaf4ad9","system_id":"levelo_inurba_marseille","lat":43.302759,"lon":5.400793,"is_reserved":false,"is_disabled":false,"rental_uris":{"android":"levelo://app?vid=b975726e-3c71-4d06-8c12-61b1adaf4ad9","ios":"levelo://app?vid=b975726e-3c71-4d06-8c12-61b1adaf4ad9"},"vehicle_type_id":"4","last_reported":1690319136,"current_range_meters":30400,"station_id":"ce4bgvh2rcd13ifvqcs0","pricing_plan_id":"free"},{"bike_id":"1231bdc1-0b3e-42fc-92d2-6e675ed929e8","system_id":"levelo_inurba_marseille","lat":43.29508,"lon":5.39402,"is_reserved":false,"is_disabled":false,"rental_uris":{"android":"levelo://app?vid=1231bdc1-0b3e-42fc-92d2-6e675ed929e8","ios":"levelo://app?vid=1231bdc1-0b3e-42fc-92d2-6e675ed929e8"},"vehicle_type_id":"4","last_reported":1690319136,"current_range_meters":19200,"station_id":"ce4bh292rcd13ifvqdf0","pricing_plan_id":"free"},{"bike_id":"ea6b6290-6559-4f78-b3c4-179c2f778837","system_id":"levelo_inurba_marseille","lat":43.290345,"lon":5.38646,"is_reserved":false,"is_disabled":false,"rental_uris":{"android":"levelo://app?vid=ea6b6290-6559-4f78-b3c4-179c2f778837","ios":"levelo://app?vid=ea6b6290-6559-4f78-b3c4-179c2f778837"},"vehicle_type_id":"4","last_reported":1690319136,"current_range_meters":16000,"station_id":"ce4bh4p2rcd13ifvqe0g","pricing_plan_id":"free"},{"bike_id":"66c38fc4-8165-4629-baf0-d037c5a106c1","system_id":"levelo_inurba_marseille","lat":43.290345,"lon":5.38646,"is_reserved":false,"is_disabled":false,"rental_uris":{"android":"levelo://app?vid=66c38fc4-8165-4629-baf0-d037c5a106c1","ios":"levelo://app?vid=66c38fc4-8165-4629-baf0-d037c5a106c1"},"vehicle_type_id":"4","last_reported":1690319136,"current_range_meters":4800,"station_id":"ce4bh4p2rcd13ifvqe0g","pricing_plan_id":"free"},{"bike_id":"964adf6e-9758-4604-92b5-9bce9233f398","system_id":"levelo_inurba_marseille","lat":43.290345,"lon":5.38646,"is_reserved":false,"is_disabled":false,"rental_uris":{"android":"levelo://app?vid=964adf6e-9758-4604-92b5-9bce9233f398","ios":"levelo://app?vid=964adf6e-9758-4604-92b5-9bce9233f398"},"vehicle_type_id":"4","last_reported":1690319136,"current_range_meters":6400,"station_id":"ce4bh4p2rcd13ifvqe0g","pricing_plan_id":"free"},{"bike_id":"121c79f7-4fac-4770-aabe-bc78c605d845","system_id":"levelo_inurba_marseille","lat":43.302759,"lon":5.400793,"is_reserved":false,"is_disabled":false,"rental_uris":{"android":"levelo://app?vid=121c79f7-4fac-4770-aabe-bc78c605d845","ios":"levelo://app?vid=121c79f7-4fac-4770-aabe-bc78c605d845"},"vehicle_type_id":"4","last_reported":1690319136,"current_range_meters":18000,"station_id":"ce4bgvh2rcd13ifvqcs0","pricing_plan_id":"free"},{"bike_id":"b54472a5-b325-4129-9356-e34bf50bd52c","system_id":"levelo_inurba_marseille","lat":43.290345,"lon":5.38646,"is_reserved":false,"is_disabled":false,"rental_uris":{"android":"levelo://app?vid=b54472a5-b325-4129-9356-e34bf50bd52c","ios":"levelo://app?vid=b54472a5-b325-4129-9356-e34bf50bd52c"},"vehicle_type_id":"4","last_reported":1690319136,"current_range_meters":14000,"station_id":"ce4bh4p2rcd13ifvqe0g","pricing_plan_id":"free"},{"bike_id":"0b12528e-dc93-4bf4-9202-ba50c8ea7558","system_id":"levelo_inurba_marseille","lat":43.302759,"lon":5.400793,"is_reserved":false,"is_disabled":false,"rental_uris":{"android":"levelo://app?vid=0b12528e-dc93-4bf4-9202-ba50c8ea7558","ios":"levelo://app?vid=0b12528e-dc93-4bf4-9202-ba50c8ea7558"},"vehicle_type_id":"4","last_reported":1690319136,"current_range_meters":12400,"station_id":"ce4bgvh2rcd13ifvqcs0","pricing_plan_id":"free"},{"bike_id":"997ee021-bb77-48a3-98ca-9c276fc5a092","system_id":"levelo_inurba_marseille","lat":43.286039,"lon":5.370679,"is_reserved":false,"is_disabled":false,"rental_uris":{"android":"levelo://app?vid=997ee021-bb77-48a3-98ca-9c276fc5a092","ios":"levelo://app?vid=997ee021-bb77-48a3-98ca-9c276fc5a092"},"vehicle_type_id":"4","last_reported":1690319136,"current_range_meters":29600,"station_id":"ce4bht12rcd13ifvqi60","pricing_plan_id":"free"},{"bike_id":"bf9f6f01-e154-4a01-b2d6-b99b84b47c72","system_id":"levelo_inurba_marseille","lat":43.287184,"lon":5.37937,"is_reserved":false,"is_disabled":false,"rental_uris":{"android":"levelo://app?vid=bf9f6f01-e154-4a01-b2d6-b99b84b47c72","ios":"levelo://app?vid=bf9f6f01-e154-4a01-b2d6-b99b84b47c72"},"vehicle_type_id":"4","last_reported":1690319136,"current_range_meters":31600,"station_id":"ce4bh9p2rcd13ifvqec0","pricing_plan_id":"free"},{"bike_id":"b91b46a8-631f-4c5f-a798-82ac749f38cc","system_id":"levelo_inurba_marseille","lat":43.287184,"lon":5.37937,"is_reserved":false,"is_disabled":false,"rental_uris":{"android":"levelo://app?vid=b91b46a8-631f-4c5f-a798-82ac749f38cc","ios":"levelo://app?vid=b91b46a8-631f-4c5f-a798-82ac749f38cc"},"vehicle_type_id":"4","last_reported":1690319136,"current_range_meters":31200,"station_id":"ce4bh9p2rcd13ifvqec0","pricing_plan_id":"free"},{"bike_id":"4ff9ef6a-2dcb-430e-bd30-0d651fe1bc99","system_id":"levelo_inurba_marseille","lat":43.287185,"lon":5.379373,"is_reserved":false,"is_disabled":false,"rental_uris":{"android":"levelo://app?vid=4ff9ef6a-2dcb-430e-bd30-0d651fe1bc99","ios":"levelo://app?vid=4ff9ef6a-2dcb-430e-bd30-0d651fe1bc99"},"vehicle_type_id":"4","last_reported":1690319136,"current_range_meters":28800,"station_id":"ce4bh9p2rcd13ifvqec0","pricing_plan_id":"free"},{"bike_id":"fc477cb1-791d-4f60-b7e5-56e105a7d16c","system_id":"levelo_inurba_marseille","lat":43.287185,"lon":5.379373,"is_reserved":false,"is_disabled":false,"rental_uris":{"android":"levelo://app?vid=fc477cb1-791d-4f60-b7e5-56e105a7d16c","ios":"levelo://app?vid=fc477cb1-791d-4f60-b7e5-56e105a7d16c"},"vehicle_type_id":"4","last_reported":1690319136,"current_range_meters":25600,"station_id":"ce4bh9p2rcd13ifvqec0","pricing_plan_id":"free"},{"bike_id":"df5f10b3-5adb-440e-897d-f408f47e6acd","system_id":"levelo_inurba_marseille","lat":43.287184,"lon":5.37937,"is_reserved":false,"is_disabled":false,"rental_uris":{"android":"levelo://app?vid=df5f10b3-5adb-440e-897d-f408f47e6acd","ios":"levelo://app?vid=df5f10b3-5adb-440e-897d-f408f47e6acd"},"vehicle_type_id":"4","last_reported":1690319136,"current_range_meters":26000,"station_id":"ce4bh9p2rcd13ifvqec0","pricing_plan_id":"free"},