{"last_updated":1727964528,"ttl":60,"version":"2.2","data":{"bikes":[{"bike_id":"a70a0f52-1b29-48c0-a1d3-2e5b1b754d4c","system_id":"levelo_inurba_marseille","lat":43.2657,"lon":5.39,"is_reserved":false,"is_disabled":false,"rental_uris":{"android":"levelo://app?vid=a70a0f52-1b29-48c0-a1d3-2e5b1b754d4c","ios":"levelo://app?vid=a70a0f52-1b29-48c0-a1d3-2e5b1b754d4c"},"vehicle_type_id":"4","last_reported":1727964528,"current_range_meters":28000,"station_id":"ce4bhe12rcd13ifvqf30","pricing_plan_id":"cebpf4jnsgd1na2vs0mg"},{"bike_id":"8a8c1da6-fe54-4c56-80fc-9fd299284584","system_id":"levelo_inurba_marseille","lat":43.3264,"lon":5.41017,"is_reserved":false,"is_disabled":false,"rental_uris":{"android":"levelo://app?vid=8a8c1da6-fe54-4c56-80fc-9fd299284584","ios":"levelo://app?vid=8a8c1da6-fe54-4c56-80fc-9fd299284584"},"vehicle_type_id":"4","last_reported":1727964528,"current_range_meters":27200,"station_id":"ce4bhpp2rcd13ifvqhgg","pricing_plan_id":"cebpf4jnsgd1na2vs0mg"},{"bike_id":"dc71416b-b8ec-4366-9232-ef10453d384c","system_id":"levelo_inurba_marseille","lat":43.25211,"lon":5.3945,"is_reserved":false,"is_disabled":false,"rental_uris":{"android":"levelo://app?vid=dc71416b-b8ec-4366-9232-ef10453d384c","ios":"levelo://app?vid=dc71416b-b8ec-4366-9232-ef10453d384c"},"vehicle_type_id":"4","last_reported":1727964528,"current_range_meters":18800,"station_id":"ce4bhm12rcd13ifvqgkg","pricing_plan_id":"cebpf4jnsgd1na2vs0mg"},{"bike_id":"5d221bc7-662a-4770-b092-3829bd3fcae1","system_id":"levelo_inurba_marseille","lat":43.2767,"lon":5.38875,"is_reserved":false,"is_disabled":false,"rental_uris":{"android":"levelo://app?vid=5d221bc7-662a-4770-b092-3829bd3fcae1","ios":"levelo://app?vid=5d221bc7-662a-4770-b092-3829bd3fcae1"},"vehicle_type_id":"4","last_reported":1727964528,"current_range_meters":6400,"station_id":"ce4bhi12rcd13ifvqfo0","pricing_plan_id":"cebpf4jnsgd1na2vs0mg"},{"bike_id":"c9792f07-8082-4b90-9b72-46cf8f201b6a","system_id":"levelo_inurba_marseille","lat":43.26942,"lon":5.40252,"is_reserved":false,"is_disabled":false,"rental_uris":{"android":"levelo://app?vid=c9792f07-8082-4b90-9b72-46cf8f201b6a","ios":"levelo://app?vid=c9792f07-8082-4b90-9b72-46cf8f201b6a"},"vehicle_type_id":"4","last_reported":1727964528,"current_range_meters":16800,"station_id":"cjm6bp8fraef2m0cb0m0","pricing_plan_id":"cebpf4jnsgd1na2vs0mg"},{"bike_id":"dfa316ed-31fe-4eb7-ae98-3312a562d760","system_id":"levelo_inurba_marseille","lat":43.27183,"lon":5.40989,"is_reserved":false,"is_disabled":false,"rental_uris":{"android":"levelo://app?vid=dfa316ed-31fe-4eb7-ae98-3312a562d760","ios":"levelo://app?vid=dfa316ed-31fe-4eb7-ae98-3312a562d760"},"vehicle_type_id":"4","last_reported":1727964528,"current_range_meters":35600,"station_id":"ce4bhl12rcd13ifvqgf0","pricing_plan_id":"cebpf4jnsgd1na2vs0mg"},{"bike_id":"31b7f732-5eb8-43e4-b26d-d0d6a02fcf7f","system_id":"levelo_inurba_marseille","lat":43.25582,"lon":5.3821,"is_reserved":false,"is_disabled":false,"rental_uris":{"android":"levelo://app?vid=31b7f732-5eb8-43e4-b26d-d0d6a02fcf7f","ios":"levelo://app?vid=31b7f732-5eb8-43e4-b26d-d0d6a02fcf7f"},"vehicle_type_id":"4","last_reported":1727964528,"current_range_meters":8400,"station_id":"ce4bhih2rcd13ifvqfs0","pricing_plan_id":"cebpf4jnsgd1na2vs0mg"},{"bike_id":"756088e4-bd38-4606-aa6f-cbbf1461af00","system_id":"levelo_inurba_marseille","lat":43.22934,"lon":5.35376,"is_reserved":false,"is_disabled":false,"rental_uris":{"android":"levelo://app?vid=756088e4-bd38-4606-aa6f-cbbf1461af00","ios":"levelo://app?vid=756088e4-bd38-4606-aa6f-cbbf1461af00"},"vehicle_type_id":"4","last_reported":1727964528,"current_range_meters":18800,"station_id":"cpo3532slgdg3j2ikp40","pricing_plan_id":"cebpf4jnsgd1na2vs0mg"},{"bike_id":"b0192dd1-e0a2-4e25-8967-1262d27638d1","system_id":"levelo_inurba_marseille","lat":43.29509,"lon":5.39399,"is_reserved":false,"is_disabled":false,"rental_uris":{"android":"levelo://app?vid=b0192dd1-e0a2-4e25-8967-1262d27638d1","ios":"levelo://app?vid=b0192dd1-e0a2-4e25-8967-1262d27638d1"},"vehicle_type_id":"4","last_reported":1727964528,"current_range_meters":6000,"station_id":"ce4bh292rcd13ifvqdf0","pricing_plan_id":"cebpf4jnsgd1na2vs0mg"},{"bike_id":"55284b84-83c5-4b2c-928e-9a74cd123c12","system_id":"levelo_inurba_marseille","lat":43.28077,"lon":5.39638,"is_reserved":false,"is_disabled":false,"rental_uris":{"android":"levelo://app?vid=55284b84-83c5-4b2c-928e-9a74cd123c12","ios":"levelo://app?vid=55284b84-83c5-4b2c-928e-9a74cd123c12"},"vehicle_type_id":"4","last_reported":1727964528,"current_range_meters":38800,"station_id":"ce4bho12rcd13ifvqh2g","pricing_plan_id":"cebpf4jnsgd1na2vs0mg"},{"bike_id":"ff89b7e6-8dbb-4502-ae6b-954b46feae02","system_id":"levelo_inurba_marseille","lat":43.25005,"lon":5.38914,"is_reserved":false,"is_disabled":false,"rental_uris":{"android":"levelo://app?vid=ff89b7e6-8dbb-4502-ae6b-954b46feae02","ios":"levelo://app?vid=ff89b7e6-8dbb-4502-ae6b-954b46feae02"},"vehicle_type_id":"4","last_reported":1727964528,"current_range_meters":36800,"station_id":"ce4bhgp2rcd13ifvqfd0","pricing_plan_id":"cebpf4jnsgd1na2vs0mg"},{"bike_id":"bc41810d-3fc6-4e9c-bcc1-3b1d7bce3ce2","system_id":"levelo_inurba_marseille","lat":43.23183,"lon":5.39979,"is_reserved":false,"is_disabled":false,"rental_uris":{"android":"levelo://app?vid=bc41810d-3fc6-4e9c-bcc1-3b1d7bce3ce2","ios":"levelo://app?vid=bc41810d-3fc6-4e9c-bcc1-3b1d7bce3ce2"},"vehicle_type_id":"4","last_reported":1727964528,"current_range_meters":24400,"station_id":"ce4bhn12rcd13ifvqgqg","pricing_plan_id":"cebpf4jnsgd1na2vs0mg"},{"bike_id":"4b6721b8-1a28-4ce5-a9fa-1b893f7f0ac0","system_id":"levelo_inurba_marseille","lat":43.32484,"lon":5.36554,"is_reserved":false,"is_disabled":false,"rental_uris":{"android":"levelo://app?vid=4b6721b8-1a28-4ce5-a9fa-1b893f7f0ac0","ios":"levelo://app?vid=4b6721b8-1a28-4ce5-a9fa-1b893f7f0ac0"},"vehicle_type_id":"4","last_reported":1727964528,"current_range_meters":38800,"station_id":"ce4bhs12rcd13ifvqhvg","pricing_plan_id":"cebpf4jnsgd1na2vs0mg"},{"bike_id":"10b253f8-cc1a-4d5a-8003-199981f39441","system_id":"levelo_inurba_marseille","lat":43.30461,"lon":5.37902,"is_reserved":false,"is_disabled":false,"rental_uris":{"android":"levelo://app?vid=10b253f8-cc1a-4d5a-8003-199981f39441","ios":"levelo://app?vid=10b253f8-cc1a-4d5a-8003-199981f39441"},"vehicle_type_id":"4","last_reported":1727964528,"current_range_meters":4400,"station_id":"ce4bgup2rcd13ifvqcn0","pricing_plan_id":"cebpf4jnsgd1na2vs0mg"},{"bike_id":"4ec92547-4461-4157-862d-d0e723b75f3a","system_id":"levelo_inurba_marseille","lat":43.248028,"lon":5.374592,"is_reserved":false,"is_disabled":false,"rental_uris":{"android":"levelo://app?vid=4ec92547-4461-4157-862d-d0e723b75f3a","ios":"levelo://app?vid=4ec92547-4461-4157-862d-d0e723b75f3a"},"vehicle_type_id":"4","last_reported":1727964528,"current_range_meters":27600,"station_id":"ce4bhn12rcd13ifvqgqg","pricing_plan_id":"cebpf4jnsgd1na2vs0mg"},{"bike_id":"8d5bef3c-0301-4499-9ab9-e7a7545093b5","system_id":"levelo_inurba_marseille","lat":43.27816,"lon":5.40713,"is_reserved":false,"is_disabled":false,"rental_uris":{"android":"levelo://app?vid=8d5bef3c-0301-4499-9ab9-e7a7545093b5","ios":"levelo://app?vid=8d5bef3c-0301-4499-9ab9-e7a7545093b5"},"vehicle_type_id":"4","last_reported":1727964528,"current_range_meters":8800,"station_id":"ce4bhnh2rcd13ifvqgtg","pricing_plan_id":"cebpf4jnsgd1na2vs0mg"},{"bike_id":"ec7852b9-9f35-4851-b6fb-9a51000098db","system_id":"levelo_inurba_marseille","lat":43.30328,"lon":5.40432,"is_reserved":false,"is_disabled":false,"rental_uris":{"android":"levelo://app?vid=ec7852b9-9f35-4851-b6fb-9a51000098db","ios":"levelo://app?vid=ec7852b9-9f35-4851-b6fb-9a51000098db"},"vehicle_type_id":"4","last_reported":1727964528,"current_range_meters":7200,"station_id":"ce4bh012rcd13ifvqd10","pricing_plan_id":"cebpf4jnsgd1na2vs0mg"},{"bike_id":"b177e291-a71b-4efc-85bc-6f89cfd8ae9b","system_id":"levelo_inurba_marseille","lat":43.30143,"lon":5.37406,"is_reserved":false,"is_disabled":false,"rental_uris":{"android":"levelo://app?vid=b177e291-a71b-4efc-85bc-6f89cfd8ae9b","ios":"levelo://app?vid=b177e291-a71b-4efc-85bc-6f89cfd8ae9b"},"vehicle_type_id":"4","last_reported":1727964528,"current_range_meters":36800,"station_id":"ce4bgs92rcd13ifvqcc0","pricing_plan_id":"cebpf4jnsgd1na2vs0mg"},{"bike_id":"0a9918d7-41e5-40b7-a2f3-9509ab8baede","system_id":"levelo_inurba_marseille","lat":43.2834,"lon":5.41276,"is_reserved":false,"is_disabled":false,"rental_uris":{"android":"levelo://app?vid=0a9918d7-41e5-40b7-a2f3-9509ab8baede","ios":"levelo://app?vid=0a9918d7-41e5-40b7-a2f3-9509ab8baede"},"vehicle_type_id":"4","last_reported":1727964528,"current_range_meters":17600,"station_id":"","pricing_plan_id":"cebpf4jnsgd1na2vs0mg"},{"bike_id":"7dd9111d-71ef-4ae5-bdea-3c06cca6fa59","system_id":"levelo_inurba_marseille","lat":43.267818,"lon":5.394157,"is_reserved":false,"is_disabled":false,"rental_uris":{"android":"levelo://app?vid=7dd9111d-71ef-4ae5-bdea-3c06cca6fa59","ios":"levelo://app?vid=7dd9111d-71ef-4ae5-bdea-3c06cca6fa59"},"vehicle_type_id":"4","last_reported":1727964528,"current_range_meters":24400,"station_id":"ce4bhh12rcd13ifvqfg0","pricing_plan_id":"cebpf4jnsgd1na2vs0mg"},{"bike_id":"891c4784-04bb-4064-8da0-9170f878a0d7","system_id":"levelo_inurba_marseille","lat":43.3013,"lon":5.39857,"is_reserved":false,"is_disabled":false,"rental_uris":{"android":"levelo://app?vid=891c4784-04bb-4064-8da0-9170f878a0d7","ios":"levelo://app?vid=891c4784-04bb-4064-8da0-9170f878a0d7"},"vehicle_type_id":"4","last_reported":1727964528,"current_range_meters":32800,"station_id":"ce4bh0h2rcd13ifvqd40","pricing_plan_id":"cebpf4jnsgd1na2vs0mg"},{"bike_id":"182a2a0e-0cf8-4d89-8700-abb1d6cc91b8","system_id":"levelo_inurba_marseille","lat":43.30541,"lon":5.36547,"is_reserved":false,"is_disabled":false,"rental_uris":{"android":"levelo://app?vid=182a2a0e-0cf8-4d89-8700-abb1d6cc91b8","ios":"levelo://app?vid=182a2a0e-0cf8-4d89-8700-abb1d6cc91b8"},"vehicle_type_id":"4","last_reported":1727964528,"current_range_meters":7200,"station_id":"ce4bgs12rcd13ifvqcag","pricing_plan_id":"cebpf4jnsgd1na2vs0mg"},{"bike_id":"8326421d-4562-4b4c-a6a6-90f2e91c56b9","system_id":"levelo_inurba_marseille","lat":43.29908,"lon":5.38148,"is_reserved":false,"is_disabled":false,"rental_uris":{"android":"levelo://app?vid=8326421d-4562-4b4c-a6a6-90f2e91c56b9","ios":"levelo://app?vid=8326421d-4562-4b4c-a6a6-90f2e91c56b9"},"vehicle_type_id":"4","last_reported":1727964528,"current_range_meters":28000,"station_id":"ce4bgj12rcd13ifvqbc0","pricing_plan_id":"cebpf4jnsgd1na2vs0mg"},{"bike_id":"1ba5208c-573b-4492-aa1d-13e2ac1f8483","system_id":"levelo_inurba_marseille","lat":43.29276,"lon":5.36849,"is_reserved":false,"is_disabled":false,"rental_uris":{"android":"levelo://app?vid=1ba5208c-573b-4492-aa1d-13e2ac1f8483","ios":"levelo://app?vid=1ba5208c-573b-4492-aa1d-13e2ac1f8483"},"vehicle_type_id":"4","last_reported":1727964528,"current_range_meters":4800,"station_id":"ce4bhbp2rcd13ifvqesg","pricing_plan_id":"cebpf4jnsgd1na2vs0mg"},{"bike_id":"ec29b501-1309-4834-bf08-a9b24804a328","system_id":"levelo_inurba_marseille","lat":43.29295,"lon":5.37463,"is_reserved":false,"is_disabled":false,"rental_uris":{"android":"levelo://app?vid=ec29b501-1309-4834-bf08-a9b24804a328","ios":"levelo://app?vid=ec29b501-1309-4834-bf08-a9b24804a328"},"vehicle_type_id":"4","last_reported":1727964528,"current_range_meters":6800,"station_id":"ce4bgi12rcd13ifvqb70","pricing_plan_id":"cebpf4jnsgd1na2vs0mg"},{"bike_id":"544cf393-35cf-4327-9880-7149bd849519","system_id":"levelo_inurba_marseille","lat":43.24649,"lon":5.38892,"is_reserved":false,"is_disabled":false,"rental_uris":{"android":"levelo://app?vid=544cf393-35cf-4327-9880-7149bd849519","ios":"levelo://app?vid=544cf393-35cf-4327-9880-7149bd849519"},"vehicle_type_id":"4","last_reported":1727964528,"current_range_meters":19600,"station_id":"ce4bhg12rcd13ifvqf60","pricing_plan_id":"cebpf4jnsgd1na2vs0mg"},{"bike_id":"00411a3f-977b-4a5e-a064-0b34d5d1c69d","system_id":"levelo_inurba_marseille","lat":43.25871,"lon":5.39898,"is_reserved":false,"is_disabled":false,"rental_uris":{"android":"levelo://app?vid=00411a3f-977b-4a5e-a064-0b34d5d1c69d","ios":"levelo://app?vid=00411a3f-977b-4a5e-a064-0b34d5d1c69d"},"vehicle_type_id":"4","last_reported":1727964528,"current_range_meters":32000,"station_id":"ce4bhl92rcd13ifvqghg","pricing_plan_id":"cebpf4jnsgd1na2vs0mg"},{"bike_id":"0d85dad1-cd4b-43e6-bec7-f20cb70cbe4f","system_id":"levelo_inurba_marseille","lat":43.25578,"lon":5.38237,"is_reserved":false,"is_disabled":false,"rental_uris":{"android":"levelo://app?vid=0d85dad1-cd4b-43e6-bec7-f20cb70cbe4f","ios":"levelo://app?vid=0d85dad1-cd4b-43e6-bec7-f20cb70cbe4f"},"vehicle_type_id":"4","last_reported":1727964528,"current_range_meters":20400,"station_id":"ce4bhih2rcd13ifvqfs0","pricing_plan_id":"cebpf4jnsgd1na2vs0mg"},{"bike_id":"89f432c5-7161-4a6b-9029-4b77b3dc64b5","system_id":"levelo_inurba_marseille","lat":43.25717,"lon":5.41113,"is_reserved":false,"is_disabled":false,"rental_uris":{"android":"levelo://app?vid=89f432c5-7161-4a6b-9029-4b77b3dc64b5","ios":"levelo://app?vid=89f432c5-7161-4a6b-9029-4b77b3dc64b5"},"vehicle_type_id":"4","last_reported":1727964528,"current_range_meters":4400,"station_id":"ce4bhkp2rcd13ifvqgd0","pricing_plan_id":"cebpf4jnsgd1na2vs0mg"},{"bike_id":"97c413f0-0499-425d-bfab-2f45162826bf","system_id":"levelo_inurba_marseille","lat":43.25495,"lon":5.3765,"is_reserved":false,"is_disabled":false,"rental_uris":{"android":"levelo://app?vid=97c413f0-0499-425d-bfab-2f45162826bf","ios":"levelo://app?vid=97c413f0-0499-425d-bfab-2f45162826bf"},"vehicle_type_id":"4","last_reported":1727964528,"current_range_meters":35600,"station_id":"ce4bhh12rcd13ifvqff0","pricing_plan_id":"cebpf4jnsgd1na2vs0mg"},{"bike_id":"643f735f-8804-407d-980f-efe2e086117a","system_id":"levelo_inurba_marseille","lat":43.2846,"lon":5.35882,"is_reserved":false,"is_disabled":false,"rental_uris":{"android":"levelo://app?vid=643f735f-8804-407d-980f-efe2e086117a","ios":"levelo://app?vid=643f735f-8804-407d-980f-efe2e086117a"},"vehicle_type_id":"4","last_reported":1727964528,"current_range_meters":25200,"station_id":"ce4bhah2rcd13ifvqei0","pricing_plan_id":"cebpf4jnsgd1na2vs0mg"},{"bike_id":"348571c2-5d32-4f15-9980-7c837c202b3f","system_id":"levelo_inurba_marseille","lat":43.24649,"lon":5.38898,"is_reserved":false,"is_disabled":false,"rental_uris":{"android":"levelo://app?vid=348571c2-5d32-4f15-9980-7c837c202b3f","ios":"levelo://app?vid=348571c2-5d32-4f15-9980-7c837c202b3f"},"vehicle_type_id":"4","last_reported":1727964528,"current_range_meters":36000,"station_id":"ce4bhg12rcd13ifvqf60","pricing_plan_id":"cebpf4jnsgd1na2vs0mg"},{"bike_id":"6323e285-80fb-486c-b3fd-e47f408a9fca","system_id":"levelo_inurba_marseille","lat":43.30638,"lon":5.40087,"is_reserved":false,"is_disabled":false,"rental_uris":{"android":"levelo://app?vid=6323e285-80fb-486c-b3fd-e47f408a9fca","ios":"levelo://app?vid=6323e285-80fb-486c-b3fd-e47f408a9fca"},"vehicle_type_id":"4","last_reported":1727964528,"current_range_meters":36800,"station_id":"ce4bh112rcd13ifvqda0","pricing_plan_id":"cebpf4jnsgd1na2vs0mg"},{"bike_id":"b8f978ab-e6c1-4b47-9ec7-8dc1deeba180","system_id":"levelo_inurba_marseille","lat":43.3128,"lon":5.40173,"is_reserved":false,"is_disabled":false,"rental_uris":{"android":"levelo://app?vid=b8f978ab-e6c1-4b47-9ec7-8dc1deeba180","ios":"levelo://app?vid=b8f978ab-e6c1-4b47-9ec7-8dc1deeba180"},"vehicle_type_id":"4","last_reported":1727964528,"current_range_meters":14400,"station_id":"ce4bh092rcd13ifvqd30","pricing_plan_id":"cebpf4jnsgd1na2vs0mg"},{"bike_id":"bc8e430a-4441-42a3-85b3-53e1b2cb0e0e","system_id":"levelo_inurba_marseille","lat":43.31756,"lon":5.39019,"is_reserved":false,"is_disabled":false,"rental_uris":{"android":"levelo://app?vid=bc8e430a-4441-42a3-85b3-53e1b2cb0e0e","ios":"levelo://app?vid=bc8e430a-4441-42a3-85b3-53e1b2cb0e0e"},"vehicle_type_id":"4","last_reported":1727964528,"current_range_meters":36800,"station_id":"ce4bhqp2rcd13ifvqhng","pricing_plan_id":"cebpf4jnsgd1na2vs0mg"},{"bike_id":"37b140a2-92a7-49a4-ad98-e81fefefab2b","system_id":"levelo_inurba_marseille","lat":43.25108,"lon":5.40316,"is_reserved":false,"is_disabled":false,"rental_uris":{"android":"levelo://app?vid=37b140a2-92a7-49a4-ad98-e81fefefab2b","ios":"levelo://app?vid=37b140a2-92a7-49a4-ad98-e81fefefab2b"},"vehicle_type_id":"4","last_reported":1727964528,"current_range_meters":25600,"station_id":"","pricing_plan_id":"cebpf4jnsgd1na2vs0mg"},{"bike_id":"f92051be-5212-4d83-9bd8-0326cd8a1e5c","system_id":"levelo_inurba_marseille","lat":43.23179,"lon":5.39981,"is_reserved":false,"is_disabled":false,"rental_uris":{"android":"levelo://app?vid=f92051be-5212-4d83-9bd8-0326cd8a1e5c","ios":"levelo://app?vid=f92051be-5212-4d83-9bd8-0326cd8a1e5c"},"vehicle_type_id":"4","last_reported":1727964528,"current_range_meters":23200,"station_id":"ce4bhn12rcd13ifvqgqg","pricing_plan_id":"cebpf4jnsgd1na2vs0mg"},{"bike_id":"56287f66-1668-4a5d-b3e1-733e18339fb8","system_id":"levelo_inurba_marseille","lat":43.32365,"lon":5.38884,"is_reserved":false,"is_disabled":false,"rental_uris":{"android":"levelo://app?vid=56287f66-1668-4a5d-b3e1-733e18339fb8","ios":"levelo://app?vid=56287f66-1668-4a5d-b3e1-733e18339fb8"},"vehicle_type_id":"4","last_reported":1727964528,"current_range_meters":34800,"station_id":"ce4bhqp2rcd13ifvqhog","pricing_plan_id":"cebpf4jnsgd1na2vs0mg"},{"bike_id":"b955a3c3-67d2-4d94-bfc7-50431fa4a0bc","system_id":"levelo_inurba_marseille","lat":43.26199,"lon":5.37451,"is_reserved":false,"is_disabled":false,"rental_uris":{"android":"levelo://app?vid=b955a3c3-67d2-4d94-bfc7-50431fa4a0bc","ios":"levelo://app?vid=b955a3c3-67d2-4d94-bfc7-50431fa4a0bc"},"vehicle_type_id":"4","last_reported":1727964528,"current_range_meters":22000,"station_id":"ce4bhap2rcd13ifvqek0","pricing_plan_id":"cebpf4jnsgd1na2vs0mg"},{"bike_id":"1699506f-c969-4c90-b21c-665e35889a5f","system_id":"levelo_inurba_marseille","lat":43.3096,"lon":5.39028,"is_reserved":false,"is_disabled":false,"rental_uris":{"android":"levelo://app?vid=1699506f-c969-4c90-b21c-665e35889a5f","ios":"levelo://app?vid=1699506f-c969-4c90-b21c-665e35889a5f"},"vehicle_type_id":"4","last_reported":1727964528,"current_range_meters":38800,"station_id":"ce4bgup2rcd13ifvqco0","pricing_plan_id":"cebpf4jnsgd1na2vs0mg"},{"bike_id":"55d307e0-bcd4-4f0a-9940-dbfdcc7fbbd9","system_id":"levelo_inurba_marseille","lat":43.29959,"lon":5.38485,"is_reserved":false,"is_disabled":false,"rental_uris":{"android":"levelo://app?vid=55d307e0-bcd4-4f0a-9940-dbfdcc7fbbd9","ios":"levelo://app?vid=55d307e0-bcd4-4f0a-9940-dbfdcc7fbbd9"},"vehicle_type_id":"4","last_reported":1727964528,"current_range_meters":38000,"station_id":"ce4bgj92rcd13ifvqbd0","pricing_plan_id":"cebpf4jnsgd1na2vs0mg"},{"bike_id":"5a66baa5-8f6e-44b7-835f-794b54ff498e","system_id":"levelo_inurba_marseille","lat":43.24655,"lon":5.38892,"is_reserved":false,"is_disabled":false,"rental_uris":{"android":"levelo://app?vid=5a66baa5-8f6e-44b7-835f-794b54ff498e","ios":"levelo://app?vid=5a66baa5-8f6e-44b7-835f-794b54ff498e"},"vehicle_type_id":"4","last_reported":1727964528,"current_range_meters":7200,"station_id":"ce4bhg12rcd13ifvqf60","pricing_plan_id":"cebpf4jnsgd1na2vs0mg"},{"bike_id":"63c90e78-af27-4044-bf61-67e04dedb05d","system_id":"levelo_inurba_marseille","lat":43.25087,"lon":5.39525,"is_reserved":false,"is_disabled":false,"rental_uris":{"android":"levelo://app?vid=63c90e78-af27-4044-bf61-67e04dedb05d","ios":"levelo://app?vid=63c90e78-af27-4044-bf61-67e04dedb05d"},"vehicle_type_id":"4","last_reported":1727964528,"current_range_meters":12000,"station_id":"ce4bhm12rcd13ifvqgkg","pricing_plan_id":"cebpf4jnsgd1na2vs0mg"},{"bike_id":"bc3ddbfe-7db0-4256-b481-74d09037f9dd","system_id":"levelo_inurba_marseille","lat":43.28075,"lon":5.39658,"is_reserved":false,"is_disabled":false,"rental_uris":{"android":"levelo://app?vid=bc3ddbfe-7db0-4256-b481-74d09037f9dd","ios":"levelo://app?vid=bc3ddbfe-7db0-4256-b481-74d09037f9dd"},"vehicle_type_id":"4","last_reported":1727964528,"current_range_meters":37600,"station_id":"ce4bho12rcd13ifvqh2g","pricing_plan_id":"cebpf4jnsgd1na2vs0mg"},{"bike_id":"a0feab16-2f1f-4214-9058-21d8b9b7774f","system_id":"levelo_inurba_marseille","lat":43.27994,"lon":5.4096,"is_reserved":false,"is_disabled":false,"rental_uris":{"android":"levelo://app?vid=a0feab16-2f1f-4214-9058-21d8b9b7774f","ios":"levelo://app?vid=a0feab16-2f1f-4214-9058-21d8b9b7774f"},"vehicle_type_id":"4","last_reported":1727964528,"current_range_meters":16000,"station_id":"","pricing_plan_id":"cebpf4jnsgd1na2vs0mg"},{"bike_id":"0d38caac-4e1b-4bc6-8634-fba8549655ca","system_id":"levelo_inurba_marseille","lat":43.32111,"lon":5.36783,"is_reserved":false,"is_disabled":false,"rental_uris":{"android":"levelo://app?vid=0d38caac-4e1b-4bc6-8634-fba8549655ca","ios":"levelo://app?vid=0d38caac-4e1b-4bc6-8634-fba8549655ca"},"vehicle_type_id":"4","last_reported":1727964528,"current_range_meters":36400,"station_id":"ce4bhrh2rcd13ifvqhug","pricing_plan_id":"cebpf4jnsgd1na2vs0mg"},{"bike_id":"4479a867-45e8-4e38-ba8b-80efa77ef3c8","system_id":"levelo_inurba_marseille","lat":43.292,"lon":5.39314,"is_reserved":false,"is_disabled":false,"rental_uris":{"android":"levelo://app?vid=4479a867-45e8-4e38-ba8b-80efa77ef3c8","ios":"levelo://app?vid=4479a867-45e8-4e38-ba8b-80efa77ef3c8"},"vehicle_type_id":"4","last_reported":1727964528,"current_range_meters":8800,"station_id":"ce4bh192rcd13ifvqdd0","pricing_plan_id":"cebpf4jnsgd1na2vs0mg"},{"bike_id":"133464c2-43c3-4b45-a7a1-f966a6c79f4e","system_id":"levelo_inurba_marseille","lat":43.24668,"lon":5.38161,"is_reserved":false,"is_disabled":false,"rental_uris":{"android":"levelo://app?vid=133464c2-43c3-4b45-a7a1-f966a6c79f4e","ios":"levelo://app?vid=133464c2-43c3-4b45-a7a1-f966a6c79f4e"},"vehicle_type_id":"4","last_reported":1727964528,"current_range_meters":10800,"station_id":"ce4bhih2rcd13ifvqfr0","pricing_plan_id":"cebpf4jnsgd1na2vs0mg"},{"bike_id":"f8d47cde-ba81-4b02-8f47-8aa36e8ed787","system_id":"levelo_inurba_marseille","lat":43.27813,"lon":5.40712,"is_reserved":false,"is_disabled":false,"rental_uris":{"android":"levelo://app?vid=f8d47cde-ba81-4b02-8f47-8aa36e8ed787","ios":"levelo://app?vid=f8d47cde-ba81-4b02-8f47-8aa36e8ed787"},"vehicle_type_id":"4","last_reported":1727964528,"current_range_meters":3600,"station_id":"ce4bhnh2rcd13ifvqgtg","pricing_plan_id":"cebpf4jnsgd1na2vs0mg"},{"bike_id":"0c486ab5-3217-4997-8e62-08ba6082ea68","system_id":"levelo_inurba_marseille","lat":43.25932,"lon":5.40911,"is_reserved":false,"is_disabled":false,"rental_uris":{"android":"levelo://app?vid=0c486ab5-3217-4997-8e62-08ba6082ea68","ios":"levelo://app?vid=0c486ab5-3217-4997-8e62-08ba6082ea68"},"vehicle_type_id":"4","last_reported":1727964528,"current_range_meters":3200,"station_id":"ce4bhm92rcd13ifvqglg","pricing_plan_id":"cebpf4jnsgd1na2vs0mg"},{"bike_id":"fd2f57da-4c62-4064-898b-c18c808c072a","system_id":"levelo_inurba_marseille","lat":43.29786,"lon":5.38102,"is_reserved":false,"is_disabled":false,"rental_uris":{"android":"levelo://app?vid=fd2f57da-4c62-4064-898b-c18c808c072a","ios":"levelo://app?vid=fd2f57da-4c62-4064-898b-c18c808c072a"},"vehicle_type_id":"4","last_reported":1727964528,"current_range_meters":38800,"station_id":"ce4bgip2rcd13ifvqbb0","pricing_plan_id":"cebpf4jnsgd1na2vs0mg"},{"bike_id":"d9d3e382-5784-429c-8f1c-5aa1b7366303","system_id":"levelo_inurba_marseille","lat":43.30186,"lon":5.36617,"is_reserved":false,"is_disabled":false,"rental_uris":{"android":"levelo://app?vid=d9d3e382-5784-429c-8f1c-5aa1b7366303","ios":"levelo://app?vid=d9d3e382-5784-429c-8f1c-5aa1b7366303"},"vehicle_type_id":"4","last_reported":1727964528,"current_range_meters":17200,"station_id":"ce4bgrh2rcd13ifvqc8g","pricing_plan_id":"cebpf4jnsgd1na2vs0mg"},{"bike_id":"6f1e90da-955f-49aa-b234-44a41ddafe61","system_id":"levelo_inurba_marseille","lat":43.27942,"lon":5.41039,"is_reserved":false,"is_disabled":false,"rental_uris":{"android":"levelo://app?vid=6f1e90da-955f-49aa-b234-44a41ddafe61","ios":"levelo://app?vid=6f1e90da-955f-49aa-b234-44a41ddafe61"},"vehicle_type_id":"4","last_reported":1727964528,"current_range_meters":2000,"station_id":"ce4bhnp2rcd13ifvqh0g","pricing_plan_id":"cebpf4jnsgd1na2vs0mg"},{"bike_id":"18b68fc7-5b91-4ad8-a975-0aac79b40b72","system_id":"levelo_inurba_marseille","lat":43.25829,"lon":5.39432,"is_reserved":false,"is_disabled":false,"rental_uris":{"android":"levelo://app?vid=18b68fc7-5b91-4ad8-a975-0aac79b40b72","ios":"levelo://app?vid=18b68fc7-5b91-4ad8-a975-0aac79b40b72"},"vehicle_type_id":"4","last_reported":1727964528,"current_range_meters":28800,"station_id":"ce4bhip2rcd13ifvqft0","pricing_plan_id":"cebpf4jnsgd1na2vs0mg"},{"bike_id":"6d4ca7a1-6ddc-4b3f-a792-2ec09d53dcb1","system_id":"levelo_inurba_marseille","lat":43.302216,"lon":5.394641,"is_reserved":false,"is_disabled":false,"rental_uris":{"android":"levelo://app?vid=6d4ca7a1-6ddc-4b3f-a792-2ec09d53dcb1","ios":"levelo://app?vid=6d4ca7a1-6ddc-4b3f-a792-2ec09d53dcb1"},"vehicle_type_id":"4","last_reported":1727964528,"current_range_meters":38800,"station_id":"ce4bh0p2rcd13ifvqd70","pricing_plan_id":"cebpf4jnsgd1na2vs0mg"},{"bike_id":"499cb64c-6fb8-4407-89d8-a118e3c5c28d","system_id":"levelo_inurba_marseille","lat":43.27992,"lon":5.40019,"is_reserved":false,"is_disabled":false,"rental_uris":{"android":"levelo://app?vid=499cb64c-6fb8-4407-89d8-a118e3c5c28d","ios":"levelo://app?vid=499cb64c-6fb8-4407-89d8-a118e3c5c28d"},"vehicle_type_id":"4","last_reported":1727964528,"current_range_meters":19600,"station_id":"ce4bho92rcd13ifvqh4g","pricing_plan_id":"cebpf4jnsgd1na2vs0mg"},{"bike_id":"ad9d6e94-a639-469e-9892-0c7fed511f97","system_id":"levelo_inurba_marseille","lat":43.26567,"lon":5.37289,"is_reserved":false,"is_disabled":false,"rental_uris":{"android":"levelo://app?vid=ad9d6e94-a639-469e-9892-0c7fed511f97","ios":"levelo://app?vid=ad9d6e94-a639-469e-9892-0c7fed511f97"},"vehicle_type_id":"4","last_reported":1727964528,"current_range_meters":20800,"station_id":"ce4bhg12rcd13ifvqf70","pricing_plan_id":"cebpf4jnsgd1na2vs0mg"},{"bike_id":"279378b5-bdfd-4139-a8ee-ca339ddef503","system_id":"levelo_inurba_marseille","lat":43.31114,"lon":5.37763,"is_reserved":false,"is_disabled":false,"rental_uris":{"android":"levelo://app?vid=279378b5-bdfd-4139-a8ee-ca339ddef503","ios":"levelo://app?vid=279378b5-bdfd-4139-a8ee-ca339ddef503"},"vehicle_type_id":"4","last_reported":1727964528,"current_range_meters":38800,"station_id":"ce4bgt92rcd13ifvqcg0","pricing_plan_id":"cebpf4jnsgd1na2vs0mg"},{"bike_id":"0ef612cc-2a4c-4efc-be29-113e1471189b","system_id":"levelo_inurba_marseille","lat":43.28849,"lon":5.35833,"is_reserved":false,"is_disabled":false,"rental_uris":{"android":"levelo://app?vid=0ef612cc-2a4c-4efc-be29-113e1471189b","ios":"levelo://app?vid=0ef612cc-2a4c-4efc-be29-113e1471189b"},"vehicle_type_id":"4","last_reported":1727964528,"current_range_meters":38800,"station_id":"ce4bhb12rcd13ifvqem0","pricing_plan_id":"cebpf4jnsgd1na2vs0mg"},{"bike_id":"3e2daf70-0524-4e71-8de4-0ed4b5df5a53","system_id":"levelo_inurba_marseille","lat":43.25499,"lon":5.37645,"is_reserved":false,"is_disabled":false,"rental_uris":{"android":"levelo://app?vid=3e2daf70-0524-4e71-8de4-0ed4b5df5a53","ios":"levelo://app?vid=3e2daf70-0524-4e71-8de4-0ed4b5df5a53"},"vehicle_type_id":"4","last_reported":1727964528,"current_range_meters":23200,"station_id":"ce4bhh12rcd13ifvqff0","pricing_plan_id":"cebpf4jnsgd1na2vs0mg"},{"bike_id":"529979a7-067a-4819-b0ac-ae3e3753cb84","system_id":"levelo_inurba_marseille","lat":43.25581,"lon":5.3824,"is_reserved":false,"is_disabled":false,"rental_uris":{"android":"levelo://app?vid=529979a7-067a-4819-b0ac-ae3e3753cb84","ios":"levelo://app?vid=529979a7-067a-4819-b0ac-ae3e3753cb84"},"vehicle_type_id":"4","last_reported":1727964528,"current_range_meters":35200,"station_id":"ce4bhih2rcd13ifvqfs0","pricing_plan_id":"cebpf4jnsgd1na2vs0mg"},{"bike_id":"228e128a-5af5-46f4-8044-b656b080814e","system_id":"levelo_inurba_marseille","lat":43.29173,"lon":5.37148,"is_reserved":false,"is_disabled":false,"rental_uris":{"android":"levelo://app?vid=228e128a-5af5-46f4-8044-b656b080814e","ios":"levelo://app?vid=228e128a-5af5-46f4-8044-b656b080814e"},"vehicle_type_id":"4","last_reported":1727964528,"current_range_meters":35200,"station_id":"ce4bha92rcd13ifvqeh0","pricing_plan_id":"cebpf4jnsgd1na2vs0mg"},{"bike_id":"76f567d4-1967-4cea-af8b-fd617ffaec8d","system_id":"levelo_inurba_marseille","lat":43.28278,"lon":5.35065,"is_reserved":false,"is_disabled":false,"rental_uris":{"android":"levelo://app?vid=76f567d4-1967-4cea-af8b-fd617ffaec8d","ios":"levelo://app?vid=76f567d4-1967-4cea-af8b-fd617ffaec8d"},"vehicle_type_id":"4","last_reported":1727964528,"current_range_meters":27200,"station_id":"ce4bhbp2rcd13ifvqerg","pricing_plan_id":"cebpf4jnsgd1na2vs0mg"},{"bike_id":"15a4778f-6e97-4c91-b5c2-2357cf86bc0e","system_id":"levelo_inurba_marseille","lat":43.33757,"lon":5.37411,"is_reserved":false,"is_disabled":false,"rental_uris":{"android":"levelo://app?vid=15a4778f-6e97-4c91-b5c2-2357cf86bc0e","ios":"levelo://app?vid=15a4778f-6e97-4c91-b5c2-2357cf86bc0e"},"vehicle_type_id":"4","last_reported":1727964528,"current_range_meters":35600,"station_id":"","pricing_plan_id":"cebpf4jnsgd1na2vs0mg"},{"bike_id":"34f592f1-50de-43ec-8f45-60c7b8e4911f","system_id":"levelo_inurba_marseille","lat":43.27372,"lon":5.36249,"is_reserved":false,"is_disabled":false,"rental_uris":{"android":"levelo://app?vid=34f592f1-50de-43ec-8f45-60c7b8e4911f","ios":"levelo://app?vid=34f592f1-50de-43ec-8f45-60c7b8e4911f"},"vehicle_type_id":"4","last_reported":1727964528,"current_range_meters":33600,"station_id":"ce4bhbh2rcd13ifvqeo0","pricing_plan_id":"cebpf4jnsgd1na2vs0mg"},{"bike_id":"7bfb5721-baf3-4893-bbf9-7c8112a113a1","system_id":"levelo_inurba_marseille","lat":43.27994,"lon":5.40012,"is_reserved":false,"is_disabled":false,"rental_uris":{"android":"levelo://app?vid=7bfb5721-baf3-4893-bbf9-7c8112a113a1","ios":"levelo://app?vid=7bfb5721-baf3-4893-bbf9-7c8112a113a1"},"vehicle_type_id":"4","last_reported":1727964528,"current_range_meters":33600,"station_id":"ce4bho92rcd13ifvqh4g","pricing_plan_id":"cebpf4jnsgd1na2vs0mg"},{"bike_id":"6221c290-42f0-48fb-9761-7e64e885d9a1","system_id":"levelo_inurba_marseille","lat":43.3254,"lon":5.41452,"is_reserved":false,"is_disabled":false,"rental_uris":{"android":"levelo://app?vid=6221c290-42f0-48fb-9761-7e64e885d9a1","ios":"levelo://app?vid=6221c290-42f0-48fb-9761-7e64e885d9a1"},"vehicle_type_id":"4","last_reported":1727964528,"current_range_meters":38800,"station_id":"ce4bhq12rcd13ifvqhhg","pricing_plan_id":"cebpf4jnsgd1na2vs0mg"},{"bike_id":"4491ad8d-0f5f-4170-a2b4-2cbe70bb99c0","system_id":"levelo_inurba_marseille","lat":43.29985,"lon":5.37184,"is_reserved":false,"is_disabled":false,"rental_uris":{"android":"levelo://app?vid=4491ad8d-0f5f-4170-a2b4-2cbe70bb99c0","ios":"levelo://app?vid=4491ad8d-0f5f-4170-a2b4-2cbe70bb99c0"},"vehicle_type_id":"4","last_reported":1727964528,"current_range_meters":38400,"station_id":"ce4bgr92rcd13ifvqc7g","pricing_plan_id":"cebpf4jnsgd1na2vs0mg"},{"bike_id":"71df8d68-d681-474c-bc91-c17849864970","system_id":"levelo_inurba_marseille","lat":43.31218,"lon":5.36864,"is_reserved":false,"is_disabled":false,"rental_uris":{"android":"levelo://app?vid=71df8d68-d681-474c-bc91-c17849864970","ios":"levelo://app?vid=71df8d68-d681-474c-bc91-c17849864970"},"vehicle_type_id":"4","last_reported":1727964528,"current_range_meters":11200,"station_id":"ce4bgl92rcd13ifvqbq0","pricing_plan_id":"cebpf4jnsgd1na2vs0mg"},{"bike_id":"817c9a23-cf0f-4867-8488-477e32c13792","system_id":"levelo_inurba_marseille","lat":43.24667,"lon":5.38164,"is_reserved":false,"is_disabled":false,"rental_uris":{"android":"levelo://app?vid=817c9a23-cf0f-4867-8488-477e32c13792","ios":"levelo://app?vid=817c9a23-cf0f-4867-8488-477e32c13792"},"vehicle_type_id":"4","last_reported":1727964528,"current_range_meters":20400,"station_id":"ce4bhih2rcd13ifvqfr0","pricing_plan_id":"cebpf4jnsgd1na2vs0mg"},{"bike_id":"34a0ea9d-ee33-4584-885d-bef1888c013d","system_id":"levelo_inurba_marseille","lat":43.31321,"lon":5.36745,"is_reserved":false,"is_disabled":false,"rental_uris":{"android":"levelo://app?vid=34a0ea9d-ee33-4584-885d-bef1888c013d","ios":"levelo://app?vid=34a0ea9d-ee33-4584-885d-bef1888c013d"},"vehicle_type_id":"4","last_reported":1727964528,"current_range_meters":18800,"station_id":"ce4bgr92rcd13ifvqc6g","pricing_plan_id":"cebpf4jnsgd1na2vs0mg"},{"bike_id":"b2b5adf0-55ac-4a8e-8494-1340b027db9e","system_id":"levelo_inurba_marseille","lat":43.30547,"lon":5.367,"is_reserved":false,"is_disabled":false,"rental_uris":{"android":"levelo://app?vid=b2b5adf0-55ac-4a8e-8494-1340b027db9e","ios":"levelo://app?vid=b2b5adf0-55ac-4a8e-8494-1340b027db9e"},"vehicle_type_id":"4","last_reported":1727964528,"current_range_meters":30000,"station_id":"ce4bgrp2rcd13ifvqc9g","pricing_plan_id":"cebpf4jnsgd1na2vs0mg"},{"bike_id":"4d7b92bd-fb4a-4851-9d74-ec38fbbbdb1b","system_id":"levelo_inurba_marseille","lat":43.337444,"lon":5.374475,"is_reserved":false,"is_disabled":false,"rental_uris":{"android":"levelo://app?vid=4d7b92bd-fb4a-4851-9d74-ec38fbbbdb1b","ios":"levelo://app?vid=4d7b92bd-fb4a-4851-9d74-ec38fbbbdb1b"},"vehicle_type_id":"4","last_reported":1727964528,"current_range_meters":36000,"station_id":"","pricing_plan_id":"cebpf4jnsgd1na2vs0mg"},{"bike_id":"dc972874-4297-4af0-8716-41505e4ef91d","system_id":"levelo_inurba_marseille","lat":43.32486,"lon":5.36549,"is_reserved":false,"is_disabled":false,"rental_uris":{"android":"levelo://app?vid=dc972874-4297-4af0-8716-41505e4ef91d","ios":"levelo://app?vid=dc972874-4297-4af0-8716-41505e4ef91d"},"vehicle_type_id":"4","last_reported":1727964528,"current_range_meters":28800,"station_id":"ce4bhs12rcd13ifvqhvg","pricing_plan_id":"cebpf4jnsgd1na2vs0mg"},{"bike_id":"ffd5bb06-fd77-49ac-9ecf-825c80b9bed2","system_id":"levelo_inurba_marseille","lat":43.30538,"lon":5.36565,"is_reserved":false,"is_disabled":false,"rental_uris":{"android":"levelo://app?vid=ffd5bb06-fd77-49ac-9ecf-825c80b9bed2","ios":"levelo://app?vid=ffd5bb06-fd77-49ac-9ecf-825c80b9bed2"},"vehicle_type_id":"4","last_reported":1727964528,"current_range_meters":19600,"station_id":"ce4bgs12rcd13ifvqcag","pricing_plan_id":"cebpf4jnsgd1na2vs0mg"},{"bike_id":"8b426252-90ee-4cb1-a2a0-ac5baa109860","system_id":"levelo_inurba_marseille","lat":43.29254,"lon":5.36853,"is_reserved":false,"is_disabled":false,"rental_uris":{"android":"levelo://app?vid=8b426252-90ee-4cb1-a2a0-ac5baa109860","ios":"levelo://app?vid=8b426252-90ee-4cb1-a2a0-ac5baa109860"},"vehicle_type_id":"4","last_reported":1727964528,"current_range_meters":16800,"station_id":"ce4bhbp2rcd13ifvqesg","pricing_plan_id":"cebpf4jnsgd1na2vs0mg"},{"bike_id":"44bd8605-a4d7-47ec-940a-af1add80fe6d","system_id":"levelo_inurba_marseille","lat":43.24803,"lon":5.37454,"is_reserved":false,"is_disabled":false,"rental_uris":{"android":"levelo://app?vid=44bd8605-a4d7-47ec-940a-af1add80fe6d","ios":"levelo://app?vid=44bd8605-a4d7-47ec-940a-af1add80fe6d"},"vehicle_type_id":"4","last_reported":1727964528,"current_range_meters":20800,"station_id":"ce4bhgh2rcd13ifvqfb0","pricing_plan_id":"cebpf4jnsgd1na2vs0mg"},{"bike_id":"791a01c0-56bc-4060-9a4b-e19ccefe819a","system_id":"levelo_inurba_marseille","lat":43.29704,"lon":5.36604,"is_reserved":false,"is_disabled":false,"rental_uris":{"android":"levelo://app?vid=791a01c0-56bc-4060-9a4b-e19ccefe819a","ios":"levelo://app?vid=791a01c0-56bc-4060-9a4b-e19ccefe819a"},"vehicle_type_id":"4","last_reported":1727964528,"current_range_meters":20400,"station_id":"ce4bgn12rcd13ifvqbt0","pricing_plan_id":"cebpf4jnsgd1na2vs0mg"},{"bike_id":"554d9ed6-0f5b-4b36-8ce8-bebb1d34c7a3","system_id":"levelo_inurba_marseille","lat":43.29627,"lon":5.40593,"is_reserved":false,"is_disabled":false,"rental_uris":{"android":"levelo://app?vid=554d9ed6-0f5b-4b36-8ce8-bebb1d34c7a3","ios":"levelo://app?vid=554d9ed6-0f5b-4b36-8ce8-bebb1d34c7a3"},"vehicle_type_id":"4","last_reported":1727964528,"current_range_meters":17600,"station_id":"ce4bh0h2rcd13ifvqd60","pricing_plan_id":"cebpf4jnsgd1na2vs0mg"},{"bike_id":"8403fd36-25cb-41a8-8e6e-b8b92f3346ef","system_id":"levelo_inurba_marseille","lat":43.30311,"lon":5.36881,"is_reserved":false,"is_disabled":false,"rental_uris":{"android":"levelo://app?vid=8403fd36-25cb-41a8-8e6e-b8b92f3346ef","ios":"levelo://app?vid=8403fd36-25cb-41a8-8e6e-b8b92f3346ef"},"vehicle_type_id":"4","last_reported":1727964528,"current_range_meters":30000,"station_id":"ce4bgqh2rcd13ifvqc5g","pricing_plan_id":"cebpf4jnsgd1na2vs0mg"},{"bike_id":"d7db08aa-cc45-4ef8-ac0c-cd2100497c50","system_id":"levelo_inurba_marseille","lat":43.25494,"lon":5.37647,"is_reserved":false,"is_disabled":false,"rental_uris":{"android":"levelo://app?vid=d7db08aa-cc45-4ef8-ac0c-cd2100497c50","ios":"levelo://app?vid=d7db08aa-cc45-4ef8-ac0c-cd2100497c50"},"vehicle_type_id":"4","last_reported":1727964528,"current_range_meters":23200,"station_id":"ce4bhh12rcd13ifvqff0","pricing_plan_id":"cebpf4jnsgd1na2vs0mg"},{"bike_id":"44171b05-179e-4468-bd46-31e899007a9a","system_id":"levelo_inurba_marseille","lat":43.28692,"lon":5.39986,"is_reserved":false,"is_disabled":false,"rental_uris":{"android":"levelo://app?vid=44171b05-179e-4468-bd46-31e899007a9a","ios":"levelo://app?vid=44171b05-179e-4468-bd46-31e899007a9a"},"vehicle_type_id":"4","last_reported":1727964528,"current_range_meters":18000,"station_id":"ce4bho92rcd13ifvqh3g","pricing_plan_id":"cebpf4jnsgd1na2vs0mg"},{"bike_id":"55bb5a22-967e-4f86-9cba-66561ae930ed","system_id":"levelo_inurba_marseille","lat":43.31123,"lon":5.37758,"is_reserved":false,"is_disabled":false,"rental_uris":{"android":"levelo://app?vid=55bb5a22-967e-4f86-9cba-66561ae930ed","ios":"levelo://app?vid=55bb5a22-967e-4f86-9cba-66561ae930ed"},"vehicle_type_id":"4","last_reported":1727964528,"current_range_meters":10800,"station_id":"ce4bgt92rcd13ifvqcg0","pricing_plan_id":"cebpf4jnsgd1na2vs0mg"},{"bike_id":"d9ec5fdb-8de0-4f96-a52e-dca7f1b661e9","system_id":"levelo_inurba_marseille","lat":43.27945,"lon":5.41046,"is_reserved":false,"is_disabled":false,"rental_uris":{"android":"levelo://app?vid=d9ec5fdb-8de0-4f96-a52e-dca7f1b661e9","ios":"levelo://app?vid=d9ec5fdb-8de0-4f96-a52e-dca7f1b661e9"},"vehicle_type_id":"4","last_reported":1727964528,"current_range_meters":10000,"station_id":"ce4bhnp2rcd13ifvqh0g","pricing_plan_id":"cebpf4jnsgd1na2vs0mg"},{"bike_id":"5ccfd2d5-6b5c-4129-b6b8-5390787d4fdc","system_id":"levelo_inurba_marseille","lat":43.30293,"lon":5.39214,"is_reserved":false,"is_disabled":false,"rental_uris":{"android":"levelo://app?vid=5ccfd2d5-6b5c-4129-b6b8-5390787d4fdc","ios":"levelo://app?vid=5ccfd2d5-6b5c-4129-b6b8-5390787d4fdc"},"vehicle_type_id":"4","last_reported":1727964528,"current_range_meters":36400,"station_id":"ce4bgkh2rcd13ifvqbk0","pricing_plan_id":"cebpf4jnsgd1na2vs0mg"},{"bike_id":"e0c48003-2ef5-4383-865f-7d37168fabd8","system_id":"levelo_inurba_marseille","lat":43.26941,"lon":5.40252,"is_reserved":false,"is_disabled":false,"rental_uris":{"android":"levelo://app?vid=e0c48003-2ef5-4383-865f-7d37168fabd8","ios":"levelo://app?vid=e0c48003-2ef5-4383-865f-7d37168fabd8"},"vehicle_type_id":"4","last_reported":1727964528,"current_range_meters":12800,"station_id":"cjm6bp8fraef2m0cb0m0","pricing_plan_id":"cebpf4jnsgd1na2vs0mg"},{"bike_id":"07eb7ada-fcde-4e13-a204-d9f79ede21ab","system_id":"levelo_inurba_marseille","lat":43.29584,"lon":5.37516,"is_reserved":false,"is_disabled":false,"rental_uris":{"android":"levelo://app?vid=07eb7ada-fcde-4e13-a204-d9f79ede21ab","ios":"levelo://app?vid=07eb7ada-fcde-4e13-a204-d9f79ede21ab"},"vehicle_type_id":"4","last_reported":1727964528,"current_range_meters":4400,"station_id":"ce4bgh92rcd13ifvqb50","pricing_plan_id":"cebpf4jnsgd1na2vs0mg"},{"bike_id":"74877eaa-458e-4fa3-8fdb-c0cb6076638b","system_id":"levelo_inurba_marseille","lat":43.27369,"lon":5.36257,"is_reserved":false,"is_disabled":false,"rental_uris":{"android":"levelo://app?vid=74877eaa-458e-4fa3-8fdb-c0cb6076638b","ios":"levelo://app?vid=74877eaa-458e-4fa3-8fdb-c0cb6076638b"},"vehicle_type_id":"4","last_reported":1727964528,"current_range_meters":20800,"station_id":"ce4bhbh2rcd13ifvqeo0","pricing_plan_id":"cebpf4jnsgd1na2vs0mg"},{"bike_id":"1c21e555-363c-49ea-97da-5c6e5f3cb6ff","system_id":"levelo_inurba_marseille","lat":43.240356,"lon":5.366128,"is_reserved":false,"is_disabled":false,"rental_uris":{"android":"levelo://app?vid=1c21e555-363c-49ea-97da-5c6e5f3cb6ff","ios":"levelo://app?vid=1c21e555-363c-49ea-97da-5c6e5f3cb6ff"},"vehicle_type_id":"4","last_reported":1727964528,"current_range_meters":10800,"station_id":"ce4bhi12rcd13ifvqfp0","pricing_plan_id":"cebpf4jnsgd1na2vs0mg"},{"bike_id":"fd872ba7-9877-4e67-9269-d8995abba644","system_id":"levelo_inurba_marseille","lat":43.22935,"lon":5.35375,"is_reserved":false,"is_disabled":false,"rental_uris":{"android":"levelo://app?vid=fd872ba7-9877-4e67-9269-d8995abba644","ios":"levelo://app?vid=fd872ba7-9877-4e67-9269-d8995abba644"},"vehicle_type_id":"4","last_reported":1727964528,"current_range_meters":25200,"station_id":"cpo3532slgdg3j2ikp40","pricing_plan_id":"cebpf4jnsgd1na2vs0mg"},{"bike_id":"4e256eeb-30cc-4407-99d4-b14c54352d07","system_id":"levelo_inurba_marseille","lat":43.2743,"lon":5.39412,"is_reserved":false,"is_disabled":false,"rental_uris":{"android":"levelo://app?vid=4e256eeb-30cc-4407-99d4-b14c54352d07","ios":"levelo://app?vid=4e256eeb-30cc-4407-99d4-b14c54352d07"},"vehicle_type_id":"4","last_reported":1727964528,"current_range_meters":8400,"station_id":"ce4bhdp2rcd13ifvqf20","pricing_plan_id":"cebpf4jnsgd1na2vs0mg"},{"bike_id":"a4b6e82a-9982-47c0-80bb-09de1a813ec4","system_id":"levelo_inurba_marseille","lat":43.29965,"lon":5.3849,"is_reserved":false,"is_disabled":false,"rental_uris":{"android":"levelo://app?vid=a4b6e82a-9982-47c0-80bb-09de1a813ec4","ios":"levelo://app?vid=a4b6e82a-9982-47c0-80bb-09de1a813ec4"},"vehicle_type_id":"4","last_reported":1727964528,"current_range_meters":39200,"station_id":"ce4bgj92rcd13ifvqbd0","pricing_plan_id":"cebpf4jnsgd1na2vs0mg"},{"bike_id":"57c70b37-5907-4ddb-8187-528c392943d9","system_id":"levelo_inurba_marseille","lat":43.26561,"lon":5.39009,"is_reserved":false,"is_disabled":false,"rental_uris":{"android":"levelo://app?vid=57c70b37-5907-4ddb-8187-528c392943d9","ios":"levelo://app?vid=57c70b37-5907-4ddb-8187-528c392943d9"},"vehicle_type_id":"4","last_reported":1727964528,"current_range_meters":14400,"station_id":"ce4bhe12rcd13ifvqf30","pricing_plan_id":"cebpf4jnsgd1na2vs0mg"},{"bike_id":"4a747835-d704-49de-b6c2-9706bbeb173f","system_id":"levelo_inurba_marseille","lat":43.24666,"lon":5.38167,"is_reserved":false,"is_disabled":false,"rental_uris":{"android":"levelo://app?vid=4a747835-d704-49de-b6c2-9706bbeb173f","ios":"levelo://app?vid=4a747835-d704-49de-b6c2-9706bbeb173f"},"vehicle_type_id":"4","last_reported":1727964528,"current_range_meters":22400,"station_id":"ce4bhih2rcd13ifvqfr0","pricing_plan_id":"cebpf4jnsgd1na2vs0mg"},{"bike_id":"8b3c50f3-8b90-4fdf-925b-419cef19e8bf","system_id":"levelo_inurba_marseille","lat":43.26943,"lon":5.40253,"is_reserved":false,"is_disabled":false,"rental_uris":{"android":"levelo://app?vid=8b3c50f3-8b90-4fdf-925b-419cef19e8bf","ios":"levelo://app?vid=8b3c50f3-8b90-4fdf-925b-419cef19e8bf"},"vehicle_type_id":"4","last_reported":1727964528,"current_range_meters":10800,"station_id":"cjm6bp8fraef2m0cb0m0","pricing_plan_id":"cebpf4jnsgd1na2vs0mg"},{"bike_id":"19b28b1f-edc6-4636-8008-567154589778","system_id":"levelo_inurba_marseille","lat":43.29162,"lon":5.37149,"is_reserved":false,"is_disabled":false,"rental_uris":{"android":"levelo://app?vid=19b28b1f-edc6-4636-8008-567154589778","ios":"levelo://app?vid=19b28b1f-edc6-4636-8008-567154589778"},"vehicle_type_id":"4","last_reported":1727964528,"current_range_meters":8800,"station_id":"ce4bha92rcd13ifvqeh0","pricing_plan_id":"cebpf4jnsgd1na2vs0mg"},{"bike_id":"de302269-fdda-4ef3-9935-87f4834e17d5","system_id":"levelo_inurba_marseille","lat":43.25932,"lon":5.40908,"is_reserved":false,"is_disabled":false,"rental_uris":{"android":"levelo://app?vid=de302269-fdda-4ef3-9935-87f4834e17d5","ios":"levelo://app?vid=de302269-fdda-4ef3-9935-87f4834e17d5"},"vehicle_type_id":"4","last_reported":1727964528,"current_range_meters":8800,"station_id":"ce4bhm92rcd13ifvqglg","pricing_plan_id":"cebpf4jnsgd1na2vs0mg"},{"bike_id":"cc330ff8-0b34-4768-9586-5006e70906ab","system_id":"levelo_inurba_marseille","lat":43.30127,"lon":5.39865,"is_reserved":false,"is_disabled":false,"rental_uris":{"android":"levelo://app?vid=cc330ff8-0b34-4768-9586-5006e70906ab","ios":"levelo://app?vid=cc330ff8-0b34-4768-9586-5006e70906ab"},"vehicle_type_id":"4","last_reported":1727964528,"current_range_meters":38800,"station_id":"ce4bh0h2rcd13ifvqd40","pricing_plan_id":"cebpf4jnsgd1na2vs0mg"},{"bike_id":"e29eec06-ee2f-4e4a-8ccc-0c6727773c98","system_id":"levelo_inurba_marseille","lat":43.32051,"lon":5.41542,"is_reserved":false,"is_disabled":false,"rental_uris":{"android":"levelo://app?vid=e29eec06-ee2f-4e4a-8ccc-0c6727773c98","ios":"levelo://app?vid=e29eec06-ee2f-4e4a-8ccc-0c6727773c98"},"vehicle_type_id":"4","last_reported":1727964528,"current_range_meters":16800,"station_id":"ce4bhq92rcd13ifvqhkg","pricing_plan_id":"cebpf4jnsgd1na2vs0mg"},{"bike_id":"0f53c290-ccde-436e-93da-5e6799c490b6","system_id":"levelo_inurba_marseille","lat":43.31755,"lon":5.39022,"is_reserved":false,"is_disabled":false,"rental_uris":{"android":"levelo://app?vid=0f53c290-ccde-436e-93da-5e6799c490b6","ios":"levelo://app?vid=0f53c290-ccde-436e-93da-5e6799c490b6"},"vehicle_type_id":"4","last_reported":1727964528,"current_range_meters":17200,"station_id":"ce4bhqp2rcd13ifvqhng","pricing_plan_id":"cebpf4jnsgd1na2vs0mg"},{"bike_id":"086469e0-3a4c-449b-823f-3ab025193336","system_id":"levelo_inurba_marseille","lat":43.30155,"lon":5.38098,"is_reserved":false,"is_disabled":false,"rental_uris":{"android":"levelo://app?vid=086469e0-3a4c-449b-823f-3ab025193336","ios":"levelo://app?vid=086469e0-3a4c-449b-823f-3ab025193336"},"vehicle_type_id":"4","last_reported":1727964528,"current_range_meters":27600,"station_id":"ce4bgjp2rcd13ifvqbh0","pricing_plan_id":"cebpf4jnsgd1na2vs0mg"},{"bike_id":"eeb70b9c-43b7-47df-bef9-acfb761293e6","system_id":"levelo_inurba_marseille","lat":43.23199,"lon":5.35546,"is_reserved":false,"is_disabled":false,"rental_uris":{"android":"levelo://app?vid=eeb70b9c-43b7-47df-bef9-acfb761293e6","ios":"levelo://app?vid=eeb70b9c-43b7-47df-bef9-acfb761293e6"},"vehicle_type_id":"4","last_reported":1727964528,"current_range_meters":24800,"station_id":"ce4bhu92rcd13ifvqi70","pricing_plan_id":"cebpf4jnsgd1na2vs0mg"},{"bike_id":"cad59c35-b24f-4e6c-9a13-d33989c2055e","system_id":"levelo_inurba_marseille","lat":43.33022,"lon":5.39037,"is_reserved":false,"is_disabled":false,"rental_uris":{"android":"levelo://app?vid=cad59c35-b24f-4e6c-9a13-d33989c2055e","ios":"levelo://app?vid=cad59c35-b24f-4e6c-9a13-d33989c2055e"},"vehicle_type_id":"4","last_reported":1727964528,"current_range_meters":38800,"station_id":"ce4bhr92rcd13ifvqhrg","pricing_plan_id":"cebpf4jnsgd1na2vs0mg"},{"bike_id":"2b58fe52-cecf-4d77-847f-b40d2ae6cb7d","system_id":"levelo_inurba_marseille","lat":43.31355,"lon":5.36719,"is_reserved":false,"is_disabled":false,"rental_uris":{"android":"levelo://app?vid=2b58fe52-cecf-4d77-847f-b40d2ae6cb7d","ios":"levelo://app?vid=2b58fe52-cecf-4d77-847f-b40d2ae6cb7d"},"vehicle_type_id":"4","last_reported":1727964528,"current_range_meters":4400,"station_id":"ce4bgr92rcd13ifvqc6g","pricing_plan_id":"cebpf4jnsgd1na2vs0mg"},{"bike_id":"efcf964a-28ef-4eae-9342-3b86cfe57d18","system_id":"levelo_inurba_marseille","lat":43.31234,"lon":5.36858,"is_reserved":false,"is_disabled":false,"rental_uris":{"android":"levelo://app?vid=efcf964a-28ef-4eae-9342-3b86cfe57d18","ios":"levelo://app?vid=efcf964a-28ef-4eae-9342-3b86cfe57d18"},"vehicle_type_id":"4","last_reported":1727964528,"current_range_meters":36400,"station_id":"ce4bgl92rcd13ifvqbq0","pricing_plan_id":"cebpf4jnsgd1na2vs0mg"},{"bike_id":"7497adf6-4009-4c2b-aa95-271e71d79d15","system_id":"levelo_inurba_marseille","lat":43.28971,"lon":5.37827,"is_reserved":false,"is_disabled":false,"rental_uris":{"android":"levelo://app?vid=7497adf6-4009-4c2b-aa95-271e71d79d15","ios":"levelo://app?vid=7497adf6-4009-4c2b-aa95-271e71d79d15"},"vehicle_type_id":"4","last_reported":1727964528,"current_range_meters":28400,"station_id":"ce4bh9p2rcd13ifvqed0","pricing_plan_id":"cebpf4jnsgd1na2vs0mg"},{"bike_id":"d7060ff7-68c1-4236-b0a0-16e3c7f9d69c","system_id":"levelo_inurba_marseille","lat":43.3022,"lon":5.39478,"is_reserved":false,"is_disabled":false,"rental_uris":{"android":"levelo://app?vid=d7060ff7-68c1-4236-b0a0-16e3c7f9d69c","ios":"levelo://app?vid=d7060ff7-68c1-4236-b0a0-16e3c7f9d69c"},"vehicle_type_id":"4","last_reported":1727964528,"current_range_meters":10000,"station_id":"ce4bh0p2rcd13ifvqd70","pricing_plan_id":"cebpf4jnsgd1na2vs0mg"},{"bike_id":"0df75662-c50e-4d6e-b480-32a90e840240","system_id":"levelo_inurba_marseille","lat":43.3093,"lon":5.40145,"is_reserved":false,"is_disabled":false,"rental_uris":{"android":"levelo://app?vid=0df75662-c50e-4d6e-b480-32a90e840240","ios":"levelo://app?vid=0df75662-c50e-4d6e-b480-32a90e840240"},"vehicle_type_id":"4","last_reported":1727964528,"current_range_meters":22400,"station_id":"ce4bgvp2rcd13ifvqct0","pricing_plan_id":"cebpf4jnsgd1na2vs0mg"},{"bike_id":"3e0992f8-9701-463f-a537-552cc0a00db3","system_id":"levelo_inurba_marseille","lat":43.28457,"lon":5.35881,"is_reserved":false,"is_disabled":false,"rental_uris":{"android":"levelo://app?vid=3e0992f8-9701-463f-a537-552cc0a00db3","ios":"levelo://app?vid=3e0992f8-9701-463f-a537-552cc0a00db3"},"vehicle_type_id":"4","last_reported":1727964528,"current_range_meters":14800,"station_id":"ce4bhah2rcd13ifvqei0","pricing_plan_id":"cebpf4jnsgd1na2vs0mg"},{"bike_id":"40537a19-5db9-40a0-9dad-4c1cf88d35a2","system_id":"levelo_inurba_marseille","lat":43.26209,"lon":5.37443,"is_reserved":false,"is_disabled":false,"rental_uris":{"android":"levelo://app?vid=40537a19-5db9-40a0-9dad-4c1cf88d35a2","ios":"levelo://app?vid=40537a19-5db9-40a0-9dad-4c1cf88d35a2"},"vehicle_type_id":"4","last_reported":1727964528,"current_range_meters":8800,"station_id":"ce4bhgp2rcd13ifvqfc0","pricing_plan_id":"cebpf4jnsgd1na2vs0mg"},{"bike_id":"6cbb47f5-8160-4ea7-9030-54e767db7866","system_id":"levelo_inurba_marseille","lat":43.312653,"lon":5.401659,"is_reserved":false,"is_disabled":false,"rental_uris":{"android":"levelo://app?vid=6cbb47f5-8160-4ea7-9030-54e767db7866","ios":"levelo://app?vid=6cbb47f5-8160-4ea7-9030-54e767db7866"},"vehicle_type_id":"4","last_reported":1727964528,"current_range_meters":14000,"station_id":"ce4bh092rcd13ifvqd30","pricing_plan_id":"cebpf4jnsgd1na2vs0mg"},{"bike_id":"d45e2ce7-bfdb-4de5-9b5c-e84bf817b59c","system_id":"levelo_inurba_marseille","lat":43.29267,"lon":5.36851,"is_reserved":false,"is_disabled":false,"rental_uris":{"android":"levelo://app?vid=d45e2ce7-bfdb-4de5-9b5c-e84bf817b59c","ios":"levelo://app?vid=d45e2ce7-bfdb-4de5-9b5c-e84bf817b59c"},"vehicle_type_id":"4","last_reported":1727964528,"current_range_meters":33600,"station_id":"ce4bhbp2rcd13ifvqesg","pricing_plan_id":"cebpf4jnsgd1na2vs0mg"},{"bike_id":"b1ca5166-4c6a-4634-9b31-a1f7eaf8b15b","system_id":"levelo_inurba_marseille","lat":43.31075,"lon":5.3835,"is_reserved":false,"is_disabled":false,"rental_uris":{"android":"levelo://app?vid=b1ca5166-4c6a-4634-9b31-a1f7eaf8b15b","ios":"levelo://app?vid=b1ca5166-4c6a-4634-9b31-a1f7eaf8b15b"},"vehicle_type_id":"4","last_reported":1727964528,"current_range_meters":30800,"station_id":"ce4bgv92rcd13ifvqcr0","pricing_plan_id":"cebpf4jnsgd1na2vs0mg"},{"bike_id":"f3d43b10-369f-430d-84d9-42299ff5dbe4","system_id":"levelo_inurba_marseille","lat":43.31491,"lon":5.37298,"is_reserved":false,"is_disabled":false,"rental_uris":{"android":"levelo://app?vid=f3d43b10-369f-430d-84d9-42299ff5dbe4","ios":"levelo://app?vid=f3d43b10-369f-430d-84d9-42299ff5dbe4"},"vehicle_type_id":"4","last_reported":1727964528,"current_range_meters":36000,"station_id":"ce4bgt12rcd13ifvqcd0","pricing_plan_id":"cebpf4jnsgd1na2vs0mg"},{"bike_id":"24508f72-6f72-4ddc-a121-e64b5fd7b5d3","system_id":"levelo_inurba_marseille","lat":43.23179,"lon":5.3998,"is_reserved":false,"is_disabled":false,"rental_uris":{"android":"levelo://app?vid=24508f72-6f72-4ddc-a121-e64b5fd7b5d3","ios":"levelo://app?vid=24508f72-6f72-4ddc-a121-e64b5fd7b5d3"},"vehicle_type_id":"4","last_reported":1727964528,"current_range_meters":24800,"station_id":"ce4bhn12rcd13ifvqgqg","pricing_plan_id":"cebpf4jnsgd1na2vs0mg"},{"bike_id":"8be05048-e3d9-495f-b256-5843a165f0a1","system_id":"levelo_inurba_marseille","lat":43.31364,"lon":5.38492,"is_reserved":false,"is_disabled":false,"rental_uris":{"android":"levelo://app?vid=8be05048-e3d9-495f-b256-5843a165f0a1","ios":"levelo://app?vid=8be05048-e3d9-495f-b256-5843a165f0a1"},"vehicle_type_id":"4","last_reported":1727964528,"current_range_meters":38800,"station_id":"ce4bgt92rcd13ifvqcf0","pricing_plan_id":"cebpf4jnsgd1na2vs0mg"},{"bike_id":"dfcabb21-11fe-4910-9030-0b21cea77b26","system_id":"levelo_inurba_marseille","lat":43.29971,"lon":5.38492,"is_reserved":false,"is_disabled":false,"rental_uris":{"android":"levelo://app?vid=dfcabb21-11fe-4910-9030-0b21cea77b26","ios":"levelo://app?vid=dfcabb21-11fe-4910-9030-0b21cea77b26"},"vehicle_type_id":"4","last_reported":1727964528,"current_range_meters":36800,"station_id":"ce4bgj92rcd13ifvqbd0","pricing_plan_id":"cebpf4jnsgd1na2vs0mg"},{"bike_id":"06dbe27e-7132-4b1c-bc14-baf7864a1505","system_id":"levelo_inurba_marseille","lat":43.28979,"lon":5.37836,"is_reserved":false,"is_disabled":false,"rental_uris":{"android":"levelo://app?vid=06dbe27e-7132-4b1c-bc14-baf7864a1505","ios":"levelo://app?vid=06dbe27e-7132-4b1c-bc14-baf7864a1505"},"vehicle_type_id":"4","last_reported":1727964528,"current_range_meters":24800,"station_id":"ce4bh9p2rcd13ifvqed0","pricing_plan_id":"cebpf4jnsgd1na2vs0mg"},{"bike_id":"d7906f5b-4ec4-430e-a6dc-136f60334eab","system_id":"levelo_inurba_marseille","lat":43.28846,"lon":5.39309,"is_reserved":false,"is_disabled":false,"rental_uris":{"android":"levelo://app?vid=d7906f5b-4ec4-430e-a6dc-136f60334eab","ios":"levelo://app?vid=d7906f5b-4ec4-430e-a6dc-136f60334eab"},"vehicle_type_id":"4","last_reported":1727964528,"current_range_meters":19600,"station_id":"ce4bh2p2rcd13ifvqdi0","pricing_plan_id":"cebpf4jnsgd1na2vs0mg"},{"bike_id":"53c6fe7a-c5f0-4c29-bdb6-08c6c7db5c71","system_id":"levelo_inurba_marseille","lat":43.3211,"lon":5.36777,"is_reserved":false,"is_disabled":false,"rental_uris":{"android":"levelo://app?vid=53c6fe7a-c5f0-4c29-bdb6-08c6c7db5c71","ios":"levelo://app?vid=53c6fe7a-c5f0-4c29-bdb6-08c6c7db5c71"},"vehicle_type_id":"4","last_reported":1727964528,"current_range_meters":9600,"station_id":"ce4bhrh2rcd13ifvqhug","pricing_plan_id":"cebpf4jnsgd1na2vs0mg"},{"bike_id":"6ce60676-3f86-4aaa-a5df-572436c32ad4","system_id":"levelo_inurba_marseille","lat":43.23191,"lon":5.35546,"is_reserved":false,"is_disabled":false,"rental_uris":{"android":"levelo://app?vid=6ce60676-3f86-4aaa-a5df-572436c32ad4","ios":"levelo://app?vid=6ce60676-3f86-4aaa-a5df-572436c32ad4"},"vehicle_type_id":"4","last_reported":1727964528,"current_range_meters":19600,"station_id":"ce4bhu92rcd13ifvqi70","pricing_plan_id":"cebpf4jnsgd1na2vs0mg"},{"bike_id":"db529dbd-a157-4db6-ab56-5a5e47145cac","system_id":"levelo_inurba_marseille","lat":43.25502,"lon":5.37646,"is_reserved":false,"is_disabled":false,"rental_uris":{"android":"levelo://app?vid=db529dbd-a157-4db6-ab56-5a5e47145cac","ios":"levelo://app?vid=db529dbd-a157-4db6-ab56-5a5e47145cac"},"vehicle_type_id":"4","last_reported":1727964528,"current_range_meters":39200,"station_id":"ce4bhh12rcd13ifvqff0","pricing_plan_id":"cebpf4jnsgd1na2vs0mg"},{"bike_id":"dee6229e-26d0-4d7e-9236-92ea7c2f2755","system_id":"levelo_inurba_marseille","lat":43.29624,"lon":5.37152,"is_reserved":false,"is_disabled":false,"rental_uris":{"android":"levelo://app?vid=dee6229e-26d0-4d7e-9236-92ea7c2f2755","ios":"levelo://app?vid=dee6229e-26d0-4d7e-9236-92ea7c2f2755"},"vehicle_type_id":"4","last_reported":1727964528,"current_range_meters":39200,"station_id":"ce4bgnh2rcd13ifvqc0g","pricing_plan_id":"cebpf4jnsgd1na2vs0mg"},{"bike_id":"4f99c962-4a0f-4409-834b-9cd90fdeb1ea","system_id":"levelo_inurba_marseille","lat":43.30297,"lon":5.39211,"is_reserved":false,"is_disabled":false,"rental_uris":{"android":"levelo://app?vid=4f99c962-4a0f-4409-834b-9cd90fdeb1ea","ios":"levelo://app?vid=4f99c962-4a0f-4409-834b-9cd90fdeb1ea"},"vehicle_type_id":"4","last_reported":1727964528,"current_range_meters":22400,"station_id":"ce4bgkh2rcd13ifvqbk0","pricing_plan_id":"cebpf4jnsgd1na2vs0mg"},{"bike_id":"a66e74ea-0611-4442-9a17-8469c4cc93a2","system_id":"levelo_inurba_marseille","lat":43.26678,"lon":5.38268,"is_reserved":false,"is_disabled":false,"rental_uris":{"android":"levelo://app?vid=a66e74ea-0611-4442-9a17-8469c4cc93a2","ios":"levelo://app?vid=a66e74ea-0611-4442-9a17-8469c4cc93a2"},"vehicle_type_id":"4","last_reported":1727964528,"current_range_meters":17200,"station_id":"ce4bhg92rcd13ifvqf90","pricing_plan_id":"cebpf4jnsgd1na2vs0mg"},{"bike_id":"a708ac21-9501-450c-9d7f-3972c5da7450","system_id":"levelo_inurba_marseille","lat":43.30461,"lon":5.37903,"is_reserved":false,"is_disabled":false,"rental_uris":{"android":"levelo://app?vid=a708ac21-9501-450c-9d7f-3972c5da7450","ios":"levelo://app?vid=a708ac21-9501-450c-9d7f-3972c5da7450"},"vehicle_type_id":"4","last_reported":1727964528,"current_range_meters":26000,"station_id":"ce4bgup2rcd13ifvqcn0","pricing_plan_id":"cebpf4jnsgd1na2vs0mg"},{"bike_id":"67379eee-fa7d-4063-9287-5fdaf1731f2f","system_id":"levelo_inurba_marseille","lat":43.31282,"lon":5.40186,"is_reserved":false,"is_disabled":false,"rental_uris":{"android":"levelo://app?vid=67379eee-fa7d-4063-9287-5fdaf1731f2f","ios":"levelo://app?vid=67379eee-fa7d-4063-9287-5fdaf1731f2f"},"vehicle_type_id":"4","last_reported":1727964528,"current_range_meters":26800,"station_id":"ce4bh092rcd13ifvqd30","pricing_plan_id":"cebpf4jnsgd1na2vs0mg"},{"bike_id":"c1ee04fe-b9d5-4b78-8f81-33bd158835b3","system_id":"levelo_inurba_marseille","lat":43.29805,"lon":5.38092,"is_reserved":false,"is_disabled":false,"rental_uris":{"android":"levelo://app?vid=c1ee04fe-b9d5-4b78-8f81-33bd158835b3","ios":"levelo://app?vid=c1ee04fe-b9d5-4b78-8f81-33bd158835b3"},"vehicle_type_id":"4","last_reported":1727964528,"current_range_meters":28400,"station_id":"ce4bgip2rcd13ifvqbb0","pricing_plan_id":"cebpf4jnsgd1na2vs0mg"},{"bike_id":"5e6aa386-cda4-4287-98a5-d6101363d4dd","system_id":"levelo_inurba_marseille","lat":43.31115,"lon":5.37759,"is_reserved":false,"is_disabled":false,"rental_uris":{"android":"levelo://app?vid=5e6aa386-cda4-4287-98a5-d6101363d4dd","ios":"levelo://app?vid=5e6aa386-cda4-4287-98a5-d6101363d4dd"},"vehicle_type_id":"4","last_reported":1727964528,"current_range_meters":11600,"station_id":"ce4bgt92rcd13ifvqcg0","pricing_plan_id":"cebpf4jnsgd1na2vs0mg"},{"bike_id":"ac927d49-fe17-4dd6-9829-c6f94c42e089","system_id":"levelo_inurba_marseille","lat":43.2668,"lon":5.38264,"is_reserved":false,"is_disabled":false,"rental_uris":{"android":"levelo://app?vid=ac927d49-fe17-4dd6-9829-c6f94c42e089","ios":"levelo://app?vid=ac927d49-fe17-4dd6-9829-c6f94c42e089"},"vehicle_type_id":"4","last_reported":1727964528,"current_range_meters":36400,"station_id":"ce4bhg92rcd13ifvqf90","pricing_plan_id":"cebpf4jnsgd1na2vs0mg"},{"bike_id":"72012b7e-df38-4163-9000-3258a062b8c5","system_id":"levelo_inurba_marseille","lat":43.28412,"lon":5.34976,"is_reserved":false,"is_disabled":false,"rental_uris":{"android":"levelo://app?vid=72012b7e-df38-4163-9000-3258a062b8c5","ios":"levelo://app?vid=72012b7e-df38-4163-9000-3258a062b8c5"},"vehicle_type_id":"4","last_reported":1727964528,"current_range_meters":26000,"station_id":"ce4bhbh2rcd13ifvqepg","pricing_plan_id":"cebpf4jnsgd1na2vs0mg"},{"bike_id":"3ce18599-8779-4f92-bae9-a14bfc3f6784","system_id":"levelo_inurba_marseille","lat":43.296783,"lon":5.372933,"is_reserved":false,"is_disabled":false,"rental_uris":{"android":"levelo://app?vid=3ce18599-8779-4f92-bae9-a14bfc3f6784","ios":"levelo://app?vid=3ce18599-8779-4f92-bae9-a14bfc3f6784"},"vehicle_type_id":"4","last_reported":1727964528,"current_range_meters":6000,"station_id":"ce4bgk12rcd13ifvqbj0","pricing_plan_id":"cebpf4jnsgd1na2vs0mg"},{"bike_id":"0066c6b0-1057-4400-85b9-4677ce2f8905","system_id":"levelo_inurba_marseille","lat":43.29842,"lon":5.36261,"is_reserved":false,"is_disabled":false,"rental_uris":{"android":"levelo://app?vid=0066c6b0-1057-4400-85b9-4677ce2f8905","ios":"levelo://app?vid=0066c6b0-1057-4400-85b9-4677ce2f8905"},"vehicle_type_id":"4","last_reported":1727964528,"current_range_meters":16000,"station_id":"ce4bgpp2rcd13ifvqc3g","pricing_plan_id":"cebpf4jnsgd1na2vs0mg"},{"bike_id":"abfa74ce-ac56-4bd7-af8d-9fbafd2dc3d5","system_id":"levelo_inurba_marseille","lat":43.23965,"lon":5.36634,"is_reserved":false,"is_disabled":false,"rental_uris":{"android":"levelo://app?vid=abfa74ce-ac56-4bd7-af8d-9fbafd2dc3d5","ios":"levelo://app?vid=abfa74ce-ac56-4bd7-af8d-9fbafd2dc3d5"},"vehicle_type_id":"4","last_reported":1727964528,"current_range_meters":38800,"station_id":"ce4bhi12rcd13ifvqfp0","pricing_plan_id":"cebpf4jnsgd1na2vs0mg"},{"bike_id":"70a6e5d9-f7dc-45fe-93de-dcba5cdbc45d","system_id":"levelo_inurba_marseille","lat":43.28613,"lon":5.35108,"is_reserved":false,"is_disabled":false,"rental_uris":{"android":"levelo://app?vid=70a6e5d9-f7dc-45fe-93de-dcba5cdbc45d","ios":"levelo://app?vid=70a6e5d9-f7dc-45fe-93de-dcba5cdbc45d"},"vehicle_type_id":"4","last_reported":1727964528,"current_range_meters":7200,"station_id":"ce4bhch2rcd13ifvqeug","pricing_plan_id":"cebpf4jnsgd1na2vs0mg"},{"bike_id":"e85a3ddb-58f6-4dca-a921-74684e685e01","system_id":"levelo_inurba_marseille","lat":43.29278,"lon":5.36849,"is_reserved":false,"is_disabled":false,"rental_uris":{"android":"levelo://app?vid=e85a3ddb-58f6-4dca-a921-74684e685e01","ios":"levelo://app?vid=e85a3ddb-58f6-4dca-a921-74684e685e01"},"vehicle_type_id":"4","last_reported":1727964528,"current_range_meters":6000,"station_id":"ce4bhbp2rcd13ifvqesg","pricing_plan_id":"cebpf4jnsgd1na2vs0mg"},{"bike_id":"dcb85e6e-0538-4b40-9b26-6bde303e1710","system_id":"levelo_inurba_marseille","lat":43.29602,"lon":5.38101,"is_reserved":false,"is_disabled":false,"rental_uris":{"android":"levelo://app?vid=dcb85e6e-0538-4b40-9b26-6bde303e1710","ios":"levelo://app?vid=dcb85e6e-0538-4b40-9b26-6bde303e1710"},"vehicle_type_id":"4","last_reported":1727964528,"current_range_meters":10000,"station_id":"ce4bgl12rcd13ifvqbo0","pricing_plan_id":"cebpf4jnsgd1na2vs0mg"},{"bike_id":"281719aa-8cb8-4de7-abc9-5b79ef141122","system_id":"levelo_inurba_marseille","lat":43.3046,"lon":5.37913,"is_reserved":false,"is_disabled":false,"rental_uris":{"android":"levelo://app?vid=281719aa-8cb8-4de7-abc9-5b79ef141122","ios":"levelo://app?vid=281719aa-8cb8-4de7-abc9-5b79ef141122"},"vehicle_type_id":"4","last_reported":1727964528,"current_range_meters":38400,"station_id":"ce4bgup2rcd13ifvqcn0","pricing_plan_id":"cebpf4jnsgd1na2vs0mg"},{"bike_id":"e6324d82-a00d-4ac7-b4d3-567315cd04e5","system_id":"levelo_inurba_marseille","lat":43.24982,"lon":5.38807,"is_reserved":false,"is_disabled":false,"rental_uris":{"android":"levelo://app?vid=e6324d82-a00d-4ac7-b4d3-567315cd04e5","ios":"levelo://app?vid=e6324d82-a00d-4ac7-b4d3-567315cd04e5"},"vehicle_type_id":"4","last_reported":1727964528,"current_range_meters":25600,"station_id":"","pricing_plan_id":"cebpf4jnsgd1na2vs0mg"},{"bike_id":"4bd62e39-59e7-43dd-9447-7e75806369ae","system_id":"levelo_inurba_marseille","lat":43.28932,"lon":5.36629,"is_reserved":false,"is_disabled":false,"rental_uris":{"android":"levelo://app?vid=4bd62e39-59e7-43dd-9447-7e75806369ae","ios":"levelo://app?vid=4bd62e39-59e7-43dd-9447-7e75806369ae"},"vehicle_type_id":"4","last_reported":1727964528,"current_range_meters":27600,"station_id":"ce4bhap2rcd13ifvqek0","pricing_plan_id":"cebpf4jnsgd1na2vs0mg"},{"bike_id":"6c5a26eb-ee07-4d34-9b92-1ad63d0731a1","system_id":"levelo_inurba_marseille","lat":43.30272,"lon":5.37698,"is_reserved":false,"is_disabled":false,"rental_uris":{"android":"levelo://app?vid=6c5a26eb-ee07-4d34-9b92-1ad63d0731a1","ios":"levelo://app?vid=6c5a26eb-ee07-4d34-9b92-1ad63d0731a1"},"vehicle_type_id":"4","last_reported":1727964528,"current_range_meters":34000,"station_id":"ce4bguh2rcd13ifvqcj0","pricing_plan_id":"cebpf4jnsgd1na2vs0mg"},{"bike_id":"7b2c7c50-c95e-4812-bfbc-36c6ac4ed1e8","system_id":"levelo_inurba_marseille","lat":43.2762,"lon":5.36107,"is_reserved":false,"is_disabled":false,"rental_uris":{"android":"levelo://app?vid=7b2c7c50-c95e-4812-bfbc-36c6ac4ed1e8","ios":"levelo://app?vid=7b2c7c50-c95e-4812-bfbc-36c6ac4ed1e8"},"vehicle_type_id":"4","last_reported":1727964528,"current_range_meters":36000,"station_id":"ce4bgj92rcd13ifvqbe0","pricing_plan_id":"cebpf4jnsgd1na2vs0mg"},{"bike_id":"c6714961-6a99-47b0-9d30-a4c28d0c3991","system_id":"levelo_inurba_marseille","lat":43.30459,"lon":5.37911,"is_reserved":false,"is_disabled":false,"rental_uris":{"android":"levelo://app?vid=c6714961-6a99-47b0-9d30-a4c28d0c3991","ios":"levelo://app?vid=c6714961-6a99-47b0-9d30-a4c28d0c3991"},"vehicle_type_id":"4","last_reported":1727964528,"current_range_meters":33600,"station_id":"ce4bgup2rcd13ifvqcn0","pricing_plan_id":"cebpf4jnsgd1na2vs0mg"},{"bike_id":"ed182f46-8ba0-4418-b11f-188c4f703938","system_id":"levelo_inurba_marseille","lat":43.28712,"lon":5.37946,"is_reserved":false,"is_disabled":false,"rental_uris":{"android":"levelo://app?vid=ed182f46-8ba0-4418-b11f-188c4f703938","ios":"levelo://app?vid=ed182f46-8ba0-4418-b11f-188c4f703938"},"vehicle_type_id":"4","last_reported":1727964528,"current_range_meters":24400,"station_id":"ce4bh9p2rcd13ifvqec0","pricing_plan_id":"cebpf4jnsgd1na2vs0mg"},{"bike_id":"c8e4ff73-620c-4248-92f7-758d5098242c","system_id":"levelo_inurba_marseille","lat":43.22928,"lon":5.35376,"is_reserved":false,"is_disabled":false,"rental_uris":{"android":"levelo://app?vid=c8e4ff73-620c-4248-92f7-758d5098242c","ios":"levelo://app?vid=c8e4ff73-620c-4248-92f7-758d5098242c"},"vehicle_type_id":"4","last_reported":1727964528,"current_range_meters":27200,"station_id":"cpo3532slgdg3j2ikp40","pricing_plan_id":"cebpf4jnsgd1na2vs0mg"},{"bike_id":"da902bad-86bb-4239-9b68-6f5a7a44ed03","system_id":"levelo_inurba_marseille","lat":43.28616,"lon":5.351,"is_reserved":false,"is_disabled":false,"rental_uris":{"android":"levelo://app?vid=da902bad-86bb-4239-9b68-6f5a7a44ed03","ios":"levelo://app?vid=da902bad-86bb-4239-9b68-6f5a7a44ed03"},"vehicle_type_id":"4","last_reported":1727964528,"current_range_meters":22000,"station_id":"ce4bhch2rcd13ifvqeug","pricing_plan_id":"cebpf4jnsgd1na2vs0mg"},{"bike_id":"5a900b2d-51d3-468b-8e32-c6a01e8e99fb","system_id":"levelo_inurba_marseille","lat":43.302987,"lon":5.377031,"is_reserved":false,"is_disabled":false,"rental_uris":{"android":"levelo://app?vid=5a900b2d-51d3-468b-8e32-c6a01e8e99fb","ios":"levelo://app?vid=5a900b2d-51d3-468b-8e32-c6a01e8e99fb"},"vehicle_type_id":"4","last_reported":1727964528,"current_range_meters":25200,"station_id":"ce4bguh2rcd13ifvqcj0","pricing_plan_id":"cebpf4jnsgd1na2vs0mg"},{"bike_id":"760431fa-46c1-4539-8819-b081d9a5c20c","system_id":"levelo_inurba_marseille","lat":43.3148,"lon":5.37306,"is_reserved":false,"is_disabled":false,"rental_uris":{"android":"levelo://app?vid=760431fa-46c1-4539-8819-b081d9a5c20c","ios":"levelo://app?vid=760431fa-46c1-4539-8819-b081d9a5c20c"},"vehicle_type_id":"4","last_reported":1727964528,"current_range_meters":24000,"station_id":"ce4bgt12rcd13ifvqcd0","pricing_plan_id":"cebpf4jnsgd1na2vs0mg"},{"bike_id":"70922983-1f44-4410-ae97-c6c1023db38f","system_id":"levelo_inurba_marseille","lat":43.30129,"lon":5.39873,"is_reserved":false,"is_disabled":false,"rental_uris":{"android":"levelo://app?vid=70922983-1f44-4410-ae97-c6c1023db38f","ios":"levelo://app?vid=70922983-1f44-4410-ae97-c6c1023db38f"},"vehicle_type_id":"4","last_reported":1727964528,"current_range_meters":24000,"station_id":"ce4bh0h2rcd13ifvqd40","pricing_plan_id":"cebpf4jnsgd1na2vs0mg"},{"bike_id":"34d8fa81-94a5-49f7-98da-128d2edbe4c1","system_id":"levelo_inurba_marseille","lat":43.23194,"lon":5.35556,"is_reserved":false,"is_disabled":false,"rental_uris":{"android":"levelo://app?vid=34d8fa81-94a5-49f7-98da-128d2edbe4c1","ios":"levelo://app?vid=34d8fa81-94a5-49f7-98da-128d2edbe4c1"},"vehicle_type_id":"4","last_reported":1727964528,"current_range_meters":8000,"station_id":"ce4bhu92rcd13ifvqi70","pricing_plan_id":"cebpf4jnsgd1na2vs0mg"},{"bike_id":"0e2b91fd-e6bd-4824-a5fc-89706c7f6cea","system_id":"levelo_inurba_marseille","lat":43.30932,"lon":5.40138,"is_reserved":false,"is_disabled":false,"rental_uris":{"android":"levelo://app?vid=0e2b91fd-e6bd-4824-a5fc-89706c7f6cea","ios":"levelo://app?vid=0e2b91fd-e6bd-4824-a5fc-89706c7f6cea"},"vehicle_type_id":"4","last_reported":1727964528,"current_range_meters":36800,"station_id":"ce4bgvp2rcd13ifvqct0","pricing_plan_id":"cebpf4jnsgd1na2vs0mg"},{"bike_id":"5ec7f20f-7554-4754-b746-0b8a9d070154","system_id":"levelo_inurba_marseille","lat":43.29571,"lon":5.39987,"is_reserved":false,"is_disabled":false,"rental_uris":{"android":"levelo://app?vid=5ec7f20f-7554-4754-b746-0b8a9d070154","ios":"levelo://app?vid=5ec7f20f-7554-4754-b746-0b8a9d070154"},"vehicle_type_id":"4","last_reported":1727964528,"current_range_meters":20800,"station_id":"ce4bh312rcd13ifvqdj0","pricing_plan_id":"cebpf4jnsgd1na2vs0mg"},{"bike_id":"b62b96ec-128b-45a1-8386-5bc23dfb407d","system_id":"levelo_inurba_marseille","lat":43.29307,"lon":5.37179,"is_reserved":false,"is_disabled":false,"rental_uris":{"android":"levelo://app?vid=b62b96ec-128b-45a1-8386-5bc23dfb407d","ios":"levelo://app?vid=b62b96ec-128b-45a1-8386-5bc23dfb407d"},"vehicle_type_id":"4","last_reported":1727964528,"current_range_meters":3200,"station_id":"ce4bgh92rcd13ifvqb40","pricing_plan_id":"cebpf4jnsgd1na2vs0mg"},{"bike_id":"6760ec2b-cc3d-4b17-8c33-3b5a17607e89","system_id":"levelo_inurba_marseille","lat":43.24652,"lon":5.38891,"is_reserved":false,"is_disabled":false,"rental_uris":{"android":"levelo://app?vid=6760ec2b-cc3d-4b17-8c33-3b5a17607e89","ios":"levelo://app?vid=6760ec2b-cc3d-4b17-8c33-3b5a17607e89"},"vehicle_type_id":"4","last_reported":1727964528,"current_range_meters":16400,"station_id":"ce4bhg12rcd13ifvqf60","pricing_plan_id":"cebpf4jnsgd1na2vs0mg"},{"bike_id":"3a0fc9fd-e162-42e9-95a6-8d20c9272e90","system_id":"levelo_inurba_marseille","lat":43.30202,"lon":5.39464,"is_reserved":false,"is_disabled":false,"rental_uris":{"android":"levelo://app?vid=3a0fc9fd-e162-42e9-95a6-8d20c9272e90","ios":"levelo://app?vid=3a0fc9fd-e162-42e9-95a6-8d20c9272e90"},"vehicle_type_id":"4","last_reported":1727964528,"current_range_meters":24000,"station_id":"ce4bh0p2rcd13ifvqd70","pricing_plan_id":"cebpf4jnsgd1na2vs0mg"},{"bike_id":"82214cfe-0a99-47c3-b686-6c284473d810","system_id":"levelo_inurba_marseille","lat":43.24812,"lon":5.3746,"is_reserved":false,"is_disabled":false,"rental_uris":{"android":"levelo://app?vid=82214cfe-0a99-47c3-b686-6c284473d810","ios":"levelo://app?vid=82214cfe-0a99-47c3-b686-6c284473d810"},"vehicle_type_id":"4","last_reported":1727964528,"current_range_meters":36000,"station_id":"ce4bhgh2rcd13ifvqfb0","pricing_plan_id":"cebpf4jnsgd1na2vs0mg"},{"bike_id":"279deea5-d960-4cac-a348-cfd072a8fdd8","system_id":"levelo_inurba_marseille","lat":43.30906,"lon":5.36855,"is_reserved":false,"is_disabled":false,"rental_uris":{"android":"levelo://app?vid=279deea5-d960-4cac-a348-cfd072a8fdd8","ios":"levelo://app?vid=279deea5-d960-4cac-a348-cfd072a8fdd8"},"vehicle_type_id":"4","last_reported":1727964528,"current_range_meters":30000,"station_id":"ce4bgn92rcd13ifvqbvg","pricing_plan_id":"cebpf4jnsgd1na2vs0mg"},{"bike_id":"279905d2-31cb-4375-9057-1a2156283393","system_id":"levelo_inurba_marseille","lat":43.28405,"lon":5.34979,"is_reserved":false,"is_disabled":false,"rental_uris":{"android":"levelo://app?vid=279905d2-31cb-4375-9057-1a2156283393","ios":"levelo://app?vid=279905d2-31cb-4375-9057-1a2156283393"},"vehicle_type_id":"4","last_reported":1727964528,"current_range_meters":12400,"station_id":"ce4bhbh2rcd13ifvqepg","pricing_plan_id":"cebpf4jnsgd1na2vs0mg"},{"bike_id":"3c613677-a411-45dc-b82c-e6449d7a8df7","system_id":"levelo_inurba_marseille","lat":43.30643,"lon":5.40084,"is_reserved":false,"is_disabled":false,"rental_uris":{"android":"levelo://app?vid=3c613677-a411-45dc-b82c-e6449d7a8df7","ios":"levelo://app?vid=3c613677-a411-45dc-b82c-e6449d7a8df7"},"vehicle_type_id":"4","last_reported":1727964528,"current_range_meters":37600,"station_id":"ce4bh112rcd13ifvqda0","pricing_plan_id":"cebpf4jnsgd1na2vs0mg"},{"bike_id":"e61056d1-9737-4365-a245-e089563da881","system_id":"levelo_inurba_marseille","lat":43.24663,"lon":5.38162,"is_reserved":false,"is_disabled":false,"rental_uris":{"android":"levelo://app?vid=e61056d1-9737-4365-a245-e089563da881","ios":"levelo://app?vid=e61056d1-9737-4365-a245-e089563da881"},"vehicle_type_id":"4","last_reported":1727964528,"current_range_meters":22800,"station_id":"ce4bhih2rcd13ifvqfr0","pricing_plan_id":"cebpf4jnsgd1na2vs0mg"},{"bike_id":"30e2f0ec-0394-406c-8829-fe660566e51a","system_id":"levelo_inurba_marseille","lat":43.27813,"lon":5.40705,"is_reserved":false,"is_disabled":false,"rental_uris":{"android":"levelo://app?vid=30e2f0ec-0394-406c-8829-fe660566e51a","ios":"levelo://app?vid=30e2f0ec-0394-406c-8829-fe660566e51a"},"vehicle_type_id":"4","last_reported":1727964528,"current_range_meters":6400,"station_id":"ce4bhnh2rcd13ifvqgtg","pricing_plan_id":"cebpf4jnsgd1na2vs0mg"},{"bike_id":"4a258a1c-e2e9-4984-a6e0-5a2d591e6aad","system_id":"levelo_inurba_marseille","lat":43.24662,"lon":5.38161,"is_reserved":false,"is_disabled":false,"rental_uris":{"android":"levelo://app?vid=4a258a1c-e2e9-4984-a6e0-5a2d591e6aad","ios":"levelo://app?vid=4a258a1c-e2e9-4984-a6e0-5a2d591e6aad"},"vehicle_type_id":"4","last_reported":1727964528,"current_range_meters":7200,"station_id":"ce4bhih2rcd13ifvqfr0","pricing_plan_id":"cebpf4jnsgd1na2vs0mg"},{"bike_id":"dc9b79aa-38f8-43d1-a6f0-63fa77b1231f","system_id":"levelo_inurba_marseille","lat":43.30128,"lon":5.3986,"is_reserved":false,"is_disabled":false,"rental_uris":{"android":"levelo://app?vid=dc9b79aa-38f8-43d1-a6f0-63fa77b1231f","ios":"levelo://app?vid=dc9b79aa-38f8-43d1-a6f0-63fa77b1231f"},"vehicle_type_id":"4","last_reported":1727964528,"current_range_meters":36800,"station_id":"ce4bgk12rcd13ifvqbi0","pricing_plan_id":"cebpf4jnsgd1na2vs0mg"},{"bike_id":"4f69c4e4-4aab-4ccb-88ff-64579ae1a72c","system_id":"levelo_inurba_marseille","lat":43.24178,"lon":5.39712,"is_reserved":false,"is_disabled":false,"rental_uris":{"android":"levelo://app?vid=4f69c4e4-4aab-4ccb-88ff-64579ae1a72c","ios":"levelo://app?vid=4f69c4e4-4aab-4ccb-88ff-64579ae1a72c"},"vehicle_type_id":"4","last_reported":1727964528,"current_range_meters":12400,"station_id":"ce4bhn12rcd13ifvqgpg","pricing_plan_id":"cebpf4jnsgd1na2vs0mg"},{"bike_id":"8e659efb-45b9-45fa-811b-24e4a66a6f52","system_id":"levelo_inurba_marseille","lat":43.27917,"lon":5.39578,"is_reserved":false,"is_disabled":false,"rental_uris":{"android":"levelo://app?vid=8e659efb-45b9-45fa-811b-24e4a66a6f52","ios":"levelo://app?vid=8e659efb-45b9-45fa-811b-24e4a66a6f52"},"vehicle_type_id":"4","last_reported":1727964528,"current_range_meters":34800,"station_id":"ce4bhf92rcd13ifvqf40","pricing_plan_id":"cebpf4jnsgd1na2vs0mg"},{"bike_id":"e57821a2-1d03-437a-9585-d9dcc5eec488","system_id":"levelo_inurba_marseille","lat":43.24802,"lon":5.37456,"is_reserved":false,"is_disabled":false,"rental_uris":{"android":"levelo://app?vid=e57821a2-1d03-437a-9585-d9dcc5eec488","ios":"levelo://app?vid=e57821a2-1d03-437a-9585-d9dcc5eec488"},"vehicle_type_id":"4","last_reported":1727964528,"current_range_meters":14400,"station_id":"ce4bhgh2rcd13ifvqfb0","pricing_plan_id":"cebpf4jnsgd1na2vs0mg"},{"bike_id":"e690ed13-32d4-4cc3-821d-4783773c830f","system_id":"levelo_inurba_marseille","lat":43.29929,"lon":5.36528,"is_reserved":false,"is_disabled":false,"rental_uris":{"android":"levelo://app?vid=e690ed13-32d4-4cc3-821d-4783773c830f","ios":"levelo://app?vid=e690ed13-32d4-4cc3-821d-4783773c830f"},"vehicle_type_id":"4","last_reported":1727964528,"current_range_meters":19600,"station_id":"ce4bgm92rcd13ifvqbr0","pricing_plan_id":"cebpf4jnsgd1na2vs0mg"},{"bike_id":"23fcd5dc-52e3-40b6-b601-8da82c35b64a","system_id":"levelo_inurba_marseille","lat":43.23184,"lon":5.35546,"is_reserved":false,"is_disabled":false,"rental_uris":{"android":"levelo://app?vid=23fcd5dc-52e3-40b6-b601-8da82c35b64a","ios":"levelo://app?vid=23fcd5dc-52e3-40b6-b601-8da82c35b64a"},"vehicle_type_id":"4","last_reported":1727964528,"current_range_meters":37600,"station_id":"ce4bhu92rcd13ifvqi70","pricing_plan_id":"cebpf4jnsgd1na2vs0mg"},{"bike_id":"48862920-25ff-4598-9262-2f6d76857643","system_id":"levelo_inurba_marseille","lat":43.25828,"lon":5.39436,"is_reserved":false,"is_disabled":false,"rental_uris":{"android":"levelo://app?vid=48862920-25ff-4598-9262-2f6d76857643","ios":"levelo://app?vid=48862920-25ff-4598-9262-2f6d76857643"},"vehicle_type_id":"4","last_reported":1727964528,"current_range_meters":18800,"station_id":"ce4bhip2rcd13ifvqft0","pricing_plan_id":"cebpf4jnsgd1na2vs0mg"},{"bike_id":"62f19d79-47dc-43fc-bb5c-5ca6716720e2","system_id":"levelo_inurba_marseille","lat":43.28707,"lon":5.37944,"is_reserved":false,"is_disabled":false,"rental_uris":{"android":"levelo://app?vid=62f19d79-47dc-43fc-bb5c-5ca6716720e2","ios":"levelo://app?vid=62f19d79-47dc-43fc-bb5c-5ca6716720e2"},"vehicle_type_id":"4","last_reported":1727964528,"current_range_meters":37600,"station_id":"ce4bh9p2rcd13ifvqec0","pricing_plan_id":"cebpf4jnsgd1na2vs0mg"},{"bike_id":"ed41c24c-b616-488e-9266-0dad2b13c574","system_id":"levelo_inurba_marseille","lat":43.28861,"lon":5.39319,"is_reserved":false,"is_disabled":false,"rental_uris":{"android":"levelo://app?vid=ed41c24c-b616-488e-9266-0dad2b13c574","ios":"levelo://app?vid=ed41c24c-b616-488e-9266-0dad2b13c574"},"vehicle_type_id":"4","last_reported":1727964528,"current_range_meters":16400,"station_id":"ce4bh2p2rcd13ifvqdi0","pricing_plan_id":"cebpf4jnsgd1na2vs0mg"},{"bike_id":"5c099b0d-a750-4b91-86e7-2abb5b1fed68","system_id":"levelo_inurba_marseille","lat":43.25945,"lon":5.40897,"is_reserved":false,"is_disabled":false,"rental_uris":{"android":"levelo://app?vid=5c099b0d-a750-4b91-86e7-2abb5b1fed68","ios":"levelo://app?vid=5c099b0d-a750-4b91-86e7-2abb5b1fed68"},"vehicle_type_id":"4","last_reported":1727964528,"current_range_meters":7200,"station_id":"ce4bhm92rcd13ifvqglg","pricing_plan_id":"cebpf4jnsgd1na2vs0mg"},{"bike_id":"d2495bf5-7120-4a41-b7ca-5d5d82505e61","system_id":"levelo_inurba_marseille","lat":43.31228,"lon":5.36862,"is_reserved":false,"is_disabled":false,"rental_uris":{"android":"levelo://app?vid=d2495bf5-7120-4a41-b7ca-5d5d82505e61","ios":"levelo://app?vid=d2495bf5-7120-4a41-b7ca-5d5d82505e61"},"vehicle_type_id":"4","last_reported":1727964528,"current_range_meters":38800,"station_id":"ce4bgl92rcd13ifvqbq0","pricing_plan_id":"cebpf4jnsgd1na2vs0mg"},{"bike_id":"bceb25a5-ac16-4c26-92ad-d1c152ac4839","system_id":"levelo_inurba_marseille","lat":43.290192,"lon":5.374695,"is_reserved":false,"is_disabled":false,"rental_uris":{"android":"levelo://app?vid=bceb25a5-ac16-4c26-92ad-d1c152ac4839","ios":"levelo://app?vid=bceb25a5-ac16-4c26-92ad-d1c152ac4839"},"vehicle_type_id":"4","last_reported":1727964528,"current_range_meters":8400,"station_id":"ce4bhbh2rcd13ifvqepg","pricing_plan_id":"cebpf4jnsgd1na2vs0mg"},{"bike_id":"ad4f775c-7b5d-42dc-bfc2-908b9c37bd38","system_id":"levelo_inurba_marseille","lat":43.24995,"lon":5.3893,"is_reserved":false,"is_disabled":false,"rental_uris":{"android":"levelo://app?vid=ad4f775c-7b5d-42dc-bfc2-908b9c37bd38","ios":"levelo://app?vid=ad4f775c-7b5d-42dc-bfc2-908b9c37bd38"},"vehicle_type_id":"4","last_reported":1727964528,"current_range_meters":14400,"station_id":"ce4bhgp2rcd13ifvqfd0","pricing_plan_id":"cebpf4jnsgd1na2vs0mg"},{"bike_id":"ce04f669-9403-4bad-aea8-052a40e2c172","system_id":"levelo_inurba_marseille","lat":43.26569,"lon":5.3901,"is_reserved":false,"is_disabled":false,"rental_uris":{"android":"levelo://app?vid=ce04f669-9403-4bad-aea8-052a40e2c172","ios":"levelo://app?vid=ce04f669-9403-4bad-aea8-052a40e2c172"},"vehicle_type_id":"4","last_reported":1727964528,"current_range_meters":16800,"station_id":"ce4bhe12rcd13ifvqf30","pricing_plan_id":"cebpf4jnsgd1na2vs0mg"},{"bike_id":"1fbf7208-5480-4d0d-af35-a22398a843cf","system_id":"levelo_inurba_marseille","lat":43.29683,"lon":5.3729,"is_reserved":false,"is_disabled":false,"rental_uris":{"android":"levelo://app?vid=1fbf7208-5480-4d0d-af35-a22398a843cf","ios":"levelo://app?vid=1fbf7208-5480-4d0d-af35-a22398a843cf"},"vehicle_type_id":"4","last_reported":1727964528,"current_range_meters":9600,"station_id":"ce4bgk12rcd13ifvqbj0","pricing_plan_id":"cebpf4jnsgd1na2vs0mg"},{"bike_id":"c5bf6c57-7703-4962-bea8-fc52f0c9311e","system_id":"levelo_inurba_marseille","lat":43.27812,"lon":5.40716,"is_reserved":false,"is_disabled":false,"rental_uris":{"android":"levelo://app?vid=c5bf6c57-7703-4962-bea8-fc52f0c9311e","ios":"levelo://app?vid=c5bf6c57-7703-4962-bea8-fc52f0c9311e"},"vehicle_type_id":"4","last_reported":1727964528,"current_range_meters":24800,"station_id":"ce4bhnh2rcd13ifvqgtg","pricing_plan_id":"cebpf4jnsgd1na2vs0mg"},{"bike_id":"ce054c01-b1f0-487c-a386-bc92bcbf9739","system_id":"levelo_inurba_marseille","lat":43.28074,"lon":5.39653,"is_reserved":false,"is_disabled":false,"rental_uris":{"android":"levelo://app?vid=ce054c01-b1f0-487c-a386-bc92bcbf9739","ios":"levelo://app?vid=ce054c01-b1f0-487c-a386-bc92bcbf9739"},"vehicle_type_id":"4","last_reported":1727964528,"current_range_meters":38000,"station_id":"ce4bho12rcd13ifvqh2g","pricing_plan_id":"cebpf4jnsgd1na2vs0mg"},{"bike_id":"38ccb47c-cec4-440c-a317-244788fef8a1","system_id":"levelo_inurba_marseille","lat":43.23963,"lon":5.36627,"is_reserved":false,"is_disabled":false,"rental_uris":{"android":"levelo://app?vid=38ccb47c-cec4-440c-a317-244788fef8a1","ios":"levelo://app?vid=38ccb47c-cec4-440c-a317-244788fef8a1"},"vehicle_type_id":"4","last_reported":1727964528,"current_range_meters":23200,"station_id":"ce4bhi12rcd13ifvqfp0","pricing_plan_id":"cebpf4jnsgd1na2vs0mg"},{"bike_id":"a4bbbbd7-6caf-4754-8ce8-7fea21309f71","system_id":"levelo_inurba_marseille","lat":43.29708,"lon":5.36617,"is_reserved":false,"is_disabled":false,"rental_uris":{"android":"levelo://app?vid=a4bbbbd7-6caf-4754-8ce8-7fea21309f71","ios":"levelo://app?vid=a4bbbbd7-6caf-4754-8ce8-7fea21309f71"},"vehicle_type_id":"4","last_reported":1727964528,"current_range_meters":31200,"station_id":"ce4bgn12rcd13ifvqbt0","pricing_plan_id":"cebpf4jnsgd1na2vs0mg"},{"bike_id":"6f618680-da85-463a-83ac-1b68d2d9ec6d","system_id":"levelo_inurba_marseille","lat":43.3009,"lon":5.39069,"is_reserved":false,"is_disabled":false,"rental_uris":{"android":"levelo://app?vid=6f618680-da85-463a-83ac-1b68d2d9ec6d","ios":"levelo://app?vid=6f618680-da85-463a-83ac-1b68d2d9ec6d"},"vehicle_type_id":"4","last_reported":1727964528,"current_range_meters":30800,"station_id":"ce4bh192rcd13ifvqdb0","pricing_plan_id":"cebpf4jnsgd1na2vs0mg"},{"bike_id":"bac384d8-4e03-4ad5-a69b-2af5d5468919","system_id":"levelo_inurba_marseille","lat":43.30466,"lon":5.37895,"is_reserved":false,"is_disabled":false,"rental_uris":{"android":"levelo://app?vid=bac384d8-4e03-4ad5-a69b-2af5d5468919","ios":"levelo://app?vid=bac384d8-4e03-4ad5-a69b-2af5d5468919"},"vehicle_type_id":"4","last_reported":1727964528,"current_range_meters":30800,"station_id":"ce4bgup2rcd13ifvqcn0","pricing_plan_id":"cebpf4jnsgd1na2vs0mg"},{"bike_id":"d9513a24-3235-43a7-b9a5-1c5cfe37603f","system_id":"levelo_inurba_marseille","lat":43.23059,"lon":5.3549,"is_reserved":false,"is_disabled":false,"rental_uris":{"android":"levelo://app?vid=d9513a24-3235-43a7-b9a5-1c5cfe37603f","ios":"levelo://app?vid=d9513a24-3235-43a7-b9a5-1c5cfe37603f"},"vehicle_type_id":"4","last_reported":1727964528,"current_range_meters":29600,"station_id":"cpo3342slgdg3j2ifvpg","pricing_plan_id":"cebpf4jnsgd1na2vs0mg"},{"bike_id":"ac99953f-ada5-4934-a505-33a7b55cf38e","system_id":"levelo_inurba_marseille","lat":43.29676,"lon":5.37296,"is_reserved":false,"is_disabled":false,"rental_uris":{"android":"levelo://app?vid=ac99953f-ada5-4934-a505-33a7b55cf38e","ios":"levelo://app?vid=ac99953f-ada5-4934-a505-33a7b55cf38e"},"vehicle_type_id":"4","last_reported":1727964528,"current_range_meters":32000,"station_id":"ce4bgk12rcd13ifvqbj0","pricing_plan_id":"cebpf4jnsgd1na2vs0mg"},{"bike_id":"cbcc9394-7679-4bf9-babb-9a9c13e8adff","system_id":"levelo_inurba_marseille","lat":43.30535,"lon":5.36572,"is_reserved":false,"is_disabled":false,"rental_uris":{"android":"levelo://app?vid=cbcc9394-7679-4bf9-babb-9a9c13e8adff","ios":"levelo://app?vid=cbcc9394-7679-4bf9-babb-9a9c13e8adff"},"vehicle_type_id":"4","last_reported":1727964528,"current_range_meters":28000,"station_id":"ce4bgs12rcd13ifvqcag","pricing_plan_id":"cebpf4jnsgd1na2vs0mg"},{"bike_id":"eb47d9d0-e352-49de-bcc1-50f23038b9e0","system_id":"levelo_inurba_marseille","lat":43.25724,"lon":5.41105,"is_reserved":false,"is_disabled":false,"rental_uris":{"android":"levelo://app?vid=eb47d9d0-e352-49de-bcc1-50f23038b9e0","ios":"levelo://app?vid=eb47d9d0-e352-49de-bcc1-50f23038b9e0"},"vehicle_type_id":"4","last_reported":1727964528,"current_range_meters":26800,"station_id":"ce4bhkp2rcd13ifvqgd0","pricing_plan_id":"cebpf4jnsgd1na2vs0mg"},{"bike_id":"e83e3903-1842-436e-bc02-c0b65579a528","system_id":"levelo_inurba_marseille","lat":43.30458,"lon":5.37919,"is_reserved":false,"is_disabled":false,"rental_uris":{"android":"levelo://app?vid=e83e3903-1842-436e-bc02-c0b65579a528","ios":"levelo://app?vid=e83e3903-1842-436e-bc02-c0b65579a528"},"vehicle_type_id":"4","last_reported":1727964528,"current_range_meters":26800,"station_id":"ce4bgup2rcd13ifvqcn0","pricing_plan_id":"cebpf4jnsgd1na2vs0mg"},{"bike_id":"3ed25d85-8703-42b9-ad9c-a77cd4e97022","system_id":"levelo_inurba_marseille","lat":43.30543,"lon":5.36547,"is_reserved":false,"is_disabled":false,"rental_uris":{"android":"levelo://app?vid=3ed25d85-8703-42b9-ad9c-a77cd4e97022","ios":"levelo://app?vid=3ed25d85-8703-42b9-ad9c-a77cd4e97022"},"vehicle_type_id":"4","last_reported":1727964528,"current_range_meters":10800,"station_id":"ce4bgs12rcd13ifvqcag","pricing_plan_id":"cebpf4jnsgd1na2vs0mg"},{"bike_id":"4350d1c5-9602-4f3a-9b16-78ffe7254563","system_id":"levelo_inurba_marseille","lat":43.2501,"lon":5.38928,"is_reserved":false,"is_disabled":false,"rental_uris":{"android":"levelo://app?vid=4350d1c5-9602-4f3a-9b16-78ffe7254563","ios":"levelo://app?vid=4350d1c5-9602-4f3a-9b16-78ffe7254563"},"vehicle_type_id":"4","last_reported":1727964528,"current_range_meters":19600,"station_id":"ce4bhgp2rcd13ifvqfd0","pricing_plan_id":"cebpf4jnsgd1na2vs0mg"},{"bike_id":"3b3e830f-7907-4095-b3ea-ded1732d6d03","system_id":"levelo_inurba_marseille","lat":43.29036,"lon":5.37562,"is_reserved":false,"is_disabled":false,"rental_uris":{"android":"levelo://app?vid=3b3e830f-7907-4095-b3ea-ded1732d6d03","ios":"levelo://app?vid=3b3e830f-7907-4095-b3ea-ded1732d6d03"},"vehicle_type_id":"4","last_reported":1727964528,"current_range_meters":25600,"station_id":"ce4bh692rcd13ifvqe90","pricing_plan_id":"cebpf4jnsgd1na2vs0mg"},{"bike_id":"c2365a43-69b9-4f30-bd1b-6c09b1e2ea85","system_id":"levelo_inurba_marseille","lat":43.32304,"lon":5.41338,"is_reserved":false,"is_disabled":false,"rental_uris":{"android":"levelo://app?vid=c2365a43-69b9-4f30-bd1b-6c09b1e2ea85","ios":"levelo://app?vid=c2365a43-69b9-4f30-bd1b-6c09b1e2ea85"},"vehicle_type_id":"4","last_reported":1727964528,"current_range_meters":30000,"station_id":"","pricing_plan_id":"cebpf4jnsgd1na2vs0mg"},{"bike_id":"198216f1-b10b-422c-b569-e6c58b5d0361","system_id":"levelo_inurba_marseille","lat":43.26558,"lon":5.37281,"is_reserved":false,"is_disabled":false,"rental_uris":{"android":"levelo://app?vid=198216f1-b10b-422c-b569-e6c58b5d0361","ios":"levelo://app?vid=198216f1-b10b-422c-b569-e6c58b5d0361"},"vehicle_type_id":"4","last_reported":1727964528,"current_range_meters":27200,"station_id":"ce4bhg12rcd13ifvqf70","pricing_plan_id":"cebpf4jnsgd1na2vs0mg"},{"bike_id":"c027e1e7-20f4-4fa8-9860-979ca4227a1c","system_id":"levelo_inurba_marseille","lat":43.24663,"lon":5.38157,"is_reserved":false,"is_disabled":false,"rental_uris":{"android":"levelo://app?vid=c027e1e7-20f4-4fa8-9860-979ca4227a1c","ios":"levelo://app?vid=c027e1e7-20f4-4fa8-9860-979ca4227a1c"},"vehicle_type_id":"4","last_reported":1727964528,"current_range_meters":38800,"station_id":"ce4bhih2rcd13ifvqfr0","pricing_plan_id":"cebpf4jnsgd1na2vs0mg"},{"bike_id":"700826cc-b452-4aaa-bf0b-f58e518f94e7","system_id":"levelo_inurba_marseille","lat":43.245392,"lon":5.39523,"is_reserved":false,"is_disabled":false,"rental_uris":{"android":"levelo://app?vid=700826cc-b452-4aaa-bf0b-f58e518f94e7","ios":"levelo://app?vid=700826cc-b452-4aaa-bf0b-f58e518f94e7"},"vehicle_type_id":"4","last_reported":1727964528,"current_range_meters":9600,"station_id":"ce4bh5p2rcd13ifvqe4g","pricing_plan_id":"cebpf4jnsgd1na2vs0mg"},{"bike_id":"0bdd8fa4-2edc-433a-a626-8f0c4b8fe1ce","system_id":"levelo_inurba_marseille","lat":43.28746,"lon":5.38906,"is_reserved":false,"is_disabled":false,"rental_uris":{"android":"levelo://app?vid=0bdd8fa4-2edc-433a-a626-8f0c4b8fe1ce","ios":"levelo://app?vid=0bdd8fa4-2edc-433a-a626-8f0c4b8fe1ce"},"vehicle_type_id":"4","last_reported":1727964528,"current_range_meters":30400,"station_id":"ce4bh412rcd13ifvqdr0","pricing_plan_id":"cebpf4jnsgd1na2vs0mg"},{"bike_id":"1430add3-d4f9-4c53-8101-19290ecfc468","system_id":"levelo_inurba_marseille","lat":43.29838,"lon":5.36269,"is_reserved":false,"is_disabled":false,"rental_uris":{"android":"levelo://app?vid=1430add3-d4f9-4c53-8101-19290ecfc468","ios":"levelo://app?vid=1430add3-d4f9-4c53-8101-19290ecfc468"},"vehicle_type_id":"4","last_reported":1727964528,"current_range_meters":14800,"station_id":"ce4bgpp2rcd13ifvqc3g","pricing_plan_id":"cebpf4jnsgd1na2vs0mg"},{"bike_id":"8bf24ec6-c749-49bb-9fe4-7369b00725ba","system_id":"levelo_inurba_marseille","lat":43.3375,"lon":5.37447,"is_reserved":false,"is_disabled":false,"rental_uris":{"android":"levelo://app?vid=8bf24ec6-c749-49bb-9fe4-7369b00725ba","ios":"levelo://app?vid=8bf24ec6-c749-49bb-9fe4-7369b00725ba"},"vehicle_type_id":"4","last_reported":1727964528,"current_range_meters":7200,"station_id":"","pricing_plan_id":"cebpf4jnsgd1na2vs0mg"},{"bike_id":"47d6a757-4a7a-41f8-8ec1-01bc93a10302","system_id":"levelo_inurba_marseille","lat":43.255,"lon":5.37652,"is_reserved":false,"is_disabled":false,"rental_uris":{"android":"levelo://app?vid=47d6a757-4a7a-41f8-8ec1-01bc93a10302","ios":"levelo://app?vid=47d6a757-4a7a-41f8-8ec1-01bc93a10302"},"vehicle_type_id":"4","last_reported":1727964528,"current_range_meters":25200,"station_id":"ce4bhh12rcd13ifvqff0","pricing_plan_id":"cebpf4jnsgd1na2vs0mg"},{"bike_id":"1123f66a-c17f-4d0e-8a27-17d6dcb51c46","system_id":"levelo_inurba_marseille","lat":43.26213,"lon":5.37442,"is_reserved":false,"is_disabled":false,"rental_uris":{"android":"levelo://app?vid=1123f66a-c17f-4d0e-8a27-17d6dcb51c46","ios":"levelo://app?vid=1123f66a-c17f-4d0e-8a27-17d6dcb51c46"},"vehicle_type_id":"4","last_reported":1727964528,"current_range_meters":33200,"station_id":"ce4bhgp2rcd13ifvqfc0","pricing_plan_id":"cebpf4jnsgd1na2vs0mg"},{"bike_id":"cb9fb6b8-cfa2-48f4-b1a9-f7528f6ea5cc","system_id":"levelo_inurba_marseille","lat":43.313612,"lon":5.384841,"is_reserved":false,"is_disabled":false,"rental_uris":{"android":"levelo://app?vid=cb9fb6b8-cfa2-48f4-b1a9-f7528f6ea5cc","ios":"levelo://app?vid=cb9fb6b8-cfa2-48f4-b1a9-f7528f6ea5cc"},"vehicle_type_id":"4","last_reported":1727964528,"current_range_meters":18800,"station_id":"ce4bh0p2rcd13ifvqd70","pricing_plan_id":"cebpf4jnsgd1na2vs0mg"},{"bike_id":"418fda77-7212-44b8-96cb-52da6fc15ccd","system_id":"levelo_inurba_marseille","lat":43.31887,"lon":5.40739,"is_reserved":false,"is_disabled":false,"rental_uris":{"android":"levelo://app?vid=418fda77-7212-44b8-96cb-52da6fc15ccd","ios":"levelo://app?vid=418fda77-7212-44b8-96cb-52da6fc15ccd"},"vehicle_type_id":"4","last_reported":1727964528,"current_range_meters":10800,"station_id":"ce4bhq12rcd13ifvqhig","pricing_plan_id":"cebpf4jnsgd1na2vs0mg"},{"bike_id":"eb3d774c-9505-416f-bc8b-a4432d24511b","system_id":"levelo_inurba_marseille","lat":43.26568,"lon":5.39005,"is_reserved":false,"is_disabled":false,"rental_uris":{"android":"levelo://app?vid=eb3d774c-9505-416f-bc8b-a4432d24511b","ios":"levelo://app?vid=eb3d774c-9505-416f-bc8b-a4432d24511b"},"vehicle_type_id":"4","last_reported":1727964528,"current_range_meters":36000,"station_id":"ce4bhe12rcd13ifvqf30","pricing_plan_id":"cebpf4jnsgd1na2vs0mg"},{"bike_id":"f911ee7a-f32f-4553-9240-54e57d80d915","system_id":"levelo_inurba_marseille","lat":43.29021,"lon":5.38139,"is_reserved":false,"is_disabled":false,"rental_uris":{"android":"levelo://app?vid=f911ee7a-f32f-4553-9240-54e57d80d915","ios":"levelo://app?vid=f911ee7a-f32f-4553-9240-54e57d80d915"},"vehicle_type_id":"4","last_reported":1727964528,"current_range_meters":6000,"station_id":"ce4bh4p2rcd13ifvqe1g","pricing_plan_id":"cebpf4jnsgd1na2vs0mg"},{"bike_id":"d4ca3cb7-3285-4e3b-9f6a-2440127c81f8","system_id":"levelo_inurba_marseille","lat":43.31716,"lon":5.377538,"is_reserved":false,"is_disabled":false,"rental_uris":{"android":"levelo://app?vid=d4ca3cb7-3285-4e3b-9f6a-2440127c81f8","ios":"levelo://app?vid=d4ca3cb7-3285-4e3b-9f6a-2440127c81f8"},"vehicle_type_id":"4","last_reported":1727964528,"current_range_meters":40000,"station_id":"ce4bgth2rcd13ifvqch0","pricing_plan_id":"cebpf4jnsgd1na2vs0mg"},{"bike_id":"845b201b-ff07-4853-a7df-5e332f54d819","system_id":"levelo_inurba_marseille","lat":43.2509,"lon":5.39521,"is_reserved":false,"is_disabled":false,"rental_uris":{"android":"levelo://app?vid=845b201b-ff07-4853-a7df-5e332f54d819","ios":"levelo://app?vid=845b201b-ff07-4853-a7df-5e332f54d819"},"vehicle_type_id":"4","last_reported":1727964528,"current_range_meters":28400,"station_id":"ce4bhm12rcd13ifvqgkg","pricing_plan_id":"cebpf4jnsgd1na2vs0mg"},{"bike_id":"75fc5e4c-54e1-4ec1-81b0-b0ed57e993ca","system_id":"levelo_inurba_marseille","lat":43.24805,"lon":5.37456,"is_reserved":false,"is_disabled":false,"rental_uris":{"android":"levelo://app?vid=75fc5e4c-54e1-4ec1-81b0-b0ed57e993ca","ios":"levelo://app?vid=75fc5e4c-54e1-4ec1-81b0-b0ed57e993ca"},"vehicle_type_id":"4","last_reported":1727964528,"current_range_meters":11200,"station_id":"ce4bhgh2rcd13ifvqfb0","pricing_plan_id":"cebpf4jnsgd1na2vs0mg"},{"bike_id":"523c2c6d-d68e-4f5e-96a1-7ad17321a6e1","system_id":"levelo_inurba_marseille","lat":43.28848,"lon":5.35863,"is_reserved":false,"is_disabled":false,"rental_uris":{"android":"levelo://app?vid=523c2c6d-d68e-4f5e-96a1-7ad17321a6e1","ios":"levelo://app?vid=523c2c6d-d68e-4f5e-96a1-7ad17321a6e1"},"vehicle_type_id":"4","last_reported":1727964528,"current_range_meters":38800,"station_id":"ce4bhb12rcd13ifvqem0","pricing_plan_id":"cebpf4jnsgd1na2vs0mg"},{"bike_id":"7ceb82db-c602-41ec-87df-d2fb590e74c2","system_id":"levelo_inurba_marseille","lat":43.26554,"lon":5.37292,"is_reserved":false,"is_disabled":false,"rental_uris":{"android":"levelo://app?vid=7ceb82db-c602-41ec-87df-d2fb590e74c2","ios":"levelo://app?vid=7ceb82db-c602-41ec-87df-d2fb590e74c2"},"vehicle_type_id":"4","last_reported":1727964528,"current_range_meters":17200,"station_id":"ce4bhg12rcd13ifvqf70","pricing_plan_id":"cebpf4jnsgd1na2vs0mg"},{"bike_id":"2cc3ad23-8d06-4ad5-a17d-12d66031f16e","system_id":"levelo_inurba_marseille","lat":43.299627,"lon":5.384922,"is_reserved":false,"is_disabled":false,"rental_uris":{"android":"levelo://app?vid=2cc3ad23-8d06-4ad5-a17d-12d66031f16e","ios":"levelo://app?vid=2cc3ad23-8d06-4ad5-a17d-12d66031f16e"},"vehicle_type_id":"4","last_reported":1727964528,"current_range_meters":18800,"station_id":"ce4bgj92rcd13ifvqbd0","pricing_plan_id":"cebpf4jnsgd1na2vs0mg"},{"bike_id":"2b8d53dd-de37-4b3f-a206-ace3148eba49","system_id":"levelo_inurba_marseille","lat":43.284719,"lon":5.384238,"is_reserved":false,"is_disabled":false,"rental_uris":{"android":"levelo://app?vid=2b8d53dd-de37-4b3f-a206-ace3148eba49","ios":"levelo://app?vid=2b8d53dd-de37-4b3f-a206-ace3148eba49"},"vehicle_type_id":"4","last_reported":1727964528,"current_range_meters":39200,"station_id":"ce4bh512rcd13ifvqe3g","pricing_plan_id":"cebpf4jnsgd1na2vs0mg"},{"bike_id":"0ba25c9b-fca3-45dd-b364-f0d6a9f77ae9","system_id":"levelo_inurba_marseille","lat":43.28436,"lon":5.39185,"is_reserved":false,"is_disabled":false,"rental_uris":{"android":"levelo://app?vid=0ba25c9b-fca3-45dd-b364-f0d6a9f77ae9","ios":"levelo://app?vid=0ba25c9b-fca3-45dd-b364-f0d6a9f77ae9"},"vehicle_type_id":"4","last_reported":1727964528,"current_range_meters":38400,"station_id":"ce4bhoh2rcd13ifvqh5g","pricing_plan_id":"cebpf4jnsgd1na2vs0mg"},{"bike_id":"e037eabf-4d4f-4d5b-8f1a-a74e2be708c6","system_id":"levelo_inurba_marseille","lat":43.26554,"lon":5.37289,"is_reserved":false,"is_disabled":false,"rental_uris":{"android":"levelo://app?vid=e037eabf-4d4f-4d5b-8f1a-a74e2be708c6","ios":"levelo://app?vid=e037eabf-4d4f-4d5b-8f1a-a74e2be708c6"},"vehicle_type_id":"4","last_reported":1727964528,"current_range_meters":36000,"station_id":"ce4bhg12rcd13ifvqf70","pricing_plan_id":"cebpf4jnsgd1na2vs0mg"},{"bike_id":"cb23890e-c6ea-4e34-a371-8f3cf1443404","system_id":"levelo_inurba_marseille","lat":43.30462,"lon":5.37905,"is_reserved":false,"is_disabled":false,"rental_uris":{"android":"levelo://app?vid=cb23890e-c6ea-4e34-a371-8f3cf1443404","ios":"levelo://app?vid=cb23890e-c6ea-4e34-a371-8f3cf1443404"},"vehicle_type_id":"4","last_reported":1727964528,"current_range_meters":38800,"station_id":"ce4bgup2rcd13ifvqcn0","pricing_plan_id":"cebpf4jnsgd1na2vs0mg"},{"bike_id":"ec8a83de-f64f-46e9-8ae9-e57828ed67c3","system_id":"levelo_inurba_marseille","lat":43.29682,"lon":5.37288,"is_reserved":false,"is_disabled":false,"rental_uris":{"android":"levelo://app?vid=ec8a83de-f64f-46e9-8ae9-e57828ed67c3","ios":"levelo://app?vid=ec8a83de-f64f-46e9-8ae9-e57828ed67c3"},"vehicle_type_id":"4","last_reported":1727964528,"current_range_meters":29600,"station_id":"ce4bgk12rcd13ifvqbj0","pricing_plan_id":"cebpf4jnsgd1na2vs0mg"},{"bike_id":"16805c2c-fb73-44cf-83b3-e268304b15e1","system_id":"levelo_inurba_marseille","lat":43.29802,"lon":5.38117,"is_reserved":false,"is_disabled":false,"rental_uris":{"android":"levelo://app?vid=16805c2c-fb73-44cf-83b3-e268304b15e1","ios":"levelo://app?vid=16805c2c-fb73-44cf-83b3-e268304b15e1"},"vehicle_type_id":"4","last_reported":1727964528,"current_range_meters":8400,"station_id":"ce4bgip2rcd13ifvqbb0","pricing_plan_id":"cebpf4jnsgd1na2vs0mg"},{"bike_id":"ce04286b-7a25-4a78-b854-2280ab894302","system_id":"levelo_inurba_marseille","lat":43.25108,"lon":5.4032,"is_reserved":false,"is_disabled":false,"rental_uris":{"android":"levelo://app?vid=ce04286b-7a25-4a78-b854-2280ab894302","ios":"levelo://app?vid=ce04286b-7a25-4a78-b854-2280ab894302"},"vehicle_type_id":"4","last_reported":1727964528,"current_range_meters":3600,"station_id":"ce4bhlh2rcd13ifvqgig","pricing_plan_id":"cebpf4jnsgd1na2vs0mg"},{"bike_id":"1370ecce-0f1e-42f5-b5c6-9de8d604221a","system_id":"levelo_inurba_marseille","lat":43.3046,"lon":5.37904,"is_reserved":false,"is_disabled":false,"rental_uris":{"android":"levelo://app?vid=1370ecce-0f1e-42f5-b5c6-9de8d604221a","ios":"levelo://app?vid=1370ecce-0f1e-42f5-b5c6-9de8d604221a"},"vehicle_type_id":"4","last_reported":1727964528,"current_range_meters":35600,"station_id":"ce4bgup2rcd13ifvqcn0","pricing_plan_id":"cebpf4jnsgd1na2vs0mg"},{"bike_id":"a2ec91ee-0597-4534-b4e7-15ec5d963504","system_id":"levelo_inurba_marseille","lat":43.30932,"lon":5.40139,"is_reserved":false,"is_disabled":false,"rental_uris":{"android":"levelo://app?vid=a2ec91ee-0597-4534-b4e7-15ec5d963504","ios":"levelo://app?vid=a2ec91ee-0597-4534-b4e7-15ec5d963504"},"vehicle_type_id":"4","last_reported":1727964528,"current_range_meters":14400,"station_id":"ce4bgvp2rcd13ifvqct0","pricing_plan_id":"cebpf4jnsgd1na2vs0mg"},