{"last_updated":1703106393,"ttl":30,"version":"2.2","data":{"bikes":[{"bike_id":"b6cb0808-4276-411f-b1a9-769199a384c5","system_id":"levelo_inurba_marseille","lat":43.313391,"lon":5.36706,"is_reserved":false,"is_disabled":false,"rental_uris":{"android":"levelo://app?vid=b6cb0808-4276-411f-b1a9-769199a384c5","ios":"levelo://app?vid=b6cb0808-4276-411f-b1a9-769199a384c5"},"vehicle_type_id":"4","last_reported":1703106393,"current_range_meters":10400,"station_id":"ce4bgr92rcd13ifvqc6g","pricing_plan_id":"free"},{"bike_id":"63e20fad-1285-4b66-bd8f-d3605b03361b","system_id":"levelo_inurba_marseille","lat":43.31341,"lon":5.367098,"is_reserved":false,"is_disabled":false,"rental_uris":{"android":"levelo://app?vid=63e20fad-1285-4b66-bd8f-d3605b03361b","ios":"levelo://app?vid=63e20fad-1285-4b66-bd8f-d3605b03361b"},"vehicle_type_id":"4","last_reported":1703106393,"current_range_meters":26000,"station_id":"ce4bgr92rcd13ifvqc6g","pricing_plan_id":"free"},{"bike_id":"3cf12d02-5c13-435d-8950-6f18202f760d","system_id":"levelo_inurba_marseille","lat":43.309039,"lon":5.371797,"is_reserved":false,"is_disabled":false,"rental_uris":{"android":"levelo://app?vid=3cf12d02-5c13-435d-8950-6f18202f760d","ios":"levelo://app?vid=3cf12d02-5c13-435d-8950-6f18202f760d"},"vehicle_type_id":"4","last_reported":1703106393,"current_range_meters":17200,"station_id":"ce4bguh2rcd13ifvqckg","pricing_plan_id":"free"},{"bike_id":"8f165a68-8221-4ba6-936c-be0d5ea61644","system_id":"levelo_inurba_marseille","lat":43.30523,"lon":5.36707,"is_reserved":false,"is_disabled":false,"rental_uris":{"android":"levelo://app?vid=8f165a68-8221-4ba6-936c-be0d5ea61644","ios":"levelo://app?vid=8f165a68-8221-4ba6-936c-be0d5ea61644"},"vehicle_type_id":"4","last_reported":1703106393,"current_range_meters":13200,"station_id":"ce4bgrp2rcd13ifvqc9g","pricing_plan_id":"free"},{"bike_id":"03a7e4d9-3e23-4a6b-bdc9-a3307d2e53b7","system_id":"levelo_inurba_marseille","lat":43.305989,"lon":5.37225,"is_reserved":false,"is_disabled":false,"rental_uris":{"android":"levelo://app?vid=03a7e4d9-3e23-4a6b-bdc9-a3307d2e53b7","ios":"levelo://app?vid=03a7e4d9-3e23-4a6b-bdc9-a3307d2e53b7"},"vehicle_type_id":"4","last_reported":1703106393,"current_range_meters":22400,"station_id":"ce4bgqh2rcd13ifvqc4g","pricing_plan_id":"free"},{"bike_id":"9309bdce-689d-4d75-bee7-87ce85461c78","system_id":"levelo_inurba_marseille","lat":43.30593,"lon":5.37219,"is_reserved":false,"is_disabled":false,"rental_uris":{"android":"levelo://app?vid=9309bdce-689d-4d75-bee7-87ce85461c78","ios":"levelo://app?vid=9309bdce-689d-4d75-bee7-87ce85461c78"},"vehicle_type_id":"4","last_reported":1703106393,"current_range_meters":0,"station_id":"ce4bgqh2rcd13ifvqc4g","pricing_plan_id":"free"},{"bike_id":"2e62151a-223f-4f2b-a611-f2776d6c1e22","system_id":"levelo_inurba_marseille","lat":43.311177,"lon":5.377607,"is_reserved":false,"is_disabled":false,"rental_uris":{"android":"levelo://app?vid=2e62151a-223f-4f2b-a611-f2776d6c1e22","ios":"levelo://app?vid=2e62151a-223f-4f2b-a611-f2776d6c1e22"},"vehicle_type_id":"4","last_reported":1703106393,"current_range_meters":31200,"station_id":"ce4bgt92rcd13ifvqcg0","pricing_plan_id":"free"},{"bike_id":"656e6892-d1a0-475f-8594-d81f912904f0","system_id":"levelo_inurba_marseille","lat":43.311131,"lon":5.377651,"is_reserved":false,"is_disabled":false,"rental_uris":{"android":"levelo://app?vid=656e6892-d1a0-475f-8594-d81f912904f0","ios":"levelo://app?vid=656e6892-d1a0-475f-8594-d81f912904f0"},"vehicle_type_id":"4","last_reported":1703106393,"current_range_meters":2000,"station_id":"ce4bgt92rcd13ifvqcg0","pricing_plan_id":"free"},{"bike_id":"27afb64c-e0c0-49e8-b868-db2cf8ba11a2","system_id":"levelo_inurba_marseille","lat":43.311125,"lon":5.377624,"is_reserved":false,"is_disabled":false,"rental_uris":{"android":"levelo://app?vid=27afb64c-e0c0-49e8-b868-db2cf8ba11a2","ios":"levelo://app?vid=27afb64c-e0c0-49e8-b868-db2cf8ba11a2"},"vehicle_type_id":"4","last_reported":1703106393,"current_range_meters":18400,"station_id":"ce4bgt92rcd13ifvqcg0","pricing_plan_id":"free"},{"bike_id":"fd5e8778-4433-44e7-a4ac-88da1e329d45","system_id":"levelo_inurba_marseille","lat":43.311131,"lon":5.377651,"is_reserved":false,"is_disabled":false,"rental_uris":{"android":"levelo://app?vid=fd5e8778-4433-44e7-a4ac-88da1e329d45","ios":"levelo://app?vid=fd5e8778-4433-44e7-a4ac-88da1e329d45"},"vehicle_type_id":"4","last_reported":1703106393,"current_range_meters":12800,"station_id":"ce4bgt92rcd13ifvqcg0","pricing_plan_id":"free"},{"bike_id":"2b31283f-dc49-40eb-9032-b11b2c1daf8d","system_id":"levelo_inurba_marseille","lat":43.317075,"lon":5.377367,"is_reserved":false,"is_disabled":false,"rental_uris":{"android":"levelo://app?vid=2b31283f-dc49-40eb-9032-b11b2c1daf8d","ios":"levelo://app?vid=2b31283f-dc49-40eb-9032-b11b2c1daf8d"},"vehicle_type_id":"4","last_reported":1703106393,"current_range_meters":29600,"station_id":"ce4bgth2rcd13ifvqch0","pricing_plan_id":"free"},{"bike_id":"8f4e5ea1-e75f-4996-8466-be6ab66dca0f","system_id":"levelo_inurba_marseille","lat":43.301939,"lon":5.366286,"is_reserved":false,"is_disabled":false,"rental_uris":{"android":"levelo://app?vid=8f4e5ea1-e75f-4996-8466-be6ab66dca0f","ios":"levelo://app?vid=8f4e5ea1-e75f-4996-8466-be6ab66dca0f"},"vehicle_type_id":"4","last_reported":1703106393,"current_range_meters":2000,"station_id":"ce4bgrh2rcd13ifvqc8g","pricing_plan_id":"free"},{"bike_id":"7947b368-bd91-4cb4-a9ed-673f2234f13c","system_id":"levelo_inurba_marseille","lat":43.308012,"lon":5.381511,"is_reserved":false,"is_disabled":false,"rental_uris":{"android":"levelo://app?vid=7947b368-bd91-4cb4-a9ed-673f2234f13c","ios":"levelo://app?vid=7947b368-bd91-4cb4-a9ed-673f2234f13c"},"vehicle_type_id":"4","last_reported":1703106393,"current_range_meters":21200,"station_id":"ce4bgt12rcd13ifvqce0","pricing_plan_id":"free"},{"bike_id":"e60e5e75-8dc9-4cb0-a614-80d368975ea9","system_id":"levelo_inurba_marseille","lat":43.308012,"lon":5.381511,"is_reserved":false,"is_disabled":false,"rental_uris":{"android":"levelo://app?vid=e60e5e75-8dc9-4cb0-a614-80d368975ea9","ios":"levelo://app?vid=e60e5e75-8dc9-4cb0-a614-80d368975ea9"},"vehicle_type_id":"4","last_reported":1703106393,"current_range_meters":25600,"station_id":"ce4bgt12rcd13ifvqce0","pricing_plan_id":"free"},{"bike_id":"1aa01d3f-6fa4-4c86-b33f-991d8db9f3d7","system_id":"levelo_inurba_marseille","lat":43.304606,"lon":5.379026,"is_reserved":false,"is_disabled":false,"rental_uris":{"android":"levelo://app?vid=1aa01d3f-6fa4-4c86-b33f-991d8db9f3d7","ios":"levelo://app?vid=1aa01d3f-6fa4-4c86-b33f-991d8db9f3d7"},"vehicle_type_id":"4","last_reported":1703106393,"current_range_meters":10800,"station_id":"ce4bgup2rcd13ifvqcn0","pricing_plan_id":"free"},{"bike_id":"fc39e9a0-665a-4869-86ee-8885d48a8fe2","system_id":"levelo_inurba_marseille","lat":43.304606,"lon":5.379026,"is_reserved":false,"is_disabled":false,"rental_uris":{"android":"levelo://app?vid=fc39e9a0-665a-4869-86ee-8885d48a8fe2","ios":"levelo://app?vid=fc39e9a0-665a-4869-86ee-8885d48a8fe2"},"vehicle_type_id":"4","last_reported":1703106393,"current_range_meters":4400,"station_id":"ce4bgup2rcd13ifvqcn0","pricing_plan_id":"free"},{"bike_id":"b1778cfd-376f-4096-a269-023903a573e0","system_id":"levelo_inurba_marseille","lat":43.302784,"lon":5.377158,"is_reserved":false,"is_disabled":false,"rental_uris":{"android":"levelo://app?vid=b1778cfd-376f-4096-a269-023903a573e0","ios":"levelo://app?vid=b1778cfd-376f-4096-a269-023903a573e0"},"vehicle_type_id":"4","last_reported":1703106393,"current_range_meters":20400,"station_id":"ce4bguh2rcd13ifvqcj0","pricing_plan_id":"free"},{"bike_id":"c6f5fac8-307c-4afe-b830-58abf619b592","system_id":"levelo_inurba_marseille","lat":43.302784,"lon":5.377158,"is_reserved":false,"is_disabled":false,"rental_uris":{"android":"levelo://app?vid=c6f5fac8-307c-4afe-b830-58abf619b592","ios":"levelo://app?vid=c6f5fac8-307c-4afe-b830-58abf619b592"},"vehicle_type_id":"4","last_reported":1703106393,"current_range_meters":17200,"station_id":"ce4bguh2rcd13ifvqcj0","pricing_plan_id":"free"},{"bike_id":"6bd330e5-be91-4c6a-bd12-6b4c0748505e","system_id":"levelo_inurba_marseille","lat":43.319934,"lon":5.381508,"is_reserved":false,"is_disabled":false,"rental_uris":{"android":"levelo://app?vid=6bd330e5-be91-4c6a-bd12-6b4c0748505e","ios":"levelo://app?vid=6bd330e5-be91-4c6a-bd12-6b4c0748505e"},"vehicle_type_id":"4","last_reported":1703106393,"current_range_meters":10800,"station_id":"ce4bhr12rcd13ifvqhpg","pricing_plan_id":"free"},{"bike_id":"953d5feb-48a7-427e-a3e1-b62f811507e8","system_id":"levelo_inurba_marseille","lat":43.319935,"lon":5.381699,"is_reserved":false,"is_disabled":false,"rental_uris":{"android":"levelo://app?vid=953d5feb-48a7-427e-a3e1-b62f811507e8","ios":"levelo://app?vid=953d5feb-48a7-427e-a3e1-b62f811507e8"},"vehicle_type_id":"4","last_reported":1703106393,"current_range_meters":4000,"station_id":"ce4bhr12rcd13ifvqhpg","pricing_plan_id":"free"},{"bike_id":"97ee561f-6180-4767-bffc-2d24db068c82","system_id":"levelo_inurba_marseille","lat":43.313571,"lon":5.384829,"is_reserved":false,"is_disabled":false,"rental_uris":{"android":"levelo://app?vid=97ee561f-6180-4767-bffc-2d24db068c82","ios":"levelo://app?vid=97ee561f-6180-4767-bffc-2d24db068c82"},"vehicle_type_id":"4","last_reported":1703106393,"current_range_meters":24400,"station_id":"ce4bgt92rcd13ifvqcf0","pricing_plan_id":"free"},{"bike_id":"ed91d5aa-99cc-4c7d-a060-e99494993703","system_id":"levelo_inurba_marseille","lat":43.313571,"lon":5.384829,"is_reserved":false,"is_disabled":false,"rental_uris":{"android":"levelo://app?vid=ed91d5aa-99cc-4c7d-a060-e99494993703","ios":"levelo://app?vid=ed91d5aa-99cc-4c7d-a060-e99494993703"},"vehicle_type_id":"4","last_reported":1703106393,"current_range_meters":16800,"station_id":"ce4bgt92rcd13ifvqcf0","pricing_plan_id":"free"},{"bike_id":"257d7a13-be48-46e9-abf1-6513a04c2a98","system_id":"levelo_inurba_marseille","lat":43.313571,"lon":5.384829,"is_reserved":false,"is_disabled":false,"rental_uris":{"android":"levelo://app?vid=257d7a13-be48-46e9-abf1-6513a04c2a98","ios":"levelo://app?vid=257d7a13-be48-46e9-abf1-6513a04c2a98"},"vehicle_type_id":"4","last_reported":1703106393,"current_range_meters":21600,"station_id":"ce4bgt92rcd13ifvqcf0","pricing_plan_id":"free"},{"bike_id":"a532531c-1386-4f72-8f85-ec0e658263e1","system_id":"levelo_inurba_marseille","lat":43.313571,"lon":5.384829,"is_reserved":false,"is_disabled":false,"rental_uris":{"android":"levelo://app?vid=a532531c-1386-4f72-8f85-ec0e658263e1","ios":"levelo://app?vid=a532531c-1386-4f72-8f85-ec0e658263e1"},"vehicle_type_id":"4","last_reported":1703106393,"current_range_meters":5200,"station_id":"ce4bgt92rcd13ifvqcf0","pricing_plan_id":"free"},{"bike_id":"cc349733-9e3e-4d13-b27b-febaf8cb0f14","system_id":"levelo_inurba_marseille","lat":43.299724,"lon":5.371829,"is_reserved":false,"is_disabled":false,"rental_uris":{"android":"levelo://app?vid=cc349733-9e3e-4d13-b27b-febaf8cb0f14","ios":"levelo://app?vid=cc349733-9e3e-4d13-b27b-febaf8cb0f14"},"vehicle_type_id":"4","last_reported":1703106393,"current_range_meters":29200,"station_id":"ce4bgr92rcd13ifvqc7g","pricing_plan_id":"free"},{"bike_id":"00f2924f-54c9-4c65-aacb-f84dbb9594fc","system_id":"levelo_inurba_marseille","lat":43.299222,"lon":5.365554,"is_reserved":false,"is_disabled":false,"rental_uris":{"android":"levelo://app?vid=00f2924f-54c9-4c65-aacb-f84dbb9594fc","ios":"levelo://app?vid=00f2924f-54c9-4c65-aacb-f84dbb9594fc"},"vehicle_type_id":"4","last_reported":1703106393,"current_range_meters":24800,"station_id":"ce4bgm92rcd13ifvqbr0","pricing_plan_id":"free"},{"bike_id":"d07143b1-ddd7-4eb5-985c-faa1cb700ef8","system_id":"levelo_inurba_marseille","lat":43.299222,"lon":5.365554,"is_reserved":false,"is_disabled":false,"rental_uris":{"android":"levelo://app?vid=d07143b1-ddd7-4eb5-985c-faa1cb700ef8","ios":"levelo://app?vid=d07143b1-ddd7-4eb5-985c-faa1cb700ef8"},"vehicle_type_id":"4","last_reported":1703106393,"current_range_meters":7200,"station_id":"ce4bgm92rcd13ifvqbr0","pricing_plan_id":"free"},{"bike_id":"f1f0042a-0e0a-4a69-b7ee-26da2b50d186","system_id":"levelo_inurba_marseille","lat":43.299724,"lon":5.371829,"is_reserved":false,"is_disabled":false,"rental_uris":{"android":"levelo://app?vid=f1f0042a-0e0a-4a69-b7ee-26da2b50d186","ios":"levelo://app?vid=f1f0042a-0e0a-4a69-b7ee-26da2b50d186"},"vehicle_type_id":"4","last_reported":1703106393,"current_range_meters":27200,"station_id":"ce4bgr92rcd13ifvqc7g","pricing_plan_id":"free"},{"bike_id":"2595dc13-9125-4ffb-a06b-de525786f682","system_id":"levelo_inurba_marseille","lat":43.299222,"lon":5.365554,"is_reserved":false,"is_disabled":false,"rental_uris":{"android":"levelo://app?vid=2595dc13-9125-4ffb-a06b-de525786f682","ios":"levelo://app?vid=2595dc13-9125-4ffb-a06b-de525786f682"},"vehicle_type_id":"4","last_reported":1703106393,"current_range_meters":4000,"station_id":"ce4bgm92rcd13ifvqbr0","pricing_plan_id":"free"},{"bike_id":"1db9b9d0-0db7-4263-8806-29dc522f1cf0","system_id":"levelo_inurba_marseille","lat":43.299222,"lon":5.365554,"is_reserved":false,"is_disabled":false,"rental_uris":{"android":"levelo://app?vid=1db9b9d0-0db7-4263-8806-29dc522f1cf0","ios":"levelo://app?vid=1db9b9d0-0db7-4263-8806-29dc522f1cf0"},"vehicle_type_id":"4","last_reported":1703106393,"current_range_meters":30000,"station_id":"ce4bgm92rcd13ifvqbr0","pricing_plan_id":"free"},{"bike_id":"508274f0-d7fe-4308-80ce-52e975321704","system_id":"levelo_inurba_marseille","lat":43.299724,"lon":5.371829,"is_reserved":false,"is_disabled":false,"rental_uris":{"android":"levelo://app?vid=508274f0-d7fe-4308-80ce-52e975321704","ios":"levelo://app?vid=508274f0-d7fe-4308-80ce-52e975321704"},"vehicle_type_id":"4","last_reported":1703106393,"current_range_meters":8000,"station_id":"ce4bgr92rcd13ifvqc7g","pricing_plan_id":"free"},{"bike_id":"044fb60b-41f1-4d45-ac78-a005f4ffd2d1","system_id":"levelo_inurba_marseille","lat":43.32562,"lon":5.3742,"is_reserved":false,"is_disabled":false,"rental_uris":{"android":"levelo://app?vid=044fb60b-41f1-4d45-ac78-a005f4ffd2d1","ios":"levelo://app?vid=044fb60b-41f1-4d45-ac78-a005f4ffd2d1"},"vehicle_type_id":"4","last_reported":1703106393,"current_range_meters":21600,"station_id":"","pricing_plan_id":"free"},{"bike_id":"5536b8d8-8930-4e63-a363-5329e80e9a9f","system_id":"levelo_inurba_marseille","lat":43.298433,"lon":5.362774,"is_reserved":false,"is_disabled":false,"rental_uris":{"android":"levelo://app?vid=5536b8d8-8930-4e63-a363-5329e80e9a9f","ios":"levelo://app?vid=5536b8d8-8930-4e63-a363-5329e80e9a9f"},"vehicle_type_id":"4","last_reported":1703106393,"current_range_meters":28400,"station_id":"ce4bgpp2rcd13ifvqc3g","pricing_plan_id":"free"},{"bike_id":"59f78105-95b0-49b7-9ec6-adaeaf9784cb","system_id":"levelo_inurba_marseille","lat":43.311722,"lon":5.387247,"is_reserved":false,"is_disabled":false,"rental_uris":{"android":"levelo://app?vid=59f78105-95b0-49b7-9ec6-adaeaf9784cb","ios":"levelo://app?vid=59f78105-95b0-49b7-9ec6-adaeaf9784cb"},"vehicle_type_id":"4","last_reported":1703106393,"current_range_meters":21600,"station_id":"ce4bgv12rcd13ifvqcp0","pricing_plan_id":"free"},{"bike_id":"f75574c7-4b9f-4d54-bec2-4fe5197acad8","system_id":"levelo_inurba_marseille","lat":43.311722,"lon":5.387247,"is_reserved":false,"is_disabled":false,"rental_uris":{"android":"levelo://app?vid=f75574c7-4b9f-4d54-bec2-4fe5197acad8","ios":"levelo://app?vid=f75574c7-4b9f-4d54-bec2-4fe5197acad8"},"vehicle_type_id":"4","last_reported":1703106393,"current_range_meters":24000,"station_id":"ce4bgv12rcd13ifvqcp0","pricing_plan_id":"free"},{"bike_id":"1b77dd70-b491-4da0-8f7e-06bdc7d43dbf","system_id":"levelo_inurba_marseille","lat":43.311722,"lon":5.387247,"is_reserved":false,"is_disabled":false,"rental_uris":{"android":"levelo://app?vid=1b77dd70-b491-4da0-8f7e-06bdc7d43dbf","ios":"levelo://app?vid=1b77dd70-b491-4da0-8f7e-06bdc7d43dbf"},"vehicle_type_id":"4","last_reported":1703106393,"current_range_meters":31200,"station_id":"ce4bgv12rcd13ifvqcp0","pricing_plan_id":"free"},{"bike_id":"e3a096a9-0e6e-4a62-bd9d-9bba124181e0","system_id":"levelo_inurba_marseille","lat":43.311722,"lon":5.387247,"is_reserved":false,"is_disabled":false,"rental_uris":{"android":"levelo://app?vid=e3a096a9-0e6e-4a62-bd9d-9bba124181e0","ios":"levelo://app?vid=e3a096a9-0e6e-4a62-bd9d-9bba124181e0"},"vehicle_type_id":"4","last_reported":1703106393,"current_range_meters":16000,"station_id":"ce4bgv12rcd13ifvqcp0","pricing_plan_id":"free"},{"bike_id":"6e1a1d7a-48d9-46ce-beb8-d648a2cc5663","system_id":"levelo_inurba_marseille","lat":43.311722,"lon":5.387247,"is_reserved":false,"is_disabled":false,"rental_uris":{"android":"levelo://app?vid=6e1a1d7a-48d9-46ce-beb8-d648a2cc5663","ios":"levelo://app?vid=6e1a1d7a-48d9-46ce-beb8-d648a2cc5663"},"vehicle_type_id":"4","last_reported":1703106393,"current_range_meters":30000,"station_id":"ce4bgv12rcd13ifvqcp0","pricing_plan_id":"free"},{"bike_id":"4b2d9bb1-5fa8-4bdf-92e9-6c6338df3907","system_id":"levelo_inurba_marseille","lat":43.311722,"lon":5.387247,"is_reserved":false,"is_disabled":false,"rental_uris":{"android":"levelo://app?vid=4b2d9bb1-5fa8-4bdf-92e9-6c6338df3907","ios":"levelo://app?vid=4b2d9bb1-5fa8-4bdf-92e9-6c6338df3907"},"vehicle_type_id":"4","last_reported":1703106393,"current_range_meters":30000,"station_id":"ce4bgv12rcd13ifvqcp0","pricing_plan_id":"free"},{"bike_id":"76644617-8f77-4f52-b47c-c67ec66e22f9","system_id":"levelo_inurba_marseille","lat":43.311722,"lon":5.387247,"is_reserved":false,"is_disabled":false,"rental_uris":{"android":"levelo://app?vid=76644617-8f77-4f52-b47c-c67ec66e22f9","ios":"levelo://app?vid=76644617-8f77-4f52-b47c-c67ec66e22f9"},"vehicle_type_id":"4","last_reported":1703106393,"current_range_meters":31200,"station_id":"ce4bgv12rcd13ifvqcp0","pricing_plan_id":"free"},{"bike_id":"891bce01-0e20-4522-b6f8-f2b06de0dc15","system_id":"levelo_inurba_marseille","lat":43.297774,"lon":5.370875,"is_reserved":false,"is_disabled":false,"rental_uris":{"android":"levelo://app?vid=891bce01-0e20-4522-b6f8-f2b06de0dc15","ios":"levelo://app?vid=891bce01-0e20-4522-b6f8-f2b06de0dc15"},"vehicle_type_id":"4","last_reported":1703106393,"current_range_meters":17200,"station_id":"ce4bgop2rcd13ifvqc1g","pricing_plan_id":"free"},{"bike_id":"88b68990-d78b-4af9-bf29-7cca5c3121f7","system_id":"levelo_inurba_marseille","lat":43.297774,"lon":5.370875,"is_reserved":false,"is_disabled":false,"rental_uris":{"android":"levelo://app?vid=88b68990-d78b-4af9-bf29-7cca5c3121f7","ios":"levelo://app?vid=88b68990-d78b-4af9-bf29-7cca5c3121f7"},"vehicle_type_id":"4","last_reported":1703106393,"current_range_meters":25600,"station_id":"ce4bgop2rcd13ifvqc1g","pricing_plan_id":"free"},{"bike_id":"b209b91e-f95c-4c8a-b85c-6c83d55c8c8c","system_id":"levelo_inurba_marseille","lat":43.322872,"lon":5.382756,"is_reserved":false,"is_disabled":false,"rental_uris":{"android":"levelo://app?vid=b209b91e-f95c-4c8a-b85c-6c83d55c8c8c","ios":"levelo://app?vid=b209b91e-f95c-4c8a-b85c-6c83d55c8c8c"},"vehicle_type_id":"4","last_reported":1703106393,"current_range_meters":4000,"station_id":"ce4bhr12rcd13ifvqhqg","pricing_plan_id":"free"},{"bike_id":"b8d2d249-a3a6-4543-b1c7-6b3650de13c5","system_id":"levelo_inurba_marseille","lat":43.322872,"lon":5.382756,"is_reserved":false,"is_disabled":false,"rental_uris":{"android":"levelo://app?vid=b8d2d249-a3a6-4543-b1c7-6b3650de13c5","ios":"levelo://app?vid=b8d2d249-a3a6-4543-b1c7-6b3650de13c5"},"vehicle_type_id":"4","last_reported":1703106393,"current_range_meters":31200,"station_id":"ce4bhr12rcd13ifvqhqg","pricing_plan_id":"free"},{"bike_id":"bc81749c-97ac-487a-bc93-76443e598803","system_id":"levelo_inurba_marseille","lat":43.328371,"lon":5.366909,"is_reserved":false,"is_disabled":false,"rental_uris":{"android":"levelo://app?vid=bc81749c-97ac-487a-bc93-76443e598803","ios":"levelo://app?vid=bc81749c-97ac-487a-bc93-76443e598803"},"vehicle_type_id":"4","last_reported":1703106393,"current_range_meters":4000,"station_id":"ce4bhs92rcd13ifvqi0g","pricing_plan_id":"free"},{"bike_id":"cb97846c-9508-4ec4-82fd-1a637ef7dd90","system_id":"levelo_inurba_marseille","lat":43.328371,"lon":5.366909,"is_reserved":false,"is_disabled":false,"rental_uris":{"android":"levelo://app?vid=cb97846c-9508-4ec4-82fd-1a637ef7dd90","ios":"levelo://app?vid=cb97846c-9508-4ec4-82fd-1a637ef7dd90"},"vehicle_type_id":"4","last_reported":1703106393,"current_range_meters":0,"station_id":"ce4bhs92rcd13ifvqi0g","pricing_plan_id":"free"},{"bike_id":"c22e4b9f-ba20-4a7c-a7c8-fd0a73d903e0","system_id":"levelo_inurba_marseille","lat":43.328371,"lon":5.366909,"is_reserved":false,"is_disabled":false,"rental_uris":{"android":"levelo://app?vid=c22e4b9f-ba20-4a7c-a7c8-fd0a73d903e0","ios":"levelo://app?vid=c22e4b9f-ba20-4a7c-a7c8-fd0a73d903e0"},"vehicle_type_id":"4","last_reported":1703106393,"current_range_meters":22000,"station_id":"ce4bhs92rcd13ifvqi0g","pricing_plan_id":"free"},{"bike_id":"2a8a59a2-86cc-48a9-8714-ae0edcb4d489","system_id":"levelo_inurba_marseille","lat":43.328371,"lon":5.366909,"is_reserved":false,"is_disabled":false,"rental_uris":{"android":"levelo://app?vid=2a8a59a2-86cc-48a9-8714-ae0edcb4d489","ios":"levelo://app?vid=2a8a59a2-86cc-48a9-8714-ae0edcb4d489"},"vehicle_type_id":"4","last_reported":1703106393,"current_range_meters":1200,"station_id":"ce4bhs92rcd13ifvqi0g","pricing_plan_id":"free"},{"bike_id":"59581a9c-f177-4a96-aea6-b7baaa49a6a3","system_id":"levelo_inurba_marseille","lat":43.32833,"lon":5.36679,"is_reserved":false,"is_disabled":false,"rental_uris":{"android":"levelo://app?vid=59581a9c-f177-4a96-aea6-b7baaa49a6a3","ios":"levelo://app?vid=59581a9c-f177-4a96-aea6-b7baaa49a6a3"},"vehicle_type_id":"4","last_reported":1703106393,"current_range_meters":28800,"station_id":"ce4bhs92rcd13ifvqi0g","pricing_plan_id":"free"},{"bike_id":"c12df297-168e-4ca3-95d9-a300ff1ffbd9","system_id":"levelo_inurba_marseille","lat":43.328371,"lon":5.366909,"is_reserved":false,"is_disabled":false,"rental_uris":{"android":"levelo://app?vid=c12df297-168e-4ca3-95d9-a300ff1ffbd9","ios":"levelo://app?vid=c12df297-168e-4ca3-95d9-a300ff1ffbd9"},"vehicle_type_id":"4","last_reported":1703106393,"current_range_meters":28800,"station_id":"ce4bhs92rcd13ifvqi0g","pricing_plan_id":"free"},{"bike_id":"eb8ebe7d-6983-4780-997c-9447c3c0c6e2","system_id":"levelo_inurba_marseille","lat":43.328371,"lon":5.366909,"is_reserved":false,"is_disabled":false,"rental_uris":{"android":"levelo://app?vid=eb8ebe7d-6983-4780-997c-9447c3c0c6e2","ios":"levelo://app?vid=eb8ebe7d-6983-4780-997c-9447c3c0c6e2"},"vehicle_type_id":"4","last_reported":1703106393,"current_range_meters":27600,"station_id":"ce4bhs92rcd13ifvqi0g","pricing_plan_id":"free"},{"bike_id":"ea9c48e3-45cf-4f81-b96d-343b35f3d6e3","system_id":"levelo_inurba_marseille","lat":43.297163,"lon":5.365866,"is_reserved":false,"is_disabled":false,"rental_uris":{"android":"levelo://app?vid=ea9c48e3-45cf-4f81-b96d-343b35f3d6e3","ios":"levelo://app?vid=ea9c48e3-45cf-4f81-b96d-343b35f3d6e3"},"vehicle_type_id":"4","last_reported":1703106393,"current_range_meters":4000,"station_id":"ce4bgn12rcd13ifvqbt0","pricing_plan_id":"free"},{"bike_id":"cb7ed076-dd47-4eb3-8e54-84931d5fd772","system_id":"levelo_inurba_marseille","lat":43.309589,"lon":5.390258,"is_reserved":false,"is_disabled":false,"rental_uris":{"android":"levelo://app?vid=cb7ed076-dd47-4eb3-8e54-84931d5fd772","ios":"levelo://app?vid=cb7ed076-dd47-4eb3-8e54-84931d5fd772"},"vehicle_type_id":"4","last_reported":1703106393,"current_range_meters":12800,"station_id":"ce4bgup2rcd13ifvqco0","pricing_plan_id":"free"},{"bike_id":"0b302c3a-0edd-4d80-b6a2-0e41892114c5","system_id":"levelo_inurba_marseille","lat":43.317557,"lon":5.390173,"is_reserved":false,"is_disabled":false,"rental_uris":{"android":"levelo://app?vid=0b302c3a-0edd-4d80-b6a2-0e41892114c5","ios":"levelo://app?vid=0b302c3a-0edd-4d80-b6a2-0e41892114c5"},"vehicle_type_id":"4","last_reported":1703106393,"current_range_meters":8000,"station_id":"ce4bhqp2rcd13ifvqhng","pricing_plan_id":"free"},{"bike_id":"c4c1f64a-485a-4c35-b278-a49cef644f05","system_id":"levelo_inurba_marseille","lat":43.317557,"lon":5.390173,"is_reserved":false,"is_disabled":false,"rental_uris":{"android":"levelo://app?vid=c4c1f64a-485a-4c35-b278-a49cef644f05","ios":"levelo://app?vid=c4c1f64a-485a-4c35-b278-a49cef644f05"},"vehicle_type_id":"4","last_reported":1703106393,"current_range_meters":12400,"station_id":"ce4bhqp2rcd13ifvqhng","pricing_plan_id":"free"},{"bike_id":"a3b5723f-773e-4907-9274-da75f1e24c14","system_id":"levelo_inurba_marseille","lat":43.317557,"lon":5.390173,"is_reserved":false,"is_disabled":false,"rental_uris":{"android":"levelo://app?vid=a3b5723f-773e-4907-9274-da75f1e24c14","ios":"levelo://app?vid=a3b5723f-773e-4907-9274-da75f1e24c14"},"vehicle_type_id":"4","last_reported":1703106393,"current_range_meters":28800,"station_id":"ce4bhqp2rcd13ifvqhng","pricing_plan_id":"free"},{"bike_id":"c6cde74f-64bd-4c70-8051-2582255b7c17","system_id":"levelo_inurba_marseille","lat":43.295748,"lon":5.37522,"is_reserved":false,"is_disabled":false,"rental_uris":{"android":"levelo://app?vid=c6cde74f-64bd-4c70-8051-2582255b7c17","ios":"levelo://app?vid=c6cde74f-64bd-4c70-8051-2582255b7c17"},"vehicle_type_id":"4","last_reported":1703106393,"current_range_meters":28000,"station_id":"ce4bgh92rcd13ifvqb50","pricing_plan_id":"free"},{"bike_id":"48ad12d7-1b9b-4003-b7bf-bfa89a79b44f","system_id":"levelo_inurba_marseille","lat":43.304274,"lon":5.388873,"is_reserved":false,"is_disabled":false,"rental_uris":{"android":"levelo://app?vid=48ad12d7-1b9b-4003-b7bf-bfa89a79b44f","ios":"levelo://app?vid=48ad12d7-1b9b-4003-b7bf-bfa89a79b44f"},"vehicle_type_id":"4","last_reported":1703106393,"current_range_meters":25200,"station_id":"ce4bgk12rcd13ifvqbi0","pricing_plan_id":"free"},{"bike_id":"2b127e74-430d-4c06-abf7-ea9782515999","system_id":"levelo_inurba_marseille","lat":43.304278,"lon":5.388868,"is_reserved":false,"is_disabled":false,"rental_uris":{"android":"levelo://app?vid=2b127e74-430d-4c06-abf7-ea9782515999","ios":"levelo://app?vid=2b127e74-430d-4c06-abf7-ea9782515999"},"vehicle_type_id":"4","last_reported":1703106393,"current_range_meters":2000,"station_id":"ce4bgk12rcd13ifvqbi0","pricing_plan_id":"free"},{"bike_id":"a8f7a5dd-07d3-4d83-b74f-ed61ce5345cd","system_id":"levelo_inurba_marseille","lat":43.304278,"lon":5.388868,"is_reserved":false,"is_disabled":false,"rental_uris":{"android":"levelo://app?vid=a8f7a5dd-07d3-4d83-b74f-ed61ce5345cd","ios":"levelo://app?vid=a8f7a5dd-07d3-4d83-b74f-ed61ce5345cd"},"vehicle_type_id":"4","last_reported":1703106393,"current_range_meters":13600,"station_id":"ce4bgk12rcd13ifvqbi0","pricing_plan_id":"free"},{"bike_id":"6ea77a94-a52e-4b48-8a4c-419507a10b37","system_id":"levelo_inurba_marseille","lat":43.295279,"lon":5.375048,"is_reserved":false,"is_disabled":false,"rental_uris":{"android":"levelo://app?vid=6ea77a94-a52e-4b48-8a4c-419507a10b37","ios":"levelo://app?vid=6ea77a94-a52e-4b48-8a4c-419507a10b37"},"vehicle_type_id":"4","last_reported":1703106393,"current_range_meters":30000,"station_id":"ce4bgkp2rcd13ifvqbmg","pricing_plan_id":"free"},{"bike_id":"d89a6a0f-5ebb-492a-bb7f-450b4e71a42c","system_id":"levelo_inurba_marseille","lat":43.32367,"lon":5.388836,"is_reserved":false,"is_disabled":false,"rental_uris":{"android":"levelo://app?vid=d89a6a0f-5ebb-492a-bb7f-450b4e71a42c","ios":"levelo://app?vid=d89a6a0f-5ebb-492a-bb7f-450b4e71a42c"},"vehicle_type_id":"4","last_reported":1703106393,"current_range_meters":16400,"station_id":"ce4bhqp2rcd13ifvqhog","pricing_plan_id":"free"},{"bike_id":"39a5a7f1-613e-4ce9-85dc-bf406e7675c4","system_id":"levelo_inurba_marseille","lat":43.32367,"lon":5.388836,"is_reserved":false,"is_disabled":false,"rental_uris":{"android":"levelo://app?vid=39a5a7f1-613e-4ce9-85dc-bf406e7675c4","ios":"levelo://app?vid=39a5a7f1-613e-4ce9-85dc-bf406e7675c4"},"vehicle_type_id":"4","last_reported":1703106393,"current_range_meters":2800,"station_id":"ce4bhqp2rcd13ifvqhog","pricing_plan_id":"free"},{"bike_id":"04f86ffc-494a-4e29-b8f5-c810b596589a","system_id":"levelo_inurba_marseille","lat":43.32367,"lon":5.388836,"is_reserved":false,"is_disabled":false,"rental_uris":{"android":"levelo://app?vid=04f86ffc-494a-4e29-b8f5-c810b596589a","ios":"levelo://app?vid=04f86ffc-494a-4e29-b8f5-c810b596589a"},"vehicle_type_id":"4","last_reported":1703106393,"current_range_meters":2800,"station_id":"ce4bhqp2rcd13ifvqhog","pricing_plan_id":"free"},{"bike_id":"2e503fb2-c6a6-43ed-b081-e51889f12a30","system_id":"levelo_inurba_marseille","lat":43.29313,"lon":5.371793,"is_reserved":false,"is_disabled":false,"rental_uris":{"android":"levelo://app?vid=2e503fb2-c6a6-43ed-b081-e51889f12a30","ios":"levelo://app?vid=2e503fb2-c6a6-43ed-b081-e51889f12a30"},"vehicle_type_id":"4","last_reported":1703106393,"current_range_meters":10400,"station_id":"ce4bgh92rcd13ifvqb40","pricing_plan_id":"free"},{"bike_id":"01a38a14-ea59-40dd-ae9d-d3dd7e55d1ec","system_id":"levelo_inurba_marseille","lat":43.293249,"lon":5.371578,"is_reserved":false,"is_disabled":false,"rental_uris":{"android":"levelo://app?vid=01a38a14-ea59-40dd-ae9d-d3dd7e55d1ec","ios":"levelo://app?vid=01a38a14-ea59-40dd-ae9d-d3dd7e55d1ec"},"vehicle_type_id":"4","last_reported":1703106393,"current_range_meters":7600,"station_id":"ce4bgh92rcd13ifvqb40","pricing_plan_id":"free"},{"bike_id":"29f73551-ea88-454f-9dde-fd684028423f","system_id":"levelo_inurba_marseille","lat":43.303002,"lon":5.392142,"is_reserved":false,"is_disabled":false,"rental_uris":{"android":"levelo://app?vid=29f73551-ea88-454f-9dde-fd684028423f","ios":"levelo://app?vid=29f73551-ea88-454f-9dde-fd684028423f"},"vehicle_type_id":"4","last_reported":1703106393,"current_range_meters":18400,"station_id":"ce4bgkh2rcd13ifvqbk0","pricing_plan_id":"free"},{"bike_id":"44a052b4-941b-4a8d-a2dc-6fef87a4d966","system_id":"levelo_inurba_marseille","lat":43.302992,"lon":5.392136,"is_reserved":false,"is_disabled":false,"rental_uris":{"android":"levelo://app?vid=44a052b4-941b-4a8d-a2dc-6fef87a4d966","ios":"levelo://app?vid=44a052b4-941b-4a8d-a2dc-6fef87a4d966"},"vehicle_type_id":"4","last_reported":1703106393,"current_range_meters":1600,"station_id":"ce4bgkh2rcd13ifvqbk0","pricing_plan_id":"free"},{"bike_id":"3ef2251c-d2ef-4c40-8250-aa44230fd5c0","system_id":"levelo_inurba_marseille","lat":43.300852,"lon":5.390859,"is_reserved":false,"is_disabled":false,"rental_uris":{"android":"levelo://app?vid=3ef2251c-d2ef-4c40-8250-aa44230fd5c0","ios":"levelo://app?vid=3ef2251c-d2ef-4c40-8250-aa44230fd5c0"},"vehicle_type_id":"4","last_reported":1703106393,"current_range_meters":2800,"station_id":"ce4bh192rcd13ifvqdb0","pricing_plan_id":"free"},{"bike_id":"72537c1e-e4de-460d-aaf1-565c95efdcb3","system_id":"levelo_inurba_marseille","lat":43.300852,"lon":5.390859,"is_reserved":false,"is_disabled":false,"rental_uris":{"android":"levelo://app?vid=72537c1e-e4de-460d-aaf1-565c95efdcb3","ios":"levelo://app?vid=72537c1e-e4de-460d-aaf1-565c95efdcb3"},"vehicle_type_id":"4","last_reported":1703106393,"current_range_meters":0,"station_id":"ce4bh192rcd13ifvqdb0","pricing_plan_id":"free"},{"bike_id":"7292012f-da9d-4ad7-9b4e-d7a0ddf2cd79","system_id":"levelo_inurba_marseille","lat":43.292311,"lon":5.360731,"is_reserved":false,"is_disabled":false,"rental_uris":{"android":"levelo://app?vid=7292012f-da9d-4ad7-9b4e-d7a0ddf2cd79","ios":"levelo://app?vid=7292012f-da9d-4ad7-9b4e-d7a0ddf2cd79"},"vehicle_type_id":"4","last_reported":1703106393,"current_range_meters":0,"station_id":"ce4bhbh2rcd13ifvqeqg","pricing_plan_id":"free"},{"bike_id":"67dbc710-e248-4701-92da-b94e6f063a32","system_id":"levelo_inurba_marseille","lat":43.32297,"lon":5.39239,"is_reserved":false,"is_disabled":false,"rental_uris":{"android":"levelo://app?vid=67dbc710-e248-4701-92da-b94e6f063a32","ios":"levelo://app?vid=67dbc710-e248-4701-92da-b94e6f063a32"},"vehicle_type_id":"4","last_reported":1703106393,"current_range_meters":2800,"station_id":"","pricing_plan_id":"free"},{"bike_id":"1cb38bc2-f672-4290-a2ae-7f9b1735c672","system_id":"levelo_inurba_marseille","lat":43.291671,"lon":5.371575,"is_reserved":false,"is_disabled":false,"rental_uris":{"android":"levelo://app?vid=1cb38bc2-f672-4290-a2ae-7f9b1735c672","ios":"levelo://app?vid=1cb38bc2-f672-4290-a2ae-7f9b1735c672"},"vehicle_type_id":"4","last_reported":1703106393,"current_range_meters":4800,"station_id":"ce4bha92rcd13ifvqeh0","pricing_plan_id":"free"},{"bike_id":"d80aacb1-1de2-4c97-bfa7-d79fbffbe39f","system_id":"levelo_inurba_marseille","lat":43.29872,"lon":5.38896,"is_reserved":false,"is_disabled":false,"rental_uris":{"android":"levelo://app?vid=d80aacb1-1de2-4c97-bfa7-d79fbffbe39f","ios":"levelo://app?vid=d80aacb1-1de2-4c97-bfa7-d79fbffbe39f"},"vehicle_type_id":"4","last_reported":1703106393,"current_range_meters":16400,"station_id":"","pricing_plan_id":"free"},{"bike_id":"9ca6ec7b-7491-4a7c-9380-3ff2b9e6d4a6","system_id":"levelo_inurba_marseille","lat":43.291675,"lon":5.371583,"is_reserved":false,"is_disabled":false,"rental_uris":{"android":"levelo://app?vid=9ca6ec7b-7491-4a7c-9380-3ff2b9e6d4a6","ios":"levelo://app?vid=9ca6ec7b-7491-4a7c-9380-3ff2b9e6d4a6"},"vehicle_type_id":"4","last_reported":1703106393,"current_range_meters":13200,"station_id":"ce4bha92rcd13ifvqeh0","pricing_plan_id":"free"},{"bike_id":"671f30a3-d202-4646-8d1a-7feb8b11dce5","system_id":"levelo_inurba_marseille","lat":43.29875,"lon":5.38915,"is_reserved":false,"is_disabled":false,"rental_uris":{"android":"levelo://app?vid=671f30a3-d202-4646-8d1a-7feb8b11dce5","ios":"levelo://app?vid=671f30a3-d202-4646-8d1a-7feb8b11dce5"},"vehicle_type_id":"4","last_reported":1703106393,"current_range_meters":0,"station_id":"","pricing_plan_id":"free"},{"bike_id":"f50504ce-8d03-4edb-a0c1-deb7dde87e50","system_id":"levelo_inurba_marseille","lat":43.2987,"lon":5.38911,"is_reserved":false,"is_disabled":false,"rental_uris":{"android":"levelo://app?vid=f50504ce-8d03-4edb-a0c1-deb7dde87e50","ios":"levelo://app?vid=f50504ce-8d03-4edb-a0c1-deb7dde87e50"},"vehicle_type_id":"4","last_reported":1703106393,"current_range_meters":14800,"station_id":"","pricing_plan_id":"free"},{"bike_id":"e5eca80e-f16a-41ee-b5ac-f2f5e49f023b","system_id":"levelo_inurba_marseille","lat":43.29873,"lon":5.38922,"is_reserved":false,"is_disabled":false,"rental_uris":{"android":"levelo://app?vid=e5eca80e-f16a-41ee-b5ac-f2f5e49f023b","ios":"levelo://app?vid=e5eca80e-f16a-41ee-b5ac-f2f5e49f023b"},"vehicle_type_id":"4","last_reported":1703106393,"current_range_meters":17200,"station_id":"","pricing_plan_id":"free"},{"bike_id":"df478808-8bcb-44d9-b175-88738a5453c3","system_id":"levelo_inurba_marseille","lat":43.29866,"lon":5.38916,"is_reserved":false,"is_disabled":false,"rental_uris":{"android":"levelo://app?vid=df478808-8bcb-44d9-b175-88738a5453c3","ios":"levelo://app?vid=df478808-8bcb-44d9-b175-88738a5453c3"},"vehicle_type_id":"4","last_reported":1703106393,"current_range_meters":0,"station_id":"","pricing_plan_id":"free"},{"bike_id":"0793d523-0527-455c-b490-7d7b86f76fdf","system_id":"levelo_inurba_marseille","lat":43.313291,"lon":5.396838,"is_reserved":false,"is_disabled":false,"rental_uris":{"android":"levelo://app?vid=0793d523-0527-455c-b490-7d7b86f76fdf","ios":"levelo://app?vid=0793d523-0527-455c-b490-7d7b86f76fdf"},"vehicle_type_id":"4","last_reported":1703106393,"current_range_meters":6400,"station_id":"ce4bgvp2rcd13ifvqcu0","pricing_plan_id":"free"},{"bike_id":"93ef3bba-e74b-4954-965d-bb27c87b80df","system_id":"levelo_inurba_marseille","lat":43.309038,"lon":5.396546,"is_reserved":false,"is_disabled":false,"rental_uris":{"android":"levelo://app?vid=93ef3bba-e74b-4954-965d-bb27c87b80df","ios":"levelo://app?vid=93ef3bba-e74b-4954-965d-bb27c87b80df"},"vehicle_type_id":"4","last_reported":1703106393,"current_range_meters":30000,"station_id":"ce4bh012rcd13ifvqcv0","pricing_plan_id":"free"},{"bike_id":"2f9fa2a4-a0da-4386-a54c-2b6c8ff80cf3","system_id":"levelo_inurba_marseille","lat":43.313291,"lon":5.396838,"is_reserved":false,"is_disabled":false,"rental_uris":{"android":"levelo://app?vid=2f9fa2a4-a0da-4386-a54c-2b6c8ff80cf3","ios":"levelo://app?vid=2f9fa2a4-a0da-4386-a54c-2b6c8ff80cf3"},"vehicle_type_id":"4","last_reported":1703106393,"current_range_meters":8800,"station_id":"ce4bgvp2rcd13ifvqcu0","pricing_plan_id":"free"},{"bike_id":"2b7d92fb-a275-4c79-b06d-20ae4470ba42","system_id":"levelo_inurba_marseille","lat":43.313291,"lon":5.396838,"is_reserved":false,"is_disabled":false,"rental_uris":{"android":"levelo://app?vid=2b7d92fb-a275-4c79-b06d-20ae4470ba42","ios":"levelo://app?vid=2b7d92fb-a275-4c79-b06d-20ae4470ba42"},"vehicle_type_id":"4","last_reported":1703106393,"current_range_meters":31200,"station_id":"ce4bgvp2rcd13ifvqcu0","pricing_plan_id":"free"},{"bike_id":"dbe34c3d-36ef-49cb-b11f-cf7f97e7053f","system_id":"levelo_inurba_marseille","lat":43.313291,"lon":5.396838,"is_reserved":false,"is_disabled":false,"rental_uris":{"android":"levelo://app?vid=dbe34c3d-36ef-49cb-b11f-cf7f97e7053f","ios":"levelo://app?vid=dbe34c3d-36ef-49cb-b11f-cf7f97e7053f"},"vehicle_type_id":"4","last_reported":1703106393,"current_range_meters":31200,"station_id":"ce4bgvp2rcd13ifvqcu0","pricing_plan_id":"free"},{"bike_id":"30ff75dd-2b7b-43ad-b90f-c604db6aa4a1","system_id":"levelo_inurba_marseille","lat":43.309047,"lon":5.396551,"is_reserved":false,"is_disabled":false,"rental_uris":{"android":"levelo://app?vid=30ff75dd-2b7b-43ad-b90f-c604db6aa4a1","ios":"levelo://app?vid=30ff75dd-2b7b-43ad-b90f-c604db6aa4a1"},"vehicle_type_id":"4","last_reported":1703106393,"current_range_meters":26400,"station_id":"ce4bh012rcd13ifvqcv0","pricing_plan_id":"free"},{"bike_id":"c9ffd03a-206e-4241-be83-2d30e7b89ed3","system_id":"levelo_inurba_marseille","lat":43.313291,"lon":5.396838,"is_reserved":false,"is_disabled":false,"rental_uris":{"android":"levelo://app?vid=c9ffd03a-206e-4241-be83-2d30e7b89ed3","ios":"levelo://app?vid=c9ffd03a-206e-4241-be83-2d30e7b89ed3"},"vehicle_type_id":"4","last_reported":1703106393,"current_range_meters":18800,"station_id":"ce4bgvp2rcd13ifvqcu0","pricing_plan_id":"free"},{"bike_id":"ad293b0a-1786-4d2f-a84f-5d3c96e0c51b","system_id":"levelo_inurba_marseille","lat":43.309038,"lon":5.396546,"is_reserved":false,"is_disabled":false,"rental_uris":{"android":"levelo://app?vid=ad293b0a-1786-4d2f-a84f-5d3c96e0c51b","ios":"levelo://app?vid=ad293b0a-1786-4d2f-a84f-5d3c96e0c51b"},"vehicle_type_id":"4","last_reported":1703106393,"current_range_meters":10400,"station_id":"ce4bh012rcd13ifvqcv0","pricing_plan_id":"free"},{"bike_id":"cd2f8020-b9fa-4a8b-8bed-666409960f90","system_id":"levelo_inurba_marseille","lat":43.309047,"lon":5.396551,"is_reserved":false,"is_disabled":false,"rental_uris":{"android":"levelo://app?vid=cd2f8020-b9fa-4a8b-8bed-666409960f90","ios":"levelo://app?vid=cd2f8020-b9fa-4a8b-8bed-666409960f90"},"vehicle_type_id":"4","last_reported":1703106393,"current_range_meters":0,"station_id":"ce4bh012rcd13ifvqcv0","pricing_plan_id":"free"},{"bike_id":"5a534caa-4f7f-44d4-8e13-15c91f85da2b","system_id":"levelo_inurba_marseille","lat":43.309038,"lon":5.396546,"is_reserved":false,"is_disabled":false,"rental_uris":{"android":"levelo://app?vid=5a534caa-4f7f-44d4-8e13-15c91f85da2b","ios":"levelo://app?vid=5a534caa-4f7f-44d4-8e13-15c91f85da2b"},"vehicle_type_id":"4","last_reported":1703106393,"current_range_meters":12000,"station_id":"ce4bh012rcd13ifvqcv0","pricing_plan_id":"free"},{"bike_id":"0fc0c073-39b9-4406-a3b2-86b160a34a0a","system_id":"levelo_inurba_marseille","lat":43.29529,"lon":5.385581,"is_reserved":false,"is_disabled":false,"rental_uris":{"android":"levelo://app?vid=0fc0c073-39b9-4406-a3b2-86b160a34a0a","ios":"levelo://app?vid=0fc0c073-39b9-4406-a3b2-86b160a34a0a"},"vehicle_type_id":"4","last_reported":1703106393,"current_range_meters":19200,"station_id":"ce4bgih2rcd13ifvqba0","pricing_plan_id":"free"},{"bike_id":"3e99ba6d-9973-45e8-ae21-3d6da85c75b7","system_id":"levelo_inurba_marseille","lat":43.302008,"lon":5.394694,"is_reserved":false,"is_disabled":false,"rental_uris":{"android":"levelo://app?vid=3e99ba6d-9973-45e8-ae21-3d6da85c75b7","ios":"levelo://app?vid=3e99ba6d-9973-45e8-ae21-3d6da85c75b7"},"vehicle_type_id":"4","last_reported":1703106393,"current_range_meters":27600,"station_id":"ce4bh0p2rcd13ifvqd70","pricing_plan_id":"free"},{"bike_id":"dab56bcb-6f32-4c79-8b22-759e0003426d","system_id":"levelo_inurba_marseille","lat":43.302008,"lon":5.394694,"is_reserved":false,"is_disabled":false,"rental_uris":{"android":"levelo://app?vid=dab56bcb-6f32-4c79-8b22-759e0003426d","ios":"levelo://app?vid=dab56bcb-6f32-4c79-8b22-759e0003426d"},"vehicle_type_id":"4","last_reported":1703106393,"current_range_meters":0,"station_id":"ce4bh0p2rcd13ifvqd70","pricing_plan_id":"free"},{"bike_id":"3dc161c8-6b83-483a-a981-3f5a90a49d83","system_id":"levelo_inurba_marseille","lat":43.290624,"lon":5.359245,"is_reserved":false,"is_disabled":false,"rental_uris":{"android":"levelo://app?vid=3dc161c8-6b83-483a-a981-3f5a90a49d83","ios":"levelo://app?vid=3dc161c8-6b83-483a-a981-3f5a90a49d83"},"vehicle_type_id":"4","last_reported":1703106393,"current_range_meters":21600,"station_id":"ce4bha92rcd13ifvqeg0","pricing_plan_id":"free"},{"bike_id":"3aeb91f9-2751-4389-8c63-94e0a8bbe42a","system_id":"levelo_inurba_marseille","lat":43.290631,"lon":5.359244,"is_reserved":false,"is_disabled":false,"rental_uris":{"android":"levelo://app?vid=3aeb91f9-2751-4389-8c63-94e0a8bbe42a","ios":"levelo://app?vid=3aeb91f9-2751-4389-8c63-94e0a8bbe42a"},"vehicle_type_id":"4","last_reported":1703106393,"current_range_meters":17200,"station_id":"ce4bha92rcd13ifvqeg0","pricing_plan_id":"free"},{"bike_id":"736be525-6e70-4af4-9106-598f786796a3","system_id":"levelo_inurba_marseille","lat":43.294153,"lon":5.386305,"is_reserved":false,"is_disabled":false,"rental_uris":{"android":"levelo://app?vid=736be525-6e70-4af4-9106-598f786796a3","ios":"levelo://app?vid=736be525-6e70-4af4-9106-598f786796a3"},"vehicle_type_id":"4","last_reported":1703106393,"current_range_meters":28800,"station_id":"ce4bh2h2rcd13ifvqdh0","pricing_plan_id":"free"},{"bike_id":"44e701a1-4ff6-4fa5-a95f-1210646b51ec","system_id":"levelo_inurba_marseille","lat":43.294153,"lon":5.386305,"is_reserved":false,"is_disabled":false,"rental_uris":{"android":"levelo://app?vid=44e701a1-4ff6-4fa5-a95f-1210646b51ec","ios":"levelo://app?vid=44e701a1-4ff6-4fa5-a95f-1210646b51ec"},"vehicle_type_id":"4","last_reported":1703106393,"current_range_meters":22400,"station_id":"ce4bh2h2rcd13ifvqdh0","pricing_plan_id":"free"},{"bike_id":"8c09a9f5-3c7d-4a8d-a29a-bfbf7b9b3333","system_id":"levelo_inurba_marseille","lat":43.294162,"lon":5.386292,"is_reserved":false,"is_disabled":false,"rental_uris":{"android":"levelo://app?vid=8c09a9f5-3c7d-4a8d-a29a-bfbf7b9b3333","ios":"levelo://app?vid=8c09a9f5-3c7d-4a8d-a29a-bfbf7b9b3333"},"vehicle_type_id":"4","last_reported":1703106393,"current_range_meters":31200,"station_id":"ce4bh2h2rcd13ifvqdh0","pricing_plan_id":"free"},{"bike_id":"e4ab5462-bae5-42fe-a9cb-36ca75459b2a","system_id":"levelo_inurba_marseille","lat":43.29415,"lon":5.38616,"is_reserved":false,"is_disabled":false,"rental_uris":{"android":"levelo://app?vid=e4ab5462-bae5-42fe-a9cb-36ca75459b2a","ios":"levelo://app?vid=e4ab5462-bae5-42fe-a9cb-36ca75459b2a"},"vehicle_type_id":"4","last_reported":1703106393,"current_range_meters":8800,"station_id":"ce4bh2h2rcd13ifvqdh0","pricing_plan_id":"free"},{"bike_id":"15715753-d9fd-4bf2-854b-2269bffc9284","system_id":"levelo_inurba_marseille","lat":43.294153,"lon":5.386305,"is_reserved":false,"is_disabled":false,"rental_uris":{"android":"levelo://app?vid=15715753-d9fd-4bf2-854b-2269bffc9284","ios":"levelo://app?vid=15715753-d9fd-4bf2-854b-2269bffc9284"},"vehicle_type_id":"4","last_reported":1703106393,"current_range_meters":15600,"station_id":"ce4bh2h2rcd13ifvqdh0","pricing_plan_id":"free"},{"bike_id":"a32bee4f-296f-4127-be54-6415e8a0a35b","system_id":"levelo_inurba_marseille","lat":43.29417,"lon":5.38621,"is_reserved":false,"is_disabled":false,"rental_uris":{"android":"levelo://app?vid=a32bee4f-296f-4127-be54-6415e8a0a35b","ios":"levelo://app?vid=a32bee4f-296f-4127-be54-6415e8a0a35b"},"vehicle_type_id":"4","last_reported":1703106393,"current_range_meters":18400,"station_id":"ce4bh2h2rcd13ifvqdh0","pricing_plan_id":"free"},{"bike_id":"259b6592-9e63-48e3-8b7c-e054ace04796","system_id":"levelo_inurba_marseille","lat":43.294162,"lon":5.386292,"is_reserved":false,"is_disabled":false,"rental_uris":{"android":"levelo://app?vid=259b6592-9e63-48e3-8b7c-e054ace04796","ios":"levelo://app?vid=259b6592-9e63-48e3-8b7c-e054ace04796"},"vehicle_type_id":"4","last_reported":1703106393,"current_range_meters":16000,"station_id":"ce4bh2h2rcd13ifvqdh0","pricing_plan_id":"free"},{"bike_id":"696ee5f2-3b74-447a-95f3-ef9cc8702de8","system_id":"levelo_inurba_marseille","lat":43.294162,"lon":5.386292,"is_reserved":false,"is_disabled":false,"rental_uris":{"android":"levelo://app?vid=696ee5f2-3b74-447a-95f3-ef9cc8702de8","ios":"levelo://app?vid=696ee5f2-3b74-447a-95f3-ef9cc8702de8"},"vehicle_type_id":"4","last_reported":1703106393,"current_range_meters":0,"station_id":"ce4bh2h2rcd13ifvqdh0","pricing_plan_id":"free"},{"bike_id":"730db7c0-96a7-42c4-8698-4b8a702b9888","system_id":"levelo_inurba_marseille","lat":43.294162,"lon":5.386292,"is_reserved":false,"is_disabled":false,"rental_uris":{"android":"levelo://app?vid=730db7c0-96a7-42c4-8698-4b8a702b9888","ios":"levelo://app?vid=730db7c0-96a7-42c4-8698-4b8a702b9888"},"vehicle_type_id":"4","last_reported":1703106393,"current_range_meters":10400,"station_id":"ce4bh2h2rcd13ifvqdh0","pricing_plan_id":"free"},{"bike_id":"8b6f940b-f9a4-4d3a-a1ef-005fd2b67483","system_id":"levelo_inurba_marseille","lat":43.294153,"lon":5.386305,"is_reserved":false,"is_disabled":false,"rental_uris":{"android":"levelo://app?vid=8b6f940b-f9a4-4d3a-a1ef-005fd2b67483","ios":"levelo://app?vid=8b6f940b-f9a4-4d3a-a1ef-005fd2b67483"},"vehicle_type_id":"4","last_reported":1703106393,"current_range_meters":30400,"station_id":"ce4bh2h2rcd13ifvqdh0","pricing_plan_id":"free"},{"bike_id":"c2423f1e-9694-4931-b6a4-1382a2ed1ee1","system_id":"levelo_inurba_marseille","lat":43.29414,"lon":5.38623,"is_reserved":false,"is_disabled":false,"rental_uris":{"android":"levelo://app?vid=c2423f1e-9694-4931-b6a4-1382a2ed1ee1","ios":"levelo://app?vid=c2423f1e-9694-4931-b6a4-1382a2ed1ee1"},"vehicle_type_id":"4","last_reported":1703106393,"current_range_meters":6800,"station_id":"ce4bh2h2rcd13ifvqdh0","pricing_plan_id":"free"},{"bike_id":"895f19be-3cc0-4999-bd75-311a0e582782","system_id":"levelo_inurba_marseille","lat":43.294162,"lon":5.386292,"is_reserved":false,"is_disabled":false,"rental_uris":{"android":"levelo://app?vid=895f19be-3cc0-4999-bd75-311a0e582782","ios":"levelo://app?vid=895f19be-3cc0-4999-bd75-311a0e582782"},"vehicle_type_id":"4","last_reported":1703106393,"current_range_meters":21200,"station_id":"ce4bh2h2rcd13ifvqdh0","pricing_plan_id":"free"},{"bike_id":"680b451e-896b-45cf-a594-de195bae5ee8","system_id":"levelo_inurba_marseille","lat":43.28942,"lon":5.36634,"is_reserved":false,"is_disabled":false,"rental_uris":{"android":"levelo://app?vid=680b451e-896b-45cf-a594-de195bae5ee8","ios":"levelo://app?vid=680b451e-896b-45cf-a594-de195bae5ee8"},"vehicle_type_id":"4","last_reported":1703106393,"current_range_meters":1600,"station_id":"ce4bhap2rcd13ifvqek0","pricing_plan_id":"free"},{"bike_id":"ff70859f-32fa-478e-b2c4-55517ec6c093","system_id":"levelo_inurba_marseille","lat":43.289468,"lon":5.363719,"is_reserved":false,"is_disabled":false,"rental_uris":{"android":"levelo://app?vid=ff70859f-32fa-478e-b2c4-55517ec6c093","ios":"levelo://app?vid=ff70859f-32fa-478e-b2c4-55517ec6c093"},"vehicle_type_id":"4","last_reported":1703106393,"current_range_meters":28400,"station_id":"ce4bhc92rcd13ifvqetg","pricing_plan_id":"free"},{"bike_id":"70321904-6476-4994-982f-cfdc2a0d182a","system_id":"levelo_inurba_marseille","lat":43.289184,"lon":5.366408,"is_reserved":false,"is_disabled":false,"rental_uris":{"android":"levelo://app?vid=70321904-6476-4994-982f-cfdc2a0d182a","ios":"levelo://app?vid=70321904-6476-4994-982f-cfdc2a0d182a"},"vehicle_type_id":"4","last_reported":1703106393,"current_range_meters":22800,"station_id":"ce4bhap2rcd13ifvqek0","pricing_plan_id":"free"},{"bike_id":"09dba9f2-9969-46b5-b085-b4aef8571e8f","system_id":"levelo_inurba_marseille","lat":43.289184,"lon":5.366408,"is_reserved":false,"is_disabled":false,"rental_uris":{"android":"levelo://app?vid=09dba9f2-9969-46b5-b085-b4aef8571e8f","ios":"levelo://app?vid=09dba9f2-9969-46b5-b085-b4aef8571e8f"},"vehicle_type_id":"4","last_reported":1703106393,"current_range_meters":23600,"station_id":"ce4bhap2rcd13ifvqek0","pricing_plan_id":"free"},{"bike_id":"fa279741-4769-495d-a769-9fa14238d4b5","system_id":"levelo_inurba_marseille","lat":43.28932,"lon":5.36632,"is_reserved":false,"is_disabled":false,"rental_uris":{"android":"levelo://app?vid=fa279741-4769-495d-a769-9fa14238d4b5","ios":"levelo://app?vid=fa279741-4769-495d-a769-9fa14238d4b5"},"vehicle_type_id":"4","last_reported":1703106393,"current_range_meters":13200,"station_id":"ce4bhap2rcd13ifvqek0","pricing_plan_id":"free"},{"bike_id":"ec297a67-07a5-4b87-bc86-29c960c13250","system_id":"levelo_inurba_marseille","lat":43.28927,"lon":5.3664,"is_reserved":false,"is_disabled":false,"rental_uris":{"android":"levelo://app?vid=ec297a67-07a5-4b87-bc86-29c960c13250","ios":"levelo://app?vid=ec297a67-07a5-4b87-bc86-29c960c13250"},"vehicle_type_id":"4","last_reported":1703106393,"current_range_meters":4000,"station_id":"ce4bhap2rcd13ifvqek0","pricing_plan_id":"free"},{"bike_id":"8f8a633e-d5f3-42a1-b7d4-e7a1df6fce67","system_id":"levelo_inurba_marseille","lat":43.292644,"lon":5.384257,"is_reserved":false,"is_disabled":false,"rental_uris":{"android":"levelo://app?vid=8f8a633e-d5f3-42a1-b7d4-e7a1df6fce67","ios":"levelo://app?vid=8f8a633e-d5f3-42a1-b7d4-e7a1df6fce67"},"vehicle_type_id":"4","last_reported":1703106393,"current_range_meters":14000,"station_id":"ce4bh692rcd13ifvqea0","pricing_plan_id":"free"},{"bike_id":"8f40a1a3-d2fb-4605-a248-e24bf8a318e2","system_id":"levelo_inurba_marseille","lat":43.304296,"lon":5.397513,"is_reserved":false,"is_disabled":false,"rental_uris":{"android":"levelo://app?vid=8f40a1a3-d2fb-4605-a248-e24bf8a318e2","ios":"levelo://app?vid=8f40a1a3-d2fb-4605-a248-e24bf8a318e2"},"vehicle_type_id":"4","last_reported":1703106393,"current_range_meters":21600,"station_id":"ce4bh092rcd13ifvqd20","pricing_plan_id":"free"},{"bike_id":"f3937b4d-3ad7-4b46-92fa-46e55411fb21","system_id":"levelo_inurba_marseille","lat":43.33039,"lon":5.38916,"is_reserved":false,"is_disabled":false,"rental_uris":{"android":"levelo://app?vid=f3937b4d-3ad7-4b46-92fa-46e55411fb21","ios":"levelo://app?vid=f3937b4d-3ad7-4b46-92fa-46e55411fb21"},"vehicle_type_id":"4","last_reported":1703106393,"current_range_meters":9200,"station_id":"ce4bhr92rcd13ifvqhrg","pricing_plan_id":"free"},{"bike_id":"34c65641-4bc1-4197-b217-a76243cd6c9c","system_id":"levelo_inurba_marseille","lat":43.33042,"lon":5.3892,"is_reserved":false,"is_disabled":false,"rental_uris":{"android":"levelo://app?vid=34c65641-4bc1-4197-b217-a76243cd6c9c","ios":"levelo://app?vid=34c65641-4bc1-4197-b217-a76243cd6c9c"},"vehicle_type_id":"4","last_reported":1703106393,"current_range_meters":22800,"station_id":"ce4bhr92rcd13ifvqhrg","pricing_plan_id":"free"},{"bike_id":"03792874-86d9-468e-be10-3c6851108053","system_id":"levelo_inurba_marseille","lat":43.33041,"lon":5.38924,"is_reserved":false,"is_disabled":false,"rental_uris":{"android":"levelo://app?vid=03792874-86d9-468e-be10-3c6851108053","ios":"levelo://app?vid=03792874-86d9-468e-be10-3c6851108053"},"vehicle_type_id":"4","last_reported":1703106393,"current_range_meters":17200,"station_id":"ce4bhr92rcd13ifvqhrg","pricing_plan_id":"free"},{"bike_id":"a44c4c9a-083e-42e6-8e6d-8958a860af21","system_id":"levelo_inurba_marseille","lat":43.33042,"lon":5.38925,"is_reserved":false,"is_disabled":false,"rental_uris":{"android":"levelo://app?vid=a44c4c9a-083e-42e6-8e6d-8958a860af21","ios":"levelo://app?vid=a44c4c9a-083e-42e6-8e6d-8958a860af21"},"vehicle_type_id":"4","last_reported":1703106393,"current_range_meters":18400,"station_id":"ce4bhr92rcd13ifvqhrg","pricing_plan_id":"free"},{"bike_id":"90536312-f14b-4c7d-9b1a-bee06a58535e","system_id":"levelo_inurba_marseille","lat":43.290103,"lon":5.356114,"is_reserved":false,"is_disabled":false,"rental_uris":{"android":"levelo://app?vid=90536312-f14b-4c7d-9b1a-bee06a58535e","ios":"levelo://app?vid=90536312-f14b-4c7d-9b1a-bee06a58535e"},"vehicle_type_id":"4","last_reported":1703106393,"current_range_meters":31200,"station_id":"ce4bhb92rcd13ifvqen0","pricing_plan_id":"free"},{"bike_id":"239864d1-dc86-48aa-805c-795856fcca74","system_id":"levelo_inurba_marseille","lat":43.297815,"lon":5.393548,"is_reserved":false,"is_disabled":false,"rental_uris":{"android":"levelo://app?vid=239864d1-dc86-48aa-805c-795856fcca74","ios":"levelo://app?vid=239864d1-dc86-48aa-805c-795856fcca74"},"vehicle_type_id":"4","last_reported":1703106393,"current_range_meters":31200,"station_id":"chh1huq6cuj3fo74tm60","pricing_plan_id":"free"},{"bike_id":"60db94a7-de62-405a-87a1-725d0323bca0","system_id":"levelo_inurba_marseille","lat":43.295169,"lon":5.390426,"is_reserved":false,"is_disabled":false,"rental_uris":{"android":"levelo://app?vid=60db94a7-de62-405a-87a1-725d0323bca0","ios":"levelo://app?vid=60db94a7-de62-405a-87a1-725d0323bca0"},"vehicle_type_id":"4","last_reported":1703106393,"current_range_meters":8800,"station_id":"ce4bh3p2rcd13ifvqdp0","pricing_plan_id":"free"},{"bike_id":"8d3466d7-3a1f-40ad-9149-a2471c56b9c8","system_id":"levelo_inurba_marseille","lat":43.295169,"lon":5.390426,"is_reserved":false,"is_disabled":false,"rental_uris":{"android":"levelo://app?vid=8d3466d7-3a1f-40ad-9149-a2471c56b9c8","ios":"levelo://app?vid=8d3466d7-3a1f-40ad-9149-a2471c56b9c8"},"vehicle_type_id":"4","last_reported":1703106393,"current_range_meters":6400,"station_id":"ce4bh3p2rcd13ifvqdp0","pricing_plan_id":"free"},{"bike_id":"c71a9a75-a36f-4a5d-80a7-743a636c6436","system_id":"levelo_inurba_marseille","lat":43.29785,"lon":5.39355,"is_reserved":false,"is_disabled":false,"rental_uris":{"android":"levelo://app?vid=c71a9a75-a36f-4a5d-80a7-743a636c6436","ios":"levelo://app?vid=c71a9a75-a36f-4a5d-80a7-743a636c6436"},"vehicle_type_id":"4","last_reported":1703106393,"current_range_meters":10400,"station_id":"chh1huq6cuj3fo74tm60","pricing_plan_id":"free"},{"bike_id":"dbf41aa1-5bdd-46e9-a5cb-9ae9c47c3f16","system_id":"levelo_inurba_marseille","lat":43.2901,"lon":5.381269,"is_reserved":false,"is_disabled":false,"rental_uris":{"android":"levelo://app?vid=dbf41aa1-5bdd-46e9-a5cb-9ae9c47c3f16","ios":"levelo://app?vid=dbf41aa1-5bdd-46e9-a5cb-9ae9c47c3f16"},"vehicle_type_id":"4","last_reported":1703106393,"current_range_meters":27200,"station_id":"ce4bh4p2rcd13ifvqe1g","pricing_plan_id":"free"},{"bike_id":"85a87a12-1154-4629-bb3c-1f7d589e7667","system_id":"levelo_inurba_marseille","lat":43.28856,"lon":5.358371,"is_reserved":false,"is_disabled":false,"rental_uris":{"android":"levelo://app?vid=85a87a12-1154-4629-bb3c-1f7d589e7667","ios":"levelo://app?vid=85a87a12-1154-4629-bb3c-1f7d589e7667"},"vehicle_type_id":"4","last_reported":1703106393,"current_range_meters":0,"station_id":"ce4bhb12rcd13ifvqem0","pricing_plan_id":"free"},{"bike_id":"22368dc9-8aba-46d7-8e95-31c17019d674","system_id":"levelo_inurba_marseille","lat":43.28853,"lon":5.35843,"is_reserved":false,"is_disabled":false,"rental_uris":{"android":"levelo://app?vid=22368dc9-8aba-46d7-8e95-31c17019d674","ios":"levelo://app?vid=22368dc9-8aba-46d7-8e95-31c17019d674"},"vehicle_type_id":"4","last_reported":1703106393,"current_range_meters":0,"station_id":"ce4bhb12rcd13ifvqem0","pricing_plan_id":"free"},{"bike_id":"73e010c9-7b74-4f65-ae62-57318c15cb5e","system_id":"levelo_inurba_marseille","lat":43.312609,"lon":5.401662,"is_reserved":false,"is_disabled":false,"rental_uris":{"android":"levelo://app?vid=73e010c9-7b74-4f65-ae62-57318c15cb5e","ios":"levelo://app?vid=73e010c9-7b74-4f65-ae62-57318c15cb5e"},"vehicle_type_id":"4","last_reported":1703106393,"current_range_meters":6400,"station_id":"ce4bh092rcd13ifvqd30","pricing_plan_id":"free"},{"bike_id":"efc8b483-666b-48da-afa0-0447382868fd","system_id":"levelo_inurba_marseille","lat":43.337448,"lon":5.374743,"is_reserved":false,"is_disabled":false,"rental_uris":{"android":"levelo://app?vid=efc8b483-666b-48da-afa0-0447382868fd","ios":"levelo://app?vid=efc8b483-666b-48da-afa0-0447382868fd"},"vehicle_type_id":"4","last_reported":1703106393,"current_range_meters":26000,"station_id":"","pricing_plan_id":"free"},{"bike_id":"71af896c-d8bc-416b-8825-68c19de87acd","system_id":"levelo_inurba_marseille","lat":43.301117,"lon":5.398795,"is_reserved":false,"is_disabled":false,"rental_uris":{"android":"levelo://app?vid=71af896c-d8bc-416b-8825-68c19de87acd","ios":"levelo://app?vid=71af896c-d8bc-416b-8825-68c19de87acd"},"vehicle_type_id":"4","last_reported":1703106393,"current_range_meters":5600,"station_id":"ce4bh0h2rcd13ifvqd40","pricing_plan_id":"free"},{"bike_id":"777f5aee-9f85-4c1c-842e-9624589116c9","system_id":"levelo_inurba_marseille","lat":43.301117,"lon":5.398795,"is_reserved":false,"is_disabled":false,"rental_uris":{"android":"levelo://app?vid=777f5aee-9f85-4c1c-842e-9624589116c9","ios":"levelo://app?vid=777f5aee-9f85-4c1c-842e-9624589116c9"},"vehicle_type_id":"4","last_reported":1703106393,"current_range_meters":17600,"station_id":"ce4bh0h2rcd13ifvqd40","pricing_plan_id":"free"},{"bike_id":"49cd9255-05a6-472c-b1a4-a0d4ff1e81c9","system_id":"levelo_inurba_marseille","lat":43.28727,"lon":5.36078,"is_reserved":false,"is_disabled":false,"rental_uris":{"android":"levelo://app?vid=49cd9255-05a6-472c-b1a4-a0d4ff1e81c9","ios":"levelo://app?vid=49cd9255-05a6-472c-b1a4-a0d4ff1e81c9"},"vehicle_type_id":"4","last_reported":1703106393,"current_range_meters":10800,"station_id":"cki0cbj6b192h4jlfktg","pricing_plan_id":"free"},{"bike_id":"b44d00f5-284f-45ea-8d94-d8f22c00560e","system_id":"levelo_inurba_marseille","lat":43.28727,"lon":5.36078,"is_reserved":false,"is_disabled":false,"rental_uris":{"android":"levelo://app?vid=b44d00f5-284f-45ea-8d94-d8f22c00560e","ios":"levelo://app?vid=b44d00f5-284f-45ea-8d94-d8f22c00560e"},"vehicle_type_id":"4","last_reported":1703106393,"current_range_meters":30000,"station_id":"cki0cbj6b192h4jlfktg","pricing_plan_id":"free"},{"bike_id":"a809d7bb-9bc6-4f6b-9d33-03fe0bf36565","system_id":"levelo_inurba_marseille","lat":43.301117,"lon":5.398795,"is_reserved":false,"is_disabled":false,"rental_uris":{"android":"levelo://app?vid=a809d7bb-9bc6-4f6b-9d33-03fe0bf36565","ios":"levelo://app?vid=a809d7bb-9bc6-4f6b-9d33-03fe0bf36565"},"vehicle_type_id":"4","last_reported":1703106393,"current_range_meters":0,"station_id":"ce4bh0h2rcd13ifvqd40","pricing_plan_id":"free"},{"bike_id":"478682f9-5374-45db-a636-a72b07022bbc","system_id":"levelo_inurba_marseille","lat":43.28727,"lon":5.36078,"is_reserved":false,"is_disabled":false,"rental_uris":{"android":"levelo://app?vid=478682f9-5374-45db-a636-a72b07022bbc","ios":"levelo://app?vid=478682f9-5374-45db-a636-a72b07022bbc"},"vehicle_type_id":"4","last_reported":1703106393,"current_range_meters":27200,"station_id":"cki0cbj6b192h4jlfktg","pricing_plan_id":"free"},{"bike_id":"71535928-72ce-4d5e-a63b-ff479592c2c6","system_id":"levelo_inurba_marseille","lat":43.286961,"lon":5.373785,"is_reserved":false,"is_disabled":false,"rental_uris":{"android":"levelo://app?vid=71535928-72ce-4d5e-a63b-ff479592c2c6","ios":"levelo://app?vid=71535928-72ce-4d5e-a63b-ff479592c2c6"},"vehicle_type_id":"4","last_reported":1703106393,"current_range_meters":3200,"station_id":"ce4bh3p2rcd13ifvqdq0","pricing_plan_id":"free"},{"bike_id":"5437ed82-d7bc-4c70-9ee2-d7f27b75c52a","system_id":"levelo_inurba_marseille","lat":43.298681,"lon":5.397225,"is_reserved":false,"is_disabled":false,"rental_uris":{"android":"levelo://app?vid=5437ed82-d7bc-4c70-9ee2-d7f27b75c52a","ios":"levelo://app?vid=5437ed82-d7bc-4c70-9ee2-d7f27b75c52a"},"vehicle_type_id":"4","last_reported":1703106393,"current_range_meters":0,"station_id":"ce4bh0h2rcd13ifvqd50","pricing_plan_id":"free"},{"bike_id":"e3bbdbc8-628a-4f63-8fe7-848c56adde6d","system_id":"levelo_inurba_marseille","lat":43.286961,"lon":5.373785,"is_reserved":false,"is_disabled":false,"rental_uris":{"android":"levelo://app?vid=e3bbdbc8-628a-4f63-8fe7-848c56adde6d","ios":"levelo://app?vid=e3bbdbc8-628a-4f63-8fe7-848c56adde6d"},"vehicle_type_id":"4","last_reported":1703106393,"current_range_meters":21200,"station_id":"ce4bh3p2rcd13ifvqdq0","pricing_plan_id":"free"},{"bike_id":"b4c47720-8650-4535-9299-3ccfd25ed9e8","system_id":"levelo_inurba_marseille","lat":43.286961,"lon":5.373785,"is_reserved":false,"is_disabled":false,"rental_uris":{"android":"levelo://app?vid=b4c47720-8650-4535-9299-3ccfd25ed9e8","ios":"levelo://app?vid=b4c47720-8650-4535-9299-3ccfd25ed9e8"},"vehicle_type_id":"4","last_reported":1703106393,"current_range_meters":22800,"station_id":"ce4bh3p2rcd13ifvqdq0","pricing_plan_id":"free"},{"bike_id":"4ff5873f-ae0a-4131-8e76-8cc1e4bf2479","system_id":"levelo_inurba_marseille","lat":43.29883,"lon":5.39748,"is_reserved":false,"is_disabled":false,"rental_uris":{"android":"levelo://app?vid=4ff5873f-ae0a-4131-8e76-8cc1e4bf2479","ios":"levelo://app?vid=4ff5873f-ae0a-4131-8e76-8cc1e4bf2479"},"vehicle_type_id":"4","last_reported":1703106393,"current_range_meters":31200,"station_id":"ce4bh0h2rcd13ifvqd50","pricing_plan_id":"free"},{"bike_id":"7d87b8dd-8e91-440a-8751-812ab7a4b07b","system_id":"levelo_inurba_marseille","lat":43.286593,"lon":5.363346,"is_reserved":false,"is_disabled":false,"rental_uris":{"android":"levelo://app?vid=7d87b8dd-8e91-440a-8751-812ab7a4b07b","ios":"levelo://app?vid=7d87b8dd-8e91-440a-8751-812ab7a4b07b"},"vehicle_type_id":"4","last_reported":1703106393,"current_range_meters":26400,"station_id":"ce4bhah2rcd13ifvqej0","pricing_plan_id":"free"},{"bike_id":"048831e1-2815-4c7c-9dde-2e2d15b385d9","system_id":"levelo_inurba_marseille","lat":43.298681,"lon":5.397225,"is_reserved":false,"is_disabled":false,"rental_uris":{"android":"levelo://app?vid=048831e1-2815-4c7c-9dde-2e2d15b385d9","ios":"levelo://app?vid=048831e1-2815-4c7c-9dde-2e2d15b385d9"},"vehicle_type_id":"4","last_reported":1703106393,"current_range_meters":22000,"station_id":"ce4bh0h2rcd13ifvqd50","pricing_plan_id":"free"},{"bike_id":"4ad97437-24ee-40a7-9e22-5cf183b38621","system_id":"levelo_inurba_marseille","lat":43.286961,"lon":5.373785,"is_reserved":false,"is_disabled":false,"rental_uris":{"android":"levelo://app?vid=4ad97437-24ee-40a7-9e22-5cf183b38621","ios":"levelo://app?vid=4ad97437-24ee-40a7-9e22-5cf183b38621"},"vehicle_type_id":"4","last_reported":1703106393,"current_range_meters":9600,"station_id":"ce4bh3p2rcd13ifvqdq0","pricing_plan_id":"free"},{"bike_id":"2adea18e-aae5-4c51-9c1f-a55438aaccc9","system_id":"levelo_inurba_marseille","lat":43.286591,"lon":5.363346,"is_reserved":false,"is_disabled":false,"rental_uris":{"android":"levelo://app?vid=2adea18e-aae5-4c51-9c1f-a55438aaccc9","ios":"levelo://app?vid=2adea18e-aae5-4c51-9c1f-a55438aaccc9"},"vehicle_type_id":"4","last_reported":1703106393,"current_range_meters":26000,"station_id":"ce4bhah2rcd13ifvqej0","pricing_plan_id":"free"},{"bike_id":"5041b4ed-1d47-427a-acde-62682335f13d","system_id":"levelo_inurba_marseille","lat":43.29103,"lon":5.38758,"is_reserved":false,"is_disabled":false,"rental_uris":{"android":"levelo://app?vid=5041b4ed-1d47-427a-acde-62682335f13d","ios":"levelo://app?vid=5041b4ed-1d47-427a-acde-62682335f13d"},"vehicle_type_id":"4","last_reported":1703106393,"current_range_meters":0,"station_id":"","pricing_plan_id":"free"},{"bike_id":"b1f4ff50-60e4-4a2b-956a-80119e552d43","system_id":"levelo_inurba_marseille","lat":43.290345,"lon":5.38646,"is_reserved":false,"is_disabled":false,"rental_uris":{"android":"levelo://app?vid=b1f4ff50-60e4-4a2b-956a-80119e552d43","ios":"levelo://app?vid=b1f4ff50-60e4-4a2b-956a-80119e552d43"},"vehicle_type_id":"4","last_reported":1703106393,"current_range_meters":12800,"station_id":"ce4bh4p2rcd13ifvqe0g","pricing_plan_id":"free"},{"bike_id":"630380e6-5dbf-412e-b500-421d5bcbbab6","system_id":"levelo_inurba_marseille","lat":43.302759,"lon":5.400793,"is_reserved":false,"is_disabled":false,"rental_uris":{"android":"levelo://app?vid=630380e6-5dbf-412e-b500-421d5bcbbab6","ios":"levelo://app?vid=630380e6-5dbf-412e-b500-421d5bcbbab6"},"vehicle_type_id":"4","last_reported":1703106393,"current_range_meters":8800,"station_id":"ce4bgvh2rcd13ifvqcs0","pricing_plan_id":"free"},{"bike_id":"e79a63c5-2d4d-48aa-a2a6-3ed8095bd114","system_id":"levelo_inurba_marseille","lat":43.287184,"lon":5.37937,"is_reserved":false,"is_disabled":false,"rental_uris":{"android":"levelo://app?vid=e79a63c5-2d4d-48aa-a2a6-3ed8095bd114","ios":"levelo://app?vid=e79a63c5-2d4d-48aa-a2a6-3ed8095bd114"},"vehicle_type_id":"4","last_reported":1703106393,"current_range_meters":25600,"station_id":"ce4bh9p2rcd13ifvqec0","pricing_plan_id":"free"},{"bike_id":"752c2144-d907-4e3e-9794-542d2a6ea155","system_id":"levelo_inurba_marseille","lat":43.29199,"lon":5.39321,"is_reserved":false,"is_disabled":false,"rental_uris":{"android":"levelo://app?vid=752c2144-d907-4e3e-9794-542d2a6ea155","ios":"levelo://app?vid=752c2144-d907-4e3e-9794-542d2a6ea155"},"vehicle_type_id":"4","last_reported":1703106393,"current_range_meters":23200,"station_id":"ce4bh192rcd13ifvqdd0","pricing_plan_id":"free"},{"bike_id":"4b905b75-0bf8-4908-ac7d-c61d1229be65","system_id":"levelo_inurba_marseille","lat":43.291994,"lon":5.392907,"is_reserved":false,"is_disabled":false,"rental_uris":{"android":"levelo://app?vid=4b905b75-0bf8-4908-ac7d-c61d1229be65","ios":"levelo://app?vid=4b905b75-0bf8-4908-ac7d-c61d1229be65"},"vehicle_type_id":"4","last_reported":1703106393,"current_range_meters":17200,"station_id":"ce4bh192rcd13ifvqdd0","pricing_plan_id":"free"},{"bike_id":"37ceb457-1c06-43cc-9ebc-e900afd05037","system_id":"levelo_inurba_marseille","lat":43.291908,"lon":5.393223,"is_reserved":false,"is_disabled":false,"rental_uris":{"android":"levelo://app?vid=37ceb457-1c06-43cc-9ebc-e900afd05037","ios":"levelo://app?vid=37ceb457-1c06-43cc-9ebc-e900afd05037"},"vehicle_type_id":"4","last_reported":1703106393,"current_range_meters":24800,"station_id":"ce4bh192rcd13ifvqdd0","pricing_plan_id":"free"},{"bike_id":"2d916ed0-891d-40f0-9aa8-07018c3e2d67","system_id":"levelo_inurba_marseille","lat":43.2847,"lon":5.35888,"is_reserved":false,"is_disabled":false,"rental_uris":{"android":"levelo://app?vid=2d916ed0-891d-40f0-9aa8-07018c3e2d67","ios":"levelo://app?vid=2d916ed0-891d-40f0-9aa8-07018c3e2d67"},"vehicle_type_id":"4","last_reported":1703106393,"current_range_meters":20800,"station_id":"ce4bhah2rcd13ifvqei0","pricing_plan_id":"free"},{"bike_id":"aea07f3f-bb43-4267-b015-5c6ee34703fd","system_id":"levelo_inurba_marseille","lat":43.284681,"lon":5.35886,"is_reserved":false,"is_disabled":false,"rental_uris":{"android":"levelo://app?vid=aea07f3f-bb43-4267-b015-5c6ee34703fd","ios":"levelo://app?vid=aea07f3f-bb43-4267-b015-5c6ee34703fd"},"vehicle_type_id":"4","last_reported":1703106393,"current_range_meters":10400,"station_id":"ce4bhah2rcd13ifvqei0","pricing_plan_id":"free"},{"bike_id":"400e5b1a-306a-4672-8fba-8fbd5ee124e8","system_id":"levelo_inurba_marseille","lat":43.284644,"lon":5.3588,"is_reserved":false,"is_disabled":false,"rental_uris":{"android":"levelo://app?vid=400e5b1a-306a-4672-8fba-8fbd5ee124e8","ios":"levelo://app?vid=400e5b1a-306a-4672-8fba-8fbd5ee124e8"},"vehicle_type_id":"4","last_reported":1703106393,"current_range_meters":16400,"station_id":"ce4bhah2rcd13ifvqei0","pricing_plan_id":"free"},{"bike_id":"d3df26d2-b56b-43ab-962d-c5837af0f437","system_id":"levelo_inurba_marseille","lat":43.28462,"lon":5.35881,"is_reserved":false,"is_disabled":false,"rental_uris":{"android":"levelo://app?vid=d3df26d2-b56b-43ab-962d-c5837af0f437","ios":"levelo://app?vid=d3df26d2-b56b-43ab-962d-c5837af0f437"},"vehicle_type_id":"4","last_reported":1703106393,"current_range_meters":4800,"station_id":"ce4bhah2rcd13ifvqei0","pricing_plan_id":"free"},{"bike_id":"a9d595c3-6bdf-4999-88b4-7eeac5ab5e34","system_id":"levelo_inurba_marseille","lat":43.28456,"lon":5.35893,"is_reserved":false,"is_disabled":false,"rental_uris":{"android":"levelo://app?vid=a9d595c3-6bdf-4999-88b4-7eeac5ab5e34","ios":"levelo://app?vid=a9d595c3-6bdf-4999-88b4-7eeac5ab5e34"},"vehicle_type_id":"4","last_reported":1703106393,"current_range_meters":22400,"station_id":"ce4bhah2rcd13ifvqei0","pricing_plan_id":"free"},{"bike_id":"821ec46c-0d65-4c45-80b4-bad60b20c148","system_id":"levelo_inurba_marseille","lat":43.294314,"lon":5.397498,"is_reserved":false,"is_disabled":false,"rental_uris":{"android":"levelo://app?vid=821ec46c-0d65-4c45-80b4-bad60b20c148","ios":"levelo://app?vid=821ec46c-0d65-4c45-80b4-bad60b20c148"},"vehicle_type_id":"4","last_reported":1703106393,"current_range_meters":25200,"station_id":"ce4bh3h2rcd13ifvqdo0","pricing_plan_id":"free"},{"bike_id":"89216e79-3cbd-4003-990b-c120bbe8ba20","system_id":"levelo_inurba_marseille","lat":43.284552,"lon":5.35889,"is_reserved":false,"is_disabled":false,"rental_uris":{"android":"levelo://app?vid=89216e79-3cbd-4003-990b-c120bbe8ba20","ios":"levelo://app?vid=89216e79-3cbd-4003-990b-c120bbe8ba20"},"vehicle_type_id":"4","last_reported":1703106393,"current_range_meters":22400,"station_id":"ce4bhah2rcd13ifvqei0","pricing_plan_id":"free"},{"bike_id":"deb03d56-a258-4061-ade4-4c6def17ebc6","system_id":"levelo_inurba_marseille","lat":43.28455,"lon":5.35887,"is_reserved":false,"is_disabled":false,"rental_uris":{"android":"levelo://app?vid=deb03d56-a258-4061-ade4-4c6def17ebc6","ios":"levelo://app?vid=deb03d56-a258-4061-ade4-4c6def17ebc6"},"vehicle_type_id":"4","last_reported":1703106393,"current_range_meters":22800,"station_id":"ce4bhah2rcd13ifvqei0","pricing_plan_id":"free"},{"bike_id":"f360e22f-261c-4fca-ac0b-f272b4e70a67","system_id":"levelo_inurba_marseille","lat":43.294314,"lon":5.397498,"is_reserved":false,"is_disabled":false,"rental_uris":{"android":"levelo://app?vid=f360e22f-261c-4fca-ac0b-f272b4e70a67","ios":"levelo://app?vid=f360e22f-261c-4fca-ac0b-f272b4e70a67"},"vehicle_type_id":"4","last_reported":1703106393,"current_range_meters":10400,"station_id":"ce4bh3h2rcd13ifvqdo0","pricing_plan_id":"free"},{"bike_id":"cd0c99aa-0b49-422c-882e-cd7d21d05d95","system_id":"levelo_inurba_marseille","lat":43.285856,"lon":5.350771,"is_reserved":false,"is_disabled":false,"rental_uris":{"android":"levelo://app?vid=cd0c99aa-0b49-422c-882e-cd7d21d05d95","ios":"levelo://app?vid=cd0c99aa-0b49-422c-882e-cd7d21d05d95"},"vehicle_type_id":"4","last_reported":1703106393,"current_range_meters":12000,"station_id":"ce4bhch2rcd13ifvqeug","pricing_plan_id":"free"},{"bike_id":"4ea381ba-f5ca-4402-a8ad-56297ca58f6f","system_id":"levelo_inurba_marseille","lat":43.285856,"lon":5.350771,"is_reserved":false,"is_disabled":false,"rental_uris":{"android":"levelo://app?vid=4ea381ba-f5ca-4402-a8ad-56297ca58f6f","ios":"levelo://app?vid=4ea381ba-f5ca-4402-a8ad-56297ca58f6f"},"vehicle_type_id":"4","last_reported":1703106393,"current_range_meters":20400,"station_id":"ce4bhch2rcd13ifvqeug","pricing_plan_id":"free"},{"bike_id":"70231a4e-5b03-48ec-ae49-1772c70a77b5","system_id":"levelo_inurba_marseille","lat":43.285856,"lon":5.350771,"is_reserved":false,"is_disabled":false,"rental_uris":{"android":"levelo://app?vid=70231a4e-5b03-48ec-ae49-1772c70a77b5","ios":"levelo://app?vid=70231a4e-5b03-48ec-ae49-1772c70a77b5"},"vehicle_type_id":"4","last_reported":1703106393,"current_range_meters":400,"station_id":"ce4bhch2rcd13ifvqeug","pricing_plan_id":"free"},{"bike_id":"4005d67c-e580-47a4-893b-53bd0a817d88","system_id":"levelo_inurba_marseille","lat":43.285856,"lon":5.350771,"is_reserved":false,"is_disabled":false,"rental_uris":{"android":"levelo://app?vid=4005d67c-e580-47a4-893b-53bd0a817d88","ios":"levelo://app?vid=4005d67c-e580-47a4-893b-53bd0a817d88"},"vehicle_type_id":"4","last_reported":1703106393,"current_range_meters":12400,"station_id":"ce4bhch2rcd13ifvqeug","pricing_plan_id":"free"},{"bike_id":"f9d5365c-a48c-4167-aefc-e4eb02be3020","system_id":"levelo_inurba_marseille","lat":43.285856,"lon":5.350771,"is_reserved":false,"is_disabled":false,"rental_uris":{"android":"levelo://app?vid=f9d5365c-a48c-4167-aefc-e4eb02be3020","ios":"levelo://app?vid=f9d5365c-a48c-4167-aefc-e4eb02be3020"},"vehicle_type_id":"4","last_reported":1703106393,"current_range_meters":4400,"station_id":"ce4bhch2rcd13ifvqeug","pricing_plan_id":"free"},{"bike_id":"b1dab4de-0ade-4b74-94d9-fc33a4596fb1","system_id":"levelo_inurba_marseille","lat":43.285856,"lon":5.350771,"is_reserved":false,"is_disabled":false,"rental_uris":{"android":"levelo://app?vid=b1dab4de-0ade-4b74-94d9-fc33a4596fb1","ios":"levelo://app?vid=b1dab4de-0ade-4b74-94d9-fc33a4596fb1"},"vehicle_type_id":"4","last_reported":1703106393,"current_range_meters":18800,"station_id":"ce4bhch2rcd13ifvqeug","pricing_plan_id":"free"},{"bike_id":"8538e6dd-dbef-4a5a-a119-9a857fd021ad","system_id":"levelo_inurba_marseille","lat":43.33218,"lon":5.397067,"is_reserved":false,"is_disabled":false,"rental_uris":{"android":"levelo://app?vid=8538e6dd-dbef-4a5a-a119-9a857fd021ad","ios":"levelo://app?vid=8538e6dd-dbef-4a5a-a119-9a857fd021ad"},"vehicle_type_id":"4","last_reported":1703106393,"current_range_meters":0,"station_id":"","pricing_plan_id":"free"},{"bike_id":"fec70c02-b444-4510-87fc-21ea9e827fc1","system_id":"levelo_inurba_marseille","lat":43.295713,"lon":5.399639,"is_reserved":false,"is_disabled":false,"rental_uris":{"android":"levelo://app?vid=fec70c02-b444-4510-87fc-21ea9e827fc1","ios":"levelo://app?vid=fec70c02-b444-4510-87fc-21ea9e827fc1"},"vehicle_type_id":"4","last_reported":1703106393,"current_range_meters":0,"station_id":"ce4bh312rcd13ifvqdj0","pricing_plan_id":"free"},{"bike_id":"dd7ce9b4-60e6-4721-8df0-1b8f818f1e3d","system_id":"levelo_inurba_marseille","lat":43.295713,"lon":5.399639,"is_reserved":false,"is_disabled":false,"rental_uris":{"android":"levelo://app?vid=dd7ce9b4-60e6-4721-8df0-1b8f818f1e3d","ios":"levelo://app?vid=dd7ce9b4-60e6-4721-8df0-1b8f818f1e3d"},"vehicle_type_id":"4","last_reported":1703106393,"current_range_meters":8000,"station_id":"ce4bh312rcd13ifvqdj0","pricing_plan_id":"free"},{"bike_id":"ded1ed82-5118-44bb-b4af-88bce3c0f564","system_id":"levelo_inurba_marseille","lat":43.295713,"lon":5.399639,"is_reserved":false,"is_disabled":false,"rental_uris":{"android":"levelo://app?vid=ded1ed82-5118-44bb-b4af-88bce3c0f564","ios":"levelo://app?vid=ded1ed82-5118-44bb-b4af-88bce3c0f564"},"vehicle_type_id":"4","last_reported":1703106393,"current_range_meters":18800,"station_id":"ce4bh312rcd13ifvqdj0","pricing_plan_id":"free"},{"bike_id":"c7b92774-3b2d-4e0a-9266-35096a7b684e","system_id":"levelo_inurba_marseille","lat":43.295713,"lon":5.399639,"is_reserved":false,"is_disabled":false,"rental_uris":{"android":"levelo://app?vid=c7b92774-3b2d-4e0a-9266-35096a7b684e","ios":"levelo://app?vid=c7b92774-3b2d-4e0a-9266-35096a7b684e"},"vehicle_type_id":"4","last_reported":1703106393,"current_range_meters":8400,"station_id":"ce4bh312rcd13ifvqdj0","pricing_plan_id":"free"},{"bike_id":"dfb799e0-6b52-4b93-891e-f427333dec88","system_id":"levelo_inurba_marseille","lat":43.33717,"lon":5.391857,"is_reserved":false,"is_disabled":false,"rental_uris":{"android":"levelo://app?vid=dfb799e0-6b52-4b93-891e-f427333dec88","ios":"levelo://app?vid=dfb799e0-6b52-4b93-891e-f427333dec88"},"vehicle_type_id":"4","last_reported":1703106393,"current_range_meters":24400,"station_id":"ce4bhr92rcd13ifvqhsg","pricing_plan_id":"free"},{"bike_id":"0e6bbc92-cec6-497f-ad89-d75d7e889db3","system_id":"levelo_inurba_marseille","lat":43.33717,"lon":5.391857,"is_reserved":false,"is_disabled":false,"rental_uris":{"android":"levelo://app?vid=0e6bbc92-cec6-497f-ad89-d75d7e889db3","ios":"levelo://app?vid=0e6bbc92-cec6-497f-ad89-d75d7e889db3"},"vehicle_type_id":"4","last_reported":1703106393,"current_range_meters":31200,"station_id":"ce4bhr92rcd13ifvqhsg","pricing_plan_id":"free"},{"bike_id":"057745d9-c901-425a-9a42-19fbf5126ec9","system_id":"levelo_inurba_marseille","lat":43.323464,"lon":5.406297,"is_reserved":false,"is_disabled":false,"rental_uris":{"android":"levelo://app?vid=057745d9-c901-425a-9a42-19fbf5126ec9","ios":"levelo://app?vid=057745d9-c901-425a-9a42-19fbf5126ec9"},"vehicle_type_id":"4","last_reported":1703106393,"current_range_meters":11200,"station_id":"ce4bhq92rcd13ifvqhjg","pricing_plan_id":"free"},{"bike_id":"b20f92a2-3c96-49ba-89c0-763dc511f158","system_id":"levelo_inurba_marseille","lat":43.284219,"lon":5.3497,"is_reserved":false,"is_disabled":false,"rental_uris":{"android":"levelo://app?vid=b20f92a2-3c96-49ba-89c0-763dc511f158","ios":"levelo://app?vid=b20f92a2-3c96-49ba-89c0-763dc511f158"},"vehicle_type_id":"4","last_reported":1703106393,"current_range_meters":25600,"station_id":"ce4bhbh2rcd13ifvqepg","pricing_plan_id":"free"},{"bike_id":"d6ceaf01-26b8-4886-ac1f-d274beda68aa","system_id":"levelo_inurba_marseille","lat":43.33338,"lon":5.39876,"is_reserved":false,"is_disabled":false,"rental_uris":{"android":"levelo://app?vid=d6ceaf01-26b8-4886-ac1f-d274beda68aa","ios":"levelo://app?vid=d6ceaf01-26b8-4886-ac1f-d274beda68aa"},"vehicle_type_id":"4","last_reported":1703106393,"current_range_meters":0,"station_id":"","pricing_plan_id":"free"},{"bike_id":"5e3666e1-86ec-4715-881e-97fbe8493bb9","system_id":"levelo_inurba_marseille","lat":43.284217,"lon":5.349697,"is_reserved":false,"is_disabled":false,"rental_uris":{"android":"levelo://app?vid=5e3666e1-86ec-4715-881e-97fbe8493bb9","ios":"levelo://app?vid=5e3666e1-86ec-4715-881e-97fbe8493bb9"},"vehicle_type_id":"4","last_reported":1703106393,"current_range_meters":30400,"station_id":"ce4bhbh2rcd13ifvqepg","pricing_plan_id":"free"},{"bike_id":"e68ad7a3-9f73-42da-8e90-59adcc6ccfbd","system_id":"levelo_inurba_marseille","lat":43.284219,"lon":5.3497,"is_reserved":false,"is_disabled":false,"rental_uris":{"android":"levelo://app?vid=e68ad7a3-9f73-42da-8e90-59adcc6ccfbd","ios":"levelo://app?vid=e68ad7a3-9f73-42da-8e90-59adcc6ccfbd"},"vehicle_type_id":"4","last_reported":1703106393,"current_range_meters":30000,"station_id":"ce4bhbh2rcd13ifvqepg","pricing_plan_id":"free"},{"bike_id":"25acf729-0c15-45f0-8053-2c35b0919b50","system_id":"levelo_inurba_marseille","lat":43.284219,"lon":5.3497,"is_reserved":false,"is_disabled":false,"rental_uris":{"android":"levelo://app?vid=25acf729-0c15-45f0-8053-2c35b0919b50","ios":"levelo://app?vid=25acf729-0c15-45f0-8053-2c35b0919b50"},"vehicle_type_id":"4","last_reported":1703106393,"current_range_meters":28800,"station_id":"ce4bhbh2rcd13ifvqepg","pricing_plan_id":"free"},{"bike_id":"99c0c118-61e8-4cea-80ff-9be3c4ac7cf7","system_id":"levelo_inurba_marseille","lat":43.284209,"lon":5.34984,"is_reserved":false,"is_disabled":false,"rental_uris":{"android":"levelo://app?vid=99c0c118-61e8-4cea-80ff-9be3c4ac7cf7","ios":"levelo://app?vid=99c0c118-61e8-4cea-80ff-9be3c4ac7cf7"},"vehicle_type_id":"4","last_reported":1703106393,"current_range_meters":1200,"station_id":"ce4bhbh2rcd13ifvqepg","pricing_plan_id":"free"},{"bike_id":"b85df6e5-946f-4ca9-b02b-bc3a9e578ef6","system_id":"levelo_inurba_marseille","lat":43.304188,"lon":5.412904,"is_reserved":false,"is_disabled":false,"rental_uris":{"android":"levelo://app?vid=b85df6e5-946f-4ca9-b02b-bc3a9e578ef6","ios":"levelo://app?vid=b85df6e5-946f-4ca9-b02b-bc3a9e578ef6"},"vehicle_type_id":"4","last_reported":1703106393,"current_range_meters":21600,"station_id":"ce4bhop2rcd13ifvqh8g","pricing_plan_id":"free"},{"bike_id":"338c9ba4-b725-4a51-8cf5-7a87fdf968de","system_id":"levelo_inurba_marseille","lat":43.284214,"lon":5.349706,"is_reserved":false,"is_disabled":false,"rental_uris":{"android":"levelo://app?vid=338c9ba4-b725-4a51-8cf5-7a87fdf968de","ios":"levelo://app?vid=338c9ba4-b725-4a51-8cf5-7a87fdf968de"},"vehicle_type_id":"4","last_reported":1703106393,"current_range_meters":21200,"station_id":"ce4bhbh2rcd13ifvqepg","pricing_plan_id":"free"},{"bike_id":"30b41aed-b375-4cfa-b849-c47f4e650fc0","system_id":"levelo_inurba_marseille","lat":43.28208,"lon":5.35877,"is_reserved":false,"is_disabled":false,"rental_uris":{"android":"levelo://app?vid=30b41aed-b375-4cfa-b849-c47f4e650fc0","ios":"levelo://app?vid=30b41aed-b375-4cfa-b849-c47f4e650fc0"},"vehicle_type_id":"4","last_reported":1703106393,"current_range_meters":10400,"station_id":"","pricing_plan_id":"free"},{"bike_id":"6dbebcfd-5cef-46d3-b6b1-24659f7d377a","system_id":"levelo_inurba_marseille","lat":43.285515,"lon":5.389722,"is_reserved":false,"is_disabled":false,"rental_uris":{"android":"levelo://app?vid=6dbebcfd-5cef-46d3-b6b1-24659f7d377a","ios":"levelo://app?vid=6dbebcfd-5cef-46d3-b6b1-24659f7d377a"},"vehicle_type_id":"4","last_reported":1703106393,"current_range_meters":0,"station_id":"","pricing_plan_id":"free"},{"bike_id":"3af23133-0197-40c1-970e-55f36fe14c51","system_id":"levelo_inurba_marseille","lat":43.282754,"lon":5.350519,"is_reserved":false,"is_disabled":false,"rental_uris":{"android":"levelo://app?vid=3af23133-0197-40c1-970e-55f36fe14c51","ios":"levelo://app?vid=3af23133-0197-40c1-970e-55f36fe14c51"},"vehicle_type_id":"4","last_reported":1703106393,"current_range_meters":26000,"station_id":"ce4bhbp2rcd13ifvqerg","pricing_plan_id":"free"},{"bike_id":"65911451-d618-4117-9c6d-16e5727fc1ab","system_id":"levelo_inurba_marseille","lat":43.280382,"lon":5.369291,"is_reserved":false,"is_disabled":false,"rental_uris":{"android":"levelo://app?vid=65911451-d618-4117-9c6d-16e5727fc1ab","ios":"levelo://app?vid=65911451-d618-4117-9c6d-16e5727fc1ab"},"vehicle_type_id":"4","last_reported":1703106393,"current_range_meters":23200,"station_id":"ce4bha12rcd13ifvqef0","pricing_plan_id":"free"},{"bike_id":"f09a2af4-12f6-4bf4-b4b5-cd4f283b2f5b","system_id":"levelo_inurba_marseille","lat":43.29041,"lon":5.399634,"is_reserved":false,"is_disabled":false,"rental_uris":{"android":"levelo://app?vid=f09a2af4-12f6-4bf4-b4b5-cd4f283b2f5b","ios":"levelo://app?vid=f09a2af4-12f6-4bf4-b4b5-cd4f283b2f5b"},"vehicle_type_id":"4","last_reported":1703106393,"current_range_meters":22400,"station_id":"ce4bh392rcd13ifvqdm0","pricing_plan_id":"free"},{"bike_id":"b0f196ce-10d4-468b-aa07-aba3f9d1df70","system_id":"levelo_inurba_marseille","lat":43.284462,"lon":5.392121,"is_reserved":false,"is_disabled":false,"rental_uris":{"android":"levelo://app?vid=b0f196ce-10d4-468b-aa07-aba3f9d1df70","ios":"levelo://app?vid=b0f196ce-10d4-468b-aa07-aba3f9d1df70"},"vehicle_type_id":"4","last_reported":1703106393,"current_range_meters":22800,"station_id":"ce4bhoh2rcd13ifvqh5g","pricing_plan_id":"free"},{"bike_id":"57094c94-6f80-4bfb-ae53-c0b1f6232af4","system_id":"levelo_inurba_marseille","lat":43.28573,"lon":5.394992,"is_reserved":false,"is_disabled":false,"rental_uris":{"android":"levelo://app?vid=57094c94-6f80-4bfb-ae53-c0b1f6232af4","ios":"levelo://app?vid=57094c94-6f80-4bfb-ae53-c0b1f6232af4"},"vehicle_type_id":"4","last_reported":1703106393,"current_range_meters":5200,"station_id":"ce4bh292rcd13ifvqdg0","pricing_plan_id":"free"},{"bike_id":"48788aa5-deec-43b7-9fd8-2a0beb59aa7f","system_id":"levelo_inurba_marseille","lat":43.285742,"lon":5.395004,"is_reserved":false,"is_disabled":false,"rental_uris":{"android":"levelo://app?vid=48788aa5-deec-43b7-9fd8-2a0beb59aa7f","ios":"levelo://app?vid=48788aa5-deec-43b7-9fd8-2a0beb59aa7f"},"vehicle_type_id":"4","last_reported":1703106393,"current_range_meters":30400,"station_id":"ce4bh292rcd13ifvqdg0","pricing_plan_id":"free"},{"bike_id":"8386dfd6-e68a-478d-84c0-712289af71bc","system_id":"levelo_inurba_marseille","lat":43.28573,"lon":5.394992,"is_reserved":false,"is_disabled":false,"rental_uris":{"android":"levelo://app?vid=8386dfd6-e68a-478d-84c0-712289af71bc","ios":"levelo://app?vid=8386dfd6-e68a-478d-84c0-712289af71bc"},"vehicle_type_id":"4","last_reported":1703106393,"current_range_meters":26400,"station_id":"ce4bh292rcd13ifvqdg0","pricing_plan_id":"free"},{"bike_id":"89cfe45a-74c4-4618-8d46-eba19dfe5c97","system_id":"levelo_inurba_marseille","lat":43.326605,"lon":5.409903,"is_reserved":false,"is_disabled":false,"rental_uris":{"android":"levelo://app?vid=89cfe45a-74c4-4618-8d46-eba19dfe5c97","ios":"levelo://app?vid=89cfe45a-74c4-4618-8d46-eba19dfe5c97"},"vehicle_type_id":"4","last_reported":1703106393,"current_range_meters":13600,"station_id":"ce4bhpp2rcd13ifvqhgg","pricing_plan_id":"free"},{"bike_id":"a65bc548-b9cd-4a09-99de-6a7cf1b6ce3e","system_id":"levelo_inurba_marseille","lat":43.304188,"lon":5.412904,"is_reserved":false,"is_disabled":false,"rental_uris":{"android":"levelo://app?vid=a65bc548-b9cd-4a09-99de-6a7cf1b6ce3e","ios":"levelo://app?vid=a65bc548-b9cd-4a09-99de-6a7cf1b6ce3e"},"vehicle_type_id":"4","last_reported":1703106393,"current_range_meters":20800,"station_id":"ce4bhop2rcd13ifvqh8g","pricing_plan_id":"free"},{"bike_id":"1d1555b5-648a-49b4-90c5-eeac61d8c337","system_id":"levelo_inurba_marseille","lat":43.304188,"lon":5.412904,"is_reserved":false,"is_disabled":false,"rental_uris":{"android":"levelo://app?vid=1d1555b5-648a-49b4-90c5-eeac61d8c337","ios":"levelo://app?vid=1d1555b5-648a-49b4-90c5-eeac61d8c337"},"vehicle_type_id":"4","last_reported":1703106393,"current_range_meters":8000,"station_id":"ce4bhop2rcd13ifvqh8g","pricing_plan_id":"free"},{"bike_id":"b273a386-d7a2-4d92-bf22-79fa7823766f","system_id":"levelo_inurba_marseille","lat":43.304188,"lon":5.412904,"is_reserved":false,"is_disabled":false,"rental_uris":{"android":"levelo://app?vid=b273a386-d7a2-4d92-bf22-79fa7823766f","ios":"levelo://app?vid=b273a386-d7a2-4d92-bf22-79fa7823766f"},"vehicle_type_id":"4","last_reported":1703106393,"current_range_meters":14400,"station_id":"ce4bhop2rcd13ifvqh8g","pricing_plan_id":"free"},{"bike_id":"c9ccc1b6-eff8-41ad-b5b1-88555cb07424","system_id":"levelo_inurba_marseille","lat":43.304188,"lon":5.412904,"is_reserved":false,"is_disabled":false,"rental_uris":{"android":"levelo://app?vid=c9ccc1b6-eff8-41ad-b5b1-88555cb07424","ios":"levelo://app?vid=c9ccc1b6-eff8-41ad-b5b1-88555cb07424"},"vehicle_type_id":"4","last_reported":1703106393,"current_range_meters":10800,"station_id":"ce4bhop2rcd13ifvqh8g","pricing_plan_id":"free"},{"bike_id":"78d71a73-30d7-46f8-822c-5fd320c9eb2d","system_id":"levelo_inurba_marseille","lat":43.279087,"lon":5.380114,"is_reserved":false,"is_disabled":false,"rental_uris":{"android":"levelo://app?vid=78d71a73-30d7-46f8-822c-5fd320c9eb2d","ios":"levelo://app?vid=78d71a73-30d7-46f8-822c-5fd320c9eb2d"},"vehicle_type_id":"4","last_reported":1703106393,"current_range_meters":30000,"station_id":"ce4bhf92rcd13ifvqf50","pricing_plan_id":"free"},{"bike_id":"43e5f732-0f3e-4e65-b171-c12232045b42","system_id":"levelo_inurba_marseille","lat":43.278092,"lon":5.374497,"is_reserved":false,"is_disabled":false,"rental_uris":{"android":"levelo://app?vid=43e5f732-0f3e-4e65-b171-c12232045b42","ios":"levelo://app?vid=43e5f732-0f3e-4e65-b171-c12232045b42"},"vehicle_type_id":"4","last_reported":1703106393,"current_range_meters":7200,"station_id":"","pricing_plan_id":"free"},{"bike_id":"5fb1f64a-c325-4ebc-bab1-5ee60fe9bcbd","system_id":"levelo_inurba_marseille","lat":43.287154,"lon":5.399979,"is_reserved":false,"is_disabled":false,"rental_uris":{"android":"levelo://app?vid=5fb1f64a-c325-4ebc-bab1-5ee60fe9bcbd","ios":"levelo://app?vid=5fb1f64a-c325-4ebc-bab1-5ee60fe9bcbd"},"vehicle_type_id":"4","last_reported":1703106393,"current_range_meters":3600,"station_id":"ce4bho92rcd13ifvqh3g","pricing_plan_id":"free"},{"bike_id":"ea288ed0-2353-4e46-ad6a-3996d641e872","system_id":"levelo_inurba_marseille","lat":43.287154,"lon":5.399979,"is_reserved":false,"is_disabled":false,"rental_uris":{"android":"levelo://app?vid=ea288ed0-2353-4e46-ad6a-3996d641e872","ios":"levelo://app?vid=ea288ed0-2353-4e46-ad6a-3996d641e872"},"vehicle_type_id":"4","last_reported":1703106393,"current_range_meters":13600,"station_id":"ce4bho92rcd13ifvqh3g","pricing_plan_id":"free"},{"bike_id":"a0c3522f-ac3d-48d5-b61c-d0d7137a303c","system_id":"levelo_inurba_marseille","lat":43.287154,"lon":5.399979,"is_reserved":false,"is_disabled":false,"rental_uris":{"android":"levelo://app?vid=a0c3522f-ac3d-48d5-b61c-d0d7137a303c","ios":"levelo://app?vid=a0c3522f-ac3d-48d5-b61c-d0d7137a303c"},"vehicle_type_id":"4","last_reported":1703106393,"current_range_meters":7200,"station_id":"ce4bho92rcd13ifvqh3g","pricing_plan_id":"free"},{"bike_id":"cb0668d4-d46c-4efe-a7e0-185ebe495ab4","system_id":"levelo_inurba_marseille","lat":43.280576,"lon":5.389159,"is_reserved":false,"is_disabled":false,"rental_uris":{"android":"levelo://app?vid=cb0668d4-d46c-4efe-a7e0-185ebe495ab4","ios":"levelo://app?vid=cb0668d4-d46c-4efe-a7e0-185ebe495ab4"},"vehicle_type_id":"4","last_reported":1703106393,"current_range_meters":6000,"station_id":"","pricing_plan_id":"free"},{"bike_id":"5e93b6cd-4640-4605-a34a-e41d65661c54","system_id":"levelo_inurba_marseille","lat":43.279742,"lon":5.38744,"is_reserved":false,"is_disabled":false,"rental_uris":{"android":"levelo://app?vid=5e93b6cd-4640-4605-a34a-e41d65661c54","ios":"levelo://app?vid=5e93b6cd-4640-4605-a34a-e41d65661c54"},"vehicle_type_id":"4","last_reported":1703106393,"current_range_meters":24400,"station_id":"ce4bhg12rcd13ifvqf80","pricing_plan_id":"free"},{"bike_id":"71021f56-7b5e-4662-95e5-7bddea2811db","system_id":"levelo_inurba_marseille","lat":43.292571,"lon":5.409107,"is_reserved":false,"is_disabled":false,"rental_uris":{"android":"levelo://app?vid=71021f56-7b5e-4662-95e5-7bddea2811db","ios":"levelo://app?vid=71021f56-7b5e-4662-95e5-7bddea2811db"},"vehicle_type_id":"4","last_reported":1703106393,"current_range_meters":19600,"station_id":"ce4bh192rcd13ifvqdc0","pricing_plan_id":"free"},{"bike_id":"5e341de4-c67d-4b6c-8212-01b2b2ae70f5","system_id":"levelo_inurba_marseille","lat":43.292569,"lon":5.409107,"is_reserved":false,"is_disabled":false,"rental_uris":{"android":"levelo://app?vid=5e341de4-c67d-4b6c-8212-01b2b2ae70f5","ios":"levelo://app?vid=5e341de4-c67d-4b6c-8212-01b2b2ae70f5"},"vehicle_type_id":"4","last_reported":1703106393,"current_range_meters":12400,"station_id":"ce4bh192rcd13ifvqdc0","pricing_plan_id":"free"},{"bike_id":"8620807d-e7d9-49bd-a224-36b8c79adb00","system_id":"levelo_inurba_marseille","lat":43.303837,"lon":5.418724,"is_reserved":false,"is_disabled":false,"rental_uris":{"android":"levelo://app?vid=8620807d-e7d9-49bd-a224-36b8c79adb00","ios":"levelo://app?vid=8620807d-e7d9-49bd-a224-36b8c79adb00"},"vehicle_type_id":"4","last_reported":1703106393,"current_range_meters":28800,"station_id":"ce4bhop2rcd13ifvqh7g","pricing_plan_id":"free"},{"bike_id":"c4d21c1b-3ea9-4506-9e03-f8babf6ec591","system_id":"levelo_inurba_marseille","lat":43.278401,"lon":5.392152,"is_reserved":false,"is_disabled":false,"rental_uris":{"android":"levelo://app?vid=c4d21c1b-3ea9-4506-9e03-f8babf6ec591","ios":"levelo://app?vid=c4d21c1b-3ea9-4506-9e03-f8babf6ec591"},"vehicle_type_id":"4","last_reported":1703106393,"current_range_meters":1200,"station_id":"ce4bhjp2rcd13ifvqga0","pricing_plan_id":"free"},{"bike_id":"869b6491-c0ef-4c14-9556-b482472b34b4","system_id":"levelo_inurba_marseille","lat":43.275625,"lon":5.384392,"is_reserved":false,"is_disabled":false,"rental_uris":{"android":"levelo://app?vid=869b6491-c0ef-4c14-9556-b482472b34b4","ios":"levelo://app?vid=869b6491-c0ef-4c14-9556-b482472b34b4"},"vehicle_type_id":"4","last_reported":1703106393,"current_range_meters":9600,"station_id":"ce4bhh92rcd13ifvqfi0","pricing_plan_id":"free"},{"bike_id":"4a0911b4-ebce-4462-b949-8a4ad3514d45","system_id":"levelo_inurba_marseille","lat":43.336134,"lon":5.410341,"is_reserved":false,"is_disabled":false,"rental_uris":{"android":"levelo://app?vid=4a0911b4-ebce-4462-b949-8a4ad3514d45","ios":"levelo://app?vid=4a0911b4-ebce-4462-b949-8a4ad3514d45"},"vehicle_type_id":"4","last_reported":1703106393,"current_range_meters":23600,"station_id":"ce4bhqh2rcd13ifvqhmg","pricing_plan_id":"free"},{"bike_id":"3ba60f78-a0a4-48f6-b46c-0fbb03471889","system_id":"levelo_inurba_marseille","lat":43.275625,"lon":5.384392,"is_reserved":false,"is_disabled":false,"rental_uris":{"android":"levelo://app?vid=3ba60f78-a0a4-48f6-b46c-0fbb03471889","ios":"levelo://app?vid=3ba60f78-a0a4-48f6-b46c-0fbb03471889"},"vehicle_type_id":"4","last_reported":1703106393,"current_range_meters":30400,"station_id":"ce4bhh92rcd13ifvqfi0","pricing_plan_id":"free"},{"bike_id":"5b8ae8f0-5b06-4176-b91d-9d590291850e","system_id":"levelo_inurba_marseille","lat":43.275625,"lon":5.384392,"is_reserved":false,"is_disabled":false,"rental_uris":{"android":"levelo://app?vid=5b8ae8f0-5b06-4176-b91d-9d590291850e","ios":"levelo://app?vid=5b8ae8f0-5b06-4176-b91d-9d590291850e"},"vehicle_type_id":"4","last_reported":1703106393,"current_range_meters":17600,"station_id":"ce4bhh92rcd13ifvqfi0","pricing_plan_id":"free"},{"bike_id":"867a4c2f-0385-4f28-ac6c-0c72421a0749","system_id":"levelo_inurba_marseille","lat":43.279975,"lon":5.40009,"is_reserved":false,"is_disabled":false,"rental_uris":{"android":"levelo://app?vid=867a4c2f-0385-4f28-ac6c-0c72421a0749","ios":"levelo://app?vid=867a4c2f-0385-4f28-ac6c-0c72421a0749"},"vehicle_type_id":"4","last_reported":1703106393,"current_range_meters":30800,"station_id":"ce4bho92rcd13ifvqh4g","pricing_plan_id":"free"},{"bike_id":"1f92b7c5-0bdb-41b6-b1f7-49ba6d555cb3","system_id":"levelo_inurba_marseille","lat":43.279952,"lon":5.400085,"is_reserved":false,"is_disabled":false,"rental_uris":{"android":"levelo://app?vid=1f92b7c5-0bdb-41b6-b1f7-49ba6d555cb3","ios":"levelo://app?vid=1f92b7c5-0bdb-41b6-b1f7-49ba6d555cb3"},"vehicle_type_id":"4","last_reported":1703106393,"current_range_meters":27200,"station_id":"ce4bho92rcd13ifvqh4g","pricing_plan_id":"free"},{"bike_id":"21f4a169-6e35-4a8e-94ba-dad1b033815c","system_id":"levelo_inurba_marseille","lat":43.310785,"lon":5.424305,"is_reserved":false,"is_disabled":false,"rental_uris":{"android":"levelo://app?vid=21f4a169-6e35-4a8e-94ba-dad1b033815c","ios":"levelo://app?vid=21f4a169-6e35-4a8e-94ba-dad1b033815c"},"vehicle_type_id":"4","last_reported":1703106393,"current_range_meters":4400,"station_id":"ce4bhp92rcd13ifvqhag","pricing_plan_id":"free"},{"bike_id":"d04c46a2-68b4-4f99-b96a-186b6aa7a02e","system_id":"levelo_inurba_marseille","lat":43.317121,"lon":5.423936,"is_reserved":false,"is_disabled":false,"rental_uris":{"android":"levelo://app?vid=d04c46a2-68b4-4f99-b96a-186b6aa7a02e","ios":"levelo://app?vid=d04c46a2-68b4-4f99-b96a-186b6aa7a02e"},"vehicle_type_id":"4","last_reported":1703106393,"current_range_meters":27600,"station_id":"ce4bhp92rcd13ifvqhbg","pricing_plan_id":"free"},{"bike_id":"6e68da4c-e104-449b-b675-1a0f7da0547c","system_id":"levelo_inurba_marseille","lat":43.310785,"lon":5.424305,"is_reserved":false,"is_disabled":false,"rental_uris":{"android":"levelo://app?vid=6e68da4c-e104-449b-b675-1a0f7da0547c","ios":"levelo://app?vid=6e68da4c-e104-449b-b675-1a0f7da0547c"},"vehicle_type_id":"4","last_reported":1703106393,"current_range_meters":25600,"station_id":"ce4bhp92rcd13ifvqhag","pricing_plan_id":"free"},{"bike_id":"b1217991-eb34-4f8d-83d1-0f20b4ac1aa1","system_id":"levelo_inurba_marseille","lat":43.310785,"lon":5.424305,"is_reserved":false,"is_disabled":false,"rental_uris":{"android":"levelo://app?vid=b1217991-eb34-4f8d-83d1-0f20b4ac1aa1","ios":"levelo://app?vid=b1217991-eb34-4f8d-83d1-0f20b4ac1aa1"},"vehicle_type_id":"4","last_reported":1703106393,"current_range_meters":30000,"station_id":"ce4bhp92rcd13ifvqhag","pricing_plan_id":"free"},{"bike_id":"974dc7db-ff3c-4554-8964-132f9db52d9b","system_id":"levelo_inurba_marseille","lat":43.276092,"lon":5.395289,"is_reserved":false,"is_disabled":false,"rental_uris":{"android":"levelo://app?vid=974dc7db-ff3c-4554-8964-132f9db52d9b","ios":"levelo://app?vid=974dc7db-ff3c-4554-8964-132f9db52d9b"},"vehicle_type_id":"4","last_reported":1703106393,"current_range_meters":2800,"station_id":"","pricing_plan_id":"free"},{"bike_id":"1fe80476-52af-45c8-90c6-8dc8bbd381e0","system_id":"levelo_inurba_marseille","lat":43.27322,"lon":5.390754,"is_reserved":false,"is_disabled":false,"rental_uris":{"android":"levelo://app?vid=1fe80476-52af-45c8-90c6-8dc8bbd381e0","ios":"levelo://app?vid=1fe80476-52af-45c8-90c6-8dc8bbd381e0"},"vehicle_type_id":"4","last_reported":1703106393,"current_range_meters":5600,"station_id":"","pricing_plan_id":"free"},{"bike_id":"3dde5880-b839-4095-a25e-cd0a673bf963","system_id":"levelo_inurba_marseille","lat":43.274103,"lon":5.394016,"is_reserved":false,"is_disabled":false,"rental_uris":{"android":"levelo://app?vid=3dde5880-b839-4095-a25e-cd0a673bf963","ios":"levelo://app?vid=3dde5880-b839-4095-a25e-cd0a673bf963"},"vehicle_type_id":"4","last_reported":1703106393,"current_range_meters":17200,"station_id":"ce4bhdp2rcd13ifvqf20","pricing_plan_id":"free"},{"bike_id":"eeab07b9-8349-4f24-9799-eca385be2f04","system_id":"levelo_inurba_marseille","lat":43.295523,"lon":5.422926,"is_reserved":false,"is_disabled":false,"rental_uris":{"android":"levelo://app?vid=eeab07b9-8349-4f24-9799-eca385be2f04","ios":"levelo://app?vid=eeab07b9-8349-4f24-9799-eca385be2f04"},"vehicle_type_id":"4","last_reported":1703106393,"current_range_meters":19600,"station_id":"ce4bhph2rcd13ifvqhdg","pricing_plan_id":"free"},{"bike_id":"98a340da-f753-4516-9884-ebd83f943ec7","system_id":"levelo_inurba_marseille","lat":43.295523,"lon":5.422926,"is_reserved":false,"is_disabled":false,"rental_uris":{"android":"levelo://app?vid=98a340da-f753-4516-9884-ebd83f943ec7","ios":"levelo://app?vid=98a340da-f753-4516-9884-ebd83f943ec7"},"vehicle_type_id":"4","last_reported":1703106393,"current_range_meters":29600,"station_id":"ce4bhph2rcd13ifvqhdg","pricing_plan_id":"free"},{"bike_id":"b55db1a0-b820-479b-9929-7610c21584c5","system_id":"levelo_inurba_marseille","lat":43.295511,"lon":5.422926,"is_reserved":false,"is_disabled":false,"rental_uris":{"android":"levelo://app?vid=b55db1a0-b820-479b-9929-7610c21584c5","ios":"levelo://app?vid=b55db1a0-b820-479b-9929-7610c21584c5"},"vehicle_type_id":"4","last_reported":1703106393,"current_range_meters":19600,"station_id":"ce4bhph2rcd13ifvqhdg","pricing_plan_id":"free"},{"bike_id":"b5256d90-edcd-4464-ba20-d3a39a54a145","system_id":"levelo_inurba_marseille","lat":43.278128,"lon":5.407195,"is_reserved":false,"is_disabled":false,"rental_uris":{"android":"levelo://app?vid=b5256d90-edcd-4464-ba20-d3a39a54a145","ios":"levelo://app?vid=b5256d90-edcd-4464-ba20-d3a39a54a145"},"vehicle_type_id":"4","last_reported":1703106393,"current_range_meters":9600,"station_id":"ce4bhnh2rcd13ifvqgtg","pricing_plan_id":"free"},{"bike_id":"21a34569-8594-42a0-8533-00e3a5db301d","system_id":"levelo_inurba_marseille","lat":43.278128,"lon":5.407195,"is_reserved":false,"is_disabled":false,"rental_uris":{"android":"levelo://app?vid=21a34569-8594-42a0-8533-00e3a5db301d","ios":"levelo://app?vid=21a34569-8594-42a0-8533-00e3a5db301d"},"vehicle_type_id":"4","last_reported":1703106393,"current_range_meters":2800,"station_id":"ce4bhnh2rcd13ifvqgtg","pricing_plan_id":"free"},{"bike_id":"1cf29c8c-3aa7-45da-9151-6233028e2361","system_id":"levelo_inurba_marseille","lat":43.278128,"lon":5.407195,"is_reserved":false,"is_disabled":false,"rental_uris":{"android":"levelo://app?vid=1cf29c8c-3aa7-45da-9151-6233028e2361","ios":"levelo://app?vid=1cf29c8c-3aa7-45da-9151-6233028e2361"},"vehicle_type_id":"4","last_reported":1703106393,"current_range_meters":24400,"station_id":"ce4bhnh2rcd13ifvqgtg","pricing_plan_id":"free"},{"bike_id":"7c676a95-1db7-4ff9-8d6e-22bd2a2ea320","system_id":"levelo_inurba_marseille","lat":43.278128,"lon":5.407195,"is_reserved":false,"is_disabled":false,"rental_uris":{"android":"levelo://app?vid=7c676a95-1db7-4ff9-8d6e-22bd2a2ea320","ios":"levelo://app?vid=7c676a95-1db7-4ff9-8d6e-22bd2a2ea320"},"vehicle_type_id":"4","last_reported":1703106393,"current_range_meters":17200,"station_id":"ce4bhnh2rcd13ifvqgtg","pricing_plan_id":"free"},{"bike_id":"74943036-25cd-4db1-9d64-a6233819c22c","system_id":"levelo_inurba_marseille","lat":43.278128,"lon":5.407195,"is_reserved":false,"is_disabled":false,"rental_uris":{"android":"levelo://app?vid=74943036-25cd-4db1-9d64-a6233819c22c","ios":"levelo://app?vid=74943036-25cd-4db1-9d64-a6233819c22c"},