{"last_updated":1750352956,"ttl":60,"version":"2.2","data":{"bikes":[{"bike_id":"3da29fb8-fc97-44c6-b9ac-31dd456b2fd4","system_id":"levelo_inurba_marseille","lat":43.33771,"lon":5.37424,"is_reserved":false,"is_disabled":true,"rental_uris":{"android":"levelo://app?vid=3da29fb8-fc97-44c6-b9ac-31dd456b2fd4","ios":"levelo://app?vid=3da29fb8-fc97-44c6-b9ac-31dd456b2fd4"},"vehicle_type_id":"4","last_reported":1750352956,"current_range_meters":0,"station_id":"","pricing_plan_id":"cebpf4jnsgd1na2vs0mg"},{"bike_id":"01861ad8-a8d7-4be6-816e-651927c87584","system_id":"levelo_inurba_marseille","lat":43.33751,"lon":5.37456,"is_reserved":false,"is_disabled":true,"rental_uris":{"android":"levelo://app?vid=01861ad8-a8d7-4be6-816e-651927c87584","ios":"levelo://app?vid=01861ad8-a8d7-4be6-816e-651927c87584"},"vehicle_type_id":"4","last_reported":1750352956,"current_range_meters":0,"station_id":"","pricing_plan_id":"cebpf4jnsgd1na2vs0mg"},{"bike_id":"dbfce7a3-3423-4296-b193-a177dea644ac","system_id":"levelo_inurba_marseille","lat":43.27286,"lon":5.416185,"is_reserved":false,"is_disabled":true,"rental_uris":{"android":"levelo://app?vid=dbfce7a3-3423-4296-b193-a177dea644ac","ios":"levelo://app?vid=dbfce7a3-3423-4296-b193-a177dea644ac"},"vehicle_type_id":"4","last_reported":1750352956,"current_range_meters":0,"station_id":"","pricing_plan_id":"cebpf4jnsgd1na2vs0mg"},{"bike_id":"eff675e9-75ca-47c9-bd95-5090bc060d4f","system_id":"levelo_inurba_marseille","lat":43.34085,"lon":5.36075,"is_reserved":false,"is_disabled":true,"rental_uris":{"android":"levelo://app?vid=eff675e9-75ca-47c9-bd95-5090bc060d4f","ios":"levelo://app?vid=eff675e9-75ca-47c9-bd95-5090bc060d4f"},"vehicle_type_id":"4","last_reported":1750352956,"current_range_meters":0,"station_id":"","pricing_plan_id":"cebpf4jnsgd1na2vs0mg"},{"bike_id":"23705e57-f5a3-40f7-945a-01e3b08e1763","system_id":"levelo_inurba_marseille","lat":43.29439,"lon":5.38636,"is_reserved":false,"is_disabled":true,"rental_uris":{"android":"levelo://app?vid=23705e57-f5a3-40f7-945a-01e3b08e1763","ios":"levelo://app?vid=23705e57-f5a3-40f7-945a-01e3b08e1763"},"vehicle_type_id":"4","last_reported":1750352956,"current_range_meters":0,"station_id":"","pricing_plan_id":"cebpf4jnsgd1na2vs0mg"},{"bike_id":"d2bd57c8-6b64-48db-ad24-5398eb3fd9d6","system_id":"levelo_inurba_marseille","lat":43.337444,"lon":5.374475,"is_reserved":false,"is_disabled":true,"rental_uris":{"android":"levelo://app?vid=d2bd57c8-6b64-48db-ad24-5398eb3fd9d6","ios":"levelo://app?vid=d2bd57c8-6b64-48db-ad24-5398eb3fd9d6"},"vehicle_type_id":"4","last_reported":1750352956,"current_range_meters":0,"station_id":"","pricing_plan_id":"cebpf4jnsgd1na2vs0mg"},{"bike_id":"62a493c7-4534-4419-ad43-0582de34a72a","system_id":"levelo_inurba_marseille","lat":43.21366,"lon":5.355183,"is_reserved":false,"is_disabled":true,"rental_uris":{"android":"levelo://app?vid=62a493c7-4534-4419-ad43-0582de34a72a","ios":"levelo://app?vid=62a493c7-4534-4419-ad43-0582de34a72a"},"vehicle_type_id":"4","last_reported":1750352956,"current_range_meters":0,"station_id":"","pricing_plan_id":"cebpf4jnsgd1na2vs0mg"},{"bike_id":"b9e37238-9abe-4b8b-b932-edaee33a7e59","system_id":"levelo_inurba_marseille","lat":43.27447,"lon":5.39022,"is_reserved":false,"is_disabled":true,"rental_uris":{"android":"levelo://app?vid=b9e37238-9abe-4b8b-b932-edaee33a7e59","ios":"levelo://app?vid=b9e37238-9abe-4b8b-b932-edaee33a7e59"},"vehicle_type_id":"4","last_reported":1750352956,"current_range_meters":0,"station_id":"","pricing_plan_id":"cebpf4jnsgd1na2vs0mg"},{"bike_id":"8ad9234e-001a-4549-8bba-9baf2ef98804","system_id":"levelo_inurba_marseille","lat":43.2689,"lon":5.39883,"is_reserved":false,"is_disabled":true,"rental_uris":{"android":"levelo://app?vid=8ad9234e-001a-4549-8bba-9baf2ef98804","ios":"levelo://app?vid=8ad9234e-001a-4549-8bba-9baf2ef98804"},"vehicle_type_id":"4","last_reported":1750352956,"current_range_meters":0,"station_id":"","pricing_plan_id":"cebpf4jnsgd1na2vs0mg"},{"bike_id":"05172c24-6dde-4907-8af6-01d0e481b4de","system_id":"levelo_inurba_marseille","lat":43.22502,"lon":5.34783,"is_reserved":false,"is_disabled":true,"rental_uris":{"android":"levelo://app?vid=05172c24-6dde-4907-8af6-01d0e481b4de","ios":"levelo://app?vid=05172c24-6dde-4907-8af6-01d0e481b4de"},"vehicle_type_id":"4","last_reported":1750352956,"current_range_meters":0,"station_id":"","pricing_plan_id":"cebpf4jnsgd1na2vs0mg"},{"bike_id":"b58d4042-ad6d-475d-9294-4c78bdfd2d0a","system_id":"levelo_inurba_marseille","lat":43.28076,"lon":5.35239,"is_reserved":false,"is_disabled":true,"rental_uris":{"android":"levelo://app?vid=b58d4042-ad6d-475d-9294-4c78bdfd2d0a","ios":"levelo://app?vid=b58d4042-ad6d-475d-9294-4c78bdfd2d0a"},"vehicle_type_id":"4","last_reported":1750352956,"current_range_meters":0,"station_id":"","pricing_plan_id":"cebpf4jnsgd1na2vs0mg"},{"bike_id":"47196f00-388f-4b3b-a4de-3dba126cd107","system_id":"levelo_inurba_marseille","lat":43.24398,"lon":5.41164,"is_reserved":false,"is_disabled":true,"rental_uris":{"android":"levelo://app?vid=47196f00-388f-4b3b-a4de-3dba126cd107","ios":"levelo://app?vid=47196f00-388f-4b3b-a4de-3dba126cd107"},"vehicle_type_id":"4","last_reported":1750352956,"current_range_meters":0,"station_id":"","pricing_plan_id":"cebpf4jnsgd1na2vs0mg"},{"bike_id":"4fa45ca6-f376-4694-b527-69a47b552011","system_id":"levelo_inurba_marseille","lat":43.28321,"lon":5.38988,"is_reserved":false,"is_disabled":true,"rental_uris":{"android":"levelo://app?vid=4fa45ca6-f376-4694-b527-69a47b552011","ios":"levelo://app?vid=4fa45ca6-f376-4694-b527-69a47b552011"},"vehicle_type_id":"4","last_reported":1750352956,"current_range_meters":0,"station_id":"","pricing_plan_id":"cebpf4jnsgd1na2vs0mg"},{"bike_id":"d6609b4f-333b-43c1-9ebe-8726f5e76e88","system_id":"levelo_inurba_marseille","lat":43.337444,"lon":5.374475,"is_reserved":false,"is_disabled":true,"rental_uris":{"android":"levelo://app?vid=d6609b4f-333b-43c1-9ebe-8726f5e76e88","ios":"levelo://app?vid=d6609b4f-333b-43c1-9ebe-8726f5e76e88"},"vehicle_type_id":"4","last_reported":1750352956,"current_range_meters":0,"station_id":"","pricing_plan_id":"cebpf4jnsgd1na2vs0mg"},{"bike_id":"57c83ce1-960e-466a-b6c5-d93bc130c53a","system_id":"levelo_inurba_marseille","lat":43.24908,"lon":5.38969,"is_reserved":false,"is_disabled":true,"rental_uris":{"android":"levelo://app?vid=57c83ce1-960e-466a-b6c5-d93bc130c53a","ios":"levelo://app?vid=57c83ce1-960e-466a-b6c5-d93bc130c53a"},"vehicle_type_id":"4","last_reported":1750352956,"current_range_meters":0,"station_id":"","pricing_plan_id":"cebpf4jnsgd1na2vs0mg"},{"bike_id":"9418f815-108b-4cdd-8e3f-497fca24fc63","system_id":"levelo_inurba_marseille","lat":43.29799,"lon":5.3811,"is_reserved":false,"is_disabled":true,"rental_uris":{"android":"levelo://app?vid=9418f815-108b-4cdd-8e3f-497fca24fc63","ios":"levelo://app?vid=9418f815-108b-4cdd-8e3f-497fca24fc63"},"vehicle_type_id":"4","last_reported":1750352956,"current_range_meters":0,"station_id":"ce4bgip2rcd13ifvqbb0","pricing_plan_id":"cebpf4jnsgd1na2vs0mg"},{"bike_id":"a86676e5-c9c7-4a6d-bf6f-209e718e5133","system_id":"levelo_inurba_marseille","lat":43.296439,"lon":5.405687,"is_reserved":false,"is_disabled":true,"rental_uris":{"android":"levelo://app?vid=a86676e5-c9c7-4a6d-bf6f-209e718e5133","ios":"levelo://app?vid=a86676e5-c9c7-4a6d-bf6f-209e718e5133"},"vehicle_type_id":"4","last_reported":1750352956,"current_range_meters":0,"station_id":"ce4bh0h2rcd13ifvqd60","pricing_plan_id":"cebpf4jnsgd1na2vs0mg"},{"bike_id":"db36f56e-fe5c-47eb-811d-82071741e9f6","system_id":"levelo_inurba_marseille","lat":43.305988,"lon":5.393592,"is_reserved":false,"is_disabled":true,"rental_uris":{"android":"levelo://app?vid=db36f56e-fe5c-47eb-811d-82071741e9f6","ios":"levelo://app?vid=db36f56e-fe5c-47eb-811d-82071741e9f6"},"vehicle_type_id":"4","last_reported":1750352956,"current_range_meters":0,"station_id":"ce4bh0p2rcd13ifvqd80","pricing_plan_id":"cebpf4jnsgd1na2vs0mg"},{"bike_id":"65d519af-b269-4fa8-b9c2-ec10a8b03d3c","system_id":"levelo_inurba_marseille","lat":43.28734,"lon":5.37937,"is_reserved":false,"is_disabled":true,"rental_uris":{"android":"levelo://app?vid=65d519af-b269-4fa8-b9c2-ec10a8b03d3c","ios":"levelo://app?vid=65d519af-b269-4fa8-b9c2-ec10a8b03d3c"},"vehicle_type_id":"4","last_reported":1750352956,"current_range_meters":0,"station_id":"ce4bh9p2rcd13ifvqec0","pricing_plan_id":"cebpf4jnsgd1na2vs0mg"},{"bike_id":"ce15a002-e725-468f-8b6d-691ecc9c2e4b","system_id":"levelo_inurba_marseille","lat":43.291962,"lon":5.357985,"is_reserved":false,"is_disabled":false,"rental_uris":{"android":"levelo://app?vid=ce15a002-e725-468f-8b6d-691ecc9c2e4b","ios":"levelo://app?vid=ce15a002-e725-468f-8b6d-691ecc9c2e4b"},"vehicle_type_id":"4","last_reported":1750352956,"current_range_meters":0,"station_id":"ce4bhb12rcd13ifvqel0","pricing_plan_id":"cebpf4jnsgd1na2vs0mg"},{"bike_id":"04c53c06-3686-4dd9-b94a-280c3298f885","system_id":"levelo_inurba_marseille","lat":43.28858,"lon":5.35854,"is_reserved":false,"is_disabled":true,"rental_uris":{"android":"levelo://app?vid=04c53c06-3686-4dd9-b94a-280c3298f885","ios":"levelo://app?vid=04c53c06-3686-4dd9-b94a-280c3298f885"},"vehicle_type_id":"4","last_reported":1750352956,"current_range_meters":0,"station_id":"ce4bhb12rcd13ifvqem0","pricing_plan_id":"cebpf4jnsgd1na2vs0mg"},{"bike_id":"78708411-92e3-4280-8832-3033d701eaa6","system_id":"levelo_inurba_marseille","lat":43.29004,"lon":5.35615,"is_reserved":false,"is_disabled":true,"rental_uris":{"android":"levelo://app?vid=78708411-92e3-4280-8832-3033d701eaa6","ios":"levelo://app?vid=78708411-92e3-4280-8832-3033d701eaa6"},"vehicle_type_id":"4","last_reported":1750352956,"current_range_meters":0,"station_id":"ce4bhb92rcd13ifvqen0","pricing_plan_id":"cebpf4jnsgd1na2vs0mg"},{"bike_id":"3d64c4cb-8fc3-4c96-baf4-89c8e2a81f94","system_id":"levelo_inurba_marseille","lat":43.29007,"lon":5.35606,"is_reserved":false,"is_disabled":true,"rental_uris":{"android":"levelo://app?vid=3d64c4cb-8fc3-4c96-baf4-89c8e2a81f94","ios":"levelo://app?vid=3d64c4cb-8fc3-4c96-baf4-89c8e2a81f94"},"vehicle_type_id":"4","last_reported":1750352956,"current_range_meters":0,"station_id":"ce4bhb92rcd13ifvqen0","pricing_plan_id":"cebpf4jnsgd1na2vs0mg"},{"bike_id":"26cc00fc-2ffe-41f0-a929-942129b6e56d","system_id":"levelo_inurba_marseille","lat":43.2827,"lon":5.35079,"is_reserved":false,"is_disabled":true,"rental_uris":{"android":"levelo://app?vid=26cc00fc-2ffe-41f0-a929-942129b6e56d","ios":"levelo://app?vid=26cc00fc-2ffe-41f0-a929-942129b6e56d"},"vehicle_type_id":"4","last_reported":1750352956,"current_range_meters":0,"station_id":"ce4bhbp2rcd13ifvqerg","pricing_plan_id":"cebpf4jnsgd1na2vs0mg"},{"bike_id":"d2798c17-aab9-41ed-8682-3c9f3602033a","system_id":"levelo_inurba_marseille","lat":43.26559,"lon":5.37281,"is_reserved":false,"is_disabled":true,"rental_uris":{"android":"levelo://app?vid=d2798c17-aab9-41ed-8682-3c9f3602033a","ios":"levelo://app?vid=d2798c17-aab9-41ed-8682-3c9f3602033a"},"vehicle_type_id":"4","last_reported":1750352956,"current_range_meters":0,"station_id":"ce4bhg12rcd13ifvqf70","pricing_plan_id":"cebpf4jnsgd1na2vs0mg"},{"bike_id":"9b6f13e1-4521-4f67-99fe-5e013c3159f1","system_id":"levelo_inurba_marseille","lat":43.26209,"lon":5.37441,"is_reserved":false,"is_disabled":true,"rental_uris":{"android":"levelo://app?vid=9b6f13e1-4521-4f67-99fe-5e013c3159f1","ios":"levelo://app?vid=9b6f13e1-4521-4f67-99fe-5e013c3159f1"},"vehicle_type_id":"4","last_reported":1750352956,"current_range_meters":0,"station_id":"ce4bhgp2rcd13ifvqfc0","pricing_plan_id":"cebpf4jnsgd1na2vs0mg"},{"bike_id":"4e832bed-3b35-4fb4-b7d4-eabbd8834227","system_id":"levelo_inurba_marseille","lat":43.25003,"lon":5.38946,"is_reserved":false,"is_disabled":true,"rental_uris":{"android":"levelo://app?vid=4e832bed-3b35-4fb4-b7d4-eabbd8834227","ios":"levelo://app?vid=4e832bed-3b35-4fb4-b7d4-eabbd8834227"},"vehicle_type_id":"4","last_reported":1750352956,"current_range_meters":0,"station_id":"ce4bhgp2rcd13ifvqfd0","pricing_plan_id":"cebpf4jnsgd1na2vs0mg"},{"bike_id":"5f8340d1-4669-438b-a096-4cea952edcda","system_id":"levelo_inurba_marseille","lat":43.25501,"lon":5.3765,"is_reserved":false,"is_disabled":true,"rental_uris":{"android":"levelo://app?vid=5f8340d1-4669-438b-a096-4cea952edcda","ios":"levelo://app?vid=5f8340d1-4669-438b-a096-4cea952edcda"},"vehicle_type_id":"4","last_reported":1750352956,"current_range_meters":0,"station_id":"ce4bhh12rcd13ifvqff0","pricing_plan_id":"cebpf4jnsgd1na2vs0mg"},{"bike_id":"5e06443a-7222-47ee-ac1d-7a75d3c2430e","system_id":"levelo_inurba_marseille","lat":43.27498,"lon":5.42448,"is_reserved":false,"is_disabled":true,"rental_uris":{"android":"levelo://app?vid=5e06443a-7222-47ee-ac1d-7a75d3c2430e","ios":"levelo://app?vid=5e06443a-7222-47ee-ac1d-7a75d3c2430e"},"vehicle_type_id":"4","last_reported":1750352956,"current_range_meters":0,"station_id":"ce4bhn92rcd13ifvqgrg","pricing_plan_id":"cebpf4jnsgd1na2vs0mg"},{"bike_id":"26b3ff76-101f-4251-ab64-e53344c3642d","system_id":"levelo_inurba_marseille","lat":43.28157,"lon":5.42633,"is_reserved":false,"is_disabled":true,"rental_uris":{"android":"levelo://app?vid=26b3ff76-101f-4251-ab64-e53344c3642d","ios":"levelo://app?vid=26b3ff76-101f-4251-ab64-e53344c3642d"},"vehicle_type_id":"4","last_reported":1750352956,"current_range_meters":0,"station_id":"ce4bhnh2rcd13ifvqgug","pricing_plan_id":"cebpf4jnsgd1na2vs0mg"},{"bike_id":"8c6e88d3-e5e2-49f6-8326-c9bd44af82c0","system_id":"levelo_inurba_marseille","lat":43.28155,"lon":5.42641,"is_reserved":false,"is_disabled":true,"rental_uris":{"android":"levelo://app?vid=8c6e88d3-e5e2-49f6-8326-c9bd44af82c0","ios":"levelo://app?vid=8c6e88d3-e5e2-49f6-8326-c9bd44af82c0"},"vehicle_type_id":"4","last_reported":1750352956,"current_range_meters":0,"station_id":"ce4bhnh2rcd13ifvqgug","pricing_plan_id":"cebpf4jnsgd1na2vs0mg"},{"bike_id":"9d425c7e-32c7-4f1e-90c9-a8b24e08c6e7","system_id":"levelo_inurba_marseille","lat":43.3042,"lon":5.41275,"is_reserved":false,"is_disabled":true,"rental_uris":{"android":"levelo://app?vid=9d425c7e-32c7-4f1e-90c9-a8b24e08c6e7","ios":"levelo://app?vid=9d425c7e-32c7-4f1e-90c9-a8b24e08c6e7"},"vehicle_type_id":"4","last_reported":1750352956,"current_range_meters":0,"station_id":"ce4bhop2rcd13ifvqh8g","pricing_plan_id":"cebpf4jnsgd1na2vs0mg"},{"bike_id":"4ce5b165-f22d-40cf-abd3-1cb294861955","system_id":"levelo_inurba_marseille","lat":43.21195,"lon":5.350813,"is_reserved":false,"is_disabled":true,"rental_uris":{"android":"levelo://app?vid=4ce5b165-f22d-40cf-abd3-1cb294861955","ios":"levelo://app?vid=4ce5b165-f22d-40cf-abd3-1cb294861955"},"vehicle_type_id":"4","last_reported":1750352956,"current_range_meters":0,"station_id":"st_cvj6sg6p6f1abm77japg","pricing_plan_id":"cebpf4jnsgd1na2vs0mg"},{"bike_id":"3bbb3ce5-c63f-42a2-b2a1-470bb9065f9e","system_id":"levelo_inurba_marseille","lat":43.21188,"lon":5.35069,"is_reserved":false,"is_disabled":true,"rental_uris":{"android":"levelo://app?vid=3bbb3ce5-c63f-42a2-b2a1-470bb9065f9e","ios":"levelo://app?vid=3bbb3ce5-c63f-42a2-b2a1-470bb9065f9e"},"vehicle_type_id":"4","last_reported":1750352956,"current_range_meters":0,"station_id":"st_cvj6sg6p6f1abm77japg","pricing_plan_id":"cebpf4jnsgd1na2vs0mg"},{"bike_id":"32d55e80-ceda-4026-baa1-e3b96cec02cb","system_id":"levelo_inurba_marseille","lat":43.25425,"lon":5.37581,"is_reserved":false,"is_disabled":true,"rental_uris":{"android":"levelo://app?vid=32d55e80-ceda-4026-baa1-e3b96cec02cb","ios":"levelo://app?vid=32d55e80-ceda-4026-baa1-e3b96cec02cb"},"vehicle_type_id":"4","last_reported":1750352956,"current_range_meters":400,"station_id":"","pricing_plan_id":"cebpf4jnsgd1na2vs0mg"},{"bike_id":"30316bad-a458-4335-ba47-5e85d02a7f95","system_id":"levelo_inurba_marseille","lat":43.29007,"lon":5.35611,"is_reserved":false,"is_disabled":true,"rental_uris":{"android":"levelo://app?vid=30316bad-a458-4335-ba47-5e85d02a7f95","ios":"levelo://app?vid=30316bad-a458-4335-ba47-5e85d02a7f95"},"vehicle_type_id":"4","last_reported":1750352956,"current_range_meters":400,"station_id":"ce4bhb92rcd13ifvqen0","pricing_plan_id":"cebpf4jnsgd1na2vs0mg"},{"bike_id":"77dfaf7d-d553-45be-bcf0-21dd7417a2ad","system_id":"levelo_inurba_marseille","lat":43.2861,"lon":5.35118,"is_reserved":false,"is_disabled":true,"rental_uris":{"android":"levelo://app?vid=77dfaf7d-d553-45be-bcf0-21dd7417a2ad","ios":"levelo://app?vid=77dfaf7d-d553-45be-bcf0-21dd7417a2ad"},"vehicle_type_id":"4","last_reported":1750352956,"current_range_meters":400,"station_id":"ce4bhch2rcd13ifvqeug","pricing_plan_id":"cebpf4jnsgd1na2vs0mg"},{"bike_id":"8a4cb7fd-5487-4e2b-ae4c-d6b822893012","system_id":"levelo_inurba_marseille","lat":43.254908,"lon":5.376494,"is_reserved":false,"is_disabled":true,"rental_uris":{"android":"levelo://app?vid=8a4cb7fd-5487-4e2b-ae4c-d6b822893012","ios":"levelo://app?vid=8a4cb7fd-5487-4e2b-ae4c-d6b822893012"},"vehicle_type_id":"4","last_reported":1750352956,"current_range_meters":400,"station_id":"ce4bhh12rcd13ifvqff0","pricing_plan_id":"cebpf4jnsgd1na2vs0mg"},{"bike_id":"1ee8bf93-7ae9-4776-8d82-ffcd42c6e6c8","system_id":"levelo_inurba_marseille","lat":43.28153,"lon":5.4264,"is_reserved":false,"is_disabled":true,"rental_uris":{"android":"levelo://app?vid=1ee8bf93-7ae9-4776-8d82-ffcd42c6e6c8","ios":"levelo://app?vid=1ee8bf93-7ae9-4776-8d82-ffcd42c6e6c8"},"vehicle_type_id":"4","last_reported":1750352956,"current_range_meters":400,"station_id":"ce4bhnh2rcd13ifvqgug","pricing_plan_id":"cebpf4jnsgd1na2vs0mg"},{"bike_id":"d4b2375e-15c2-4b2f-a628-6d423b46231b","system_id":"levelo_inurba_marseille","lat":43.24283,"lon":5.41179,"is_reserved":false,"is_disabled":true,"rental_uris":{"android":"levelo://app?vid=d4b2375e-15c2-4b2f-a628-6d423b46231b","ios":"levelo://app?vid=d4b2375e-15c2-4b2f-a628-6d423b46231b"},"vehicle_type_id":"4","last_reported":1750352956,"current_range_meters":800,"station_id":"","pricing_plan_id":"cebpf4jnsgd1na2vs0mg"},{"bike_id":"64b8b83e-503a-4015-b7c1-3bd9b6c0bb97","system_id":"levelo_inurba_marseille","lat":43.30337,"lon":5.45154,"is_reserved":false,"is_disabled":true,"rental_uris":{"android":"levelo://app?vid=64b8b83e-503a-4015-b7c1-3bd9b6c0bb97","ios":"levelo://app?vid=64b8b83e-503a-4015-b7c1-3bd9b6c0bb97"},"vehicle_type_id":"4","last_reported":1750352956,"current_range_meters":800,"station_id":"","pricing_plan_id":"cebpf4jnsgd1na2vs0mg"},{"bike_id":"38e8a929-25c4-422c-9f04-e1f8ba1e563a","system_id":"levelo_inurba_marseille","lat":43.28673,"lon":5.38657,"is_reserved":false,"is_disabled":true,"rental_uris":{"android":"levelo://app?vid=38e8a929-25c4-422c-9f04-e1f8ba1e563a","ios":"levelo://app?vid=38e8a929-25c4-422c-9f04-e1f8ba1e563a"},"vehicle_type_id":"4","last_reported":1750352956,"current_range_meters":800,"station_id":"ce4bh492rcd13ifvqdug","pricing_plan_id":"cebpf4jnsgd1na2vs0mg"},{"bike_id":"c053db7c-e4a8-49d0-bcef-f84e07eb7869","system_id":"levelo_inurba_marseille","lat":43.29166,"lon":5.37165,"is_reserved":false,"is_disabled":true,"rental_uris":{"android":"levelo://app?vid=c053db7c-e4a8-49d0-bcef-f84e07eb7869","ios":"levelo://app?vid=c053db7c-e4a8-49d0-bcef-f84e07eb7869"},"vehicle_type_id":"4","last_reported":1750352956,"current_range_meters":800,"station_id":"ce4bha92rcd13ifvqeh0","pricing_plan_id":"cebpf4jnsgd1na2vs0mg"},{"bike_id":"ce83de73-7a24-4fd3-95c2-2e4ea237df1a","system_id":"levelo_inurba_marseille","lat":43.29008,"lon":5.35611,"is_reserved":false,"is_disabled":true,"rental_uris":{"android":"levelo://app?vid=ce83de73-7a24-4fd3-95c2-2e4ea237df1a","ios":"levelo://app?vid=ce83de73-7a24-4fd3-95c2-2e4ea237df1a"},"vehicle_type_id":"4","last_reported":1750352956,"current_range_meters":800,"station_id":"ce4bhb92rcd13ifvqen0","pricing_plan_id":"cebpf4jnsgd1na2vs0mg"},{"bike_id":"e85a496e-e99e-437c-b0f5-7edcccc75b7f","system_id":"levelo_inurba_marseille","lat":43.28643,"lon":5.35071,"is_reserved":false,"is_disabled":true,"rental_uris":{"android":"levelo://app?vid=e85a496e-e99e-437c-b0f5-7edcccc75b7f","ios":"levelo://app?vid=e85a496e-e99e-437c-b0f5-7edcccc75b7f"},"vehicle_type_id":"4","last_reported":1750352956,"current_range_meters":800,"station_id":"ce4bhch2rcd13ifvqeug","pricing_plan_id":"cebpf4jnsgd1na2vs0mg"},{"bike_id":"9f330ac5-5f1d-46ed-a6b0-51cde3054b1a","system_id":"levelo_inurba_marseille","lat":43.21192,"lon":5.35063,"is_reserved":false,"is_disabled":true,"rental_uris":{"android":"levelo://app?vid=9f330ac5-5f1d-46ed-a6b0-51cde3054b1a","ios":"levelo://app?vid=9f330ac5-5f1d-46ed-a6b0-51cde3054b1a"},"vehicle_type_id":"4","last_reported":1750352956,"current_range_meters":800,"station_id":"st_cvj6sg6p6f1abm77japg","pricing_plan_id":"cebpf4jnsgd1na2vs0mg"},{"bike_id":"74d82a61-8977-44d7-91fb-d1fff9378189","system_id":"levelo_inurba_marseille","lat":43.30476,"lon":5.3791,"is_reserved":false,"is_disabled":true,"rental_uris":{"android":"levelo://app?vid=74d82a61-8977-44d7-91fb-d1fff9378189","ios":"levelo://app?vid=74d82a61-8977-44d7-91fb-d1fff9378189"},"vehicle_type_id":"4","last_reported":1750352956,"current_range_meters":1200,"station_id":"ce4bgup2rcd13ifvqcn0","pricing_plan_id":"cebpf4jnsgd1na2vs0mg"},{"bike_id":"188f7f1e-a7ec-4c0c-93ce-c87fe7c61c3f","system_id":"levelo_inurba_marseille","lat":43.28671,"lon":5.38682,"is_reserved":false,"is_disabled":true,"rental_uris":{"android":"levelo://app?vid=188f7f1e-a7ec-4c0c-93ce-c87fe7c61c3f","ios":"levelo://app?vid=188f7f1e-a7ec-4c0c-93ce-c87fe7c61c3f"},"vehicle_type_id":"4","last_reported":1750352956,"current_range_meters":1200,"station_id":"ce4bh492rcd13ifvqdug","pricing_plan_id":"cebpf4jnsgd1na2vs0mg"},{"bike_id":"cc458d74-7df3-465d-9dd3-9a940b65cbd9","system_id":"levelo_inurba_marseille","lat":43.290307,"lon":5.386464,"is_reserved":false,"is_disabled":false,"rental_uris":{"android":"levelo://app?vid=cc458d74-7df3-465d-9dd3-9a940b65cbd9","ios":"levelo://app?vid=cc458d74-7df3-465d-9dd3-9a940b65cbd9"},"vehicle_type_id":"4","last_reported":1750352956,"current_range_meters":1200,"station_id":"ce4bh4p2rcd13ifvqe0g","pricing_plan_id":"cebpf4jnsgd1na2vs0mg"},{"bike_id":"4b24b5ea-bba0-44a0-8b27-72ed24d060a7","system_id":"levelo_inurba_marseille","lat":43.28934,"lon":5.366333,"is_reserved":false,"is_disabled":true,"rental_uris":{"android":"levelo://app?vid=4b24b5ea-bba0-44a0-8b27-72ed24d060a7","ios":"levelo://app?vid=4b24b5ea-bba0-44a0-8b27-72ed24d060a7"},"vehicle_type_id":"4","last_reported":1750352956,"current_range_meters":1200,"station_id":"ce4bhap2rcd13ifvqek0","pricing_plan_id":"cebpf4jnsgd1na2vs0mg"},{"bike_id":"532eff17-0b1f-46f9-a259-7294212ae2f9","system_id":"levelo_inurba_marseille","lat":43.24385,"lon":5.37061,"is_reserved":false,"is_disabled":true,"rental_uris":{"android":"levelo://app?vid=532eff17-0b1f-46f9-a259-7294212ae2f9","ios":"levelo://app?vid=532eff17-0b1f-46f9-a259-7294212ae2f9"},"vehicle_type_id":"4","last_reported":1750352956,"current_range_meters":1200,"station_id":"ce4bhhh2rcd13ifvqfk0","pricing_plan_id":"cebpf4jnsgd1na2vs0mg"},{"bike_id":"1eec3ee7-be9a-4a3b-bb48-690da6f0d415","system_id":"levelo_inurba_marseille","lat":43.25719,"lon":5.41109,"is_reserved":false,"is_disabled":true,"rental_uris":{"android":"levelo://app?vid=1eec3ee7-be9a-4a3b-bb48-690da6f0d415","ios":"levelo://app?vid=1eec3ee7-be9a-4a3b-bb48-690da6f0d415"},"vehicle_type_id":"4","last_reported":1750352956,"current_range_meters":1200,"station_id":"ce4bhkp2rcd13ifvqgd0","pricing_plan_id":"cebpf4jnsgd1na2vs0mg"},{"bike_id":"f18c29c6-2ee1-4d44-80b6-5e6054d90014","system_id":"levelo_inurba_marseille","lat":43.28446,"lon":5.3919,"is_reserved":false,"is_disabled":true,"rental_uris":{"android":"levelo://app?vid=f18c29c6-2ee1-4d44-80b6-5e6054d90014","ios":"levelo://app?vid=f18c29c6-2ee1-4d44-80b6-5e6054d90014"},"vehicle_type_id":"4","last_reported":1750352956,"current_range_meters":1200,"station_id":"ce4bhoh2rcd13ifvqh5g","pricing_plan_id":"cebpf4jnsgd1na2vs0mg"},{"bike_id":"4b1fc294-83df-4329-a681-92774d4d6015","system_id":"levelo_inurba_marseille","lat":43.28426,"lon":5.37505,"is_reserved":false,"is_disabled":true,"rental_uris":{"android":"levelo://app?vid=4b1fc294-83df-4329-a681-92774d4d6015","ios":"levelo://app?vid=4b1fc294-83df-4329-a681-92774d4d6015"},"vehicle_type_id":"4","last_reported":1750352956,"current_range_meters":1600,"station_id":"ce4bh412rcd13ifvqds0","pricing_plan_id":"cebpf4jnsgd1na2vs0mg"},{"bike_id":"e1e5c91f-a4af-419d-836e-36384e77d4c4","system_id":"levelo_inurba_marseille","lat":43.28616,"lon":5.35108,"is_reserved":false,"is_disabled":true,"rental_uris":{"android":"levelo://app?vid=e1e5c91f-a4af-419d-836e-36384e77d4c4","ios":"levelo://app?vid=e1e5c91f-a4af-419d-836e-36384e77d4c4"},"vehicle_type_id":"4","last_reported":1750352956,"current_range_meters":1600,"station_id":"ce4bhch2rcd13ifvqeug","pricing_plan_id":"cebpf4jnsgd1na2vs0mg"},{"bike_id":"da67666b-b6db-4f43-9ef0-af90e8d5c9d3","system_id":"levelo_inurba_marseille","lat":43.281465,"lon":5.42657,"is_reserved":false,"is_disabled":true,"rental_uris":{"android":"levelo://app?vid=da67666b-b6db-4f43-9ef0-af90e8d5c9d3","ios":"levelo://app?vid=da67666b-b6db-4f43-9ef0-af90e8d5c9d3"},"vehicle_type_id":"4","last_reported":1750352956,"current_range_meters":1600,"station_id":"ce4bhnh2rcd13ifvqgug","pricing_plan_id":"cebpf4jnsgd1na2vs0mg"},{"bike_id":"f9244c41-5799-4018-be90-86a0f42f0d54","system_id":"levelo_inurba_marseille","lat":43.24804,"lon":5.37454,"is_reserved":false,"is_disabled":true,"rental_uris":{"android":"levelo://app?vid=f9244c41-5799-4018-be90-86a0f42f0d54","ios":"levelo://app?vid=f9244c41-5799-4018-be90-86a0f42f0d54"},"vehicle_type_id":"4","last_reported":1750352956,"current_range_meters":2000,"station_id":"ce4bhgh2rcd13ifvqfb0","pricing_plan_id":"cebpf4jnsgd1na2vs0mg"},{"bike_id":"fe4cdbe5-dcb1-4249-8328-507c4dca977e","system_id":"levelo_inurba_marseille","lat":43.330247,"lon":5.390453,"is_reserved":false,"is_disabled":true,"rental_uris":{"android":"levelo://app?vid=fe4cdbe5-dcb1-4249-8328-507c4dca977e","ios":"levelo://app?vid=fe4cdbe5-dcb1-4249-8328-507c4dca977e"},"vehicle_type_id":"4","last_reported":1750352956,"current_range_meters":2000,"station_id":"ce4bhr92rcd13ifvqhrg","pricing_plan_id":"cebpf4jnsgd1na2vs0mg"},{"bike_id":"ec01be80-b228-49a9-bb2c-57dc2fb1f199","system_id":"levelo_inurba_marseille","lat":43.27278,"lon":5.41018,"is_reserved":false,"is_disabled":false,"rental_uris":{"android":"levelo://app?vid=ec01be80-b228-49a9-bb2c-57dc2fb1f199","ios":"levelo://app?vid=ec01be80-b228-49a9-bb2c-57dc2fb1f199"},"vehicle_type_id":"4","last_reported":1750352956,"current_range_meters":2800,"station_id":"","pricing_plan_id":"cebpf4jnsgd1na2vs0mg"},{"bike_id":"8e39977d-1891-4d74-b4c5-9046a27cf914","system_id":"levelo_inurba_marseille","lat":43.2971,"lon":5.37697,"is_reserved":false,"is_disabled":false,"rental_uris":{"android":"levelo://app?vid=8e39977d-1891-4d74-b4c5-9046a27cf914","ios":"levelo://app?vid=8e39977d-1891-4d74-b4c5-9046a27cf914"},"vehicle_type_id":"4","last_reported":1750352956,"current_range_meters":2800,"station_id":"ce4bgkh2rcd13ifvqbl0","pricing_plan_id":"cebpf4jnsgd1na2vs0mg"},{"bike_id":"fd0ae6f1-7474-444f-8535-bfcfcedb6a1d","system_id":"levelo_inurba_marseille","lat":43.29867,"lon":5.38901,"is_reserved":false,"is_disabled":false,"rental_uris":{"android":"levelo://app?vid=fd0ae6f1-7474-444f-8535-bfcfcedb6a1d","ios":"levelo://app?vid=fd0ae6f1-7474-444f-8535-bfcfcedb6a1d"},"vehicle_type_id":"4","last_reported":1750352956,"current_range_meters":2800,"station_id":"ce4bh392rcd13ifvqdl0","pricing_plan_id":"cebpf4jnsgd1na2vs0mg"},{"bike_id":"a8176dae-213e-4eeb-a89d-f180a7f9b895","system_id":"levelo_inurba_marseille","lat":43.231757,"lon":5.399848,"is_reserved":false,"is_disabled":false,"rental_uris":{"android":"levelo://app?vid=a8176dae-213e-4eeb-a89d-f180a7f9b895","ios":"levelo://app?vid=a8176dae-213e-4eeb-a89d-f180a7f9b895"},"vehicle_type_id":"4","last_reported":1750352956,"current_range_meters":2800,"station_id":"ce4bhn12rcd13ifvqgqg","pricing_plan_id":"cebpf4jnsgd1na2vs0mg"},{"bike_id":"9fd53913-aec8-4e1d-a50a-4d013d1dd0cd","system_id":"levelo_inurba_marseille","lat":43.25496,"lon":5.37649,"is_reserved":false,"is_disabled":false,"rental_uris":{"android":"levelo://app?vid=9fd53913-aec8-4e1d-a50a-4d013d1dd0cd","ios":"levelo://app?vid=9fd53913-aec8-4e1d-a50a-4d013d1dd0cd"},"vehicle_type_id":"4","last_reported":1750352956,"current_range_meters":3200,"station_id":"ce4bhh12rcd13ifvqff0","pricing_plan_id":"cebpf4jnsgd1na2vs0mg"},{"bike_id":"e735954c-c253-4b33-859a-85b511161fa3","system_id":"levelo_inurba_marseille","lat":43.30357,"lon":5.41879,"is_reserved":false,"is_disabled":false,"rental_uris":{"android":"levelo://app?vid=e735954c-c253-4b33-859a-85b511161fa3","ios":"levelo://app?vid=e735954c-c253-4b33-859a-85b511161fa3"},"vehicle_type_id":"4","last_reported":1750352956,"current_range_meters":3200,"station_id":"ce4bhop2rcd13ifvqh7g","pricing_plan_id":"cebpf4jnsgd1na2vs0mg"},{"bike_id":"ceb1f9f7-8d2a-43e2-8c7e-b9d75e037192","system_id":"levelo_inurba_marseille","lat":43.30813,"lon":5.43533,"is_reserved":false,"is_disabled":false,"rental_uris":{"android":"levelo://app?vid=ceb1f9f7-8d2a-43e2-8c7e-b9d75e037192","ios":"levelo://app?vid=ceb1f9f7-8d2a-43e2-8c7e-b9d75e037192"},"vehicle_type_id":"4","last_reported":1750352956,"current_range_meters":3200,"station_id":"ce4bhph2rcd13ifvqheg","pricing_plan_id":"cebpf4jnsgd1na2vs0mg"},{"bike_id":"414946a3-7c39-4fbd-a6bf-6cb7fa559ab5","system_id":"levelo_inurba_marseille","lat":43.30325,"lon":5.40442,"is_reserved":false,"is_disabled":false,"rental_uris":{"android":"levelo://app?vid=414946a3-7c39-4fbd-a6bf-6cb7fa559ab5","ios":"levelo://app?vid=414946a3-7c39-4fbd-a6bf-6cb7fa559ab5"},"vehicle_type_id":"4","last_reported":1750352956,"current_range_meters":3600,"station_id":"ce4bh012rcd13ifvqd10","pricing_plan_id":"cebpf4jnsgd1na2vs0mg"},{"bike_id":"3916d2b9-675e-48f6-a5b1-3b54efca7c34","system_id":"levelo_inurba_marseille","lat":43.28407,"lon":5.34985,"is_reserved":false,"is_disabled":false,"rental_uris":{"android":"levelo://app?vid=3916d2b9-675e-48f6-a5b1-3b54efca7c34","ios":"levelo://app?vid=3916d2b9-675e-48f6-a5b1-3b54efca7c34"},"vehicle_type_id":"4","last_reported":1750352956,"current_range_meters":3600,"station_id":"ce4bhbh2rcd13ifvqepg","pricing_plan_id":"cebpf4jnsgd1na2vs0mg"},{"bike_id":"3efe99ee-8fdb-4bf6-8e88-bd92dd5fbc09","system_id":"levelo_inurba_marseille","lat":43.28412,"lon":5.34985,"is_reserved":false,"is_disabled":false,"rental_uris":{"android":"levelo://app?vid=3efe99ee-8fdb-4bf6-8e88-bd92dd5fbc09","ios":"levelo://app?vid=3efe99ee-8fdb-4bf6-8e88-bd92dd5fbc09"},"vehicle_type_id":"4","last_reported":1750352956,"current_range_meters":4000,"station_id":"ce4bhbh2rcd13ifvqepg","pricing_plan_id":"cebpf4jnsgd1na2vs0mg"},{"bike_id":"1ad4f537-f27f-41df-9935-37ac697a27ad","system_id":"levelo_inurba_marseille","lat":43.28417,"lon":5.35001,"is_reserved":false,"is_disabled":false,"rental_uris":{"android":"levelo://app?vid=1ad4f537-f27f-41df-9935-37ac697a27ad","ios":"levelo://app?vid=1ad4f537-f27f-41df-9935-37ac697a27ad"},"vehicle_type_id":"4","last_reported":1750352956,"current_range_meters":4000,"station_id":"ce4bhbh2rcd13ifvqepg","pricing_plan_id":"cebpf4jnsgd1na2vs0mg"},{"bike_id":"25b82605-42b3-4f31-8ef7-653ff9635c13","system_id":"levelo_inurba_marseille","lat":43.24803,"lon":5.37455,"is_reserved":false,"is_disabled":false,"rental_uris":{"android":"levelo://app?vid=25b82605-42b3-4f31-8ef7-653ff9635c13","ios":"levelo://app?vid=25b82605-42b3-4f31-8ef7-653ff9635c13"},"vehicle_type_id":"4","last_reported":1750352956,"current_range_meters":4000,"station_id":"ce4bhgh2rcd13ifvqfb0","pricing_plan_id":"cebpf4jnsgd1na2vs0mg"},{"bike_id":"7088954f-7ced-40cb-b94e-bf5aacad4207","system_id":"levelo_inurba_marseille","lat":43.23962,"lon":5.36635,"is_reserved":false,"is_disabled":false,"rental_uris":{"android":"levelo://app?vid=7088954f-7ced-40cb-b94e-bf5aacad4207","ios":"levelo://app?vid=7088954f-7ced-40cb-b94e-bf5aacad4207"},"vehicle_type_id":"4","last_reported":1750352956,"current_range_meters":4000,"station_id":"ce4bhi12rcd13ifvqfp0","pricing_plan_id":"cebpf4jnsgd1na2vs0mg"},{"bike_id":"957d5ecf-1f5b-4ead-bad6-ee89cf2a6190","system_id":"levelo_inurba_marseille","lat":43.32367,"lon":5.38881,"is_reserved":false,"is_disabled":false,"rental_uris":{"android":"levelo://app?vid=957d5ecf-1f5b-4ead-bad6-ee89cf2a6190","ios":"levelo://app?vid=957d5ecf-1f5b-4ead-bad6-ee89cf2a6190"},"vehicle_type_id":"4","last_reported":1750352956,"current_range_meters":4000,"station_id":"ce4bhqp2rcd13ifvqhog","pricing_plan_id":"cebpf4jnsgd1na2vs0mg"},{"bike_id":"f5953b48-f09f-4228-8c86-f1809ffc9172","system_id":"levelo_inurba_marseille","lat":43.29712,"lon":5.36613,"is_reserved":false,"is_disabled":false,"rental_uris":{"android":"levelo://app?vid=f5953b48-f09f-4228-8c86-f1809ffc9172","ios":"levelo://app?vid=f5953b48-f09f-4228-8c86-f1809ffc9172"},"vehicle_type_id":"4","last_reported":1750352956,"current_range_meters":4400,"station_id":"ce4bgn12rcd13ifvqbt0","pricing_plan_id":"cebpf4jnsgd1na2vs0mg"},{"bike_id":"16fd714f-e5af-4183-b764-7d5c713d1de5","system_id":"levelo_inurba_marseille","lat":43.30797,"lon":5.43519,"is_reserved":false,"is_disabled":false,"rental_uris":{"android":"levelo://app?vid=16fd714f-e5af-4183-b764-7d5c713d1de5","ios":"levelo://app?vid=16fd714f-e5af-4183-b764-7d5c713d1de5"},"vehicle_type_id":"4","last_reported":1750352956,"current_range_meters":4400,"station_id":"ce4bhph2rcd13ifvqheg","pricing_plan_id":"cebpf4jnsgd1na2vs0mg"},{"bike_id":"0195fbb9-dbca-4bec-a9d2-1967909850b9","system_id":"levelo_inurba_marseille","lat":43.30795,"lon":5.43527,"is_reserved":false,"is_disabled":false,"rental_uris":{"android":"levelo://app?vid=0195fbb9-dbca-4bec-a9d2-1967909850b9","ios":"levelo://app?vid=0195fbb9-dbca-4bec-a9d2-1967909850b9"},"vehicle_type_id":"4","last_reported":1750352956,"current_range_meters":4400,"station_id":"ce4bhph2rcd13ifvqheg","pricing_plan_id":"cebpf4jnsgd1na2vs0mg"},{"bike_id":"fc18b4da-6e9b-4f36-bbf2-f8656b399ce0","system_id":"levelo_inurba_marseille","lat":43.22929,"lon":5.35372,"is_reserved":false,"is_disabled":false,"rental_uris":{"android":"levelo://app?vid=fc18b4da-6e9b-4f36-bbf2-f8656b399ce0","ios":"levelo://app?vid=fc18b4da-6e9b-4f36-bbf2-f8656b399ce0"},"vehicle_type_id":"4","last_reported":1750352956,"current_range_meters":4400,"station_id":"cpo3532slgdg3j2ikp40","pricing_plan_id":"cebpf4jnsgd1na2vs0mg"},{"bike_id":"9480a9fc-4749-460f-a43f-32082860071c","system_id":"levelo_inurba_marseille","lat":43.286138,"lon":5.351167,"is_reserved":false,"is_disabled":false,"rental_uris":{"android":"levelo://app?vid=9480a9fc-4749-460f-a43f-32082860071c","ios":"levelo://app?vid=9480a9fc-4749-460f-a43f-32082860071c"},"vehicle_type_id":"4","last_reported":1750352956,"current_range_meters":4800,"station_id":"ce4bhch2rcd13ifvqeug","pricing_plan_id":"cebpf4jnsgd1na2vs0mg"},{"bike_id":"4b526510-a999-4a0a-9585-25a64582a56e","system_id":"levelo_inurba_marseille","lat":43.26561,"lon":5.37279,"is_reserved":false,"is_disabled":false,"rental_uris":{"android":"levelo://app?vid=4b526510-a999-4a0a-9585-25a64582a56e","ios":"levelo://app?vid=4b526510-a999-4a0a-9585-25a64582a56e"},"vehicle_type_id":"4","last_reported":1750352956,"current_range_meters":4800,"station_id":"ce4bhg12rcd13ifvqf70","pricing_plan_id":"cebpf4jnsgd1na2vs0mg"},{"bike_id":"ba8dee4f-3bb9-4932-82b6-fdd500c0fa0c","system_id":"levelo_inurba_marseille","lat":43.23964,"lon":5.3663,"is_reserved":false,"is_disabled":false,"rental_uris":{"android":"levelo://app?vid=ba8dee4f-3bb9-4932-82b6-fdd500c0fa0c","ios":"levelo://app?vid=ba8dee4f-3bb9-4932-82b6-fdd500c0fa0c"},"vehicle_type_id":"4","last_reported":1750352956,"current_range_meters":4800,"station_id":"ce4bhi12rcd13ifvqfp0","pricing_plan_id":"cebpf4jnsgd1na2vs0mg"},{"bike_id":"bfe6850b-847d-4d54-86ca-d74a2fb927c6","system_id":"levelo_inurba_marseille","lat":43.30417,"lon":5.41284,"is_reserved":false,"is_disabled":false,"rental_uris":{"android":"levelo://app?vid=bfe6850b-847d-4d54-86ca-d74a2fb927c6","ios":"levelo://app?vid=bfe6850b-847d-4d54-86ca-d74a2fb927c6"},"vehicle_type_id":"4","last_reported":1750352956,"current_range_meters":4800,"station_id":"ce4bhop2rcd13ifvqh8g","pricing_plan_id":"cebpf4jnsgd1na2vs0mg"},{"bike_id":"95462046-b931-410d-89ae-2f0093777b77","system_id":"levelo_inurba_marseille","lat":43.2901,"lon":5.35604,"is_reserved":false,"is_disabled":false,"rental_uris":{"android":"levelo://app?vid=95462046-b931-410d-89ae-2f0093777b77","ios":"levelo://app?vid=95462046-b931-410d-89ae-2f0093777b77"},"vehicle_type_id":"4","last_reported":1750352956,"current_range_meters":5600,"station_id":"ce4bhb92rcd13ifvqen0","pricing_plan_id":"cebpf4jnsgd1na2vs0mg"},{"bike_id":"5c5896fc-bfbd-411d-a205-36fe1e4c035f","system_id":"levelo_inurba_marseille","lat":43.28617,"lon":5.35108,"is_reserved":false,"is_disabled":false,"rental_uris":{"android":"levelo://app?vid=5c5896fc-bfbd-411d-a205-36fe1e4c035f","ios":"levelo://app?vid=5c5896fc-bfbd-411d-a205-36fe1e4c035f"},"vehicle_type_id":"4","last_reported":1750352956,"current_range_meters":5600,"station_id":"ce4bhch2rcd13ifvqeug","pricing_plan_id":"cebpf4jnsgd1na2vs0mg"},{"bike_id":"23f3feed-e6a0-4a28-bf48-8571d41ec480","system_id":"levelo_inurba_marseille","lat":43.31549,"lon":5.37478,"is_reserved":false,"is_disabled":false,"rental_uris":{"android":"levelo://app?vid=23f3feed-e6a0-4a28-bf48-8571d41ec480","ios":"levelo://app?vid=23f3feed-e6a0-4a28-bf48-8571d41ec480"},"vehicle_type_id":"4","last_reported":1750352956,"current_range_meters":6000,"station_id":"","pricing_plan_id":"cebpf4jnsgd1na2vs0mg"},{"bike_id":"c9fea170-259e-41bb-8a5f-5a6549d61067","system_id":"levelo_inurba_marseille","lat":43.286148,"lon":5.351166,"is_reserved":false,"is_disabled":false,"rental_uris":{"android":"levelo://app?vid=c9fea170-259e-41bb-8a5f-5a6549d61067","ios":"levelo://app?vid=c9fea170-259e-41bb-8a5f-5a6549d61067"},"vehicle_type_id":"4","last_reported":1750352956,"current_range_meters":6000,"station_id":"ce4bhch2rcd13ifvqeug","pricing_plan_id":"cebpf4jnsgd1na2vs0mg"},{"bike_id":"5758f02d-ab77-4076-9ccd-2538e67f35b9","system_id":"levelo_inurba_marseille","lat":43.301388,"lon":5.379786,"is_reserved":false,"is_disabled":false,"rental_uris":{"android":"levelo://app?vid=5758f02d-ab77-4076-9ccd-2538e67f35b9","ios":"levelo://app?vid=5758f02d-ab77-4076-9ccd-2538e67f35b9"},"vehicle_type_id":"4","last_reported":1750352956,"current_range_meters":6400,"station_id":"","pricing_plan_id":"cebpf4jnsgd1na2vs0mg"},{"bike_id":"a935851b-d0ca-477d-a262-db46cbc14a33","system_id":"levelo_inurba_marseille","lat":43.28975,"lon":5.36635,"is_reserved":false,"is_disabled":false,"rental_uris":{"android":"levelo://app?vid=a935851b-d0ca-477d-a262-db46cbc14a33","ios":"levelo://app?vid=a935851b-d0ca-477d-a262-db46cbc14a33"},"vehicle_type_id":"4","last_reported":1750352956,"current_range_meters":6400,"station_id":"","pricing_plan_id":"cebpf4jnsgd1na2vs0mg"},{"bike_id":"de0f7c2b-5974-4035-a240-8ed367c0e3f3","system_id":"levelo_inurba_marseille","lat":43.31961,"lon":5.37621,"is_reserved":false,"is_disabled":false,"rental_uris":{"android":"levelo://app?vid=de0f7c2b-5974-4035-a240-8ed367c0e3f3","ios":"levelo://app?vid=de0f7c2b-5974-4035-a240-8ed367c0e3f3"},"vehicle_type_id":"4","last_reported":1750352956,"current_range_meters":6400,"station_id":"","pricing_plan_id":"cebpf4jnsgd1na2vs0mg"},{"bike_id":"6640517b-d519-4976-be62-00401593ee25","system_id":"levelo_inurba_marseille","lat":43.33102,"lon":5.38098,"is_reserved":false,"is_disabled":false,"rental_uris":{"android":"levelo://app?vid=6640517b-d519-4976-be62-00401593ee25","ios":"levelo://app?vid=6640517b-d519-4976-be62-00401593ee25"},"vehicle_type_id":"4","last_reported":1750352956,"current_range_meters":6400,"station_id":"","pricing_plan_id":"cebpf4jnsgd1na2vs0mg"},{"bike_id":"a55fd0ed-106b-45fb-8930-51338837b23b","system_id":"levelo_inurba_marseille","lat":43.29273,"lon":5.36837,"is_reserved":false,"is_disabled":false,"rental_uris":{"android":"levelo://app?vid=a55fd0ed-106b-45fb-8930-51338837b23b","ios":"levelo://app?vid=a55fd0ed-106b-45fb-8930-51338837b23b"},"vehicle_type_id":"4","last_reported":1750352956,"current_range_meters":6800,"station_id":"ce4bhbp2rcd13ifvqesg","pricing_plan_id":"cebpf4jnsgd1na2vs0mg"},{"bike_id":"1ebe19ea-1568-47a1-9a7e-954e45122206","system_id":"levelo_inurba_marseille","lat":43.28617,"lon":5.3511,"is_reserved":false,"is_disabled":false,"rental_uris":{"android":"levelo://app?vid=1ebe19ea-1568-47a1-9a7e-954e45122206","ios":"levelo://app?vid=1ebe19ea-1568-47a1-9a7e-954e45122206"},"vehicle_type_id":"4","last_reported":1750352956,"current_range_meters":6800,"station_id":"ce4bhch2rcd13ifvqeug","pricing_plan_id":"cebpf4jnsgd1na2vs0mg"},{"bike_id":"4490e40b-912a-4f17-9ff9-a18cb8222cb5","system_id":"levelo_inurba_marseille","lat":43.28142,"lon":5.42634,"is_reserved":false,"is_disabled":false,"rental_uris":{"android":"levelo://app?vid=4490e40b-912a-4f17-9ff9-a18cb8222cb5","ios":"levelo://app?vid=4490e40b-912a-4f17-9ff9-a18cb8222cb5"},"vehicle_type_id":"4","last_reported":1750352956,"current_range_meters":6800,"station_id":"ce4bhnh2rcd13ifvqgug","pricing_plan_id":"cebpf4jnsgd1na2vs0mg"},{"bike_id":"47e3a548-00d3-421a-96dd-59b385f0f268","system_id":"levelo_inurba_marseille","lat":43.28614,"lon":5.35103,"is_reserved":false,"is_disabled":false,"rental_uris":{"android":"levelo://app?vid=47e3a548-00d3-421a-96dd-59b385f0f268","ios":"levelo://app?vid=47e3a548-00d3-421a-96dd-59b385f0f268"},"vehicle_type_id":"4","last_reported":1750352956,"current_range_meters":7200,"station_id":"ce4bhch2rcd13ifvqeug","pricing_plan_id":"cebpf4jnsgd1na2vs0mg"},{"bike_id":"6d813dce-8d3f-4eb9-8265-7684bf3764a0","system_id":"levelo_inurba_marseille","lat":43.27994,"lon":5.40011,"is_reserved":false,"is_disabled":false,"rental_uris":{"android":"levelo://app?vid=6d813dce-8d3f-4eb9-8265-7684bf3764a0","ios":"levelo://app?vid=6d813dce-8d3f-4eb9-8265-7684bf3764a0"},"vehicle_type_id":"4","last_reported":1750352956,"current_range_meters":7200,"station_id":"ce4bho92rcd13ifvqh4g","pricing_plan_id":"cebpf4jnsgd1na2vs0mg"},{"bike_id":"18fd9cca-0bfc-47df-bf59-c11de988f355","system_id":"levelo_inurba_marseille","lat":43.30804,"lon":5.43522,"is_reserved":false,"is_disabled":false,"rental_uris":{"android":"levelo://app?vid=18fd9cca-0bfc-47df-bf59-c11de988f355","ios":"levelo://app?vid=18fd9cca-0bfc-47df-bf59-c11de988f355"},"vehicle_type_id":"4","last_reported":1750352956,"current_range_meters":7200,"station_id":"ce4bhph2rcd13ifvqheg","pricing_plan_id":"cebpf4jnsgd1na2vs0mg"},{"bike_id":"2de0e455-5aef-458f-bcbe-a09e53f46fa6","system_id":"levelo_inurba_marseille","lat":43.231826,"lon":5.355344,"is_reserved":false,"is_disabled":false,"rental_uris":{"android":"levelo://app?vid=2de0e455-5aef-458f-bcbe-a09e53f46fa6","ios":"levelo://app?vid=2de0e455-5aef-458f-bcbe-a09e53f46fa6"},"vehicle_type_id":"4","last_reported":1750352956,"current_range_meters":7200,"station_id":"ce4bhu92rcd13ifvqi70","pricing_plan_id":"cebpf4jnsgd1na2vs0mg"},{"bike_id":"87f8f7a4-78a7-4bf5-911f-cfd6cb12425f","system_id":"levelo_inurba_marseille","lat":43.28259,"lon":5.35069,"is_reserved":false,"is_disabled":false,"rental_uris":{"android":"levelo://app?vid=87f8f7a4-78a7-4bf5-911f-cfd6cb12425f","ios":"levelo://app?vid=87f8f7a4-78a7-4bf5-911f-cfd6cb12425f"},"vehicle_type_id":"4","last_reported":1750352956,"current_range_meters":8000,"station_id":"ce4bhbp2rcd13ifvqerg","pricing_plan_id":"cebpf4jnsgd1na2vs0mg"},{"bike_id":"477de4bb-a5b4-44f7-9cb5-87e9d40bf4cc","system_id":"levelo_inurba_marseille","lat":43.29271,"lon":5.36845,"is_reserved":false,"is_disabled":false,"rental_uris":{"android":"levelo://app?vid=477de4bb-a5b4-44f7-9cb5-87e9d40bf4cc","ios":"levelo://app?vid=477de4bb-a5b4-44f7-9cb5-87e9d40bf4cc"},"vehicle_type_id":"4","last_reported":1750352956,"current_range_meters":8000,"station_id":"ce4bhbp2rcd13ifvqesg","pricing_plan_id":"cebpf4jnsgd1na2vs0mg"},{"bike_id":"e814c682-3335-454c-9640-1d82ab7ea6ff","system_id":"levelo_inurba_marseille","lat":43.25111,"lon":5.40325,"is_reserved":false,"is_disabled":false,"rental_uris":{"android":"levelo://app?vid=e814c682-3335-454c-9640-1d82ab7ea6ff","ios":"levelo://app?vid=e814c682-3335-454c-9640-1d82ab7ea6ff"},"vehicle_type_id":"4","last_reported":1750352956,"current_range_meters":8000,"station_id":"ce4bhlh2rcd13ifvqgig","pricing_plan_id":"cebpf4jnsgd1na2vs0mg"},{"bike_id":"1e64e823-f44b-45b2-8fcc-73b0d87a57d8","system_id":"levelo_inurba_marseille","lat":43.31712,"lon":5.43707,"is_reserved":false,"is_disabled":false,"rental_uris":{"android":"levelo://app?vid=1e64e823-f44b-45b2-8fcc-73b0d87a57d8","ios":"levelo://app?vid=1e64e823-f44b-45b2-8fcc-73b0d87a57d8"},"vehicle_type_id":"4","last_reported":1750352956,"current_range_meters":8000,"station_id":"ce4bhp92rcd13ifvqhcg","pricing_plan_id":"cebpf4jnsgd1na2vs0mg"},{"bike_id":"4b8da722-ee9e-48a4-a5e5-3a8a10364708","system_id":"levelo_inurba_marseille","lat":43.31217,"lon":5.37819,"is_reserved":false,"is_disabled":false,"rental_uris":{"android":"levelo://app?vid=4b8da722-ee9e-48a4-a5e5-3a8a10364708","ios":"levelo://app?vid=4b8da722-ee9e-48a4-a5e5-3a8a10364708"},"vehicle_type_id":"4","last_reported":1750352956,"current_range_meters":8400,"station_id":"","pricing_plan_id":"cebpf4jnsgd1na2vs0mg"},{"bike_id":"3518210a-6d90-482f-a11b-11cb7c94acd1","system_id":"levelo_inurba_marseille","lat":43.26479,"lon":5.392107,"is_reserved":false,"is_disabled":false,"rental_uris":{"android":"levelo://app?vid=3518210a-6d90-482f-a11b-11cb7c94acd1","ios":"levelo://app?vid=3518210a-6d90-482f-a11b-11cb7c94acd1"},"vehicle_type_id":"4","last_reported":1750352956,"current_range_meters":8400,"station_id":"","pricing_plan_id":"cebpf4jnsgd1na2vs0mg"},{"bike_id":"d951a925-1d3b-47f3-93df-97b53ae49d02","system_id":"levelo_inurba_marseille","lat":43.28411,"lon":5.34984,"is_reserved":false,"is_disabled":false,"rental_uris":{"android":"levelo://app?vid=d951a925-1d3b-47f3-93df-97b53ae49d02","ios":"levelo://app?vid=d951a925-1d3b-47f3-93df-97b53ae49d02"},"vehicle_type_id":"4","last_reported":1750352956,"current_range_meters":8400,"station_id":"ce4bhbh2rcd13ifvqepg","pricing_plan_id":"cebpf4jnsgd1na2vs0mg"},{"bike_id":"c0daaa48-470d-4238-9188-91b951f3a1d4","system_id":"levelo_inurba_marseille","lat":43.28621,"lon":5.35106,"is_reserved":false,"is_disabled":false,"rental_uris":{"android":"levelo://app?vid=c0daaa48-470d-4238-9188-91b951f3a1d4","ios":"levelo://app?vid=c0daaa48-470d-4238-9188-91b951f3a1d4"},"vehicle_type_id":"4","last_reported":1750352956,"current_range_meters":8400,"station_id":"ce4bhch2rcd13ifvqeug","pricing_plan_id":"cebpf4jnsgd1na2vs0mg"},{"bike_id":"432e6871-dfc8-4e2b-9aa8-d52a21ed06cd","system_id":"levelo_inurba_marseille","lat":43.27311,"lon":5.39077,"is_reserved":false,"is_disabled":false,"rental_uris":{"android":"levelo://app?vid=432e6871-dfc8-4e2b-9aa8-d52a21ed06cd","ios":"levelo://app?vid=432e6871-dfc8-4e2b-9aa8-d52a21ed06cd"},"vehicle_type_id":"4","last_reported":1750352956,"current_range_meters":8400,"station_id":"ce4bhgp2rcd13ifvqfe0","pricing_plan_id":"cebpf4jnsgd1na2vs0mg"},{"bike_id":"f267a02b-c5a2-4a2d-b55a-2880a5e4939a","system_id":"levelo_inurba_marseille","lat":43.24667,"lon":5.3815,"is_reserved":false,"is_disabled":false,"rental_uris":{"android":"levelo://app?vid=f267a02b-c5a2-4a2d-b55a-2880a5e4939a","ios":"levelo://app?vid=f267a02b-c5a2-4a2d-b55a-2880a5e4939a"},"vehicle_type_id":"4","last_reported":1750352956,"current_range_meters":8400,"station_id":"ce4bhih2rcd13ifvqfr0","pricing_plan_id":"cebpf4jnsgd1na2vs0mg"},{"bike_id":"ed75f478-8449-448d-9eed-d1c430a4d59d","system_id":"levelo_inurba_marseille","lat":43.29008,"lon":5.35609,"is_reserved":false,"is_disabled":false,"rental_uris":{"android":"levelo://app?vid=ed75f478-8449-448d-9eed-d1c430a4d59d","ios":"levelo://app?vid=ed75f478-8449-448d-9eed-d1c430a4d59d"},"vehicle_type_id":"4","last_reported":1750352956,"current_range_meters":8800,"station_id":"ce4bhb92rcd13ifvqen0","pricing_plan_id":"cebpf4jnsgd1na2vs0mg"},{"bike_id":"f79d57d0-e6ca-49e8-9659-5f6533fd53c4","system_id":"levelo_inurba_marseille","lat":43.28419,"lon":5.34984,"is_reserved":false,"is_disabled":false,"rental_uris":{"android":"levelo://app?vid=f79d57d0-e6ca-49e8-9659-5f6533fd53c4","ios":"levelo://app?vid=f79d57d0-e6ca-49e8-9659-5f6533fd53c4"},"vehicle_type_id":"4","last_reported":1750352956,"current_range_meters":8800,"station_id":"ce4bhbh2rcd13ifvqepg","pricing_plan_id":"cebpf4jnsgd1na2vs0mg"},{"bike_id":"d3f16036-84d7-422d-8e68-d7710a6c3b62","system_id":"levelo_inurba_marseille","lat":43.29278,"lon":5.36841,"is_reserved":false,"is_disabled":false,"rental_uris":{"android":"levelo://app?vid=d3f16036-84d7-422d-8e68-d7710a6c3b62","ios":"levelo://app?vid=d3f16036-84d7-422d-8e68-d7710a6c3b62"},"vehicle_type_id":"4","last_reported":1750352956,"current_range_meters":8800,"station_id":"ce4bhbp2rcd13ifvqesg","pricing_plan_id":"cebpf4jnsgd1na2vs0mg"},{"bike_id":"8eb29578-fec4-4e54-bfde-56d01396950b","system_id":"levelo_inurba_marseille","lat":43.23193,"lon":5.35551,"is_reserved":false,"is_disabled":false,"rental_uris":{"android":"levelo://app?vid=8eb29578-fec4-4e54-bfde-56d01396950b","ios":"levelo://app?vid=8eb29578-fec4-4e54-bfde-56d01396950b"},"vehicle_type_id":"4","last_reported":1750352956,"current_range_meters":8800,"station_id":"ce4bhu92rcd13ifvqi70","pricing_plan_id":"cebpf4jnsgd1na2vs0mg"},{"bike_id":"0dedb6f6-6801-483b-bfb8-9cd4533d158f","system_id":"levelo_inurba_marseille","lat":43.31136,"lon":5.38096,"is_reserved":false,"is_disabled":false,"rental_uris":{"android":"levelo://app?vid=0dedb6f6-6801-483b-bfb8-9cd4533d158f","ios":"levelo://app?vid=0dedb6f6-6801-483b-bfb8-9cd4533d158f"},"vehicle_type_id":"4","last_reported":1750352956,"current_range_meters":9200,"station_id":"","pricing_plan_id":"cebpf4jnsgd1na2vs0mg"},{"bike_id":"15e25f62-3d01-44c7-9cc1-b1840bdb6c8a","system_id":"levelo_inurba_marseille","lat":43.30162,"lon":5.3806,"is_reserved":false,"is_disabled":false,"rental_uris":{"android":"levelo://app?vid=15e25f62-3d01-44c7-9cc1-b1840bdb6c8a","ios":"levelo://app?vid=15e25f62-3d01-44c7-9cc1-b1840bdb6c8a"},"vehicle_type_id":"4","last_reported":1750352956,"current_range_meters":9200,"station_id":"ce4bgjp2rcd13ifvqbh0","pricing_plan_id":"cebpf4jnsgd1na2vs0mg"},{"bike_id":"ee9d01c5-aa4c-463d-ad86-327a47104198","system_id":"levelo_inurba_marseille","lat":43.29686,"lon":5.37287,"is_reserved":false,"is_disabled":false,"rental_uris":{"android":"levelo://app?vid=ee9d01c5-aa4c-463d-ad86-327a47104198","ios":"levelo://app?vid=ee9d01c5-aa4c-463d-ad86-327a47104198"},"vehicle_type_id":"4","last_reported":1750352956,"current_range_meters":9200,"station_id":"ce4bgk12rcd13ifvqbj0","pricing_plan_id":"cebpf4jnsgd1na2vs0mg"},{"bike_id":"20e8a8e1-eab4-48ed-8404-a5d73fa67d99","system_id":"levelo_inurba_marseille","lat":43.29009,"lon":5.35615,"is_reserved":false,"is_disabled":false,"rental_uris":{"android":"levelo://app?vid=20e8a8e1-eab4-48ed-8404-a5d73fa67d99","ios":"levelo://app?vid=20e8a8e1-eab4-48ed-8404-a5d73fa67d99"},"vehicle_type_id":"4","last_reported":1750352956,"current_range_meters":9200,"station_id":"ce4bhb92rcd13ifvqen0","pricing_plan_id":"cebpf4jnsgd1na2vs0mg"},{"bike_id":"4da2ee06-7b13-453e-a8e5-dbd2b22641f1","system_id":"levelo_inurba_marseille","lat":43.29006,"lon":5.35616,"is_reserved":false,"is_disabled":false,"rental_uris":{"android":"levelo://app?vid=4da2ee06-7b13-453e-a8e5-dbd2b22641f1","ios":"levelo://app?vid=4da2ee06-7b13-453e-a8e5-dbd2b22641f1"},"vehicle_type_id":"4","last_reported":1750352956,"current_range_meters":9200,"station_id":"ce4bhb92rcd13ifvqen0","pricing_plan_id":"cebpf4jnsgd1na2vs0mg"},{"bike_id":"46395a46-4fdd-4ce2-9ca3-97f104b41f4b","system_id":"levelo_inurba_marseille","lat":43.29007,"lon":5.35598,"is_reserved":false,"is_disabled":false,"rental_uris":{"android":"levelo://app?vid=46395a46-4fdd-4ce2-9ca3-97f104b41f4b","ios":"levelo://app?vid=46395a46-4fdd-4ce2-9ca3-97f104b41f4b"},"vehicle_type_id":"4","last_reported":1750352956,"current_range_meters":9200,"station_id":"ce4bhb92rcd13ifvqen0","pricing_plan_id":"cebpf4jnsgd1na2vs0mg"},{"bike_id":"78bb710e-9be9-4bc7-b89a-e7171b65442d","system_id":"levelo_inurba_marseille","lat":43.273773,"lon":5.362577,"is_reserved":false,"is_disabled":false,"rental_uris":{"android":"levelo://app?vid=78bb710e-9be9-4bc7-b89a-e7171b65442d","ios":"levelo://app?vid=78bb710e-9be9-4bc7-b89a-e7171b65442d"},"vehicle_type_id":"4","last_reported":1750352956,"current_range_meters":9200,"station_id":"ce4bhbh2rcd13ifvqeo0","pricing_plan_id":"cebpf4jnsgd1na2vs0mg"},{"bike_id":"9886b78e-0ef9-447d-89cf-c0ac5be0f4a8","system_id":"levelo_inurba_marseille","lat":43.26949,"lon":5.38624,"is_reserved":false,"is_disabled":false,"rental_uris":{"android":"levelo://app?vid=9886b78e-0ef9-447d-89cf-c0ac5be0f4a8","ios":"levelo://app?vid=9886b78e-0ef9-447d-89cf-c0ac5be0f4a8"},"vehicle_type_id":"4","last_reported":1750352956,"current_range_meters":9200,"station_id":"ce4bhh92rcd13ifvqfh0","pricing_plan_id":"cebpf4jnsgd1na2vs0mg"},{"bike_id":"87203693-61d7-45e8-917c-7c2c1f0e3d93","system_id":"levelo_inurba_marseille","lat":43.31064,"lon":5.40106,"is_reserved":false,"is_disabled":false,"rental_uris":{"android":"levelo://app?vid=87203693-61d7-45e8-917c-7c2c1f0e3d93","ios":"levelo://app?vid=87203693-61d7-45e8-917c-7c2c1f0e3d93"},"vehicle_type_id":"4","last_reported":1750352956,"current_range_meters":9600,"station_id":"","pricing_plan_id":"cebpf4jnsgd1na2vs0mg"},{"bike_id":"40f11e5e-244f-4813-92fe-2791d279cf70","system_id":"levelo_inurba_marseille","lat":43.29619,"lon":5.37137,"is_reserved":false,"is_disabled":false,"rental_uris":{"android":"levelo://app?vid=40f11e5e-244f-4813-92fe-2791d279cf70","ios":"levelo://app?vid=40f11e5e-244f-4813-92fe-2791d279cf70"},"vehicle_type_id":"4","last_reported":1750352956,"current_range_meters":9600,"station_id":"ce4bgnh2rcd13ifvqc0g","pricing_plan_id":"cebpf4jnsgd1na2vs0mg"},{"bike_id":"dbf7c9ea-ac41-4c7e-a49a-0ab0657cc30b","system_id":"levelo_inurba_marseille","lat":43.29193,"lon":5.35804,"is_reserved":false,"is_disabled":false,"rental_uris":{"android":"levelo://app?vid=dbf7c9ea-ac41-4c7e-a49a-0ab0657cc30b","ios":"levelo://app?vid=dbf7c9ea-ac41-4c7e-a49a-0ab0657cc30b"},"vehicle_type_id":"4","last_reported":1750352956,"current_range_meters":9600,"station_id":"ce4bhb12rcd13ifvqel0","pricing_plan_id":"cebpf4jnsgd1na2vs0mg"},{"bike_id":"6178ed61-750a-4cf2-8e80-9bae6e559ab2","system_id":"levelo_inurba_marseille","lat":43.23968,"lon":5.36635,"is_reserved":false,"is_disabled":false,"rental_uris":{"android":"levelo://app?vid=6178ed61-750a-4cf2-8e80-9bae6e559ab2","ios":"levelo://app?vid=6178ed61-750a-4cf2-8e80-9bae6e559ab2"},"vehicle_type_id":"4","last_reported":1750352956,"current_range_meters":9600,"station_id":"ce4bhi12rcd13ifvqfp0","pricing_plan_id":"cebpf4jnsgd1na2vs0mg"},{"bike_id":"41427841-d839-40c1-81bd-45e69072b2cd","system_id":"levelo_inurba_marseille","lat":43.22503,"lon":5.348,"is_reserved":false,"is_disabled":false,"rental_uris":{"android":"levelo://app?vid=41427841-d839-40c1-81bd-45e69072b2cd","ios":"levelo://app?vid=41427841-d839-40c1-81bd-45e69072b2cd"},"vehicle_type_id":"4","last_reported":1750352956,"current_range_meters":9600,"station_id":"st_cvj5dfep6f1abm77gieg","pricing_plan_id":"cebpf4jnsgd1na2vs0mg"},{"bike_id":"268aafb4-1331-426c-97bc-a7d6564caeb6","system_id":"levelo_inurba_marseille","lat":43.32933,"lon":5.37919,"is_reserved":false,"is_disabled":false,"rental_uris":{"android":"levelo://app?vid=268aafb4-1331-426c-97bc-a7d6564caeb6","ios":"levelo://app?vid=268aafb4-1331-426c-97bc-a7d6564caeb6"},"vehicle_type_id":"4","last_reported":1750352956,"current_range_meters":10000,"station_id":"","pricing_plan_id":"cebpf4jnsgd1na2vs0mg"},{"bike_id":"16919fdc-c86e-4b2d-9c0f-5ab3141acf86","system_id":"levelo_inurba_marseille","lat":43.28415,"lon":5.35005,"is_reserved":false,"is_disabled":false,"rental_uris":{"android":"levelo://app?vid=16919fdc-c86e-4b2d-9c0f-5ab3141acf86","ios":"levelo://app?vid=16919fdc-c86e-4b2d-9c0f-5ab3141acf86"},"vehicle_type_id":"4","last_reported":1750352956,"current_range_meters":10000,"station_id":"ce4bhbh2rcd13ifvqepg","pricing_plan_id":"cebpf4jnsgd1na2vs0mg"},{"bike_id":"4e19da38-6461-47ff-a0c2-54c6e0d66498","system_id":"levelo_inurba_marseille","lat":43.28268,"lon":5.35085,"is_reserved":false,"is_disabled":false,"rental_uris":{"android":"levelo://app?vid=4e19da38-6461-47ff-a0c2-54c6e0d66498","ios":"levelo://app?vid=4e19da38-6461-47ff-a0c2-54c6e0d66498"},"vehicle_type_id":"4","last_reported":1750352956,"current_range_meters":10000,"station_id":"ce4bhbp2rcd13ifvqerg","pricing_plan_id":"cebpf4jnsgd1na2vs0mg"},{"bike_id":"2e84c174-c769-49f6-9e32-4421d18e652a","system_id":"levelo_inurba_marseille","lat":43.26704,"lon":5.38231,"is_reserved":false,"is_disabled":false,"rental_uris":{"android":"levelo://app?vid=2e84c174-c769-49f6-9e32-4421d18e652a","ios":"levelo://app?vid=2e84c174-c769-49f6-9e32-4421d18e652a"},"vehicle_type_id":"4","last_reported":1750352956,"current_range_meters":10000,"station_id":"ce4bhg92rcd13ifvqf90","pricing_plan_id":"cebpf4jnsgd1na2vs0mg"},{"bike_id":"5d0ba06c-f6b1-434d-b9bf-f40948d4b20b","system_id":"levelo_inurba_marseille","lat":43.28603,"lon":5.37067,"is_reserved":false,"is_disabled":false,"rental_uris":{"android":"levelo://app?vid=5d0ba06c-f6b1-434d-b9bf-f40948d4b20b","ios":"levelo://app?vid=5d0ba06c-f6b1-434d-b9bf-f40948d4b20b"},"vehicle_type_id":"4","last_reported":1750352956,"current_range_meters":10000,"station_id":"ce4bht12rcd13ifvqi60","pricing_plan_id":"cebpf4jnsgd1na2vs0mg"},{"bike_id":"f025e0b0-8595-426c-b214-cb9b74c5fcfd","system_id":"levelo_inurba_marseille","lat":43.32201,"lon":5.40569,"is_reserved":false,"is_disabled":false,"rental_uris":{"android":"levelo://app?vid=f025e0b0-8595-426c-b214-cb9b74c5fcfd","ios":"levelo://app?vid=f025e0b0-8595-426c-b214-cb9b74c5fcfd"},"vehicle_type_id":"4","last_reported":1750352956,"current_range_meters":10800,"station_id":"","pricing_plan_id":"cebpf4jnsgd1na2vs0mg"},{"bike_id":"56fdfc4e-979c-4ed5-9885-57018d76de79","system_id":"levelo_inurba_marseille","lat":43.29378,"lon":5.42835,"is_reserved":false,"is_disabled":false,"rental_uris":{"android":"levelo://app?vid=56fdfc4e-979c-4ed5-9885-57018d76de79","ios":"levelo://app?vid=56fdfc4e-979c-4ed5-9885-57018d76de79"},"vehicle_type_id":"4","last_reported":1750352956,"current_range_meters":10800,"station_id":"","pricing_plan_id":"cebpf4jnsgd1na2vs0mg"},{"bike_id":"176a1d52-9b31-4a3e-bd7a-c9c00c942958","system_id":"levelo_inurba_marseille","lat":43.29577,"lon":5.36737,"is_reserved":false,"is_disabled":false,"rental_uris":{"android":"levelo://app?vid=176a1d52-9b31-4a3e-bd7a-c9c00c942958","ios":"levelo://app?vid=176a1d52-9b31-4a3e-bd7a-c9c00c942958"},"vehicle_type_id":"4","last_reported":1750352956,"current_range_meters":10800,"station_id":"ce4bgph2rcd13ifvqc2g","pricing_plan_id":"cebpf4jnsgd1na2vs0mg"},{"bike_id":"934dd5af-2af2-4d40-8229-6406ea8747cf","system_id":"levelo_inurba_marseille","lat":43.28997,"lon":5.35612,"is_reserved":false,"is_disabled":false,"rental_uris":{"android":"levelo://app?vid=934dd5af-2af2-4d40-8229-6406ea8747cf","ios":"levelo://app?vid=934dd5af-2af2-4d40-8229-6406ea8747cf"},"vehicle_type_id":"4","last_reported":1750352956,"current_range_meters":10800,"station_id":"ce4bhb92rcd13ifvqen0","pricing_plan_id":"cebpf4jnsgd1na2vs0mg"},{"bike_id":"1a96aed9-5b44-4fac-92b5-af664d35ef0b","system_id":"levelo_inurba_marseille","lat":43.28426,"lon":5.34995,"is_reserved":false,"is_disabled":false,"rental_uris":{"android":"levelo://app?vid=1a96aed9-5b44-4fac-92b5-af664d35ef0b","ios":"levelo://app?vid=1a96aed9-5b44-4fac-92b5-af664d35ef0b"},"vehicle_type_id":"4","last_reported":1750352956,"current_range_meters":10800,"station_id":"ce4bhbh2rcd13ifvqepg","pricing_plan_id":"cebpf4jnsgd1na2vs0mg"},{"bike_id":"74ea99cb-82cd-4a8f-8cb0-36a050d72e75","system_id":"levelo_inurba_marseille","lat":43.28273,"lon":5.35063,"is_reserved":false,"is_disabled":false,"rental_uris":{"android":"levelo://app?vid=74ea99cb-82cd-4a8f-8cb0-36a050d72e75","ios":"levelo://app?vid=74ea99cb-82cd-4a8f-8cb0-36a050d72e75"},"vehicle_type_id":"4","last_reported":1750352956,"current_range_meters":10800,"station_id":"ce4bhbp2rcd13ifvqerg","pricing_plan_id":"cebpf4jnsgd1na2vs0mg"},{"bike_id":"6d9576a5-cb1c-4708-9646-c0cb01350f45","system_id":"levelo_inurba_marseille","lat":43.272066,"lon":5.391823,"is_reserved":false,"is_disabled":false,"rental_uris":{"android":"levelo://app?vid=6d9576a5-cb1c-4708-9646-c0cb01350f45","ios":"levelo://app?vid=6d9576a5-cb1c-4708-9646-c0cb01350f45"},"vehicle_type_id":"4","last_reported":1750352956,"current_range_meters":11200,"station_id":"","pricing_plan_id":"cebpf4jnsgd1na2vs0mg"},{"bike_id":"534efeb1-9846-4aee-8130-df4d28e740dd","system_id":"levelo_inurba_marseille","lat":43.29824,"lon":5.41598,"is_reserved":false,"is_disabled":false,"rental_uris":{"android":"levelo://app?vid=534efeb1-9846-4aee-8130-df4d28e740dd","ios":"levelo://app?vid=534efeb1-9846-4aee-8130-df4d28e740dd"},"vehicle_type_id":"4","last_reported":1750352956,"current_range_meters":11200,"station_id":"","pricing_plan_id":"cebpf4jnsgd1na2vs0mg"},{"bike_id":"05be4dc4-585c-4e93-bc7e-c6ac159283b4","system_id":"levelo_inurba_marseille","lat":43.28257,"lon":5.35078,"is_reserved":false,"is_disabled":false,"rental_uris":{"android":"levelo://app?vid=05be4dc4-585c-4e93-bc7e-c6ac159283b4","ios":"levelo://app?vid=05be4dc4-585c-4e93-bc7e-c6ac159283b4"},"vehicle_type_id":"4","last_reported":1750352956,"current_range_meters":11200,"station_id":"ce4bhbp2rcd13ifvqerg","pricing_plan_id":"cebpf4jnsgd1na2vs0mg"},{"bike_id":"fb3f0a7d-fbae-49a4-8675-97bbd5be8029","system_id":"levelo_inurba_marseille","lat":43.24081,"lon":5.37751,"is_reserved":false,"is_disabled":false,"rental_uris":{"android":"levelo://app?vid=fb3f0a7d-fbae-49a4-8675-97bbd5be8029","ios":"levelo://app?vid=fb3f0a7d-fbae-49a4-8675-97bbd5be8029"},"vehicle_type_id":"4","last_reported":1750352956,"current_range_meters":11200,"station_id":"ce4bhnp2rcd13ifvqgvg","pricing_plan_id":"cebpf4jnsgd1na2vs0mg"},{"bike_id":"402d4091-0fc1-485d-8942-d2ac7fe3d4c3","system_id":"levelo_inurba_marseille","lat":43.26226,"lon":5.3742,"is_reserved":false,"is_disabled":false,"rental_uris":{"android":"levelo://app?vid=402d4091-0fc1-485d-8942-d2ac7fe3d4c3","ios":"levelo://app?vid=402d4091-0fc1-485d-8942-d2ac7fe3d4c3"},"vehicle_type_id":"4","last_reported":1750352956,"current_range_meters":11600,"station_id":"","pricing_plan_id":"cebpf4jnsgd1na2vs0mg"},{"bike_id":"d6c8cc77-3cf5-4614-92f7-f843e1f78ac1","system_id":"levelo_inurba_marseille","lat":43.2863,"lon":5.35092,"is_reserved":false,"is_disabled":false,"rental_uris":{"android":"levelo://app?vid=d6c8cc77-3cf5-4614-92f7-f843e1f78ac1","ios":"levelo://app?vid=d6c8cc77-3cf5-4614-92f7-f843e1f78ac1"},"vehicle_type_id":"4","last_reported":1750352956,"current_range_meters":11600,"station_id":"ce4bhch2rcd13ifvqeug","pricing_plan_id":"cebpf4jnsgd1na2vs0mg"},{"bike_id":"ed647391-d36e-4592-a3f3-2e2da5105e2b","system_id":"levelo_inurba_marseille","lat":43.286072,"lon":5.351064,"is_reserved":false,"is_disabled":false,"rental_uris":{"android":"levelo://app?vid=ed647391-d36e-4592-a3f3-2e2da5105e2b","ios":"levelo://app?vid=ed647391-d36e-4592-a3f3-2e2da5105e2b"},"vehicle_type_id":"4","last_reported":1750352956,"current_range_meters":12000,"station_id":"","pricing_plan_id":"cebpf4jnsgd1na2vs0mg"},{"bike_id":"c2317025-4fda-4a68-8252-51c32697d080","system_id":"levelo_inurba_marseille","lat":43.28618,"lon":5.35111,"is_reserved":false,"is_disabled":false,"rental_uris":{"android":"levelo://app?vid=c2317025-4fda-4a68-8252-51c32697d080","ios":"levelo://app?vid=c2317025-4fda-4a68-8252-51c32697d080"},"vehicle_type_id":"4","last_reported":1750352956,"current_range_meters":12000,"station_id":"ce4bhch2rcd13ifvqeug","pricing_plan_id":"cebpf4jnsgd1na2vs0mg"},{"bike_id":"2af35dbd-4232-4a2f-ab14-b687bafeae62","system_id":"levelo_inurba_marseille","lat":43.26197,"lon":5.37927,"is_reserved":false,"is_disabled":false,"rental_uris":{"android":"levelo://app?vid=2af35dbd-4232-4a2f-ab14-b687bafeae62","ios":"levelo://app?vid=2af35dbd-4232-4a2f-ab14-b687bafeae62"},"vehicle_type_id":"4","last_reported":1750352956,"current_range_meters":12000,"station_id":"ce4bhjp2rcd13ifvqg90","pricing_plan_id":"cebpf4jnsgd1na2vs0mg"},{"bike_id":"5b43db9d-b35a-477e-af1d-a0f3964d74db","system_id":"levelo_inurba_marseille","lat":43.33021,"lon":5.39035,"is_reserved":false,"is_disabled":false,"rental_uris":{"android":"levelo://app?vid=5b43db9d-b35a-477e-af1d-a0f3964d74db","ios":"levelo://app?vid=5b43db9d-b35a-477e-af1d-a0f3964d74db"},"vehicle_type_id":"4","last_reported":1750352956,"current_range_meters":12000,"station_id":"ce4bhr92rcd13ifvqhrg","pricing_plan_id":"cebpf4jnsgd1na2vs0mg"},{"bike_id":"ba2583fe-b5c4-4a30-9782-6c8b10ef5bbd","system_id":"levelo_inurba_marseille","lat":43.21756,"lon":5.34604,"is_reserved":false,"is_disabled":false,"rental_uris":{"android":"levelo://app?vid=ba2583fe-b5c4-4a30-9782-6c8b10ef5bbd","ios":"levelo://app?vid=ba2583fe-b5c4-4a30-9782-6c8b10ef5bbd"},"vehicle_type_id":"4","last_reported":1750352956,"current_range_meters":12000,"station_id":"st_cvj6r9ubvosntc0bgbag","pricing_plan_id":"cebpf4jnsgd1na2vs0mg"},{"bike_id":"2c555767-5c9b-4c10-a745-6bbf5ccfa066","system_id":"levelo_inurba_marseille","lat":43.25388,"lon":5.37633,"is_reserved":false,"is_disabled":false,"rental_uris":{"android":"levelo://app?vid=2c555767-5c9b-4c10-a745-6bbf5ccfa066","ios":"levelo://app?vid=2c555767-5c9b-4c10-a745-6bbf5ccfa066"},"vehicle_type_id":"4","last_reported":1750352956,"current_range_meters":12400,"station_id":"","pricing_plan_id":"cebpf4jnsgd1na2vs0mg"},{"bike_id":"a296e25b-658e-4cf9-9129-43e7f5b6c813","system_id":"levelo_inurba_marseille","lat":43.29036,"lon":5.35919,"is_reserved":false,"is_disabled":false,"rental_uris":{"android":"levelo://app?vid=a296e25b-658e-4cf9-9129-43e7f5b6c813","ios":"levelo://app?vid=a296e25b-658e-4cf9-9129-43e7f5b6c813"},"vehicle_type_id":"4","last_reported":1750352956,"current_range_meters":12400,"station_id":"ce4bha92rcd13ifvqeg0","pricing_plan_id":"cebpf4jnsgd1na2vs0mg"},{"bike_id":"1e6d8ae8-3bd0-4b25-af94-b8c8cda0b493","system_id":"levelo_inurba_marseille","lat":43.29005,"lon":5.35611,"is_reserved":false,"is_disabled":false,"rental_uris":{"android":"levelo://app?vid=1e6d8ae8-3bd0-4b25-af94-b8c8cda0b493","ios":"levelo://app?vid=1e6d8ae8-3bd0-4b25-af94-b8c8cda0b493"},"vehicle_type_id":"4","last_reported":1750352956,"current_range_meters":12400,"station_id":"ce4bhb92rcd13ifvqen0","pricing_plan_id":"cebpf4jnsgd1na2vs0mg"},{"bike_id":"4ca42299-f8b4-4485-aacd-0ea576973770","system_id":"levelo_inurba_marseille","lat":43.26951,"lon":5.3863,"is_reserved":false,"is_disabled":false,"rental_uris":{"android":"levelo://app?vid=4ca42299-f8b4-4485-aacd-0ea576973770","ios":"levelo://app?vid=4ca42299-f8b4-4485-aacd-0ea576973770"},"vehicle_type_id":"4","last_reported":1750352956,"current_range_meters":12400,"station_id":"ce4bhh92rcd13ifvqfh0","pricing_plan_id":"cebpf4jnsgd1na2vs0mg"},{"bike_id":"c2a5af74-aa6a-4e05-8fab-f5236ced0a25","system_id":"levelo_inurba_marseille","lat":43.25867,"lon":5.39895,"is_reserved":false,"is_disabled":false,"rental_uris":{"android":"levelo://app?vid=c2a5af74-aa6a-4e05-8fab-f5236ced0a25","ios":"levelo://app?vid=c2a5af74-aa6a-4e05-8fab-f5236ced0a25"},"vehicle_type_id":"4","last_reported":1750352956,"current_range_meters":12400,"station_id":"ce4bhl92rcd13ifvqghg","pricing_plan_id":"cebpf4jnsgd1na2vs0mg"},{"bike_id":"df77b6d2-6834-4a44-a94b-20f11853c902","system_id":"levelo_inurba_marseille","lat":43.28413,"lon":5.34996,"is_reserved":false,"is_disabled":false,"rental_uris":{"android":"levelo://app?vid=df77b6d2-6834-4a44-a94b-20f11853c902","ios":"levelo://app?vid=df77b6d2-6834-4a44-a94b-20f11853c902"},"vehicle_type_id":"4","last_reported":1750352956,"current_range_meters":12800,"station_id":"ce4bhbh2rcd13ifvqepg","pricing_plan_id":"cebpf4jnsgd1na2vs0mg"},{"bike_id":"612bf2c8-a7dc-44ea-b7ce-e813a5d9813c","system_id":"levelo_inurba_marseille","lat":43.265571,"lon":5.372809,"is_reserved":false,"is_disabled":false,"rental_uris":{"android":"levelo://app?vid=612bf2c8-a7dc-44ea-b7ce-e813a5d9813c","ios":"levelo://app?vid=612bf2c8-a7dc-44ea-b7ce-e813a5d9813c"},"vehicle_type_id":"4","last_reported":1750352956,"current_range_meters":12800,"station_id":"ce4bhg12rcd13ifvqf70","pricing_plan_id":"cebpf4jnsgd1na2vs0mg"},{"bike_id":"120313ea-a70f-48d0-90eb-072fcb2d4cd7","system_id":"levelo_inurba_marseille","lat":43.33744,"lon":5.39172,"is_reserved":false,"is_disabled":false,"rental_uris":{"android":"levelo://app?vid=120313ea-a70f-48d0-90eb-072fcb2d4cd7","ios":"levelo://app?vid=120313ea-a70f-48d0-90eb-072fcb2d4cd7"},"vehicle_type_id":"4","last_reported":1750352956,"current_range_meters":12800,"station_id":"ce4bhr92rcd13ifvqhsg","pricing_plan_id":"cebpf4jnsgd1na2vs0mg"},{"bike_id":"4e843060-018f-4f9f-97c4-3e11f372dca1","system_id":"levelo_inurba_marseille","lat":43.24742,"lon":5.41156,"is_reserved":false,"is_disabled":false,"rental_uris":{"android":"levelo://app?vid=4e843060-018f-4f9f-97c4-3e11f372dca1","ios":"levelo://app?vid=4e843060-018f-4f9f-97c4-3e11f372dca1"},"vehicle_type_id":"4","last_reported":1750352956,"current_range_meters":13600,"station_id":"","pricing_plan_id":"cebpf4jnsgd1na2vs0mg"},{"bike_id":"f3292d89-4115-4af9-ad55-57b7f774e772","system_id":"levelo_inurba_marseille","lat":43.31068,"lon":5.38352,"is_reserved":false,"is_disabled":false,"rental_uris":{"android":"levelo://app?vid=f3292d89-4115-4af9-ad55-57b7f774e772","ios":"levelo://app?vid=f3292d89-4115-4af9-ad55-57b7f774e772"},"vehicle_type_id":"4","last_reported":1750352956,"current_range_meters":13600,"station_id":"ce4bgv92rcd13ifvqcr0","pricing_plan_id":"cebpf4jnsgd1na2vs0mg"},{"bike_id":"ede21089-7ce3-4cdc-b70f-9c142797baa3","system_id":"levelo_inurba_marseille","lat":43.29006,"lon":5.35612,"is_reserved":false,"is_disabled":false,"rental_uris":{"android":"levelo://app?vid=ede21089-7ce3-4cdc-b70f-9c142797baa3","ios":"levelo://app?vid=ede21089-7ce3-4cdc-b70f-9c142797baa3"},"vehicle_type_id":"4","last_reported":1750352956,"current_range_meters":13600,"station_id":"ce4bhb92rcd13ifvqen0","pricing_plan_id":"cebpf4jnsgd1na2vs0mg"},{"bike_id":"70083776-afc4-42b4-8ebe-95815720e050","system_id":"levelo_inurba_marseille","lat":43.28403,"lon":5.35002,"is_reserved":false,"is_disabled":false,"rental_uris":{"android":"levelo://app?vid=70083776-afc4-42b4-8ebe-95815720e050","ios":"levelo://app?vid=70083776-afc4-42b4-8ebe-95815720e050"},"vehicle_type_id":"4","last_reported":1750352956,"current_range_meters":13600,"station_id":"ce4bhbh2rcd13ifvqepg","pricing_plan_id":"cebpf4jnsgd1na2vs0mg"},{"bike_id":"e7eabd8f-40c3-4451-8d37-862201a8aba6","system_id":"levelo_inurba_marseille","lat":43.28431,"lon":5.34992,"is_reserved":false,"is_disabled":false,"rental_uris":{"android":"levelo://app?vid=e7eabd8f-40c3-4451-8d37-862201a8aba6","ios":"levelo://app?vid=e7eabd8f-40c3-4451-8d37-862201a8aba6"},"vehicle_type_id":"4","last_reported":1750352956,"current_range_meters":13600,"station_id":"ce4bhbh2rcd13ifvqepg","pricing_plan_id":"cebpf4jnsgd1na2vs0mg"},{"bike_id":"03b18b65-48e8-402c-909e-9b89250789bd","system_id":"levelo_inurba_marseille","lat":43.23197,"lon":5.35553,"is_reserved":false,"is_disabled":false,"rental_uris":{"android":"levelo://app?vid=03b18b65-48e8-402c-909e-9b89250789bd","ios":"levelo://app?vid=03b18b65-48e8-402c-909e-9b89250789bd"},"vehicle_type_id":"4","last_reported":1750352956,"current_range_meters":13600,"station_id":"ce4bhu92rcd13ifvqi70","pricing_plan_id":"cebpf4jnsgd1na2vs0mg"},{"bike_id":"73a795f5-79ad-499c-ac04-94133c49c323","system_id":"levelo_inurba_marseille","lat":43.23064,"lon":5.35495,"is_reserved":false,"is_disabled":false,"rental_uris":{"android":"levelo://app?vid=73a795f5-79ad-499c-ac04-94133c49c323","ios":"levelo://app?vid=73a795f5-79ad-499c-ac04-94133c49c323"},"vehicle_type_id":"4","last_reported":1750352956,"current_range_meters":13600,"station_id":"cpo3342slgdg3j2ifvpg","pricing_plan_id":"cebpf4jnsgd1na2vs0mg"},{"bike_id":"ca22fa2e-c6e3-4f47-bb16-6f7833f5306c","system_id":"levelo_inurba_marseille","lat":43.28428,"lon":5.35008,"is_reserved":false,"is_disabled":false,"rental_uris":{"android":"levelo://app?vid=ca22fa2e-c6e3-4f47-bb16-6f7833f5306c","ios":"levelo://app?vid=ca22fa2e-c6e3-4f47-bb16-6f7833f5306c"},"vehicle_type_id":"4","last_reported":1750352956,"current_range_meters":14000,"station_id":"ce4bhbh2rcd13ifvqepg","pricing_plan_id":"cebpf4jnsgd1na2vs0mg"},{"bike_id":"83e70d00-3bef-4f45-a076-9d0dc97a73f9","system_id":"levelo_inurba_marseille","lat":43.28266,"lon":5.35067,"is_reserved":false,"is_disabled":false,"rental_uris":{"android":"levelo://app?vid=83e70d00-3bef-4f45-a076-9d0dc97a73f9","ios":"levelo://app?vid=83e70d00-3bef-4f45-a076-9d0dc97a73f9"},"vehicle_type_id":"4","last_reported":1750352956,"current_range_meters":14000,"station_id":"ce4bhbp2rcd13ifvqerg","pricing_plan_id":"cebpf4jnsgd1na2vs0mg"},{"bike_id":"ebe57c13-e1cb-404b-84d4-2859dde7b8d7","system_id":"levelo_inurba_marseille","lat":43.24807,"lon":5.37456,"is_reserved":false,"is_disabled":false,"rental_uris":{"android":"levelo://app?vid=ebe57c13-e1cb-404b-84d4-2859dde7b8d7","ios":"levelo://app?vid=ebe57c13-e1cb-404b-84d4-2859dde7b8d7"},"vehicle_type_id":"4","last_reported":1750352956,"current_range_meters":14000,"station_id":"ce4bhgh2rcd13ifvqfb0","pricing_plan_id":"cebpf4jnsgd1na2vs0mg"},{"bike_id":"d9b2950a-cd4b-488f-8f1a-b2421b953666","system_id":"levelo_inurba_marseille","lat":43.31498,"lon":5.39141,"is_reserved":false,"is_disabled":false,"rental_uris":{"android":"levelo://app?vid=d9b2950a-cd4b-488f-8f1a-b2421b953666","ios":"levelo://app?vid=d9b2950a-cd4b-488f-8f1a-b2421b953666"},"vehicle_type_id":"4","last_reported":1750352956,"current_range_meters":14400,"station_id":"","pricing_plan_id":"cebpf4jnsgd1na2vs0mg"},{"bike_id":"a51411a5-6eae-451d-b7f0-3a510682b606","system_id":"levelo_inurba_marseille","lat":43.29568,"lon":5.37526,"is_reserved":false,"is_disabled":false,"rental_uris":{"android":"levelo://app?vid=a51411a5-6eae-451d-b7f0-3a510682b606","ios":"levelo://app?vid=a51411a5-6eae-451d-b7f0-3a510682b606"},"vehicle_type_id":"4","last_reported":1750352956,"current_range_meters":14400,"station_id":"ce4bgh92rcd13ifvqb50","pricing_plan_id":"cebpf4jnsgd1na2vs0mg"},{"bike_id":"42a4548a-1b89-4f2f-96af-4c1887043eee","system_id":"levelo_inurba_marseille","lat":43.27376,"lon":5.3626,"is_reserved":false,"is_disabled":false,"rental_uris":{"android":"levelo://app?vid=42a4548a-1b89-4f2f-96af-4c1887043eee","ios":"levelo://app?vid=42a4548a-1b89-4f2f-96af-4c1887043eee"},"vehicle_type_id":"4","last_reported":1750352956,"current_range_meters":14400,"station_id":"ce4bhbh2rcd13ifvqeo0","pricing_plan_id":"cebpf4jnsgd1na2vs0mg"},{"bike_id":"5e9ce673-6e01-45d7-9432-b638a9271450","system_id":"levelo_inurba_marseille","lat":43.27375,"lon":5.36254,"is_reserved":false,"is_disabled":false,"rental_uris":{"android":"levelo://app?vid=5e9ce673-6e01-45d7-9432-b638a9271450","ios":"levelo://app?vid=5e9ce673-6e01-45d7-9432-b638a9271450"},"vehicle_type_id":"4","last_reported":1750352956,"current_range_meters":14400,"station_id":"ce4bhbh2rcd13ifvqeo0","pricing_plan_id":"cebpf4jnsgd1na2vs0mg"},{"bike_id":"a6fe0ec7-64ea-4b18-8695-9b78b78fc37d","system_id":"levelo_inurba_marseille","lat":43.27374,"lon":5.36258,"is_reserved":false,"is_disabled":false,"rental_uris":{"android":"levelo://app?vid=a6fe0ec7-64ea-4b18-8695-9b78b78fc37d","ios":"levelo://app?vid=a6fe0ec7-64ea-4b18-8695-9b78b78fc37d"},"vehicle_type_id":"4","last_reported":1750352956,"current_range_meters":14400,"station_id":"ce4bhbh2rcd13ifvqeo0","pricing_plan_id":"cebpf4jnsgd1na2vs0mg"},{"bike_id":"6186639c-9283-4b46-a8f4-1e857e854e5d","system_id":"levelo_inurba_marseille","lat":43.24808,"lon":5.37457,"is_reserved":false,"is_disabled":false,"rental_uris":{"android":"levelo://app?vid=6186639c-9283-4b46-a8f4-1e857e854e5d","ios":"levelo://app?vid=6186639c-9283-4b46-a8f4-1e857e854e5d"},"vehicle_type_id":"4","last_reported":1750352956,"current_range_meters":14400,"station_id":"ce4bhgh2rcd13ifvqfb0","pricing_plan_id":"cebpf4jnsgd1na2vs0mg"},{"bike_id":"28b38f0a-99ba-4c5e-ad87-a969770e2889","system_id":"levelo_inurba_marseille","lat":43.26213,"lon":5.37444,"is_reserved":false,"is_disabled":false,"rental_uris":{"android":"levelo://app?vid=28b38f0a-99ba-4c5e-ad87-a969770e2889","ios":"levelo://app?vid=28b38f0a-99ba-4c5e-ad87-a969770e2889"},"vehicle_type_id":"4","last_reported":1750352956,"current_range_meters":14400,"station_id":"ce4bhgp2rcd13ifvqfc0","pricing_plan_id":"cebpf4jnsgd1na2vs0mg"},{"bike_id":"ca68bbdd-0072-48ad-8175-3b5ff1bfea00","system_id":"levelo_inurba_marseille","lat":43.25873,"lon":5.39896,"is_reserved":false,"is_disabled":false,"rental_uris":{"android":"levelo://app?vid=ca68bbdd-0072-48ad-8175-3b5ff1bfea00","ios":"levelo://app?vid=ca68bbdd-0072-48ad-8175-3b5ff1bfea00"},"vehicle_type_id":"4","last_reported":1750352956,"current_range_meters":14400,"station_id":"ce4bhl92rcd13ifvqghg","pricing_plan_id":"cebpf4jnsgd1na2vs0mg"},{"bike_id":"ac2384ad-a0da-47da-a8d0-a1bc051d8279","system_id":"levelo_inurba_marseille","lat":43.28154,"lon":5.42648,"is_reserved":false,"is_disabled":false,"rental_uris":{"android":"levelo://app?vid=ac2384ad-a0da-47da-a8d0-a1bc051d8279","ios":"levelo://app?vid=ac2384ad-a0da-47da-a8d0-a1bc051d8279"},"vehicle_type_id":"4","last_reported":1750352956,"current_range_meters":14400,"station_id":"ce4bhnh2rcd13ifvqgug","pricing_plan_id":"cebpf4jnsgd1na2vs0mg"},{"bike_id":"cd887f7d-d590-42cf-b704-bf0a67f23360","system_id":"levelo_inurba_marseille","lat":43.29901,"lon":5.4367,"is_reserved":false,"is_disabled":false,"rental_uris":{"android":"levelo://app?vid=cd887f7d-d590-42cf-b704-bf0a67f23360","ios":"levelo://app?vid=cd887f7d-d590-42cf-b704-bf0a67f23360"},"vehicle_type_id":"4","last_reported":1750352956,"current_range_meters":14400,"station_id":"ce4bhpp2rcd13ifvqhfg","pricing_plan_id":"cebpf4jnsgd1na2vs0mg"},{"bike_id":"bee80dc6-6482-4b21-99fd-6cdd583c417b","system_id":"levelo_inurba_marseille","lat":43.31071,"lon":5.38358,"is_reserved":false,"is_disabled":false,"rental_uris":{"android":"levelo://app?vid=bee80dc6-6482-4b21-99fd-6cdd583c417b","ios":"levelo://app?vid=bee80dc6-6482-4b21-99fd-6cdd583c417b"},"vehicle_type_id":"4","last_reported":1750352956,"current_range_meters":14800,"station_id":"ce4bgv92rcd13ifvqcr0","pricing_plan_id":"cebpf4jnsgd1na2vs0mg"},{"bike_id":"c770e50e-104f-478a-b345-491d3b465ca4","system_id":"levelo_inurba_marseille","lat":43.26026,"lon":5.37547,"is_reserved":false,"is_disabled":false,"rental_uris":{"android":"levelo://app?vid=c770e50e-104f-478a-b345-491d3b465ca4","ios":"levelo://app?vid=c770e50e-104f-478a-b345-491d3b465ca4"},"vehicle_type_id":"4","last_reported":1750352956,"current_range_meters":14800,"station_id":"ce4bhgh2rcd13ifvqfa0","pricing_plan_id":"cebpf4jnsgd1na2vs0mg"},{"bike_id":"60563cbb-9061-4006-8e41-2def95d43c6c","system_id":"levelo_inurba_marseille","lat":43.32658,"lon":5.39651,"is_reserved":false,"is_disabled":false,"rental_uris":{"android":"levelo://app?vid=60563cbb-9061-4006-8e41-2def95d43c6c","ios":"levelo://app?vid=60563cbb-9061-4006-8e41-2def95d43c6c"},"vehicle_type_id":"4","last_reported":1750352956,"current_range_meters":15200,"station_id":"","pricing_plan_id":"cebpf4jnsgd1na2vs0mg"},{"bike_id":"f7574965-0667-4f3b-90e2-276750d028f1","system_id":"levelo_inurba_marseille","lat":43.33104,"lon":5.38215,"is_reserved":false,"is_disabled":false,"rental_uris":{"android":"levelo://app?vid=f7574965-0667-4f3b-90e2-276750d028f1","ios":"levelo://app?vid=f7574965-0667-4f3b-90e2-276750d028f1"},"vehicle_type_id":"4","last_reported":1750352956,"current_range_meters":16000,"station_id":"","pricing_plan_id":"cebpf4jnsgd1na2vs0mg"},{"bike_id":"5c17f474-67ea-463c-abb4-6621c8a461db","system_id":"levelo_inurba_marseille","lat":43.28418,"lon":5.34996,"is_reserved":false,"is_disabled":false,"rental_uris":{"android":"levelo://app?vid=5c17f474-67ea-463c-abb4-6621c8a461db","ios":"levelo://app?vid=5c17f474-67ea-463c-abb4-6621c8a461db"},"vehicle_type_id":"4","last_reported":1750352956,"current_range_meters":16000,"station_id":"ce4bhbh2rcd13ifvqepg","pricing_plan_id":"cebpf4jnsgd1na2vs0mg"},{"bike_id":"54bbaa15-050c-4526-b172-09f06af97620","system_id":"levelo_inurba_marseille","lat":43.28428,"lon":5.34993,"is_reserved":false,"is_disabled":false,"rental_uris":{"android":"levelo://app?vid=54bbaa15-050c-4526-b172-09f06af97620","ios":"levelo://app?vid=54bbaa15-050c-4526-b172-09f06af97620"},"vehicle_type_id":"4","last_reported":1750352956,"current_range_meters":16000,"station_id":"ce4bhbh2rcd13ifvqepg","pricing_plan_id":"cebpf4jnsgd1na2vs0mg"},{"bike_id":"a9a99511-61a8-4890-8915-7e87b20c150d","system_id":"levelo_inurba_marseille","lat":43.28277,"lon":5.3508,"is_reserved":false,"is_disabled":false,"rental_uris":{"android":"levelo://app?vid=a9a99511-61a8-4890-8915-7e87b20c150d","ios":"levelo://app?vid=a9a99511-61a8-4890-8915-7e87b20c150d"},"vehicle_type_id":"4","last_reported":1750352956,"current_range_meters":16000,"station_id":"ce4bhbp2rcd13ifvqerg","pricing_plan_id":"cebpf4jnsgd1na2vs0mg"},{"bike_id":"dc39e9df-7330-4303-9cdd-6bb46e47798c","system_id":"levelo_inurba_marseille","lat":43.230655,"lon":5.354896,"is_reserved":false,"is_disabled":false,"rental_uris":{"android":"levelo://app?vid=dc39e9df-7330-4303-9cdd-6bb46e47798c","ios":"levelo://app?vid=dc39e9df-7330-4303-9cdd-6bb46e47798c"},"vehicle_type_id":"4","last_reported":1750352956,"current_range_meters":16000,"station_id":"cpo3342slgdg3j2ifvpg","pricing_plan_id":"cebpf4jnsgd1na2vs0mg"},{"bike_id":"c08ce5b0-7b02-4204-a925-87c16aedeea6","system_id":"levelo_inurba_marseille","lat":43.282635,"lon":5.350655,"is_reserved":false,"is_disabled":false,"rental_uris":{"android":"levelo://app?vid=c08ce5b0-7b02-4204-a925-87c16aedeea6","ios":"levelo://app?vid=c08ce5b0-7b02-4204-a925-87c16aedeea6"},"vehicle_type_id":"4","last_reported":1750352956,"current_range_meters":16400,"station_id":"","pricing_plan_id":"cebpf4jnsgd1na2vs0mg"},{"bike_id":"5415ad30-0de4-4f1a-af71-5a96c3033fe1","system_id":"levelo_inurba_marseille","lat":43.29008,"lon":5.35618,"is_reserved":false,"is_disabled":false,"rental_uris":{"android":"levelo://app?vid=5415ad30-0de4-4f1a-af71-5a96c3033fe1","ios":"levelo://app?vid=5415ad30-0de4-4f1a-af71-5a96c3033fe1"},"vehicle_type_id":"4","last_reported":1750352956,"current_range_meters":16400,"station_id":"ce4bhb92rcd13ifvqen0","pricing_plan_id":"cebpf4jnsgd1na2vs0mg"},{"bike_id":"fe75accb-bd3a-4946-b9b9-4541e6661814","system_id":"levelo_inurba_marseille","lat":43.27382,"lon":5.36264,"is_reserved":false,"is_disabled":false,"rental_uris":{"android":"levelo://app?vid=fe75accb-bd3a-4946-b9b9-4541e6661814","ios":"levelo://app?vid=fe75accb-bd3a-4946-b9b9-4541e6661814"},"vehicle_type_id":"4","last_reported":1750352956,"current_range_meters":16400,"station_id":"ce4bhbh2rcd13ifvqeo0","pricing_plan_id":"cebpf4jnsgd1na2vs0mg"},{"bike_id":"4447f6d0-e11d-4e77-b2aa-3af0cbdb515f","system_id":"levelo_inurba_marseille","lat":43.2842,"lon":5.35003,"is_reserved":false,"is_disabled":false,"rental_uris":{"android":"levelo://app?vid=4447f6d0-e11d-4e77-b2aa-3af0cbdb515f","ios":"levelo://app?vid=4447f6d0-e11d-4e77-b2aa-3af0cbdb515f"},"vehicle_type_id":"4","last_reported":1750352956,"current_range_meters":16400,"station_id":"ce4bhbh2rcd13ifvqepg","pricing_plan_id":"cebpf4jnsgd1na2vs0mg"},{"bike_id":"adaeb88f-f9fe-467d-a342-0c5166479803","system_id":"levelo_inurba_marseille","lat":43.2861,"lon":5.35111,"is_reserved":false,"is_disabled":false,"rental_uris":{"android":"levelo://app?vid=adaeb88f-f9fe-467d-a342-0c5166479803","ios":"levelo://app?vid=adaeb88f-f9fe-467d-a342-0c5166479803"},"vehicle_type_id":"4","last_reported":1750352956,"current_range_meters":16400,"station_id":"ce4bhch2rcd13ifvqeug","pricing_plan_id":"cebpf4jnsgd1na2vs0mg"},{"bike_id":"bae8d7db-8cfd-4cec-a975-665b0c8785e2","system_id":"levelo_inurba_marseille","lat":43.28263,"lon":5.35091,"is_reserved":false,"is_disabled":false,"rental_uris":{"android":"levelo://app?vid=bae8d7db-8cfd-4cec-a975-665b0c8785e2","ios":"levelo://app?vid=bae8d7db-8cfd-4cec-a975-665b0c8785e2"},"vehicle_type_id":"4","last_reported":1750352956,"current_range_meters":16800,"station_id":"ce4bhbp2rcd13ifvqerg","pricing_plan_id":"cebpf4jnsgd1na2vs0mg"},{"bike_id":"18ddd0bf-622c-422d-9b9f-4b91a77a5c9b","system_id":"levelo_inurba_marseille","lat":43.2929,"lon":5.36831,"is_reserved":false,"is_disabled":false,"rental_uris":{"android":"levelo://app?vid=18ddd0bf-622c-422d-9b9f-4b91a77a5c9b","ios":"levelo://app?vid=18ddd0bf-622c-422d-9b9f-4b91a77a5c9b"},"vehicle_type_id":"4","last_reported":1750352956,"current_range_meters":16800,"station_id":"ce4bhbp2rcd13ifvqesg","pricing_plan_id":"cebpf4jnsgd1na2vs0mg"},{"bike_id":"4244f504-e61c-4cec-8386-0ed690c11a0f","system_id":"levelo_inurba_marseille","lat":43.24041,"lon":5.36727,"is_reserved":false,"is_disabled":false,"rental_uris":{"android":"levelo://app?vid=4244f504-e61c-4cec-8386-0ed690c11a0f","ios":"levelo://app?vid=4244f504-e61c-4cec-8386-0ed690c11a0f"},"vehicle_type_id":"4","last_reported":1750352956,"current_range_meters":16800,"station_id":"ce4bhi12rcd13ifvqfp0","pricing_plan_id":"cebpf4jnsgd1na2vs0mg"},{"bike_id":"6b0821b9-eaf0-452c-8f43-c8a53434f65f","system_id":"levelo_inurba_marseille","lat":43.3081,"lon":5.43538,"is_reserved":false,"is_disabled":false,"rental_uris":{"android":"levelo://app?vid=6b0821b9-eaf0-452c-8f43-c8a53434f65f","ios":"levelo://app?vid=6b0821b9-eaf0-452c-8f43-c8a53434f65f"},"vehicle_type_id":"4","last_reported":1750352956,"current_range_meters":16800,"station_id":"ce4bhph2rcd13ifvqheg","pricing_plan_id":"cebpf4jnsgd1na2vs0mg"},{"bike_id":"72d073dd-e0fd-4b0c-a653-66ad708bc842","system_id":"levelo_inurba_marseille","lat":43.2417,"lon":5.364,"is_reserved":false,"is_disabled":false,"rental_uris":{"android":"levelo://app?vid=72d073dd-e0fd-4b0c-a653-66ad708bc842","ios":"levelo://app?vid=72d073dd-e0fd-4b0c-a653-66ad708bc842"},"vehicle_type_id":"4","last_reported":1750352956,"current_range_meters":16800,"station_id":"cpo36qri1sfpv3e86is0","pricing_plan_id":"cebpf4jnsgd1na2vs0mg"},{"bike_id":"7e65b096-aa08-41c8-9b2a-e94078d8b578","system_id":"levelo_inurba_marseille","lat":43.21186,"lon":5.35073,"is_reserved":false,"is_disabled":false,"rental_uris":{"android":"levelo://app?vid=7e65b096-aa08-41c8-9b2a-e94078d8b578","ios":"levelo://app?vid=7e65b096-aa08-41c8-9b2a-e94078d8b578"},"vehicle_type_id":"4","last_reported":1750352956,"current_range_meters":16800,"station_id":"st_cvj6sg6p6f1abm77japg","pricing_plan_id":"cebpf4jnsgd1na2vs0mg"},{"bike_id":"10ef8bbd-d4bd-4753-8eca-4d6586e63e8b","system_id":"levelo_inurba_marseille","lat":43.28618,"lon":5.35105,"is_reserved":false,"is_disabled":false,"rental_uris":{"android":"levelo://app?vid=10ef8bbd-d4bd-4753-8eca-4d6586e63e8b","ios":"levelo://app?vid=10ef8bbd-d4bd-4753-8eca-4d6586e63e8b"},"vehicle_type_id":"4","last_reported":1750352956,"current_range_meters":17200,"station_id":"ce4bhch2rcd13ifvqeug","pricing_plan_id":"cebpf4jnsgd1na2vs0mg"},{"bike_id":"60fbb379-1db5-47b0-b9f4-d2194e8f31a7","system_id":"levelo_inurba_marseille","lat":43.24804,"lon":5.37453,"is_reserved":false,"is_disabled":false,"rental_uris":{"android":"levelo://app?vid=60fbb379-1db5-47b0-b9f4-d2194e8f31a7","ios":"levelo://app?vid=60fbb379-1db5-47b0-b9f4-d2194e8f31a7"},"vehicle_type_id":"4","last_reported":1750352956,"current_range_meters":17200,"station_id":"ce4bhgh2rcd13ifvqfb0","pricing_plan_id":"cebpf4jnsgd1na2vs0mg"},{"bike_id":"784efc61-b1c0-4015-bd86-20f443ceb29d","system_id":"levelo_inurba_marseille","lat":43.23963,"lon":5.36636,"is_reserved":false,"is_disabled":false,"rental_uris":{"android":"levelo://app?vid=784efc61-b1c0-4015-bd86-20f443ceb29d","ios":"levelo://app?vid=784efc61-b1c0-4015-bd86-20f443ceb29d"},"vehicle_type_id":"4","last_reported":1750352956,"current_range_meters":17200,"station_id":"ce4bhi12rcd13ifvqfp0","pricing_plan_id":"cebpf4jnsgd1na2vs0mg"},{"bike_id":"02446148-c9f7-4f78-b18f-149730da9a75","system_id":"levelo_inurba_marseille","lat":43.231976,"lon":5.355541,"is_reserved":false,"is_disabled":false,"rental_uris":{"android":"levelo://app?vid=02446148-c9f7-4f78-b18f-149730da9a75","ios":"levelo://app?vid=02446148-c9f7-4f78-b18f-149730da9a75"},"vehicle_type_id":"4","last_reported":1750352956,"current_range_meters":17200,"station_id":"ce4bhu92rcd13ifvqi70","pricing_plan_id":"cebpf4jnsgd1na2vs0mg"},{"bike_id":"6e42beaa-900d-4994-adff-ac23e3c3e87f","system_id":"levelo_inurba_marseille","lat":43.28036,"lon":5.3696,"is_reserved":false,"is_disabled":false,"rental_uris":{"android":"levelo://app?vid=6e42beaa-900d-4994-adff-ac23e3c3e87f","ios":"levelo://app?vid=6e42beaa-900d-4994-adff-ac23e3c3e87f"},"vehicle_type_id":"4","last_reported":1750352956,"current_range_meters":17600,"station_id":"ce4bha12rcd13ifvqef0","pricing_plan_id":"cebpf4jnsgd1na2vs0mg"},{"bike_id":"cc34d586-b82f-4a34-8fa6-12192bd50232","system_id":"levelo_inurba_marseille","lat":43.28406,"lon":5.34993,"is_reserved":false,"is_disabled":false,"rental_uris":{"android":"levelo://app?vid=cc34d586-b82f-4a34-8fa6-12192bd50232","ios":"levelo://app?vid=cc34d586-b82f-4a34-8fa6-12192bd50232"},"vehicle_type_id":"4","last_reported":1750352956,"current_range_meters":17600,"station_id":"ce4bhbh2rcd13ifvqepg","pricing_plan_id":"cebpf4jnsgd1na2vs0mg"},{"bike_id":"943f49cc-0adb-4419-b3a1-6a5e9d1d39b3","system_id":"levelo_inurba_marseille","lat":43.28254,"lon":5.35086,"is_reserved":false,"is_disabled":false,"rental_uris":{"android":"levelo://app?vid=943f49cc-0adb-4419-b3a1-6a5e9d1d39b3","ios":"levelo://app?vid=943f49cc-0adb-4419-b3a1-6a5e9d1d39b3"},"vehicle_type_id":"4","last_reported":1750352956,"current_range_meters":17600,"station_id":"ce4bhbp2rcd13ifvqerg","pricing_plan_id":"cebpf4jnsgd1na2vs0mg"},{"bike_id":"f51767a0-f662-4817-878a-68f8cdd52fb2","system_id":"levelo_inurba_marseille","lat":43.24648,"lon":5.38892,"is_reserved":false,"is_disabled":false,"rental_uris":{"android":"levelo://app?vid=f51767a0-f662-4817-878a-68f8cdd52fb2","ios":"levelo://app?vid=f51767a0-f662-4817-878a-68f8cdd52fb2"},"vehicle_type_id":"4","last_reported":1750352956,"current_range_meters":17600,"station_id":"ce4bhg12rcd13ifvqf60","pricing_plan_id":"cebpf4jnsgd1na2vs0mg"},{"bike_id":"b381d487-6fae-405c-83c8-68446987b737","system_id":"levelo_inurba_marseille","lat":43.26197,"lon":5.37449,"is_reserved":false,"is_disabled":false,"rental_uris":{"android":"levelo://app?vid=b381d487-6fae-405c-83c8-68446987b737","ios":"levelo://app?vid=b381d487-6fae-405c-83c8-68446987b737"},"vehicle_type_id":"4","last_reported":1750352956,"current_range_meters":17600,"station_id":"ce4bhgp2rcd13ifvqfc0","pricing_plan_id":"cebpf4jnsgd1na2vs0mg"},{"bike_id":"53c9322a-659e-45fc-9e4d-0e2599cf6b3e","system_id":"levelo_inurba_marseille","lat":43.27947,"lon":5.41035,"is_reserved":false,"is_disabled":false,"rental_uris":{"android":"levelo://app?vid=53c9322a-659e-45fc-9e4d-0e2599cf6b3e","ios":"levelo://app?vid=53c9322a-659e-45fc-9e4d-0e2599cf6b3e"},"vehicle_type_id":"4","last_reported":1750352956,"current_range_meters":17600,"station_id":"ce4bhnp2rcd13ifvqh0g","pricing_plan_id":"cebpf4jnsgd1na2vs0mg"},{"bike_id":"fff7a92f-bc79-45f0-973d-6d8e80c7051a","system_id":"levelo_inurba_marseille","lat":43.2861,"lon":5.37067,"is_reserved":false,"is_disabled":false,"rental_uris":{"android":"levelo://app?vid=fff7a92f-bc79-45f0-973d-6d8e80c7051a","ios":"levelo://app?vid=fff7a92f-bc79-45f0-973d-6d8e80c7051a"},"vehicle_type_id":"4","last_reported":1750352956,"current_range_meters":17600,"station_id":"ce4bht12rcd13ifvqi60","pricing_plan_id":"cebpf4jnsgd1na2vs0mg"},{"bike_id":"f138f97c-9184-4423-8851-43001f2097b7","system_id":"levelo_inurba_marseille","lat":43.21194,"lon":5.35073,"is_reserved":false,"is_disabled":false,"rental_uris":{"android":"levelo://app?vid=f138f97c-9184-4423-8851-43001f2097b7","ios":"levelo://app?vid=f138f97c-9184-4423-8851-43001f2097b7"},"vehicle_type_id":"4","last_reported":1750352956,"current_range_meters":17600,"station_id":"st_cvj6sg6p6f1abm77japg","pricing_plan_id":"cebpf4jnsgd1na2vs0mg"},{"bike_id":"7fb8f777-502e-4027-8e9f-d463bb7373be","system_id":"levelo_inurba_marseille","lat":43.29646,"lon":5.38035,"is_reserved":false,"is_disabled":false,"rental_uris":{"android":"levelo://app?vid=7fb8f777-502e-4027-8e9f-d463bb7373be","ios":"levelo://app?vid=7fb8f777-502e-4027-8e9f-d463bb7373be"},"vehicle_type_id":"4","last_reported":1750352956,"current_range_meters":18000,"station_id":"","pricing_plan_id":"cebpf4jnsgd1na2vs0mg"},{"bike_id":"650dfdbc-4825-47e6-ad0c-e18215952ca4","system_id":"levelo_inurba_marseille","lat":43.27367,"lon":5.36243,"is_reserved":false,"is_disabled":false,"rental_uris":{"android":"levelo://app?vid=650dfdbc-4825-47e6-ad0c-e18215952ca4","ios":"levelo://app?vid=650dfdbc-4825-47e6-ad0c-e18215952ca4"},"vehicle_type_id":"4","last_reported":1750352956,"current_range_meters":18000,"station_id":"ce4bhbh2rcd13ifvqeo0","pricing_plan_id":"cebpf4jnsgd1na2vs0mg"},{"bike_id":"e363306f-53a7-42d8-a215-bdbce499e1dd","system_id":"levelo_inurba_marseille","lat":43.284079,"lon":5.349941,"is_reserved":false,"is_disabled":false,"rental_uris":{"android":"levelo://app?vid=e363306f-53a7-42d8-a215-bdbce499e1dd","ios":"levelo://app?vid=e363306f-53a7-42d8-a215-bdbce499e1dd"},"vehicle_type_id":"4","last_reported":1750352956,"current_range_meters":18000,"station_id":"ce4bhbh2rcd13ifvqepg","pricing_plan_id":"cebpf4jnsgd1na2vs0mg"},{"bike_id":"f5035d12-6f6d-499b-8c76-01bbb6677f60","system_id":"levelo_inurba_marseille","lat":43.31297,"lon":5.37509,"is_reserved":false,"is_disabled":false,"rental_uris":{"android":"levelo://app?vid=f5035d12-6f6d-499b-8c76-01bbb6677f60","ios":"levelo://app?vid=f5035d12-6f6d-499b-8c76-01bbb6677f60"},"vehicle_type_id":"4","last_reported":1750352956,"current_range_meters":18800,"station_id":"","pricing_plan_id":"cebpf4jnsgd1na2vs0mg"},{"bike_id":"3939df6a-c644-4caf-9fc0-3fbc572e8f68","system_id":"levelo_inurba_marseille","lat":43.28245,"lon":5.351,"is_reserved":false,"is_disabled":false,"rental_uris":{"android":"levelo://app?vid=3939df6a-c644-4caf-9fc0-3fbc572e8f68","ios":"levelo://app?vid=3939df6a-c644-4caf-9fc0-3fbc572e8f68"},"vehicle_type_id":"4","last_reported":1750352956,"current_range_meters":18800,"station_id":"","pricing_plan_id":"cebpf4jnsgd1na2vs0mg"},{"bike_id":"474fe8de-6467-4685-b711-e41603c5f858","system_id":"levelo_inurba_marseille","lat":43.28812,"lon":5.35261,"is_reserved":false,"is_disabled":false,"rental_uris":{"android":"levelo://app?vid=474fe8de-6467-4685-b711-e41603c5f858","ios":"levelo://app?vid=474fe8de-6467-4685-b711-e41603c5f858"},"vehicle_type_id":"4","last_reported":1750352956,"current_range_meters":18800,"station_id":"","pricing_plan_id":"cebpf4jnsgd1na2vs0mg"},{"bike_id":"27970314-2047-48cf-8f5a-47edda0d779f","system_id":"levelo_inurba_marseille","lat":43.28417,"lon":5.34987,"is_reserved":false,"is_disabled":false,"rental_uris":{"android":"levelo://app?vid=27970314-2047-48cf-8f5a-47edda0d779f","ios":"levelo://app?vid=27970314-2047-48cf-8f5a-47edda0d779f"},"vehicle_type_id":"4","last_reported":1750352956,"current_range_meters":18800,"station_id":"ce4bhbh2rcd13ifvqepg","pricing_plan_id":"cebpf4jnsgd1na2vs0mg"},{"bike_id":"f25d6d24-22af-4273-a666-b2cfb24e65dc","system_id":"levelo_inurba_marseille","lat":43.27415,"lon":5.39405,"is_reserved":false,"is_disabled":false,"rental_uris":{"android":"levelo://app?vid=f25d6d24-22af-4273-a666-b2cfb24e65dc","ios":"levelo://app?vid=f25d6d24-22af-4273-a666-b2cfb24e65dc"},"vehicle_type_id":"4","last_reported":1750352956,"current_range_meters":18800,"station_id":"ce4bhdp2rcd13ifvqf20","pricing_plan_id":"cebpf4jnsgd1na2vs0mg"},{"bike_id":"a9c34c7b-7349-4689-a25f-254829e7f033","system_id":"levelo_inurba_marseille","lat":43.294375,"lon":5.397536,"is_reserved":false,"is_disabled":false,"rental_uris":{"android":"levelo://app?vid=a9c34c7b-7349-4689-a25f-254829e7f033","ios":"levelo://app?vid=a9c34c7b-7349-4689-a25f-254829e7f033"},"vehicle_type_id":"4","last_reported":1750352956,"current_range_meters":18800,"station_id":"ce4bhqp2rcd13ifvqhog","pricing_plan_id":"cebpf4jnsgd1na2vs0mg"},{"bike_id":"39ef9621-abc8-4224-9c70-d4b1653baf36","system_id":"levelo_inurba_marseille","lat":43.2119,"lon":5.35067,"is_reserved":false,"is_disabled":false,"rental_uris":{"android":"levelo://app?vid=39ef9621-abc8-4224-9c70-d4b1653baf36","ios":"levelo://app?vid=39ef9621-abc8-4224-9c70-d4b1653baf36"},"vehicle_type_id":"4","last_reported":1750352956,"current_range_meters":18800,"station_id":"st_cvj6sg6p6f1abm77japg","pricing_plan_id":"cebpf4jnsgd1na2vs0mg"},{"bike_id":"dddbcbce-2b82-4e95-8184-c1cfde48925b","system_id":"levelo_inurba_marseille","lat":43.27615,"lon":5.36109,"is_reserved":false,"is_disabled":false,"rental_uris":{"android":"levelo://app?vid=dddbcbce-2b82-4e95-8184-c1cfde48925b","ios":"levelo://app?vid=dddbcbce-2b82-4e95-8184-c1cfde48925b"},"vehicle_type_id":"4","last_reported":1750352956,"current_range_meters":19200,"station_id":"ce4bgj92rcd13ifvqbe0","pricing_plan_id":"cebpf4jnsgd1na2vs0mg"},{"bike_id":"07edaa73-4f64-4e0c-b0fc-636b6b29ce34","system_id":"levelo_inurba_marseille","lat":43.30157,"lon":5.37399,"is_reserved":false,"is_disabled":false,"rental_uris":{"android":"levelo://app?vid=07edaa73-4f64-4e0c-b0fc-636b6b29ce34","ios":"levelo://app?vid=07edaa73-4f64-4e0c-b0fc-636b6b29ce34"},"vehicle_type_id":"4","last_reported":1750352956,"current_range_meters":19200,"station_id":"ce4bgs92rcd13ifvqcc0","pricing_plan_id":"cebpf4jnsgd1na2vs0mg"},{"bike_id":"d4c4bb36-02dd-4270-afd8-8909dbb361be","system_id":"levelo_inurba_marseille","lat":43.28426,"lon":5.34989,"is_reserved":false,"is_disabled":false,"rental_uris":{"android":"levelo://app?vid=d4c4bb36-02dd-4270-afd8-8909dbb361be","ios":"levelo://app?vid=d4c4bb36-02dd-4270-afd8-8909dbb361be"},"vehicle_type_id":"4","last_reported":1750352956,"current_range_meters":19200,"station_id":"ce4bhbh2rcd13ifvqepg","pricing_plan_id":"cebpf4jnsgd1na2vs0mg"},{"bike_id":"72ace9d9-c92b-49de-aef1-08296e13698c","system_id":"levelo_inurba_marseille","lat":43.28613,"lon":5.351021,"is_reserved":false,"is_disabled":false,"rental_uris":{"android":"levelo://app?vid=72ace9d9-c92b-49de-aef1-08296e13698c","ios":"levelo://app?vid=72ace9d9-c92b-49de-aef1-08296e13698c"},"vehicle_type_id":"4","last_reported":1750352956,"current_range_meters":19200,"station_id":"ce4bhch2rcd13ifvqeug","pricing_plan_id":"cebpf4jnsgd1na2vs0mg"},{"bike_id":"e0222858-fdee-4e3d-a517-1dd356051947","system_id":"levelo_inurba_marseille","lat":43.24405,"lon":5.37109,"is_reserved":false,"is_disabled":false,"rental_uris":{"android":"levelo://app?vid=e0222858-fdee-4e3d-a517-1dd356051947","ios":"levelo://app?vid=e0222858-fdee-4e3d-a517-1dd356051947"},"vehicle_type_id":"4","last_reported":1750352956,"current_range_meters":19200,"station_id":"ce4bhhh2rcd13ifvqfk0","pricing_plan_id":"cebpf4jnsgd1na2vs0mg"},{"bike_id":"e5526de5-6efa-4007-b308-1cfd19730643","system_id":"levelo_inurba_marseille","lat":43.24663,"lon":5.38168,"is_reserved":false,"is_disabled":false,"rental_uris":{"android":"levelo://app?vid=e5526de5-6efa-4007-b308-1cfd19730643","ios":"levelo://app?vid=e5526de5-6efa-4007-b308-1cfd19730643"},"vehicle_type_id":"4","last_reported":1750352956,"current_range_meters":19200,"station_id":"ce4bhih2rcd13ifvqfr0","pricing_plan_id":"cebpf4jnsgd1na2vs0mg"},{"bike_id":"dc540ba2-fb63-45eb-b83a-1826fb3d30b7","system_id":"levelo_inurba_marseille","lat":43.2461,"lon":5.39279,"is_reserved":false,"is_disabled":false,"rental_uris":{"android":"levelo://app?vid=dc540ba2-fb63-45eb-b83a-1826fb3d30b7","ios":"levelo://app?vid=dc540ba2-fb63-45eb-b83a-1826fb3d30b7"},"vehicle_type_id":"4","last_reported":1750352956,"current_range_meters":19600,"station_id":"","pricing_plan_id":"cebpf4jnsgd1na2vs0mg"},{"bike_id":"a22aa312-0025-4f42-88e2-b1e95e79340f","system_id":"levelo_inurba_marseille","lat":43.31695,"lon":5.38406,"is_reserved":false,"is_disabled":false,"rental_uris":{"android":"levelo://app?vid=a22aa312-0025-4f42-88e2-b1e95e79340f","ios":"levelo://app?vid=a22aa312-0025-4f42-88e2-b1e95e79340f"},"vehicle_type_id":"4","last_reported":1750352956,"current_range_meters":19600,"station_id":"","pricing_plan_id":"cebpf4jnsgd1na2vs0mg"},