{"last_updated":1745622557,"ttl":60,"version":"2.2","data":{"bikes":[{"bike_id":"9040f654-b3ef-4935-8a4c-34103b1c5d43","system_id":"levelo_inurba_marseille","lat":43.2417,"lon":5.39719,"is_reserved":false,"is_disabled":false,"rental_uris":{"android":"levelo://app?vid=9040f654-b3ef-4935-8a4c-34103b1c5d43","ios":"levelo://app?vid=9040f654-b3ef-4935-8a4c-34103b1c5d43"},"vehicle_type_id":"4","last_reported":1745622557,"current_range_meters":2800,"station_id":"ce4bhn12rcd13ifvqgpg","pricing_plan_id":"cebpf4jnsgd1na2vs0mg"},{"bike_id":"17212859-5048-489d-8287-c4d9619e0597","system_id":"levelo_inurba_marseille","lat":43.21193,"lon":5.35068,"is_reserved":false,"is_disabled":false,"rental_uris":{"android":"levelo://app?vid=17212859-5048-489d-8287-c4d9619e0597","ios":"levelo://app?vid=17212859-5048-489d-8287-c4d9619e0597"},"vehicle_type_id":"4","last_reported":1745622557,"current_range_meters":2800,"station_id":"st_cvj6sg6p6f1abm77japg","pricing_plan_id":"cebpf4jnsgd1na2vs0mg"},{"bike_id":"fe4f0285-fecf-4daf-a607-2d12a2e00612","system_id":"levelo_inurba_marseille","lat":43.30217,"lon":5.39474,"is_reserved":false,"is_disabled":false,"rental_uris":{"android":"levelo://app?vid=fe4f0285-fecf-4daf-a607-2d12a2e00612","ios":"levelo://app?vid=fe4f0285-fecf-4daf-a607-2d12a2e00612"},"vehicle_type_id":"4","last_reported":1745622557,"current_range_meters":2000,"station_id":"ce4bh0p2rcd13ifvqd70","pricing_plan_id":"cebpf4jnsgd1na2vs0mg"},{"bike_id":"ead62633-4712-4e0a-a2f1-6ccfbe8b4f22","system_id":"levelo_inurba_marseille","lat":43.27053,"lon":5.40259,"is_reserved":false,"is_disabled":false,"rental_uris":{"android":"levelo://app?vid=ead62633-4712-4e0a-a2f1-6ccfbe8b4f22","ios":"levelo://app?vid=ead62633-4712-4e0a-a2f1-6ccfbe8b4f22"},"vehicle_type_id":"4","last_reported":1745622557,"current_range_meters":2800,"station_id":"ce4bhk92rcd13ifvqgc0","pricing_plan_id":"cebpf4jnsgd1na2vs0mg"},{"bike_id":"db6eba5e-58b1-4741-83a1-13492daeebab","system_id":"levelo_inurba_marseille","lat":43.30202,"lon":5.3946,"is_reserved":false,"is_disabled":false,"rental_uris":{"android":"levelo://app?vid=db6eba5e-58b1-4741-83a1-13492daeebab","ios":"levelo://app?vid=db6eba5e-58b1-4741-83a1-13492daeebab"},"vehicle_type_id":"4","last_reported":1745622557,"current_range_meters":2800,"station_id":"ce4bh0p2rcd13ifvqd70","pricing_plan_id":"cebpf4jnsgd1na2vs0mg"},{"bike_id":"938f4e24-7534-4891-9e76-0d2cb82b24aa","system_id":"levelo_inurba_marseille","lat":43.24814,"lon":5.3745,"is_reserved":false,"is_disabled":true,"rental_uris":{"android":"levelo://app?vid=938f4e24-7534-4891-9e76-0d2cb82b24aa","ios":"levelo://app?vid=938f4e24-7534-4891-9e76-0d2cb82b24aa"},"vehicle_type_id":"4","last_reported":1745622557,"current_range_meters":2800,"station_id":"ce4bhgh2rcd13ifvqfb0","pricing_plan_id":"cebpf4jnsgd1na2vs0mg"},{"bike_id":"7bc9e0f0-1858-48cc-bec0-f8a244c96ec7","system_id":"levelo_inurba_marseille","lat":43.27503,"lon":5.4244,"is_reserved":false,"is_disabled":true,"rental_uris":{"android":"levelo://app?vid=7bc9e0f0-1858-48cc-bec0-f8a244c96ec7","ios":"levelo://app?vid=7bc9e0f0-1858-48cc-bec0-f8a244c96ec7"},"vehicle_type_id":"4","last_reported":1745622557,"current_range_meters":3200,"station_id":"ce4bhn92rcd13ifvqgrg","pricing_plan_id":"cebpf4jnsgd1na2vs0mg"},{"bike_id":"0665421a-052d-4840-9df9-d527b568d595","system_id":"levelo_inurba_marseille","lat":43.32412,"lon":5.39086,"is_reserved":false,"is_disabled":true,"rental_uris":{"android":"levelo://app?vid=0665421a-052d-4840-9df9-d527b568d595","ios":"levelo://app?vid=0665421a-052d-4840-9df9-d527b568d595"},"vehicle_type_id":"4","last_reported":1745622557,"current_range_meters":3200,"station_id":"","pricing_plan_id":"cebpf4jnsgd1na2vs0mg"},{"bike_id":"15545a0b-0e94-4ea1-98b4-d876140908fe","system_id":"levelo_inurba_marseille","lat":43.28616,"lon":5.35107,"is_reserved":false,"is_disabled":false,"rental_uris":{"android":"levelo://app?vid=15545a0b-0e94-4ea1-98b4-d876140908fe","ios":"levelo://app?vid=15545a0b-0e94-4ea1-98b4-d876140908fe"},"vehicle_type_id":"4","last_reported":1745622557,"current_range_meters":3200,"station_id":"ce4bhch2rcd13ifvqeug","pricing_plan_id":"cebpf4jnsgd1na2vs0mg"},{"bike_id":"1eb3faf5-7fc7-4b89-a0dd-44765b5f2bd2","system_id":"levelo_inurba_marseille","lat":43.23062,"lon":5.35491,"is_reserved":false,"is_disabled":false,"rental_uris":{"android":"levelo://app?vid=1eb3faf5-7fc7-4b89-a0dd-44765b5f2bd2","ios":"levelo://app?vid=1eb3faf5-7fc7-4b89-a0dd-44765b5f2bd2"},"vehicle_type_id":"4","last_reported":1745622557,"current_range_meters":3600,"station_id":"cpo3342slgdg3j2ifvpg","pricing_plan_id":"cebpf4jnsgd1na2vs0mg"},{"bike_id":"345648c1-d8ab-4e6a-9b20-bbd3cea4a8a7","system_id":"levelo_inurba_marseille","lat":43.29889,"lon":5.38922,"is_reserved":false,"is_disabled":false,"rental_uris":{"android":"levelo://app?vid=345648c1-d8ab-4e6a-9b20-bbd3cea4a8a7","ios":"levelo://app?vid=345648c1-d8ab-4e6a-9b20-bbd3cea4a8a7"},"vehicle_type_id":"4","last_reported":1745622557,"current_range_meters":3600,"station_id":"ce4bh392rcd13ifvqdl0","pricing_plan_id":"cebpf4jnsgd1na2vs0mg"},{"bike_id":"d6a841b7-459a-4f71-8b06-bbd08ed00a72","system_id":"levelo_inurba_marseille","lat":43.28344,"lon":5.38112,"is_reserved":false,"is_disabled":false,"rental_uris":{"android":"levelo://app?vid=d6a841b7-459a-4f71-8b06-bbd08ed00a72","ios":"levelo://app?vid=d6a841b7-459a-4f71-8b06-bbd08ed00a72"},"vehicle_type_id":"4","last_reported":1745622557,"current_range_meters":3600,"station_id":"ce4bh412rcd13ifvqdr0","pricing_plan_id":"cebpf4jnsgd1na2vs0mg"},{"bike_id":"f524dc7d-f322-4ab6-9c88-aaac7cde0b49","system_id":"levelo_inurba_marseille","lat":43.28361,"lon":5.38583,"is_reserved":false,"is_disabled":false,"rental_uris":{"android":"levelo://app?vid=f524dc7d-f322-4ab6-9c88-aaac7cde0b49","ios":"levelo://app?vid=f524dc7d-f322-4ab6-9c88-aaac7cde0b49"},"vehicle_type_id":"4","last_reported":1745622557,"current_range_meters":3600,"station_id":"","pricing_plan_id":"cebpf4jnsgd1na2vs0mg"},{"bike_id":"d9dfdbb7-3b56-4404-977a-51c336ac30b5","system_id":"levelo_inurba_marseille","lat":43.21226,"lon":5.35075,"is_reserved":false,"is_disabled":false,"rental_uris":{"android":"levelo://app?vid=d9dfdbb7-3b56-4404-977a-51c336ac30b5","ios":"levelo://app?vid=d9dfdbb7-3b56-4404-977a-51c336ac30b5"},"vehicle_type_id":"4","last_reported":1745622557,"current_range_meters":4400,"station_id":"st_cvj6sg6p6f1abm77japg","pricing_plan_id":"cebpf4jnsgd1na2vs0mg"},{"bike_id":"8aff0d73-1664-47c7-8bf8-658126236a83","system_id":"levelo_inurba_marseille","lat":43.31264,"lon":5.40167,"is_reserved":false,"is_disabled":false,"rental_uris":{"android":"levelo://app?vid=8aff0d73-1664-47c7-8bf8-658126236a83","ios":"levelo://app?vid=8aff0d73-1664-47c7-8bf8-658126236a83"},"vehicle_type_id":"4","last_reported":1745622557,"current_range_meters":4400,"station_id":"ce4bh092rcd13ifvqd30","pricing_plan_id":"cebpf4jnsgd1na2vs0mg"},{"bike_id":"7af6bbfd-2118-4e5b-b964-cce94e494960","system_id":"levelo_inurba_marseille","lat":43.29699,"lon":5.37691,"is_reserved":false,"is_disabled":false,"rental_uris":{"android":"levelo://app?vid=7af6bbfd-2118-4e5b-b964-cce94e494960","ios":"levelo://app?vid=7af6bbfd-2118-4e5b-b964-cce94e494960"},"vehicle_type_id":"4","last_reported":1745622557,"current_range_meters":4000,"station_id":"ce4bgkh2rcd13ifvqbl0","pricing_plan_id":"cebpf4jnsgd1na2vs0mg"},{"bike_id":"b0365fe7-77a4-44a0-a9bd-2c7981c4fdab","system_id":"levelo_inurba_marseille","lat":43.31758,"lon":5.39017,"is_reserved":false,"is_disabled":false,"rental_uris":{"android":"levelo://app?vid=b0365fe7-77a4-44a0-a9bd-2c7981c4fdab","ios":"levelo://app?vid=b0365fe7-77a4-44a0-a9bd-2c7981c4fdab"},"vehicle_type_id":"4","last_reported":1745622557,"current_range_meters":4400,"station_id":"ce4bhqp2rcd13ifvqhng","pricing_plan_id":"cebpf4jnsgd1na2vs0mg"},{"bike_id":"e9ab448f-ff65-4aac-a5a6-febcb20f7369","system_id":"levelo_inurba_marseille","lat":43.27071,"lon":5.4228,"is_reserved":false,"is_disabled":false,"rental_uris":{"android":"levelo://app?vid=e9ab448f-ff65-4aac-a5a6-febcb20f7369","ios":"levelo://app?vid=e9ab448f-ff65-4aac-a5a6-febcb20f7369"},"vehicle_type_id":"4","last_reported":1745622557,"current_range_meters":4400,"station_id":"ce4bhk92rcd13ifvqgb0","pricing_plan_id":"cebpf4jnsgd1na2vs0mg"},{"bike_id":"ca7b7d84-2631-4232-bbf1-fa44212248d9","system_id":"levelo_inurba_marseille","lat":43.30939,"lon":5.4014,"is_reserved":false,"is_disabled":false,"rental_uris":{"android":"levelo://app?vid=ca7b7d84-2631-4232-bbf1-fa44212248d9","ios":"levelo://app?vid=ca7b7d84-2631-4232-bbf1-fa44212248d9"},"vehicle_type_id":"4","last_reported":1745622557,"current_range_meters":4800,"station_id":"ce4bgvp2rcd13ifvqct0","pricing_plan_id":"cebpf4jnsgd1na2vs0mg"},{"bike_id":"e725be89-03eb-4efa-abd9-401ea99c5e6d","system_id":"levelo_inurba_marseille","lat":43.30887,"lon":5.3783,"is_reserved":false,"is_disabled":false,"rental_uris":{"android":"levelo://app?vid=e725be89-03eb-4efa-abd9-401ea99c5e6d","ios":"levelo://app?vid=e725be89-03eb-4efa-abd9-401ea99c5e6d"},"vehicle_type_id":"4","last_reported":1745622557,"current_range_meters":4800,"station_id":"","pricing_plan_id":"cebpf4jnsgd1na2vs0mg"},{"bike_id":"f425d9cb-80e9-4b0a-9761-f26fba5018c2","system_id":"levelo_inurba_marseille","lat":43.287213,"lon":5.399967,"is_reserved":false,"is_disabled":true,"rental_uris":{"android":"levelo://app?vid=f425d9cb-80e9-4b0a-9761-f26fba5018c2","ios":"levelo://app?vid=f425d9cb-80e9-4b0a-9761-f26fba5018c2"},"vehicle_type_id":"4","last_reported":1745622557,"current_range_meters":4800,"station_id":"ce4bho92rcd13ifvqh3g","pricing_plan_id":"cebpf4jnsgd1na2vs0mg"},{"bike_id":"46374c49-3adc-4c5a-8966-e00f056c0d57","system_id":"levelo_inurba_marseille","lat":43.27846,"lon":5.35442,"is_reserved":false,"is_disabled":false,"rental_uris":{"android":"levelo://app?vid=46374c49-3adc-4c5a-8966-e00f056c0d57","ios":"levelo://app?vid=46374c49-3adc-4c5a-8966-e00f056c0d57"},"vehicle_type_id":"4","last_reported":1745622557,"current_range_meters":5600,"station_id":"","pricing_plan_id":"cebpf4jnsgd1na2vs0mg"},{"bike_id":"ff17a1f5-127c-439d-b4ff-7947f55ddae1","system_id":"levelo_inurba_marseille","lat":43.2811,"lon":5.37831,"is_reserved":false,"is_disabled":false,"rental_uris":{"android":"levelo://app?vid=ff17a1f5-127c-439d-b4ff-7947f55ddae1","ios":"levelo://app?vid=ff17a1f5-127c-439d-b4ff-7947f55ddae1"},"vehicle_type_id":"4","last_reported":1745622557,"current_range_meters":5600,"station_id":"ce4bha12rcd13ifvqee0","pricing_plan_id":"cebpf4jnsgd1na2vs0mg"},{"bike_id":"306a58c0-053c-4a47-8c40-1c362463c26f","system_id":"levelo_inurba_marseille","lat":43.31018,"lon":5.37108,"is_reserved":false,"is_disabled":false,"rental_uris":{"android":"levelo://app?vid=306a58c0-053c-4a47-8c40-1c362463c26f","ios":"levelo://app?vid=306a58c0-053c-4a47-8c40-1c362463c26f"},"vehicle_type_id":"4","last_reported":1745622557,"current_range_meters":5600,"station_id":"","pricing_plan_id":"cebpf4jnsgd1na2vs0mg"},{"bike_id":"b3a308fb-d4be-432b-b9c4-d913fca7602d","system_id":"levelo_inurba_marseille","lat":43.28348,"lon":5.38099,"is_reserved":false,"is_disabled":false,"rental_uris":{"android":"levelo://app?vid=b3a308fb-d4be-432b-b9c4-d913fca7602d","ios":"levelo://app?vid=b3a308fb-d4be-432b-b9c4-d913fca7602d"},"vehicle_type_id":"4","last_reported":1745622557,"current_range_meters":4800,"station_id":"ce4bh412rcd13ifvqdr0","pricing_plan_id":"cebpf4jnsgd1na2vs0mg"},{"bike_id":"44d9ccfb-c997-4c4d-a4b4-61d548b01ada","system_id":"levelo_inurba_marseille","lat":43.29804,"lon":5.40396,"is_reserved":false,"is_disabled":false,"rental_uris":{"android":"levelo://app?vid=44d9ccfb-c997-4c4d-a4b4-61d548b01ada","ios":"levelo://app?vid=44d9ccfb-c997-4c4d-a4b4-61d548b01ada"},"vehicle_type_id":"4","last_reported":1745622557,"current_range_meters":6000,"station_id":"ce4bh112rcd13ifvqd90","pricing_plan_id":"cebpf4jnsgd1na2vs0mg"},{"bike_id":"52cb41a7-5096-4f42-a09a-abce4785d5e2","system_id":"levelo_inurba_marseille","lat":43.270732,"lon":5.422779,"is_reserved":false,"is_disabled":true,"rental_uris":{"android":"levelo://app?vid=52cb41a7-5096-4f42-a09a-abce4785d5e2","ios":"levelo://app?vid=52cb41a7-5096-4f42-a09a-abce4785d5e2"},"vehicle_type_id":"4","last_reported":1745622557,"current_range_meters":6000,"station_id":"ce4bhk92rcd13ifvqgb0","pricing_plan_id":"cebpf4jnsgd1na2vs0mg"},{"bike_id":"ecdd0875-7d56-4cd2-a14a-671f78e26c97","system_id":"levelo_inurba_marseille","lat":43.23056,"lon":5.3548,"is_reserved":false,"is_disabled":false,"rental_uris":{"android":"levelo://app?vid=ecdd0875-7d56-4cd2-a14a-671f78e26c97","ios":"levelo://app?vid=ecdd0875-7d56-4cd2-a14a-671f78e26c97"},"vehicle_type_id":"4","last_reported":1745622557,"current_range_meters":6400,"station_id":"cpo3342slgdg3j2ifvpg","pricing_plan_id":"cebpf4jnsgd1na2vs0mg"},{"bike_id":"22bfc8f4-7dd2-4275-a4e7-b480888466d6","system_id":"levelo_inurba_marseille","lat":43.31491,"lon":5.37308,"is_reserved":false,"is_disabled":false,"rental_uris":{"android":"levelo://app?vid=22bfc8f4-7dd2-4275-a4e7-b480888466d6","ios":"levelo://app?vid=22bfc8f4-7dd2-4275-a4e7-b480888466d6"},"vehicle_type_id":"4","last_reported":1745622557,"current_range_meters":6000,"station_id":"ce4bgt12rcd13ifvqcd0","pricing_plan_id":"cebpf4jnsgd1na2vs0mg"},{"bike_id":"e615b763-b9b6-4cb5-a1c0-003a03d00de1","system_id":"levelo_inurba_marseille","lat":43.29752,"lon":5.40952,"is_reserved":false,"is_disabled":false,"rental_uris":{"android":"levelo://app?vid=e615b763-b9b6-4cb5-a1c0-003a03d00de1","ios":"levelo://app?vid=e615b763-b9b6-4cb5-a1c0-003a03d00de1"},"vehicle_type_id":"4","last_reported":1745622557,"current_range_meters":6400,"station_id":"","pricing_plan_id":"cebpf4jnsgd1na2vs0mg"},{"bike_id":"54ac72c2-6e50-4c81-904f-75d068faa7c1","system_id":"levelo_inurba_marseille","lat":43.28406,"lon":5.37511,"is_reserved":false,"is_disabled":false,"rental_uris":{"android":"levelo://app?vid=54ac72c2-6e50-4c81-904f-75d068faa7c1","ios":"levelo://app?vid=54ac72c2-6e50-4c81-904f-75d068faa7c1"},"vehicle_type_id":"4","last_reported":1745622557,"current_range_meters":6400,"station_id":"ce4bh412rcd13ifvqds0","pricing_plan_id":"cebpf4jnsgd1na2vs0mg"},{"bike_id":"4bf0cade-afa0-4731-b40e-ef3f8f4a4fe5","system_id":"levelo_inurba_marseille","lat":43.30092,"lon":5.39089,"is_reserved":false,"is_disabled":true,"rental_uris":{"android":"levelo://app?vid=4bf0cade-afa0-4731-b40e-ef3f8f4a4fe5","ios":"levelo://app?vid=4bf0cade-afa0-4731-b40e-ef3f8f4a4fe5"},"vehicle_type_id":"4","last_reported":1745622557,"current_range_meters":6800,"station_id":"ce4bh192rcd13ifvqdb0","pricing_plan_id":"cebpf4jnsgd1na2vs0mg"},{"bike_id":"ab49b0ae-90ee-4214-bbd8-e0867a6763e8","system_id":"levelo_inurba_marseille","lat":43.31255,"lon":5.37167,"is_reserved":false,"is_disabled":true,"rental_uris":{"android":"levelo://app?vid=ab49b0ae-90ee-4214-bbd8-e0867a6763e8","ios":"levelo://app?vid=ab49b0ae-90ee-4214-bbd8-e0867a6763e8"},"vehicle_type_id":"4","last_reported":1745622557,"current_range_meters":6800,"station_id":"","pricing_plan_id":"cebpf4jnsgd1na2vs0mg"},{"bike_id":"3767ba54-0ee2-464a-8805-d28bad95405b","system_id":"levelo_inurba_marseille","lat":43.2594,"lon":5.37534,"is_reserved":false,"is_disabled":false,"rental_uris":{"android":"levelo://app?vid=3767ba54-0ee2-464a-8805-d28bad95405b","ios":"levelo://app?vid=3767ba54-0ee2-464a-8805-d28bad95405b"},"vehicle_type_id":"4","last_reported":1745622557,"current_range_meters":6800,"station_id":"","pricing_plan_id":"cebpf4jnsgd1na2vs0mg"},{"bike_id":"aac361da-6c58-45db-a140-2947e8dbce74","system_id":"levelo_inurba_marseille","lat":43.30332,"lon":5.40439,"is_reserved":false,"is_disabled":false,"rental_uris":{"android":"levelo://app?vid=aac361da-6c58-45db-a140-2947e8dbce74","ios":"levelo://app?vid=aac361da-6c58-45db-a140-2947e8dbce74"},"vehicle_type_id":"4","last_reported":1745622557,"current_range_meters":6800,"station_id":"ce4bh012rcd13ifvqd10","pricing_plan_id":"cebpf4jnsgd1na2vs0mg"},{"bike_id":"df787bc7-9291-4649-a538-442a7d7e36c9","system_id":"levelo_inurba_marseille","lat":43.26556,"lon":5.37282,"is_reserved":false,"is_disabled":false,"rental_uris":{"android":"levelo://app?vid=df787bc7-9291-4649-a538-442a7d7e36c9","ios":"levelo://app?vid=df787bc7-9291-4649-a538-442a7d7e36c9"},"vehicle_type_id":"4","last_reported":1745622557,"current_range_meters":7200,"station_id":"ce4bhg12rcd13ifvqf70","pricing_plan_id":"cebpf4jnsgd1na2vs0mg"},{"bike_id":"c1ccd199-3bfe-4293-a4cb-6829c97c125f","system_id":"levelo_inurba_marseille","lat":43.32415,"lon":5.39097,"is_reserved":false,"is_disabled":true,"rental_uris":{"android":"levelo://app?vid=c1ccd199-3bfe-4293-a4cb-6829c97c125f","ios":"levelo://app?vid=c1ccd199-3bfe-4293-a4cb-6829c97c125f"},"vehicle_type_id":"4","last_reported":1745622557,"current_range_meters":7200,"station_id":"","pricing_plan_id":"cebpf4jnsgd1na2vs0mg"},{"bike_id":"35a0482d-f8b2-461d-a2d6-bbfa01c9d977","system_id":"levelo_inurba_marseille","lat":43.30906,"lon":5.36834,"is_reserved":false,"is_disabled":false,"rental_uris":{"android":"levelo://app?vid=35a0482d-f8b2-461d-a2d6-bbfa01c9d977","ios":"levelo://app?vid=35a0482d-f8b2-461d-a2d6-bbfa01c9d977"},"vehicle_type_id":"4","last_reported":1745622557,"current_range_meters":6800,"station_id":"ce4bgn92rcd13ifvqbvg","pricing_plan_id":"cebpf4jnsgd1na2vs0mg"},{"bike_id":"f1a9f5db-d774-4f36-a0be-69b289d14fd1","system_id":"levelo_inurba_marseille","lat":43.21189,"lon":5.35067,"is_reserved":false,"is_disabled":false,"rental_uris":{"android":"levelo://app?vid=f1a9f5db-d774-4f36-a0be-69b289d14fd1","ios":"levelo://app?vid=f1a9f5db-d774-4f36-a0be-69b289d14fd1"},"vehicle_type_id":"4","last_reported":1745622557,"current_range_meters":7200,"station_id":"st_cvj6sg6p6f1abm77japg","pricing_plan_id":"cebpf4jnsgd1na2vs0mg"},{"bike_id":"d00f919a-8c4b-4629-b60b-18e97fef7b97","system_id":"levelo_inurba_marseille","lat":43.29875,"lon":5.38904,"is_reserved":false,"is_disabled":false,"rental_uris":{"android":"levelo://app?vid=d00f919a-8c4b-4629-b60b-18e97fef7b97","ios":"levelo://app?vid=d00f919a-8c4b-4629-b60b-18e97fef7b97"},"vehicle_type_id":"4","last_reported":1745622557,"current_range_meters":7200,"station_id":"ce4bh392rcd13ifvqdl0","pricing_plan_id":"cebpf4jnsgd1na2vs0mg"},{"bike_id":"ccd6bac4-360a-4bd0-ab4d-264b48825315","system_id":"levelo_inurba_marseille","lat":43.28348,"lon":5.38113,"is_reserved":false,"is_disabled":false,"rental_uris":{"android":"levelo://app?vid=ccd6bac4-360a-4bd0-ab4d-264b48825315","ios":"levelo://app?vid=ccd6bac4-360a-4bd0-ab4d-264b48825315"},"vehicle_type_id":"4","last_reported":1745622557,"current_range_meters":7200,"station_id":"ce4bh412rcd13ifvqdr0","pricing_plan_id":"cebpf4jnsgd1na2vs0mg"},{"bike_id":"1746265e-27ad-4913-8a06-b6dc5372d844","system_id":"levelo_inurba_marseille","lat":43.26045,"lon":5.37464,"is_reserved":false,"is_disabled":false,"rental_uris":{"android":"levelo://app?vid=1746265e-27ad-4913-8a06-b6dc5372d844","ios":"levelo://app?vid=1746265e-27ad-4913-8a06-b6dc5372d844"},"vehicle_type_id":"4","last_reported":1745622557,"current_range_meters":8000,"station_id":"","pricing_plan_id":"cebpf4jnsgd1na2vs0mg"},{"bike_id":"af9f4d61-e477-4a90-b51d-7c801b7d74e8","system_id":"levelo_inurba_marseille","lat":43.28571,"lon":5.39493,"is_reserved":false,"is_disabled":false,"rental_uris":{"android":"levelo://app?vid=af9f4d61-e477-4a90-b51d-7c801b7d74e8","ios":"levelo://app?vid=af9f4d61-e477-4a90-b51d-7c801b7d74e8"},"vehicle_type_id":"4","last_reported":1745622557,"current_range_meters":8000,"station_id":"ce4bh292rcd13ifvqdg0","pricing_plan_id":"cebpf4jnsgd1na2vs0mg"},{"bike_id":"185ea38f-9f5e-4f80-9a28-ea11ae3260c6","system_id":"levelo_inurba_marseille","lat":43.306377,"lon":5.400787,"is_reserved":false,"is_disabled":false,"rental_uris":{"android":"levelo://app?vid=185ea38f-9f5e-4f80-9a28-ea11ae3260c6","ios":"levelo://app?vid=185ea38f-9f5e-4f80-9a28-ea11ae3260c6"},"vehicle_type_id":"4","last_reported":1745622557,"current_range_meters":8000,"station_id":"ce4bh112rcd13ifvqda0","pricing_plan_id":"cebpf4jnsgd1na2vs0mg"},{"bike_id":"11892210-b2a1-4212-9103-769a3c7c750f","system_id":"levelo_inurba_marseille","lat":43.296138,"lon":5.381523,"is_reserved":false,"is_disabled":false,"rental_uris":{"android":"levelo://app?vid=11892210-b2a1-4212-9103-769a3c7c750f","ios":"levelo://app?vid=11892210-b2a1-4212-9103-769a3c7c750f"},"vehicle_type_id":"4","last_reported":1745622557,"current_range_meters":8000,"station_id":"ce4bgl12rcd13ifvqbo0","pricing_plan_id":"cebpf4jnsgd1na2vs0mg"},{"bike_id":"3801de3f-1722-4ac3-951d-b4b27bd0395c","system_id":"levelo_inurba_marseille","lat":43.34039,"lon":5.37495,"is_reserved":false,"is_disabled":false,"rental_uris":{"android":"levelo://app?vid=3801de3f-1722-4ac3-951d-b4b27bd0395c","ios":"levelo://app?vid=3801de3f-1722-4ac3-951d-b4b27bd0395c"},"vehicle_type_id":"4","last_reported":1745622557,"current_range_meters":8000,"station_id":"","pricing_plan_id":"cebpf4jnsgd1na2vs0mg"},{"bike_id":"4887e2b5-d5f2-4dff-95ac-b715b69e093b","system_id":"levelo_inurba_marseille","lat":43.27055,"lon":5.4026,"is_reserved":false,"is_disabled":false,"rental_uris":{"android":"levelo://app?vid=4887e2b5-d5f2-4dff-95ac-b715b69e093b","ios":"levelo://app?vid=4887e2b5-d5f2-4dff-95ac-b715b69e093b"},"vehicle_type_id":"4","last_reported":1745622557,"current_range_meters":8000,"station_id":"ce4bhk92rcd13ifvqgc0","pricing_plan_id":"cebpf4jnsgd1na2vs0mg"},{"bike_id":"261ed139-77cc-4e31-8526-09806692c5d3","system_id":"levelo_inurba_marseille","lat":43.31492,"lon":5.37305,"is_reserved":false,"is_disabled":false,"rental_uris":{"android":"levelo://app?vid=261ed139-77cc-4e31-8526-09806692c5d3","ios":"levelo://app?vid=261ed139-77cc-4e31-8526-09806692c5d3"},"vehicle_type_id":"4","last_reported":1745622557,"current_range_meters":8000,"station_id":"ce4bgt12rcd13ifvqcd0","pricing_plan_id":"cebpf4jnsgd1na2vs0mg"},{"bike_id":"2ca87a11-564f-4d02-9bbe-38f647a02125","system_id":"levelo_inurba_marseille","lat":43.31328,"lon":5.39695,"is_reserved":false,"is_disabled":true,"rental_uris":{"android":"levelo://app?vid=2ca87a11-564f-4d02-9bbe-38f647a02125","ios":"levelo://app?vid=2ca87a11-564f-4d02-9bbe-38f647a02125"},"vehicle_type_id":"4","last_reported":1745622557,"current_range_meters":8000,"station_id":"ce4bgvp2rcd13ifvqcu0","pricing_plan_id":"cebpf4jnsgd1na2vs0mg"},{"bike_id":"55d1e961-60a0-466d-a354-3bdbec9579c4","system_id":"levelo_inurba_marseille","lat":43.25115,"lon":5.40323,"is_reserved":false,"is_disabled":false,"rental_uris":{"android":"levelo://app?vid=55d1e961-60a0-466d-a354-3bdbec9579c4","ios":"levelo://app?vid=55d1e961-60a0-466d-a354-3bdbec9579c4"},"vehicle_type_id":"4","last_reported":1745622557,"current_range_meters":8000,"station_id":"ce4bhlh2rcd13ifvqgig","pricing_plan_id":"cebpf4jnsgd1na2vs0mg"},{"bike_id":"7089f813-c9d3-490c-bfe0-4981d9591efb","system_id":"levelo_inurba_marseille","lat":43.28702,"lon":5.39981,"is_reserved":false,"is_disabled":false,"rental_uris":{"android":"levelo://app?vid=7089f813-c9d3-490c-bfe0-4981d9591efb","ios":"levelo://app?vid=7089f813-c9d3-490c-bfe0-4981d9591efb"},"vehicle_type_id":"4","last_reported":1745622557,"current_range_meters":8400,"station_id":"ce4bho92rcd13ifvqh3g","pricing_plan_id":"cebpf4jnsgd1na2vs0mg"},{"bike_id":"ce63ea74-b55f-4fdc-8bc3-554c76170ff4","system_id":"levelo_inurba_marseille","lat":43.29801,"lon":5.40398,"is_reserved":false,"is_disabled":false,"rental_uris":{"android":"levelo://app?vid=ce63ea74-b55f-4fdc-8bc3-554c76170ff4","ios":"levelo://app?vid=ce63ea74-b55f-4fdc-8bc3-554c76170ff4"},"vehicle_type_id":"4","last_reported":1745622557,"current_range_meters":8400,"station_id":"ce4bh112rcd13ifvqd90","pricing_plan_id":"cebpf4jnsgd1na2vs0mg"},{"bike_id":"ef2aa23a-2044-41b9-af15-abcda1648fd2","system_id":"levelo_inurba_marseille","lat":43.28724,"lon":5.37926,"is_reserved":false,"is_disabled":false,"rental_uris":{"android":"levelo://app?vid=ef2aa23a-2044-41b9-af15-abcda1648fd2","ios":"levelo://app?vid=ef2aa23a-2044-41b9-af15-abcda1648fd2"},"vehicle_type_id":"4","last_reported":1745622557,"current_range_meters":8400,"station_id":"ce4bh9p2rcd13ifvqec0","pricing_plan_id":"cebpf4jnsgd1na2vs0mg"},{"bike_id":"228b6590-42c7-46eb-ab0f-678013f0a9d1","system_id":"levelo_inurba_marseille","lat":43.24776,"lon":5.37465,"is_reserved":false,"is_disabled":true,"rental_uris":{"android":"levelo://app?vid=228b6590-42c7-46eb-ab0f-678013f0a9d1","ios":"levelo://app?vid=228b6590-42c7-46eb-ab0f-678013f0a9d1"},"vehicle_type_id":"4","last_reported":1745622557,"current_range_meters":8400,"station_id":"ce4bhgh2rcd13ifvqfb0","pricing_plan_id":"cebpf4jnsgd1na2vs0mg"},{"bike_id":"b25b8c31-73a7-4a5a-98f9-e13643c9f5bd","system_id":"levelo_inurba_marseille","lat":43.29036,"lon":5.39959,"is_reserved":false,"is_disabled":false,"rental_uris":{"android":"levelo://app?vid=b25b8c31-73a7-4a5a-98f9-e13643c9f5bd","ios":"levelo://app?vid=b25b8c31-73a7-4a5a-98f9-e13643c9f5bd"},"vehicle_type_id":"4","last_reported":1745622557,"current_range_meters":8400,"station_id":"ce4bh392rcd13ifvqdm0","pricing_plan_id":"cebpf4jnsgd1na2vs0mg"},{"bike_id":"f53ca2be-5e14-4232-a442-dc2e98de0bb7","system_id":"levelo_inurba_marseille","lat":43.27324,"lon":5.39084,"is_reserved":false,"is_disabled":true,"rental_uris":{"android":"levelo://app?vid=f53ca2be-5e14-4232-a442-dc2e98de0bb7","ios":"levelo://app?vid=f53ca2be-5e14-4232-a442-dc2e98de0bb7"},"vehicle_type_id":"4","last_reported":1745622557,"current_range_meters":8400,"station_id":"ce4bhgp2rcd13ifvqfe0","pricing_plan_id":"cebpf4jnsgd1na2vs0mg"},{"bike_id":"f335e7c1-ab6e-441d-8be1-03de5cf0b11d","system_id":"levelo_inurba_marseille","lat":43.29195,"lon":5.39312,"is_reserved":false,"is_disabled":false,"rental_uris":{"android":"levelo://app?vid=f335e7c1-ab6e-441d-8be1-03de5cf0b11d","ios":"levelo://app?vid=f335e7c1-ab6e-441d-8be1-03de5cf0b11d"},"vehicle_type_id":"4","last_reported":1745622557,"current_range_meters":8400,"station_id":"ce4bh192rcd13ifvqdd0","pricing_plan_id":"cebpf4jnsgd1na2vs0mg"},{"bike_id":"a00b4d75-fa25-46e7-a621-8739f4f8bd79","system_id":"levelo_inurba_marseille","lat":43.28414,"lon":5.37573,"is_reserved":false,"is_disabled":false,"rental_uris":{"android":"levelo://app?vid=a00b4d75-fa25-46e7-a621-8739f4f8bd79","ios":"levelo://app?vid=a00b4d75-fa25-46e7-a621-8739f4f8bd79"},"vehicle_type_id":"4","last_reported":1745622557,"current_range_meters":8400,"station_id":"","pricing_plan_id":"cebpf4jnsgd1na2vs0mg"},{"bike_id":"10757ebb-06be-4f9b-ab8c-a02d1edf179d","system_id":"levelo_inurba_marseille","lat":43.28843,"lon":5.39301,"is_reserved":false,"is_disabled":false,"rental_uris":{"android":"levelo://app?vid=10757ebb-06be-4f9b-ab8c-a02d1edf179d","ios":"levelo://app?vid=10757ebb-06be-4f9b-ab8c-a02d1edf179d"},"vehicle_type_id":"4","last_reported":1745622557,"current_range_meters":8800,"station_id":"ce4bh2p2rcd13ifvqdi0","pricing_plan_id":"cebpf4jnsgd1na2vs0mg"},{"bike_id":"25aae470-cd01-4375-86ea-e34c2400af2c","system_id":"levelo_inurba_marseille","lat":43.29022,"lon":5.38651,"is_reserved":false,"is_disabled":false,"rental_uris":{"android":"levelo://app?vid=25aae470-cd01-4375-86ea-e34c2400af2c","ios":"levelo://app?vid=25aae470-cd01-4375-86ea-e34c2400af2c"},"vehicle_type_id":"4","last_reported":1745622557,"current_range_meters":8800,"station_id":"ce4bh4p2rcd13ifvqe0g","pricing_plan_id":"cebpf4jnsgd1na2vs0mg"},{"bike_id":"a5826db2-d709-4fbc-b54d-38f43824cce2","system_id":"levelo_inurba_marseille","lat":43.28052,"lon":5.35635,"is_reserved":false,"is_disabled":false,"rental_uris":{"android":"levelo://app?vid=a5826db2-d709-4fbc-b54d-38f43824cce2","ios":"levelo://app?vid=a5826db2-d709-4fbc-b54d-38f43824cce2"},"vehicle_type_id":"4","last_reported":1745622557,"current_range_meters":8800,"station_id":"","pricing_plan_id":"cebpf4jnsgd1na2vs0mg"},{"bike_id":"cc49d7df-7ac8-4737-8445-c197f979bd4d","system_id":"levelo_inurba_marseille","lat":43.28856,"lon":5.35854,"is_reserved":false,"is_disabled":true,"rental_uris":{"android":"levelo://app?vid=cc49d7df-7ac8-4737-8445-c197f979bd4d","ios":"levelo://app?vid=cc49d7df-7ac8-4737-8445-c197f979bd4d"},"vehicle_type_id":"4","last_reported":1745622557,"current_range_meters":8800,"station_id":"ce4bhb12rcd13ifvqem0","pricing_plan_id":"cebpf4jnsgd1na2vs0mg"},{"bike_id":"f50ff1c4-68f4-418b-a166-e1ba5b322376","system_id":"levelo_inurba_marseille","lat":43.30927,"lon":5.40147,"is_reserved":false,"is_disabled":true,"rental_uris":{"android":"levelo://app?vid=f50ff1c4-68f4-418b-a166-e1ba5b322376","ios":"levelo://app?vid=f50ff1c4-68f4-418b-a166-e1ba5b322376"},"vehicle_type_id":"4","last_reported":1745622557,"current_range_meters":8800,"station_id":"ce4bgvp2rcd13ifvqct0","pricing_plan_id":"cebpf4jnsgd1na2vs0mg"},{"bike_id":"3b154790-3924-40d2-8858-c506203b6522","system_id":"levelo_inurba_marseille","lat":43.31119,"lon":5.37767,"is_reserved":false,"is_disabled":false,"rental_uris":{"android":"levelo://app?vid=3b154790-3924-40d2-8858-c506203b6522","ios":"levelo://app?vid=3b154790-3924-40d2-8858-c506203b6522"},"vehicle_type_id":"4","last_reported":1745622557,"current_range_meters":8800,"station_id":"ce4bgt92rcd13ifvqcg0","pricing_plan_id":"cebpf4jnsgd1na2vs0mg"},{"bike_id":"76c0b669-3390-4019-ae3b-4fbf32fa23ef","system_id":"levelo_inurba_marseille","lat":43.29021,"lon":5.38141,"is_reserved":false,"is_disabled":false,"rental_uris":{"android":"levelo://app?vid=76c0b669-3390-4019-ae3b-4fbf32fa23ef","ios":"levelo://app?vid=76c0b669-3390-4019-ae3b-4fbf32fa23ef"},"vehicle_type_id":"4","last_reported":1745622557,"current_range_meters":8800,"station_id":"ce4bh4p2rcd13ifvqe1g","pricing_plan_id":"cebpf4jnsgd1na2vs0mg"},{"bike_id":"80ca7186-6be3-49d7-98b9-518be2f29b22","system_id":"levelo_inurba_marseille","lat":43.33609,"lon":5.4103,"is_reserved":false,"is_disabled":false,"rental_uris":{"android":"levelo://app?vid=80ca7186-6be3-49d7-98b9-518be2f29b22","ios":"levelo://app?vid=80ca7186-6be3-49d7-98b9-518be2f29b22"},"vehicle_type_id":"4","last_reported":1745622557,"current_range_meters":8800,"station_id":"ce4bhqh2rcd13ifvqhmg","pricing_plan_id":"cebpf4jnsgd1na2vs0mg"},{"bike_id":"c4cca39c-90e0-43f9-b239-cb818cf1b0d4","system_id":"levelo_inurba_marseille","lat":43.29571,"lon":5.39977,"is_reserved":false,"is_disabled":false,"rental_uris":{"android":"levelo://app?vid=c4cca39c-90e0-43f9-b239-cb818cf1b0d4","ios":"levelo://app?vid=c4cca39c-90e0-43f9-b239-cb818cf1b0d4"},"vehicle_type_id":"4","last_reported":1745622557,"current_range_meters":8800,"station_id":"ce4bh312rcd13ifvqdj0","pricing_plan_id":"cebpf4jnsgd1na2vs0mg"},{"bike_id":"7410bca4-dc06-4c61-a6c1-1417f60c6640","system_id":"levelo_inurba_marseille","lat":43.31485,"lon":5.37294,"is_reserved":false,"is_disabled":false,"rental_uris":{"android":"levelo://app?vid=7410bca4-dc06-4c61-a6c1-1417f60c6640","ios":"levelo://app?vid=7410bca4-dc06-4c61-a6c1-1417f60c6640"},"vehicle_type_id":"4","last_reported":1745622557,"current_range_meters":9200,"station_id":"ce4bgt12rcd13ifvqcd0","pricing_plan_id":"cebpf4jnsgd1na2vs0mg"},{"bike_id":"a8fa3efc-6a2d-4c44-83be-0f9566ddd8fd","system_id":"levelo_inurba_marseille","lat":43.25576,"lon":5.38258,"is_reserved":false,"is_disabled":false,"rental_uris":{"android":"levelo://app?vid=a8fa3efc-6a2d-4c44-83be-0f9566ddd8fd","ios":"levelo://app?vid=a8fa3efc-6a2d-4c44-83be-0f9566ddd8fd"},"vehicle_type_id":"4","last_reported":1745622557,"current_range_meters":9200,"station_id":"ce4bhih2rcd13ifvqfs0","pricing_plan_id":"cebpf4jnsgd1na2vs0mg"},{"bike_id":"478c9352-5a39-4acd-b180-3b57eda27868","system_id":"levelo_inurba_marseille","lat":43.31368,"lon":5.38498,"is_reserved":false,"is_disabled":false,"rental_uris":{"android":"levelo://app?vid=478c9352-5a39-4acd-b180-3b57eda27868","ios":"levelo://app?vid=478c9352-5a39-4acd-b180-3b57eda27868"},"vehicle_type_id":"4","last_reported":1745622557,"current_range_meters":9200,"station_id":"ce4bgt92rcd13ifvqcf0","pricing_plan_id":"cebpf4jnsgd1na2vs0mg"},{"bike_id":"b1aedeff-bd9d-4791-a994-b78ec25f63ff","system_id":"levelo_inurba_marseille","lat":43.29632,"lon":5.40591,"is_reserved":false,"is_disabled":false,"rental_uris":{"android":"levelo://app?vid=b1aedeff-bd9d-4791-a994-b78ec25f63ff","ios":"levelo://app?vid=b1aedeff-bd9d-4791-a994-b78ec25f63ff"},"vehicle_type_id":"4","last_reported":1745622557,"current_range_meters":9200,"station_id":"ce4bh0h2rcd13ifvqd60","pricing_plan_id":"cebpf4jnsgd1na2vs0mg"},{"bike_id":"0e80866b-a6f0-4ce3-8608-3485dfa95089","system_id":"levelo_inurba_marseille","lat":43.28697,"lon":5.3999,"is_reserved":false,"is_disabled":false,"rental_uris":{"android":"levelo://app?vid=0e80866b-a6f0-4ce3-8608-3485dfa95089","ios":"levelo://app?vid=0e80866b-a6f0-4ce3-8608-3485dfa95089"},"vehicle_type_id":"4","last_reported":1745622557,"current_range_meters":9200,"station_id":"ce4bho92rcd13ifvqh3g","pricing_plan_id":"cebpf4jnsgd1na2vs0mg"},{"bike_id":"5c8dde23-03af-4ec7-8c64-b6a7b95cfa5a","system_id":"levelo_inurba_marseille","lat":43.33746,"lon":5.3918,"is_reserved":false,"is_disabled":false,"rental_uris":{"android":"levelo://app?vid=5c8dde23-03af-4ec7-8c64-b6a7b95cfa5a","ios":"levelo://app?vid=5c8dde23-03af-4ec7-8c64-b6a7b95cfa5a"},"vehicle_type_id":"4","last_reported":1745622557,"current_range_meters":9200,"station_id":"ce4bhr92rcd13ifvqhsg","pricing_plan_id":"cebpf4jnsgd1na2vs0mg"},{"bike_id":"e55b7fd1-db0d-4417-a85a-eee1595f4095","system_id":"levelo_inurba_marseille","lat":43.2794,"lon":5.41016,"is_reserved":false,"is_disabled":false,"rental_uris":{"android":"levelo://app?vid=e55b7fd1-db0d-4417-a85a-eee1595f4095","ios":"levelo://app?vid=e55b7fd1-db0d-4417-a85a-eee1595f4095"},"vehicle_type_id":"4","last_reported":1745622557,"current_range_meters":9200,"station_id":"ce4bhnp2rcd13ifvqh0g","pricing_plan_id":"cebpf4jnsgd1na2vs0mg"},{"bike_id":"3060a98f-4723-4c0c-a5f3-8d302c950512","system_id":"levelo_inurba_marseille","lat":43.28574,"lon":5.39491,"is_reserved":false,"is_disabled":false,"rental_uris":{"android":"levelo://app?vid=3060a98f-4723-4c0c-a5f3-8d302c950512","ios":"levelo://app?vid=3060a98f-4723-4c0c-a5f3-8d302c950512"},"vehicle_type_id":"4","last_reported":1745622557,"current_range_meters":9600,"station_id":"ce4bh292rcd13ifvqdg0","pricing_plan_id":"cebpf4jnsgd1na2vs0mg"},{"bike_id":"78c7f484-570c-4dec-877d-06e748e2a726","system_id":"levelo_inurba_marseille","lat":43.29786,"lon":5.38119,"is_reserved":false,"is_disabled":true,"rental_uris":{"android":"levelo://app?vid=78c7f484-570c-4dec-877d-06e748e2a726","ios":"levelo://app?vid=78c7f484-570c-4dec-877d-06e748e2a726"},"vehicle_type_id":"4","last_reported":1745622557,"current_range_meters":9600,"station_id":"ce4bgip2rcd13ifvqbb0","pricing_plan_id":"cebpf4jnsgd1na2vs0mg"},{"bike_id":"dceec8ca-6c2d-4af9-91fa-ec9ec02048d8","system_id":"levelo_inurba_marseille","lat":43.295267,"lon":5.385343,"is_reserved":false,"is_disabled":false,"rental_uris":{"android":"levelo://app?vid=dceec8ca-6c2d-4af9-91fa-ec9ec02048d8","ios":"levelo://app?vid=dceec8ca-6c2d-4af9-91fa-ec9ec02048d8"},"vehicle_type_id":"4","last_reported":1745622557,"current_range_meters":9600,"station_id":"ce4bgih2rcd13ifvqba0","pricing_plan_id":"cebpf4jnsgd1na2vs0mg"},{"bike_id":"edbc9bff-8242-42ee-887f-3b5d28f3a582","system_id":"levelo_inurba_marseille","lat":43.29387,"lon":5.37855,"is_reserved":false,"is_disabled":true,"rental_uris":{"android":"levelo://app?vid=edbc9bff-8242-42ee-887f-3b5d28f3a582","ios":"levelo://app?vid=edbc9bff-8242-42ee-887f-3b5d28f3a582"},"vehicle_type_id":"4","last_reported":1745622557,"current_range_meters":9600,"station_id":"ce4bgjh2rcd13ifvqbf0","pricing_plan_id":"cebpf4jnsgd1na2vs0mg"},{"bike_id":"dc01f0b5-b1ff-492a-9187-c2aa24895f43","system_id":"levelo_inurba_marseille","lat":43.231981,"lon":5.399797,"is_reserved":false,"is_disabled":false,"rental_uris":{"android":"levelo://app?vid=dc01f0b5-b1ff-492a-9187-c2aa24895f43","ios":"levelo://app?vid=dc01f0b5-b1ff-492a-9187-c2aa24895f43"},"vehicle_type_id":"4","last_reported":1745622557,"current_range_meters":9600,"station_id":"ce4bhn12rcd13ifvqgqg","pricing_plan_id":"cebpf4jnsgd1na2vs0mg"},{"bike_id":"e18ab0c4-aa80-4836-b0a0-9c168644a24c","system_id":"levelo_inurba_marseille","lat":43.28852,"lon":5.393,"is_reserved":false,"is_disabled":false,"rental_uris":{"android":"levelo://app?vid=e18ab0c4-aa80-4836-b0a0-9c168644a24c","ios":"levelo://app?vid=e18ab0c4-aa80-4836-b0a0-9c168644a24c"},"vehicle_type_id":"4","last_reported":1745622557,"current_range_meters":10000,"station_id":"ce4bh2p2rcd13ifvqdi0","pricing_plan_id":"cebpf4jnsgd1na2vs0mg"},{"bike_id":"9f5578ed-5577-43eb-b8df-e2b6a45d6d89","system_id":"levelo_inurba_marseille","lat":43.2861,"lon":5.3706,"is_reserved":false,"is_disabled":false,"rental_uris":{"android":"levelo://app?vid=9f5578ed-5577-43eb-b8df-e2b6a45d6d89","ios":"levelo://app?vid=9f5578ed-5577-43eb-b8df-e2b6a45d6d89"},"vehicle_type_id":"4","last_reported":1745622557,"current_range_meters":10000,"station_id":"ce4bht12rcd13ifvqi60","pricing_plan_id":"cebpf4jnsgd1na2vs0mg"},{"bike_id":"fa72b649-3018-4187-96fe-d31c0b11e0f8","system_id":"levelo_inurba_marseille","lat":43.297043,"lon":5.370948,"is_reserved":false,"is_disabled":false,"rental_uris":{"android":"levelo://app?vid=fa72b649-3018-4187-96fe-d31c0b11e0f8","ios":"levelo://app?vid=fa72b649-3018-4187-96fe-d31c0b11e0f8"},"vehicle_type_id":"4","last_reported":1745622557,"current_range_meters":10000,"station_id":"","pricing_plan_id":"cebpf4jnsgd1na2vs0mg"},{"bike_id":"c3377b8f-007f-40f4-941a-437fea66d7c3","system_id":"levelo_inurba_marseille","lat":43.27171,"lon":5.41001,"is_reserved":false,"is_disabled":false,"rental_uris":{"android":"levelo://app?vid=c3377b8f-007f-40f4-941a-437fea66d7c3","ios":"levelo://app?vid=c3377b8f-007f-40f4-941a-437fea66d7c3"},"vehicle_type_id":"4","last_reported":1745622557,"current_range_meters":10000,"station_id":"ce4bhl12rcd13ifvqgf0","pricing_plan_id":"cebpf4jnsgd1na2vs0mg"},{"bike_id":"bcaf0c0d-93e5-4c0d-90f1-cc733b8fb72a","system_id":"levelo_inurba_marseille","lat":43.28462,"lon":5.35887,"is_reserved":false,"is_disabled":false,"rental_uris":{"android":"levelo://app?vid=bcaf0c0d-93e5-4c0d-90f1-cc733b8fb72a","ios":"levelo://app?vid=bcaf0c0d-93e5-4c0d-90f1-cc733b8fb72a"},"vehicle_type_id":"4","last_reported":1745622557,"current_range_meters":10000,"station_id":"ce4bhah2rcd13ifvqei0","pricing_plan_id":"cebpf4jnsgd1na2vs0mg"},{"bike_id":"860ecedf-9e5e-49e6-a334-de39c73317e7","system_id":"levelo_inurba_marseille","lat":43.27913,"lon":5.39575,"is_reserved":false,"is_disabled":false,"rental_uris":{"android":"levelo://app?vid=860ecedf-9e5e-49e6-a334-de39c73317e7","ios":"levelo://app?vid=860ecedf-9e5e-49e6-a334-de39c73317e7"},"vehicle_type_id":"4","last_reported":1745622557,"current_range_meters":10000,"station_id":"ce4bhf92rcd13ifvqf40","pricing_plan_id":"cebpf4jnsgd1na2vs0mg"},{"bike_id":"8cd50c55-e0cf-40e0-84f8-b74dc08cc852","system_id":"levelo_inurba_marseille","lat":43.29535,"lon":5.385278,"is_reserved":false,"is_disabled":false,"rental_uris":{"android":"levelo://app?vid=8cd50c55-e0cf-40e0-84f8-b74dc08cc852","ios":"levelo://app?vid=8cd50c55-e0cf-40e0-84f8-b74dc08cc852"},"vehicle_type_id":"4","last_reported":1745622557,"current_range_meters":10000,"station_id":"ce4bgih2rcd13ifvqba0","pricing_plan_id":"cebpf4jnsgd1na2vs0mg"},{"bike_id":"6fe978e5-653f-453c-9290-dcea126c74b8","system_id":"levelo_inurba_marseille","lat":43.29597,"lon":5.38096,"is_reserved":false,"is_disabled":false,"rental_uris":{"android":"levelo://app?vid=6fe978e5-653f-453c-9290-dcea126c74b8","ios":"levelo://app?vid=6fe978e5-653f-453c-9290-dcea126c74b8"},"vehicle_type_id":"4","last_reported":1745622557,"current_range_meters":10000,"station_id":"ce4bgl12rcd13ifvqbo0","pricing_plan_id":"cebpf4jnsgd1na2vs0mg"},{"bike_id":"b0ee9a1d-7b8a-4efb-bf61-ca32e693e2f5","system_id":"levelo_inurba_marseille","lat":43.27501,"lon":5.42447,"is_reserved":false,"is_disabled":false,"rental_uris":{"android":"levelo://app?vid=b0ee9a1d-7b8a-4efb-bf61-ca32e693e2f5","ios":"levelo://app?vid=b0ee9a1d-7b8a-4efb-bf61-ca32e693e2f5"},"vehicle_type_id":"4","last_reported":1745622557,"current_range_meters":10000,"station_id":"ce4bhn92rcd13ifvqgrg","pricing_plan_id":"cebpf4jnsgd1na2vs0mg"},{"bike_id":"9bd6ea23-92b9-4e95-b963-3b9e6988fcad","system_id":"levelo_inurba_marseille","lat":43.30106,"lon":5.39073,"is_reserved":false,"is_disabled":false,"rental_uris":{"android":"levelo://app?vid=9bd6ea23-92b9-4e95-b963-3b9e6988fcad","ios":"levelo://app?vid=9bd6ea23-92b9-4e95-b963-3b9e6988fcad"},"vehicle_type_id":"4","last_reported":1745622557,"current_range_meters":10000,"station_id":"ce4bh192rcd13ifvqdb0","pricing_plan_id":"cebpf4jnsgd1na2vs0mg"},{"bike_id":"16d6482a-eff2-41b1-a83c-bc881756a6e2","system_id":"levelo_inurba_marseille","lat":43.307946,"lon":5.38159,"is_reserved":false,"is_disabled":false,"rental_uris":{"android":"levelo://app?vid=16d6482a-eff2-41b1-a83c-bc881756a6e2","ios":"levelo://app?vid=16d6482a-eff2-41b1-a83c-bc881756a6e2"},"vehicle_type_id":"4","last_reported":1745622557,"current_range_meters":10800,"station_id":"ce4bgt12rcd13ifvqce0","pricing_plan_id":"cebpf4jnsgd1na2vs0mg"},{"bike_id":"ea9a1225-0675-4e25-bc5c-6a3f85357c8d","system_id":"levelo_inurba_marseille","lat":43.28953,"lon":5.36412,"is_reserved":false,"is_disabled":true,"rental_uris":{"android":"levelo://app?vid=ea9a1225-0675-4e25-bc5c-6a3f85357c8d","ios":"levelo://app?vid=ea9a1225-0675-4e25-bc5c-6a3f85357c8d"},"vehicle_type_id":"4","last_reported":1745622557,"current_range_meters":10800,"station_id":"ce4bhc92rcd13ifvqetg","pricing_plan_id":"cebpf4jnsgd1na2vs0mg"},{"bike_id":"eba80cac-49a3-43c0-b27f-65d7a86f1a53","system_id":"levelo_inurba_marseille","lat":43.31116,"lon":5.37763,"is_reserved":false,"is_disabled":false,"rental_uris":{"android":"levelo://app?vid=eba80cac-49a3-43c0-b27f-65d7a86f1a53","ios":"levelo://app?vid=eba80cac-49a3-43c0-b27f-65d7a86f1a53"},"vehicle_type_id":"4","last_reported":1745622557,"current_range_meters":10800,"station_id":"ce4bgt92rcd13ifvqcg0","pricing_plan_id":"cebpf4jnsgd1na2vs0mg"},{"bike_id":"51376682-930e-45ed-90e0-b53d931ddc33","system_id":"levelo_inurba_marseille","lat":43.27502,"lon":5.42454,"is_reserved":false,"is_disabled":false,"rental_uris":{"android":"levelo://app?vid=51376682-930e-45ed-90e0-b53d931ddc33","ios":"levelo://app?vid=51376682-930e-45ed-90e0-b53d931ddc33"},"vehicle_type_id":"4","last_reported":1745622557,"current_range_meters":10800,"station_id":"ce4bhn92rcd13ifvqgrg","pricing_plan_id":"cebpf4jnsgd1na2vs0mg"},{"bike_id":"3c976c1b-644c-4432-ad5a-b823ebcbcc9c","system_id":"levelo_inurba_marseille","lat":43.301397,"lon":5.374252,"is_reserved":false,"is_disabled":true,"rental_uris":{"android":"levelo://app?vid=3c976c1b-644c-4432-ad5a-b823ebcbcc9c","ios":"levelo://app?vid=3c976c1b-644c-4432-ad5a-b823ebcbcc9c"},"vehicle_type_id":"4","last_reported":1745622557,"current_range_meters":10800,"station_id":"ce4bgs92rcd13ifvqcc0","pricing_plan_id":"cebpf4jnsgd1na2vs0mg"},{"bike_id":"e5476ada-b222-42a6-9834-89f2a81ee17d","system_id":"levelo_inurba_marseille","lat":43.27998,"lon":5.40009,"is_reserved":false,"is_disabled":false,"rental_uris":{"android":"levelo://app?vid=e5476ada-b222-42a6-9834-89f2a81ee17d","ios":"levelo://app?vid=e5476ada-b222-42a6-9834-89f2a81ee17d"},"vehicle_type_id":"4","last_reported":1745622557,"current_range_meters":10800,"station_id":"ce4bho92rcd13ifvqh4g","pricing_plan_id":"cebpf4jnsgd1na2vs0mg"},{"bike_id":"82019770-91f2-4d08-ae4c-2495321b6d64","system_id":"levelo_inurba_marseille","lat":43.25121,"lon":5.40331,"is_reserved":false,"is_disabled":false,"rental_uris":{"android":"levelo://app?vid=82019770-91f2-4d08-ae4c-2495321b6d64","ios":"levelo://app?vid=82019770-91f2-4d08-ae4c-2495321b6d64"},"vehicle_type_id":"4","last_reported":1745622557,"current_range_meters":10000,"station_id":"ce4bhlh2rcd13ifvqgig","pricing_plan_id":"cebpf4jnsgd1na2vs0mg"},{"bike_id":"3303dc3e-8057-46f6-92da-d5c952a5a6eb","system_id":"levelo_inurba_marseille","lat":43.290226,"lon":5.381203,"is_reserved":false,"is_disabled":false,"rental_uris":{"android":"levelo://app?vid=3303dc3e-8057-46f6-92da-d5c952a5a6eb","ios":"levelo://app?vid=3303dc3e-8057-46f6-92da-d5c952a5a6eb"},"vehicle_type_id":"4","last_reported":1745622557,"current_range_meters":10800,"station_id":"ce4bh4p2rcd13ifvqe1g","pricing_plan_id":"cebpf4jnsgd1na2vs0mg"},{"bike_id":"f0360f45-6be9-4488-84ea-84d3cda26aaf","system_id":"levelo_inurba_marseille","lat":43.33003,"lon":5.43839,"is_reserved":false,"is_disabled":false,"rental_uris":{"android":"levelo://app?vid=f0360f45-6be9-4488-84ea-84d3cda26aaf","ios":"levelo://app?vid=f0360f45-6be9-4488-84ea-84d3cda26aaf"},"vehicle_type_id":"4","last_reported":1745622557,"current_range_meters":10800,"station_id":"","pricing_plan_id":"cebpf4jnsgd1na2vs0mg"},{"bike_id":"4eed0074-9b97-4b86-8717-261c90431596","system_id":"levelo_inurba_marseille","lat":43.27675,"lon":5.38869,"is_reserved":false,"is_disabled":false,"rental_uris":{"android":"levelo://app?vid=4eed0074-9b97-4b86-8717-261c90431596","ios":"levelo://app?vid=4eed0074-9b97-4b86-8717-261c90431596"},"vehicle_type_id":"4","last_reported":1745622557,"current_range_meters":10800,"station_id":"ce4bhi12rcd13ifvqfo0","pricing_plan_id":"cebpf4jnsgd1na2vs0mg"},{"bike_id":"37f49765-3f36-4a47-aa70-b3e71040e079","system_id":"levelo_inurba_marseille","lat":43.29277,"lon":5.40122,"is_reserved":false,"is_disabled":false,"rental_uris":{"android":"levelo://app?vid=37f49765-3f36-4a47-aa70-b3e71040e079","ios":"levelo://app?vid=37f49765-3f36-4a47-aa70-b3e71040e079"},"vehicle_type_id":"4","last_reported":1745622557,"current_range_meters":10800,"station_id":"ce4bh312rcd13ifvqdk0","pricing_plan_id":"cebpf4jnsgd1na2vs0mg"},{"bike_id":"7d8d69b2-0147-4031-958f-236ac2917414","system_id":"levelo_inurba_marseille","lat":43.29271,"lon":5.36847,"is_reserved":false,"is_disabled":true,"rental_uris":{"android":"levelo://app?vid=7d8d69b2-0147-4031-958f-236ac2917414","ios":"levelo://app?vid=7d8d69b2-0147-4031-958f-236ac2917414"},"vehicle_type_id":"4","last_reported":1745622557,"current_range_meters":11200,"station_id":"ce4bhbp2rcd13ifvqesg","pricing_plan_id":"cebpf4jnsgd1na2vs0mg"},{"bike_id":"e2dcabcf-64d8-4394-bb9a-ff877bee611a","system_id":"levelo_inurba_marseille","lat":43.32052,"lon":5.41516,"is_reserved":false,"is_disabled":false,"rental_uris":{"android":"levelo://app?vid=e2dcabcf-64d8-4394-bb9a-ff877bee611a","ios":"levelo://app?vid=e2dcabcf-64d8-4394-bb9a-ff877bee611a"},"vehicle_type_id":"4","last_reported":1745622557,"current_range_meters":11200,"station_id":"ce4bhq92rcd13ifvqhkg","pricing_plan_id":"cebpf4jnsgd1na2vs0mg"},{"bike_id":"d085756f-9ae0-41de-b6f8-a608e71ddb2a","system_id":"levelo_inurba_marseille","lat":43.295343,"lon":5.385393,"is_reserved":false,"is_disabled":false,"rental_uris":{"android":"levelo://app?vid=d085756f-9ae0-41de-b6f8-a608e71ddb2a","ios":"levelo://app?vid=d085756f-9ae0-41de-b6f8-a608e71ddb2a"},"vehicle_type_id":"4","last_reported":1745622557,"current_range_meters":11200,"station_id":"ce4bgih2rcd13ifvqba0","pricing_plan_id":"cebpf4jnsgd1na2vs0mg"},{"bike_id":"890d8b58-5f95-47c5-8125-c5ad39b55532","system_id":"levelo_inurba_marseille","lat":43.31263,"lon":5.40172,"is_reserved":false,"is_disabled":false,"rental_uris":{"android":"levelo://app?vid=890d8b58-5f95-47c5-8125-c5ad39b55532","ios":"levelo://app?vid=890d8b58-5f95-47c5-8125-c5ad39b55532"},"vehicle_type_id":"4","last_reported":1745622557,"current_range_meters":11200,"station_id":"ce4bh092rcd13ifvqd30","pricing_plan_id":"cebpf4jnsgd1na2vs0mg"},{"bike_id":"4c11ff0f-a579-4f78-9960-a443174b0bdd","system_id":"levelo_inurba_marseille","lat":43.21194,"lon":5.35079,"is_reserved":false,"is_disabled":false,"rental_uris":{"android":"levelo://app?vid=4c11ff0f-a579-4f78-9960-a443174b0bdd","ios":"levelo://app?vid=4c11ff0f-a579-4f78-9960-a443174b0bdd"},"vehicle_type_id":"4","last_reported":1745622557,"current_range_meters":11200,"station_id":"st_cvj6sg6p6f1abm77japg","pricing_plan_id":"cebpf4jnsgd1na2vs0mg"},{"bike_id":"422b5989-c8b6-43aa-b2b9-3bfeb2e1ddc0","system_id":"levelo_inurba_marseille","lat":43.2473,"lon":5.41177,"is_reserved":false,"is_disabled":false,"rental_uris":{"android":"levelo://app?vid=422b5989-c8b6-43aa-b2b9-3bfeb2e1ddc0","ios":"levelo://app?vid=422b5989-c8b6-43aa-b2b9-3bfeb2e1ddc0"},"vehicle_type_id":"4","last_reported":1745622557,"current_range_meters":11600,"station_id":"","pricing_plan_id":"cebpf4jnsgd1na2vs0mg"},{"bike_id":"4406da3b-d473-4d63-87bf-fa2b430a3908","system_id":"levelo_inurba_marseille","lat":43.28567,"lon":5.39479,"is_reserved":false,"is_disabled":false,"rental_uris":{"android":"levelo://app?vid=4406da3b-d473-4d63-87bf-fa2b430a3908","ios":"levelo://app?vid=4406da3b-d473-4d63-87bf-fa2b430a3908"},"vehicle_type_id":"4","last_reported":1745622557,"current_range_meters":11600,"station_id":"ce4bh292rcd13ifvqdg0","pricing_plan_id":"cebpf4jnsgd1na2vs0mg"},{"bike_id":"8cb0d8e3-233e-414b-8aa9-884ca989a975","system_id":"levelo_inurba_marseille","lat":43.28354,"lon":5.38103,"is_reserved":false,"is_disabled":false,"rental_uris":{"android":"levelo://app?vid=8cb0d8e3-233e-414b-8aa9-884ca989a975","ios":"levelo://app?vid=8cb0d8e3-233e-414b-8aa9-884ca989a975"},"vehicle_type_id":"4","last_reported":1745622557,"current_range_meters":11600,"station_id":"ce4bh412rcd13ifvqdr0","pricing_plan_id":"cebpf4jnsgd1na2vs0mg"},{"bike_id":"c65adb3e-50be-42af-92da-68dd7e4eacc9","system_id":"levelo_inurba_marseille","lat":43.30149,"lon":5.38101,"is_reserved":false,"is_disabled":true,"rental_uris":{"android":"levelo://app?vid=c65adb3e-50be-42af-92da-68dd7e4eacc9","ios":"levelo://app?vid=c65adb3e-50be-42af-92da-68dd7e4eacc9"},"vehicle_type_id":"4","last_reported":1745622557,"current_range_meters":11600,"station_id":"ce4bgjp2rcd13ifvqbh0","pricing_plan_id":"cebpf4jnsgd1na2vs0mg"},{"bike_id":"cf00bd08-72bf-4a8f-8ab2-247c2a4e4ffd","system_id":"levelo_inurba_marseille","lat":43.3133,"lon":5.39685,"is_reserved":false,"is_disabled":false,"rental_uris":{"android":"levelo://app?vid=cf00bd08-72bf-4a8f-8ab2-247c2a4e4ffd","ios":"levelo://app?vid=cf00bd08-72bf-4a8f-8ab2-247c2a4e4ffd"},"vehicle_type_id":"4","last_reported":1745622557,"current_range_meters":11600,"station_id":"ce4bgvp2rcd13ifvqcu0","pricing_plan_id":"cebpf4jnsgd1na2vs0mg"},{"bike_id":"0bfff189-ec6a-4439-b345-e9dd168ab867","system_id":"levelo_inurba_marseille","lat":43.3376,"lon":5.39163,"is_reserved":false,"is_disabled":false,"rental_uris":{"android":"levelo://app?vid=0bfff189-ec6a-4439-b345-e9dd168ab867","ios":"levelo://app?vid=0bfff189-ec6a-4439-b345-e9dd168ab867"},"vehicle_type_id":"4","last_reported":1745622557,"current_range_meters":11600,"station_id":"","pricing_plan_id":"cebpf4jnsgd1na2vs0mg"},{"bike_id":"a6ac1433-6f5c-41d0-a919-ad622caf7dc0","system_id":"levelo_inurba_marseille","lat":43.33727,"lon":5.39179,"is_reserved":false,"is_disabled":false,"rental_uris":{"android":"levelo://app?vid=a6ac1433-6f5c-41d0-a919-ad622caf7dc0","ios":"levelo://app?vid=a6ac1433-6f5c-41d0-a919-ad622caf7dc0"},"vehicle_type_id":"4","last_reported":1745622557,"current_range_meters":12000,"station_id":"ce4bhr92rcd13ifvqhsg","pricing_plan_id":"cebpf4jnsgd1na2vs0mg"},{"bike_id":"25ef7844-cff5-4942-9256-ee9ef0a1cb5f","system_id":"levelo_inurba_marseille","lat":43.28972,"lon":5.37832,"is_reserved":false,"is_disabled":false,"rental_uris":{"android":"levelo://app?vid=25ef7844-cff5-4942-9256-ee9ef0a1cb5f","ios":"levelo://app?vid=25ef7844-cff5-4942-9256-ee9ef0a1cb5f"},"vehicle_type_id":"4","last_reported":1745622557,"current_range_meters":12000,"station_id":"ce4bh9p2rcd13ifvqed0","pricing_plan_id":"cebpf4jnsgd1na2vs0mg"},{"bike_id":"6131e5dc-1ee7-4d72-b068-027a8fd1bfae","system_id":"levelo_inurba_marseille","lat":43.29917,"lon":5.37456,"is_reserved":false,"is_disabled":false,"rental_uris":{"android":"levelo://app?vid=6131e5dc-1ee7-4d72-b068-027a8fd1bfae","ios":"levelo://app?vid=6131e5dc-1ee7-4d72-b068-027a8fd1bfae"},"vehicle_type_id":"4","last_reported":1745622557,"current_range_meters":12000,"station_id":"ce4bgjh2rcd13ifvqbg0","pricing_plan_id":"cebpf4jnsgd1na2vs0mg"},{"bike_id":"f77a929f-13ce-4ad3-b37b-030e100178ba","system_id":"levelo_inurba_marseille","lat":43.25937,"lon":5.4089,"is_reserved":false,"is_disabled":false,"rental_uris":{"android":"levelo://app?vid=f77a929f-13ce-4ad3-b37b-030e100178ba","ios":"levelo://app?vid=f77a929f-13ce-4ad3-b37b-030e100178ba"},"vehicle_type_id":"4","last_reported":1745622557,"current_range_meters":12000,"station_id":"ce4bhm92rcd13ifvqglg","pricing_plan_id":"cebpf4jnsgd1na2vs0mg"},{"bike_id":"1ef2b4d7-eaa0-461a-8e88-8af01397cd81","system_id":"levelo_inurba_marseille","lat":43.27919,"lon":5.39577,"is_reserved":false,"is_disabled":false,"rental_uris":{"android":"levelo://app?vid=1ef2b4d7-eaa0-461a-8e88-8af01397cd81","ios":"levelo://app?vid=1ef2b4d7-eaa0-461a-8e88-8af01397cd81"},"vehicle_type_id":"4","last_reported":1745622557,"current_range_meters":12000,"station_id":"ce4bhf92rcd13ifvqf40","pricing_plan_id":"cebpf4jnsgd1na2vs0mg"},{"bike_id":"7a9a1eab-cf05-4a9e-98e7-26e3fb8d6da6","system_id":"levelo_inurba_marseille","lat":43.29867,"lon":5.3973,"is_reserved":false,"is_disabled":false,"rental_uris":{"android":"levelo://app?vid=7a9a1eab-cf05-4a9e-98e7-26e3fb8d6da6","ios":"levelo://app?vid=7a9a1eab-cf05-4a9e-98e7-26e3fb8d6da6"},"vehicle_type_id":"4","last_reported":1745622557,"current_range_meters":12000,"station_id":"ce4bh0h2rcd13ifvqd50","pricing_plan_id":"cebpf4jnsgd1na2vs0mg"},{"bike_id":"d42192cb-f15d-4f98-a687-65617362d316","system_id":"levelo_inurba_marseille","lat":43.30932,"lon":5.40148,"is_reserved":false,"is_disabled":false,"rental_uris":{"android":"levelo://app?vid=d42192cb-f15d-4f98-a687-65617362d316","ios":"levelo://app?vid=d42192cb-f15d-4f98-a687-65617362d316"},"vehicle_type_id":"4","last_reported":1745622557,"current_range_meters":12000,"station_id":"ce4bgvp2rcd13ifvqct0","pricing_plan_id":"cebpf4jnsgd1na2vs0mg"},{"bike_id":"dc83063b-0acf-498d-bec5-7bae3f5ed87a","system_id":"levelo_inurba_marseille","lat":43.292822,"lon":5.401168,"is_reserved":false,"is_disabled":false,"rental_uris":{"android":"levelo://app?vid=dc83063b-0acf-498d-bec5-7bae3f5ed87a","ios":"levelo://app?vid=dc83063b-0acf-498d-bec5-7bae3f5ed87a"},"vehicle_type_id":"4","last_reported":1745622557,"current_range_meters":12400,"station_id":"ce4bh312rcd13ifvqdk0","pricing_plan_id":"cebpf4jnsgd1na2vs0mg"},{"bike_id":"4a1adb6c-6c6e-4b8c-aee3-bfed1a3ecf4f","system_id":"levelo_inurba_marseille","lat":43.25732,"lon":5.41094,"is_reserved":false,"is_disabled":false,"rental_uris":{"android":"levelo://app?vid=4a1adb6c-6c6e-4b8c-aee3-bfed1a3ecf4f","ios":"levelo://app?vid=4a1adb6c-6c6e-4b8c-aee3-bfed1a3ecf4f"},"vehicle_type_id":"4","last_reported":1745622557,"current_range_meters":12400,"station_id":"ce4bhkp2rcd13ifvqgd0","pricing_plan_id":"cebpf4jnsgd1na2vs0mg"},{"bike_id":"0c80d357-aec1-46a6-8475-a2f27a6054ff","system_id":"levelo_inurba_marseille","lat":43.28938,"lon":5.36632,"is_reserved":false,"is_disabled":false,"rental_uris":{"android":"levelo://app?vid=0c80d357-aec1-46a6-8475-a2f27a6054ff","ios":"levelo://app?vid=0c80d357-aec1-46a6-8475-a2f27a6054ff"},"vehicle_type_id":"4","last_reported":1745622557,"current_range_meters":12400,"station_id":"ce4bhap2rcd13ifvqek0","pricing_plan_id":"cebpf4jnsgd1na2vs0mg"},{"bike_id":"fe80108d-e190-41be-86b8-a19c8cf74730","system_id":"levelo_inurba_marseille","lat":43.28699,"lon":5.37402,"is_reserved":false,"is_disabled":false,"rental_uris":{"android":"levelo://app?vid=fe80108d-e190-41be-86b8-a19c8cf74730","ios":"levelo://app?vid=fe80108d-e190-41be-86b8-a19c8cf74730"},"vehicle_type_id":"4","last_reported":1745622557,"current_range_meters":12800,"station_id":"ce4bh3p2rcd13ifvqdq0","pricing_plan_id":"cebpf4jnsgd1na2vs0mg"},{"bike_id":"cf3fb4d6-1ad7-4f56-b4ac-e234a5781626","system_id":"levelo_inurba_marseille","lat":43.29068,"lon":5.3717,"is_reserved":false,"is_disabled":false,"rental_uris":{"android":"levelo://app?vid=cf3fb4d6-1ad7-4f56-b4ac-e234a5781626","ios":"levelo://app?vid=cf3fb4d6-1ad7-4f56-b4ac-e234a5781626"},"vehicle_type_id":"4","last_reported":1745622557,"current_range_meters":12800,"station_id":"ce4bh5p2rcd13ifvqe4g","pricing_plan_id":"cebpf4jnsgd1na2vs0mg"},{"bike_id":"f173bdc3-6bbf-4e9a-b18f-6134c30f147a","system_id":"levelo_inurba_marseille","lat":43.304205,"lon":5.412898,"is_reserved":false,"is_disabled":false,"rental_uris":{"android":"levelo://app?vid=f173bdc3-6bbf-4e9a-b18f-6134c30f147a","ios":"levelo://app?vid=f173bdc3-6bbf-4e9a-b18f-6134c30f147a"},"vehicle_type_id":"4","last_reported":1745622557,"current_range_meters":12800,"station_id":"ce4bhop2rcd13ifvqh8g","pricing_plan_id":"cebpf4jnsgd1na2vs0mg"},{"bike_id":"24eeafb5-9540-4a55-93b2-ddd394031728","system_id":"levelo_inurba_marseille","lat":43.27902,"lon":5.38005,"is_reserved":false,"is_disabled":false,"rental_uris":{"android":"levelo://app?vid=24eeafb5-9540-4a55-93b2-ddd394031728","ios":"levelo://app?vid=24eeafb5-9540-4a55-93b2-ddd394031728"},"vehicle_type_id":"4","last_reported":1745622557,"current_range_meters":12800,"station_id":"ce4bhf92rcd13ifvqf50","pricing_plan_id":"cebpf4jnsgd1na2vs0mg"},{"bike_id":"e870bb3b-eab4-4e05-ab68-f870370cfa6e","system_id":"levelo_inurba_marseille","lat":43.27072,"lon":5.4228,"is_reserved":false,"is_disabled":false,"rental_uris":{"android":"levelo://app?vid=e870bb3b-eab4-4e05-ab68-f870370cfa6e","ios":"levelo://app?vid=e870bb3b-eab4-4e05-ab68-f870370cfa6e"},"vehicle_type_id":"4","last_reported":1745622557,"current_range_meters":12800,"station_id":"ce4bhk92rcd13ifvqgb0","pricing_plan_id":"cebpf4jnsgd1na2vs0mg"},{"bike_id":"0819f96f-a2f8-43a2-9f25-b8a96607e59d","system_id":"levelo_inurba_marseille","lat":43.29874,"lon":5.39725,"is_reserved":false,"is_disabled":false,"rental_uris":{"android":"levelo://app?vid=0819f96f-a2f8-43a2-9f25-b8a96607e59d","ios":"levelo://app?vid=0819f96f-a2f8-43a2-9f25-b8a96607e59d"},"vehicle_type_id":"4","last_reported":1745622557,"current_range_meters":12800,"station_id":"ce4bh0h2rcd13ifvqd50","pricing_plan_id":"cebpf4jnsgd1na2vs0mg"},{"bike_id":"c461a612-7a33-4497-80f5-98ed90a088bb","system_id":"levelo_inurba_marseille","lat":43.32114,"lon":5.36788,"is_reserved":false,"is_disabled":false,"rental_uris":{"android":"levelo://app?vid=c461a612-7a33-4497-80f5-98ed90a088bb","ios":"levelo://app?vid=c461a612-7a33-4497-80f5-98ed90a088bb"},"vehicle_type_id":"4","last_reported":1745622557,"current_range_meters":12800,"station_id":"ce4bhrh2rcd13ifvqhug","pricing_plan_id":"cebpf4jnsgd1na2vs0mg"},{"bike_id":"3f176b51-2785-418d-9f78-34ce606704c3","system_id":"levelo_inurba_marseille","lat":43.27995,"lon":5.400067,"is_reserved":false,"is_disabled":false,"rental_uris":{"android":"levelo://app?vid=3f176b51-2785-418d-9f78-34ce606704c3","ios":"levelo://app?vid=3f176b51-2785-418d-9f78-34ce606704c3"},"vehicle_type_id":"4","last_reported":1745622557,"current_range_meters":13600,"station_id":"ce4bho92rcd13ifvqh4g","pricing_plan_id":"cebpf4jnsgd1na2vs0mg"},{"bike_id":"7854402a-a687-461d-bd4e-3151e4b89ed3","system_id":"levelo_inurba_marseille","lat":43.2816,"lon":5.42639,"is_reserved":false,"is_disabled":false,"rental_uris":{"android":"levelo://app?vid=7854402a-a687-461d-bd4e-3151e4b89ed3","ios":"levelo://app?vid=7854402a-a687-461d-bd4e-3151e4b89ed3"},"vehicle_type_id":"4","last_reported":1745622557,"current_range_meters":12800,"station_id":"ce4bhnh2rcd13ifvqgug","pricing_plan_id":"cebpf4jnsgd1na2vs0mg"},{"bike_id":"568053e1-9183-4cee-acca-959027493876","system_id":"levelo_inurba_marseille","lat":43.3091,"lon":5.36819,"is_reserved":false,"is_disabled":true,"rental_uris":{"android":"levelo://app?vid=568053e1-9183-4cee-acca-959027493876","ios":"levelo://app?vid=568053e1-9183-4cee-acca-959027493876"},"vehicle_type_id":"4","last_reported":1745622557,"current_range_meters":13600,"station_id":"ce4bgn92rcd13ifvqbvg","pricing_plan_id":"cebpf4jnsgd1na2vs0mg"},{"bike_id":"d29d99d2-8c34-447d-9ac5-9ffd1b17febf","system_id":"levelo_inurba_marseille","lat":43.231917,"lon":5.39965,"is_reserved":false,"is_disabled":false,"rental_uris":{"android":"levelo://app?vid=d29d99d2-8c34-447d-9ac5-9ffd1b17febf","ios":"levelo://app?vid=d29d99d2-8c34-447d-9ac5-9ffd1b17febf"},"vehicle_type_id":"4","last_reported":1745622557,"current_range_meters":13600,"station_id":"ce4bhn12rcd13ifvqgqg","pricing_plan_id":"cebpf4jnsgd1na2vs0mg"},{"bike_id":"6263f44e-be3d-43c2-8af5-78216310caee","system_id":"levelo_inurba_marseille","lat":43.28918,"lon":5.38392,"is_reserved":false,"is_disabled":true,"rental_uris":{"android":"levelo://app?vid=6263f44e-be3d-43c2-8af5-78216310caee","ios":"levelo://app?vid=6263f44e-be3d-43c2-8af5-78216310caee"},"vehicle_type_id":"4","last_reported":1745622557,"current_range_meters":13600,"station_id":"ce4bh612rcd13ifvqe6g","pricing_plan_id":"cebpf4jnsgd1na2vs0mg"},{"bike_id":"93987ed5-9f83-4cea-ad2a-ac210ec88233","system_id":"levelo_inurba_marseille","lat":43.28267,"lon":5.35056,"is_reserved":false,"is_disabled":false,"rental_uris":{"android":"levelo://app?vid=93987ed5-9f83-4cea-ad2a-ac210ec88233","ios":"levelo://app?vid=93987ed5-9f83-4cea-ad2a-ac210ec88233"},"vehicle_type_id":"4","last_reported":1745622557,"current_range_meters":12800,"station_id":"ce4bhbp2rcd13ifvqerg","pricing_plan_id":"cebpf4jnsgd1na2vs0mg"},{"bike_id":"8fffe39c-80f4-4d10-9d5e-0808aaac556a","system_id":"levelo_inurba_marseille","lat":43.2903,"lon":5.375723,"is_reserved":false,"is_disabled":false,"rental_uris":{"android":"levelo://app?vid=8fffe39c-80f4-4d10-9d5e-0808aaac556a","ios":"levelo://app?vid=8fffe39c-80f4-4d10-9d5e-0808aaac556a"},"vehicle_type_id":"4","last_reported":1745622557,"current_range_meters":13600,"station_id":"ce4bh692rcd13ifvqe90","pricing_plan_id":"cebpf4jnsgd1na2vs0mg"},{"bike_id":"031f6ec3-d2c4-431b-9aee-819fc632978b","system_id":"levelo_inurba_marseille","lat":43.29289,"lon":5.40119,"is_reserved":false,"is_disabled":false,"rental_uris":{"android":"levelo://app?vid=031f6ec3-d2c4-431b-9aee-819fc632978b","ios":"levelo://app?vid=031f6ec3-d2c4-431b-9aee-819fc632978b"},"vehicle_type_id":"4","last_reported":1745622557,"current_range_meters":14000,"station_id":"ce4bh312rcd13ifvqdk0","pricing_plan_id":"cebpf4jnsgd1na2vs0mg"},{"bike_id":"af6af1ea-83a0-4448-a6b9-d143557f7290","system_id":"levelo_inurba_marseille","lat":43.27059,"lon":5.40226,"is_reserved":false,"is_disabled":false,"rental_uris":{"android":"levelo://app?vid=af6af1ea-83a0-4448-a6b9-d143557f7290","ios":"levelo://app?vid=af6af1ea-83a0-4448-a6b9-d143557f7290"},"vehicle_type_id":"4","last_reported":1745622557,"current_range_meters":14000,"station_id":"ce4bhk92rcd13ifvqgc0","pricing_plan_id":"cebpf4jnsgd1na2vs0mg"},{"bike_id":"48b2a992-5454-4e28-9c26-ae7bb6367239","system_id":"levelo_inurba_marseille","lat":43.28968,"lon":5.37848,"is_reserved":false,"is_disabled":false,"rental_uris":{"android":"levelo://app?vid=48b2a992-5454-4e28-9c26-ae7bb6367239","ios":"levelo://app?vid=48b2a992-5454-4e28-9c26-ae7bb6367239"},"vehicle_type_id":"4","last_reported":1745622557,"current_range_meters":14000,"station_id":"ce4bh9p2rcd13ifvqed0","pricing_plan_id":"cebpf4jnsgd1na2vs0mg"},{"bike_id":"4a1ef3d1-d4b8-4b28-a9e8-1e353aca03e5","system_id":"levelo_inurba_marseille","lat":43.28717,"lon":5.37389,"is_reserved":false,"is_disabled":false,"rental_uris":{"android":"levelo://app?vid=4a1ef3d1-d4b8-4b28-a9e8-1e353aca03e5","ios":"levelo://app?vid=4a1ef3d1-d4b8-4b28-a9e8-1e353aca03e5"},"vehicle_type_id":"4","last_reported":1745622557,"current_range_meters":13600,"station_id":"ce4bh3p2rcd13ifvqdq0","pricing_plan_id":"cebpf4jnsgd1na2vs0mg"},{"bike_id":"d08334af-0288-4980-ba3f-5e13619388fa","system_id":"levelo_inurba_marseille","lat":43.30419,"lon":5.41281,"is_reserved":false,"is_disabled":false,"rental_uris":{"android":"levelo://app?vid=d08334af-0288-4980-ba3f-5e13619388fa","ios":"levelo://app?vid=d08334af-0288-4980-ba3f-5e13619388fa"},"vehicle_type_id":"4","last_reported":1745622557,"current_range_meters":14000,"station_id":"ce4bhop2rcd13ifvqh8g","pricing_plan_id":"cebpf4jnsgd1na2vs0mg"},{"bike_id":"b6c6d9f7-b123-42c6-8ea7-68299b7c9958","system_id":"levelo_inurba_marseille","lat":43.324,"lon":5.39156,"is_reserved":false,"is_disabled":true,"rental_uris":{"android":"levelo://app?vid=b6c6d9f7-b123-42c6-8ea7-68299b7c9958","ios":"levelo://app?vid=b6c6d9f7-b123-42c6-8ea7-68299b7c9958"},"vehicle_type_id":"4","last_reported":1745622557,"current_range_meters":14000,"station_id":"","pricing_plan_id":"cebpf4jnsgd1na2vs0mg"},{"bike_id":"49a5be0b-2b23-4d57-a2bd-3a5d802fab0b","system_id":"levelo_inurba_marseille","lat":43.289946,"lon":5.356034,"is_reserved":false,"is_disabled":true,"rental_uris":{"android":"levelo://app?vid=49a5be0b-2b23-4d57-a2bd-3a5d802fab0b","ios":"levelo://app?vid=49a5be0b-2b23-4d57-a2bd-3a5d802fab0b"},"vehicle_type_id":"4","last_reported":1745622557,"current_range_meters":14000,"station_id":"ce4bhb92rcd13ifvqen0","pricing_plan_id":"cebpf4jnsgd1na2vs0mg"},{"bike_id":"a83d2920-e56c-468e-b576-72c6faaaa3ff","system_id":"levelo_inurba_marseille","lat":43.30611,"lon":5.37224,"is_reserved":false,"is_disabled":false,"rental_uris":{"android":"levelo://app?vid=a83d2920-e56c-468e-b576-72c6faaaa3ff","ios":"levelo://app?vid=a83d2920-e56c-468e-b576-72c6faaaa3ff"},"vehicle_type_id":"4","last_reported":1745622557,"current_range_meters":14400,"station_id":"ce4bgqh2rcd13ifvqc4g","pricing_plan_id":"cebpf4jnsgd1na2vs0mg"},{"bike_id":"802f71c1-bf3f-4c99-b0ce-3057646f3a4b","system_id":"levelo_inurba_marseille","lat":43.297428,"lon":5.376962,"is_reserved":false,"is_disabled":false,"rental_uris":{"android":"levelo://app?vid=802f71c1-bf3f-4c99-b0ce-3057646f3a4b","ios":"levelo://app?vid=802f71c1-bf3f-4c99-b0ce-3057646f3a4b"},"vehicle_type_id":"4","last_reported":1745622557,"current_range_meters":14400,"station_id":"ce4bh612rcd13ifvqe6g","pricing_plan_id":"cebpf4jnsgd1na2vs0mg"},{"bike_id":"262de007-d0f9-4b5c-9db4-1c829c9329a9","system_id":"levelo_inurba_marseille","lat":43.27931,"lon":5.41036,"is_reserved":false,"is_disabled":false,"rental_uris":{"android":"levelo://app?vid=262de007-d0f9-4b5c-9db4-1c829c9329a9","ios":"levelo://app?vid=262de007-d0f9-4b5c-9db4-1c829c9329a9"},"vehicle_type_id":"4","last_reported":1745622557,"current_range_meters":14400,"station_id":"ce4bhnp2rcd13ifvqh0g","pricing_plan_id":"cebpf4jnsgd1na2vs0mg"},{"bike_id":"25be4d5f-097a-409c-b48d-15885103676b","system_id":"levelo_inurba_marseille","lat":43.29882,"lon":5.38918,"is_reserved":false,"is_disabled":false,"rental_uris":{"android":"levelo://app?vid=25be4d5f-097a-409c-b48d-15885103676b","ios":"levelo://app?vid=25be4d5f-097a-409c-b48d-15885103676b"},"vehicle_type_id":"4","last_reported":1745622557,"current_range_meters":14400,"station_id":"ce4bh392rcd13ifvqdl0","pricing_plan_id":"cebpf4jnsgd1na2vs0mg"},{"bike_id":"9cea7716-891d-46a7-ad9d-83edb58c49cc","system_id":"levelo_inurba_marseille","lat":43.30265,"lon":5.40064,"is_reserved":false,"is_disabled":false,"rental_uris":{"android":"levelo://app?vid=9cea7716-891d-46a7-ad9d-83edb58c49cc","ios":"levelo://app?vid=9cea7716-891d-46a7-ad9d-83edb58c49cc"},"vehicle_type_id":"4","last_reported":1745622557,"current_range_meters":14400,"station_id":"ce4bgvh2rcd13ifvqcs0","pricing_plan_id":"cebpf4jnsgd1na2vs0mg"},{"bike_id":"97cdf8ae-fbfe-4117-9882-bbb400bc4be6","system_id":"levelo_inurba_marseille","lat":43.27992,"lon":5.40007,"is_reserved":false,"is_disabled":false,"rental_uris":{"android":"levelo://app?vid=97cdf8ae-fbfe-4117-9882-bbb400bc4be6","ios":"levelo://app?vid=97cdf8ae-fbfe-4117-9882-bbb400bc4be6"},"vehicle_type_id":"4","last_reported":1745622557,"current_range_meters":14400,"station_id":"ce4bho92rcd13ifvqh4g","pricing_plan_id":"cebpf4jnsgd1na2vs0mg"},{"bike_id":"3f9c3cd7-5c19-493a-8404-1db86da8fcc7","system_id":"levelo_inurba_marseille","lat":43.33607,"lon":5.41025,"is_reserved":false,"is_disabled":false,"rental_uris":{"android":"levelo://app?vid=3f9c3cd7-5c19-493a-8404-1db86da8fcc7","ios":"levelo://app?vid=3f9c3cd7-5c19-493a-8404-1db86da8fcc7"},"vehicle_type_id":"4","last_reported":1745622557,"current_range_meters":14800,"station_id":"ce4bhqh2rcd13ifvqhmg","pricing_plan_id":"cebpf4jnsgd1na2vs0mg"},{"bike_id":"7ffac620-850a-4447-92a0-7ca9d06e2ff5","system_id":"levelo_inurba_marseille","lat":43.29593,"lon":5.38097,"is_reserved":false,"is_disabled":false,"rental_uris":{"android":"levelo://app?vid=7ffac620-850a-4447-92a0-7ca9d06e2ff5","ios":"levelo://app?vid=7ffac620-850a-4447-92a0-7ca9d06e2ff5"},"vehicle_type_id":"4","last_reported":1745622557,"current_range_meters":14800,"station_id":"ce4bgl12rcd13ifvqbo0","pricing_plan_id":"cebpf4jnsgd1na2vs0mg"},{"bike_id":"5ba7132e-2b5b-463a-a4d7-a59a70c356e1","system_id":"levelo_inurba_marseille","lat":43.3308,"lon":5.408173,"is_reserved":false,"is_disabled":false,"rental_uris":{"android":"levelo://app?vid=5ba7132e-2b5b-463a-a4d7-a59a70c356e1","ios":"levelo://app?vid=5ba7132e-2b5b-463a-a4d7-a59a70c356e1"},"vehicle_type_id":"4","last_reported":1745622557,"current_range_meters":14800,"station_id":"","pricing_plan_id":"cebpf4jnsgd1na2vs0mg"},{"bike_id":"9938022e-8478-489a-a878-ea3fb6a686ae","system_id":"levelo_inurba_marseille","lat":43.3234,"lon":5.38925,"is_reserved":false,"is_disabled":false,"rental_uris":{"android":"levelo://app?vid=9938022e-8478-489a-a878-ea3fb6a686ae","ios":"levelo://app?vid=9938022e-8478-489a-a878-ea3fb6a686ae"},"vehicle_type_id":"4","last_reported":1745622557,"current_range_meters":14800,"station_id":"ce4bhqp2rcd13ifvqhog","pricing_plan_id":"cebpf4jnsgd1na2vs0mg"},{"bike_id":"987d7900-bb2a-45cb-bed7-6d69f6fd4fa3","system_id":"levelo_inurba_marseille","lat":43.28478,"lon":5.38421,"is_reserved":false,"is_disabled":false,"rental_uris":{"android":"levelo://app?vid=987d7900-bb2a-45cb-bed7-6d69f6fd4fa3","ios":"levelo://app?vid=987d7900-bb2a-45cb-bed7-6d69f6fd4fa3"},"vehicle_type_id":"4","last_reported":1745622557,"current_range_meters":14800,"station_id":"ce4bh512rcd13ifvqe3g","pricing_plan_id":"cebpf4jnsgd1na2vs0mg"},{"bike_id":"c8d550fb-3c02-4c59-9563-81dd5abbd4aa","system_id":"levelo_inurba_marseille","lat":43.30257,"lon":5.40073,"is_reserved":false,"is_disabled":false,"rental_uris":{"android":"levelo://app?vid=c8d550fb-3c02-4c59-9563-81dd5abbd4aa","ios":"levelo://app?vid=c8d550fb-3c02-4c59-9563-81dd5abbd4aa"},"vehicle_type_id":"4","last_reported":1745622557,"current_range_meters":14800,"station_id":"ce4bgvh2rcd13ifvqcs0","pricing_plan_id":"cebpf4jnsgd1na2vs0mg"},{"bike_id":"ebbe9a30-d282-4b35-8349-7a659873be4f","system_id":"levelo_inurba_marseille","lat":43.2957,"lon":5.37481,"is_reserved":false,"is_disabled":false,"rental_uris":{"android":"levelo://app?vid=ebbe9a30-d282-4b35-8349-7a659873be4f","ios":"levelo://app?vid=ebbe9a30-d282-4b35-8349-7a659873be4f"},"vehicle_type_id":"4","last_reported":1745622557,"current_range_meters":15200,"station_id":"ce4bgh92rcd13ifvqb50","pricing_plan_id":"cebpf4jnsgd1na2vs0mg"},{"bike_id":"1f0b3d47-11c3-4e49-b0b8-1f01bac13958","system_id":"levelo_inurba_marseille","lat":43.25873,"lon":5.39896,"is_reserved":false,"is_disabled":false,"rental_uris":{"android":"levelo://app?vid=1f0b3d47-11c3-4e49-b0b8-1f01bac13958","ios":"levelo://app?vid=1f0b3d47-11c3-4e49-b0b8-1f01bac13958"},"vehicle_type_id":"4","last_reported":1745622557,"current_range_meters":15200,"station_id":"ce4bhl92rcd13ifvqghg","pricing_plan_id":"cebpf4jnsgd1na2vs0mg"},{"bike_id":"b337b47e-e0c0-40c3-878a-37e58bb44305","system_id":"levelo_inurba_marseille","lat":43.311365,"lon":5.407208,"is_reserved":false,"is_disabled":false,"rental_uris":{"android":"levelo://app?vid=b337b47e-e0c0-40c3-878a-37e58bb44305","ios":"levelo://app?vid=b337b47e-e0c0-40c3-878a-37e58bb44305"},"vehicle_type_id":"4","last_reported":1745622557,"current_range_meters":15200,"station_id":"","pricing_plan_id":"cebpf4jnsgd1na2vs0mg"},{"bike_id":"540e73f3-f5fe-4af6-8cf8-7c93cbc816e3","system_id":"levelo_inurba_marseille","lat":43.30087,"lon":5.39077,"is_reserved":false,"is_disabled":true,"rental_uris":{"android":"levelo://app?vid=540e73f3-f5fe-4af6-8cf8-7c93cbc816e3","ios":"levelo://app?vid=540e73f3-f5fe-4af6-8cf8-7c93cbc816e3"},"vehicle_type_id":"4","last_reported":1745622557,"current_range_meters":15200,"station_id":"ce4bh192rcd13ifvqdb0","pricing_plan_id":"cebpf4jnsgd1na2vs0mg"},{"bike_id":"a65b307d-c415-4217-8263-e3f6418622ee","system_id":"levelo_inurba_marseille","lat":43.29887,"lon":5.38899,"is_reserved":false,"is_disabled":false,"rental_uris":{"android":"levelo://app?vid=a65b307d-c415-4217-8263-e3f6418622ee","ios":"levelo://app?vid=a65b307d-c415-4217-8263-e3f6418622ee"},"vehicle_type_id":"4","last_reported":1745622557,"current_range_meters":15200,"station_id":"ce4bh392rcd13ifvqdl0","pricing_plan_id":"cebpf4jnsgd1na2vs0mg"},{"bike_id":"b4fbbd83-1dbc-4edd-b531-ebdb78c6626d","system_id":"levelo_inurba_marseille","lat":43.32667,"lon":5.40988,"is_reserved":false,"is_disabled":false,"rental_uris":{"android":"levelo://app?vid=b4fbbd83-1dbc-4edd-b531-ebdb78c6626d","ios":"levelo://app?vid=b4fbbd83-1dbc-4edd-b531-ebdb78c6626d"},"vehicle_type_id":"4","last_reported":1745622557,"current_range_meters":15200,"station_id":"ce4bhpp2rcd13ifvqhgg","pricing_plan_id":"cebpf4jnsgd1na2vs0mg"},{"bike_id":"fdbe3e4c-6069-4e16-9ae7-cb790fcbdb9e","system_id":"levelo_inurba_marseille","lat":43.24686,"lon":5.38132,"is_reserved":false,"is_disabled":false,"rental_uris":{"android":"levelo://app?vid=fdbe3e4c-6069-4e16-9ae7-cb790fcbdb9e","ios":"levelo://app?vid=fdbe3e4c-6069-4e16-9ae7-cb790fcbdb9e"},"vehicle_type_id":"4","last_reported":1745622557,"current_range_meters":16000,"station_id":"ce4bhih2rcd13ifvqfr0","pricing_plan_id":"cebpf4jnsgd1na2vs0mg"},{"bike_id":"5ce86e4d-e282-44f7-bbe6-ba0382ba5aa0","system_id":"levelo_inurba_marseille","lat":43.25395,"lon":5.41851,"is_reserved":false,"is_disabled":false,"rental_uris":{"android":"levelo://app?vid=5ce86e4d-e282-44f7-bbe6-ba0382ba5aa0","ios":"levelo://app?vid=5ce86e4d-e282-44f7-bbe6-ba0382ba5aa0"},"vehicle_type_id":"4","last_reported":1745622557,"current_range_meters":16000,"station_id":"","pricing_plan_id":"cebpf4jnsgd1na2vs0mg"},{"bike_id":"ab157b9a-f413-4283-9896-461bb1b27942","system_id":"levelo_inurba_marseille","lat":43.33024,"lon":5.3904,"is_reserved":false,"is_disabled":false,"rental_uris":{"android":"levelo://app?vid=ab157b9a-f413-4283-9896-461bb1b27942","ios":"levelo://app?vid=ab157b9a-f413-4283-9896-461bb1b27942"},"vehicle_type_id":"4","last_reported":1745622557,"current_range_meters":16000,"station_id":"ce4bhr92rcd13ifvqhrg","pricing_plan_id":"cebpf4jnsgd1na2vs0mg"},{"bike_id":"45571b84-2af9-4c77-a608-11eb44fb40cc","system_id":"levelo_inurba_marseille","lat":43.29538,"lon":5.38542,"is_reserved":false,"is_disabled":false,"rental_uris":{"android":"levelo://app?vid=45571b84-2af9-4c77-a608-11eb44fb40cc","ios":"levelo://app?vid=45571b84-2af9-4c77-a608-11eb44fb40cc"},"vehicle_type_id":"4","last_reported":1745622557,"current_range_meters":16000,"station_id":"ce4bgih2rcd13ifvqba0","pricing_plan_id":"cebpf4jnsgd1na2vs0mg"},{"bike_id":"241dbe29-7b2e-4c98-9a35-027a104f0df1","system_id":"levelo_inurba_marseille","lat":43.301351,"lon":5.38784,"is_reserved":false,"is_disabled":false,"rental_uris":{"android":"levelo://app?vid=241dbe29-7b2e-4c98-9a35-027a104f0df1","ios":"levelo://app?vid=241dbe29-7b2e-4c98-9a35-027a104f0df1"},"vehicle_type_id":"4","last_reported":1745622557,"current_range_meters":16000,"station_id":"ce4bgop2rcd13ifvqc1g","pricing_plan_id":"cebpf4jnsgd1na2vs0mg"},{"bike_id":"8f5c8879-8704-464b-b08a-aa8851e6ad23","system_id":"levelo_inurba_marseille","lat":43.32376,"lon":5.3888,"is_reserved":false,"is_disabled":false,"rental_uris":{"android":"levelo://app?vid=8f5c8879-8704-464b-b08a-aa8851e6ad23","ios":"levelo://app?vid=8f5c8879-8704-464b-b08a-aa8851e6ad23"},"vehicle_type_id":"4","last_reported":1745622557,"current_range_meters":16000,"station_id":"ce4bhqp2rcd13ifvqhog","pricing_plan_id":"cebpf4jnsgd1na2vs0mg"},{"bike_id":"e2a41a14-b118-4dd4-aa7f-abc51fc58dd2","system_id":"levelo_inurba_marseille","lat":43.323655,"lon":5.388825,"is_reserved":false,"is_disabled":false,"rental_uris":{"android":"levelo://app?vid=e2a41a14-b118-4dd4-aa7f-abc51fc58dd2","ios":"levelo://app?vid=e2a41a14-b118-4dd4-aa7f-abc51fc58dd2"},"vehicle_type_id":"4","last_reported":1745622557,"current_range_meters":16000,"station_id":"ce4bhqp2rcd13ifvqhog","pricing_plan_id":"cebpf4jnsgd1na2vs0mg"},{"bike_id":"97fbe862-3dc4-4ded-9569-7540ceeeffb5","system_id":"levelo_inurba_marseille","lat":43.33607,"lon":5.41018,"is_reserved":false,"is_disabled":false,"rental_uris":{"android":"levelo://app?vid=97fbe862-3dc4-4ded-9569-7540ceeeffb5","ios":"levelo://app?vid=97fbe862-3dc4-4ded-9569-7540ceeeffb5"},"vehicle_type_id":"4","last_reported":1745622557,"current_range_meters":16000,"station_id":"ce4bhqh2rcd13ifvqhmg","pricing_plan_id":"cebpf4jnsgd1na2vs0mg"},{"bike_id":"858c46c6-cf5c-4061-9d08-fbcc6e9b3766","system_id":"levelo_inurba_marseille","lat":43.250866,"lon":5.395292,"is_reserved":false,"is_disabled":false,"rental_uris":{"android":"levelo://app?vid=858c46c6-cf5c-4061-9d08-fbcc6e9b3766","ios":"levelo://app?vid=858c46c6-cf5c-4061-9d08-fbcc6e9b3766"},"vehicle_type_id":"4","last_reported":1745622557,"current_range_meters":16000,"station_id":"ce4bhm12rcd13ifvqgkg","pricing_plan_id":"cebpf4jnsgd1na2vs0mg"},{"bike_id":"8b91c328-1f1f-4036-9297-e0f5cc33f152","system_id":"levelo_inurba_marseille","lat":43.31355,"lon":5.38498,"is_reserved":false,"is_disabled":false,"rental_uris":{"android":"levelo://app?vid=8b91c328-1f1f-4036-9297-e0f5cc33f152","ios":"levelo://app?vid=8b91c328-1f1f-4036-9297-e0f5cc33f152"},"vehicle_type_id":"4","last_reported":1745622557,"current_range_meters":16000,"station_id":"ce4bgt92rcd13ifvqcf0","pricing_plan_id":"cebpf4jnsgd1na2vs0mg"},{"bike_id":"5beaa40a-f95a-4af3-94f6-72b61e748f45","system_id":"levelo_inurba_marseille","lat":43.28403,"lon":5.37509,"is_reserved":false,"is_disabled":false,"rental_uris":{"android":"levelo://app?vid=5beaa40a-f95a-4af3-94f6-72b61e748f45","ios":"levelo://app?vid=5beaa40a-f95a-4af3-94f6-72b61e748f45"},"vehicle_type_id":"4","last_reported":1745622557,"current_range_meters":16000,"station_id":"ce4bh412rcd13ifvqds0","pricing_plan_id":"cebpf4jnsgd1na2vs0mg"},{"bike_id":"ab5fce78-f4de-44c9-baff-65c9b31cddea","system_id":"levelo_inurba_marseille","lat":43.29035,"lon":5.37558,"is_reserved":false,"is_disabled":false,"rental_uris":{"android":"levelo://app?vid=ab5fce78-f4de-44c9-baff-65c9b31cddea","ios":"levelo://app?vid=ab5fce78-f4de-44c9-baff-65c9b31cddea"},"vehicle_type_id":"4","last_reported":1745622557,"current_range_meters":16000,"station_id":"ce4bh692rcd13ifvqe90","pricing_plan_id":"cebpf4jnsgd1na2vs0mg"},{"bike_id":"75d1b0ab-abc4-4fbf-80d7-6c8e53d30f0d","system_id":"levelo_inurba_marseille","lat":43.29918,"lon":5.37461,"is_reserved":false,"is_disabled":false,"rental_uris":{"android":"levelo://app?vid=75d1b0ab-abc4-4fbf-80d7-6c8e53d30f0d","ios":"levelo://app?vid=75d1b0ab-abc4-4fbf-80d7-6c8e53d30f0d"},"vehicle_type_id":"4","last_reported":1745622557,"current_range_meters":16000,"station_id":"ce4bgjh2rcd13ifvqbg0","pricing_plan_id":"cebpf4jnsgd1na2vs0mg"},{"bike_id":"51a4b1f4-4cfb-4b9e-b7e6-50254ee4c796","system_id":"levelo_inurba_marseille","lat":43.28609,"lon":5.37058,"is_reserved":false,"is_disabled":true,"rental_uris":{"android":"levelo://app?vid=51a4b1f4-4cfb-4b9e-b7e6-50254ee4c796","ios":"levelo://app?vid=51a4b1f4-4cfb-4b9e-b7e6-50254ee4c796"},"vehicle_type_id":"4","last_reported":1745622557,"current_range_meters":16000,"station_id":"ce4bht12rcd13ifvqi60","pricing_plan_id":"cebpf4jnsgd1na2vs0mg"},{"bike_id":"96733886-38eb-4a8b-9470-0c4bf645e97a","system_id":"levelo_inurba_marseille","lat":43.27947,"lon":5.41046,"is_reserved":false,"is_disabled":false,"rental_uris":{"android":"levelo://app?vid=96733886-38eb-4a8b-9470-0c4bf645e97a","ios":"levelo://app?vid=96733886-38eb-4a8b-9470-0c4bf645e97a"},"vehicle_type_id":"4","last_reported":1745622557,"current_range_meters":16400,"station_id":"ce4bhnp2rcd13ifvqh0g","pricing_plan_id":"cebpf4jnsgd1na2vs0mg"},{"bike_id":"0ec508c1-e9ac-4b5b-b8d1-19675c98bb05","system_id":"levelo_inurba_marseille","lat":43.33024,"lon":5.39041,"is_reserved":false,"is_disabled":false,"rental_uris":{"android":"levelo://app?vid=0ec508c1-e9ac-4b5b-b8d1-19675c98bb05","ios":"levelo://app?vid=0ec508c1-e9ac-4b5b-b8d1-19675c98bb05"},"vehicle_type_id":"4","last_reported":1745622557,"current_range_meters":16400,"station_id":"ce4bhr92rcd13ifvqhrg","pricing_plan_id":"cebpf4jnsgd1na2vs0mg"},{"bike_id":"42f4a34b-5447-42b2-88ad-6361cc2e87e0","system_id":"levelo_inurba_marseille","lat":43.29771,"lon":5.37098,"is_reserved":false,"is_disabled":false,"rental_uris":{"android":"levelo://app?vid=42f4a34b-5447-42b2-88ad-6361cc2e87e0","ios":"levelo://app?vid=42f4a34b-5447-42b2-88ad-6361cc2e87e0"},"vehicle_type_id":"4","last_reported":1745622557,"current_range_meters":16400,"station_id":"ce4bgop2rcd13ifvqc1g","pricing_plan_id":"cebpf4jnsgd1na2vs0mg"},{"bike_id":"f1d84fb5-f9d0-4769-a5af-b5ddf79f36da","system_id":"levelo_inurba_marseille","lat":43.29526,"lon":5.385393,"is_reserved":false,"is_disabled":false,"rental_uris":{"android":"levelo://app?vid=f1d84fb5-f9d0-4769-a5af-b5ddf79f36da","ios":"levelo://app?vid=f1d84fb5-f9d0-4769-a5af-b5ddf79f36da"},"vehicle_type_id":"4","last_reported":1745622557,"current_range_meters":16400,"station_id":"ce4bgih2rcd13ifvqba0","pricing_plan_id":"cebpf4jnsgd1na2vs0mg"},{"bike_id":"6142caa7-f476-4493-8120-497b48cc5cc2","system_id":"levelo_inurba_marseille","lat":43.24066,"lon":5.37754,"is_reserved":false,"is_disabled":false,"rental_uris":{"android":"levelo://app?vid=6142caa7-f476-4493-8120-497b48cc5cc2","ios":"levelo://app?vid=6142caa7-f476-4493-8120-497b48cc5cc2"},"vehicle_type_id":"4","last_reported":1745622557,"current_range_meters":16400,"station_id":"ce4bhnp2rcd13ifvqgvg","pricing_plan_id":"cebpf4jnsgd1na2vs0mg"},{"bike_id":"31de0553-c9b8-4cd4-844d-7d7b36fa3ecd","system_id":"levelo_inurba_marseille","lat":43.28171,"lon":5.42654,"is_reserved":false,"is_disabled":false,"rental_uris":{"android":"levelo://app?vid=31de0553-c9b8-4cd4-844d-7d7b36fa3ecd","ios":"levelo://app?vid=31de0553-c9b8-4cd4-844d-7d7b36fa3ecd"},"vehicle_type_id":"4","last_reported":1745622557,"current_range_meters":16400,"station_id":"ce4bhnh2rcd13ifvqgug","pricing_plan_id":"cebpf4jnsgd1na2vs0mg"},{"bike_id":"6af27718-a240-4511-b105-026b1985396f","system_id":"levelo_inurba_marseille","lat":43.29556,"lon":5.36273,"is_reserved":false,"is_disabled":false,"rental_uris":{"android":"levelo://app?vid=6af27718-a240-4511-b105-026b1985396f","ios":"levelo://app?vid=6af27718-a240-4511-b105-026b1985396f"},"vehicle_type_id":"4","last_reported":1745622557,"current_range_meters":16400,"station_id":"","pricing_plan_id":"cebpf4jnsgd1na2vs0mg"},{"bike_id":"d28bf9af-5868-40cf-bc78-dd7cb5c022b5","system_id":"levelo_inurba_marseille","lat":43.299761,"lon":5.384969,"is_reserved":false,"is_disabled":true,"rental_uris":{"android":"levelo://app?vid=d28bf9af-5868-40cf-bc78-dd7cb5c022b5","ios":"levelo://app?vid=d28bf9af-5868-40cf-bc78-dd7cb5c022b5"},"vehicle_type_id":"4","last_reported":1745622557,"current_range_meters":16800,"station_id":"ce4bgj92rcd13ifvqbd0","pricing_plan_id":"cebpf4jnsgd1na2vs0mg"},{"bike_id":"84fbb3b0-32a6-4d2e-ae64-a58ff68e7b32","system_id":"levelo_inurba_marseille","lat":43.22928,"lon":5.35373,"is_reserved":false,"is_disabled":false,"rental_uris":{"android":"levelo://app?vid=84fbb3b0-32a6-4d2e-ae64-a58ff68e7b32","ios":"levelo://app?vid=84fbb3b0-32a6-4d2e-ae64-a58ff68e7b32"},"vehicle_type_id":"4","last_reported":1745622557,"current_range_meters":16800,"station_id":"cpo3532slgdg3j2ikp40","pricing_plan_id":"cebpf4jnsgd1na2vs0mg"},{"bike_id":"ddc2ed76-18ad-4e0c-9dbd-1307527da83a","system_id":"levelo_inurba_marseille","lat":43.29539,"lon":5.38543,"is_reserved":false,"is_disabled":false,"rental_uris":{"android":"levelo://app?vid=ddc2ed76-18ad-4e0c-9dbd-1307527da83a","ios":"levelo://app?vid=ddc2ed76-18ad-4e0c-9dbd-1307527da83a"},"vehicle_type_id":"4","last_reported":1745622557,"current_range_meters":16800,"station_id":"ce4bgih2rcd13ifvqba0","pricing_plan_id":"cebpf4jnsgd1na2vs0mg"},{"bike_id":"ca376395-5bab-49ac-a88b-03ed7986b1fc","system_id":"levelo_inurba_marseille","lat":43.2593,"lon":5.40904,"is_reserved":false,"is_disabled":false,"rental_uris":{"android":"levelo://app?vid=ca376395-5bab-49ac-a88b-03ed7986b1fc","ios":"levelo://app?vid=ca376395-5bab-49ac-a88b-03ed7986b1fc"},"vehicle_type_id":"4","last_reported":1745622557,"current_range_meters":16800,"station_id":"ce4bhm92rcd13ifvqglg","pricing_plan_id":"cebpf4jnsgd1na2vs0mg"},{"bike_id":"dbebca8a-053a-407c-9e87-ed214e66581b","system_id":"levelo_inurba_marseille","lat":43.32352,"lon":5.38891,"is_reserved":false,"is_disabled":false,"rental_uris":{"android":"levelo://app?vid=dbebca8a-053a-407c-9e87-ed214e66581b","ios":"levelo://app?vid=dbebca8a-053a-407c-9e87-ed214e66581b"},"vehicle_type_id":"4","last_reported":1745622557,"current_range_meters":16800,"station_id":"ce4bhqp2rcd13ifvqhog","pricing_plan_id":"cebpf4jnsgd1na2vs0mg"},{"bike_id":"5dbe91cf-e0fd-473c-8210-bfb47c914136","system_id":"levelo_inurba_marseille","lat":43.29544,"lon":5.38531,"is_reserved":false,"is_disabled":false,"rental_uris":{"android":"levelo://app?vid=5dbe91cf-e0fd-473c-8210-bfb47c914136","ios":"levelo://app?vid=5dbe91cf-e0fd-473c-8210-bfb47c914136"},"vehicle_type_id":"4","last_reported":1745622557,"current_range_meters":16800,"station_id":"ce4bgih2rcd13ifvqba0","pricing_plan_id":"cebpf4jnsgd1na2vs0mg"},{"bike_id":"5dc84e9d-9834-4e0f-ba36-b2b9d12df2e2","system_id":"levelo_inurba_marseille","lat":43.31373,"lon":5.38498,"is_reserved":false,"is_disabled":false,"rental_uris":{"android":"levelo://app?vid=5dc84e9d-9834-4e0f-ba36-b2b9d12df2e2","ios":"levelo://app?vid=5dc84e9d-9834-4e0f-ba36-b2b9d12df2e2"},"vehicle_type_id":"4","last_reported":1745622557,"current_range_meters":16800,"station_id":"ce4bgt92rcd13ifvqcf0","pricing_plan_id":"cebpf4jnsgd1na2vs0mg"},{"bike_id":"e3cdf67a-5fc2-4703-9c39-57d29454c8ba","system_id":"levelo_inurba_marseille","lat":43.340425,"lon":5.386994,"is_reserved":false,"is_disabled":false,"rental_uris":{"android":"levelo://app?vid=e3cdf67a-5fc2-4703-9c39-57d29454c8ba","ios":"levelo://app?vid=e3cdf67a-5fc2-4703-9c39-57d29454c8ba"},"vehicle_type_id":"4","last_reported":1745622557,"current_range_meters":17200,"station_id":"","pricing_plan_id":"cebpf4jnsgd1na2vs0mg"},{"bike_id":"4046a82f-66e8-4b55-bd0a-356edea772d8","system_id":"levelo_inurba_marseille","lat":43.30762,"lon":5.37374,"is_reserved":false,"is_disabled":false,"rental_uris":{"android":"levelo://app?vid=4046a82f-66e8-4b55-bd0a-356edea772d8","ios":"levelo://app?vid=4046a82f-66e8-4b55-bd0a-356edea772d8"},"vehicle_type_id":"4","last_reported":1745622557,"current_range_meters":17200,"station_id":"","pricing_plan_id":"cebpf4jnsgd1na2vs0mg"},{"bike_id":"1d4c6c74-80e4-48bf-8fe7-cebf6a9f738d","system_id":"levelo_inurba_marseille","lat":43.295135,"lon":5.387501,"is_reserved":false,"is_disabled":false,"rental_uris":{"android":"levelo://app?vid=1d4c6c74-80e4-48bf-8fe7-cebf6a9f738d","ios":"levelo://app?vid=1d4c6c74-80e4-48bf-8fe7-cebf6a9f738d"},"vehicle_type_id":"4","last_reported":1745622557,"current_range_meters":17200,"station_id":"ce4bgvp2rcd13ifvqcu0","pricing_plan_id":"cebpf4jnsgd1na2vs0mg"},{"bike_id":"a517887f-806e-43f2-a9a5-a540996a7c48","system_id":"levelo_inurba_marseille","lat":43.28416,"lon":5.37513,"is_reserved":false,"is_disabled":false,"rental_uris":{"android":"levelo://app?vid=a517887f-806e-43f2-a9a5-a540996a7c48","ios":"levelo://app?vid=a517887f-806e-43f2-a9a5-a540996a7c48"},"vehicle_type_id":"4","last_reported":1745622557,"current_range_meters":17200,"station_id":"ce4bh412rcd13ifvqds0","pricing_plan_id":"cebpf4jnsgd1na2vs0mg"},{"bike_id":"a36f3031-523c-46e4-8e2a-58aa9e41b580","system_id":"levelo_inurba_marseille","lat":43.30303,"lon":5.36885,"is_reserved":false,"is_disabled":false,"rental_uris":{"android":"levelo://app?vid=a36f3031-523c-46e4-8e2a-58aa9e41b580","ios":"levelo://app?vid=a36f3031-523c-46e4-8e2a-58aa9e41b580"},"vehicle_type_id":"4","last_reported":1745622557,"current_range_meters":17200,"station_id":"ce4bgqh2rcd13ifvqc5g","pricing_plan_id":"cebpf4jnsgd1na2vs0mg"},{"bike_id":"27eec708-f50a-472d-a269-9b8a87745fed","system_id":"levelo_inurba_marseille","lat":43.31445,"lon":5.37352,"is_reserved":false,"is_disabled":false,"rental_uris":{"android":"levelo://app?vid=27eec708-f50a-472d-a269-9b8a87745fed","ios":"levelo://app?vid=27eec708-f50a-472d-a269-9b8a87745fed"},"vehicle_type_id":"4","last_reported":1745622557,"current_range_meters":17200,"station_id":"","pricing_plan_id":"cebpf4jnsgd1na2vs0mg"},{"bike_id":"39dfd1d9-4782-4cc1-b547-275b00d2fbc0","system_id":"levelo_inurba_marseille","lat":43.28673,"lon":5.38668,"is_reserved":false,"is_disabled":false,"rental_uris":{"android":"levelo://app?vid=39dfd1d9-4782-4cc1-b547-275b00d2fbc0","ios":"levelo://app?vid=39dfd1d9-4782-4cc1-b547-275b00d2fbc0"},"vehicle_type_id":"4","last_reported":1745622557,"current_range_meters":17200,"station_id":"ce4bh492rcd13ifvqdug","pricing_plan_id":"cebpf4jnsgd1na2vs0mg"},{"bike_id":"3627fa61-f978-47f4-ac90-76babb0ff133","system_id":"levelo_inurba_marseille","lat":43.2866,"lon":5.36347,"is_reserved":false,"is_disabled":false,"rental_uris":{"android":"levelo://app?vid=3627fa61-f978-47f4-ac90-76babb0ff133","ios":"levelo://app?vid=3627fa61-f978-47f4-ac90-76babb0ff133"},"vehicle_type_id":"4","last_reported":1745622557,"current_range_meters":17200,"station_id":"ce4bhah2rcd13ifvqej0","pricing_plan_id":"cebpf4jnsgd1na2vs0mg"},{"bike_id":"76d051a0-70d0-4b83-a696-0389d8a23079","system_id":"levelo_inurba_marseille","lat":43.25716,"lon":5.41114,"is_reserved":false,"is_disabled":false,"rental_uris":{"android":"levelo://app?vid=76d051a0-70d0-4b83-a696-0389d8a23079","ios":"levelo://app?vid=76d051a0-70d0-4b83-a696-0389d8a23079"},"vehicle_type_id":"4","last_reported":1745622557,"current_range_meters":17600,"station_id":"ce4bhkp2rcd13ifvqgd0","pricing_plan_id":"cebpf4jnsgd1na2vs0mg"},{"bike_id":"a18b32af-837e-4f1b-a9b1-f47fdb463774","system_id":"levelo_inurba_marseille","lat":43.33589,"lon":5.4097,"is_reserved":false,"is_disabled":false,"rental_uris":{"android":"levelo://app?vid=a18b32af-837e-4f1b-a9b1-f47fdb463774","ios":"levelo://app?vid=a18b32af-837e-4f1b-a9b1-f47fdb463774"},"vehicle_type_id":"4","last_reported":1745622557,"current_range_meters":17600,"station_id":"ce4bhqh2rcd13ifvqhmg","pricing_plan_id":"cebpf4jnsgd1na2vs0mg"},{"bike_id":"9eb74dc5-d17e-4a51-b7a2-9cba58ed4ec7","system_id":"levelo_inurba_marseille","lat":43.2573,"lon":5.41099,"is_reserved":false,"is_disabled":false,"rental_uris":{"android":"levelo://app?vid=9eb74dc5-d17e-4a51-b7a2-9cba58ed4ec7","ios":"levelo://app?vid=9eb74dc5-d17e-4a51-b7a2-9cba58ed4ec7"},"vehicle_type_id":"4","last_reported":1745622557,"current_range_meters":17600,"station_id":"ce4bhkp2rcd13ifvqgd0","pricing_plan_id":"cebpf4jnsgd1na2vs0mg"},{"bike_id":"d631cdce-3900-4de8-9570-921ea5c61b8c","system_id":"levelo_inurba_marseille","lat":43.30891,"lon":5.39629,"is_reserved":false,"is_disabled":false,"rental_uris":{"android":"levelo://app?vid=d631cdce-3900-4de8-9570-921ea5c61b8c","ios":"levelo://app?vid=d631cdce-3900-4de8-9570-921ea5c61b8c"},"vehicle_type_id":"4","last_reported":1745622557,"current_range_meters":17600,"station_id":"ce4bh012rcd13ifvqcv0","pricing_plan_id":"cebpf4jnsgd1na2vs0mg"},{"bike_id":"8681189a-c5a2-4458-b6c1-95a6506a132e","system_id":"levelo_inurba_marseille","lat":43.279396,"lon":5.410507,"is_reserved":false,"is_disabled":false,"rental_uris":{"android":"levelo://app?vid=8681189a-c5a2-4458-b6c1-95a6506a132e","ios":"levelo://app?vid=8681189a-c5a2-4458-b6c1-95a6506a132e"},"vehicle_type_id":"4","last_reported":1745622557,"current_range_meters":17600,"station_id":"ce4bhnp2rcd13ifvqh0g","pricing_plan_id":"cebpf4jnsgd1na2vs0mg"},{"bike_id":"3e1ad8a3-a958-4d00-9a56-262625ea8d0f","system_id":"levelo_inurba_marseille","lat":43.28041,"lon":5.36942,"is_reserved":false,"is_disabled":false,"rental_uris":{"android":"levelo://app?vid=3e1ad8a3-a958-4d00-9a56-262625ea8d0f","ios":"levelo://app?vid=3e1ad8a3-a958-4d00-9a56-262625ea8d0f"},"vehicle_type_id":"4","last_reported":1745622557,"current_range_meters":17600,"station_id":"ce4bha12rcd13ifvqef0","pricing_plan_id":"cebpf4jnsgd1na2vs0mg"},{"bike_id":"bc2652db-32ee-450e-8cc0-005a02c1f054","system_id":"levelo_inurba_marseille","lat":43.21226,"lon":5.3504,"is_reserved":false,"is_disabled":false,"rental_uris":{"android":"levelo://app?vid=bc2652db-32ee-450e-8cc0-005a02c1f054","ios":"levelo://app?vid=bc2652db-32ee-450e-8cc0-005a02c1f054"},"vehicle_type_id":"4","last_reported":1745622557,"current_range_meters":17600,"station_id":"st_cvj6sg6p6f1abm77japg","pricing_plan_id":"cebpf4jnsgd1na2vs0mg"},{"bike_id":"f895ec11-dd23-4c99-8f72-da811e2c03f2","system_id":"levelo_inurba_marseille","lat":43.2909,"lon":5.38141,"is_reserved":false,"is_disabled":false,"rental_uris":{"android":"levelo://app?vid=f895ec11-dd23-4c99-8f72-da811e2c03f2","ios":"levelo://app?vid=f895ec11-dd23-4c99-8f72-da811e2c03f2"},"vehicle_type_id":"4","last_reported":1745622557,"current_range_meters":17600,"station_id":"ce4bh512rcd13ifvqe2g","pricing_plan_id":"cebpf4jnsgd1na2vs0mg"},{"bike_id":"13d452e5-1cae-4c4a-9e20-732e3eed22e9","system_id":"levelo_inurba_marseille","lat":43.23584,"lon":5.40352,"is_reserved":false,"is_disabled":false,"rental_uris":{"android":"levelo://app?vid=13d452e5-1cae-4c4a-9e20-732e3eed22e9","ios":"levelo://app?vid=13d452e5-1cae-4c4a-9e20-732e3eed22e9"},"vehicle_type_id":"4","last_reported":1745622557,"current_range_meters":17600,"station_id":"","pricing_plan_id":"cebpf4jnsgd1na2vs0mg"},{"bike_id":"94163684-77be-4f1e-948a-62cb733f8e03","system_id":"levelo_inurba_marseille","lat":43.30146,"lon":5.39858,"is_reserved":false,"is_disabled":false,"rental_uris":{"android":"levelo://app?vid=94163684-77be-4f1e-948a-62cb733f8e03","ios":"levelo://app?vid=94163684-77be-4f1e-948a-62cb733f8e03"},"vehicle_type_id":"4","last_reported":1745622557,"current_range_meters":17200,"station_id":"ce4bh0h2rcd13ifvqd40","pricing_plan_id":"cebpf4jnsgd1na2vs0mg"},{"bike_id":"dddc405f-b2d2-447f-8255-f175193c2de5","system_id":"levelo_inurba_marseille","lat":43.3211,"lon":5.36767,"is_reserved":false,"is_disabled":false,"rental_uris":{"android":"levelo://app?vid=dddc405f-b2d2-447f-8255-f175193c2de5","ios":"levelo://app?vid=dddc405f-b2d2-447f-8255-f175193c2de5"},"vehicle_type_id":"4","last_reported":1745622557,"current_range_meters":17600,"station_id":"ce4bhrh2rcd13ifvqhug","pricing_plan_id":"cebpf4jnsgd1na2vs0mg"},{"bike_id":"5fdc0623-6c76-4064-a69a-27e877e94ecd","system_id":"levelo_inurba_marseille","lat":43.30783,"lon":5.376513,"is_reserved":false,"is_disabled":true,"rental_uris":{"android":"levelo://app?vid=5fdc0623-6c76-4064-a69a-27e877e94ecd","ios":"levelo://app?vid=5fdc0623-6c76-4064-a69a-27e877e94ecd"},"vehicle_type_id":"4","last_reported":1745622557,"current_range_meters":17600,"station_id":"","pricing_plan_id":"cebpf4jnsgd1na2vs0mg"},{"bike_id":"7dd260a0-acb7-4e68-ac47-8bfb485254c2","system_id":"levelo_inurba_marseille","lat":43.306421,"lon":5.400654,"is_reserved":false,"is_disabled":false,"rental_uris":{"android":"levelo://app?vid=7dd260a0-acb7-4e68-ac47-8bfb485254c2","ios":"levelo://app?vid=7dd260a0-acb7-4e68-ac47-8bfb485254c2"},"vehicle_type_id":"4","last_reported":1745622557,"current_range_meters":17600,"station_id":"ce4bh112rcd13ifvqda0","pricing_plan_id":"cebpf4jnsgd1na2vs0mg"},{"bike_id":"aac80c5a-a5cf-4bfd-8104-2ee2df6da29e","system_id":"levelo_inurba_marseille","lat":43.336017,"lon":5.43658,"is_reserved":false,"is_disabled":false,"rental_uris":{"android":"levelo://app?vid=aac80c5a-a5cf-4bfd-8104-2ee2df6da29e","ios":"levelo://app?vid=aac80c5a-a5cf-4bfd-8104-2ee2df6da29e"},"vehicle_type_id":"4","last_reported":1745622557,"current_range_meters":18000,"station_id":"","pricing_plan_id":"cebpf4jnsgd1na2vs0mg"},{"bike_id":"7bc8a15c-acc5-4582-bf63-4d643c6de9c9","system_id":"levelo_inurba_marseille","lat":43.32663,"lon":5.4099,"is_reserved":false,"is_disabled":false,"rental_uris":{"android":"levelo://app?vid=7bc8a15c-acc5-4582-bf63-4d643c6de9c9","ios":"levelo://app?vid=7bc8a15c-acc5-4582-bf63-4d643c6de9c9"},"vehicle_type_id":"4","last_reported":1745622557,"current_range_meters":18000,"station_id":"ce4bhpp2rcd13ifvqhgg","pricing_plan_id":"cebpf4jnsgd1na2vs0mg"},{"bike_id":"87e5fb19-e179-438f-9abd-f14c451fd1f8","system_id":"levelo_inurba_marseille","lat":43.2875,"lon":5.37961,"is_reserved":false,"is_disabled":false,"rental_uris":{"android":"levelo://app?vid=87e5fb19-e179-438f-9abd-f14c451fd1f8","ios":"levelo://app?vid=87e5fb19-e179-438f-9abd-f14c451fd1f8"},"vehicle_type_id":"4","last_reported":1745622557,"current_range_meters":18000,"station_id":"ce4bh9p2rcd13ifvqec0","pricing_plan_id":"cebpf4jnsgd1na2vs0mg"},{"bike_id":"8ec4e23d-1c19-470d-879c-6e0b7873e4d5","system_id":"levelo_inurba_marseille","lat":43.29039,"lon":5.38139,"is_reserved":false,"is_disabled":true,"rental_uris":{"android":"levelo://app?vid=8ec4e23d-1c19-470d-879c-6e0b7873e4d5","ios":"levelo://app?vid=8ec4e23d-1c19-470d-879c-6e0b7873e4d5"},"vehicle_type_id":"4","last_reported":1745622557,"current_range_meters":18800,"station_id":"ce4bh4p2rcd13ifvqe1g","pricing_plan_id":"cebpf4jnsgd1na2vs0mg"},{"bike_id":"4741e6af-20c0-42f4-b950-4d85a1b8cba0","system_id":"levelo_inurba_marseille","lat":43.30829,"lon":5.37913,"is_reserved":false,"is_disabled":false,"rental_uris":{"android":"levelo://app?vid=4741e6af-20c0-42f4-b950-4d85a1b8cba0","ios":"levelo://app?vid=4741e6af-20c0-42f4-b950-4d85a1b8cba0"},"vehicle_type_id":"4","last_reported":1745622557,"current_range_meters":18000,"station_id":"","pricing_plan_id":"cebpf4jnsgd1na2vs0mg"},{"bike_id":"482497cc-4797-4027-890d-65b9607b687c","system_id":"levelo_inurba_marseille","lat":43.29368,"lon":5.37857,"is_reserved":false,"is_disabled":false,"rental_uris":{"android":"levelo://app?vid=482497cc-4797-4027-890d-65b9607b687c","ios":"levelo://app?vid=482497cc-4797-4027-890d-65b9607b687c"},"vehicle_type_id":"4","last_reported":1745622557,"current_range_meters":17600,"station_id":"ce4bgjh2rcd13ifvqbf0","pricing_plan_id":"cebpf4jnsgd1na2vs0mg"},{"bike_id":"95f09d82-77cb-4638-80aa-d277595bd174","system_id":"levelo_inurba_marseille","lat":43.29265,"lon":5.40905,"is_reserved":false,"is_disabled":false,"rental_uris":{"android":"levelo://app?vid=95f09d82-77cb-4638-80aa-d277595bd174","ios":"levelo://app?vid=95f09d82-77cb-4638-80aa-d277595bd174"},"vehicle_type_id":"4","last_reported":1745622557,"current_range_meters":18800,"station_id":"ce4bh192rcd13ifvqdc0","pricing_plan_id":"cebpf4jnsgd1na2vs0mg"},{"bike_id":"6021f578-4224-4687-83c2-9f4ffe453218","system_id":"levelo_inurba_marseille","lat":43.29226,"lon":5.3607,"is_reserved":false,"is_disabled":false,"rental_uris":{"android":"levelo://app?vid=6021f578-4224-4687-83c2-9f4ffe453218","ios":"levelo://app?vid=6021f578-4224-4687-83c2-9f4ffe453218"},"vehicle_type_id":"4","last_reported":1745622557,"current_range_meters":18800,"station_id":"ce4bhbh2rcd13ifvqeqg","pricing_plan_id":"cebpf4jnsgd1na2vs0mg"},{"bike_id":"2e239c1f-dbc8-4c8f-bad4-86f9adfa8381","system_id":"levelo_inurba_marseille","lat":43.30329,"lon":5.4044,"is_reserved":false,"is_disabled":false,"rental_uris":{"android":"levelo://app?vid=2e239c1f-dbc8-4c8f-bad4-86f9adfa8381","ios":"levelo://app?vid=2e239c1f-dbc8-4c8f-bad4-86f9adfa8381"},"vehicle_type_id":"4","last_reported":1745622557,"current_range_meters":18800,"station_id":"ce4bh012rcd13ifvqd10","pricing_plan_id":"cebpf4jnsgd1na2vs0mg"},{"bike_id":"1e14dbf4-1f09-4150-b135-9acd8e164fa1","system_id":"levelo_inurba_marseille","lat":43.29179,"lon":5.39315,"is_reserved":false,"is_disabled":false,"rental_uris":{"android":"levelo://app?vid=1e14dbf4-1f09-4150-b135-9acd8e164fa1","ios":"levelo://app?vid=1e14dbf4-1f09-4150-b135-9acd8e164fa1"},"vehicle_type_id":"4","last_reported":1745622557,"current_range_meters":18800,"station_id":"ce4bh192rcd13ifvqdd0","pricing_plan_id":"cebpf4jnsgd1na2vs0mg"},{"bike_id":"2e908b66-cde1-4d56-9dbd-9ebafc0f2997","system_id":"levelo_inurba_marseille","lat":43.29792,"lon":5.40404,"is_reserved":false,"is_disabled":false,"rental_uris":{"android":"levelo://app?vid=2e908b66-cde1-4d56-9dbd-9ebafc0f2997","ios":"levelo://app?vid=2e908b66-cde1-4d56-9dbd-9ebafc0f2997"},"vehicle_type_id":"4","last_reported":1745622557,"current_range_meters":18800,"station_id":"ce4bh112rcd13ifvqd90","pricing_plan_id":"cebpf4jnsgd1na2vs0mg"},