{"last_updated":1683932769,"ttl":30,"version":"2.2","data":{"bikes":[{"bike_id":"587d7e94-da37-4de2-80e1-426004de5738","system_id":"levelo_inurba_marseille","lat":43.313391,"lon":5.36706,"is_reserved":false,"is_disabled":false,"rental_uris":{"android":"levelo://app?vid=587d7e94-da37-4de2-80e1-426004de5738","ios":"levelo://app?vid=587d7e94-da37-4de2-80e1-426004de5738"},"vehicle_type_id":"4","last_reported":1683932769,"current_range_meters":9600,"station_id":"ce4bgr92rcd13ifvqc6g","pricing_plan_id":"free"},{"bike_id":"caf62a47-260f-4ea6-957c-2cd2b8faadb8","system_id":"levelo_inurba_marseille","lat":43.312239,"lon":5.368562,"is_reserved":false,"is_disabled":false,"rental_uris":{"android":"levelo://app?vid=caf62a47-260f-4ea6-957c-2cd2b8faadb8","ios":"levelo://app?vid=caf62a47-260f-4ea6-957c-2cd2b8faadb8"},"vehicle_type_id":"4","last_reported":1683932769,"current_range_meters":29200,"station_id":"ce4bgl92rcd13ifvqbq0","pricing_plan_id":"free"},{"bike_id":"6b7c3507-e295-43af-a5ca-a2173ed82b2f","system_id":"levelo_inurba_marseille","lat":43.312239,"lon":5.368562,"is_reserved":false,"is_disabled":false,"rental_uris":{"android":"levelo://app?vid=6b7c3507-e295-43af-a5ca-a2173ed82b2f","ios":"levelo://app?vid=6b7c3507-e295-43af-a5ca-a2173ed82b2f"},"vehicle_type_id":"4","last_reported":1683932769,"current_range_meters":18000,"station_id":"ce4bgl92rcd13ifvqbq0","pricing_plan_id":"free"},{"bike_id":"825c900b-4baf-4f6f-8c78-59312521f166","system_id":"levelo_inurba_marseille","lat":43.312239,"lon":5.368562,"is_reserved":false,"is_disabled":false,"rental_uris":{"android":"levelo://app?vid=825c900b-4baf-4f6f-8c78-59312521f166","ios":"levelo://app?vid=825c900b-4baf-4f6f-8c78-59312521f166"},"vehicle_type_id":"4","last_reported":1683932769,"current_range_meters":20800,"station_id":"ce4bgl92rcd13ifvqbq0","pricing_plan_id":"free"},{"bike_id":"bb32fc1d-f279-4cbc-89e7-1481eca91c2c","system_id":"levelo_inurba_marseille","lat":43.314811,"lon":5.373103,"is_reserved":false,"is_disabled":false,"rental_uris":{"android":"levelo://app?vid=bb32fc1d-f279-4cbc-89e7-1481eca91c2c","ios":"levelo://app?vid=bb32fc1d-f279-4cbc-89e7-1481eca91c2c"},"vehicle_type_id":"4","last_reported":1683932769,"current_range_meters":31200,"station_id":"ce4bgt12rcd13ifvqcd0","pricing_plan_id":"free"},{"bike_id":"23a5928b-efc8-4079-96db-b2cf36516d93","system_id":"levelo_inurba_marseille","lat":43.314811,"lon":5.373103,"is_reserved":false,"is_disabled":false,"rental_uris":{"android":"levelo://app?vid=23a5928b-efc8-4079-96db-b2cf36516d93","ios":"levelo://app?vid=23a5928b-efc8-4079-96db-b2cf36516d93"},"vehicle_type_id":"4","last_reported":1683932769,"current_range_meters":31200,"station_id":"ce4bgt12rcd13ifvqcd0","pricing_plan_id":"free"},{"bike_id":"929b803f-38a0-419f-9928-0a0fa0693522","system_id":"levelo_inurba_marseille","lat":43.314811,"lon":5.373103,"is_reserved":false,"is_disabled":false,"rental_uris":{"android":"levelo://app?vid=929b803f-38a0-419f-9928-0a0fa0693522","ios":"levelo://app?vid=929b803f-38a0-419f-9928-0a0fa0693522"},"vehicle_type_id":"4","last_reported":1683932769,"current_range_meters":31200,"station_id":"ce4bgt12rcd13ifvqcd0","pricing_plan_id":"free"},{"bike_id":"0e40dfe8-08ee-418a-a176-73f31c566c88","system_id":"levelo_inurba_marseille","lat":43.314811,"lon":5.373103,"is_reserved":false,"is_disabled":false,"rental_uris":{"android":"levelo://app?vid=0e40dfe8-08ee-418a-a176-73f31c566c88","ios":"levelo://app?vid=0e40dfe8-08ee-418a-a176-73f31c566c88"},"vehicle_type_id":"4","last_reported":1683932769,"current_range_meters":6000,"station_id":"ce4bgt12rcd13ifvqcd0","pricing_plan_id":"free"},{"bike_id":"151d50bc-3aee-48d5-9527-783274464e00","system_id":"levelo_inurba_marseille","lat":43.3119,"lon":5.37747,"is_reserved":false,"is_disabled":false,"rental_uris":{"android":"levelo://app?vid=151d50bc-3aee-48d5-9527-783274464e00","ios":"levelo://app?vid=151d50bc-3aee-48d5-9527-783274464e00"},"vehicle_type_id":"4","last_reported":1683932769,"current_range_meters":15600,"station_id":"","pricing_plan_id":"free"},{"bike_id":"f8ee7ff3-b0d2-4a78-a900-68376d65fea8","system_id":"levelo_inurba_marseille","lat":43.305989,"lon":5.37225,"is_reserved":false,"is_disabled":false,"rental_uris":{"android":"levelo://app?vid=f8ee7ff3-b0d2-4a78-a900-68376d65fea8","ios":"levelo://app?vid=f8ee7ff3-b0d2-4a78-a900-68376d65fea8"},"vehicle_type_id":"4","last_reported":1683932769,"current_range_meters":2000,"station_id":"ce4bgqh2rcd13ifvqc4g","pricing_plan_id":"free"},{"bike_id":"30751950-d1dd-48b7-a194-28aeee355b9e","system_id":"levelo_inurba_marseille","lat":43.31129,"lon":5.37755,"is_reserved":false,"is_disabled":false,"rental_uris":{"android":"levelo://app?vid=30751950-d1dd-48b7-a194-28aeee355b9e","ios":"levelo://app?vid=30751950-d1dd-48b7-a194-28aeee355b9e"},"vehicle_type_id":"4","last_reported":1683932769,"current_range_meters":31200,"station_id":"ce4bgt92rcd13ifvqcg0","pricing_plan_id":"free"},{"bike_id":"0fa06fb4-05b7-454b-9d90-51ddc4b0e949","system_id":"levelo_inurba_marseille","lat":43.311131,"lon":5.377651,"is_reserved":false,"is_disabled":false,"rental_uris":{"android":"levelo://app?vid=0fa06fb4-05b7-454b-9d90-51ddc4b0e949","ios":"levelo://app?vid=0fa06fb4-05b7-454b-9d90-51ddc4b0e949"},"vehicle_type_id":"4","last_reported":1683932769,"current_range_meters":31200,"station_id":"ce4bgt92rcd13ifvqcg0","pricing_plan_id":"free"},{"bike_id":"f1ebae10-053d-4b1f-9466-86718871b05f","system_id":"levelo_inurba_marseille","lat":43.311131,"lon":5.377651,"is_reserved":false,"is_disabled":false,"rental_uris":{"android":"levelo://app?vid=f1ebae10-053d-4b1f-9466-86718871b05f","ios":"levelo://app?vid=f1ebae10-053d-4b1f-9466-86718871b05f"},"vehicle_type_id":"4","last_reported":1683932769,"current_range_meters":13200,"station_id":"ce4bgt92rcd13ifvqcg0","pricing_plan_id":"free"},{"bike_id":"dcb777f5-c93d-46e6-8967-aef776ce9b3b","system_id":"levelo_inurba_marseille","lat":43.311131,"lon":5.377651,"is_reserved":false,"is_disabled":false,"rental_uris":{"android":"levelo://app?vid=dcb777f5-c93d-46e6-8967-aef776ce9b3b","ios":"levelo://app?vid=dcb777f5-c93d-46e6-8967-aef776ce9b3b"},"vehicle_type_id":"4","last_reported":1683932769,"current_range_meters":8400,"station_id":"ce4bgt92rcd13ifvqcg0","pricing_plan_id":"free"},{"bike_id":"a2c655bc-0c3f-4fd2-b4ca-3ceb11091cce","system_id":"levelo_inurba_marseille","lat":43.315289,"lon":5.380349,"is_reserved":false,"is_disabled":false,"rental_uris":{"android":"levelo://app?vid=a2c655bc-0c3f-4fd2-b4ca-3ceb11091cce","ios":"levelo://app?vid=a2c655bc-0c3f-4fd2-b4ca-3ceb11091cce"},"vehicle_type_id":"4","last_reported":1683932769,"current_range_meters":30400,"station_id":"ce4bhsp2rcd13ifvqi50","pricing_plan_id":"free"},{"bike_id":"b8ad7287-a6c8-45bc-9d89-cd999ab216c8","system_id":"levelo_inurba_marseille","lat":43.308012,"lon":5.381511,"is_reserved":false,"is_disabled":false,"rental_uris":{"android":"levelo://app?vid=b8ad7287-a6c8-45bc-9d89-cd999ab216c8","ios":"levelo://app?vid=b8ad7287-a6c8-45bc-9d89-cd999ab216c8"},"vehicle_type_id":"4","last_reported":1683932769,"current_range_meters":22000,"station_id":"ce4bgt12rcd13ifvqce0","pricing_plan_id":"free"},{"bike_id":"9b4da11d-bb5d-4ccd-b9cd-f8e1bc377bf3","system_id":"levelo_inurba_marseille","lat":43.308012,"lon":5.381511,"is_reserved":false,"is_disabled":false,"rental_uris":{"android":"levelo://app?vid=9b4da11d-bb5d-4ccd-b9cd-f8e1bc377bf3","ios":"levelo://app?vid=9b4da11d-bb5d-4ccd-b9cd-f8e1bc377bf3"},"vehicle_type_id":"4","last_reported":1683932769,"current_range_meters":14000,"station_id":"ce4bgt12rcd13ifvqce0","pricing_plan_id":"free"},{"bike_id":"4d07815b-babd-4a31-840a-7d3d7821ae9a","system_id":"levelo_inurba_marseille","lat":43.308012,"lon":5.381511,"is_reserved":false,"is_disabled":false,"rental_uris":{"android":"levelo://app?vid=4d07815b-babd-4a31-840a-7d3d7821ae9a","ios":"levelo://app?vid=4d07815b-babd-4a31-840a-7d3d7821ae9a"},"vehicle_type_id":"4","last_reported":1683932769,"current_range_meters":31200,"station_id":"ce4bgt12rcd13ifvqce0","pricing_plan_id":"free"},{"bike_id":"a39d6e01-1cd4-4d57-9340-6f158af9c461","system_id":"levelo_inurba_marseille","lat":43.308012,"lon":5.381511,"is_reserved":false,"is_disabled":false,"rental_uris":{"android":"levelo://app?vid=a39d6e01-1cd4-4d57-9340-6f158af9c461","ios":"levelo://app?vid=a39d6e01-1cd4-4d57-9340-6f158af9c461"},"vehicle_type_id":"4","last_reported":1683932769,"current_range_meters":31200,"station_id":"ce4bgt12rcd13ifvqce0","pricing_plan_id":"free"},{"bike_id":"f958d705-b087-4bc9-a875-281f42393f1c","system_id":"levelo_inurba_marseille","lat":43.304606,"lon":5.379026,"is_reserved":false,"is_disabled":false,"rental_uris":{"android":"levelo://app?vid=f958d705-b087-4bc9-a875-281f42393f1c","ios":"levelo://app?vid=f958d705-b087-4bc9-a875-281f42393f1c"},"vehicle_type_id":"4","last_reported":1683932769,"current_range_meters":27600,"station_id":"ce4bgup2rcd13ifvqcn0","pricing_plan_id":"free"},{"bike_id":"003d582e-7e5f-4a87-a622-32e3086b14b0","system_id":"levelo_inurba_marseille","lat":43.304606,"lon":5.379026,"is_reserved":false,"is_disabled":false,"rental_uris":{"android":"levelo://app?vid=003d582e-7e5f-4a87-a622-32e3086b14b0","ios":"levelo://app?vid=003d582e-7e5f-4a87-a622-32e3086b14b0"},"vehicle_type_id":"4","last_reported":1683932769,"current_range_meters":15200,"station_id":"ce4bgup2rcd13ifvqcn0","pricing_plan_id":"free"},{"bike_id":"275d4995-1f48-41db-8f21-352bca8b89e1","system_id":"levelo_inurba_marseille","lat":43.313571,"lon":5.384829,"is_reserved":false,"is_disabled":false,"rental_uris":{"android":"levelo://app?vid=275d4995-1f48-41db-8f21-352bca8b89e1","ios":"levelo://app?vid=275d4995-1f48-41db-8f21-352bca8b89e1"},"vehicle_type_id":"4","last_reported":1683932769,"current_range_meters":18400,"station_id":"ce4bgt92rcd13ifvqcf0","pricing_plan_id":"free"},{"bike_id":"15ca6fce-516f-44fc-bb29-9a733947fdf2","system_id":"levelo_inurba_marseille","lat":43.299222,"lon":5.365554,"is_reserved":false,"is_disabled":false,"rental_uris":{"android":"levelo://app?vid=15ca6fce-516f-44fc-bb29-9a733947fdf2","ios":"levelo://app?vid=15ca6fce-516f-44fc-bb29-9a733947fdf2"},"vehicle_type_id":"4","last_reported":1683932769,"current_range_meters":0,"station_id":"ce4bgm92rcd13ifvqbr0","pricing_plan_id":"free"},{"bike_id":"17470cb6-0b11-428c-a92f-658e2fd0e4d5","system_id":"levelo_inurba_marseille","lat":43.299222,"lon":5.365554,"is_reserved":false,"is_disabled":false,"rental_uris":{"android":"levelo://app?vid=17470cb6-0b11-428c-a92f-658e2fd0e4d5","ios":"levelo://app?vid=17470cb6-0b11-428c-a92f-658e2fd0e4d5"},"vehicle_type_id":"4","last_reported":1683932769,"current_range_meters":23200,"station_id":"ce4bgm92rcd13ifvqbr0","pricing_plan_id":"free"},{"bike_id":"fa2890e4-c733-48c0-adfb-10695cbca068","system_id":"levelo_inurba_marseille","lat":43.299222,"lon":5.365554,"is_reserved":false,"is_disabled":false,"rental_uris":{"android":"levelo://app?vid=fa2890e4-c733-48c0-adfb-10695cbca068","ios":"levelo://app?vid=fa2890e4-c733-48c0-adfb-10695cbca068"},"vehicle_type_id":"4","last_reported":1683932769,"current_range_meters":5600,"station_id":"ce4bgm92rcd13ifvqbr0","pricing_plan_id":"free"},{"bike_id":"7c4c197e-75fa-43f5-9aed-26c078ca667b","system_id":"levelo_inurba_marseille","lat":43.299222,"lon":5.365554,"is_reserved":false,"is_disabled":false,"rental_uris":{"android":"levelo://app?vid=7c4c197e-75fa-43f5-9aed-26c078ca667b","ios":"levelo://app?vid=7c4c197e-75fa-43f5-9aed-26c078ca667b"},"vehicle_type_id":"4","last_reported":1683932769,"current_range_meters":30400,"station_id":"ce4bgm92rcd13ifvqbr0","pricing_plan_id":"free"},{"bike_id":"02f53e3d-6eae-4d26-873d-ed902c566d70","system_id":"levelo_inurba_marseille","lat":43.299222,"lon":5.365554,"is_reserved":false,"is_disabled":false,"rental_uris":{"android":"levelo://app?vid=02f53e3d-6eae-4d26-873d-ed902c566d70","ios":"levelo://app?vid=02f53e3d-6eae-4d26-873d-ed902c566d70"},"vehicle_type_id":"4","last_reported":1683932769,"current_range_meters":29200,"station_id":"ce4bgm92rcd13ifvqbr0","pricing_plan_id":"free"},{"bike_id":"401cea05-e15d-4a97-81c8-ee7d2a1f7f1a","system_id":"levelo_inurba_marseille","lat":43.29849,"lon":5.36283,"is_reserved":false,"is_disabled":false,"rental_uris":{"android":"levelo://app?vid=401cea05-e15d-4a97-81c8-ee7d2a1f7f1a","ios":"levelo://app?vid=401cea05-e15d-4a97-81c8-ee7d2a1f7f1a"},"vehicle_type_id":"4","last_reported":1683932769,"current_range_meters":16400,"station_id":"ce4bgpp2rcd13ifvqc3g","pricing_plan_id":"free"},{"bike_id":"9e8dfbf6-a970-4b14-b25c-e5ed2c580c12","system_id":"levelo_inurba_marseille","lat":43.311722,"lon":5.387247,"is_reserved":false,"is_disabled":false,"rental_uris":{"android":"levelo://app?vid=9e8dfbf6-a970-4b14-b25c-e5ed2c580c12","ios":"levelo://app?vid=9e8dfbf6-a970-4b14-b25c-e5ed2c580c12"},"vehicle_type_id":"4","last_reported":1683932769,"current_range_meters":12800,"station_id":"ce4bgv12rcd13ifvqcp0","pricing_plan_id":"free"},{"bike_id":"d50cb2aa-615b-465d-9c24-f89ac67d7967","system_id":"levelo_inurba_marseille","lat":43.31166,"lon":5.38726,"is_reserved":false,"is_disabled":false,"rental_uris":{"android":"levelo://app?vid=d50cb2aa-615b-465d-9c24-f89ac67d7967","ios":"levelo://app?vid=d50cb2aa-615b-465d-9c24-f89ac67d7967"},"vehicle_type_id":"4","last_reported":1683932769,"current_range_meters":4400,"station_id":"ce4bgv12rcd13ifvqcp0","pricing_plan_id":"free"},{"bike_id":"b408e277-e617-4850-9ca1-96f05245dae6","system_id":"levelo_inurba_marseille","lat":43.299243,"lon":5.37481,"is_reserved":false,"is_disabled":false,"rental_uris":{"android":"levelo://app?vid=b408e277-e617-4850-9ca1-96f05245dae6","ios":"levelo://app?vid=b408e277-e617-4850-9ca1-96f05245dae6"},"vehicle_type_id":"4","last_reported":1683932769,"current_range_meters":800,"station_id":"ce4bgjh2rcd13ifvqbg0","pricing_plan_id":"free"},{"bike_id":"fe6d61f7-88a7-40d4-9956-24a9e83a8f05","system_id":"levelo_inurba_marseille","lat":43.311722,"lon":5.387247,"is_reserved":false,"is_disabled":false,"rental_uris":{"android":"levelo://app?vid=fe6d61f7-88a7-40d4-9956-24a9e83a8f05","ios":"levelo://app?vid=fe6d61f7-88a7-40d4-9956-24a9e83a8f05"},"vehicle_type_id":"4","last_reported":1683932769,"current_range_meters":22000,"station_id":"ce4bgv12rcd13ifvqcp0","pricing_plan_id":"free"},{"bike_id":"2f96f4b7-d3f1-4b87-b98f-caf50ba6d13d","system_id":"levelo_inurba_marseille","lat":43.32769,"lon":5.36696,"is_reserved":false,"is_disabled":false,"rental_uris":{"android":"levelo://app?vid=2f96f4b7-d3f1-4b87-b98f-caf50ba6d13d","ios":"levelo://app?vid=2f96f4b7-d3f1-4b87-b98f-caf50ba6d13d"},"vehicle_type_id":"4","last_reported":1683932769,"current_range_meters":14400,"station_id":"","pricing_plan_id":"free"},{"bike_id":"039f1865-d48c-4b13-ae90-47c343bb104d","system_id":"levelo_inurba_marseille","lat":43.297794,"lon":5.370888,"is_reserved":false,"is_disabled":false,"rental_uris":{"android":"levelo://app?vid=039f1865-d48c-4b13-ae90-47c343bb104d","ios":"levelo://app?vid=039f1865-d48c-4b13-ae90-47c343bb104d"},"vehicle_type_id":"4","last_reported":1683932769,"current_range_meters":31600,"station_id":"ce4bgop2rcd13ifvqc1g","pricing_plan_id":"free"},{"bike_id":"ee87317c-4163-4845-b4a7-0f1fa6952400","system_id":"levelo_inurba_marseille","lat":43.297794,"lon":5.370888,"is_reserved":false,"is_disabled":false,"rental_uris":{"android":"levelo://app?vid=ee87317c-4163-4845-b4a7-0f1fa6952400","ios":"levelo://app?vid=ee87317c-4163-4845-b4a7-0f1fa6952400"},"vehicle_type_id":"4","last_reported":1683932769,"current_range_meters":22400,"station_id":"ce4bgop2rcd13ifvqc1g","pricing_plan_id":"free"},{"bike_id":"c7034e41-23d5-4534-bc14-c716046c6963","system_id":"levelo_inurba_marseille","lat":43.297774,"lon":5.370875,"is_reserved":false,"is_disabled":false,"rental_uris":{"android":"levelo://app?vid=c7034e41-23d5-4534-bc14-c716046c6963","ios":"levelo://app?vid=c7034e41-23d5-4534-bc14-c716046c6963"},"vehicle_type_id":"4","last_reported":1683932769,"current_range_meters":25600,"station_id":"ce4bgop2rcd13ifvqc1g","pricing_plan_id":"free"},{"bike_id":"4e4139cf-a725-4d64-b904-d51abce9a877","system_id":"levelo_inurba_marseille","lat":43.297794,"lon":5.370888,"is_reserved":false,"is_disabled":false,"rental_uris":{"android":"levelo://app?vid=4e4139cf-a725-4d64-b904-d51abce9a877","ios":"levelo://app?vid=4e4139cf-a725-4d64-b904-d51abce9a877"},"vehicle_type_id":"4","last_reported":1683932769,"current_range_meters":11200,"station_id":"ce4bgop2rcd13ifvqc1g","pricing_plan_id":"free"},{"bike_id":"965fe386-f95d-4ad9-a45d-d43204ed3e6a","system_id":"levelo_inurba_marseille","lat":43.297794,"lon":5.370888,"is_reserved":false,"is_disabled":false,"rental_uris":{"android":"levelo://app?vid=965fe386-f95d-4ad9-a45d-d43204ed3e6a","ios":"levelo://app?vid=965fe386-f95d-4ad9-a45d-d43204ed3e6a"},"vehicle_type_id":"4","last_reported":1683932769,"current_range_meters":9600,"station_id":"ce4bgop2rcd13ifvqc1g","pricing_plan_id":"free"},{"bike_id":"0ac450e0-cf62-4e8d-85d5-744a554be123","system_id":"levelo_inurba_marseille","lat":43.297794,"lon":5.370888,"is_reserved":false,"is_disabled":false,"rental_uris":{"android":"levelo://app?vid=0ac450e0-cf62-4e8d-85d5-744a554be123","ios":"levelo://app?vid=0ac450e0-cf62-4e8d-85d5-744a554be123"},"vehicle_type_id":"4","last_reported":1683932769,"current_range_meters":31200,"station_id":"ce4bgop2rcd13ifvqc1g","pricing_plan_id":"free"},{"bike_id":"3124275c-f383-4b76-ad05-39c8ea84d4a1","system_id":"levelo_inurba_marseille","lat":43.297794,"lon":5.370888,"is_reserved":false,"is_disabled":false,"rental_uris":{"android":"levelo://app?vid=3124275c-f383-4b76-ad05-39c8ea84d4a1","ios":"levelo://app?vid=3124275c-f383-4b76-ad05-39c8ea84d4a1"},"vehicle_type_id":"4","last_reported":1683932769,"current_range_meters":18400,"station_id":"ce4bgop2rcd13ifvqc1g","pricing_plan_id":"free"},{"bike_id":"913431a8-e34c-4ef3-9af0-c079a3c577f7","system_id":"levelo_inurba_marseille","lat":43.2972,"lon":5.36611,"is_reserved":false,"is_disabled":false,"rental_uris":{"android":"levelo://app?vid=913431a8-e34c-4ef3-9af0-c079a3c577f7","ios":"levelo://app?vid=913431a8-e34c-4ef3-9af0-c079a3c577f7"},"vehicle_type_id":"4","last_reported":1683932769,"current_range_meters":16800,"station_id":"","pricing_plan_id":"free"},{"bike_id":"86719306-0ddc-4576-a656-570a4d550f46","system_id":"levelo_inurba_marseille","lat":43.328371,"lon":5.366912,"is_reserved":false,"is_disabled":false,"rental_uris":{"android":"levelo://app?vid=86719306-0ddc-4576-a656-570a4d550f46","ios":"levelo://app?vid=86719306-0ddc-4576-a656-570a4d550f46"},"vehicle_type_id":"4","last_reported":1683932769,"current_range_meters":31200,"station_id":"ce4bhs92rcd13ifvqi0g","pricing_plan_id":"free"},{"bike_id":"35c64b45-67cb-4db8-8dde-84eb3cae14a9","system_id":"levelo_inurba_marseille","lat":43.328371,"lon":5.366912,"is_reserved":false,"is_disabled":false,"rental_uris":{"android":"levelo://app?vid=35c64b45-67cb-4db8-8dde-84eb3cae14a9","ios":"levelo://app?vid=35c64b45-67cb-4db8-8dde-84eb3cae14a9"},"vehicle_type_id":"4","last_reported":1683932769,"current_range_meters":31200,"station_id":"ce4bhs92rcd13ifvqi0g","pricing_plan_id":"free"},{"bike_id":"05dd3660-fb8d-4649-b95f-77a48f876534","system_id":"levelo_inurba_marseille","lat":43.32831,"lon":5.36677,"is_reserved":false,"is_disabled":false,"rental_uris":{"android":"levelo://app?vid=05dd3660-fb8d-4649-b95f-77a48f876534","ios":"levelo://app?vid=05dd3660-fb8d-4649-b95f-77a48f876534"},"vehicle_type_id":"4","last_reported":1683932769,"current_range_meters":5200,"station_id":"ce4bhs92rcd13ifvqi0g","pricing_plan_id":"free"},{"bike_id":"333ef2f4-70f8-4d81-b7a6-da9ccf4351e0","system_id":"levelo_inurba_marseille","lat":43.29718,"lon":5.3661,"is_reserved":false,"is_disabled":false,"rental_uris":{"android":"levelo://app?vid=333ef2f4-70f8-4d81-b7a6-da9ccf4351e0","ios":"levelo://app?vid=333ef2f4-70f8-4d81-b7a6-da9ccf4351e0"},"vehicle_type_id":"4","last_reported":1683932769,"current_range_meters":6800,"station_id":"","pricing_plan_id":"free"},{"bike_id":"2ede4aa6-cb68-4708-8adb-810b72dccf8e","system_id":"levelo_inurba_marseille","lat":43.328371,"lon":5.366912,"is_reserved":false,"is_disabled":false,"rental_uris":{"android":"levelo://app?vid=2ede4aa6-cb68-4708-8adb-810b72dccf8e","ios":"levelo://app?vid=2ede4aa6-cb68-4708-8adb-810b72dccf8e"},"vehicle_type_id":"4","last_reported":1683932769,"current_range_meters":8000,"station_id":"ce4bhs92rcd13ifvqi0g","pricing_plan_id":"free"},{"bike_id":"053fa0fe-d0b8-4b77-9e9a-95a5b916daf2","system_id":"levelo_inurba_marseille","lat":43.328371,"lon":5.366912,"is_reserved":false,"is_disabled":false,"rental_uris":{"android":"levelo://app?vid=053fa0fe-d0b8-4b77-9e9a-95a5b916daf2","ios":"levelo://app?vid=053fa0fe-d0b8-4b77-9e9a-95a5b916daf2"},"vehicle_type_id":"4","last_reported":1683932769,"current_range_meters":2800,"station_id":"ce4bhs92rcd13ifvqi0g","pricing_plan_id":"free"},{"bike_id":"8ea15e6b-0302-4f6b-a369-2130aebae5f9","system_id":"levelo_inurba_marseille","lat":43.328371,"lon":5.366912,"is_reserved":false,"is_disabled":false,"rental_uris":{"android":"levelo://app?vid=8ea15e6b-0302-4f6b-a369-2130aebae5f9","ios":"levelo://app?vid=8ea15e6b-0302-4f6b-a369-2130aebae5f9"},"vehicle_type_id":"4","last_reported":1683932769,"current_range_meters":15200,"station_id":"ce4bhs92rcd13ifvqi0g","pricing_plan_id":"free"},{"bike_id":"2f534b25-3d76-4ad4-bcb9-91101064834c","system_id":"levelo_inurba_marseille","lat":43.328371,"lon":5.366912,"is_reserved":false,"is_disabled":false,"rental_uris":{"android":"levelo://app?vid=2f534b25-3d76-4ad4-bcb9-91101064834c","ios":"levelo://app?vid=2f534b25-3d76-4ad4-bcb9-91101064834c"},"vehicle_type_id":"4","last_reported":1683932769,"current_range_meters":20400,"station_id":"ce4bhs92rcd13ifvqi0g","pricing_plan_id":"free"},{"bike_id":"0a5c6e50-cd6f-4800-a0e5-993347926bc8","system_id":"levelo_inurba_marseille","lat":43.328371,"lon":5.366912,"is_reserved":false,"is_disabled":false,"rental_uris":{"android":"levelo://app?vid=0a5c6e50-cd6f-4800-a0e5-993347926bc8","ios":"levelo://app?vid=0a5c6e50-cd6f-4800-a0e5-993347926bc8"},"vehicle_type_id":"4","last_reported":1683932769,"current_range_meters":14400,"station_id":"ce4bhs92rcd13ifvqi0g","pricing_plan_id":"free"},{"bike_id":"173c35b5-642e-4cd5-9a42-cf3fc117f00c","system_id":"levelo_inurba_marseille","lat":43.328371,"lon":5.366912,"is_reserved":false,"is_disabled":false,"rental_uris":{"android":"levelo://app?vid=173c35b5-642e-4cd5-9a42-cf3fc117f00c","ios":"levelo://app?vid=173c35b5-642e-4cd5-9a42-cf3fc117f00c"},"vehicle_type_id":"4","last_reported":1683932769,"current_range_meters":20400,"station_id":"ce4bhs92rcd13ifvqi0g","pricing_plan_id":"free"},{"bike_id":"d2fd4a69-1781-4d10-b230-5796d7806c38","system_id":"levelo_inurba_marseille","lat":43.328371,"lon":5.366912,"is_reserved":false,"is_disabled":false,"rental_uris":{"android":"levelo://app?vid=d2fd4a69-1781-4d10-b230-5796d7806c38","ios":"levelo://app?vid=d2fd4a69-1781-4d10-b230-5796d7806c38"},"vehicle_type_id":"4","last_reported":1683932769,"current_range_meters":4400,"station_id":"ce4bhs92rcd13ifvqi0g","pricing_plan_id":"free"},{"bike_id":"6448c133-4cd4-412c-ab72-14f60d954e8f","system_id":"levelo_inurba_marseille","lat":43.31528,"lon":5.38922,"is_reserved":false,"is_disabled":false,"rental_uris":{"android":"levelo://app?vid=6448c133-4cd4-412c-ab72-14f60d954e8f","ios":"levelo://app?vid=6448c133-4cd4-412c-ab72-14f60d954e8f"},"vehicle_type_id":"4","last_reported":1683932769,"current_range_meters":28800,"station_id":"","pricing_plan_id":"free"},{"bike_id":"0d79023e-5738-45c4-9647-572d1289400c","system_id":"levelo_inurba_marseille","lat":43.2968,"lon":5.37291,"is_reserved":false,"is_disabled":false,"rental_uris":{"android":"levelo://app?vid=0d79023e-5738-45c4-9647-572d1289400c","ios":"levelo://app?vid=0d79023e-5738-45c4-9647-572d1289400c"},"vehicle_type_id":"4","last_reported":1683932769,"current_range_meters":29600,"station_id":"ce4bgk12rcd13ifvqbj0","pricing_plan_id":"free"},{"bike_id":"69943245-a356-4d5c-b0a9-cd3bd6aa4169","system_id":"levelo_inurba_marseille","lat":43.296129,"lon":5.370777,"is_reserved":false,"is_disabled":false,"rental_uris":{"android":"levelo://app?vid=69943245-a356-4d5c-b0a9-cd3bd6aa4169","ios":"levelo://app?vid=69943245-a356-4d5c-b0a9-cd3bd6aa4169"},"vehicle_type_id":"4","last_reported":1683932769,"current_range_meters":18400,"station_id":"ce4bgnh2rcd13ifvqc0g","pricing_plan_id":"free"},{"bike_id":"a3418a48-4d13-4b44-8204-3484d556c2f6","system_id":"levelo_inurba_marseille","lat":43.309589,"lon":5.390258,"is_reserved":false,"is_disabled":false,"rental_uris":{"android":"levelo://app?vid=a3418a48-4d13-4b44-8204-3484d556c2f6","ios":"levelo://app?vid=a3418a48-4d13-4b44-8204-3484d556c2f6"},"vehicle_type_id":"4","last_reported":1683932769,"current_range_meters":10800,"station_id":"ce4bgup2rcd13ifvqco0","pricing_plan_id":"free"},{"bike_id":"e62a4019-15e5-4aa8-ac87-39c5d1aaa8ba","system_id":"levelo_inurba_marseille","lat":43.30006,"lon":5.38275,"is_reserved":false,"is_disabled":false,"rental_uris":{"android":"levelo://app?vid=e62a4019-15e5-4aa8-ac87-39c5d1aaa8ba","ios":"levelo://app?vid=e62a4019-15e5-4aa8-ac87-39c5d1aaa8ba"},"vehicle_type_id":"4","last_reported":1683932769,"current_range_meters":2400,"station_id":"","pricing_plan_id":"free"},{"bike_id":"14190492-4add-4bfc-b540-17aac017755e","system_id":"levelo_inurba_marseille","lat":43.296921,"lon":5.376579,"is_reserved":false,"is_disabled":false,"rental_uris":{"android":"levelo://app?vid=14190492-4add-4bfc-b540-17aac017755e","ios":"levelo://app?vid=14190492-4add-4bfc-b540-17aac017755e"},"vehicle_type_id":"4","last_reported":1683932769,"current_range_meters":31200,"station_id":"ce4bgkh2rcd13ifvqbl0","pricing_plan_id":"free"},{"bike_id":"3a399f77-90ff-4b54-b98b-cbd77ff67fd2","system_id":"levelo_inurba_marseille","lat":43.296935,"lon":5.376544,"is_reserved":false,"is_disabled":false,"rental_uris":{"android":"levelo://app?vid=3a399f77-90ff-4b54-b98b-cbd77ff67fd2","ios":"levelo://app?vid=3a399f77-90ff-4b54-b98b-cbd77ff67fd2"},"vehicle_type_id":"4","last_reported":1683932769,"current_range_meters":800,"station_id":"ce4bgkh2rcd13ifvqbl0","pricing_plan_id":"free"},{"bike_id":"4575b7ac-e9a8-4cc0-a77a-7d893f503fcb","system_id":"levelo_inurba_marseille","lat":43.29699,"lon":5.37692,"is_reserved":false,"is_disabled":false,"rental_uris":{"android":"levelo://app?vid=4575b7ac-e9a8-4cc0-a77a-7d893f503fcb","ios":"levelo://app?vid=4575b7ac-e9a8-4cc0-a77a-7d893f503fcb"},"vehicle_type_id":"4","last_reported":1683932769,"current_range_meters":30800,"station_id":"","pricing_plan_id":"free"},{"bike_id":"cdbd75e6-a30a-467e-9721-836a77f03d53","system_id":"levelo_inurba_marseille","lat":43.309589,"lon":5.390258,"is_reserved":false,"is_disabled":false,"rental_uris":{"android":"levelo://app?vid=cdbd75e6-a30a-467e-9721-836a77f03d53","ios":"levelo://app?vid=cdbd75e6-a30a-467e-9721-836a77f03d53"},"vehicle_type_id":"4","last_reported":1683932769,"current_range_meters":11600,"station_id":"ce4bgup2rcd13ifvqco0","pricing_plan_id":"free"},{"bike_id":"77afa20b-0fb6-4832-b3fe-2d7e2440dc9f","system_id":"levelo_inurba_marseille","lat":43.309589,"lon":5.390258,"is_reserved":false,"is_disabled":false,"rental_uris":{"android":"levelo://app?vid=77afa20b-0fb6-4832-b3fe-2d7e2440dc9f","ios":"levelo://app?vid=77afa20b-0fb6-4832-b3fe-2d7e2440dc9f"},"vehicle_type_id":"4","last_reported":1683932769,"current_range_meters":8800,"station_id":"ce4bgup2rcd13ifvqco0","pricing_plan_id":"free"},{"bike_id":"ebb64d41-4b06-49bb-a55c-b83574a6111f","system_id":"levelo_inurba_marseille","lat":43.317557,"lon":5.390173,"is_reserved":false,"is_disabled":false,"rental_uris":{"android":"levelo://app?vid=ebb64d41-4b06-49bb-a55c-b83574a6111f","ios":"levelo://app?vid=ebb64d41-4b06-49bb-a55c-b83574a6111f"},"vehicle_type_id":"4","last_reported":1683932769,"current_range_meters":4800,"station_id":"ce4bhqp2rcd13ifvqhng","pricing_plan_id":"free"},{"bike_id":"1b8e8455-d974-44bb-9a4e-7e7867c76231","system_id":"levelo_inurba_marseille","lat":43.317587,"lon":5.390135,"is_reserved":false,"is_disabled":false,"rental_uris":{"android":"levelo://app?vid=1b8e8455-d974-44bb-9a4e-7e7867c76231","ios":"levelo://app?vid=1b8e8455-d974-44bb-9a4e-7e7867c76231"},"vehicle_type_id":"4","last_reported":1683932769,"current_range_meters":19600,"station_id":"ce4bhqp2rcd13ifvqhng","pricing_plan_id":"free"},{"bike_id":"0650e49a-015b-44f1-924c-a1a866ca9995","system_id":"levelo_inurba_marseille","lat":43.317587,"lon":5.390135,"is_reserved":false,"is_disabled":false,"rental_uris":{"android":"levelo://app?vid=0650e49a-015b-44f1-924c-a1a866ca9995","ios":"levelo://app?vid=0650e49a-015b-44f1-924c-a1a866ca9995"},"vehicle_type_id":"4","last_reported":1683932769,"current_range_meters":31200,"station_id":"ce4bhqp2rcd13ifvqhng","pricing_plan_id":"free"},{"bike_id":"536c91de-508f-41d3-bf9e-c825307fadf9","system_id":"levelo_inurba_marseille","lat":43.317601,"lon":5.390135,"is_reserved":false,"is_disabled":false,"rental_uris":{"android":"levelo://app?vid=536c91de-508f-41d3-bf9e-c825307fadf9","ios":"levelo://app?vid=536c91de-508f-41d3-bf9e-c825307fadf9"},"vehicle_type_id":"4","last_reported":1683932769,"current_range_meters":31200,"station_id":"ce4bhqp2rcd13ifvqhng","pricing_plan_id":"free"},{"bike_id":"dd1c1a76-3fb2-4e01-9b5d-f3e6dd4c9e52","system_id":"levelo_inurba_marseille","lat":43.317604,"lon":5.390141,"is_reserved":false,"is_disabled":false,"rental_uris":{"android":"levelo://app?vid=dd1c1a76-3fb2-4e01-9b5d-f3e6dd4c9e52","ios":"levelo://app?vid=dd1c1a76-3fb2-4e01-9b5d-f3e6dd4c9e52"},"vehicle_type_id":"4","last_reported":1683932769,"current_range_meters":19600,"station_id":"ce4bhqp2rcd13ifvqhng","pricing_plan_id":"free"},{"bike_id":"7e101d88-7926-4513-a08a-b2a6fdb92c65","system_id":"levelo_inurba_marseille","lat":43.31761,"lon":5.39017,"is_reserved":false,"is_disabled":false,"rental_uris":{"android":"levelo://app?vid=7e101d88-7926-4513-a08a-b2a6fdb92c65","ios":"levelo://app?vid=7e101d88-7926-4513-a08a-b2a6fdb92c65"},"vehicle_type_id":"4","last_reported":1683932769,"current_range_meters":31200,"station_id":"ce4bhqp2rcd13ifvqhng","pricing_plan_id":"free"},{"bike_id":"8d249c4e-5841-43df-a8c1-1ee71a14ff90","system_id":"levelo_inurba_marseille","lat":43.31761,"lon":5.39017,"is_reserved":false,"is_disabled":false,"rental_uris":{"android":"levelo://app?vid=8d249c4e-5841-43df-a8c1-1ee71a14ff90","ios":"levelo://app?vid=8d249c4e-5841-43df-a8c1-1ee71a14ff90"},"vehicle_type_id":"4","last_reported":1683932769,"current_range_meters":31200,"station_id":"ce4bhqp2rcd13ifvqhng","pricing_plan_id":"free"},{"bike_id":"eb214527-8203-4410-a520-f2f2d1c67bb7","system_id":"levelo_inurba_marseille","lat":43.317557,"lon":5.390173,"is_reserved":false,"is_disabled":false,"rental_uris":{"android":"levelo://app?vid=eb214527-8203-4410-a520-f2f2d1c67bb7","ios":"levelo://app?vid=eb214527-8203-4410-a520-f2f2d1c67bb7"},"vehicle_type_id":"4","last_reported":1683932769,"current_range_meters":14400,"station_id":"ce4bhqp2rcd13ifvqhng","pricing_plan_id":"free"},{"bike_id":"80b60f6f-28ee-4635-a30c-377c46bb9c86","system_id":"levelo_inurba_marseille","lat":43.317557,"lon":5.390173,"is_reserved":false,"is_disabled":false,"rental_uris":{"android":"levelo://app?vid=80b60f6f-28ee-4635-a30c-377c46bb9c86","ios":"levelo://app?vid=80b60f6f-28ee-4635-a30c-377c46bb9c86"},"vehicle_type_id":"4","last_reported":1683932769,"current_range_meters":19200,"station_id":"ce4bhqp2rcd13ifvqhng","pricing_plan_id":"free"},{"bike_id":"01208a13-824a-4a94-be8d-2a48a5b6b683","system_id":"levelo_inurba_marseille","lat":43.3176,"lon":5.39026,"is_reserved":false,"is_disabled":false,"rental_uris":{"android":"levelo://app?vid=01208a13-824a-4a94-be8d-2a48a5b6b683","ios":"levelo://app?vid=01208a13-824a-4a94-be8d-2a48a5b6b683"},"vehicle_type_id":"4","last_reported":1683932769,"current_range_meters":11600,"station_id":"ce4bhqp2rcd13ifvqhng","pricing_plan_id":"free"},{"bike_id":"618dd3de-c70d-482e-bf37-3cee9d345046","system_id":"levelo_inurba_marseille","lat":43.304278,"lon":5.388868,"is_reserved":false,"is_disabled":false,"rental_uris":{"android":"levelo://app?vid=618dd3de-c70d-482e-bf37-3cee9d345046","ios":"levelo://app?vid=618dd3de-c70d-482e-bf37-3cee9d345046"},"vehicle_type_id":"4","last_reported":1683932769,"current_range_meters":11600,"station_id":"ce4bgk12rcd13ifvqbi0","pricing_plan_id":"free"},{"bike_id":"2c5e8867-8461-4b1e-8b3f-2933818fdaba","system_id":"levelo_inurba_marseille","lat":43.295748,"lon":5.37522,"is_reserved":false,"is_disabled":false,"rental_uris":{"android":"levelo://app?vid=2c5e8867-8461-4b1e-8b3f-2933818fdaba","ios":"levelo://app?vid=2c5e8867-8461-4b1e-8b3f-2933818fdaba"},"vehicle_type_id":"4","last_reported":1683932769,"current_range_meters":2400,"station_id":"ce4bgh92rcd13ifvqb50","pricing_plan_id":"free"},{"bike_id":"7ac9fe96-5fdf-44a5-bae3-0fa5f5331420","system_id":"levelo_inurba_marseille","lat":43.304278,"lon":5.388868,"is_reserved":false,"is_disabled":false,"rental_uris":{"android":"levelo://app?vid=7ac9fe96-5fdf-44a5-bae3-0fa5f5331420","ios":"levelo://app?vid=7ac9fe96-5fdf-44a5-bae3-0fa5f5331420"},"vehicle_type_id":"4","last_reported":1683932769,"current_range_meters":26000,"station_id":"ce4bgk12rcd13ifvqbi0","pricing_plan_id":"free"},{"bike_id":"8e1cf8f5-60ba-4f18-8ea4-f0de5d888d91","system_id":"levelo_inurba_marseille","lat":43.304278,"lon":5.388868,"is_reserved":false,"is_disabled":false,"rental_uris":{"android":"levelo://app?vid=8e1cf8f5-60ba-4f18-8ea4-f0de5d888d91","ios":"levelo://app?vid=8e1cf8f5-60ba-4f18-8ea4-f0de5d888d91"},"vehicle_type_id":"4","last_reported":1683932769,"current_range_meters":2000,"station_id":"ce4bgk12rcd13ifvqbi0","pricing_plan_id":"free"},{"bike_id":"ccb621b6-bc1a-40a0-86d0-b7719e9c6ca7","system_id":"levelo_inurba_marseille","lat":43.304278,"lon":5.388868,"is_reserved":false,"is_disabled":false,"rental_uris":{"android":"levelo://app?vid=ccb621b6-bc1a-40a0-86d0-b7719e9c6ca7","ios":"levelo://app?vid=ccb621b6-bc1a-40a0-86d0-b7719e9c6ca7"},"vehicle_type_id":"4","last_reported":1683932769,"current_range_meters":22800,"station_id":"ce4bgk12rcd13ifvqbi0","pricing_plan_id":"free"},{"bike_id":"98d43089-ff1e-40ee-a123-f18e174ce1c4","system_id":"levelo_inurba_marseille","lat":43.31447,"lon":5.39271,"is_reserved":false,"is_disabled":false,"rental_uris":{"android":"levelo://app?vid=98d43089-ff1e-40ee-a123-f18e174ce1c4","ios":"levelo://app?vid=98d43089-ff1e-40ee-a123-f18e174ce1c4"},"vehicle_type_id":"4","last_reported":1683932769,"current_range_meters":6400,"station_id":"","pricing_plan_id":"free"},{"bike_id":"6f6b02ce-a50b-443a-a31d-aed834771e7b","system_id":"levelo_inurba_marseille","lat":43.31434,"lon":5.3928,"is_reserved":false,"is_disabled":false,"rental_uris":{"android":"levelo://app?vid=6f6b02ce-a50b-443a-a31d-aed834771e7b","ios":"levelo://app?vid=6f6b02ce-a50b-443a-a31d-aed834771e7b"},"vehicle_type_id":"4","last_reported":1683932769,"current_range_meters":8400,"station_id":"","pricing_plan_id":"free"},{"bike_id":"0e67cf32-01c5-49a7-8bf6-39b795405371","system_id":"levelo_inurba_marseille","lat":43.29602,"lon":5.381084,"is_reserved":false,"is_disabled":false,"rental_uris":{"android":"levelo://app?vid=0e67cf32-01c5-49a7-8bf6-39b795405371","ios":"levelo://app?vid=0e67cf32-01c5-49a7-8bf6-39b795405371"},"vehicle_type_id":"4","last_reported":1683932769,"current_range_meters":20000,"station_id":"ce4bgl12rcd13ifvqbo0","pricing_plan_id":"free"},{"bike_id":"df7647b1-99a9-4742-b9f2-9d2bc408c020","system_id":"levelo_inurba_marseille","lat":43.29479,"lon":5.37865,"is_reserved":false,"is_disabled":false,"rental_uris":{"android":"levelo://app?vid=df7647b1-99a9-4742-b9f2-9d2bc408c020","ios":"levelo://app?vid=df7647b1-99a9-4742-b9f2-9d2bc408c020"},"vehicle_type_id":"4","last_reported":1683932769,"current_range_meters":27600,"station_id":"","pricing_plan_id":"free"},{"bike_id":"ee8ceaa9-2a9f-4e2c-97f3-8293a65b61a5","system_id":"levelo_inurba_marseille","lat":43.29311,"lon":5.37176,"is_reserved":false,"is_disabled":false,"rental_uris":{"android":"levelo://app?vid=ee8ceaa9-2a9f-4e2c-97f3-8293a65b61a5","ios":"levelo://app?vid=ee8ceaa9-2a9f-4e2c-97f3-8293a65b61a5"},"vehicle_type_id":"4","last_reported":1683932769,"current_range_meters":23200,"station_id":"ce4bgh92rcd13ifvqb40","pricing_plan_id":"free"},{"bike_id":"0ea2a9f6-154a-47eb-9b52-796103d35ad2","system_id":"levelo_inurba_marseille","lat":43.29274,"lon":5.36842,"is_reserved":false,"is_disabled":false,"rental_uris":{"android":"levelo://app?vid=0ea2a9f6-154a-47eb-9b52-796103d35ad2","ios":"levelo://app?vid=0ea2a9f6-154a-47eb-9b52-796103d35ad2"},"vehicle_type_id":"4","last_reported":1683932769,"current_range_meters":30400,"station_id":"ce4bhbp2rcd13ifvqesg","pricing_plan_id":"free"},{"bike_id":"31cae021-eff2-40e4-b2d4-2501ea923a3a","system_id":"levelo_inurba_marseille","lat":43.292749,"lon":5.368402,"is_reserved":false,"is_disabled":false,"rental_uris":{"android":"levelo://app?vid=31cae021-eff2-40e4-b2d4-2501ea923a3a","ios":"levelo://app?vid=31cae021-eff2-40e4-b2d4-2501ea923a3a"},"vehicle_type_id":"4","last_reported":1683932769,"current_range_meters":31200,"station_id":"ce4bhbp2rcd13ifvqesg","pricing_plan_id":"free"},{"bike_id":"eb449bf7-8038-44bd-84e1-c2f83bd59bea","system_id":"levelo_inurba_marseille","lat":43.292749,"lon":5.368402,"is_reserved":false,"is_disabled":false,"rental_uris":{"android":"levelo://app?vid=eb449bf7-8038-44bd-84e1-c2f83bd59bea","ios":"levelo://app?vid=eb449bf7-8038-44bd-84e1-c2f83bd59bea"},"vehicle_type_id":"4","last_reported":1683932769,"current_range_meters":30800,"station_id":"ce4bhbp2rcd13ifvqesg","pricing_plan_id":"free"},{"bike_id":"526b81bc-ab60-405f-b083-07813e06f4cc","system_id":"levelo_inurba_marseille","lat":43.293009,"lon":5.374584,"is_reserved":false,"is_disabled":false,"rental_uris":{"android":"levelo://app?vid=526b81bc-ab60-405f-b083-07813e06f4cc","ios":"levelo://app?vid=526b81bc-ab60-405f-b083-07813e06f4cc"},"vehicle_type_id":"4","last_reported":1683932769,"current_range_meters":27200,"station_id":"ce4bgi12rcd13ifvqb70","pricing_plan_id":"free"},{"bike_id":"aaac4dd8-6695-4a50-9985-c16dd7512d13","system_id":"levelo_inurba_marseille","lat":43.293009,"lon":5.374584,"is_reserved":false,"is_disabled":false,"rental_uris":{"android":"levelo://app?vid=aaac4dd8-6695-4a50-9985-c16dd7512d13","ios":"levelo://app?vid=aaac4dd8-6695-4a50-9985-c16dd7512d13"},"vehicle_type_id":"4","last_reported":1683932769,"current_range_meters":31200,"station_id":"ce4bgi12rcd13ifvqb70","pricing_plan_id":"free"},{"bike_id":"6c62aea6-a500-4451-a214-8eb49a3f1930","system_id":"levelo_inurba_marseille","lat":43.29306,"lon":5.37451,"is_reserved":false,"is_disabled":false,"rental_uris":{"android":"levelo://app?vid=6c62aea6-a500-4451-a214-8eb49a3f1930","ios":"levelo://app?vid=6c62aea6-a500-4451-a214-8eb49a3f1930"},"vehicle_type_id":"4","last_reported":1683932769,"current_range_meters":22000,"station_id":"ce4bgi12rcd13ifvqb70","pricing_plan_id":"free"},{"bike_id":"22b947c1-acae-43da-8b38-36b98e43a463","system_id":"levelo_inurba_marseille","lat":43.293009,"lon":5.374584,"is_reserved":false,"is_disabled":false,"rental_uris":{"android":"levelo://app?vid=22b947c1-acae-43da-8b38-36b98e43a463","ios":"levelo://app?vid=22b947c1-acae-43da-8b38-36b98e43a463"},"vehicle_type_id":"4","last_reported":1683932769,"current_range_meters":31200,"station_id":"ce4bgi12rcd13ifvqb70","pricing_plan_id":"free"},{"bike_id":"633e1e77-74e8-4948-b475-3805add47af0","system_id":"levelo_inurba_marseille","lat":43.293009,"lon":5.374584,"is_reserved":false,"is_disabled":false,"rental_uris":{"android":"levelo://app?vid=633e1e77-74e8-4948-b475-3805add47af0","ios":"levelo://app?vid=633e1e77-74e8-4948-b475-3805add47af0"},"vehicle_type_id":"4","last_reported":1683932769,"current_range_meters":27200,"station_id":"ce4bgi12rcd13ifvqb70","pricing_plan_id":"free"},{"bike_id":"cfac2341-2890-46d6-8b9c-757ff87880de","system_id":"levelo_inurba_marseille","lat":43.293009,"lon":5.374584,"is_reserved":false,"is_disabled":false,"rental_uris":{"android":"levelo://app?vid=cfac2341-2890-46d6-8b9c-757ff87880de","ios":"levelo://app?vid=cfac2341-2890-46d6-8b9c-757ff87880de"},"vehicle_type_id":"4","last_reported":1683932769,"current_range_meters":12000,"station_id":"ce4bgi12rcd13ifvqb70","pricing_plan_id":"free"},{"bike_id":"fa6c3f47-d0d7-4161-a001-9330bdf69277","system_id":"levelo_inurba_marseille","lat":43.305994,"lon":5.393687,"is_reserved":false,"is_disabled":false,"rental_uris":{"android":"levelo://app?vid=fa6c3f47-d0d7-4161-a001-9330bdf69277","ios":"levelo://app?vid=fa6c3f47-d0d7-4161-a001-9330bdf69277"},"vehicle_type_id":"4","last_reported":1683932769,"current_range_meters":4000,"station_id":"ce4bh0p2rcd13ifvqd80","pricing_plan_id":"free"},{"bike_id":"105b0e41-f6ae-4fbb-b8c3-9af1c335bd0b","system_id":"levelo_inurba_marseille","lat":43.30303,"lon":5.39212,"is_reserved":false,"is_disabled":false,"rental_uris":{"android":"levelo://app?vid=105b0e41-f6ae-4fbb-b8c3-9af1c335bd0b","ios":"levelo://app?vid=105b0e41-f6ae-4fbb-b8c3-9af1c335bd0b"},"vehicle_type_id":"4","last_reported":1683932769,"current_range_meters":0,"station_id":"ce4bgkh2rcd13ifvqbk0","pricing_plan_id":"free"},{"bike_id":"ee5e4d6f-0246-4778-83bf-aef29022fe97","system_id":"levelo_inurba_marseille","lat":43.302992,"lon":5.392136,"is_reserved":false,"is_disabled":false,"rental_uris":{"android":"levelo://app?vid=ee5e4d6f-0246-4778-83bf-aef29022fe97","ios":"levelo://app?vid=ee5e4d6f-0246-4778-83bf-aef29022fe97"},"vehicle_type_id":"4","last_reported":1683932769,"current_range_meters":8000,"station_id":"ce4bgkh2rcd13ifvqbk0","pricing_plan_id":"free"},{"bike_id":"8146540f-46b8-4d54-86d4-2f63a17df056","system_id":"levelo_inurba_marseille","lat":43.302992,"lon":5.392136,"is_reserved":false,"is_disabled":false,"rental_uris":{"android":"levelo://app?vid=8146540f-46b8-4d54-86d4-2f63a17df056","ios":"levelo://app?vid=8146540f-46b8-4d54-86d4-2f63a17df056"},"vehicle_type_id":"4","last_reported":1683932769,"current_range_meters":31200,"station_id":"ce4bgkh2rcd13ifvqbk0","pricing_plan_id":"free"},{"bike_id":"e1a6d314-6e78-492e-87b8-33cb24a74825","system_id":"levelo_inurba_marseille","lat":43.30308,"lon":5.39219,"is_reserved":false,"is_disabled":false,"rental_uris":{"android":"levelo://app?vid=e1a6d314-6e78-492e-87b8-33cb24a74825","ios":"levelo://app?vid=e1a6d314-6e78-492e-87b8-33cb24a74825"},"vehicle_type_id":"4","last_reported":1683932769,"current_range_meters":31200,"station_id":"ce4bgkh2rcd13ifvqbk0","pricing_plan_id":"free"},{"bike_id":"ef606733-e10e-4131-b8ee-b39e306ed43e","system_id":"levelo_inurba_marseille","lat":43.302992,"lon":5.392136,"is_reserved":false,"is_disabled":false,"rental_uris":{"android":"levelo://app?vid=ef606733-e10e-4131-b8ee-b39e306ed43e","ios":"levelo://app?vid=ef606733-e10e-4131-b8ee-b39e306ed43e"},"vehicle_type_id":"4","last_reported":1683932769,"current_range_meters":31200,"station_id":"ce4bgkh2rcd13ifvqbk0","pricing_plan_id":"free"},{"bike_id":"160a4a04-b6dd-4f0a-af5b-08d2dc734d6f","system_id":"levelo_inurba_marseille","lat":43.302992,"lon":5.392136,"is_reserved":false,"is_disabled":false,"rental_uris":{"android":"levelo://app?vid=160a4a04-b6dd-4f0a-af5b-08d2dc734d6f","ios":"levelo://app?vid=160a4a04-b6dd-4f0a-af5b-08d2dc734d6f"},"vehicle_type_id":"4","last_reported":1683932769,"current_range_meters":30800,"station_id":"ce4bgkh2rcd13ifvqbk0","pricing_plan_id":"free"},{"bike_id":"df5ff5e6-1606-4991-a5e7-115dea973d2a","system_id":"levelo_inurba_marseille","lat":43.30085,"lon":5.390856,"is_reserved":false,"is_disabled":false,"rental_uris":{"android":"levelo://app?vid=df5ff5e6-1606-4991-a5e7-115dea973d2a","ios":"levelo://app?vid=df5ff5e6-1606-4991-a5e7-115dea973d2a"},"vehicle_type_id":"4","last_reported":1683932769,"current_range_meters":30000,"station_id":"ce4bh192rcd13ifvqdb0","pricing_plan_id":"free"},{"bike_id":"8a01e47d-5a3e-41c3-b0b8-a9c545be87db","system_id":"levelo_inurba_marseille","lat":43.291671,"lon":5.371575,"is_reserved":false,"is_disabled":false,"rental_uris":{"android":"levelo://app?vid=8a01e47d-5a3e-41c3-b0b8-a9c545be87db","ios":"levelo://app?vid=8a01e47d-5a3e-41c3-b0b8-a9c545be87db"},"vehicle_type_id":"4","last_reported":1683932769,"current_range_meters":17200,"station_id":"ce4bha92rcd13ifvqeh0","pricing_plan_id":"free"},{"bike_id":"946ee186-2d6d-49cc-b1e6-2651abb79f22","system_id":"levelo_inurba_marseille","lat":43.291675,"lon":5.371583,"is_reserved":false,"is_disabled":false,"rental_uris":{"android":"levelo://app?vid=946ee186-2d6d-49cc-b1e6-2651abb79f22","ios":"levelo://app?vid=946ee186-2d6d-49cc-b1e6-2651abb79f22"},"vehicle_type_id":"4","last_reported":1683932769,"current_range_meters":21200,"station_id":"ce4bha92rcd13ifvqeh0","pricing_plan_id":"free"},{"bike_id":"b3749416-067c-450d-b73f-70387074926a","system_id":"levelo_inurba_marseille","lat":43.291675,"lon":5.371583,"is_reserved":false,"is_disabled":false,"rental_uris":{"android":"levelo://app?vid=b3749416-067c-450d-b73f-70387074926a","ios":"levelo://app?vid=b3749416-067c-450d-b73f-70387074926a"},"vehicle_type_id":"4","last_reported":1683932769,"current_range_meters":8400,"station_id":"ce4bha92rcd13ifvqeh0","pricing_plan_id":"free"},{"bike_id":"b8546726-3083-42fd-a9c3-8def0dbea2c7","system_id":"levelo_inurba_marseille","lat":43.30887,"lon":5.39635,"is_reserved":false,"is_disabled":false,"rental_uris":{"android":"levelo://app?vid=b8546726-3083-42fd-a9c3-8def0dbea2c7","ios":"levelo://app?vid=b8546726-3083-42fd-a9c3-8def0dbea2c7"},"vehicle_type_id":"4","last_reported":1683932769,"current_range_meters":0,"station_id":"","pricing_plan_id":"free"},{"bike_id":"560ea34e-feb5-4660-9bff-cf551c95db90","system_id":"levelo_inurba_marseille","lat":43.30888,"lon":5.39636,"is_reserved":false,"is_disabled":false,"rental_uris":{"android":"levelo://app?vid=560ea34e-feb5-4660-9bff-cf551c95db90","ios":"levelo://app?vid=560ea34e-feb5-4660-9bff-cf551c95db90"},"vehicle_type_id":"4","last_reported":1683932769,"current_range_meters":18000,"station_id":"ce4bh012rcd13ifvqcv0","pricing_plan_id":"free"},{"bike_id":"67f6a948-1165-4288-b069-dae7b06987c7","system_id":"levelo_inurba_marseille","lat":43.29193,"lon":5.35813,"is_reserved":false,"is_disabled":false,"rental_uris":{"android":"levelo://app?vid=67f6a948-1165-4288-b069-dae7b06987c7","ios":"levelo://app?vid=67f6a948-1165-4288-b069-dae7b06987c7"},"vehicle_type_id":"4","last_reported":1683932769,"current_range_meters":30800,"station_id":"","pricing_plan_id":"free"},{"bike_id":"53227ca6-0425-4d55-aa20-ae2d700371fc","system_id":"levelo_inurba_marseille","lat":43.309038,"lon":5.396546,"is_reserved":false,"is_disabled":false,"rental_uris":{"android":"levelo://app?vid=53227ca6-0425-4d55-aa20-ae2d700371fc","ios":"levelo://app?vid=53227ca6-0425-4d55-aa20-ae2d700371fc"},"vehicle_type_id":"4","last_reported":1683932769,"current_range_meters":19200,"station_id":"ce4bh012rcd13ifvqcv0","pricing_plan_id":"free"},{"bike_id":"94cfdd85-7708-4d18-8858-9edd985a492a","system_id":"levelo_inurba_marseille","lat":43.309038,"lon":5.396546,"is_reserved":false,"is_disabled":false,"rental_uris":{"android":"levelo://app?vid=94cfdd85-7708-4d18-8858-9edd985a492a","ios":"levelo://app?vid=94cfdd85-7708-4d18-8858-9edd985a492a"},"vehicle_type_id":"4","last_reported":1683932769,"current_range_meters":31200,"station_id":"ce4bh012rcd13ifvqcv0","pricing_plan_id":"free"},{"bike_id":"43ea94fb-f0bc-48af-bd2d-c866d6def370","system_id":"levelo_inurba_marseille","lat":43.29193,"lon":5.35801,"is_reserved":false,"is_disabled":false,"rental_uris":{"android":"levelo://app?vid=43ea94fb-f0bc-48af-bd2d-c866d6def370","ios":"levelo://app?vid=43ea94fb-f0bc-48af-bd2d-c866d6def370"},"vehicle_type_id":"4","last_reported":1683932769,"current_range_meters":22800,"station_id":"","pricing_plan_id":"free"},{"bike_id":"b1dbe5d2-9911-4db5-b317-0332f405d3d1","system_id":"levelo_inurba_marseille","lat":43.29192,"lon":5.35803,"is_reserved":false,"is_disabled":false,"rental_uris":{"android":"levelo://app?vid=b1dbe5d2-9911-4db5-b317-0332f405d3d1","ios":"levelo://app?vid=b1dbe5d2-9911-4db5-b317-0332f405d3d1"},"vehicle_type_id":"4","last_reported":1683932769,"current_range_meters":8400,"station_id":"","pricing_plan_id":"free"},{"bike_id":"ebc73a4d-3b94-494c-90e9-f157a2b3e2b4","system_id":"levelo_inurba_marseille","lat":43.313291,"lon":5.396838,"is_reserved":false,"is_disabled":false,"rental_uris":{"android":"levelo://app?vid=ebc73a4d-3b94-494c-90e9-f157a2b3e2b4","ios":"levelo://app?vid=ebc73a4d-3b94-494c-90e9-f157a2b3e2b4"},"vehicle_type_id":"4","last_reported":1683932769,"current_range_meters":0,"station_id":"ce4bgvp2rcd13ifvqcu0","pricing_plan_id":"free"},{"bike_id":"d558ad10-29e7-4da3-9ee1-d9b891a8f7cd","system_id":"levelo_inurba_marseille","lat":43.313291,"lon":5.396838,"is_reserved":false,"is_disabled":false,"rental_uris":{"android":"levelo://app?vid=d558ad10-29e7-4da3-9ee1-d9b891a8f7cd","ios":"levelo://app?vid=d558ad10-29e7-4da3-9ee1-d9b891a8f7cd"},"vehicle_type_id":"4","last_reported":1683932769,"current_range_meters":11600,"station_id":"ce4bgvp2rcd13ifvqcu0","pricing_plan_id":"free"},{"bike_id":"54558b69-c4ac-4523-b52f-5d2188aa05a7","system_id":"levelo_inurba_marseille","lat":43.313291,"lon":5.396838,"is_reserved":false,"is_disabled":false,"rental_uris":{"android":"levelo://app?vid=54558b69-c4ac-4523-b52f-5d2188aa05a7","ios":"levelo://app?vid=54558b69-c4ac-4523-b52f-5d2188aa05a7"},"vehicle_type_id":"4","last_reported":1683932769,"current_range_meters":13600,"station_id":"ce4bgvp2rcd13ifvqcu0","pricing_plan_id":"free"},{"bike_id":"ba6b0e93-d227-4d31-8d10-0cc43b66a609","system_id":"levelo_inurba_marseille","lat":43.29187,"lon":5.35806,"is_reserved":false,"is_disabled":false,"rental_uris":{"android":"levelo://app?vid=ba6b0e93-d227-4d31-8d10-0cc43b66a609","ios":"levelo://app?vid=ba6b0e93-d227-4d31-8d10-0cc43b66a609"},"vehicle_type_id":"4","last_reported":1683932769,"current_range_meters":6800,"station_id":"","pricing_plan_id":"free"},{"bike_id":"7ccb50ed-0d1a-4a93-9b9a-7edf54bdab2d","system_id":"levelo_inurba_marseille","lat":43.30884,"lon":5.39647,"is_reserved":false,"is_disabled":false,"rental_uris":{"android":"levelo://app?vid=7ccb50ed-0d1a-4a93-9b9a-7edf54bdab2d","ios":"levelo://app?vid=7ccb50ed-0d1a-4a93-9b9a-7edf54bdab2d"},"vehicle_type_id":"4","last_reported":1683932769,"current_range_meters":24000,"station_id":"ce4bh012rcd13ifvqcv0","pricing_plan_id":"free"},{"bike_id":"1f08c3cb-ba17-4d1b-9c29-da16e9aaf7c4","system_id":"levelo_inurba_marseille","lat":43.30881,"lon":5.39648,"is_reserved":false,"is_disabled":false,"rental_uris":{"android":"levelo://app?vid=1f08c3cb-ba17-4d1b-9c29-da16e9aaf7c4","ios":"levelo://app?vid=1f08c3cb-ba17-4d1b-9c29-da16e9aaf7c4"},"vehicle_type_id":"4","last_reported":1683932769,"current_range_meters":16800,"station_id":"","pricing_plan_id":"free"},{"bike_id":"24c62268-52e4-43c5-a578-1a2673aa3ec8","system_id":"levelo_inurba_marseille","lat":43.309038,"lon":5.396546,"is_reserved":false,"is_disabled":false,"rental_uris":{"android":"levelo://app?vid=24c62268-52e4-43c5-a578-1a2673aa3ec8","ios":"levelo://app?vid=24c62268-52e4-43c5-a578-1a2673aa3ec8"},"vehicle_type_id":"4","last_reported":1683932769,"current_range_meters":13200,"station_id":"ce4bh012rcd13ifvqcv0","pricing_plan_id":"free"},{"bike_id":"5e0fe48c-9999-435d-8555-0880eb5fe992","system_id":"levelo_inurba_marseille","lat":43.29186,"lon":5.35792,"is_reserved":false,"is_disabled":false,"rental_uris":{"android":"levelo://app?vid=5e0fe48c-9999-435d-8555-0880eb5fe992","ios":"levelo://app?vid=5e0fe48c-9999-435d-8555-0880eb5fe992"},"vehicle_type_id":"4","last_reported":1683932769,"current_range_meters":26400,"station_id":"","pricing_plan_id":"free"},{"bike_id":"0bbb37bf-7d4e-4900-9190-22e7fc2aba37","system_id":"levelo_inurba_marseille","lat":43.309038,"lon":5.396546,"is_reserved":false,"is_disabled":false,"rental_uris":{"android":"levelo://app?vid=0bbb37bf-7d4e-4900-9190-22e7fc2aba37","ios":"levelo://app?vid=0bbb37bf-7d4e-4900-9190-22e7fc2aba37"},"vehicle_type_id":"4","last_reported":1683932769,"current_range_meters":11600,"station_id":"ce4bh012rcd13ifvqcv0","pricing_plan_id":"free"},{"bike_id":"1fc2ebab-8602-40c6-ad3d-33e08383f9df","system_id":"levelo_inurba_marseille","lat":43.309038,"lon":5.396546,"is_reserved":false,"is_disabled":false,"rental_uris":{"android":"levelo://app?vid=1fc2ebab-8602-40c6-ad3d-33e08383f9df","ios":"levelo://app?vid=1fc2ebab-8602-40c6-ad3d-33e08383f9df"},"vehicle_type_id":"4","last_reported":1683932769,"current_range_meters":15600,"station_id":"ce4bh012rcd13ifvqcv0","pricing_plan_id":"free"},{"bike_id":"86d269dd-bd7f-480a-b4d2-aff2d2931cbb","system_id":"levelo_inurba_marseille","lat":43.29524,"lon":5.38532,"is_reserved":false,"is_disabled":false,"rental_uris":{"android":"levelo://app?vid=86d269dd-bd7f-480a-b4d2-aff2d2931cbb","ios":"levelo://app?vid=86d269dd-bd7f-480a-b4d2-aff2d2931cbb"},"vehicle_type_id":"4","last_reported":1683932769,"current_range_meters":0,"station_id":"ce4bgih2rcd13ifvqba0","pricing_plan_id":"free"},{"bike_id":"6e58c439-8cae-48b0-8fe3-d042d21b35a2","system_id":"levelo_inurba_marseille","lat":43.290631,"lon":5.359244,"is_reserved":false,"is_disabled":false,"rental_uris":{"android":"levelo://app?vid=6e58c439-8cae-48b0-8fe3-d042d21b35a2","ios":"levelo://app?vid=6e58c439-8cae-48b0-8fe3-d042d21b35a2"},"vehicle_type_id":"4","last_reported":1683932769,"current_range_meters":26000,"station_id":"ce4bha92rcd13ifvqeg0","pricing_plan_id":"free"},{"bike_id":"38f32948-8766-447e-83ad-3bc972a83cd8","system_id":"levelo_inurba_marseille","lat":43.302008,"lon":5.394694,"is_reserved":false,"is_disabled":false,"rental_uris":{"android":"levelo://app?vid=38f32948-8766-447e-83ad-3bc972a83cd8","ios":"levelo://app?vid=38f32948-8766-447e-83ad-3bc972a83cd8"},"vehicle_type_id":"4","last_reported":1683932769,"current_range_meters":12400,"station_id":"ce4bh0p2rcd13ifvqd70","pricing_plan_id":"free"},{"bike_id":"496c0d38-2936-4c74-8bde-329bd507fdc4","system_id":"levelo_inurba_marseille","lat":43.302008,"lon":5.394694,"is_reserved":false,"is_disabled":false,"rental_uris":{"android":"levelo://app?vid=496c0d38-2936-4c74-8bde-329bd507fdc4","ios":"levelo://app?vid=496c0d38-2936-4c74-8bde-329bd507fdc4"},"vehicle_type_id":"4","last_reported":1683932769,"current_range_meters":28000,"station_id":"ce4bh0p2rcd13ifvqd70","pricing_plan_id":"free"},{"bike_id":"80156f49-59c7-45db-8c0c-8e25c063b8d8","system_id":"levelo_inurba_marseille","lat":43.302008,"lon":5.394694,"is_reserved":false,"is_disabled":false,"rental_uris":{"android":"levelo://app?vid=80156f49-59c7-45db-8c0c-8e25c063b8d8","ios":"levelo://app?vid=80156f49-59c7-45db-8c0c-8e25c063b8d8"},"vehicle_type_id":"4","last_reported":1683932769,"current_range_meters":28800,"station_id":"ce4bh0p2rcd13ifvqd70","pricing_plan_id":"free"},{"bike_id":"9164eebc-be89-4222-a7bb-5e1fdff08df3","system_id":"levelo_inurba_marseille","lat":43.302008,"lon":5.394694,"is_reserved":false,"is_disabled":false,"rental_uris":{"android":"levelo://app?vid=9164eebc-be89-4222-a7bb-5e1fdff08df3","ios":"levelo://app?vid=9164eebc-be89-4222-a7bb-5e1fdff08df3"},"vehicle_type_id":"4","last_reported":1683932769,"current_range_meters":20800,"station_id":"ce4bh0p2rcd13ifvqd70","pricing_plan_id":"free"},{"bike_id":"8f385d0a-7d39-4869-a0d9-eee2a2d27766","system_id":"levelo_inurba_marseille","lat":43.302008,"lon":5.394694,"is_reserved":false,"is_disabled":false,"rental_uris":{"android":"levelo://app?vid=8f385d0a-7d39-4869-a0d9-eee2a2d27766","ios":"levelo://app?vid=8f385d0a-7d39-4869-a0d9-eee2a2d27766"},"vehicle_type_id":"4","last_reported":1683932769,"current_range_meters":12000,"station_id":"ce4bh0p2rcd13ifvqd70","pricing_plan_id":"free"},{"bike_id":"108358c4-ff24-4094-8b22-74ebdfce5a5d","system_id":"levelo_inurba_marseille","lat":43.290624,"lon":5.359245,"is_reserved":false,"is_disabled":false,"rental_uris":{"android":"levelo://app?vid=108358c4-ff24-4094-8b22-74ebdfce5a5d","ios":"levelo://app?vid=108358c4-ff24-4094-8b22-74ebdfce5a5d"},"vehicle_type_id":"4","last_reported":1683932769,"current_range_meters":31200,"station_id":"ce4bha92rcd13ifvqeg0","pricing_plan_id":"free"},{"bike_id":"6c076b98-f2b8-4b67-8d4e-821f8e6b4c89","system_id":"levelo_inurba_marseille","lat":43.290631,"lon":5.359244,"is_reserved":false,"is_disabled":false,"rental_uris":{"android":"levelo://app?vid=6c076b98-f2b8-4b67-8d4e-821f8e6b4c89","ios":"levelo://app?vid=6c076b98-f2b8-4b67-8d4e-821f8e6b4c89"},"vehicle_type_id":"4","last_reported":1683932769,"current_range_meters":28800,"station_id":"ce4bha92rcd13ifvqeg0","pricing_plan_id":"free"},{"bike_id":"ee006d51-c58c-4aa3-b729-69927b0ce4fd","system_id":"levelo_inurba_marseille","lat":43.29037,"lon":5.37572,"is_reserved":false,"is_disabled":false,"rental_uris":{"android":"levelo://app?vid=ee006d51-c58c-4aa3-b729-69927b0ce4fd","ios":"levelo://app?vid=ee006d51-c58c-4aa3-b729-69927b0ce4fd"},"vehicle_type_id":"4","last_reported":1683932769,"current_range_meters":0,"station_id":"ce4bh692rcd13ifvqe90","pricing_plan_id":"free"},{"bike_id":"f902f7ec-59ba-4dea-ba65-061bc6c784f4","system_id":"levelo_inurba_marseille","lat":43.294153,"lon":5.386305,"is_reserved":false,"is_disabled":false,"rental_uris":{"android":"levelo://app?vid=f902f7ec-59ba-4dea-ba65-061bc6c784f4","ios":"levelo://app?vid=f902f7ec-59ba-4dea-ba65-061bc6c784f4"},"vehicle_type_id":"4","last_reported":1683932769,"current_range_meters":22400,"station_id":"ce4bh2h2rcd13ifvqdh0","pricing_plan_id":"free"},{"bike_id":"bedee10e-5dfc-450e-8b51-ca83bf1109a6","system_id":"levelo_inurba_marseille","lat":43.30493,"lon":5.39708,"is_reserved":false,"is_disabled":false,"rental_uris":{"android":"levelo://app?vid=bedee10e-5dfc-450e-8b51-ca83bf1109a6","ios":"levelo://app?vid=bedee10e-5dfc-450e-8b51-ca83bf1109a6"},"vehicle_type_id":"4","last_reported":1683932769,"current_range_meters":5200,"station_id":"","pricing_plan_id":"free"},{"bike_id":"61231e31-1dc5-4e62-9c0e-94062e78d852","system_id":"levelo_inurba_marseille","lat":43.29411,"lon":5.38614,"is_reserved":false,"is_disabled":false,"rental_uris":{"android":"levelo://app?vid=61231e31-1dc5-4e62-9c0e-94062e78d852","ios":"levelo://app?vid=61231e31-1dc5-4e62-9c0e-94062e78d852"},"vehicle_type_id":"4","last_reported":1683932769,"current_range_meters":5200,"station_id":"ce4bh112rcd13ifvqda0","pricing_plan_id":"free"},{"bike_id":"9f129774-36e1-42f1-8229-a7c2be11d89e","system_id":"levelo_inurba_marseille","lat":43.30486,"lon":5.3971,"is_reserved":false,"is_disabled":false,"rental_uris":{"android":"levelo://app?vid=9f129774-36e1-42f1-8229-a7c2be11d89e","ios":"levelo://app?vid=9f129774-36e1-42f1-8229-a7c2be11d89e"},"vehicle_type_id":"4","last_reported":1683932769,"current_range_meters":22400,"station_id":"","pricing_plan_id":"free"},{"bike_id":"3cacd10a-194d-4ff1-b6ed-416a601252e4","system_id":"levelo_inurba_marseille","lat":43.289184,"lon":5.366408,"is_reserved":false,"is_disabled":false,"rental_uris":{"android":"levelo://app?vid=3cacd10a-194d-4ff1-b6ed-416a601252e4","ios":"levelo://app?vid=3cacd10a-194d-4ff1-b6ed-416a601252e4"},"vehicle_type_id":"4","last_reported":1683932769,"current_range_meters":20800,"station_id":"ce4bhap2rcd13ifvqek0","pricing_plan_id":"free"},{"bike_id":"05b7eebc-cb2a-4b19-b944-079b21ca91c1","system_id":"levelo_inurba_marseille","lat":43.289184,"lon":5.366408,"is_reserved":false,"is_disabled":false,"rental_uris":{"android":"levelo://app?vid=05b7eebc-cb2a-4b19-b944-079b21ca91c1","ios":"levelo://app?vid=05b7eebc-cb2a-4b19-b944-079b21ca91c1"},"vehicle_type_id":"4","last_reported":1683932769,"current_range_meters":20400,"station_id":"ce4bhap2rcd13ifvqek0","pricing_plan_id":"free"},{"bike_id":"19d571e9-c6db-4e8e-8c7e-e4fe63b9b257","system_id":"levelo_inurba_marseille","lat":43.289468,"lon":5.363719,"is_reserved":false,"is_disabled":false,"rental_uris":{"android":"levelo://app?vid=19d571e9-c6db-4e8e-8c7e-e4fe63b9b257","ios":"levelo://app?vid=19d571e9-c6db-4e8e-8c7e-e4fe63b9b257"},"vehicle_type_id":"4","last_reported":1683932769,"current_range_meters":28800,"station_id":"ce4bhc92rcd13ifvqetg","pricing_plan_id":"free"},{"bike_id":"0a35b239-b75a-4d81-9984-8115aae62f98","system_id":"levelo_inurba_marseille","lat":43.290104,"lon":5.356111,"is_reserved":false,"is_disabled":false,"rental_uris":{"android":"levelo://app?vid=0a35b239-b75a-4d81-9984-8115aae62f98","ios":"levelo://app?vid=0a35b239-b75a-4d81-9984-8115aae62f98"},"vehicle_type_id":"4","last_reported":1683932769,"current_range_meters":26400,"station_id":"ce4bhb92rcd13ifvqen0","pricing_plan_id":"free"},{"bike_id":"f40ddee2-e470-4bc5-9719-b7583d73bdd7","system_id":"levelo_inurba_marseille","lat":43.3304,"lon":5.38917,"is_reserved":false,"is_disabled":false,"rental_uris":{"android":"levelo://app?vid=f40ddee2-e470-4bc5-9719-b7583d73bdd7","ios":"levelo://app?vid=f40ddee2-e470-4bc5-9719-b7583d73bdd7"},"vehicle_type_id":"4","last_reported":1683932769,"current_range_meters":31200,"station_id":"ce4bhr92rcd13ifvqhrg","pricing_plan_id":"free"},{"bike_id":"35c575d0-af97-4b38-a235-d20dd59fb901","system_id":"levelo_inurba_marseille","lat":43.290104,"lon":5.356111,"is_reserved":false,"is_disabled":false,"rental_uris":{"android":"levelo://app?vid=35c575d0-af97-4b38-a235-d20dd59fb901","ios":"levelo://app?vid=35c575d0-af97-4b38-a235-d20dd59fb901"},"vehicle_type_id":"4","last_reported":1683932769,"current_range_meters":26000,"station_id":"ce4bhb92rcd13ifvqen0","pricing_plan_id":"free"},{"bike_id":"99d11ff8-cd4f-4243-907c-822c17bc769b","system_id":"levelo_inurba_marseille","lat":43.33048,"lon":5.38915,"is_reserved":false,"is_disabled":false,"rental_uris":{"android":"levelo://app?vid=99d11ff8-cd4f-4243-907c-822c17bc769b","ios":"levelo://app?vid=99d11ff8-cd4f-4243-907c-822c17bc769b"},"vehicle_type_id":"4","last_reported":1683932769,"current_range_meters":22800,"station_id":"ce4bhr92rcd13ifvqhrg","pricing_plan_id":"free"},{"bike_id":"4bd08121-01c0-44b3-b00a-2ecfcb89cc44","system_id":"levelo_inurba_marseille","lat":43.33046,"lon":5.38919,"is_reserved":false,"is_disabled":false,"rental_uris":{"android":"levelo://app?vid=4bd08121-01c0-44b3-b00a-2ecfcb89cc44","ios":"levelo://app?vid=4bd08121-01c0-44b3-b00a-2ecfcb89cc44"},"vehicle_type_id":"4","last_reported":1683932769,"current_range_meters":1600,"station_id":"ce4bhr92rcd13ifvqhrg","pricing_plan_id":"free"},{"bike_id":"d52f79d5-7a27-4ea7-a766-1d0910dedc07","system_id":"levelo_inurba_marseille","lat":43.290104,"lon":5.356111,"is_reserved":false,"is_disabled":false,"rental_uris":{"android":"levelo://app?vid=d52f79d5-7a27-4ea7-a766-1d0910dedc07","ios":"levelo://app?vid=d52f79d5-7a27-4ea7-a766-1d0910dedc07"},"vehicle_type_id":"4","last_reported":1683932769,"current_range_meters":14000,"station_id":"ce4bhb92rcd13ifvqen0","pricing_plan_id":"free"},{"bike_id":"754ef565-0150-4f0d-8c0d-a8a5d6927613","system_id":"levelo_inurba_marseille","lat":43.33045,"lon":5.38923,"is_reserved":false,"is_disabled":false,"rental_uris":{"android":"levelo://app?vid=754ef565-0150-4f0d-8c0d-a8a5d6927613","ios":"levelo://app?vid=754ef565-0150-4f0d-8c0d-a8a5d6927613"},"vehicle_type_id":"4","last_reported":1683932769,"current_range_meters":21600,"station_id":"ce4bhr92rcd13ifvqhrg","pricing_plan_id":"free"},{"bike_id":"569eb535-54c1-4681-9a02-16f5c8833d1c","system_id":"levelo_inurba_marseille","lat":43.290103,"lon":5.356114,"is_reserved":false,"is_disabled":false,"rental_uris":{"android":"levelo://app?vid=569eb535-54c1-4681-9a02-16f5c8833d1c","ios":"levelo://app?vid=569eb535-54c1-4681-9a02-16f5c8833d1c"},"vehicle_type_id":"4","last_reported":1683932769,"current_range_meters":25200,"station_id":"ce4bhb92rcd13ifvqen0","pricing_plan_id":"free"},{"bike_id":"9f7791a9-2807-45a3-aff3-22ad45e71fb5","system_id":"levelo_inurba_marseille","lat":43.290995,"lon":5.381361,"is_reserved":false,"is_disabled":false,"rental_uris":{"android":"levelo://app?vid=9f7791a9-2807-45a3-aff3-22ad45e71fb5","ios":"levelo://app?vid=9f7791a9-2807-45a3-aff3-22ad45e71fb5"},"vehicle_type_id":"4","last_reported":1683932769,"current_range_meters":7200,"station_id":"ce4bh512rcd13ifvqe2g","pricing_plan_id":"free"},{"bike_id":"2aea83b0-2cc5-4830-9f71-4727a05e8525","system_id":"levelo_inurba_marseille","lat":43.289743,"lon":5.378304,"is_reserved":false,"is_disabled":false,"rental_uris":{"android":"levelo://app?vid=2aea83b0-2cc5-4830-9f71-4727a05e8525","ios":"levelo://app?vid=2aea83b0-2cc5-4830-9f71-4727a05e8525"},"vehicle_type_id":"4","last_reported":1683932769,"current_range_meters":16800,"station_id":"ce4bh9p2rcd13ifvqed0","pricing_plan_id":"free"},{"bike_id":"28ffc22a-2f88-4310-9655-f507b6292362","system_id":"levelo_inurba_marseille","lat":43.295169,"lon":5.390426,"is_reserved":false,"is_disabled":false,"rental_uris":{"android":"levelo://app?vid=28ffc22a-2f88-4310-9655-f507b6292362","ios":"levelo://app?vid=28ffc22a-2f88-4310-9655-f507b6292362"},"vehicle_type_id":"4","last_reported":1683932769,"current_range_meters":4800,"station_id":"ce4bh3p2rcd13ifvqdp0","pricing_plan_id":"free"},{"bike_id":"99c00dba-cf1b-4d64-9b84-0e972733579b","system_id":"levelo_inurba_marseille","lat":43.295169,"lon":5.390426,"is_reserved":false,"is_disabled":false,"rental_uris":{"android":"levelo://app?vid=99c00dba-cf1b-4d64-9b84-0e972733579b","ios":"levelo://app?vid=99c00dba-cf1b-4d64-9b84-0e972733579b"},"vehicle_type_id":"4","last_reported":1683932769,"current_range_meters":400,"station_id":"ce4bh3p2rcd13ifvqdp0","pricing_plan_id":"free"},{"bike_id":"6ec693ac-7a35-464f-bb6a-d9b8f666f568","system_id":"levelo_inurba_marseille","lat":43.2901,"lon":5.381269,"is_reserved":false,"is_disabled":false,"rental_uris":{"android":"levelo://app?vid=6ec693ac-7a35-464f-bb6a-d9b8f666f568","ios":"levelo://app?vid=6ec693ac-7a35-464f-bb6a-d9b8f666f568"},"vehicle_type_id":"4","last_reported":1683932769,"current_range_meters":18000,"station_id":"ce4bh4p2rcd13ifvqe1g","pricing_plan_id":"free"},{"bike_id":"7cf96afe-7bd7-4a9b-9a20-e56655182827","system_id":"levelo_inurba_marseille","lat":43.2901,"lon":5.381269,"is_reserved":false,"is_disabled":false,"rental_uris":{"android":"levelo://app?vid=7cf96afe-7bd7-4a9b-9a20-e56655182827","ios":"levelo://app?vid=7cf96afe-7bd7-4a9b-9a20-e56655182827"},"vehicle_type_id":"4","last_reported":1683932769,"current_range_meters":14000,"station_id":"ce4bh4p2rcd13ifvqe1g","pricing_plan_id":"free"},{"bike_id":"b907b35e-6d5c-47dd-90f0-3ed674ae6741","system_id":"levelo_inurba_marseille","lat":43.290094,"lon":5.381264,"is_reserved":false,"is_disabled":false,"rental_uris":{"android":"levelo://app?vid=b907b35e-6d5c-47dd-90f0-3ed674ae6741","ios":"levelo://app?vid=b907b35e-6d5c-47dd-90f0-3ed674ae6741"},"vehicle_type_id":"4","last_reported":1683932769,"current_range_meters":6000,"station_id":"ce4bh4p2rcd13ifvqe1g","pricing_plan_id":"free"},{"bike_id":"1bb1d7e0-4389-4660-aac6-b3cd8bfce7db","system_id":"levelo_inurba_marseille","lat":43.29366,"lon":5.38891,"is_reserved":false,"is_disabled":false,"rental_uris":{"android":"levelo://app?vid=1bb1d7e0-4389-4660-aac6-b3cd8bfce7db","ios":"levelo://app?vid=1bb1d7e0-4389-4660-aac6-b3cd8bfce7db"},"vehicle_type_id":"4","last_reported":1683932769,"current_range_meters":6000,"station_id":"","pricing_plan_id":"free"},{"bike_id":"f99c4a06-ba5a-4742-ab61-1e61f4fb774b","system_id":"levelo_inurba_marseille","lat":43.28856,"lon":5.358371,"is_reserved":false,"is_disabled":false,"rental_uris":{"android":"levelo://app?vid=f99c4a06-ba5a-4742-ab61-1e61f4fb774b","ios":"levelo://app?vid=f99c4a06-ba5a-4742-ab61-1e61f4fb774b"},"vehicle_type_id":"4","last_reported":1683932769,"current_range_meters":1600,"station_id":"ce4bhb12rcd13ifvqem0","pricing_plan_id":"free"},{"bike_id":"0c2d2bb7-5401-4d5a-8a06-22375ff5ed7f","system_id":"levelo_inurba_marseille","lat":43.30642,"lon":5.401031,"is_reserved":false,"is_disabled":false,"rental_uris":{"android":"levelo://app?vid=0c2d2bb7-5401-4d5a-8a06-22375ff5ed7f","ios":"levelo://app?vid=0c2d2bb7-5401-4d5a-8a06-22375ff5ed7f"},"vehicle_type_id":"4","last_reported":1683932769,"current_range_meters":23600,"station_id":"ce4bh112rcd13ifvqda0","pricing_plan_id":"free"},{"bike_id":"64c62719-fb1a-42d2-bc39-a910b9837715","system_id":"levelo_inurba_marseille","lat":43.30642,"lon":5.401031,"is_reserved":false,"is_disabled":false,"rental_uris":{"android":"levelo://app?vid=64c62719-fb1a-42d2-bc39-a910b9837715","ios":"levelo://app?vid=64c62719-fb1a-42d2-bc39-a910b9837715"},"vehicle_type_id":"4","last_reported":1683932769,"current_range_meters":24800,"station_id":"ce4bh112rcd13ifvqda0","pricing_plan_id":"free"},{"bike_id":"e6c9d3cd-2360-43e7-a0ea-c6cb7b1853ef","system_id":"levelo_inurba_marseille","lat":43.30642,"lon":5.401031,"is_reserved":false,"is_disabled":false,"rental_uris":{"android":"levelo://app?vid=e6c9d3cd-2360-43e7-a0ea-c6cb7b1853ef","ios":"levelo://app?vid=e6c9d3cd-2360-43e7-a0ea-c6cb7b1853ef"},"vehicle_type_id":"4","last_reported":1683932769,"current_range_meters":26800,"station_id":"ce4bh112rcd13ifvqda0","pricing_plan_id":"free"},{"bike_id":"dcf0a8c7-0856-4697-b5f4-085b6e499fa5","system_id":"levelo_inurba_marseille","lat":43.30642,"lon":5.401031,"is_reserved":false,"is_disabled":false,"rental_uris":{"android":"levelo://app?vid=dcf0a8c7-0856-4697-b5f4-085b6e499fa5","ios":"levelo://app?vid=dcf0a8c7-0856-4697-b5f4-085b6e499fa5"},"vehicle_type_id":"4","last_reported":1683932769,"current_range_meters":2800,"station_id":"ce4bh112rcd13ifvqda0","pricing_plan_id":"free"},{"bike_id":"50b5244a-06b4-4d47-b990-bc579a5aeee8","system_id":"levelo_inurba_marseille","lat":43.3375,"lon":5.37474,"is_reserved":false,"is_disabled":false,"rental_uris":{"android":"levelo://app?vid=50b5244a-06b4-4d47-b990-bc579a5aeee8","ios":"levelo://app?vid=50b5244a-06b4-4d47-b990-bc579a5aeee8"},"vehicle_type_id":"4","last_reported":1683932769,"current_range_meters":30800,"station_id":"","pricing_plan_id":"free"},{"bike_id":"92cd6143-29ea-47eb-af37-64baad7d96a6","system_id":"levelo_inurba_marseille","lat":43.30642,"lon":5.401031,"is_reserved":false,"is_disabled":false,"rental_uris":{"android":"levelo://app?vid=92cd6143-29ea-47eb-af37-64baad7d96a6","ios":"levelo://app?vid=92cd6143-29ea-47eb-af37-64baad7d96a6"},"vehicle_type_id":"4","last_reported":1683932769,"current_range_meters":13600,"station_id":"ce4bh112rcd13ifvqda0","pricing_plan_id":"free"},{"bike_id":"58c75385-e42e-4a55-9764-48cdd5e34239","system_id":"levelo_inurba_marseille","lat":43.30642,"lon":5.401031,"is_reserved":false,"is_disabled":false,"rental_uris":{"android":"levelo://app?vid=58c75385-e42e-4a55-9764-48cdd5e34239","ios":"levelo://app?vid=58c75385-e42e-4a55-9764-48cdd5e34239"},"vehicle_type_id":"4","last_reported":1683932769,"current_range_meters":17600,"station_id":"ce4bh112rcd13ifvqda0","pricing_plan_id":"free"},{"bike_id":"c2f47a43-1a25-412e-bad2-1279deeebbba","system_id":"levelo_inurba_marseille","lat":43.30642,"lon":5.401031,"is_reserved":false,"is_disabled":false,"rental_uris":{"android":"levelo://app?vid=c2f47a43-1a25-412e-bad2-1279deeebbba","ios":"levelo://app?vid=c2f47a43-1a25-412e-bad2-1279deeebbba"},"vehicle_type_id":"4","last_reported":1683932769,"current_range_meters":17600,"station_id":"ce4bh112rcd13ifvqda0","pricing_plan_id":"free"},{"bike_id":"7f78d45f-0e4b-4554-8cbb-3ad8b54a345f","system_id":"levelo_inurba_marseille","lat":43.30642,"lon":5.401031,"is_reserved":false,"is_disabled":false,"rental_uris":{"android":"levelo://app?vid=7f78d45f-0e4b-4554-8cbb-3ad8b54a345f","ios":"levelo://app?vid=7f78d45f-0e4b-4554-8cbb-3ad8b54a345f"},"vehicle_type_id":"4","last_reported":1683932769,"current_range_meters":12400,"station_id":"ce4bh112rcd13ifvqda0","pricing_plan_id":"free"},{"bike_id":"8ab6919d-42a0-4d41-bcb9-a08605ad6fcb","system_id":"levelo_inurba_marseille","lat":43.30642,"lon":5.401031,"is_reserved":false,"is_disabled":false,"rental_uris":{"android":"levelo://app?vid=8ab6919d-42a0-4d41-bcb9-a08605ad6fcb","ios":"levelo://app?vid=8ab6919d-42a0-4d41-bcb9-a08605ad6fcb"},"vehicle_type_id":"4","last_reported":1683932769,"current_range_meters":25200,"station_id":"ce4bh112rcd13ifvqda0","pricing_plan_id":"free"},{"bike_id":"e9c2c288-9384-47da-addb-79bcbd1e0132","system_id":"levelo_inurba_marseille","lat":43.30642,"lon":5.401031,"is_reserved":false,"is_disabled":false,"rental_uris":{"android":"levelo://app?vid=e9c2c288-9384-47da-addb-79bcbd1e0132","ios":"levelo://app?vid=e9c2c288-9384-47da-addb-79bcbd1e0132"},"vehicle_type_id":"4","last_reported":1683932769,"current_range_meters":15200,"station_id":"ce4bh112rcd13ifvqda0","pricing_plan_id":"free"},{"bike_id":"f1a1c85c-209d-480e-9dc8-4c07450f7de1","system_id":"levelo_inurba_marseille","lat":43.301117,"lon":5.398795,"is_reserved":false,"is_disabled":false,"rental_uris":{"android":"levelo://app?vid=f1a1c85c-209d-480e-9dc8-4c07450f7de1","ios":"levelo://app?vid=f1a1c85c-209d-480e-9dc8-4c07450f7de1"},"vehicle_type_id":"4","last_reported":1683932769,"current_range_meters":18800,"station_id":"ce4bh0h2rcd13ifvqd40","pricing_plan_id":"free"},{"bike_id":"5d2e53db-c736-441a-9c8a-20e95578ce6d","system_id":"levelo_inurba_marseille","lat":43.316517,"lon":5.404375,"is_reserved":false,"is_disabled":false,"rental_uris":{"android":"levelo://app?vid=5d2e53db-c736-441a-9c8a-20e95578ce6d","ios":"levelo://app?vid=5d2e53db-c736-441a-9c8a-20e95578ce6d"},"vehicle_type_id":"4","last_reported":1683932769,"current_range_meters":12000,"station_id":"ce4bh012rcd13ifvqd00","pricing_plan_id":"free"},{"bike_id":"4b812778-e94f-4f21-9be0-8d700e3bfbb2","system_id":"levelo_inurba_marseille","lat":43.301117,"lon":5.398795,"is_reserved":false,"is_disabled":false,"rental_uris":{"android":"levelo://app?vid=4b812778-e94f-4f21-9be0-8d700e3bfbb2","ios":"levelo://app?vid=4b812778-e94f-4f21-9be0-8d700e3bfbb2"},"vehicle_type_id":"4","last_reported":1683932769,"current_range_meters":28000,"station_id":"ce4bh0h2rcd13ifvqd40","pricing_plan_id":"free"},{"bike_id":"1efab4e9-42c8-4a38-a166-647c42ab35ab","system_id":"levelo_inurba_marseille","lat":43.301117,"lon":5.398795,"is_reserved":false,"is_disabled":false,"rental_uris":{"android":"levelo://app?vid=1efab4e9-42c8-4a38-a166-647c42ab35ab","ios":"levelo://app?vid=1efab4e9-42c8-4a38-a166-647c42ab35ab"},"vehicle_type_id":"4","last_reported":1683932769,"current_range_meters":18400,"station_id":"ce4bh0h2rcd13ifvqd40","pricing_plan_id":"free"},{"bike_id":"8bc305ae-216a-4d6d-81a3-9c194a97b1f5","system_id":"levelo_inurba_marseille","lat":43.301117,"lon":5.398795,"is_reserved":false,"is_disabled":false,"rental_uris":{"android":"levelo://app?vid=8bc305ae-216a-4d6d-81a3-9c194a97b1f5","ios":"levelo://app?vid=8bc305ae-216a-4d6d-81a3-9c194a97b1f5"},"vehicle_type_id":"4","last_reported":1683932769,"current_range_meters":16000,"station_id":"ce4bh0h2rcd13ifvqd40","pricing_plan_id":"free"},{"bike_id":"3270acdd-556e-4246-b11b-748ba1d64719","system_id":"levelo_inurba_marseille","lat":43.301117,"lon":5.398795,"is_reserved":false,"is_disabled":false,"rental_uris":{"android":"levelo://app?vid=3270acdd-556e-4246-b11b-748ba1d64719","ios":"levelo://app?vid=3270acdd-556e-4246-b11b-748ba1d64719"},"vehicle_type_id":"4","last_reported":1683932769,"current_range_meters":28000,"station_id":"ce4bh0h2rcd13ifvqd40","pricing_plan_id":"free"},{"bike_id":"82702313-9d36-40e5-a17f-8d8fc6b16290","system_id":"levelo_inurba_marseille","lat":43.298681,"lon":5.397225,"is_reserved":false,"is_disabled":false,"rental_uris":{"android":"levelo://app?vid=82702313-9d36-40e5-a17f-8d8fc6b16290","ios":"levelo://app?vid=82702313-9d36-40e5-a17f-8d8fc6b16290"},"vehicle_type_id":"4","last_reported":1683932769,"current_range_meters":26000,"station_id":"ce4bh0h2rcd13ifvqd50","pricing_plan_id":"free"},{"bike_id":"f7ee7a2b-27b8-4911-be03-923cd26d78ff","system_id":"levelo_inurba_marseille","lat":43.286591,"lon":5.363346,"is_reserved":false,"is_disabled":false,"rental_uris":{"android":"levelo://app?vid=f7ee7a2b-27b8-4911-be03-923cd26d78ff","ios":"levelo://app?vid=f7ee7a2b-27b8-4911-be03-923cd26d78ff"},"vehicle_type_id":"4","last_reported":1683932769,"current_range_meters":10400,"station_id":"ce4bhah2rcd13ifvqej0","pricing_plan_id":"free"},{"bike_id":"f0a9c211-7fe7-44e0-9cf4-8df9763f7ece","system_id":"levelo_inurba_marseille","lat":43.298681,"lon":5.397225,"is_reserved":false,"is_disabled":false,"rental_uris":{"android":"levelo://app?vid=f0a9c211-7fe7-44e0-9cf4-8df9763f7ece","ios":"levelo://app?vid=f0a9c211-7fe7-44e0-9cf4-8df9763f7ece"},"vehicle_type_id":"4","last_reported":1683932769,"current_range_meters":8000,"station_id":"ce4bh0h2rcd13ifvqd50","pricing_plan_id":"free"},{"bike_id":"eac308ef-a173-4d80-b6b5-502efc82aabd","system_id":"levelo_inurba_marseille","lat":43.298681,"lon":5.397225,"is_reserved":false,"is_disabled":false,"rental_uris":{"android":"levelo://app?vid=eac308ef-a173-4d80-b6b5-502efc82aabd","ios":"levelo://app?vid=eac308ef-a173-4d80-b6b5-502efc82aabd"},"vehicle_type_id":"4","last_reported":1683932769,"current_range_meters":3200,"station_id":"ce4bh0h2rcd13ifvqd50","pricing_plan_id":"free"},{"bike_id":"40d1af8d-0635-4bd8-93fd-96f09f110e1c","system_id":"levelo_inurba_marseille","lat":43.286591,"lon":5.363346,"is_reserved":false,"is_disabled":false,"rental_uris":{"android":"levelo://app?vid=40d1af8d-0635-4bd8-93fd-96f09f110e1c","ios":"levelo://app?vid=40d1af8d-0635-4bd8-93fd-96f09f110e1c"},"vehicle_type_id":"4","last_reported":1683932769,"current_range_meters":8800,"station_id":"ce4bhah2rcd13ifvqej0","pricing_plan_id":"free"},{"bike_id":"73a6c017-fce9-40f4-a115-10f67526b06f","system_id":"levelo_inurba_marseille","lat":43.286593,"lon":5.363346,"is_reserved":false,"is_disabled":false,"rental_uris":{"android":"levelo://app?vid=73a6c017-fce9-40f4-a115-10f67526b06f","ios":"levelo://app?vid=73a6c017-fce9-40f4-a115-10f67526b06f"},"vehicle_type_id":"4","last_reported":1683932769,"current_range_meters":21200,"station_id":"ce4bhah2rcd13ifvqej0","pricing_plan_id":"free"},{"bike_id":"3e52a627-76fe-4310-b8d8-77141f88a3c2","system_id":"levelo_inurba_marseille","lat":43.286591,"lon":5.363346,"is_reserved":false,"is_disabled":false,"rental_uris":{"android":"levelo://app?vid=3e52a627-76fe-4310-b8d8-77141f88a3c2","ios":"levelo://app?vid=3e52a627-76fe-4310-b8d8-77141f88a3c2"},"vehicle_type_id":"4","last_reported":1683932769,"current_range_meters":31200,"station_id":"ce4bhah2rcd13ifvqej0","pricing_plan_id":"free"},{"bike_id":"597d531c-89d8-4004-8ce7-612a553a5e38","system_id":"levelo_inurba_marseille","lat":43.286593,"lon":5.363346,"is_reserved":false,"is_disabled":false,"rental_uris":{"android":"levelo://app?vid=597d531c-89d8-4004-8ce7-612a553a5e38","ios":"levelo://app?vid=597d531c-89d8-4004-8ce7-612a553a5e38"},"vehicle_type_id":"4","last_reported":1683932769,"current_range_meters":29200,"station_id":"ce4bhah2rcd13ifvqej0","pricing_plan_id":"free"},{"bike_id":"fb2f7169-ef5d-44b0-8c81-51954994ceb2","system_id":"levelo_inurba_marseille","lat":43.286593,"lon":5.363346,"is_reserved":false,"is_disabled":false,"rental_uris":{"android":"levelo://app?vid=fb2f7169-ef5d-44b0-8c81-51954994ceb2","ios":"levelo://app?vid=fb2f7169-ef5d-44b0-8c81-51954994ceb2"},"vehicle_type_id":"4","last_reported":1683932769,"current_range_meters":27600,"station_id":"ce4bhah2rcd13ifvqej0","pricing_plan_id":"free"},{"bike_id":"de1d2a6f-ea08-4bd5-ab1d-c7eb75fb683a","system_id":"levelo_inurba_marseille","lat":43.286591,"lon":5.363346,"is_reserved":false,"is_disabled":false,"rental_uris":{"android":"levelo://app?vid=de1d2a6f-ea08-4bd5-ab1d-c7eb75fb683a","ios":"levelo://app?vid=de1d2a6f-ea08-4bd5-ab1d-c7eb75fb683a"},"vehicle_type_id":"4","last_reported":1683932769,"current_range_meters":28000,"station_id":"ce4bhah2rcd13ifvqej0","pricing_plan_id":"free"},{"bike_id":"93f87e04-7dca-439b-b334-06293a21a4c0","system_id":"levelo_inurba_marseille","lat":43.286591,"lon":5.363346,"is_reserved":false,"is_disabled":false,"rental_uris":{"android":"levelo://app?vid=93f87e04-7dca-439b-b334-06293a21a4c0","ios":"levelo://app?vid=93f87e04-7dca-439b-b334-06293a21a4c0"},"vehicle_type_id":"4","last_reported":1683932769,"current_range_meters":23600,"station_id":"ce4bhah2rcd13ifvqej0","pricing_plan_id":"free"},{"bike_id":"b995b36a-1ed4-4194-a6a7-ffe2307c6c43","system_id":"levelo_inurba_marseille","lat":43.286593,"lon":5.363346,"is_reserved":false,"is_disabled":false,"rental_uris":{"android":"levelo://app?vid=b995b36a-1ed4-4194-a6a7-ffe2307c6c43","ios":"levelo://app?vid=b995b36a-1ed4-4194-a6a7-ffe2307c6c43"},"vehicle_type_id":"4","last_reported":1683932769,"current_range_meters":16800,"station_id":"ce4bhah2rcd13ifvqej0","pricing_plan_id":"free"},{"bike_id":"3cb23bf0-d8d9-40c1-9ca1-4723b2ae9b49","system_id":"levelo_inurba_marseille","lat":43.295196,"lon":5.39397,"is_reserved":false,"is_disabled":false,"rental_uris":{"android":"levelo://app?vid=3cb23bf0-d8d9-40c1-9ca1-4723b2ae9b49","ios":"levelo://app?vid=3cb23bf0-d8d9-40c1-9ca1-4723b2ae9b49"},"vehicle_type_id":"4","last_reported":1683932769,"current_range_meters":22000,"station_id":"ce4bh292rcd13ifvqdf0","pricing_plan_id":"free"},{"bike_id":"ada286fe-146a-44b2-b904-de2d0fa7725c","system_id":"levelo_inurba_marseille","lat":43.295196,"lon":5.39397,"is_reserved":false,"is_disabled":false,"rental_uris":{"android":"levelo://app?vid=ada286fe-146a-44b2-b904-de2d0fa7725c","ios":"levelo://app?vid=ada286fe-146a-44b2-b904-de2d0fa7725c"},"vehicle_type_id":"4","last_reported":1683932769,"current_range_meters":0,"station_id":"ce4bh292rcd13ifvqdf0","pricing_plan_id":"free"},{"bike_id":"fab27a1f-f805-4207-8513-7b2287ff5f70","system_id":"levelo_inurba_marseille","lat":43.295194,"lon":5.39397,"is_reserved":false,"is_disabled":false,"rental_uris":{"android":"levelo://app?vid=fab27a1f-f805-4207-8513-7b2287ff5f70","ios":"levelo://app?vid=fab27a1f-f805-4207-8513-7b2287ff5f70"},"vehicle_type_id":"4","last_reported":1683932769,"current_range_meters":6400,"station_id":"ce4bh292rcd13ifvqdf0","pricing_plan_id":"free"},{"bike_id":"6267e3fd-6b62-4abe-ab38-b455f987e7c6","system_id":"levelo_inurba_marseille","lat":43.295194,"lon":5.39397,"is_reserved":false,"is_disabled":false,"rental_uris":{"android":"levelo://app?vid=6267e3fd-6b62-4abe-ab38-b455f987e7c6","ios":"levelo://app?vid=6267e3fd-6b62-4abe-ab38-b455f987e7c6"},"vehicle_type_id":"4","last_reported":1683932769,"current_range_meters":29600,"station_id":"ce4bh292rcd13ifvqdf0","pricing_plan_id":"free"},{"bike_id":"c8cc8e1f-4d03-4d9d-af31-a2affa0c02e6","system_id":"levelo_inurba_marseille","lat":43.302759,"lon":5.400793,"is_reserved":false,"is_disabled":false,"rental_uris":{"android":"levelo://app?vid=c8cc8e1f-4d03-4d9d-af31-a2affa0c02e6","ios":"levelo://app?vid=c8cc8e1f-4d03-4d9d-af31-a2affa0c02e6"},"vehicle_type_id":"4","last_reported":1683932769,"current_range_meters":25200,"station_id":"ce4bgvh2rcd13ifvqcs0","pricing_plan_id":"free"},{"bike_id":"d728d7b1-50c3-4279-9a71-814cd1a5adbf","system_id":"levelo_inurba_marseille","lat":43.302759,"lon":5.400793,"is_reserved":false,"is_disabled":false,"rental_uris":{"android":"levelo://app?vid=d728d7b1-50c3-4279-9a71-814cd1a5adbf","ios":"levelo://app?vid=d728d7b1-50c3-4279-9a71-814cd1a5adbf"},"vehicle_type_id":"4","last_reported":1683932769,"current_range_meters":21600,"station_id":"ce4bgvh2rcd13ifvqcs0","pricing_plan_id":"free"},{"bike_id":"0a0d015d-1260-4cab-90a3-61cfb4493dd1","system_id":"levelo_inurba_marseille","lat":43.302759,"lon":5.400793,"is_reserved":false,"is_disabled":false,"rental_uris":{"android":"levelo://app?vid=0a0d015d-1260-4cab-90a3-61cfb4493dd1","ios":"levelo://app?vid=0a0d015d-1260-4cab-90a3-61cfb4493dd1"},"vehicle_type_id":"4","last_reported":1683932769,"current_range_meters":4800,"station_id":"ce4bgvh2rcd13ifvqcs0","pricing_plan_id":"free"},{"bike_id":"e5b2995f-c846-4343-bf16-74b2b7376351","system_id":"levelo_inurba_marseille","lat":43.302759,"lon":5.400793,"is_reserved":false,"is_disabled":false,"rental_uris":{"android":"levelo://app?vid=e5b2995f-c846-4343-bf16-74b2b7376351","ios":"levelo://app?vid=e5b2995f-c846-4343-bf16-74b2b7376351"},"vehicle_type_id":"4","last_reported":1683932769,"current_range_meters":800,"station_id":"ce4bgvh2rcd13ifvqcs0","pricing_plan_id":"free"},{"bike_id":"a1ece2b2-5a9a-447d-be78-32a223d3f638","system_id":"levelo_inurba_marseille","lat":43.302759,"lon":5.400793,"is_reserved":false,"is_disabled":false,"rental_uris":{"android":"levelo://app?vid=a1ece2b2-5a9a-447d-be78-32a223d3f638","ios":"levelo://app?vid=a1ece2b2-5a9a-447d-be78-32a223d3f638"},"vehicle_type_id":"4","last_reported":1683932769,"current_range_meters":31200,"station_id":"ce4bgvh2rcd13ifvqcs0","pricing_plan_id":"free"},{"bike_id":"8e852bb4-d6f4-4a26-8ab5-35c6194331cf","system_id":"levelo_inurba_marseille","lat":43.302759,"lon":5.400793,"is_reserved":false,"is_disabled":false,"rental_uris":{"android":"levelo://app?vid=8e852bb4-d6f4-4a26-8ab5-35c6194331cf","ios":"levelo://app?vid=8e852bb4-d6f4-4a26-8ab5-35c6194331cf"},"vehicle_type_id":"4","last_reported":1683932769,"current_range_meters":13200,"station_id":"ce4bgvh2rcd13ifvqcs0","pricing_plan_id":"free"},{"bike_id":"fadf8d75-db1f-4143-8a60-feb1d36da3db","system_id":"levelo_inurba_marseille","lat":43.302759,"lon":5.400793,"is_reserved":false,"is_disabled":false,"rental_uris":{"android":"levelo://app?vid=fadf8d75-db1f-4143-8a60-feb1d36da3db","ios":"levelo://app?vid=fadf8d75-db1f-4143-8a60-feb1d36da3db"},"vehicle_type_id":"4","last_reported":1683932769,"current_range_meters":1600,"station_id":"ce4bgvh2rcd13ifvqcs0","pricing_plan_id":"free"},{"bike_id":"3e7dc3e6-535b-4a53-8e18-85254c573983","system_id":"levelo_inurba_marseille","lat":43.28617,"lon":5.37067,"is_reserved":false,"is_disabled":false,"rental_uris":{"android":"levelo://app?vid=3e7dc3e6-535b-4a53-8e18-85254c573983","ios":"levelo://app?vid=3e7dc3e6-535b-4a53-8e18-85254c573983"},"vehicle_type_id":"4","last_reported":1683932769,"current_range_meters":8400,"station_id":"ce4bht12rcd13ifvqi60","pricing_plan_id":"free"},{"bike_id":"d87d5834-e3d8-4d3e-865d-fe9ab96adc36","system_id":"levelo_inurba_marseille","lat":43.302759,"lon":5.400793,"is_reserved":false,"is_disabled":false,"rental_uris":{"android":"levelo://app?vid=d87d5834-e3d8-4d3e-865d-fe9ab96adc36","ios":"levelo://app?vid=d87d5834-e3d8-4d3e-865d-fe9ab96adc36"},"vehicle_type_id":"4","last_reported":1683932769,"current_range_meters":29200,"station_id":"ce4bgvh2rcd13ifvqcs0","pricing_plan_id":"free"},{"bike_id":"073effad-e7a7-40bf-ab9f-67e19ef965dd","system_id":"levelo_inurba_marseille","lat":43.28614,"lon":5.37059,"is_reserved":false,"is_disabled":false,"rental_uris":{"android":"levelo://app?vid=073effad-e7a7-40bf-ab9f-67e19ef965dd","ios":"levelo://app?vid=073effad-e7a7-40bf-ab9f-67e19ef965dd"},"vehicle_type_id":"4","last_reported":1683932769,"current_range_meters":19200,"station_id":"ce4bht12rcd13ifvqi60","pricing_plan_id":"free"},{"bike_id":"e9f7ea12-3908-4fd2-a5c6-8d688edfe329","system_id":"levelo_inurba_marseille","lat":43.28613,"lon":5.37053,"is_reserved":false,"is_disabled":false,"rental_uris":{"android":"levelo://app?vid=e9f7ea12-3908-4fd2-a5c6-8d688edfe329","ios":"levelo://app?vid=e9f7ea12-3908-4fd2-a5c6-8d688edfe329"},"vehicle_type_id":"4","last_reported":1683932769,"current_range_meters":9200,"station_id":"ce4bht12rcd13ifvqi60","pricing_plan_id":"free"},{"bike_id":"26a5d13f-8c19-4a43-8536-00f55c3079bf","system_id":"levelo_inurba_marseille","lat":43.28613,"lon":5.37054,"is_reserved":false,"is_disabled":false,"rental_uris":{"android":"levelo://app?vid=26a5d13f-8c19-4a43-8536-00f55c3079bf","ios":"levelo://app?vid=26a5d13f-8c19-4a43-8536-00f55c3079bf"},"vehicle_type_id":"4","last_reported":1683932769,"current_range_meters":19600,"station_id":"ce4bht12rcd13ifvqi60","pricing_plan_id":"free"},{"bike_id":"76fb2e45-1638-46a3-a1ac-d6f31511e393","system_id":"levelo_inurba_marseille","lat":43.28612,"lon":5.37058,"is_reserved":false,"is_disabled":false,"rental_uris":{"android":"levelo://app?vid=76fb2e45-1638-46a3-a1ac-d6f31511e393","ios":"levelo://app?vid=76fb2e45-1638-46a3-a1ac-d6f31511e393"},"vehicle_type_id":"4","last_reported":1683932769,"current_range_meters":27200,"station_id":"ce4bht12rcd13ifvqi60","pricing_plan_id":"free"},{"bike_id":"f36ba521-5556-4c4a-9946-934f38d1b136","system_id":"levelo_inurba_marseille","lat":43.28612,"lon":5.37061,"is_reserved":false,"is_disabled":false,"rental_uris":{"android":"levelo://app?vid=f36ba521-5556-4c4a-9946-934f38d1b136","ios":"levelo://app?vid=f36ba521-5556-4c4a-9946-934f38d1b136"},"vehicle_type_id":"4","last_reported":1683932769,"current_range_meters":5200,"station_id":"ce4bht12rcd13ifvqi60","pricing_plan_id":"free"},{"bike_id":"3efa8b6e-5634-4eb2-a7c4-4a6121c66cf2","system_id":"levelo_inurba_marseille","lat":43.28611,"lon":5.37065,"is_reserved":false,"is_disabled":false,"rental_uris":{"android":"levelo://app?vid=3efa8b6e-5634-4eb2-a7c4-4a6121c66cf2","ios":"levelo://app?vid=3efa8b6e-5634-4eb2-a7c4-4a6121c66cf2"},"vehicle_type_id":"4","last_reported":1683932769,"current_range_meters":7600,"station_id":"ce4bht12rcd13ifvqi60","pricing_plan_id":"free"},{"bike_id":"a3163ceb-7437-42a6-8504-b4b4ae3bc04c","system_id":"levelo_inurba_marseille","lat":43.28609,"lon":5.3706,"is_reserved":false,"is_disabled":false,"rental_uris":{"android":"levelo://app?vid=a3163ceb-7437-42a6-8504-b4b4ae3bc04c","ios":"levelo://app?vid=a3163ceb-7437-42a6-8504-b4b4ae3bc04c"},"vehicle_type_id":"4","last_reported":1683932769,"current_range_meters":17200,"station_id":"ce4bht12rcd13ifvqi60","pricing_plan_id":"free"},{"bike_id":"c294f617-9acf-43ef-a5ab-0547bc9d2835","system_id":"levelo_inurba_marseille","lat":43.286039,"lon":5.370679,"is_reserved":false,"is_disabled":false,"rental_uris":{"android":"levelo://app?vid=c294f617-9acf-43ef-a5ab-0547bc9d2835","ios":"levelo://app?vid=c294f617-9acf-43ef-a5ab-0547bc9d2835"},"vehicle_type_id":"4","last_reported":1683932769,"current_range_meters":7600,"station_id":"ce4bht12rcd13ifvqi60","pricing_plan_id":"free"},{"bike_id":"2f707ee0-3e2a-4249-9b6c-bf76222e9be6","system_id":"levelo_inurba_marseille","lat":43.287184,"lon":5.37937,"is_reserved":false,"is_disabled":false,"rental_uris":{"android":"levelo://app?vid=2f707ee0-3e2a-4249-9b6c-bf76222e9be6","ios":"levelo://app?vid=2f707ee0-3e2a-4249-9b6c-bf76222e9be6"},"vehicle_type_id":"4","last_reported":1683932769,"current_range_meters":24000,"station_id":"ce4bh9p2rcd13ifvqec0","pricing_plan_id":"free"},{"bike_id":"00b68cdd-1c3d-4b7e-ac92-287c3906041a","system_id":"levelo_inurba_marseille","lat":43.287184,"lon":5.37937,"is_reserved":false,"is_disabled":false,"rental_uris":{"android":"levelo://app?vid=00b68cdd-1c3d-4b7e-ac92-287c3906041a","ios":"levelo://app?vid=00b68cdd-1c3d-4b7e-ac92-287c3906041a"},"vehicle_type_id":"4","last_reported":1683932769,"current_range_meters":23600,"station_id":"ce4bh9p2rcd13ifvqec0","pricing_plan_id":"free"},{"bike_id":"4d6f38cb-36de-4a32-9a0f-cc6e588a7e91","system_id":"levelo_inurba_marseille","lat":43.287185,"lon":5.379373,"is_reserved":false,"is_disabled":false,"rental_uris":{"android":"levelo://app?vid=4d6f38cb-36de-4a32-9a0f-cc6e588a7e91","ios":"levelo://app?vid=4d6f38cb-36de-4a32-9a0f-cc6e588a7e91"},"vehicle_type_id":"4","last_reported":1683932769,"current_range_meters":23200,"station_id":"ce4bh9p2rcd13ifvqec0","pricing_plan_id":"free"},{"bike_id":"24ffff6c-d29e-40f1-90dd-c01f5e708afb","system_id":"levelo_inurba_marseille","lat":43.287185,"lon":5.379373,"is_reserved":false,"is_disabled":false,"rental_uris":{"android":"levelo://app?vid=24ffff6c-d29e-40f1-90dd-c01f5e708afb","ios":"levelo://app?vid=24ffff6c-d29e-40f1-90dd-c01f5e708afb"},"vehicle_type_id":"4","last_reported":1683932769,"current_range_meters":10000,"station_id":"ce4bh9p2rcd13ifvqec0","pricing_plan_id":"free"},{"bike_id":"4831e3c9-9359-4b02-a129-6695a784b161","system_id":"levelo_inurba_marseille","lat":43.28768,"lon":5.38195,"is_reserved":false,"is_disabled":false,"rental_uris":{"android":"levelo://app?vid=4831e3c9-9359-4b02-a129-6695a784b161","ios":"levelo://app?vid=4831e3c9-9359-4b02-a129-6695a784b161"},"vehicle_type_id":"4","last_reported":1683932769,"current_range_meters":10400,"station_id":"","pricing_plan_id":"free"},{"bike_id":"af1218eb-c79a-484e-86cc-047a788a2afa","system_id":"levelo_inurba_marseille","lat":43.31647,"lon":5.40439,"is_reserved":false,"is_disabled":false,"rental_uris":{"android":"levelo://app?vid=af1218eb-c79a-484e-86cc-047a788a2afa","ios":"levelo://app?vid=af1218eb-c79a-484e-86cc-047a788a2afa"},"vehicle_type_id":"4","last_reported":1683932769,"current_range_meters":13200,"station_id":"ce4bh012rcd13ifvqd00","pricing_plan_id":"free"},{"bike_id":"28d1604c-aa5b-402d-8805-c2e77c7af928","system_id":"levelo_inurba_marseille","lat":43.316517,"lon":5.404375,"is_reserved":false,"is_disabled":false,"rental_uris":{"android":"levelo://app?vid=28d1604c-aa5b-402d-8805-c2e77c7af928","ios":"levelo://app?vid=28d1604c-aa5b-402d-8805-c2e77c7af928"},"vehicle_type_id":"4","last_reported":1683932769,"current_range_meters":20800,"station_id":"ce4bh012rcd13ifvqd00","pricing_plan_id":"free"},{"bike_id":"ec43455e-10bb-4318-9090-5aa9201b55f3","system_id":"levelo_inurba_marseille","lat":43.291994,"lon":5.392907,"is_reserved":false,"is_disabled":false,"rental_uris":{"android":"levelo://app?vid=ec43455e-10bb-4318-9090-5aa9201b55f3","ios":"levelo://app?vid=ec43455e-10bb-4318-9090-5aa9201b55f3"},"vehicle_type_id":"4","last_reported":1683932769,"current_range_meters":2800,"station_id":"ce4bh192rcd13ifvqdd0","pricing_plan_id":"free"},{"bike_id":"d6d4d88b-d665-42f3-a8ec-a2283e741f7c","system_id":"levelo_inurba_marseille","lat":43.291994,"lon":5.392907,"is_reserved":false,"is_disabled":false,"rental_uris":{"android":"levelo://app?vid=d6d4d88b-d665-42f3-a8ec-a2283e741f7c","ios":"levelo://app?vid=d6d4d88b-d665-42f3-a8ec-a2283e741f7c"},"vehicle_type_id":"4","last_reported":1683932769,"current_range_meters":0,"station_id":"ce4bh192rcd13ifvqdd0","pricing_plan_id":"free"},{"bike_id":"18b529f2-7d55-4e62-bb04-5c9689519aa7","system_id":"levelo_inurba_marseille","lat":43.284534,"lon":5.358662,"is_reserved":false,"is_disabled":false,"rental_uris":{"android":"levelo://app?vid=18b529f2-7d55-4e62-bb04-5c9689519aa7","ios":"levelo://app?vid=18b529f2-7d55-4e62-bb04-5c9689519aa7"},"vehicle_type_id":"4","last_reported":1683932769,"current_range_meters":23200,"station_id":"ce4bhah2rcd13ifvqei0","pricing_plan_id":"free"},{"bike_id":"53e096f5-844b-4c80-9f2b-804694ec42e5","system_id":"levelo_inurba_marseille","lat":43.291994,"lon":5.392907,"is_reserved":false,"is_disabled":false,"rental_uris":{"android":"levelo://app?vid=53e096f5-844b-4c80-9f2b-804694ec42e5","ios":"levelo://app?vid=53e096f5-844b-4c80-9f2b-804694ec42e5"},"vehicle_type_id":"4","last_reported":1683932769,"current_range_meters":25200,"station_id":"ce4bh192rcd13ifvqdd0","pricing_plan_id":"free"},{"bike_id":"fb69110e-1b06-45af-a648-27571497dc99","system_id":"levelo_inurba_marseille","lat":43.284534,"lon":5.358662,"is_reserved":false,"is_disabled":false,"rental_uris":{"android":"levelo://app?vid=fb69110e-1b06-45af-a648-27571497dc99","ios":"levelo://app?vid=fb69110e-1b06-45af-a648-27571497dc99"},"vehicle_type_id":"4","last_reported":1683932769,"current_range_meters":15200,"station_id":"ce4bhah2rcd13ifvqei0","pricing_plan_id":"free"},{"bike_id":"42dd8233-a179-4671-8914-39afa1e5f113","system_id":"levelo_inurba_marseille","lat":43.284632,"lon":5.358871,"is_reserved":false,"is_disabled":false,"rental_uris":{"android":"levelo://app?vid=42dd8233-a179-4671-8914-39afa1e5f113","ios":"levelo://app?vid=42dd8233-a179-4671-8914-39afa1e5f113"},"vehicle_type_id":"4","last_reported":1683932769,"current_range_meters":18400,"station_id":"","pricing_plan_id":"free"},{"bike_id":"3aa14959-0699-44d9-a765-767a3b19e25f","system_id":"levelo_inurba_marseille","lat":43.284534,"lon":5.358662,"is_reserved":false,"is_disabled":false,"rental_uris":{"android":"levelo://app?vid=3aa14959-0699-44d9-a765-767a3b19e25f","ios":"levelo://app?vid=3aa14959-0699-44d9-a765-767a3b19e25f"},"vehicle_type_id":"4","last_reported":1683932769,"current_range_meters":30400,"station_id":"ce4bhah2rcd13ifvqei0","pricing_plan_id":"free"},{"bike_id":"f1f565a4-cf37-4544-aaaf-d27824385f7a","system_id":"levelo_inurba_marseille","lat":43.284534,"lon":5.358662,"is_reserved":false,"is_disabled":false,"rental_uris":{"android":"levelo://app?vid=f1f565a4-cf37-4544-aaaf-d27824385f7a","ios":"levelo://app?vid=f1f565a4-cf37-4544-aaaf-d27824385f7a"},"vehicle_type_id":"4","last_reported":1683932769,"current_range_meters":12000,"station_id":"ce4bhah2rcd13ifvqei0","pricing_plan_id":"free"},{"bike_id":"5194673e-53e4-4378-a1e6-90f1fbb66298","system_id":"levelo_inurba_marseille","lat":43.284534,"lon":5.358662,"is_reserved":false,"is_disabled":false,"rental_uris":{"android":"levelo://app?vid=5194673e-53e4-4378-a1e6-90f1fbb66298","ios":"levelo://app?vid=5194673e-53e4-4378-a1e6-90f1fbb66298"},"vehicle_type_id":"4","last_reported":1683932769,"current_range_meters":21200,"station_id":"ce4bhah2rcd13ifvqei0","pricing_plan_id":"free"},{"bike_id":"d8962dca-2581-4e9e-acdb-70d96c61e474","system_id":"levelo_inurba_marseille","lat":43.284534,"lon":5.358662,"is_reserved":false,"is_disabled":false,"rental_uris":{"android":"levelo://app?vid=d8962dca-2581-4e9e-acdb-70d96c61e474","ios":"levelo://app?vid=d8962dca-2581-4e9e-acdb-70d96c61e474"},"vehicle_type_id":"4","last_reported":1683932769,"current_range_meters":23200,"station_id":"ce4bhah2rcd13ifvqei0","pricing_plan_id":"free"},{"bike_id":"e5efd3c2-f981-4128-bdb6-1d2d6594c81a","system_id":"levelo_inurba_marseille","lat":43.28459,"lon":5.37499,"is_reserved":false,"is_disabled":false,"rental_uris":{"android":"levelo://app?vid=e5efd3c2-f981-4128-bdb6-1d2d6594c81a","ios":"levelo://app?vid=e5efd3c2-f981-4128-bdb6-1d2d6594c81a"},"vehicle_type_id":"4","last_reported":1683932769,"current_range_meters":15200,"station_id":"","pricing_plan_id":"free"},{"bike_id":"4498ed69-fbc1-47dc-bff6-171b0c243154","system_id":"levelo_inurba_marseille","lat":43.284534,"lon":5.358662,"is_reserved":false,"is_disabled":false,"rental_uris":{"android":"levelo://app?vid=4498ed69-fbc1-47dc-bff6-171b0c243154","ios":"levelo://app?vid=4498ed69-fbc1-47dc-bff6-171b0c243154"},"vehicle_type_id":"4","last_reported":1683932769,"current_range_meters":2400,"station_id":"ce4bhah2rcd13ifvqei0","pricing_plan_id":"free"},{"bike_id":"d83c889b-ede5-48d0-8b57-eee9041455ed","system_id":"levelo_inurba_marseille","lat":43.284534,"lon":5.358662,"is_reserved":false,"is_disabled":false,"rental_uris":{"android":"levelo://app?vid=d83c889b-ede5-48d0-8b57-eee9041455ed","ios":"levelo://app?vid=d83c889b-ede5-48d0-8b57-eee9041455ed"},"vehicle_type_id":"4","last_reported":1683932769,"current_range_meters":12400,"station_id":"ce4bhah2rcd13ifvqei0","pricing_plan_id":"free"},{"bike_id":"0dabcfe8-ecd8-4227-a1bb-a46a1d77eaf7","system_id":"levelo_inurba_marseille","lat":43.284534,"lon":5.358662,"is_reserved":false,"is_disabled":false,"rental_uris":{"android":"levelo://app?vid=0dabcfe8-ecd8-4227-a1bb-a46a1d77eaf7","ios":"levelo://app?vid=0dabcfe8-ecd8-4227-a1bb-a46a1d77eaf7"},"vehicle_type_id":"4","last_reported":1683932769,"current_range_meters":30000,"station_id":"ce4bhah2rcd13ifvqei0","pricing_plan_id":"free"},{"bike_id":"9e6ffb62-79a9-4ef1-8d41-94c97acebff6","system_id":"levelo_inurba_marseille","lat":43.284534,"lon":5.358662,"is_reserved":false,"is_disabled":false,"rental_uris":{"android":"levelo://app?vid=9e6ffb62-79a9-4ef1-8d41-94c97acebff6","ios":"levelo://app?vid=9e6ffb62-79a9-4ef1-8d41-94c97acebff6"},"vehicle_type_id":"4","last_reported":1683932769,"current_range_meters":31200,"station_id":"ce4bhah2rcd13ifvqei0","pricing_plan_id":"free"},{"bike_id":"5b6edb24-62b9-4188-afea-ab0f7075bfa6","system_id":"levelo_inurba_marseille","lat":43.284534,"lon":5.358662,"is_reserved":false,"is_disabled":false,"rental_uris":{"android":"levelo://app?vid=5b6edb24-62b9-4188-afea-ab0f7075bfa6","ios":"levelo://app?vid=5b6edb24-62b9-4188-afea-ab0f7075bfa6"},"vehicle_type_id":"4","last_reported":1683932769,"current_range_meters":0,"station_id":"ce4bhah2rcd13ifvqei0","pricing_plan_id":"free"},{"bike_id":"0ab0c7e6-44f9-496c-9b48-ee08ba455918","system_id":"levelo_inurba_marseille","lat":43.284534,"lon":5.358662,"is_reserved":false,"is_disabled":false,"rental_uris":{"android":"levelo://app?vid=0ab0c7e6-44f9-496c-9b48-ee08ba455918","ios":"levelo://app?vid=0ab0c7e6-44f9-496c-9b48-ee08ba455918"},"vehicle_type_id":"4","last_reported":1683932769,"current_range_meters":26800,"station_id":"ce4bhah2rcd13ifvqei0","pricing_plan_id":"free"},