{"last_updated":1727730500,"ttl":60,"version":"2.2","data":{"bikes":[{"bike_id":"136ddb5a-94ab-4599-bf81-a15d52b4d7f3","system_id":"levelo_inurba_marseille","lat":43.30888,"lon":5.39631,"is_reserved":false,"is_disabled":false,"rental_uris":{"android":"levelo://app?vid=136ddb5a-94ab-4599-bf81-a15d52b4d7f3","ios":"levelo://app?vid=136ddb5a-94ab-4599-bf81-a15d52b4d7f3"},"vehicle_type_id":"4","last_reported":1727730500,"current_range_meters":19600,"station_id":"ce4bh012rcd13ifvqcv0","pricing_plan_id":"cebpf4jnsgd1na2vs0mg"},{"bike_id":"308fe677-f7b3-43b3-bbca-63d6ad242560","system_id":"levelo_inurba_marseille","lat":43.32,"lon":5.38153,"is_reserved":false,"is_disabled":false,"rental_uris":{"android":"levelo://app?vid=308fe677-f7b3-43b3-bbca-63d6ad242560","ios":"levelo://app?vid=308fe677-f7b3-43b3-bbca-63d6ad242560"},"vehicle_type_id":"4","last_reported":1727730500,"current_range_meters":24400,"station_id":"ce4bhr12rcd13ifvqhpg","pricing_plan_id":"cebpf4jnsgd1na2vs0mg"},{"bike_id":"4381ca69-94ed-4fb4-97b0-6e2433f67f2f","system_id":"levelo_inurba_marseille","lat":43.33723,"lon":5.39182,"is_reserved":false,"is_disabled":false,"rental_uris":{"android":"levelo://app?vid=4381ca69-94ed-4fb4-97b0-6e2433f67f2f","ios":"levelo://app?vid=4381ca69-94ed-4fb4-97b0-6e2433f67f2f"},"vehicle_type_id":"4","last_reported":1727730500,"current_range_meters":38800,"station_id":"ce4bhr92rcd13ifvqhsg","pricing_plan_id":"cebpf4jnsgd1na2vs0mg"},{"bike_id":"2bba3dd7-342e-4216-ba11-0a519a60cc9e","system_id":"levelo_inurba_marseille","lat":43.28664,"lon":5.38676,"is_reserved":false,"is_disabled":false,"rental_uris":{"android":"levelo://app?vid=2bba3dd7-342e-4216-ba11-0a519a60cc9e","ios":"levelo://app?vid=2bba3dd7-342e-4216-ba11-0a519a60cc9e"},"vehicle_type_id":"4","last_reported":1727730500,"current_range_meters":35600,"station_id":"ce4bh492rcd13ifvqdug","pricing_plan_id":"cebpf4jnsgd1na2vs0mg"},{"bike_id":"86c4c979-de11-47da-924e-27f82b5a603c","system_id":"levelo_inurba_marseille","lat":43.24395,"lon":5.37061,"is_reserved":false,"is_disabled":false,"rental_uris":{"android":"levelo://app?vid=86c4c979-de11-47da-924e-27f82b5a603c","ios":"levelo://app?vid=86c4c979-de11-47da-924e-27f82b5a603c"},"vehicle_type_id":"4","last_reported":1727730500,"current_range_meters":6400,"station_id":"ce4bhhh2rcd13ifvqfk0","pricing_plan_id":"cebpf4jnsgd1na2vs0mg"},{"bike_id":"0629e9f1-7af5-473d-bd97-c9951d8dd2d8","system_id":"levelo_inurba_marseille","lat":43.25102,"lon":5.40327,"is_reserved":false,"is_disabled":false,"rental_uris":{"android":"levelo://app?vid=0629e9f1-7af5-473d-bd97-c9951d8dd2d8","ios":"levelo://app?vid=0629e9f1-7af5-473d-bd97-c9951d8dd2d8"},"vehicle_type_id":"4","last_reported":1727730500,"current_range_meters":3600,"station_id":"ce4bhlh2rcd13ifvqgig","pricing_plan_id":"cebpf4jnsgd1na2vs0mg"},{"bike_id":"1c006b78-d253-4b91-b794-7153290a0e66","system_id":"levelo_inurba_marseille","lat":43.31759,"lon":5.39018,"is_reserved":false,"is_disabled":false,"rental_uris":{"android":"levelo://app?vid=1c006b78-d253-4b91-b794-7153290a0e66","ios":"levelo://app?vid=1c006b78-d253-4b91-b794-7153290a0e66"},"vehicle_type_id":"4","last_reported":1727730500,"current_range_meters":38800,"station_id":"ce4bhqp2rcd13ifvqhng","pricing_plan_id":"cebpf4jnsgd1na2vs0mg"},{"bike_id":"cc1835fa-d95a-4805-b298-4780f2e272a3","system_id":"levelo_inurba_marseille","lat":43.32406,"lon":5.38351,"is_reserved":false,"is_disabled":false,"rental_uris":{"android":"levelo://app?vid=cc1835fa-d95a-4805-b298-4780f2e272a3","ios":"levelo://app?vid=cc1835fa-d95a-4805-b298-4780f2e272a3"},"vehicle_type_id":"4","last_reported":1727730500,"current_range_meters":19600,"station_id":"","pricing_plan_id":"cebpf4jnsgd1na2vs0mg"},{"bike_id":"0d31a271-58df-4c2e-a39b-bf4de9c34014","system_id":"levelo_inurba_marseille","lat":43.24164,"lon":5.36405,"is_reserved":false,"is_disabled":false,"rental_uris":{"android":"levelo://app?vid=0d31a271-58df-4c2e-a39b-bf4de9c34014","ios":"levelo://app?vid=0d31a271-58df-4c2e-a39b-bf4de9c34014"},"vehicle_type_id":"4","last_reported":1727730500,"current_range_meters":18000,"station_id":"cpo36qri1sfpv3e86is0","pricing_plan_id":"cebpf4jnsgd1na2vs0mg"},{"bike_id":"3b29d325-f96d-42b3-8f54-709837e82f1c","system_id":"levelo_inurba_marseille","lat":43.29034,"lon":5.38128,"is_reserved":false,"is_disabled":false,"rental_uris":{"android":"levelo://app?vid=3b29d325-f96d-42b3-8f54-709837e82f1c","ios":"levelo://app?vid=3b29d325-f96d-42b3-8f54-709837e82f1c"},"vehicle_type_id":"4","last_reported":1727730500,"current_range_meters":38800,"station_id":"ce4bh4p2rcd13ifvqe1g","pricing_plan_id":"cebpf4jnsgd1na2vs0mg"},{"bike_id":"d430d7b1-396c-41b0-8215-fd0a563f41b1","system_id":"levelo_inurba_marseille","lat":43.28704,"lon":5.39983,"is_reserved":false,"is_disabled":false,"rental_uris":{"android":"levelo://app?vid=d430d7b1-396c-41b0-8215-fd0a563f41b1","ios":"levelo://app?vid=d430d7b1-396c-41b0-8215-fd0a563f41b1"},"vehicle_type_id":"4","last_reported":1727730500,"current_range_meters":11200,"station_id":"ce4bho92rcd13ifvqh3g","pricing_plan_id":"cebpf4jnsgd1na2vs0mg"},{"bike_id":"d1901d2e-eb48-424e-8a75-7377ed728a9e","system_id":"levelo_inurba_marseille","lat":43.3153,"lon":5.38026,"is_reserved":false,"is_disabled":false,"rental_uris":{"android":"levelo://app?vid=d1901d2e-eb48-424e-8a75-7377ed728a9e","ios":"levelo://app?vid=d1901d2e-eb48-424e-8a75-7377ed728a9e"},"vehicle_type_id":"4","last_reported":1727730500,"current_range_meters":38000,"station_id":"ce4bhsp2rcd13ifvqi50","pricing_plan_id":"cebpf4jnsgd1na2vs0mg"},{"bike_id":"6fc0ad42-2767-4eea-bbe6-f50e92ac93e4","system_id":"levelo_inurba_marseille","lat":43.29971,"lon":5.41332,"is_reserved":false,"is_disabled":false,"rental_uris":{"android":"levelo://app?vid=6fc0ad42-2767-4eea-bbe6-f50e92ac93e4","ios":"levelo://app?vid=6fc0ad42-2767-4eea-bbe6-f50e92ac93e4"},"vehicle_type_id":"4","last_reported":1727730500,"current_range_meters":38800,"station_id":"ce4bhp12rcd13ifvqh9g","pricing_plan_id":"cebpf4jnsgd1na2vs0mg"},{"bike_id":"c9bea4ff-d38f-4096-83bd-a0047b28da0a","system_id":"levelo_inurba_marseille","lat":43.28729,"lon":5.36083,"is_reserved":false,"is_disabled":false,"rental_uris":{"android":"levelo://app?vid=c9bea4ff-d38f-4096-83bd-a0047b28da0a","ios":"levelo://app?vid=c9bea4ff-d38f-4096-83bd-a0047b28da0a"},"vehicle_type_id":"4","last_reported":1727730500,"current_range_meters":38800,"station_id":"cki0cbj6b192h4jlfktg","pricing_plan_id":"cebpf4jnsgd1na2vs0mg"},{"bike_id":"417d0cf4-3eaf-4831-b2a8-e60c1f731624","system_id":"levelo_inurba_marseille","lat":43.28458,"lon":5.35884,"is_reserved":false,"is_disabled":false,"rental_uris":{"android":"levelo://app?vid=417d0cf4-3eaf-4831-b2a8-e60c1f731624","ios":"levelo://app?vid=417d0cf4-3eaf-4831-b2a8-e60c1f731624"},"vehicle_type_id":"4","last_reported":1727730500,"current_range_meters":38800,"station_id":"ce4bhah2rcd13ifvqei0","pricing_plan_id":"cebpf4jnsgd1na2vs0mg"},{"bike_id":"692b52da-ebae-4f02-9038-5a7809b78483","system_id":"levelo_inurba_marseille","lat":43.30799,"lon":5.43523,"is_reserved":false,"is_disabled":false,"rental_uris":{"android":"levelo://app?vid=692b52da-ebae-4f02-9038-5a7809b78483","ios":"levelo://app?vid=692b52da-ebae-4f02-9038-5a7809b78483"},"vehicle_type_id":"4","last_reported":1727730500,"current_range_meters":38800,"station_id":"ce4bhph2rcd13ifvqheg","pricing_plan_id":"cebpf4jnsgd1na2vs0mg"},{"bike_id":"5f7722c8-e5e6-4dbd-b844-991a7c2ad47c","system_id":"levelo_inurba_marseille","lat":43.28447,"lon":5.359,"is_reserved":false,"is_disabled":false,"rental_uris":{"android":"levelo://app?vid=5f7722c8-e5e6-4dbd-b844-991a7c2ad47c","ios":"levelo://app?vid=5f7722c8-e5e6-4dbd-b844-991a7c2ad47c"},"vehicle_type_id":"4","last_reported":1727730500,"current_range_meters":36400,"station_id":"ce4bhah2rcd13ifvqei0","pricing_plan_id":"cebpf4jnsgd1na2vs0mg"},{"bike_id":"3e38dcaf-b185-4e1f-a5ed-7ec2f7daa1c4","system_id":"levelo_inurba_marseille","lat":43.27812,"lon":5.40718,"is_reserved":false,"is_disabled":false,"rental_uris":{"android":"levelo://app?vid=3e38dcaf-b185-4e1f-a5ed-7ec2f7daa1c4","ios":"levelo://app?vid=3e38dcaf-b185-4e1f-a5ed-7ec2f7daa1c4"},"vehicle_type_id":"4","last_reported":1727730500,"current_range_meters":38800,"station_id":"ce4bhnh2rcd13ifvqgtg","pricing_plan_id":"cebpf4jnsgd1na2vs0mg"},{"bike_id":"5883fb2e-9417-4e48-94e2-bd48d12743c1","system_id":"levelo_inurba_marseille","lat":43.28706,"lon":5.37375,"is_reserved":false,"is_disabled":false,"rental_uris":{"android":"levelo://app?vid=5883fb2e-9417-4e48-94e2-bd48d12743c1","ios":"levelo://app?vid=5883fb2e-9417-4e48-94e2-bd48d12743c1"},"vehicle_type_id":"4","last_reported":1727730500,"current_range_meters":8000,"station_id":"ce4bh3p2rcd13ifvqdq0","pricing_plan_id":"cebpf4jnsgd1na2vs0mg"},{"bike_id":"2a3b116a-1622-41fb-9e3b-9700b558192d","system_id":"levelo_inurba_marseille","lat":43.28015,"lon":5.3609,"is_reserved":false,"is_disabled":false,"rental_uris":{"android":"levelo://app?vid=2a3b116a-1622-41fb-9e3b-9700b558192d","ios":"levelo://app?vid=2a3b116a-1622-41fb-9e3b-9700b558192d"},"vehicle_type_id":"4","last_reported":1727730500,"current_range_meters":16800,"station_id":"","pricing_plan_id":"cebpf4jnsgd1na2vs0mg"},{"bike_id":"961b57d5-ac43-4638-9217-7a2a3548a865","system_id":"levelo_inurba_marseille","lat":43.30959,"lon":5.39042,"is_reserved":false,"is_disabled":false,"rental_uris":{"android":"levelo://app?vid=961b57d5-ac43-4638-9217-7a2a3548a865","ios":"levelo://app?vid=961b57d5-ac43-4638-9217-7a2a3548a865"},"vehicle_type_id":"4","last_reported":1727730500,"current_range_meters":36800,"station_id":"ce4bgup2rcd13ifvqco0","pricing_plan_id":"cebpf4jnsgd1na2vs0mg"},{"bike_id":"c6310a53-842c-4c40-97d7-b8b3158dce16","system_id":"levelo_inurba_marseille","lat":43.31064,"lon":5.38351,"is_reserved":false,"is_disabled":false,"rental_uris":{"android":"levelo://app?vid=c6310a53-842c-4c40-97d7-b8b3158dce16","ios":"levelo://app?vid=c6310a53-842c-4c40-97d7-b8b3158dce16"},"vehicle_type_id":"4","last_reported":1727730500,"current_range_meters":24000,"station_id":"ce4bgv92rcd13ifvqcr0","pricing_plan_id":"cebpf4jnsgd1na2vs0mg"},{"bike_id":"4f06ead8-fca4-4dd6-a4e5-5ed87e045694","system_id":"levelo_inurba_marseille","lat":43.2572,"lon":5.41116,"is_reserved":false,"is_disabled":false,"rental_uris":{"android":"levelo://app?vid=4f06ead8-fca4-4dd6-a4e5-5ed87e045694","ios":"levelo://app?vid=4f06ead8-fca4-4dd6-a4e5-5ed87e045694"},"vehicle_type_id":"4","last_reported":1727730500,"current_range_meters":28800,"station_id":"ce4bhkp2rcd13ifvqgd0","pricing_plan_id":"cebpf4jnsgd1na2vs0mg"},{"bike_id":"b50d61d5-c95c-40de-8142-c1434ce0b3ec","system_id":"levelo_inurba_marseille","lat":43.2988,"lon":5.39739,"is_reserved":false,"is_disabled":false,"rental_uris":{"android":"levelo://app?vid=b50d61d5-c95c-40de-8142-c1434ce0b3ec","ios":"levelo://app?vid=b50d61d5-c95c-40de-8142-c1434ce0b3ec"},"vehicle_type_id":"4","last_reported":1727730500,"current_range_meters":31200,"station_id":"ce4bh0h2rcd13ifvqd50","pricing_plan_id":"cebpf4jnsgd1na2vs0mg"},{"bike_id":"19b77315-a57d-4b61-ac9a-719798519b19","system_id":"levelo_inurba_marseille","lat":43.30291,"lon":5.39201,"is_reserved":false,"is_disabled":false,"rental_uris":{"android":"levelo://app?vid=19b77315-a57d-4b61-ac9a-719798519b19","ios":"levelo://app?vid=19b77315-a57d-4b61-ac9a-719798519b19"},"vehicle_type_id":"4","last_reported":1727730500,"current_range_meters":38800,"station_id":"ce4bgkh2rcd13ifvqbk0","pricing_plan_id":"cebpf4jnsgd1na2vs0mg"},{"bike_id":"42f236e7-a370-4e2a-8144-184c4e55d3b5","system_id":"levelo_inurba_marseille","lat":43.28663,"lon":5.36359,"is_reserved":false,"is_disabled":false,"rental_uris":{"android":"levelo://app?vid=42f236e7-a370-4e2a-8144-184c4e55d3b5","ios":"levelo://app?vid=42f236e7-a370-4e2a-8144-184c4e55d3b5"},"vehicle_type_id":"4","last_reported":1727730500,"current_range_meters":13600,"station_id":"ce4bhah2rcd13ifvqej0","pricing_plan_id":"cebpf4jnsgd1na2vs0mg"},{"bike_id":"3a2a10a5-6b1f-4bb7-9e95-436e732a6364","system_id":"levelo_inurba_marseille","lat":43.31882,"lon":5.40736,"is_reserved":false,"is_disabled":false,"rental_uris":{"android":"levelo://app?vid=3a2a10a5-6b1f-4bb7-9e95-436e732a6364","ios":"levelo://app?vid=3a2a10a5-6b1f-4bb7-9e95-436e732a6364"},"vehicle_type_id":"4","last_reported":1727730500,"current_range_meters":38800,"station_id":"ce4bhq12rcd13ifvqhig","pricing_plan_id":"cebpf4jnsgd1na2vs0mg"},{"bike_id":"6fd4fe66-0c29-4c23-a8bc-4dd99e44ea36","system_id":"levelo_inurba_marseille","lat":43.28413,"lon":5.37522,"is_reserved":false,"is_disabled":false,"rental_uris":{"android":"levelo://app?vid=6fd4fe66-0c29-4c23-a8bc-4dd99e44ea36","ios":"levelo://app?vid=6fd4fe66-0c29-4c23-a8bc-4dd99e44ea36"},"vehicle_type_id":"4","last_reported":1727730500,"current_range_meters":5600,"station_id":"ce4bh412rcd13ifvqds0","pricing_plan_id":"cebpf4jnsgd1na2vs0mg"},{"bike_id":"9fc0059e-c96e-482f-b5a5-911df430f0c1","system_id":"levelo_inurba_marseille","lat":43.25084,"lon":5.39525,"is_reserved":false,"is_disabled":false,"rental_uris":{"android":"levelo://app?vid=9fc0059e-c96e-482f-b5a5-911df430f0c1","ios":"levelo://app?vid=9fc0059e-c96e-482f-b5a5-911df430f0c1"},"vehicle_type_id":"4","last_reported":1727730500,"current_range_meters":23200,"station_id":"ce4bhm12rcd13ifvqgkg","pricing_plan_id":"cebpf4jnsgd1na2vs0mg"},{"bike_id":"f6005f79-8ab7-4000-9d10-147791cdc683","system_id":"levelo_inurba_marseille","lat":43.24391,"lon":5.37062,"is_reserved":false,"is_disabled":false,"rental_uris":{"android":"levelo://app?vid=f6005f79-8ab7-4000-9d10-147791cdc683","ios":"levelo://app?vid=f6005f79-8ab7-4000-9d10-147791cdc683"},"vehicle_type_id":"4","last_reported":1727730500,"current_range_meters":38800,"station_id":"ce4bhhh2rcd13ifvqfk0","pricing_plan_id":"cebpf4jnsgd1na2vs0mg"},{"bike_id":"fd582551-3059-4b96-b662-c8ffde0eef18","system_id":"levelo_inurba_marseille","lat":43.30929,"lon":5.40137,"is_reserved":false,"is_disabled":false,"rental_uris":{"android":"levelo://app?vid=fd582551-3059-4b96-b662-c8ffde0eef18","ios":"levelo://app?vid=fd582551-3059-4b96-b662-c8ffde0eef18"},"vehicle_type_id":"4","last_reported":1727730500,"current_range_meters":14000,"station_id":"ce4bgvp2rcd13ifvqct0","pricing_plan_id":"cebpf4jnsgd1na2vs0mg"},{"bike_id":"6b183cd8-2f6b-485a-b86b-7ee498d9e2cc","system_id":"levelo_inurba_marseille","lat":43.27494,"lon":5.42449,"is_reserved":false,"is_disabled":false,"rental_uris":{"android":"levelo://app?vid=6b183cd8-2f6b-485a-b86b-7ee498d9e2cc","ios":"levelo://app?vid=6b183cd8-2f6b-485a-b86b-7ee498d9e2cc"},"vehicle_type_id":"4","last_reported":1727730500,"current_range_meters":13600,"station_id":"ce4bhn92rcd13ifvqgrg","pricing_plan_id":"cebpf4jnsgd1na2vs0mg"},{"bike_id":"331bf754-18c5-49b3-a53c-f5ee9aaecd7b","system_id":"levelo_inurba_marseille","lat":43.31486,"lon":5.373,"is_reserved":false,"is_disabled":false,"rental_uris":{"android":"levelo://app?vid=331bf754-18c5-49b3-a53c-f5ee9aaecd7b","ios":"levelo://app?vid=331bf754-18c5-49b3-a53c-f5ee9aaecd7b"},"vehicle_type_id":"4","last_reported":1727730500,"current_range_meters":38800,"station_id":"ce4bgt12rcd13ifvqcd0","pricing_plan_id":"cebpf4jnsgd1na2vs0mg"},{"bike_id":"ac066f27-895d-417a-b557-bc08bf23f951","system_id":"levelo_inurba_marseille","lat":43.24405,"lon":5.3706,"is_reserved":false,"is_disabled":false,"rental_uris":{"android":"levelo://app?vid=ac066f27-895d-417a-b557-bc08bf23f951","ios":"levelo://app?vid=ac066f27-895d-417a-b557-bc08bf23f951"},"vehicle_type_id":"4","last_reported":1727730500,"current_range_meters":38800,"station_id":"ce4bhhh2rcd13ifvqfk0","pricing_plan_id":"cebpf4jnsgd1na2vs0mg"},{"bike_id":"4af23175-3cc8-4f7a-808d-7a29f00ac751","system_id":"levelo_inurba_marseille","lat":43.2898,"lon":5.37826,"is_reserved":false,"is_disabled":false,"rental_uris":{"android":"levelo://app?vid=4af23175-3cc8-4f7a-808d-7a29f00ac751","ios":"levelo://app?vid=4af23175-3cc8-4f7a-808d-7a29f00ac751"},"vehicle_type_id":"4","last_reported":1727730500,"current_range_meters":39200,"station_id":"ce4bh9p2rcd13ifvqed0","pricing_plan_id":"cebpf4jnsgd1na2vs0mg"},{"bike_id":"5da57b22-3ba2-4b50-a433-4bb78b8882bb","system_id":"levelo_inurba_marseille","lat":43.29039,"lon":5.35908,"is_reserved":false,"is_disabled":false,"rental_uris":{"android":"levelo://app?vid=5da57b22-3ba2-4b50-a433-4bb78b8882bb","ios":"levelo://app?vid=5da57b22-3ba2-4b50-a433-4bb78b8882bb"},"vehicle_type_id":"4","last_reported":1727730500,"current_range_meters":29600,"station_id":"ce4bha92rcd13ifvqeg0","pricing_plan_id":"cebpf4jnsgd1na2vs0mg"},{"bike_id":"d106df73-0f94-4ce9-b9fe-3f7e7fa30584","system_id":"levelo_inurba_marseille","lat":43.29516,"lon":5.39401,"is_reserved":false,"is_disabled":false,"rental_uris":{"android":"levelo://app?vid=d106df73-0f94-4ce9-b9fe-3f7e7fa30584","ios":"levelo://app?vid=d106df73-0f94-4ce9-b9fe-3f7e7fa30584"},"vehicle_type_id":"4","last_reported":1727730500,"current_range_meters":16400,"station_id":"ce4bh292rcd13ifvqdf0","pricing_plan_id":"cebpf4jnsgd1na2vs0mg"},{"bike_id":"7a284d2e-891e-4934-a2d8-35ead42df942","system_id":"levelo_inurba_marseille","lat":43.32314,"lon":5.38281,"is_reserved":false,"is_disabled":false,"rental_uris":{"android":"levelo://app?vid=7a284d2e-891e-4934-a2d8-35ead42df942","ios":"levelo://app?vid=7a284d2e-891e-4934-a2d8-35ead42df942"},"vehicle_type_id":"4","last_reported":1727730500,"current_range_meters":32000,"station_id":"ce4bhr12rcd13ifvqhqg","pricing_plan_id":"cebpf4jnsgd1na2vs0mg"},{"bike_id":"4bcd84f9-a432-408b-a049-9eaf36d9e249","system_id":"levelo_inurba_marseille","lat":43.2586,"lon":5.39904,"is_reserved":false,"is_disabled":false,"rental_uris":{"android":"levelo://app?vid=4bcd84f9-a432-408b-a049-9eaf36d9e249","ios":"levelo://app?vid=4bcd84f9-a432-408b-a049-9eaf36d9e249"},"vehicle_type_id":"4","last_reported":1727730500,"current_range_meters":24800,"station_id":"ce4bhl92rcd13ifvqghg","pricing_plan_id":"cebpf4jnsgd1na2vs0mg"},{"bike_id":"22e65e0a-096d-4887-a119-61dcd48b6861","system_id":"levelo_inurba_marseille","lat":43.32476,"lon":5.36572,"is_reserved":false,"is_disabled":false,"rental_uris":{"android":"levelo://app?vid=22e65e0a-096d-4887-a119-61dcd48b6861","ios":"levelo://app?vid=22e65e0a-096d-4887-a119-61dcd48b6861"},"vehicle_type_id":"4","last_reported":1727730500,"current_range_meters":38800,"station_id":"ce4bhs12rcd13ifvqhvg","pricing_plan_id":"cebpf4jnsgd1na2vs0mg"},{"bike_id":"be5c1af7-fb3a-4132-b59e-f330cb06ffdb","system_id":"levelo_inurba_marseille","lat":43.29791,"lon":5.39353,"is_reserved":false,"is_disabled":false,"rental_uris":{"android":"levelo://app?vid=be5c1af7-fb3a-4132-b59e-f330cb06ffdb","ios":"levelo://app?vid=be5c1af7-fb3a-4132-b59e-f330cb06ffdb"},"vehicle_type_id":"4","last_reported":1727730500,"current_range_meters":33200,"station_id":"chh1huq6cuj3fo74tm60","pricing_plan_id":"cebpf4jnsgd1na2vs0mg"},{"bike_id":"11633c0e-1ace-404f-89ee-7d8e42bb4dfa","system_id":"levelo_inurba_marseille","lat":43.290786,"lon":5.371719,"is_reserved":false,"is_disabled":false,"rental_uris":{"android":"levelo://app?vid=11633c0e-1ace-404f-89ee-7d8e42bb4dfa","ios":"levelo://app?vid=11633c0e-1ace-404f-89ee-7d8e42bb4dfa"},"vehicle_type_id":"4","last_reported":1727730500,"current_range_meters":34000,"station_id":"ce4bh112rcd13ifvqd90","pricing_plan_id":"cebpf4jnsgd1na2vs0mg"},{"bike_id":"fe5454b1-a52f-4f6c-9287-e09a12de6e53","system_id":"levelo_inurba_marseille","lat":43.24803,"lon":5.37453,"is_reserved":false,"is_disabled":false,"rental_uris":{"android":"levelo://app?vid=fe5454b1-a52f-4f6c-9287-e09a12de6e53","ios":"levelo://app?vid=fe5454b1-a52f-4f6c-9287-e09a12de6e53"},"vehicle_type_id":"4","last_reported":1727730500,"current_range_meters":39200,"station_id":"ce4bhgh2rcd13ifvqfb0","pricing_plan_id":"cebpf4jnsgd1na2vs0mg"},{"bike_id":"4c7e3c0d-4983-42af-ba97-4d8f2a1c7ae5","system_id":"levelo_inurba_marseille","lat":43.31994,"lon":5.38155,"is_reserved":false,"is_disabled":false,"rental_uris":{"android":"levelo://app?vid=4c7e3c0d-4983-42af-ba97-4d8f2a1c7ae5","ios":"levelo://app?vid=4c7e3c0d-4983-42af-ba97-4d8f2a1c7ae5"},"vehicle_type_id":"4","last_reported":1727730500,"current_range_meters":39200,"station_id":"ce4bhr12rcd13ifvqhpg","pricing_plan_id":"cebpf4jnsgd1na2vs0mg"},{"bike_id":"f3796b83-d0ff-4e28-ab91-f20a8aacf6fc","system_id":"levelo_inurba_marseille","lat":43.28726,"lon":5.36099,"is_reserved":false,"is_disabled":false,"rental_uris":{"android":"levelo://app?vid=f3796b83-d0ff-4e28-ab91-f20a8aacf6fc","ios":"levelo://app?vid=f3796b83-d0ff-4e28-ab91-f20a8aacf6fc"},"vehicle_type_id":"4","last_reported":1727730500,"current_range_meters":38000,"station_id":"cki0cbj6b192h4jlfktg","pricing_plan_id":"cebpf4jnsgd1na2vs0mg"},{"bike_id":"1a4763a4-3eac-445e-80d7-f51ca0928a5d","system_id":"levelo_inurba_marseille","lat":43.29555,"lon":5.42283,"is_reserved":false,"is_disabled":false,"rental_uris":{"android":"levelo://app?vid=1a4763a4-3eac-445e-80d7-f51ca0928a5d","ios":"levelo://app?vid=1a4763a4-3eac-445e-80d7-f51ca0928a5d"},"vehicle_type_id":"4","last_reported":1727730500,"current_range_meters":4400,"station_id":"ce4bhph2rcd13ifvqhdg","pricing_plan_id":"cebpf4jnsgd1na2vs0mg"},{"bike_id":"5dbf8eb5-61aa-4f3c-ae3e-9d25cdeafbe1","system_id":"levelo_inurba_marseille","lat":43.31995,"lon":5.38156,"is_reserved":false,"is_disabled":false,"rental_uris":{"android":"levelo://app?vid=5dbf8eb5-61aa-4f3c-ae3e-9d25cdeafbe1","ios":"levelo://app?vid=5dbf8eb5-61aa-4f3c-ae3e-9d25cdeafbe1"},"vehicle_type_id":"4","last_reported":1727730500,"current_range_meters":8400,"station_id":"ce4bhr12rcd13ifvqhpg","pricing_plan_id":"cebpf4jnsgd1na2vs0mg"},{"bike_id":"7ee4aaa0-1dc7-42f7-b8f0-fe59d387c7cf","system_id":"levelo_inurba_marseille","lat":43.28714,"lon":5.3792,"is_reserved":false,"is_disabled":false,"rental_uris":{"android":"levelo://app?vid=7ee4aaa0-1dc7-42f7-b8f0-fe59d387c7cf","ios":"levelo://app?vid=7ee4aaa0-1dc7-42f7-b8f0-fe59d387c7cf"},"vehicle_type_id":"4","last_reported":1727730500,"current_range_meters":17200,"station_id":"ce4bh9p2rcd13ifvqec0","pricing_plan_id":"cebpf4jnsgd1na2vs0mg"},{"bike_id":"ada71883-4a66-4523-b9de-ac95acea5059","system_id":"levelo_inurba_marseille","lat":43.30805,"lon":5.43523,"is_reserved":false,"is_disabled":false,"rental_uris":{"android":"levelo://app?vid=ada71883-4a66-4523-b9de-ac95acea5059","ios":"levelo://app?vid=ada71883-4a66-4523-b9de-ac95acea5059"},"vehicle_type_id":"4","last_reported":1727730500,"current_range_meters":38000,"station_id":"ce4bhph2rcd13ifvqheg","pricing_plan_id":"cebpf4jnsgd1na2vs0mg"},{"bike_id":"1b2f79a4-61c7-449e-90ee-62f41ab15549","system_id":"levelo_inurba_marseille","lat":43.30419,"lon":5.39745,"is_reserved":false,"is_disabled":false,"rental_uris":{"android":"levelo://app?vid=1b2f79a4-61c7-449e-90ee-62f41ab15549","ios":"levelo://app?vid=1b2f79a4-61c7-449e-90ee-62f41ab15549"},"vehicle_type_id":"4","last_reported":1727730500,"current_range_meters":36800,"station_id":"ce4bh092rcd13ifvqd20","pricing_plan_id":"cebpf4jnsgd1na2vs0mg"},{"bike_id":"9b1afa6d-2cb7-403a-9a75-1254cbbd1bdf","system_id":"levelo_inurba_marseille","lat":43.2816,"lon":5.42643,"is_reserved":false,"is_disabled":false,"rental_uris":{"android":"levelo://app?vid=9b1afa6d-2cb7-403a-9a75-1254cbbd1bdf","ios":"levelo://app?vid=9b1afa6d-2cb7-403a-9a75-1254cbbd1bdf"},"vehicle_type_id":"4","last_reported":1727730500,"current_range_meters":38800,"station_id":"ce4bhnh2rcd13ifvqgug","pricing_plan_id":"cebpf4jnsgd1na2vs0mg"},{"bike_id":"3cdc0ce6-a94e-430f-910b-7fcbb8381ff0","system_id":"levelo_inurba_marseille","lat":43.30783,"lon":5.37637,"is_reserved":false,"is_disabled":false,"rental_uris":{"android":"levelo://app?vid=3cdc0ce6-a94e-430f-910b-7fcbb8381ff0","ios":"levelo://app?vid=3cdc0ce6-a94e-430f-910b-7fcbb8381ff0"},"vehicle_type_id":"4","last_reported":1727730500,"current_range_meters":37600,"station_id":"ce4bgv92rcd13ifvqcq0","pricing_plan_id":"cebpf4jnsgd1na2vs0mg"},{"bike_id":"5d34d44a-5657-4046-9997-746fa7323ea5","system_id":"levelo_inurba_marseille","lat":43.32546,"lon":5.41415,"is_reserved":false,"is_disabled":false,"rental_uris":{"android":"levelo://app?vid=5d34d44a-5657-4046-9997-746fa7323ea5","ios":"levelo://app?vid=5d34d44a-5657-4046-9997-746fa7323ea5"},"vehicle_type_id":"4","last_reported":1727730500,"current_range_meters":38800,"station_id":"ce4bhq12rcd13ifvqhhg","pricing_plan_id":"cebpf4jnsgd1na2vs0mg"},{"bike_id":"d4a200a5-71be-4e4f-996b-05c824b6ae83","system_id":"levelo_inurba_marseille","lat":43.28721,"lon":5.36086,"is_reserved":false,"is_disabled":false,"rental_uris":{"android":"levelo://app?vid=d4a200a5-71be-4e4f-996b-05c824b6ae83","ios":"levelo://app?vid=d4a200a5-71be-4e4f-996b-05c824b6ae83"},"vehicle_type_id":"4","last_reported":1727730500,"current_range_meters":18800,"station_id":"cki0cbj6b192h4jlfktg","pricing_plan_id":"cebpf4jnsgd1na2vs0mg"},{"bike_id":"0025408f-f6c1-481f-9d54-9a4f4861dd4c","system_id":"levelo_inurba_marseille","lat":43.31273,"lon":5.40164,"is_reserved":false,"is_disabled":false,"rental_uris":{"android":"levelo://app?vid=0025408f-f6c1-481f-9d54-9a4f4861dd4c","ios":"levelo://app?vid=0025408f-f6c1-481f-9d54-9a4f4861dd4c"},"vehicle_type_id":"4","last_reported":1727730500,"current_range_meters":7200,"station_id":"ce4bh092rcd13ifvqd30","pricing_plan_id":"cebpf4jnsgd1na2vs0mg"},{"bike_id":"95233c5f-f9ca-484b-86fa-16a68e32bc0a","system_id":"levelo_inurba_marseille","lat":43.30418,"lon":5.39752,"is_reserved":false,"is_disabled":false,"rental_uris":{"android":"levelo://app?vid=95233c5f-f9ca-484b-86fa-16a68e32bc0a","ios":"levelo://app?vid=95233c5f-f9ca-484b-86fa-16a68e32bc0a"},"vehicle_type_id":"4","last_reported":1727730500,"current_range_meters":29600,"station_id":"ce4bh092rcd13ifvqd20","pricing_plan_id":"cebpf4jnsgd1na2vs0mg"},{"bike_id":"d00a5b9e-d35b-426c-8131-b2e47d66c79e","system_id":"levelo_inurba_marseille","lat":43.24998,"lon":5.38928,"is_reserved":false,"is_disabled":false,"rental_uris":{"android":"levelo://app?vid=d00a5b9e-d35b-426c-8131-b2e47d66c79e","ios":"levelo://app?vid=d00a5b9e-d35b-426c-8131-b2e47d66c79e"},"vehicle_type_id":"4","last_reported":1727730500,"current_range_meters":3600,"station_id":"ce4bhgp2rcd13ifvqfd0","pricing_plan_id":"cebpf4jnsgd1na2vs0mg"},{"bike_id":"22150744-0899-4512-ab0e-287cb93d01c5","system_id":"levelo_inurba_marseille","lat":43.286676,"lon":5.386727,"is_reserved":false,"is_disabled":false,"rental_uris":{"android":"levelo://app?vid=22150744-0899-4512-ab0e-287cb93d01c5","ios":"levelo://app?vid=22150744-0899-4512-ab0e-287cb93d01c5"},"vehicle_type_id":"4","last_reported":1727730500,"current_range_meters":9200,"station_id":"ce4bh492rcd13ifvqdug","pricing_plan_id":"cebpf4jnsgd1na2vs0mg"},{"bike_id":"b321c814-b7cc-47f2-bb19-4ccdec3a6627","system_id":"levelo_inurba_marseille","lat":43.26558,"lon":5.39007,"is_reserved":false,"is_disabled":false,"rental_uris":{"android":"levelo://app?vid=b321c814-b7cc-47f2-bb19-4ccdec3a6627","ios":"levelo://app?vid=b321c814-b7cc-47f2-bb19-4ccdec3a6627"},"vehicle_type_id":"4","last_reported":1727730500,"current_range_meters":38800,"station_id":"ce4bhe12rcd13ifvqf30","pricing_plan_id":"cebpf4jnsgd1na2vs0mg"},{"bike_id":"2a57891e-38a9-487a-8477-b737cb35bb34","system_id":"levelo_inurba_marseille","lat":43.30936,"lon":5.40148,"is_reserved":false,"is_disabled":false,"rental_uris":{"android":"levelo://app?vid=2a57891e-38a9-487a-8477-b737cb35bb34","ios":"levelo://app?vid=2a57891e-38a9-487a-8477-b737cb35bb34"},"vehicle_type_id":"4","last_reported":1727730500,"current_range_meters":38800,"station_id":"ce4bgvp2rcd13ifvqct0","pricing_plan_id":"cebpf4jnsgd1na2vs0mg"},{"bike_id":"0768601a-63fc-48b6-af0b-e3c24f752213","system_id":"levelo_inurba_marseille","lat":43.33721,"lon":5.39176,"is_reserved":false,"is_disabled":false,"rental_uris":{"android":"levelo://app?vid=0768601a-63fc-48b6-af0b-e3c24f752213","ios":"levelo://app?vid=0768601a-63fc-48b6-af0b-e3c24f752213"},"vehicle_type_id":"4","last_reported":1727730500,"current_range_meters":10000,"station_id":"ce4bhr92rcd13ifvqhsg","pricing_plan_id":"cebpf4jnsgd1na2vs0mg"},{"bike_id":"08800d38-f457-4b42-8a9b-f297ac6dec0c","system_id":"levelo_inurba_marseille","lat":43.29027,"lon":5.38655,"is_reserved":false,"is_disabled":false,"rental_uris":{"android":"levelo://app?vid=08800d38-f457-4b42-8a9b-f297ac6dec0c","ios":"levelo://app?vid=08800d38-f457-4b42-8a9b-f297ac6dec0c"},"vehicle_type_id":"4","last_reported":1727730500,"current_range_meters":38800,"station_id":"ce4bh4p2rcd13ifvqe0g","pricing_plan_id":"cebpf4jnsgd1na2vs0mg"},{"bike_id":"618db686-91bb-4b32-9421-264f1a14d91b","system_id":"levelo_inurba_marseille","lat":43.28571,"lon":5.39498,"is_reserved":false,"is_disabled":false,"rental_uris":{"android":"levelo://app?vid=618db686-91bb-4b32-9421-264f1a14d91b","ios":"levelo://app?vid=618db686-91bb-4b32-9421-264f1a14d91b"},"vehicle_type_id":"4","last_reported":1727730500,"current_range_meters":7200,"station_id":"ce4bh292rcd13ifvqdg0","pricing_plan_id":"cebpf4jnsgd1na2vs0mg"},{"bike_id":"847f88c4-d44a-4f8f-b26a-e93b93fedb5c","system_id":"levelo_inurba_marseille","lat":43.31267,"lon":5.40166,"is_reserved":false,"is_disabled":false,"rental_uris":{"android":"levelo://app?vid=847f88c4-d44a-4f8f-b26a-e93b93fedb5c","ios":"levelo://app?vid=847f88c4-d44a-4f8f-b26a-e93b93fedb5c"},"vehicle_type_id":"4","last_reported":1727730500,"current_range_meters":38800,"station_id":"ce4bh092rcd13ifvqd30","pricing_plan_id":"cebpf4jnsgd1na2vs0mg"},{"bike_id":"c7c8be41-8ab6-4808-a6c3-69923c56de0d","system_id":"levelo_inurba_marseille","lat":43.286157,"lon":5.351018,"is_reserved":false,"is_disabled":false,"rental_uris":{"android":"levelo://app?vid=c7c8be41-8ab6-4808-a6c3-69923c56de0d","ios":"levelo://app?vid=c7c8be41-8ab6-4808-a6c3-69923c56de0d"},"vehicle_type_id":"4","last_reported":1727730500,"current_range_meters":30800,"station_id":"ce4bgv92rcd13ifvqcq0","pricing_plan_id":"cebpf4jnsgd1na2vs0mg"},{"bike_id":"e2daef4f-c38f-4a92-bfd2-cae3d37e0507","system_id":"levelo_inurba_marseille","lat":43.30943,"lon":5.39028,"is_reserved":false,"is_disabled":false,"rental_uris":{"android":"levelo://app?vid=e2daef4f-c38f-4a92-bfd2-cae3d37e0507","ios":"levelo://app?vid=e2daef4f-c38f-4a92-bfd2-cae3d37e0507"},"vehicle_type_id":"4","last_reported":1727730500,"current_range_meters":17600,"station_id":"ce4bgup2rcd13ifvqco0","pricing_plan_id":"cebpf4jnsgd1na2vs0mg"},{"bike_id":"b4a0b82e-1fcf-4557-aa67-bf49d229c3b0","system_id":"levelo_inurba_marseille","lat":43.3291,"lon":5.39078,"is_reserved":false,"is_disabled":false,"rental_uris":{"android":"levelo://app?vid=b4a0b82e-1fcf-4557-aa67-bf49d229c3b0","ios":"levelo://app?vid=b4a0b82e-1fcf-4557-aa67-bf49d229c3b0"},"vehicle_type_id":"4","last_reported":1727730500,"current_range_meters":30800,"station_id":"","pricing_plan_id":"cebpf4jnsgd1na2vs0mg"},{"bike_id":"13587c8a-3c8f-4bd3-8dc8-54f38cea3fb8","system_id":"levelo_inurba_marseille","lat":43.25503,"lon":5.37651,"is_reserved":false,"is_disabled":false,"rental_uris":{"android":"levelo://app?vid=13587c8a-3c8f-4bd3-8dc8-54f38cea3fb8","ios":"levelo://app?vid=13587c8a-3c8f-4bd3-8dc8-54f38cea3fb8"},"vehicle_type_id":"4","last_reported":1727730500,"current_range_meters":6800,"station_id":"ce4bhh12rcd13ifvqff0","pricing_plan_id":"cebpf4jnsgd1na2vs0mg"},{"bike_id":"6f530cf5-40ba-41ae-9a8a-d67a472e11ad","system_id":"levelo_inurba_marseille","lat":43.27179,"lon":5.40998,"is_reserved":false,"is_disabled":false,"rental_uris":{"android":"levelo://app?vid=6f530cf5-40ba-41ae-9a8a-d67a472e11ad","ios":"levelo://app?vid=6f530cf5-40ba-41ae-9a8a-d67a472e11ad"},"vehicle_type_id":"4","last_reported":1727730500,"current_range_meters":38000,"station_id":"ce4bhl12rcd13ifvqgf0","pricing_plan_id":"cebpf4jnsgd1na2vs0mg"},{"bike_id":"3b9ea6c8-8280-42bb-abdb-6586a6424527","system_id":"levelo_inurba_marseille","lat":43.2511,"lon":5.40316,"is_reserved":false,"is_disabled":false,"rental_uris":{"android":"levelo://app?vid=3b9ea6c8-8280-42bb-abdb-6586a6424527","ios":"levelo://app?vid=3b9ea6c8-8280-42bb-abdb-6586a6424527"},"vehicle_type_id":"4","last_reported":1727730500,"current_range_meters":31200,"station_id":"ce4bhlh2rcd13ifvqgig","pricing_plan_id":"cebpf4jnsgd1na2vs0mg"},{"bike_id":"ea86d9aa-3025-4e42-a879-d59d63acfa56","system_id":"levelo_inurba_marseille","lat":43.32369,"lon":5.38883,"is_reserved":false,"is_disabled":false,"rental_uris":{"android":"levelo://app?vid=ea86d9aa-3025-4e42-a879-d59d63acfa56","ios":"levelo://app?vid=ea86d9aa-3025-4e42-a879-d59d63acfa56"},"vehicle_type_id":"4","last_reported":1727730500,"current_range_meters":38800,"station_id":"ce4bhqp2rcd13ifvqhog","pricing_plan_id":"cebpf4jnsgd1na2vs0mg"},{"bike_id":"553635ae-e203-496f-bbf7-12db5d8edbec","system_id":"levelo_inurba_marseille","lat":43.28423,"lon":5.34986,"is_reserved":false,"is_disabled":false,"rental_uris":{"android":"levelo://app?vid=553635ae-e203-496f-bbf7-12db5d8edbec","ios":"levelo://app?vid=553635ae-e203-496f-bbf7-12db5d8edbec"},"vehicle_type_id":"4","last_reported":1727730500,"current_range_meters":33600,"station_id":"ce4bhbh2rcd13ifvqepg","pricing_plan_id":"cebpf4jnsgd1na2vs0mg"},{"bike_id":"fd3d4aeb-070c-417a-9d53-991cbf630224","system_id":"levelo_inurba_marseille","lat":43.28979,"lon":5.37832,"is_reserved":false,"is_disabled":false,"rental_uris":{"android":"levelo://app?vid=fd3d4aeb-070c-417a-9d53-991cbf630224","ios":"levelo://app?vid=fd3d4aeb-070c-417a-9d53-991cbf630224"},"vehicle_type_id":"4","last_reported":1727730500,"current_range_meters":38800,"station_id":"ce4bh9p2rcd13ifvqed0","pricing_plan_id":"cebpf4jnsgd1na2vs0mg"},{"bike_id":"252eed4b-d9b5-40ca-a9a7-2425c5c96f31","system_id":"levelo_inurba_marseille","lat":43.28458,"lon":5.35893,"is_reserved":false,"is_disabled":false,"rental_uris":{"android":"levelo://app?vid=252eed4b-d9b5-40ca-a9a7-2425c5c96f31","ios":"levelo://app?vid=252eed4b-d9b5-40ca-a9a7-2425c5c96f31"},"vehicle_type_id":"4","last_reported":1727730500,"current_range_meters":38800,"station_id":"ce4bhah2rcd13ifvqei0","pricing_plan_id":"cebpf4jnsgd1na2vs0mg"},{"bike_id":"8ea13cde-51fb-4987-8fdb-e7aea384b773","system_id":"levelo_inurba_marseille","lat":43.3171,"lon":5.43711,"is_reserved":false,"is_disabled":false,"rental_uris":{"android":"levelo://app?vid=8ea13cde-51fb-4987-8fdb-e7aea384b773","ios":"levelo://app?vid=8ea13cde-51fb-4987-8fdb-e7aea384b773"},"vehicle_type_id":"4","last_reported":1727730500,"current_range_meters":22400,"station_id":"ce4bhp92rcd13ifvqhcg","pricing_plan_id":"cebpf4jnsgd1na2vs0mg"},{"bike_id":"66941ab8-8ca7-4413-bae4-0b9340056121","system_id":"levelo_inurba_marseille","lat":43.28349,"lon":5.38099,"is_reserved":false,"is_disabled":false,"rental_uris":{"android":"levelo://app?vid=66941ab8-8ca7-4413-bae4-0b9340056121","ios":"levelo://app?vid=66941ab8-8ca7-4413-bae4-0b9340056121"},"vehicle_type_id":"4","last_reported":1727730500,"current_range_meters":30000,"station_id":"ce4bh412rcd13ifvqdr0","pricing_plan_id":"cebpf4jnsgd1na2vs0mg"},{"bike_id":"dd126ad6-3005-4e97-ba0b-180dc274239b","system_id":"levelo_inurba_marseille","lat":43.28436,"lon":5.39188,"is_reserved":false,"is_disabled":false,"rental_uris":{"android":"levelo://app?vid=dd126ad6-3005-4e97-ba0b-180dc274239b","ios":"levelo://app?vid=dd126ad6-3005-4e97-ba0b-180dc274239b"},"vehicle_type_id":"4","last_reported":1727730500,"current_range_meters":34000,"station_id":"ce4bhoh2rcd13ifvqh5g","pricing_plan_id":"cebpf4jnsgd1na2vs0mg"},{"bike_id":"36e192f0-aa65-4c0c-b9da-eadca99f1bf9","system_id":"levelo_inurba_marseille","lat":43.2893,"lon":5.36402,"is_reserved":false,"is_disabled":false,"rental_uris":{"android":"levelo://app?vid=36e192f0-aa65-4c0c-b9da-eadca99f1bf9","ios":"levelo://app?vid=36e192f0-aa65-4c0c-b9da-eadca99f1bf9"},"vehicle_type_id":"4","last_reported":1727730500,"current_range_meters":29600,"station_id":"ce4bhc92rcd13ifvqetg","pricing_plan_id":"cebpf4jnsgd1na2vs0mg"},{"bike_id":"c003d568-5856-4726-b7bc-69c839a505b2","system_id":"levelo_inurba_marseille","lat":43.29516,"lon":5.39049,"is_reserved":false,"is_disabled":false,"rental_uris":{"android":"levelo://app?vid=c003d568-5856-4726-b7bc-69c839a505b2","ios":"levelo://app?vid=c003d568-5856-4726-b7bc-69c839a505b2"},"vehicle_type_id":"4","last_reported":1727730500,"current_range_meters":25200,"station_id":"ce4bh3p2rcd13ifvqdp0","pricing_plan_id":"cebpf4jnsgd1na2vs0mg"},{"bike_id":"7ca9a03e-5469-4981-b42c-d69f72ea598c","system_id":"levelo_inurba_marseille","lat":43.29782,"lon":5.39353,"is_reserved":false,"is_disabled":false,"rental_uris":{"android":"levelo://app?vid=7ca9a03e-5469-4981-b42c-d69f72ea598c","ios":"levelo://app?vid=7ca9a03e-5469-4981-b42c-d69f72ea598c"},"vehicle_type_id":"4","last_reported":1727730500,"current_range_meters":33200,"station_id":"chh1huq6cuj3fo74tm60","pricing_plan_id":"cebpf4jnsgd1na2vs0mg"},{"bike_id":"634ea072-51cb-416d-afd6-0d1b956f5964","system_id":"levelo_inurba_marseille","lat":43.26554,"lon":5.37283,"is_reserved":false,"is_disabled":false,"rental_uris":{"android":"levelo://app?vid=634ea072-51cb-416d-afd6-0d1b956f5964","ios":"levelo://app?vid=634ea072-51cb-416d-afd6-0d1b956f5964"},"vehicle_type_id":"4","last_reported":1727730500,"current_range_meters":38800,"station_id":"ce4bhg12rcd13ifvqf70","pricing_plan_id":"cebpf4jnsgd1na2vs0mg"},{"bike_id":"0c273724-94b8-41b2-89ed-ccb2c19aea09","system_id":"levelo_inurba_marseille","lat":43.27836,"lon":5.39204,"is_reserved":false,"is_disabled":false,"rental_uris":{"android":"levelo://app?vid=0c273724-94b8-41b2-89ed-ccb2c19aea09","ios":"levelo://app?vid=0c273724-94b8-41b2-89ed-ccb2c19aea09"},"vehicle_type_id":"4","last_reported":1727730500,"current_range_meters":19600,"station_id":"ce4bhjp2rcd13ifvqga0","pricing_plan_id":"cebpf4jnsgd1na2vs0mg"},{"bike_id":"b5d12c42-07bc-4fb6-847a-db804002b50a","system_id":"levelo_inurba_marseille","lat":43.31272,"lon":5.40169,"is_reserved":false,"is_disabled":false,"rental_uris":{"android":"levelo://app?vid=b5d12c42-07bc-4fb6-847a-db804002b50a","ios":"levelo://app?vid=b5d12c42-07bc-4fb6-847a-db804002b50a"},"vehicle_type_id":"4","last_reported":1727730500,"current_range_meters":32800,"station_id":"ce4bh092rcd13ifvqd30","pricing_plan_id":"cebpf4jnsgd1na2vs0mg"},{"bike_id":"5e0ac19d-f167-483b-938a-772ef86e05c6","system_id":"levelo_inurba_marseille","lat":43.30441,"lon":5.40039,"is_reserved":false,"is_disabled":false,"rental_uris":{"android":"levelo://app?vid=5e0ac19d-f167-483b-938a-772ef86e05c6","ios":"levelo://app?vid=5e0ac19d-f167-483b-938a-772ef86e05c6"},"vehicle_type_id":"4","last_reported":1727730500,"current_range_meters":25200,"station_id":"ce4bh112rcd13ifvqda0","pricing_plan_id":"cebpf4jnsgd1na2vs0mg"},{"bike_id":"adf7a01d-ac11-418a-b84d-2fd8ee25364e","system_id":"levelo_inurba_marseille","lat":43.2925,"lon":5.40912,"is_reserved":false,"is_disabled":false,"rental_uris":{"android":"levelo://app?vid=adf7a01d-ac11-418a-b84d-2fd8ee25364e","ios":"levelo://app?vid=adf7a01d-ac11-418a-b84d-2fd8ee25364e"},"vehicle_type_id":"4","last_reported":1727730500,"current_range_meters":35200,"station_id":"ce4bh192rcd13ifvqdc0","pricing_plan_id":"cebpf4jnsgd1na2vs0mg"},{"bike_id":"ff3321d0-5940-42b8-9fd8-ad85ac490d4e","system_id":"levelo_inurba_marseille","lat":43.26563,"lon":5.37296,"is_reserved":false,"is_disabled":false,"rental_uris":{"android":"levelo://app?vid=ff3321d0-5940-42b8-9fd8-ad85ac490d4e","ios":"levelo://app?vid=ff3321d0-5940-42b8-9fd8-ad85ac490d4e"},"vehicle_type_id":"4","last_reported":1727730500,"current_range_meters":10000,"station_id":"ce4bhg12rcd13ifvqf70","pricing_plan_id":"cebpf4jnsgd1na2vs0mg"},{"bike_id":"e63cfab4-ae1f-48ea-8404-44e5ba3708f5","system_id":"levelo_inurba_marseille","lat":43.28565,"lon":5.39496,"is_reserved":false,"is_disabled":false,"rental_uris":{"android":"levelo://app?vid=e63cfab4-ae1f-48ea-8404-44e5ba3708f5","ios":"levelo://app?vid=e63cfab4-ae1f-48ea-8404-44e5ba3708f5"},"vehicle_type_id":"4","last_reported":1727730500,"current_range_meters":38000,"station_id":"ce4bh292rcd13ifvqdg0","pricing_plan_id":"cebpf4jnsgd1na2vs0mg"},{"bike_id":"0c5c1d49-6bc4-4aef-b7dc-fe96a79fb417","system_id":"levelo_inurba_marseille","lat":43.28462,"lon":5.35884,"is_reserved":false,"is_disabled":false,"rental_uris":{"android":"levelo://app?vid=0c5c1d49-6bc4-4aef-b7dc-fe96a79fb417","ios":"levelo://app?vid=0c5c1d49-6bc4-4aef-b7dc-fe96a79fb417"},"vehicle_type_id":"4","last_reported":1727730500,"current_range_meters":4000,"station_id":"ce4bhah2rcd13ifvqei0","pricing_plan_id":"cebpf4jnsgd1na2vs0mg"},{"bike_id":"acd2a23b-7b3a-4c57-bcfe-c6aaba52a3ea","system_id":"levelo_inurba_marseille","lat":43.32334,"lon":5.40625,"is_reserved":false,"is_disabled":false,"rental_uris":{"android":"levelo://app?vid=acd2a23b-7b3a-4c57-bcfe-c6aaba52a3ea","ios":"levelo://app?vid=acd2a23b-7b3a-4c57-bcfe-c6aaba52a3ea"},"vehicle_type_id":"4","last_reported":1727730500,"current_range_meters":26800,"station_id":"ce4bhq92rcd13ifvqhjg","pricing_plan_id":"cebpf4jnsgd1na2vs0mg"},{"bike_id":"535dd871-313b-415d-829d-d86d2b45d946","system_id":"levelo_inurba_marseille","lat":43.31075,"lon":5.38358,"is_reserved":false,"is_disabled":false,"rental_uris":{"android":"levelo://app?vid=535dd871-313b-415d-829d-d86d2b45d946","ios":"levelo://app?vid=535dd871-313b-415d-829d-d86d2b45d946"},"vehicle_type_id":"4","last_reported":1727730500,"current_range_meters":16000,"station_id":"ce4bgv92rcd13ifvqcr0","pricing_plan_id":"cebpf4jnsgd1na2vs0mg"},{"bike_id":"10d2f8c5-4f68-45c8-92e8-fe9584570ce7","system_id":"levelo_inurba_marseille","lat":43.31369,"lon":5.38496,"is_reserved":false,"is_disabled":false,"rental_uris":{"android":"levelo://app?vid=10d2f8c5-4f68-45c8-92e8-fe9584570ce7","ios":"levelo://app?vid=10d2f8c5-4f68-45c8-92e8-fe9584570ce7"},"vehicle_type_id":"4","last_reported":1727730500,"current_range_meters":38800,"station_id":"ce4bgt92rcd13ifvqcf0","pricing_plan_id":"cebpf4jnsgd1na2vs0mg"},{"bike_id":"db34d7e9-2df0-47f8-9e6c-32164f904928","system_id":"levelo_inurba_marseille","lat":43.29518,"lon":5.39406,"is_reserved":false,"is_disabled":false,"rental_uris":{"android":"levelo://app?vid=db34d7e9-2df0-47f8-9e6c-32164f904928","ios":"levelo://app?vid=db34d7e9-2df0-47f8-9e6c-32164f904928"},"vehicle_type_id":"4","last_reported":1727730500,"current_range_meters":26000,"station_id":"ce4bh292rcd13ifvqdf0","pricing_plan_id":"cebpf4jnsgd1na2vs0mg"},{"bike_id":"ee4b0160-15c4-4141-9c7a-16e047c14938","system_id":"levelo_inurba_marseille","lat":43.31396,"lon":5.38217,"is_reserved":false,"is_disabled":false,"rental_uris":{"android":"levelo://app?vid=ee4b0160-15c4-4141-9c7a-16e047c14938","ios":"levelo://app?vid=ee4b0160-15c4-4141-9c7a-16e047c14938"},"vehicle_type_id":"4","last_reported":1727730500,"current_range_meters":17600,"station_id":"","pricing_plan_id":"cebpf4jnsgd1na2vs0mg"},{"bike_id":"c061777b-0ac7-456e-8711-65ddc7e8cc17","system_id":"levelo_inurba_marseille","lat":43.2482,"lon":5.37458,"is_reserved":false,"is_disabled":false,"rental_uris":{"android":"levelo://app?vid=c061777b-0ac7-456e-8711-65ddc7e8cc17","ios":"levelo://app?vid=c061777b-0ac7-456e-8711-65ddc7e8cc17"},"vehicle_type_id":"4","last_reported":1727730500,"current_range_meters":39200,"station_id":"ce4bhgh2rcd13ifvqfb0","pricing_plan_id":"cebpf4jnsgd1na2vs0mg"},{"bike_id":"d995d233-d2fe-4db9-b69b-baa1337469bf","system_id":"levelo_inurba_marseille","lat":43.26724,"lon":5.40141,"is_reserved":false,"is_disabled":false,"rental_uris":{"android":"levelo://app?vid=d995d233-d2fe-4db9-b69b-baa1337469bf","ios":"levelo://app?vid=d995d233-d2fe-4db9-b69b-baa1337469bf"},"vehicle_type_id":"4","last_reported":1727730500,"current_range_meters":16800,"station_id":"ce4bhm92rcd13ifvqglg","pricing_plan_id":"cebpf4jnsgd1na2vs0mg"},{"bike_id":"dd7787d1-957c-4990-9c8a-fe91ad017aef","system_id":"levelo_inurba_marseille","lat":43.26956,"lon":5.38624,"is_reserved":false,"is_disabled":false,"rental_uris":{"android":"levelo://app?vid=dd7787d1-957c-4990-9c8a-fe91ad017aef","ios":"levelo://app?vid=dd7787d1-957c-4990-9c8a-fe91ad017aef"},"vehicle_type_id":"4","last_reported":1727730500,"current_range_meters":38400,"station_id":"ce4bhh92rcd13ifvqfh0","pricing_plan_id":"cebpf4jnsgd1na2vs0mg"},{"bike_id":"cecfd5d5-1681-43a8-ad9b-52dfd6a88e80","system_id":"levelo_inurba_marseille","lat":43.28345,"lon":5.38101,"is_reserved":false,"is_disabled":false,"rental_uris":{"android":"levelo://app?vid=cecfd5d5-1681-43a8-ad9b-52dfd6a88e80","ios":"levelo://app?vid=cecfd5d5-1681-43a8-ad9b-52dfd6a88e80"},"vehicle_type_id":"4","last_reported":1727730500,"current_range_meters":31200,"station_id":"ce4bh412rcd13ifvqdr0","pricing_plan_id":"cebpf4jnsgd1na2vs0mg"},{"bike_id":"7efd4502-9028-4534-8a5a-b236283648c9","system_id":"levelo_inurba_marseille","lat":43.31764,"lon":5.39015,"is_reserved":false,"is_disabled":false,"rental_uris":{"android":"levelo://app?vid=7efd4502-9028-4534-8a5a-b236283648c9","ios":"levelo://app?vid=7efd4502-9028-4534-8a5a-b236283648c9"},"vehicle_type_id":"4","last_reported":1727730500,"current_range_meters":38800,"station_id":"ce4bhqp2rcd13ifvqhng","pricing_plan_id":"cebpf4jnsgd1na2vs0mg"},{"bike_id":"b652f429-09b8-4697-9c1b-3b9adc3c55d8","system_id":"levelo_inurba_marseille","lat":43.26871,"lon":5.39135,"is_reserved":false,"is_disabled":false,"rental_uris":{"android":"levelo://app?vid=b652f429-09b8-4697-9c1b-3b9adc3c55d8","ios":"levelo://app?vid=b652f429-09b8-4697-9c1b-3b9adc3c55d8"},"vehicle_type_id":"4","last_reported":1727730500,"current_range_meters":10000,"station_id":"","pricing_plan_id":"cebpf4jnsgd1na2vs0mg"},{"bike_id":"5dcc4794-f585-412b-8752-ef2235a15c62","system_id":"levelo_inurba_marseille","lat":43.28939,"lon":5.36389,"is_reserved":false,"is_disabled":false,"rental_uris":{"android":"levelo://app?vid=5dcc4794-f585-412b-8752-ef2235a15c62","ios":"levelo://app?vid=5dcc4794-f585-412b-8752-ef2235a15c62"},"vehicle_type_id":"4","last_reported":1727730500,"current_range_meters":34800,"station_id":"ce4bhc92rcd13ifvqetg","pricing_plan_id":"cebpf4jnsgd1na2vs0mg"},{"bike_id":"3eb66452-25dc-4c65-ade7-3c61397278eb","system_id":"levelo_inurba_marseille","lat":43.26566,"lon":5.39004,"is_reserved":false,"is_disabled":false,"rental_uris":{"android":"levelo://app?vid=3eb66452-25dc-4c65-ade7-3c61397278eb","ios":"levelo://app?vid=3eb66452-25dc-4c65-ade7-3c61397278eb"},"vehicle_type_id":"4","last_reported":1727730500,"current_range_meters":38800,"station_id":"ce4bhe12rcd13ifvqf30","pricing_plan_id":"cebpf4jnsgd1na2vs0mg"},{"bike_id":"11177cfa-2f4f-4a0e-b4d1-daf8a3d9ea88","system_id":"levelo_inurba_marseille","lat":43.31075,"lon":5.3834,"is_reserved":false,"is_disabled":false,"rental_uris":{"android":"levelo://app?vid=11177cfa-2f4f-4a0e-b4d1-daf8a3d9ea88","ios":"levelo://app?vid=11177cfa-2f4f-4a0e-b4d1-daf8a3d9ea88"},"vehicle_type_id":"4","last_reported":1727730500,"current_range_meters":38800,"station_id":"ce4bgv92rcd13ifvqcr0","pricing_plan_id":"cebpf4jnsgd1na2vs0mg"},{"bike_id":"28eaeb32-b4de-4435-a0c7-acac8cf1d86f","system_id":"levelo_inurba_marseille","lat":43.31347,"lon":5.36699,"is_reserved":false,"is_disabled":false,"rental_uris":{"android":"levelo://app?vid=28eaeb32-b4de-4435-a0c7-acac8cf1d86f","ios":"levelo://app?vid=28eaeb32-b4de-4435-a0c7-acac8cf1d86f"},"vehicle_type_id":"4","last_reported":1727730500,"current_range_meters":38000,"station_id":"ce4bgr92rcd13ifvqc6g","pricing_plan_id":"cebpf4jnsgd1na2vs0mg"},{"bike_id":"9eb830e1-9b90-4c04-92e2-42a6ef4f703f","system_id":"levelo_inurba_marseille","lat":43.2861,"lon":5.35099,"is_reserved":false,"is_disabled":false,"rental_uris":{"android":"levelo://app?vid=9eb830e1-9b90-4c04-92e2-42a6ef4f703f","ios":"levelo://app?vid=9eb830e1-9b90-4c04-92e2-42a6ef4f703f"},"vehicle_type_id":"4","last_reported":1727730500,"current_range_meters":36800,"station_id":"ce4bhch2rcd13ifvqeug","pricing_plan_id":"cebpf4jnsgd1na2vs0mg"},{"bike_id":"935ad5bf-6dba-4ca4-97ae-e15518ef7864","system_id":"levelo_inurba_marseille","lat":43.27891,"lon":5.39181,"is_reserved":false,"is_disabled":false,"rental_uris":{"android":"levelo://app?vid=935ad5bf-6dba-4ca4-97ae-e15518ef7864","ios":"levelo://app?vid=935ad5bf-6dba-4ca4-97ae-e15518ef7864"},"vehicle_type_id":"4","last_reported":1727730500,"current_range_meters":22000,"station_id":"","pricing_plan_id":"cebpf4jnsgd1na2vs0mg"},{"bike_id":"9535a422-21bd-4d3b-82ec-0ddd79cceaee","system_id":"levelo_inurba_marseille","lat":43.24479,"lon":5.37256,"is_reserved":false,"is_disabled":false,"rental_uris":{"android":"levelo://app?vid=9535a422-21bd-4d3b-82ec-0ddd79cceaee","ios":"levelo://app?vid=9535a422-21bd-4d3b-82ec-0ddd79cceaee"},"vehicle_type_id":"4","last_reported":1727730500,"current_range_meters":12400,"station_id":"","pricing_plan_id":"cebpf4jnsgd1na2vs0mg"},{"bike_id":"3d0fedc9-7688-408e-b497-e4629a55bdac","system_id":"levelo_inurba_marseille","lat":43.30896,"lon":5.37026,"is_reserved":false,"is_disabled":false,"rental_uris":{"android":"levelo://app?vid=3d0fedc9-7688-408e-b497-e4629a55bdac","ios":"levelo://app?vid=3d0fedc9-7688-408e-b497-e4629a55bdac"},"vehicle_type_id":"4","last_reported":1727730500,"current_range_meters":19600,"station_id":"","pricing_plan_id":"cebpf4jnsgd1na2vs0mg"},{"bike_id":"cb1a149b-001c-4af8-80d6-ad104abb737a","system_id":"levelo_inurba_marseille","lat":43.29187,"lon":5.39314,"is_reserved":false,"is_disabled":false,"rental_uris":{"android":"levelo://app?vid=cb1a149b-001c-4af8-80d6-ad104abb737a","ios":"levelo://app?vid=cb1a149b-001c-4af8-80d6-ad104abb737a"},"vehicle_type_id":"4","last_reported":1727730500,"current_range_meters":38800,"station_id":"ce4bh192rcd13ifvqdd0","pricing_plan_id":"cebpf4jnsgd1na2vs0mg"},{"bike_id":"31147f8f-0511-41e4-a8e7-e2fd128489a6","system_id":"levelo_inurba_marseille","lat":43.30886,"lon":5.39625,"is_reserved":false,"is_disabled":false,"rental_uris":{"android":"levelo://app?vid=31147f8f-0511-41e4-a8e7-e2fd128489a6","ios":"levelo://app?vid=31147f8f-0511-41e4-a8e7-e2fd128489a6"},"vehicle_type_id":"4","last_reported":1727730500,"current_range_meters":38800,"station_id":"ce4bh012rcd13ifvqcv0","pricing_plan_id":"cebpf4jnsgd1na2vs0mg"},{"bike_id":"501061ae-0e07-408f-ba4d-5e9df87b6299","system_id":"levelo_inurba_marseille","lat":43.27073,"lon":5.42282,"is_reserved":false,"is_disabled":false,"rental_uris":{"android":"levelo://app?vid=501061ae-0e07-408f-ba4d-5e9df87b6299","ios":"levelo://app?vid=501061ae-0e07-408f-ba4d-5e9df87b6299"},"vehicle_type_id":"4","last_reported":1727730500,"current_range_meters":24800,"station_id":"ce4bhk92rcd13ifvqgb0","pricing_plan_id":"cebpf4jnsgd1na2vs0mg"},{"bike_id":"3a7921fb-c745-4b55-b28e-22c39e9a10b3","system_id":"levelo_inurba_marseille","lat":43.30143,"lon":5.37419,"is_reserved":false,"is_disabled":false,"rental_uris":{"android":"levelo://app?vid=3a7921fb-c745-4b55-b28e-22c39e9a10b3","ios":"levelo://app?vid=3a7921fb-c745-4b55-b28e-22c39e9a10b3"},"vehicle_type_id":"4","last_reported":1727730500,"current_range_meters":26800,"station_id":"ce4bgs92rcd13ifvqcc0","pricing_plan_id":"cebpf4jnsgd1na2vs0mg"},{"bike_id":"3a42a6e4-0a92-438f-b76b-a969ec79faec","system_id":"levelo_inurba_marseille","lat":43.28378,"lon":5.37293,"is_reserved":false,"is_disabled":false,"rental_uris":{"android":"levelo://app?vid=3a42a6e4-0a92-438f-b76b-a969ec79faec","ios":"levelo://app?vid=3a42a6e4-0a92-438f-b76b-a969ec79faec"},"vehicle_type_id":"4","last_reported":1727730500,"current_range_meters":2800,"station_id":"","pricing_plan_id":"cebpf4jnsgd1na2vs0mg"},{"bike_id":"ce865a1a-6d84-4642-b6a8-718ff5f00af0","system_id":"levelo_inurba_marseille","lat":43.28458,"lon":5.35896,"is_reserved":false,"is_disabled":false,"rental_uris":{"android":"levelo://app?vid=ce865a1a-6d84-4642-b6a8-718ff5f00af0","ios":"levelo://app?vid=ce865a1a-6d84-4642-b6a8-718ff5f00af0"},"vehicle_type_id":"4","last_reported":1727730500,"current_range_meters":38800,"station_id":"ce4bhah2rcd13ifvqei0","pricing_plan_id":"cebpf4jnsgd1na2vs0mg"},{"bike_id":"2869ef24-a9c2-4743-ad6a-16cca3db72b7","system_id":"levelo_inurba_marseille","lat":43.28459,"lon":5.35895,"is_reserved":false,"is_disabled":false,"rental_uris":{"android":"levelo://app?vid=2869ef24-a9c2-4743-ad6a-16cca3db72b7","ios":"levelo://app?vid=2869ef24-a9c2-4743-ad6a-16cca3db72b7"},"vehicle_type_id":"4","last_reported":1727730500,"current_range_meters":32000,"station_id":"ce4bhah2rcd13ifvqei0","pricing_plan_id":"cebpf4jnsgd1na2vs0mg"},{"bike_id":"43dca3d2-40d8-4d74-a102-3751799955c2","system_id":"levelo_inurba_marseille","lat":43.30413,"lon":5.3974,"is_reserved":false,"is_disabled":false,"rental_uris":{"android":"levelo://app?vid=43dca3d2-40d8-4d74-a102-3751799955c2","ios":"levelo://app?vid=43dca3d2-40d8-4d74-a102-3751799955c2"},"vehicle_type_id":"4","last_reported":1727730500,"current_range_meters":38800,"station_id":"ce4bh092rcd13ifvqd20","pricing_plan_id":"cebpf4jnsgd1na2vs0mg"},{"bike_id":"3e942d73-ccd9-46af-97a9-31978ef867d7","system_id":"levelo_inurba_marseille","lat":43.31359,"lon":5.38498,"is_reserved":false,"is_disabled":false,"rental_uris":{"android":"levelo://app?vid=3e942d73-ccd9-46af-97a9-31978ef867d7","ios":"levelo://app?vid=3e942d73-ccd9-46af-97a9-31978ef867d7"},"vehicle_type_id":"4","last_reported":1727730500,"current_range_meters":22800,"station_id":"ce4bgt92rcd13ifvqcf0","pricing_plan_id":"cebpf4jnsgd1na2vs0mg"},{"bike_id":"54a4bd7d-3cdd-4d4c-ba96-ba66a161311d","system_id":"levelo_inurba_marseille","lat":43.33036,"lon":5.39387,"is_reserved":false,"is_disabled":false,"rental_uris":{"android":"levelo://app?vid=54a4bd7d-3cdd-4d4c-ba96-ba66a161311d","ios":"levelo://app?vid=54a4bd7d-3cdd-4d4c-ba96-ba66a161311d"},"vehicle_type_id":"4","last_reported":1727730500,"current_range_meters":34800,"station_id":"","pricing_plan_id":"cebpf4jnsgd1na2vs0mg"},{"bike_id":"88bc6409-e51c-4b9c-88b5-3d3c5c3a5cf0","system_id":"levelo_inurba_marseille","lat":43.28456,"lon":5.35898,"is_reserved":false,"is_disabled":false,"rental_uris":{"android":"levelo://app?vid=88bc6409-e51c-4b9c-88b5-3d3c5c3a5cf0","ios":"levelo://app?vid=88bc6409-e51c-4b9c-88b5-3d3c5c3a5cf0"},"vehicle_type_id":"4","last_reported":1727730500,"current_range_meters":34000,"station_id":"ce4bhah2rcd13ifvqei0","pricing_plan_id":"cebpf4jnsgd1na2vs0mg"},{"bike_id":"8a0e364c-6c4e-42d7-bbcf-5d9d7f257196","system_id":"levelo_inurba_marseille","lat":43.2893,"lon":5.38391,"is_reserved":false,"is_disabled":false,"rental_uris":{"android":"levelo://app?vid=8a0e364c-6c4e-42d7-bbcf-5d9d7f257196","ios":"levelo://app?vid=8a0e364c-6c4e-42d7-bbcf-5d9d7f257196"},"vehicle_type_id":"4","last_reported":1727730500,"current_range_meters":38800,"station_id":"ce4bh612rcd13ifvqe6g","pricing_plan_id":"cebpf4jnsgd1na2vs0mg"},{"bike_id":"edc8fd59-f02b-4117-881e-c3f94441fed4","system_id":"levelo_inurba_marseille","lat":43.29785,"lon":5.39348,"is_reserved":false,"is_disabled":false,"rental_uris":{"android":"levelo://app?vid=edc8fd59-f02b-4117-881e-c3f94441fed4","ios":"levelo://app?vid=edc8fd59-f02b-4117-881e-c3f94441fed4"},"vehicle_type_id":"4","last_reported":1727730500,"current_range_meters":38800,"station_id":"chh1huq6cuj3fo74tm60","pricing_plan_id":"cebpf4jnsgd1na2vs0mg"},{"bike_id":"c2df8cca-733f-41c2-9a75-8eb5b646f167","system_id":"levelo_inurba_marseille","lat":43.255835,"lon":5.382305,"is_reserved":false,"is_disabled":false,"rental_uris":{"android":"levelo://app?vid=c2df8cca-733f-41c2-9a75-8eb5b646f167","ios":"levelo://app?vid=c2df8cca-733f-41c2-9a75-8eb5b646f167"},"vehicle_type_id":"4","last_reported":1727730500,"current_range_meters":39200,"station_id":"ce4bhih2rcd13ifvqfs0","pricing_plan_id":"cebpf4jnsgd1na2vs0mg"},{"bike_id":"5122379c-5b6a-4c2e-97c3-6ecb28531e6c","system_id":"levelo_inurba_marseille","lat":43.29636,"lon":5.40596,"is_reserved":false,"is_disabled":false,"rental_uris":{"android":"levelo://app?vid=5122379c-5b6a-4c2e-97c3-6ecb28531e6c","ios":"levelo://app?vid=5122379c-5b6a-4c2e-97c3-6ecb28531e6c"},"vehicle_type_id":"4","last_reported":1727730500,"current_range_meters":38400,"station_id":"ce4bh0h2rcd13ifvqd60","pricing_plan_id":"cebpf4jnsgd1na2vs0mg"},{"bike_id":"b65e26fd-4436-42b6-869d-ffed6ad30e88","system_id":"levelo_inurba_marseille","lat":43.32364,"lon":5.38884,"is_reserved":false,"is_disabled":false,"rental_uris":{"android":"levelo://app?vid=b65e26fd-4436-42b6-869d-ffed6ad30e88","ios":"levelo://app?vid=b65e26fd-4436-42b6-869d-ffed6ad30e88"},"vehicle_type_id":"4","last_reported":1727730500,"current_range_meters":18000,"station_id":"ce4bhqp2rcd13ifvqhog","pricing_plan_id":"cebpf4jnsgd1na2vs0mg"},{"bike_id":"bdebe683-7a12-4002-b2fc-59f844e0a35d","system_id":"levelo_inurba_marseille","lat":43.29872,"lon":5.39739,"is_reserved":false,"is_disabled":false,"rental_uris":{"android":"levelo://app?vid=bdebe683-7a12-4002-b2fc-59f844e0a35d","ios":"levelo://app?vid=bdebe683-7a12-4002-b2fc-59f844e0a35d"},"vehicle_type_id":"4","last_reported":1727730500,"current_range_meters":38800,"station_id":"ce4bh0h2rcd13ifvqd50","pricing_plan_id":"cebpf4jnsgd1na2vs0mg"},{"bike_id":"a96867e0-7466-41ea-bb84-cb61f16bda0c","system_id":"levelo_inurba_marseille","lat":43.27212,"lon":5.39183,"is_reserved":false,"is_disabled":false,"rental_uris":{"android":"levelo://app?vid=a96867e0-7466-41ea-bb84-cb61f16bda0c","ios":"levelo://app?vid=a96867e0-7466-41ea-bb84-cb61f16bda0c"},"vehicle_type_id":"4","last_reported":1727730500,"current_range_meters":34000,"station_id":"ce4bhhp2rcd13ifvqfm0","pricing_plan_id":"cebpf4jnsgd1na2vs0mg"},{"bike_id":"25d9cc49-9f76-4438-9226-b335e175cd93","system_id":"levelo_inurba_marseille","lat":43.29256,"lon":5.40901,"is_reserved":false,"is_disabled":false,"rental_uris":{"android":"levelo://app?vid=25d9cc49-9f76-4438-9226-b335e175cd93","ios":"levelo://app?vid=25d9cc49-9f76-4438-9226-b335e175cd93"},"vehicle_type_id":"4","last_reported":1727730500,"current_range_meters":36800,"station_id":"ce4bh192rcd13ifvqdc0","pricing_plan_id":"cebpf4jnsgd1na2vs0mg"},{"bike_id":"9ccc9fa9-004e-41b2-944a-36e65ca3472e","system_id":"levelo_inurba_marseille","lat":43.26939,"lon":5.38926,"is_reserved":false,"is_disabled":false,"rental_uris":{"android":"levelo://app?vid=9ccc9fa9-004e-41b2-944a-36e65ca3472e","ios":"levelo://app?vid=9ccc9fa9-004e-41b2-944a-36e65ca3472e"},"vehicle_type_id":"4","last_reported":1727730500,"current_range_meters":16400,"station_id":"ce4bhhh2rcd13ifvqfl0","pricing_plan_id":"cebpf4jnsgd1na2vs0mg"},{"bike_id":"8fbf57a2-609d-4ed5-a063-767706aa7346","system_id":"levelo_inurba_marseille","lat":43.28721,"lon":5.37924,"is_reserved":false,"is_disabled":false,"rental_uris":{"android":"levelo://app?vid=8fbf57a2-609d-4ed5-a063-767706aa7346","ios":"levelo://app?vid=8fbf57a2-609d-4ed5-a063-767706aa7346"},"vehicle_type_id":"4","last_reported":1727730500,"current_range_meters":39200,"station_id":"ce4bh9p2rcd13ifvqec0","pricing_plan_id":"cebpf4jnsgd1na2vs0mg"},{"bike_id":"2dacaa4c-a8ce-4b9e-a0a5-5d5e889bbae0","system_id":"levelo_inurba_marseille","lat":43.28837,"lon":5.3584,"is_reserved":false,"is_disabled":false,"rental_uris":{"android":"levelo://app?vid=2dacaa4c-a8ce-4b9e-a0a5-5d5e889bbae0","ios":"levelo://app?vid=2dacaa4c-a8ce-4b9e-a0a5-5d5e889bbae0"},"vehicle_type_id":"4","last_reported":1727730500,"current_range_meters":8800,"station_id":"ce4bhb12rcd13ifvqem0","pricing_plan_id":"cebpf4jnsgd1na2vs0mg"},{"bike_id":"310586a2-3827-41b0-860f-34a70ac9e7f4","system_id":"levelo_inurba_marseille","lat":43.29901,"lon":5.43659,"is_reserved":false,"is_disabled":false,"rental_uris":{"android":"levelo://app?vid=310586a2-3827-41b0-860f-34a70ac9e7f4","ios":"levelo://app?vid=310586a2-3827-41b0-860f-34a70ac9e7f4"},"vehicle_type_id":"4","last_reported":1727730500,"current_range_meters":20000,"station_id":"ce4bhpp2rcd13ifvqhfg","pricing_plan_id":"cebpf4jnsgd1na2vs0mg"},{"bike_id":"991a9c03-46e2-4e92-84d2-04b83505d89e","system_id":"levelo_inurba_marseille","lat":43.28457,"lon":5.35887,"is_reserved":false,"is_disabled":false,"rental_uris":{"android":"levelo://app?vid=991a9c03-46e2-4e92-84d2-04b83505d89e","ios":"levelo://app?vid=991a9c03-46e2-4e92-84d2-04b83505d89e"},"vehicle_type_id":"4","last_reported":1727730500,"current_range_meters":16000,"station_id":"ce4bhah2rcd13ifvqei0","pricing_plan_id":"cebpf4jnsgd1na2vs0mg"},{"bike_id":"18354a97-2a1f-47bd-b525-a3d682496f94","system_id":"levelo_inurba_marseille","lat":43.27998,"lon":5.40018,"is_reserved":false,"is_disabled":false,"rental_uris":{"android":"levelo://app?vid=18354a97-2a1f-47bd-b525-a3d682496f94","ios":"levelo://app?vid=18354a97-2a1f-47bd-b525-a3d682496f94"},"vehicle_type_id":"4","last_reported":1727730500,"current_range_meters":8400,"station_id":"ce4bho92rcd13ifvqh4g","pricing_plan_id":"cebpf4jnsgd1na2vs0mg"},{"bike_id":"460ff93a-bc15-438b-8d30-bb576d633faf","system_id":"levelo_inurba_marseille","lat":43.32261,"lon":5.38732,"is_reserved":false,"is_disabled":false,"rental_uris":{"android":"levelo://app?vid=460ff93a-bc15-438b-8d30-bb576d633faf","ios":"levelo://app?vid=460ff93a-bc15-438b-8d30-bb576d633faf"},"vehicle_type_id":"4","last_reported":1727730500,"current_range_meters":27200,"station_id":"","pricing_plan_id":"cebpf4jnsgd1na2vs0mg"},{"bike_id":"378ba320-ac32-4abf-8e49-d3a4d70036ab","system_id":"levelo_inurba_marseille","lat":43.31754,"lon":5.39022,"is_reserved":false,"is_disabled":false,"rental_uris":{"android":"levelo://app?vid=378ba320-ac32-4abf-8e49-d3a4d70036ab","ios":"levelo://app?vid=378ba320-ac32-4abf-8e49-d3a4d70036ab"},"vehicle_type_id":"4","last_reported":1727730500,"current_range_meters":38800,"station_id":"ce4bhqp2rcd13ifvqhng","pricing_plan_id":"cebpf4jnsgd1na2vs0mg"},{"bike_id":"ccf9de99-62e1-4570-b524-ac66f861159b","system_id":"levelo_inurba_marseille","lat":43.2993,"lon":5.36547,"is_reserved":false,"is_disabled":false,"rental_uris":{"android":"levelo://app?vid=ccf9de99-62e1-4570-b524-ac66f861159b","ios":"levelo://app?vid=ccf9de99-62e1-4570-b524-ac66f861159b"},"vehicle_type_id":"4","last_reported":1727730500,"current_range_meters":18000,"station_id":"ce4bgm92rcd13ifvqbr0","pricing_plan_id":"cebpf4jnsgd1na2vs0mg"},{"bike_id":"c854d3e4-0fef-4652-b425-4cc634ac9fe5","system_id":"levelo_inurba_marseille","lat":43.31708,"lon":5.43706,"is_reserved":false,"is_disabled":false,"rental_uris":{"android":"levelo://app?vid=c854d3e4-0fef-4652-b425-4cc634ac9fe5","ios":"levelo://app?vid=c854d3e4-0fef-4652-b425-4cc634ac9fe5"},"vehicle_type_id":"4","last_reported":1727730500,"current_range_meters":6800,"station_id":"ce4bhp92rcd13ifvqhcg","pricing_plan_id":"cebpf4jnsgd1na2vs0mg"},{"bike_id":"689f1662-22e9-4367-8cfa-1364af11698f","system_id":"levelo_inurba_marseille","lat":43.26202,"lon":5.37923,"is_reserved":false,"is_disabled":false,"rental_uris":{"android":"levelo://app?vid=689f1662-22e9-4367-8cfa-1364af11698f","ios":"levelo://app?vid=689f1662-22e9-4367-8cfa-1364af11698f"},"vehicle_type_id":"4","last_reported":1727730500,"current_range_meters":38800,"station_id":"ce4bhjp2rcd13ifvqg90","pricing_plan_id":"cebpf4jnsgd1na2vs0mg"},{"bike_id":"683024c0-05ad-47d1-a884-3abba3ff3252","system_id":"levelo_inurba_marseille","lat":43.26568,"lon":5.39011,"is_reserved":false,"is_disabled":false,"rental_uris":{"android":"levelo://app?vid=683024c0-05ad-47d1-a884-3abba3ff3252","ios":"levelo://app?vid=683024c0-05ad-47d1-a884-3abba3ff3252"},"vehicle_type_id":"4","last_reported":1727730500,"current_range_meters":38800,"station_id":"ce4bhe12rcd13ifvqf30","pricing_plan_id":"cebpf4jnsgd1na2vs0mg"},{"bike_id":"ef87f0bc-9f56-42d5-a876-3e3c771c451c","system_id":"levelo_inurba_marseille","lat":43.29279,"lon":5.40123,"is_reserved":false,"is_disabled":false,"rental_uris":{"android":"levelo://app?vid=ef87f0bc-9f56-42d5-a876-3e3c771c451c","ios":"levelo://app?vid=ef87f0bc-9f56-42d5-a876-3e3c771c451c"},"vehicle_type_id":"4","last_reported":1727730500,"current_range_meters":38800,"station_id":"ce4bh312rcd13ifvqdk0","pricing_plan_id":"cebpf4jnsgd1na2vs0mg"},{"bike_id":"04c87857-6b72-4df4-a0be-b91887432380","system_id":"levelo_inurba_marseille","lat":43.23964,"lon":5.36638,"is_reserved":false,"is_disabled":false,"rental_uris":{"android":"levelo://app?vid=04c87857-6b72-4df4-a0be-b91887432380","ios":"levelo://app?vid=04c87857-6b72-4df4-a0be-b91887432380"},"vehicle_type_id":"4","last_reported":1727730500,"current_range_meters":24800,"station_id":"ce4bhi12rcd13ifvqfp0","pricing_plan_id":"cebpf4jnsgd1na2vs0mg"},{"bike_id":"769c040e-703d-4386-b0a4-eb3ecad4af19","system_id":"levelo_inurba_marseille","lat":43.30134,"lon":5.38777,"is_reserved":false,"is_disabled":false,"rental_uris":{"android":"levelo://app?vid=769c040e-703d-4386-b0a4-eb3ecad4af19","ios":"levelo://app?vid=769c040e-703d-4386-b0a4-eb3ecad4af19"},"vehicle_type_id":"4","last_reported":1727730500,"current_range_meters":38800,"station_id":"ce4bghh2rcd13ifvqb60","pricing_plan_id":"cebpf4jnsgd1na2vs0mg"},{"bike_id":"d354de6e-09c2-44ea-a629-0b4ea5bc66ff","system_id":"levelo_inurba_marseille","lat":43.28506,"lon":5.39117,"is_reserved":false,"is_disabled":false,"rental_uris":{"android":"levelo://app?vid=d354de6e-09c2-44ea-a629-0b4ea5bc66ff","ios":"levelo://app?vid=d354de6e-09c2-44ea-a629-0b4ea5bc66ff"},"vehicle_type_id":"4","last_reported":1727730500,"current_range_meters":21600,"station_id":"ce4bh3p2rcd13ifvqdp0","pricing_plan_id":"cebpf4jnsgd1na2vs0mg"},{"bike_id":"8d6df995-b414-4bde-a877-70f45be9bede","system_id":"levelo_inurba_marseille","lat":43.29728,"lon":5.36591,"is_reserved":false,"is_disabled":false,"rental_uris":{"android":"levelo://app?vid=8d6df995-b414-4bde-a877-70f45be9bede","ios":"levelo://app?vid=8d6df995-b414-4bde-a877-70f45be9bede"},"vehicle_type_id":"4","last_reported":1727730500,"current_range_meters":38800,"station_id":"ce4bgn12rcd13ifvqbt0","pricing_plan_id":"cebpf4jnsgd1na2vs0mg"},{"bike_id":"c85834c1-4a71-485f-a432-5961eb7995aa","system_id":"levelo_inurba_marseille","lat":43.30648,"lon":5.40103,"is_reserved":false,"is_disabled":false,"rental_uris":{"android":"levelo://app?vid=c85834c1-4a71-485f-a432-5961eb7995aa","ios":"levelo://app?vid=c85834c1-4a71-485f-a432-5961eb7995aa"},"vehicle_type_id":"4","last_reported":1727730500,"current_range_meters":30000,"station_id":"ce4bh112rcd13ifvqda0","pricing_plan_id":"cebpf4jnsgd1na2vs0mg"},{"bike_id":"bf31d161-a87a-4f7f-9f2e-88c28947a498","system_id":"levelo_inurba_marseille","lat":43.28719,"lon":5.37361,"is_reserved":false,"is_disabled":false,"rental_uris":{"android":"levelo://app?vid=bf31d161-a87a-4f7f-9f2e-88c28947a498","ios":"levelo://app?vid=bf31d161-a87a-4f7f-9f2e-88c28947a498"},"vehicle_type_id":"4","last_reported":1727730500,"current_range_meters":38800,"station_id":"ce4bh3p2rcd13ifvqdq0","pricing_plan_id":"cebpf4jnsgd1na2vs0mg"},{"bike_id":"b2586d7f-0035-4565-9d82-49b4efe88b28","system_id":"levelo_inurba_marseille","lat":43.27215,"lon":5.39169,"is_reserved":false,"is_disabled":false,"rental_uris":{"android":"levelo://app?vid=b2586d7f-0035-4565-9d82-49b4efe88b28","ios":"levelo://app?vid=b2586d7f-0035-4565-9d82-49b4efe88b28"},"vehicle_type_id":"4","last_reported":1727730500,"current_range_meters":13600,"station_id":"","pricing_plan_id":"cebpf4jnsgd1na2vs0mg"},{"bike_id":"d3329261-bcf8-4d34-a85a-51710066765c","system_id":"levelo_inurba_marseille","lat":43.31491,"lon":5.3731,"is_reserved":false,"is_disabled":false,"rental_uris":{"android":"levelo://app?vid=d3329261-bcf8-4d34-a85a-51710066765c","ios":"levelo://app?vid=d3329261-bcf8-4d34-a85a-51710066765c"},"vehicle_type_id":"4","last_reported":1727730500,"current_range_meters":20800,"station_id":"ce4bgt12rcd13ifvqcd0","pricing_plan_id":"cebpf4jnsgd1na2vs0mg"},{"bike_id":"ae7464ad-529a-4efd-b996-61c01b643231","system_id":"levelo_inurba_marseille","lat":43.25512,"lon":5.37648,"is_reserved":false,"is_disabled":false,"rental_uris":{"android":"levelo://app?vid=ae7464ad-529a-4efd-b996-61c01b643231","ios":"levelo://app?vid=ae7464ad-529a-4efd-b996-61c01b643231"},"vehicle_type_id":"4","last_reported":1727730500,"current_range_meters":39200,"station_id":"ce4bhh12rcd13ifvqff0","pricing_plan_id":"cebpf4jnsgd1na2vs0mg"},{"bike_id":"6c4a97ef-ed56-4d85-98d9-463a709b63f3","system_id":"levelo_inurba_marseille","lat":43.24193,"lon":5.40555,"is_reserved":false,"is_disabled":false,"rental_uris":{"android":"levelo://app?vid=6c4a97ef-ed56-4d85-98d9-463a709b63f3","ios":"levelo://app?vid=6c4a97ef-ed56-4d85-98d9-463a709b63f3"},"vehicle_type_id":"4","last_reported":1727730500,"current_range_meters":24000,"station_id":"","pricing_plan_id":"cebpf4jnsgd1na2vs0mg"},{"bike_id":"ab80b424-bfc5-4709-9b95-a2bee6a56f64","system_id":"levelo_inurba_marseille","lat":43.322884,"lon":5.382641,"is_reserved":false,"is_disabled":false,"rental_uris":{"android":"levelo://app?vid=ab80b424-bfc5-4709-9b95-a2bee6a56f64","ios":"levelo://app?vid=ab80b424-bfc5-4709-9b95-a2bee6a56f64"},"vehicle_type_id":"4","last_reported":1727730500,"current_range_meters":38800,"station_id":"ce4bhr12rcd13ifvqhqg","pricing_plan_id":"cebpf4jnsgd1na2vs0mg"},{"bike_id":"75fd28f3-34a3-49a4-94be-a23e31f94eec","system_id":"levelo_inurba_marseille","lat":43.2509,"lon":5.394889,"is_reserved":false,"is_disabled":false,"rental_uris":{"android":"levelo://app?vid=75fd28f3-34a3-49a4-94be-a23e31f94eec","ios":"levelo://app?vid=75fd28f3-34a3-49a4-94be-a23e31f94eec"},"vehicle_type_id":"4","last_reported":1727730500,"current_range_meters":14000,"station_id":"ce4bhi12rcd13ifvqfo0","pricing_plan_id":"cebpf4jnsgd1na2vs0mg"},{"bike_id":"e146b5d0-59bf-491d-8f1e-463e89e952b1","system_id":"levelo_inurba_marseille","lat":43.23186,"lon":5.3999,"is_reserved":false,"is_disabled":false,"rental_uris":{"android":"levelo://app?vid=e146b5d0-59bf-491d-8f1e-463e89e952b1","ios":"levelo://app?vid=e146b5d0-59bf-491d-8f1e-463e89e952b1"},"vehicle_type_id":"4","last_reported":1727730500,"current_range_meters":39200,"station_id":"ce4bhn12rcd13ifvqgqg","pricing_plan_id":"cebpf4jnsgd1na2vs0mg"},{"bike_id":"29ec3a7d-6899-4b00-a3ef-bc6f331757cf","system_id":"levelo_inurba_marseille","lat":43.34143,"lon":5.40902,"is_reserved":false,"is_disabled":false,"rental_uris":{"android":"levelo://app?vid=29ec3a7d-6899-4b00-a3ef-bc6f331757cf","ios":"levelo://app?vid=29ec3a7d-6899-4b00-a3ef-bc6f331757cf"},"vehicle_type_id":"4","last_reported":1727730500,"current_range_meters":6000,"station_id":"ce4bhqh2rcd13ifvqhlg","pricing_plan_id":"cebpf4jnsgd1na2vs0mg"},{"bike_id":"798c4278-1622-4c86-8893-fc54c9358653","system_id":"levelo_inurba_marseille","lat":43.25088,"lon":5.39521,"is_reserved":false,"is_disabled":false,"rental_uris":{"android":"levelo://app?vid=798c4278-1622-4c86-8893-fc54c9358653","ios":"levelo://app?vid=798c4278-1622-4c86-8893-fc54c9358653"},"vehicle_type_id":"4","last_reported":1727730500,"current_range_meters":32800,"station_id":"ce4bhm12rcd13ifvqgkg","pricing_plan_id":"cebpf4jnsgd1na2vs0mg"},{"bike_id":"a12211cf-5812-442b-975a-5b9ba044ba32","system_id":"levelo_inurba_marseille","lat":43.3127,"lon":5.40169,"is_reserved":false,"is_disabled":false,"rental_uris":{"android":"levelo://app?vid=a12211cf-5812-442b-975a-5b9ba044ba32","ios":"levelo://app?vid=a12211cf-5812-442b-975a-5b9ba044ba32"},"vehicle_type_id":"4","last_reported":1727730500,"current_range_meters":38000,"station_id":"ce4bh092rcd13ifvqd30","pricing_plan_id":"cebpf4jnsgd1na2vs0mg"},{"bike_id":"f493192b-13c6-47a1-9573-739dd32e633f","system_id":"levelo_inurba_marseille","lat":43.337444,"lon":5.374475,"is_reserved":false,"is_disabled":false,"rental_uris":{"android":"levelo://app?vid=f493192b-13c6-47a1-9573-739dd32e633f","ios":"levelo://app?vid=f493192b-13c6-47a1-9573-739dd32e633f"},"vehicle_type_id":"4","last_reported":1727730500,"current_range_meters":20000,"station_id":"","pricing_plan_id":"cebpf4jnsgd1na2vs0mg"},{"bike_id":"2f91abf2-1367-48a5-a243-2fc940a07d67","system_id":"levelo_inurba_marseille","lat":43.2737,"lon":5.3626,"is_reserved":false,"is_disabled":false,"rental_uris":{"android":"levelo://app?vid=2f91abf2-1367-48a5-a243-2fc940a07d67","ios":"levelo://app?vid=2f91abf2-1367-48a5-a243-2fc940a07d67"},"vehicle_type_id":"4","last_reported":1727730500,"current_range_meters":38800,"station_id":"ce4bhbh2rcd13ifvqeo0","pricing_plan_id":"cebpf4jnsgd1na2vs0mg"},{"bike_id":"88ba4e68-1433-46b5-aa83-8a7c681c3271","system_id":"levelo_inurba_marseille","lat":43.295349,"lon":5.38582,"is_reserved":false,"is_disabled":false,"rental_uris":{"android":"levelo://app?vid=88ba4e68-1433-46b5-aa83-8a7c681c3271","ios":"levelo://app?vid=88ba4e68-1433-46b5-aa83-8a7c681c3271"},"vehicle_type_id":"4","last_reported":1727730500,"current_range_meters":18000,"station_id":"ce4bgih2rcd13ifvqba0","pricing_plan_id":"cebpf4jnsgd1na2vs0mg"},{"bike_id":"815d75ab-59db-49f2-9d6c-a851d5f73245","system_id":"levelo_inurba_marseille","lat":43.32326,"lon":5.38286,"is_reserved":false,"is_disabled":false,"rental_uris":{"android":"levelo://app?vid=815d75ab-59db-49f2-9d6c-a851d5f73245","ios":"levelo://app?vid=815d75ab-59db-49f2-9d6c-a851d5f73245"},"vehicle_type_id":"4","last_reported":1727730500,"current_range_meters":35600,"station_id":"ce4bhr12rcd13ifvqhqg","pricing_plan_id":"cebpf4jnsgd1na2vs0mg"},{"bike_id":"ce6166ea-c4ad-4ecf-8cb6-35a2f13ea8fd","system_id":"levelo_inurba_marseille","lat":43.23973,"lon":5.36602,"is_reserved":false,"is_disabled":false,"rental_uris":{"android":"levelo://app?vid=ce6166ea-c4ad-4ecf-8cb6-35a2f13ea8fd","ios":"levelo://app?vid=ce6166ea-c4ad-4ecf-8cb6-35a2f13ea8fd"},"vehicle_type_id":"4","last_reported":1727730500,"current_range_meters":21600,"station_id":"ce4bhi12rcd13ifvqfp0","pricing_plan_id":"cebpf4jnsgd1na2vs0mg"},{"bike_id":"269ec699-379a-4424-88f8-2ec1daace309","system_id":"levelo_inurba_marseille","lat":43.30294,"lon":5.392,"is_reserved":false,"is_disabled":false,"rental_uris":{"android":"levelo://app?vid=269ec699-379a-4424-88f8-2ec1daace309","ios":"levelo://app?vid=269ec699-379a-4424-88f8-2ec1daace309"},"vehicle_type_id":"4","last_reported":1727730500,"current_range_meters":19600,"station_id":"ce4bgkh2rcd13ifvqbk0","pricing_plan_id":"cebpf4jnsgd1na2vs0mg"},{"bike_id":"b15fcd7b-5130-4db2-a871-9f6d81a6b882","system_id":"levelo_inurba_marseille","lat":43.28937,"lon":5.36399,"is_reserved":false,"is_disabled":false,"rental_uris":{"android":"levelo://app?vid=b15fcd7b-5130-4db2-a871-9f6d81a6b882","ios":"levelo://app?vid=b15fcd7b-5130-4db2-a871-9f6d81a6b882"},"vehicle_type_id":"4","last_reported":1727730500,"current_range_meters":20800,"station_id":"ce4bhc92rcd13ifvqetg","pricing_plan_id":"cebpf4jnsgd1na2vs0mg"},{"bike_id":"466c3cd7-5881-4370-8c02-6755fa91e778","system_id":"levelo_inurba_marseille","lat":43.27833,"lon":5.39221,"is_reserved":false,"is_disabled":false,"rental_uris":{"android":"levelo://app?vid=466c3cd7-5881-4370-8c02-6755fa91e778","ios":"levelo://app?vid=466c3cd7-5881-4370-8c02-6755fa91e778"},"vehicle_type_id":"4","last_reported":1727730500,"current_range_meters":20000,"station_id":"ce4bhjp2rcd13ifvqga0","pricing_plan_id":"cebpf4jnsgd1na2vs0mg"},{"bike_id":"eae015c1-16c8-483a-b244-3af672249227","system_id":"levelo_inurba_marseille","lat":43.28454,"lon":5.35892,"is_reserved":false,"is_disabled":false,"rental_uris":{"android":"levelo://app?vid=eae015c1-16c8-483a-b244-3af672249227","ios":"levelo://app?vid=eae015c1-16c8-483a-b244-3af672249227"},"vehicle_type_id":"4","last_reported":1727730500,"current_range_meters":2800,"station_id":"ce4bhah2rcd13ifvqei0","pricing_plan_id":"cebpf4jnsgd1na2vs0mg"},{"bike_id":"f4f5bd9f-5e67-4c31-bf13-de0629c8fa98","system_id":"levelo_inurba_marseille","lat":43.30957,"lon":5.39039,"is_reserved":false,"is_disabled":false,"rental_uris":{"android":"levelo://app?vid=f4f5bd9f-5e67-4c31-bf13-de0629c8fa98","ios":"levelo://app?vid=f4f5bd9f-5e67-4c31-bf13-de0629c8fa98"},"vehicle_type_id":"4","last_reported":1727730500,"current_range_meters":28800,"station_id":"ce4bgup2rcd13ifvqco0","pricing_plan_id":"cebpf4jnsgd1na2vs0mg"},{"bike_id":"e1aff88d-9867-48cf-b56a-62f4d89b3f0d","system_id":"levelo_inurba_marseille","lat":43.30142,"lon":5.39851,"is_reserved":false,"is_disabled":false,"rental_uris":{"android":"levelo://app?vid=e1aff88d-9867-48cf-b56a-62f4d89b3f0d","ios":"levelo://app?vid=e1aff88d-9867-48cf-b56a-62f4d89b3f0d"},"vehicle_type_id":"4","last_reported":1727730500,"current_range_meters":38400,"station_id":"ce4bh0h2rcd13ifvqd40","pricing_plan_id":"cebpf4jnsgd1na2vs0mg"},{"bike_id":"341291e5-f916-49fb-a047-08d81c664b8d","system_id":"levelo_inurba_marseille","lat":43.28423,"lon":5.37513,"is_reserved":false,"is_disabled":false,"rental_uris":{"android":"levelo://app?vid=341291e5-f916-49fb-a047-08d81c664b8d","ios":"levelo://app?vid=341291e5-f916-49fb-a047-08d81c664b8d"},"vehicle_type_id":"4","last_reported":1727730500,"current_range_meters":6800,"station_id":"ce4bh412rcd13ifvqds0","pricing_plan_id":"cebpf4jnsgd1na2vs0mg"},{"bike_id":"74b807e0-c6f2-4284-a13d-25cb1f3715ff","system_id":"levelo_inurba_marseille","lat":43.31527,"lon":5.3803,"is_reserved":false,"is_disabled":false,"rental_uris":{"android":"levelo://app?vid=74b807e0-c6f2-4284-a13d-25cb1f3715ff","ios":"levelo://app?vid=74b807e0-c6f2-4284-a13d-25cb1f3715ff"},"vehicle_type_id":"4","last_reported":1727730500,"current_range_meters":32400,"station_id":"ce4bhsp2rcd13ifvqi50","pricing_plan_id":"cebpf4jnsgd1na2vs0mg"},{"bike_id":"12fde011-8652-49b9-873e-72da5e76fc34","system_id":"levelo_inurba_marseille","lat":43.28425,"lon":5.37512,"is_reserved":false,"is_disabled":false,"rental_uris":{"android":"levelo://app?vid=12fde011-8652-49b9-873e-72da5e76fc34","ios":"levelo://app?vid=12fde011-8652-49b9-873e-72da5e76fc34"},"vehicle_type_id":"4","last_reported":1727730500,"current_range_meters":38000,"station_id":"ce4bh412rcd13ifvqds0","pricing_plan_id":"cebpf4jnsgd1na2vs0mg"},{"bike_id":"11e4b4b3-55dc-4b12-b280-efc2a108f74f","system_id":"levelo_inurba_marseille","lat":43.29198,"lon":5.39323,"is_reserved":false,"is_disabled":false,"rental_uris":{"android":"levelo://app?vid=11e4b4b3-55dc-4b12-b280-efc2a108f74f","ios":"levelo://app?vid=11e4b4b3-55dc-4b12-b280-efc2a108f74f"},"vehicle_type_id":"4","last_reported":1727730500,"current_range_meters":17600,"station_id":"ce4bh192rcd13ifvqdd0","pricing_plan_id":"cebpf4jnsgd1na2vs0mg"},{"bike_id":"03f41a37-1162-4b18-a082-63a0cc1a29cc","system_id":"levelo_inurba_marseille","lat":43.29295,"lon":5.37434,"is_reserved":false,"is_disabled":false,"rental_uris":{"android":"levelo://app?vid=03f41a37-1162-4b18-a082-63a0cc1a29cc","ios":"levelo://app?vid=03f41a37-1162-4b18-a082-63a0cc1a29cc"},"vehicle_type_id":"4","last_reported":1727730500,"current_range_meters":3600,"station_id":"ce4bgi12rcd13ifvqb70","pricing_plan_id":"cebpf4jnsgd1na2vs0mg"},{"bike_id":"ce682b9d-c6b4-4762-8c3c-67761170e527","system_id":"levelo_inurba_marseille","lat":43.31708,"lon":5.37758,"is_reserved":false,"is_disabled":false,"rental_uris":{"android":"levelo://app?vid=ce682b9d-c6b4-4762-8c3c-67761170e527","ios":"levelo://app?vid=ce682b9d-c6b4-4762-8c3c-67761170e527"},"vehicle_type_id":"4","last_reported":1727730500,"current_range_meters":37600,"station_id":"ce4bgth2rcd13ifvqch0","pricing_plan_id":"cebpf4jnsgd1na2vs0mg"},{"bike_id":"122b629b-a216-489f-90ff-d6e3354a8c19","system_id":"levelo_inurba_marseille","lat":43.28705,"lon":5.373854,"is_reserved":false,"is_disabled":false,"rental_uris":{"android":"levelo://app?vid=122b629b-a216-489f-90ff-d6e3354a8c19","ios":"levelo://app?vid=122b629b-a216-489f-90ff-d6e3354a8c19"},"vehicle_type_id":"4","last_reported":1727730500,"current_range_meters":16400,"station_id":"ce4bh3p2rcd13ifvqdq0","pricing_plan_id":"cebpf4jnsgd1na2vs0mg"},{"bike_id":"30ca6f4c-ff60-4d26-a525-382381553e0d","system_id":"levelo_inurba_marseille","lat":43.27995,"lon":5.4002,"is_reserved":false,"is_disabled":false,"rental_uris":{"android":"levelo://app?vid=30ca6f4c-ff60-4d26-a525-382381553e0d","ios":"levelo://app?vid=30ca6f4c-ff60-4d26-a525-382381553e0d"},"vehicle_type_id":"4","last_reported":1727730500,"current_range_meters":38000,"station_id":"ce4bho92rcd13ifvqh4g","pricing_plan_id":"cebpf4jnsgd1na2vs0mg"},{"bike_id":"d3e3eb2c-9714-4b32-b39a-435c7c969420","system_id":"levelo_inurba_marseille","lat":43.287292,"lon":5.379384,"is_reserved":false,"is_disabled":false,"rental_uris":{"android":"levelo://app?vid=d3e3eb2c-9714-4b32-b39a-435c7c969420","ios":"levelo://app?vid=d3e3eb2c-9714-4b32-b39a-435c7c969420"},"vehicle_type_id":"4","last_reported":1727730500,"current_range_meters":31200,"station_id":"ce4bh9p2rcd13ifvqec0","pricing_plan_id":"cebpf4jnsgd1na2vs0mg"},{"bike_id":"98e01353-bf46-438a-9437-17e5f8344ab8","system_id":"levelo_inurba_marseille","lat":43.26541,"lon":5.37289,"is_reserved":false,"is_disabled":false,"rental_uris":{"android":"levelo://app?vid=98e01353-bf46-438a-9437-17e5f8344ab8","ios":"levelo://app?vid=98e01353-bf46-438a-9437-17e5f8344ab8"},"vehicle_type_id":"4","last_reported":1727730500,"current_range_meters":4800,"station_id":"ce4bhg12rcd13ifvqf70","pricing_plan_id":"cebpf4jnsgd1na2vs0mg"},{"bike_id":"44f752b4-53ea-4571-8d1b-c77546739719","system_id":"levelo_inurba_marseille","lat":43.3078,"lon":5.37652,"is_reserved":false,"is_disabled":false,"rental_uris":{"android":"levelo://app?vid=44f752b4-53ea-4571-8d1b-c77546739719","ios":"levelo://app?vid=44f752b4-53ea-4571-8d1b-c77546739719"},"vehicle_type_id":"4","last_reported":1727730500,"current_range_meters":28000,"station_id":"ce4bgv92rcd13ifvqcq0","pricing_plan_id":"cebpf4jnsgd1na2vs0mg"},{"bike_id":"71def579-e1ba-4014-b41c-70f913cb15fb","system_id":"levelo_inurba_marseille","lat":43.29361,"lon":5.3785,"is_reserved":false,"is_disabled":false,"rental_uris":{"android":"levelo://app?vid=71def579-e1ba-4014-b41c-70f913cb15fb","ios":"levelo://app?vid=71def579-e1ba-4014-b41c-70f913cb15fb"},"vehicle_type_id":"4","last_reported":1727730500,"current_range_meters":37600,"station_id":"ce4bgjh2rcd13ifvqbf0","pricing_plan_id":"cebpf4jnsgd1na2vs0mg"},{"bike_id":"9d536434-fb45-4e99-856f-122edee1a308","system_id":"levelo_inurba_marseille","lat":43.31083,"lon":5.42432,"is_reserved":false,"is_disabled":false,"rental_uris":{"android":"levelo://app?vid=9d536434-fb45-4e99-856f-122edee1a308","ios":"levelo://app?vid=9d536434-fb45-4e99-856f-122edee1a308"},"vehicle_type_id":"4","last_reported":1727730500,"current_range_meters":2000,"station_id":"ce4bhp92rcd13ifvqhag","pricing_plan_id":"cebpf4jnsgd1na2vs0mg"},{"bike_id":"2671abe3-ebc3-4ff9-b93a-9bc1fa61c25a","system_id":"levelo_inurba_marseille","lat":43.30932,"lon":5.40145,"is_reserved":false,"is_disabled":false,"rental_uris":{"android":"levelo://app?vid=2671abe3-ebc3-4ff9-b93a-9bc1fa61c25a","ios":"levelo://app?vid=2671abe3-ebc3-4ff9-b93a-9bc1fa61c25a"},"vehicle_type_id":"4","last_reported":1727730500,"current_range_meters":24400,"station_id":"ce4bgvp2rcd13ifvqct0","pricing_plan_id":"cebpf4jnsgd1na2vs0mg"},{"bike_id":"9a3f086c-eeed-485e-a847-3f6aeb96728b","system_id":"levelo_inurba_marseille","lat":43.28459,"lon":5.3588,"is_reserved":false,"is_disabled":false,"rental_uris":{"android":"levelo://app?vid=9a3f086c-eeed-485e-a847-3f6aeb96728b","ios":"levelo://app?vid=9a3f086c-eeed-485e-a847-3f6aeb96728b"},"vehicle_type_id":"4","last_reported":1727730500,"current_range_meters":4400,"station_id":"ce4bhah2rcd13ifvqei0","pricing_plan_id":"cebpf4jnsgd1na2vs0mg"},{"bike_id":"64d9e30a-3c87-493a-839b-48a7888ef484","system_id":"levelo_inurba_marseille","lat":43.28077,"lon":5.39659,"is_reserved":false,"is_disabled":false,"rental_uris":{"android":"levelo://app?vid=64d9e30a-3c87-493a-839b-48a7888ef484","ios":"levelo://app?vid=64d9e30a-3c87-493a-839b-48a7888ef484"},"vehicle_type_id":"4","last_reported":1727730500,"current_range_meters":28000,"station_id":"ce4bho12rcd13ifvqh2g","pricing_plan_id":"cebpf4jnsgd1na2vs0mg"},{"bike_id":"1496a47b-59d1-4ca8-9ab3-84966a734fa5","system_id":"levelo_inurba_marseille","lat":43.26203,"lon":5.37932,"is_reserved":false,"is_disabled":false,"rental_uris":{"android":"levelo://app?vid=1496a47b-59d1-4ca8-9ab3-84966a734fa5","ios":"levelo://app?vid=1496a47b-59d1-4ca8-9ab3-84966a734fa5"},"vehicle_type_id":"4","last_reported":1727730500,"current_range_meters":38800,"station_id":"ce4bhjp2rcd13ifvqg90","pricing_plan_id":"cebpf4jnsgd1na2vs0mg"},{"bike_id":"c9ec626c-8977-498f-8082-0ec993cc6572","system_id":"levelo_inurba_marseille","lat":43.29518,"lon":5.39042,"is_reserved":false,"is_disabled":false,"rental_uris":{"android":"levelo://app?vid=c9ec626c-8977-498f-8082-0ec993cc6572","ios":"levelo://app?vid=c9ec626c-8977-498f-8082-0ec993cc6572"},"vehicle_type_id":"4","last_reported":1727730500,"current_range_meters":38800,"station_id":"ce4bh3p2rcd13ifvqdp0","pricing_plan_id":"cebpf4jnsgd1na2vs0mg"},{"bike_id":"7f98aa52-1005-4f44-91a7-912fbaf9c719","system_id":"levelo_inurba_marseille","lat":43.23182,"lon":5.39982,"is_reserved":false,"is_disabled":false,"rental_uris":{"android":"levelo://app?vid=7f98aa52-1005-4f44-91a7-912fbaf9c719","ios":"levelo://app?vid=7f98aa52-1005-4f44-91a7-912fbaf9c719"},"vehicle_type_id":"4","last_reported":1727730500,"current_range_meters":20000,"station_id":"ce4bhn12rcd13ifvqgqg","pricing_plan_id":"cebpf4jnsgd1na2vs0mg"},{"bike_id":"85090816-1482-4be1-9a22-ffc00df7d74b","system_id":"levelo_inurba_marseille","lat":43.27436,"lon":5.39413,"is_reserved":false,"is_disabled":false,"rental_uris":{"android":"levelo://app?vid=85090816-1482-4be1-9a22-ffc00df7d74b","ios":"levelo://app?vid=85090816-1482-4be1-9a22-ffc00df7d74b"},"vehicle_type_id":"4","last_reported":1727730500,"current_range_meters":37600,"station_id":"ce4bhdp2rcd13ifvqf20","pricing_plan_id":"cebpf4jnsgd1na2vs0mg"},{"bike_id":"79a7926e-dba6-497b-b68c-d63f5256ee02","system_id":"levelo_inurba_marseille","lat":43.29032,"lon":5.37565,"is_reserved":false,"is_disabled":false,"rental_uris":{"android":"levelo://app?vid=79a7926e-dba6-497b-b68c-d63f5256ee02","ios":"levelo://app?vid=79a7926e-dba6-497b-b68c-d63f5256ee02"},"vehicle_type_id":"4","last_reported":1727730500,"current_range_meters":39200,"station_id":"ce4bh692rcd13ifvqe90","pricing_plan_id":"cebpf4jnsgd1na2vs0mg"},{"bike_id":"230b6bdb-fa0e-4a31-a91f-260070a8871a","system_id":"levelo_inurba_marseille","lat":43.31721,"lon":5.42398,"is_reserved":false,"is_disabled":false,"rental_uris":{"android":"levelo://app?vid=230b6bdb-fa0e-4a31-a91f-260070a8871a","ios":"levelo://app?vid=230b6bdb-fa0e-4a31-a91f-260070a8871a"},"vehicle_type_id":"4","last_reported":1727730500,"current_range_meters":30800,"station_id":"ce4bhp92rcd13ifvqhbg","pricing_plan_id":"cebpf4jnsgd1na2vs0mg"},{"bike_id":"b3125c80-b41f-4513-990a-5b3a52f7c34f","system_id":"levelo_inurba_marseille","lat":43.30802,"lon":5.43528,"is_reserved":false,"is_disabled":false,"rental_uris":{"android":"levelo://app?vid=b3125c80-b41f-4513-990a-5b3a52f7c34f","ios":"levelo://app?vid=b3125c80-b41f-4513-990a-5b3a52f7c34f"},"vehicle_type_id":"4","last_reported":1727730500,"current_range_meters":4400,"station_id":"ce4bhph2rcd13ifvqheg","pricing_plan_id":"cebpf4jnsgd1na2vs0mg"},{"bike_id":"a43d5f9c-2aeb-479e-ac27-f2401d584dec","system_id":"levelo_inurba_marseille","lat":43.28713,"lon":5.37388,"is_reserved":false,"is_disabled":false,"rental_uris":{"android":"levelo://app?vid=a43d5f9c-2aeb-479e-ac27-f2401d584dec","ios":"levelo://app?vid=a43d5f9c-2aeb-479e-ac27-f2401d584dec"},"vehicle_type_id":"4","last_reported":1727730500,"current_range_meters":22800,"station_id":"ce4bh3p2rcd13ifvqdq0","pricing_plan_id":"cebpf4jnsgd1na2vs0mg"},{"bike_id":"1bad49f4-e608-4750-969b-cf1811aa3085","system_id":"levelo_inurba_marseille","lat":43.337444,"lon":5.374475,"is_reserved":false,"is_disabled":false,"rental_uris":{"android":"levelo://app?vid=1bad49f4-e608-4750-969b-cf1811aa3085","ios":"levelo://app?vid=1bad49f4-e608-4750-969b-cf1811aa3085"},"vehicle_type_id":"4","last_reported":1727730500,"current_range_meters":34800,"station_id":"","pricing_plan_id":"cebpf4jnsgd1na2vs0mg"},{"bike_id":"cd102f06-ac7b-4b01-bfe4-7c2e2c4c51d4","system_id":"levelo_inurba_marseille","lat":43.32259,"lon":5.38278,"is_reserved":false,"is_disabled":false,"rental_uris":{"android":"levelo://app?vid=cd102f06-ac7b-4b01-bfe4-7c2e2c4c51d4","ios":"levelo://app?vid=cd102f06-ac7b-4b01-bfe4-7c2e2c4c51d4"},"vehicle_type_id":"4","last_reported":1727730500,"current_range_meters":4400,"station_id":"ce4bhr12rcd13ifvqhqg","pricing_plan_id":"cebpf4jnsgd1na2vs0mg"},{"bike_id":"69a85b92-9341-40db-a163-fcdc98fe945c","system_id":"levelo_inurba_marseille","lat":43.30608,"lon":5.37208,"is_reserved":false,"is_disabled":false,"rental_uris":{"android":"levelo://app?vid=69a85b92-9341-40db-a163-fcdc98fe945c","ios":"levelo://app?vid=69a85b92-9341-40db-a163-fcdc98fe945c"},"vehicle_type_id":"4","last_reported":1727730500,"current_range_meters":8800,"station_id":"ce4bgqh2rcd13ifvqc4g","pricing_plan_id":"cebpf4jnsgd1na2vs0mg"},{"bike_id":"535bd3fc-9ed6-4d8a-b132-b0714a281f53","system_id":"levelo_inurba_marseille","lat":43.3229,"lon":5.38271,"is_reserved":false,"is_disabled":false,"rental_uris":{"android":"levelo://app?vid=535bd3fc-9ed6-4d8a-b132-b0714a281f53","ios":"levelo://app?vid=535bd3fc-9ed6-4d8a-b132-b0714a281f53"},"vehicle_type_id":"4","last_reported":1727730500,"current_range_meters":38800,"station_id":"ce4bhr12rcd13ifvqhqg","pricing_plan_id":"cebpf4jnsgd1na2vs0mg"},{"bike_id":"0975825c-9f20-46cb-9562-816ced7a7f94","system_id":"levelo_inurba_marseille","lat":43.28352,"lon":5.38101,"is_reserved":false,"is_disabled":false,"rental_uris":{"android":"levelo://app?vid=0975825c-9f20-46cb-9562-816ced7a7f94","ios":"levelo://app?vid=0975825c-9f20-46cb-9562-816ced7a7f94"},"vehicle_type_id":"4","last_reported":1727730500,"current_range_meters":37600,"station_id":"ce4bh412rcd13ifvqdr0","pricing_plan_id":"cebpf4jnsgd1na2vs0mg"},{"bike_id":"4519f267-7957-45f3-82c5-59d29b630af2","system_id":"levelo_inurba_marseille","lat":43.29648,"lon":5.40014,"is_reserved":false,"is_disabled":false,"rental_uris":{"android":"levelo://app?vid=4519f267-7957-45f3-82c5-59d29b630af2","ios":"levelo://app?vid=4519f267-7957-45f3-82c5-59d29b630af2"},"vehicle_type_id":"4","last_reported":1727730500,"current_range_meters":21600,"station_id":"chh1huq6cuj3fo74tm60","pricing_plan_id":"cebpf4jnsgd1na2vs0mg"},{"bike_id":"d66ab088-1a47-4493-9efd-a19df6932892","system_id":"levelo_inurba_marseille","lat":43.2857,"lon":5.39504,"is_reserved":false,"is_disabled":false,"rental_uris":{"android":"levelo://app?vid=d66ab088-1a47-4493-9efd-a19df6932892","ios":"levelo://app?vid=d66ab088-1a47-4493-9efd-a19df6932892"},"vehicle_type_id":"4","last_reported":1727730500,"current_range_meters":24800,"station_id":"ce4bh292rcd13ifvqdg0","pricing_plan_id":"cebpf4jnsgd1na2vs0mg"},{"bike_id":"1583e6e8-62ba-4fc7-bf10-b3dab3950efc","system_id":"levelo_inurba_marseille","lat":43.2835,"lon":5.38105,"is_reserved":false,"is_disabled":false,"rental_uris":{"android":"levelo://app?vid=1583e6e8-62ba-4fc7-bf10-b3dab3950efc","ios":"levelo://app?vid=1583e6e8-62ba-4fc7-bf10-b3dab3950efc"},"vehicle_type_id":"4","last_reported":1727730500,"current_range_meters":19600,"station_id":"ce4bh412rcd13ifvqdr0","pricing_plan_id":"cebpf4jnsgd1na2vs0mg"},{"bike_id":"1e6475d6-a854-4aa8-852f-a708c9a090e6","system_id":"levelo_inurba_marseille","lat":43.317566,"lon":5.390113,"is_reserved":false,"is_disabled":false,"rental_uris":{"android":"levelo://app?vid=1e6475d6-a854-4aa8-852f-a708c9a090e6","ios":"levelo://app?vid=1e6475d6-a854-4aa8-852f-a708c9a090e6"},"vehicle_type_id":"4","last_reported":1727730500,"current_range_meters":38800,"station_id":"ce4bhqp2rcd13ifvqhng","pricing_plan_id":"cebpf4jnsgd1na2vs0mg"},{"bike_id":"ca2eba72-b973-4593-a2ff-495c7069c176","system_id":"levelo_inurba_marseille","lat":43.26193,"lon":5.37452,"is_reserved":false,"is_disabled":false,"rental_uris":{"android":"levelo://app?vid=ca2eba72-b973-4593-a2ff-495c7069c176","ios":"levelo://app?vid=ca2eba72-b973-4593-a2ff-495c7069c176"},"vehicle_type_id":"4","last_reported":1727730500,"current_range_meters":38800,"station_id":"ce4bhgp2rcd13ifvqfc0","pricing_plan_id":"cebpf4jnsgd1na2vs0mg"},{"bike_id":"a0b5a8b4-d473-4504-9686-c3cf00e9d3ad","system_id":"levelo_inurba_marseille","lat":43.31757,"lon":5.39021,"is_reserved":false,"is_disabled":false,"rental_uris":{"android":"levelo://app?vid=a0b5a8b4-d473-4504-9686-c3cf00e9d3ad","ios":"levelo://app?vid=a0b5a8b4-d473-4504-9686-c3cf00e9d3ad"},"vehicle_type_id":"4","last_reported":1727730500,"current_range_meters":16000,"station_id":"ce4bhqp2rcd13ifvqhng","pricing_plan_id":"cebpf4jnsgd1na2vs0mg"},{"bike_id":"7351710e-25ca-4c8c-8bd0-399536f6db69","system_id":"levelo_inurba_marseille","lat":43.32359,"lon":5.38469,"is_reserved":false,"is_disabled":false,"rental_uris":{"android":"levelo://app?vid=7351710e-25ca-4c8c-8bd0-399536f6db69","ios":"levelo://app?vid=7351710e-25ca-4c8c-8bd0-399536f6db69"},"vehicle_type_id":"4","last_reported":1727730500,"current_range_meters":35600,"station_id":"","pricing_plan_id":"cebpf4jnsgd1na2vs0mg"},{"bike_id":"7d68410c-231e-4358-8d0b-9fcc6339f847","system_id":"levelo_inurba_marseille","lat":43.29972,"lon":5.37177,"is_reserved":false,"is_disabled":false,"rental_uris":{"android":"levelo://app?vid=7d68410c-231e-4358-8d0b-9fcc6339f847","ios":"levelo://app?vid=7d68410c-231e-4358-8d0b-9fcc6339f847"},"vehicle_type_id":"4","last_reported":1727730500,"current_range_meters":6800,"station_id":"ce4bgr92rcd13ifvqc7g","pricing_plan_id":"cebpf4jnsgd1na2vs0mg"},{"bike_id":"7871bc01-5491-4de5-ba23-059fdff696ad","system_id":"levelo_inurba_marseille","lat":43.30781,"lon":5.37655,"is_reserved":false,"is_disabled":false,"rental_uris":{"android":"levelo://app?vid=7871bc01-5491-4de5-ba23-059fdff696ad","ios":"levelo://app?vid=7871bc01-5491-4de5-ba23-059fdff696ad"},"vehicle_type_id":"4","last_reported":1727730500,"current_range_meters":38400,"station_id":"ce4bgv92rcd13ifvqcq0","pricing_plan_id":"cebpf4jnsgd1na2vs0mg"},{"bike_id":"6b685f1b-b67e-463c-a1ab-72e7554bbfc1","system_id":"levelo_inurba_marseille","lat":43.29315,"lon":5.37165,"is_reserved":false,"is_disabled":false,"rental_uris":{"android":"levelo://app?vid=6b685f1b-b67e-463c-a1ab-72e7554bbfc1","ios":"levelo://app?vid=6b685f1b-b67e-463c-a1ab-72e7554bbfc1"},"vehicle_type_id":"4","last_reported":1727730500,"current_range_meters":25600,"station_id":"ce4bgh92rcd13ifvqb40","pricing_plan_id":"cebpf4jnsgd1na2vs0mg"},{"bike_id":"9246f192-095b-4786-baff-9149e3df970a","system_id":"levelo_inurba_marseille","lat":43.29583,"lon":5.36734,"is_reserved":false,"is_disabled":false,"rental_uris":{"android":"levelo://app?vid=9246f192-095b-4786-baff-9149e3df970a","ios":"levelo://app?vid=9246f192-095b-4786-baff-9149e3df970a"},"vehicle_type_id":"4","last_reported":1727730500,"current_range_meters":33200,"station_id":"ce4bgph2rcd13ifvqc2g","pricing_plan_id":"cebpf4jnsgd1na2vs0mg"},{"bike_id":"28adeedb-73e1-430c-aff3-8e7b9dff4fc2","system_id":"levelo_inurba_marseille","lat":43.231868,"lon":5.399884,"is_reserved":false,"is_disabled":false,"rental_uris":{"android":"levelo://app?vid=28adeedb-73e1-430c-aff3-8e7b9dff4fc2","ios":"levelo://app?vid=28adeedb-73e1-430c-aff3-8e7b9dff4fc2"},"vehicle_type_id":"4","last_reported":1727730500,"current_range_meters":37600,"station_id":"ce4bhn12rcd13ifvqgqg","pricing_plan_id":"cebpf4jnsgd1na2vs0mg"},{"bike_id":"5894c6cf-e750-497b-8a36-47a2b0ef0b35","system_id":"levelo_inurba_marseille","lat":43.23183,"lon":5.399933,"is_reserved":false,"is_disabled":false,"rental_uris":{"android":"levelo://app?vid=5894c6cf-e750-497b-8a36-47a2b0ef0b35","ios":"levelo://app?vid=5894c6cf-e750-497b-8a36-47a2b0ef0b35"},"vehicle_type_id":"4","last_reported":1727730500,"current_range_meters":20400,"station_id":"ce4bhn12rcd13ifvqgqg","pricing_plan_id":"cebpf4jnsgd1na2vs0mg"},{"bike_id":"8bd1be89-adc7-4a8f-b25b-9ab2d8b96fb9","system_id":"levelo_inurba_marseille","lat":43.25579,"lon":5.38237,"is_reserved":false,"is_disabled":false,"rental_uris":{"android":"levelo://app?vid=8bd1be89-adc7-4a8f-b25b-9ab2d8b96fb9","ios":"levelo://app?vid=8bd1be89-adc7-4a8f-b25b-9ab2d8b96fb9"},"vehicle_type_id":"4","last_reported":1727730500,"current_range_meters":38800,"station_id":"ce4bhih2rcd13ifvqfs0","pricing_plan_id":"cebpf4jnsgd1na2vs0mg"},{"bike_id":"f94fb012-d87e-4508-8e60-ab7109434394","system_id":"levelo_inurba_marseille","lat":43.31491,"lon":5.37306,"is_reserved":false,"is_disabled":false,"rental_uris":{"android":"levelo://app?vid=f94fb012-d87e-4508-8e60-ab7109434394","ios":"levelo://app?vid=f94fb012-d87e-4508-8e60-ab7109434394"},"vehicle_type_id":"4","last_reported":1727730500,"current_range_meters":21600,"station_id":"ce4bgt12rcd13ifvqcd0","pricing_plan_id":"cebpf4jnsgd1na2vs0mg"},{"bike_id":"20a773ce-8ebe-4dab-a2c5-3dec81194fd7","system_id":"levelo_inurba_marseille","lat":43.24812,"lon":5.37457,"is_reserved":false,"is_disabled":false,"rental_uris":{"android":"levelo://app?vid=20a773ce-8ebe-4dab-a2c5-3dec81194fd7","ios":"levelo://app?vid=20a773ce-8ebe-4dab-a2c5-3dec81194fd7"},"vehicle_type_id":"4","last_reported":1727730500,"current_range_meters":39200,"station_id":"ce4bhgh2rcd13ifvqfb0","pricing_plan_id":"cebpf4jnsgd1na2vs0mg"},{"bike_id":"75ce0c83-c299-4d46-8486-ce3fb91b1eeb","system_id":"levelo_inurba_marseille","lat":43.31958,"lon":5.38888,"is_reserved":false,"is_disabled":false,"rental_uris":{"android":"levelo://app?vid=75ce0c83-c299-4d46-8486-ce3fb91b1eeb","ios":"levelo://app?vid=75ce0c83-c299-4d46-8486-ce3fb91b1eeb"},"vehicle_type_id":"4","last_reported":1727730500,"current_range_meters":24000,"station_id":"","pricing_plan_id":"cebpf4jnsgd1na2vs0mg"},{"bike_id":"28dcbb3e-b9b7-4589-8485-f90e7d0eb129","system_id":"levelo_inurba_marseille","lat":43.29044,"lon":5.35925,"is_reserved":false,"is_disabled":false,"rental_uris":{"android":"levelo://app?vid=28dcbb3e-b9b7-4589-8485-f90e7d0eb129","ios":"levelo://app?vid=28dcbb3e-b9b7-4589-8485-f90e7d0eb129"},"vehicle_type_id":"4","last_reported":1727730500,"current_range_meters":30400,"station_id":"ce4bha92rcd13ifvqeg0","pricing_plan_id":"cebpf4jnsgd1na2vs0mg"},{"bike_id":"95248ba2-ed15-4f03-8d79-2c0014a03e2f","system_id":"levelo_inurba_marseille","lat":43.28707,"lon":5.37391,"is_reserved":false,"is_disabled":false,"rental_uris":{"android":"levelo://app?vid=95248ba2-ed15-4f03-8d79-2c0014a03e2f","ios":"levelo://app?vid=95248ba2-ed15-4f03-8d79-2c0014a03e2f"},"vehicle_type_id":"4","last_reported":1727730500,"current_range_meters":3600,"station_id":"ce4bh3p2rcd13ifvqdq0","pricing_plan_id":"cebpf4jnsgd1na2vs0mg"},{"bike_id":"a9aa7abf-1c3f-40dd-bdbc-ff90924e1c4a","system_id":"levelo_inurba_marseille","lat":43.28075,"lon":5.3966,"is_reserved":false,"is_disabled":false,"rental_uris":{"android":"levelo://app?vid=a9aa7abf-1c3f-40dd-bdbc-ff90924e1c4a","ios":"levelo://app?vid=a9aa7abf-1c3f-40dd-bdbc-ff90924e1c4a"},"vehicle_type_id":"4","last_reported":1727730500,"current_range_meters":17200,"station_id":"ce4bho12rcd13ifvqh2g","pricing_plan_id":"cebpf4jnsgd1na2vs0mg"},{"bike_id":"a98afe3b-791d-4db5-be5e-7d8802ce3b38","system_id":"levelo_inurba_marseille","lat":43.31718,"lon":5.42397,"is_reserved":false,"is_disabled":false,"rental_uris":{"android":"levelo://app?vid=a98afe3b-791d-4db5-be5e-7d8802ce3b38","ios":"levelo://app?vid=a98afe3b-791d-4db5-be5e-7d8802ce3b38"},"vehicle_type_id":"4","last_reported":1727730500,"current_range_meters":14400,"station_id":"ce4bhp92rcd13ifvqhbg","pricing_plan_id":"cebpf4jnsgd1na2vs0mg"},{"bike_id":"4563817c-adce-4b5f-9203-7df0c6e097eb","system_id":"levelo_inurba_marseille","lat":43.32272,"lon":5.38677,"is_reserved":false,"is_disabled":false,"rental_uris":{"android":"levelo://app?vid=4563817c-adce-4b5f-9203-7df0c6e097eb","ios":"levelo://app?vid=4563817c-adce-4b5f-9203-7df0c6e097eb"},"vehicle_type_id":"4","last_reported":1727730500,"current_range_meters":15200,"station_id":"","pricing_plan_id":"cebpf4jnsgd1na2vs0mg"},{"bike_id":"71c1dba2-d598-4a2e-be77-f96ebb63f3e9","system_id":"levelo_inurba_marseille","lat":43.31712,"lon":5.37761,"is_reserved":false,"is_disabled":false,"rental_uris":{"android":"levelo://app?vid=71c1dba2-d598-4a2e-be77-f96ebb63f3e9","ios":"levelo://app?vid=71c1dba2-d598-4a2e-be77-f96ebb63f3e9"},"vehicle_type_id":"4","last_reported":1727730500,"current_range_meters":32000,"station_id":"ce4bgth2rcd13ifvqch0","pricing_plan_id":"cebpf4jnsgd1na2vs0mg"},{"bike_id":"50687af8-d787-4e4e-a7bc-134044df7dce","system_id":"levelo_inurba_marseille","lat":43.31732,"lon":5.42401,"is_reserved":false,"is_disabled":false,"rental_uris":{"android":"levelo://app?vid=50687af8-d787-4e4e-a7bc-134044df7dce","ios":"levelo://app?vid=50687af8-d787-4e4e-a7bc-134044df7dce"},"vehicle_type_id":"4","last_reported":1727730500,"current_range_meters":2800,"station_id":"ce4bhp92rcd13ifvqhbg","pricing_plan_id":"cebpf4jnsgd1na2vs0mg"},