{"last_updated":1684623943,"ttl":30,"version":"2.2","data":{"bikes":[{"bike_id":"6fab6182-4dc3-4313-8053-6b640d65ff04","system_id":"levelo_inurba_marseille","lat":43.31332,"lon":5.36711,"is_reserved":false,"is_disabled":false,"rental_uris":{"android":"levelo://app?vid=6fab6182-4dc3-4313-8053-6b640d65ff04","ios":"levelo://app?vid=6fab6182-4dc3-4313-8053-6b640d65ff04"},"vehicle_type_id":"4","last_reported":1684623943,"current_range_meters":13600,"station_id":"ce4bgr92rcd13ifvqc6g","pricing_plan_id":"free"},{"bike_id":"7bdf4c5f-5855-4aae-93f1-1f2abb30b761","system_id":"levelo_inurba_marseille","lat":43.31341,"lon":5.367098,"is_reserved":false,"is_disabled":false,"rental_uris":{"android":"levelo://app?vid=7bdf4c5f-5855-4aae-93f1-1f2abb30b761","ios":"levelo://app?vid=7bdf4c5f-5855-4aae-93f1-1f2abb30b761"},"vehicle_type_id":"4","last_reported":1684623943,"current_range_meters":31200,"station_id":"ce4bgr92rcd13ifvqc6g","pricing_plan_id":"free"},{"bike_id":"b9a83316-f642-4535-b39b-2f571d430a5f","system_id":"levelo_inurba_marseille","lat":43.3134,"lon":5.36708,"is_reserved":false,"is_disabled":false,"rental_uris":{"android":"levelo://app?vid=b9a83316-f642-4535-b39b-2f571d430a5f","ios":"levelo://app?vid=b9a83316-f642-4535-b39b-2f571d430a5f"},"vehicle_type_id":"4","last_reported":1684623943,"current_range_meters":25600,"station_id":"ce4bgr92rcd13ifvqc6g","pricing_plan_id":"free"},{"bike_id":"a1c981e9-b61a-4f92-9da3-bc88edc1cf4a","system_id":"levelo_inurba_marseille","lat":43.31342,"lon":5.36705,"is_reserved":false,"is_disabled":false,"rental_uris":{"android":"levelo://app?vid=a1c981e9-b61a-4f92-9da3-bc88edc1cf4a","ios":"levelo://app?vid=a1c981e9-b61a-4f92-9da3-bc88edc1cf4a"},"vehicle_type_id":"4","last_reported":1684623943,"current_range_meters":29600,"station_id":"ce4bgr92rcd13ifvqc6g","pricing_plan_id":"free"},{"bike_id":"32b74d7b-e2eb-4609-add9-6dc4e28a0ff3","system_id":"levelo_inurba_marseille","lat":43.313391,"lon":5.36706,"is_reserved":false,"is_disabled":false,"rental_uris":{"android":"levelo://app?vid=32b74d7b-e2eb-4609-add9-6dc4e28a0ff3","ios":"levelo://app?vid=32b74d7b-e2eb-4609-add9-6dc4e28a0ff3"},"vehicle_type_id":"4","last_reported":1684623943,"current_range_meters":26800,"station_id":"ce4bgr92rcd13ifvqc6g","pricing_plan_id":"free"},{"bike_id":"423051dc-23e3-41ae-a453-4e9c309d34ab","system_id":"levelo_inurba_marseille","lat":43.31344,"lon":5.36715,"is_reserved":false,"is_disabled":false,"rental_uris":{"android":"levelo://app?vid=423051dc-23e3-41ae-a453-4e9c309d34ab","ios":"levelo://app?vid=423051dc-23e3-41ae-a453-4e9c309d34ab"},"vehicle_type_id":"4","last_reported":1684623943,"current_range_meters":31200,"station_id":"ce4bgr92rcd13ifvqc6g","pricing_plan_id":"free"},{"bike_id":"31a6a8f8-35fd-49f7-9a38-8e1123c1c126","system_id":"levelo_inurba_marseille","lat":43.31346,"lon":5.36705,"is_reserved":false,"is_disabled":false,"rental_uris":{"android":"levelo://app?vid=31a6a8f8-35fd-49f7-9a38-8e1123c1c126","ios":"levelo://app?vid=31a6a8f8-35fd-49f7-9a38-8e1123c1c126"},"vehicle_type_id":"4","last_reported":1684623943,"current_range_meters":28800,"station_id":"ce4bgr92rcd13ifvqc6g","pricing_plan_id":"free"},{"bike_id":"c11e8c0d-8f2e-4468-9d4a-529348fce7ac","system_id":"levelo_inurba_marseille","lat":43.31341,"lon":5.367098,"is_reserved":false,"is_disabled":false,"rental_uris":{"android":"levelo://app?vid=c11e8c0d-8f2e-4468-9d4a-529348fce7ac","ios":"levelo://app?vid=c11e8c0d-8f2e-4468-9d4a-529348fce7ac"},"vehicle_type_id":"4","last_reported":1684623943,"current_range_meters":30000,"station_id":"ce4bgr92rcd13ifvqc6g","pricing_plan_id":"free"},{"bike_id":"a62a7dee-1071-4a7f-bd50-e81bf1aead9f","system_id":"levelo_inurba_marseille","lat":43.31346,"lon":5.36727,"is_reserved":false,"is_disabled":false,"rental_uris":{"android":"levelo://app?vid=a62a7dee-1071-4a7f-bd50-e81bf1aead9f","ios":"levelo://app?vid=a62a7dee-1071-4a7f-bd50-e81bf1aead9f"},"vehicle_type_id":"4","last_reported":1684623943,"current_range_meters":0,"station_id":"ce4bgr92rcd13ifvqc6g","pricing_plan_id":"free"},{"bike_id":"79dc37ee-0d88-4a2b-81de-8f86b0985009","system_id":"levelo_inurba_marseille","lat":43.312239,"lon":5.368562,"is_reserved":false,"is_disabled":false,"rental_uris":{"android":"levelo://app?vid=79dc37ee-0d88-4a2b-81de-8f86b0985009","ios":"levelo://app?vid=79dc37ee-0d88-4a2b-81de-8f86b0985009"},"vehicle_type_id":"4","last_reported":1684623943,"current_range_meters":31200,"station_id":"ce4bgl92rcd13ifvqbq0","pricing_plan_id":"free"},{"bike_id":"5e1dbe6a-8459-4aed-8189-73d8264a152c","system_id":"levelo_inurba_marseille","lat":43.312239,"lon":5.368562,"is_reserved":false,"is_disabled":false,"rental_uris":{"android":"levelo://app?vid=5e1dbe6a-8459-4aed-8189-73d8264a152c","ios":"levelo://app?vid=5e1dbe6a-8459-4aed-8189-73d8264a152c"},"vehicle_type_id":"4","last_reported":1684623943,"current_range_meters":31200,"station_id":"ce4bgl92rcd13ifvqbq0","pricing_plan_id":"free"},{"bike_id":"bd32a1b9-3f5c-4caf-b724-871ee9e54ea2","system_id":"levelo_inurba_marseille","lat":43.312239,"lon":5.368562,"is_reserved":false,"is_disabled":false,"rental_uris":{"android":"levelo://app?vid=bd32a1b9-3f5c-4caf-b724-871ee9e54ea2","ios":"levelo://app?vid=bd32a1b9-3f5c-4caf-b724-871ee9e54ea2"},"vehicle_type_id":"4","last_reported":1684623943,"current_range_meters":20400,"station_id":"ce4bgl92rcd13ifvqbq0","pricing_plan_id":"free"},{"bike_id":"28c625ed-e170-4b22-804b-ef79a2a5aa31","system_id":"levelo_inurba_marseille","lat":43.312239,"lon":5.368562,"is_reserved":false,"is_disabled":false,"rental_uris":{"android":"levelo://app?vid=28c625ed-e170-4b22-804b-ef79a2a5aa31","ios":"levelo://app?vid=28c625ed-e170-4b22-804b-ef79a2a5aa31"},"vehicle_type_id":"4","last_reported":1684623943,"current_range_meters":30400,"station_id":"ce4bgl92rcd13ifvqbq0","pricing_plan_id":"free"},{"bike_id":"4052371d-0b40-45a2-a6cf-9cf2875c3212","system_id":"levelo_inurba_marseille","lat":43.3122,"lon":5.36863,"is_reserved":false,"is_disabled":false,"rental_uris":{"android":"levelo://app?vid=4052371d-0b40-45a2-a6cf-9cf2875c3212","ios":"levelo://app?vid=4052371d-0b40-45a2-a6cf-9cf2875c3212"},"vehicle_type_id":"4","last_reported":1684623943,"current_range_meters":31200,"station_id":"ce4bgl92rcd13ifvqbq0","pricing_plan_id":"free"},{"bike_id":"02e41708-8beb-4995-b683-23c8aadcac8b","system_id":"levelo_inurba_marseille","lat":43.312239,"lon":5.368562,"is_reserved":false,"is_disabled":false,"rental_uris":{"android":"levelo://app?vid=02e41708-8beb-4995-b683-23c8aadcac8b","ios":"levelo://app?vid=02e41708-8beb-4995-b683-23c8aadcac8b"},"vehicle_type_id":"4","last_reported":1684623943,"current_range_meters":31200,"station_id":"ce4bgl92rcd13ifvqbq0","pricing_plan_id":"free"},{"bike_id":"ab4c692c-0635-4e77-bf8f-1514e2bb1aea","system_id":"levelo_inurba_marseille","lat":43.309076,"lon":5.368465,"is_reserved":false,"is_disabled":false,"rental_uris":{"android":"levelo://app?vid=ab4c692c-0635-4e77-bf8f-1514e2bb1aea","ios":"levelo://app?vid=ab4c692c-0635-4e77-bf8f-1514e2bb1aea"},"vehicle_type_id":"4","last_reported":1684623943,"current_range_meters":28800,"station_id":"ce4bgn92rcd13ifvqbvg","pricing_plan_id":"free"},{"bike_id":"00ed1216-100c-401a-b868-a50b9eb144af","system_id":"levelo_inurba_marseille","lat":43.308614,"lon":5.372098,"is_reserved":false,"is_disabled":false,"rental_uris":{"android":"levelo://app?vid=00ed1216-100c-401a-b868-a50b9eb144af","ios":"levelo://app?vid=00ed1216-100c-401a-b868-a50b9eb144af"},"vehicle_type_id":"4","last_reported":1684623943,"current_range_meters":16000,"station_id":"ce4bguh2rcd13ifvqckg","pricing_plan_id":"free"},{"bike_id":"3b9abfcf-be2e-4603-9fb4-bc0ab9d2eaa7","system_id":"levelo_inurba_marseille","lat":43.308614,"lon":5.372098,"is_reserved":false,"is_disabled":false,"rental_uris":{"android":"levelo://app?vid=3b9abfcf-be2e-4603-9fb4-bc0ab9d2eaa7","ios":"levelo://app?vid=3b9abfcf-be2e-4603-9fb4-bc0ab9d2eaa7"},"vehicle_type_id":"4","last_reported":1684623943,"current_range_meters":14800,"station_id":"ce4bguh2rcd13ifvqckg","pricing_plan_id":"free"},{"bike_id":"e0992195-4c45-4aa2-9415-4fef18478594","system_id":"levelo_inurba_marseille","lat":43.308614,"lon":5.372098,"is_reserved":false,"is_disabled":false,"rental_uris":{"android":"levelo://app?vid=e0992195-4c45-4aa2-9415-4fef18478594","ios":"levelo://app?vid=e0992195-4c45-4aa2-9415-4fef18478594"},"vehicle_type_id":"4","last_reported":1684623943,"current_range_meters":26400,"station_id":"ce4bguh2rcd13ifvqckg","pricing_plan_id":"free"},{"bike_id":"48ec1c15-ac1e-4d06-9ed5-7733e83d223e","system_id":"levelo_inurba_marseille","lat":43.308614,"lon":5.372098,"is_reserved":false,"is_disabled":false,"rental_uris":{"android":"levelo://app?vid=48ec1c15-ac1e-4d06-9ed5-7733e83d223e","ios":"levelo://app?vid=48ec1c15-ac1e-4d06-9ed5-7733e83d223e"},"vehicle_type_id":"4","last_reported":1684623943,"current_range_meters":26800,"station_id":"ce4bguh2rcd13ifvqckg","pricing_plan_id":"free"},{"bike_id":"33b53780-07a5-429d-a47e-799a79df70ef","system_id":"levelo_inurba_marseille","lat":43.3088,"lon":5.37177,"is_reserved":false,"is_disabled":false,"rental_uris":{"android":"levelo://app?vid=33b53780-07a5-429d-a47e-799a79df70ef","ios":"levelo://app?vid=33b53780-07a5-429d-a47e-799a79df70ef"},"vehicle_type_id":"4","last_reported":1684623943,"current_range_meters":20800,"station_id":"","pricing_plan_id":"free"},{"bike_id":"9d278554-9280-4acc-912a-1fbac15ca724","system_id":"levelo_inurba_marseille","lat":43.305368,"lon":5.367343,"is_reserved":false,"is_disabled":false,"rental_uris":{"android":"levelo://app?vid=9d278554-9280-4acc-912a-1fbac15ca724","ios":"levelo://app?vid=9d278554-9280-4acc-912a-1fbac15ca724"},"vehicle_type_id":"4","last_reported":1684623943,"current_range_meters":28800,"station_id":"ce4bgrp2rcd13ifvqc9g","pricing_plan_id":"free"},{"bike_id":"847cabc4-b461-4c99-aeb7-2f39f102b183","system_id":"levelo_inurba_marseille","lat":43.305368,"lon":5.367343,"is_reserved":false,"is_disabled":false,"rental_uris":{"android":"levelo://app?vid=847cabc4-b461-4c99-aeb7-2f39f102b183","ios":"levelo://app?vid=847cabc4-b461-4c99-aeb7-2f39f102b183"},"vehicle_type_id":"4","last_reported":1684623943,"current_range_meters":22000,"station_id":"ce4bgrp2rcd13ifvqc9g","pricing_plan_id":"free"},{"bike_id":"5d15b9e7-f9ea-484a-8fb2-8dfbba322fbb","system_id":"levelo_inurba_marseille","lat":43.305368,"lon":5.367343,"is_reserved":false,"is_disabled":false,"rental_uris":{"android":"levelo://app?vid=5d15b9e7-f9ea-484a-8fb2-8dfbba322fbb","ios":"levelo://app?vid=5d15b9e7-f9ea-484a-8fb2-8dfbba322fbb"},"vehicle_type_id":"4","last_reported":1684623943,"current_range_meters":7200,"station_id":"ce4bgrp2rcd13ifvqc9g","pricing_plan_id":"free"},{"bike_id":"3646b87a-93a3-4734-9883-6c51d831f921","system_id":"levelo_inurba_marseille","lat":43.305706,"lon":5.365654,"is_reserved":false,"is_disabled":false,"rental_uris":{"android":"levelo://app?vid=3646b87a-93a3-4734-9883-6c51d831f921","ios":"levelo://app?vid=3646b87a-93a3-4734-9883-6c51d831f921"},"vehicle_type_id":"4","last_reported":1684623943,"current_range_meters":31200,"station_id":"ce4bgs12rcd13ifvqcag","pricing_plan_id":"free"},{"bike_id":"1348413d-8796-4729-b223-1caf9be9bf16","system_id":"levelo_inurba_marseille","lat":43.3053,"lon":5.36549,"is_reserved":false,"is_disabled":false,"rental_uris":{"android":"levelo://app?vid=1348413d-8796-4729-b223-1caf9be9bf16","ios":"levelo://app?vid=1348413d-8796-4729-b223-1caf9be9bf16"},"vehicle_type_id":"4","last_reported":1684623943,"current_range_meters":15600,"station_id":"","pricing_plan_id":"free"},{"bike_id":"83577612-6e6c-4bd5-9c84-6c9e4e4b1e3a","system_id":"levelo_inurba_marseille","lat":43.305989,"lon":5.37225,"is_reserved":false,"is_disabled":false,"rental_uris":{"android":"levelo://app?vid=83577612-6e6c-4bd5-9c84-6c9e4e4b1e3a","ios":"levelo://app?vid=83577612-6e6c-4bd5-9c84-6c9e4e4b1e3a"},"vehicle_type_id":"4","last_reported":1684623943,"current_range_meters":9200,"station_id":"ce4bgqh2rcd13ifvqc4g","pricing_plan_id":"free"},{"bike_id":"75ea2005-04af-4825-a5ab-a4f599be61fd","system_id":"levelo_inurba_marseille","lat":43.305989,"lon":5.37225,"is_reserved":false,"is_disabled":false,"rental_uris":{"android":"levelo://app?vid=75ea2005-04af-4825-a5ab-a4f599be61fd","ios":"levelo://app?vid=75ea2005-04af-4825-a5ab-a4f599be61fd"},"vehicle_type_id":"4","last_reported":1684623943,"current_range_meters":30800,"station_id":"ce4bgqh2rcd13ifvqc4g","pricing_plan_id":"free"},{"bike_id":"71e1299e-8fd4-4aca-ada5-273e8e5bdbd6","system_id":"levelo_inurba_marseille","lat":43.305989,"lon":5.37225,"is_reserved":false,"is_disabled":false,"rental_uris":{"android":"levelo://app?vid=71e1299e-8fd4-4aca-ada5-273e8e5bdbd6","ios":"levelo://app?vid=71e1299e-8fd4-4aca-ada5-273e8e5bdbd6"},"vehicle_type_id":"4","last_reported":1684623943,"current_range_meters":31200,"station_id":"ce4bgqh2rcd13ifvqc4g","pricing_plan_id":"free"},{"bike_id":"de80d3de-562d-4d7d-9f21-a0a2fde1c615","system_id":"levelo_inurba_marseille","lat":43.305989,"lon":5.37225,"is_reserved":false,"is_disabled":false,"rental_uris":{"android":"levelo://app?vid=de80d3de-562d-4d7d-9f21-a0a2fde1c615","ios":"levelo://app?vid=de80d3de-562d-4d7d-9f21-a0a2fde1c615"},"vehicle_type_id":"4","last_reported":1684623943,"current_range_meters":25200,"station_id":"ce4bgqh2rcd13ifvqc4g","pricing_plan_id":"free"},{"bike_id":"37c72503-e5c3-47c0-8602-fed8b60838e2","system_id":"levelo_inurba_marseille","lat":43.305989,"lon":5.37225,"is_reserved":false,"is_disabled":false,"rental_uris":{"android":"levelo://app?vid=37c72503-e5c3-47c0-8602-fed8b60838e2","ios":"levelo://app?vid=37c72503-e5c3-47c0-8602-fed8b60838e2"},"vehicle_type_id":"4","last_reported":1684623943,"current_range_meters":30000,"station_id":"ce4bgqh2rcd13ifvqc4g","pricing_plan_id":"free"},{"bike_id":"3e764068-0c0e-4053-9d84-292d9942519b","system_id":"levelo_inurba_marseille","lat":43.305989,"lon":5.37225,"is_reserved":false,"is_disabled":false,"rental_uris":{"android":"levelo://app?vid=3e764068-0c0e-4053-9d84-292d9942519b","ios":"levelo://app?vid=3e764068-0c0e-4053-9d84-292d9942519b"},"vehicle_type_id":"4","last_reported":1684623943,"current_range_meters":31200,"station_id":"ce4bgqh2rcd13ifvqc4g","pricing_plan_id":"free"},{"bike_id":"92386646-675a-4c4c-b639-d6a51b79c27e","system_id":"levelo_inurba_marseille","lat":43.305989,"lon":5.37225,"is_reserved":false,"is_disabled":false,"rental_uris":{"android":"levelo://app?vid=92386646-675a-4c4c-b639-d6a51b79c27e","ios":"levelo://app?vid=92386646-675a-4c4c-b639-d6a51b79c27e"},"vehicle_type_id":"4","last_reported":1684623943,"current_range_meters":21200,"station_id":"ce4bgqh2rcd13ifvqc4g","pricing_plan_id":"free"},{"bike_id":"ad0b2edf-9ce6-484a-b2ff-4a1feabe9b31","system_id":"levelo_inurba_marseille","lat":43.305989,"lon":5.37225,"is_reserved":false,"is_disabled":false,"rental_uris":{"android":"levelo://app?vid=ad0b2edf-9ce6-484a-b2ff-4a1feabe9b31","ios":"levelo://app?vid=ad0b2edf-9ce6-484a-b2ff-4a1feabe9b31"},"vehicle_type_id":"4","last_reported":1684623943,"current_range_meters":17600,"station_id":"ce4bgqh2rcd13ifvqc4g","pricing_plan_id":"free"},{"bike_id":"0f66b3b1-fdc2-47bf-a8d8-47d681d7ce82","system_id":"levelo_inurba_marseille","lat":43.305989,"lon":5.37225,"is_reserved":false,"is_disabled":false,"rental_uris":{"android":"levelo://app?vid=0f66b3b1-fdc2-47bf-a8d8-47d681d7ce82","ios":"levelo://app?vid=0f66b3b1-fdc2-47bf-a8d8-47d681d7ce82"},"vehicle_type_id":"4","last_reported":1684623943,"current_range_meters":22400,"station_id":"ce4bgqh2rcd13ifvqc4g","pricing_plan_id":"free"},{"bike_id":"81d3d583-d93a-4c9b-a35c-4a5754ec2799","system_id":"levelo_inurba_marseille","lat":43.305989,"lon":5.37225,"is_reserved":false,"is_disabled":false,"rental_uris":{"android":"levelo://app?vid=81d3d583-d93a-4c9b-a35c-4a5754ec2799","ios":"levelo://app?vid=81d3d583-d93a-4c9b-a35c-4a5754ec2799"},"vehicle_type_id":"4","last_reported":1684623943,"current_range_meters":6400,"station_id":"ce4bgqh2rcd13ifvqc4g","pricing_plan_id":"free"},{"bike_id":"e58fedb9-a57d-4be1-8ab0-757e8b5b800f","system_id":"levelo_inurba_marseille","lat":43.31717,"lon":5.37654,"is_reserved":false,"is_disabled":false,"rental_uris":{"android":"levelo://app?vid=e58fedb9-a57d-4be1-8ab0-757e8b5b800f","ios":"levelo://app?vid=e58fedb9-a57d-4be1-8ab0-757e8b5b800f"},"vehicle_type_id":"4","last_reported":1684623943,"current_range_meters":3200,"station_id":"","pricing_plan_id":"free"},{"bike_id":"3fdf3590-377d-4457-aec6-c56425f43c68","system_id":"levelo_inurba_marseille","lat":43.3171,"lon":5.37662,"is_reserved":false,"is_disabled":false,"rental_uris":{"android":"levelo://app?vid=3fdf3590-377d-4457-aec6-c56425f43c68","ios":"levelo://app?vid=3fdf3590-377d-4457-aec6-c56425f43c68"},"vehicle_type_id":"4","last_reported":1684623943,"current_range_meters":0,"station_id":"","pricing_plan_id":"free"},{"bike_id":"9f53324e-4118-4eb1-ae1f-c18ea90a6e62","system_id":"levelo_inurba_marseille","lat":43.3171,"lon":5.37748,"is_reserved":false,"is_disabled":false,"rental_uris":{"android":"levelo://app?vid=9f53324e-4118-4eb1-ae1f-c18ea90a6e62","ios":"levelo://app?vid=9f53324e-4118-4eb1-ae1f-c18ea90a6e62"},"vehicle_type_id":"4","last_reported":1684623943,"current_range_meters":29200,"station_id":"ce4bgth2rcd13ifvqch0","pricing_plan_id":"free"},{"bike_id":"e3cbc53a-0b41-4fee-b6bb-f6494b8dfd38","system_id":"levelo_inurba_marseille","lat":43.317075,"lon":5.377367,"is_reserved":false,"is_disabled":false,"rental_uris":{"android":"levelo://app?vid=e3cbc53a-0b41-4fee-b6bb-f6494b8dfd38","ios":"levelo://app?vid=e3cbc53a-0b41-4fee-b6bb-f6494b8dfd38"},"vehicle_type_id":"4","last_reported":1684623943,"current_range_meters":28000,"station_id":"ce4bgth2rcd13ifvqch0","pricing_plan_id":"free"},{"bike_id":"1882916f-80f8-41b8-b1de-6c334bcf1f0b","system_id":"levelo_inurba_marseille","lat":43.317075,"lon":5.377367,"is_reserved":false,"is_disabled":false,"rental_uris":{"android":"levelo://app?vid=1882916f-80f8-41b8-b1de-6c334bcf1f0b","ios":"levelo://app?vid=1882916f-80f8-41b8-b1de-6c334bcf1f0b"},"vehicle_type_id":"4","last_reported":1684623943,"current_range_meters":31200,"station_id":"ce4bgth2rcd13ifvqch0","pricing_plan_id":"free"},{"bike_id":"906de340-506a-4f05-9639-8551c35c3cf4","system_id":"levelo_inurba_marseille","lat":43.317075,"lon":5.377367,"is_reserved":false,"is_disabled":false,"rental_uris":{"android":"levelo://app?vid=906de340-506a-4f05-9639-8551c35c3cf4","ios":"levelo://app?vid=906de340-506a-4f05-9639-8551c35c3cf4"},"vehicle_type_id":"4","last_reported":1684623943,"current_range_meters":31200,"station_id":"ce4bgth2rcd13ifvqch0","pricing_plan_id":"free"},{"bike_id":"c27523af-0050-40ba-86ce-6f147ab29d86","system_id":"levelo_inurba_marseille","lat":43.317075,"lon":5.377367,"is_reserved":false,"is_disabled":false,"rental_uris":{"android":"levelo://app?vid=c27523af-0050-40ba-86ce-6f147ab29d86","ios":"levelo://app?vid=c27523af-0050-40ba-86ce-6f147ab29d86"},"vehicle_type_id":"4","last_reported":1684623943,"current_range_meters":13600,"station_id":"ce4bgth2rcd13ifvqch0","pricing_plan_id":"free"},{"bike_id":"8ea90558-9c37-49ab-90f3-ff36a36b0556","system_id":"levelo_inurba_marseille","lat":43.303046,"lon":5.368981,"is_reserved":false,"is_disabled":false,"rental_uris":{"android":"levelo://app?vid=8ea90558-9c37-49ab-90f3-ff36a36b0556","ios":"levelo://app?vid=8ea90558-9c37-49ab-90f3-ff36a36b0556"},"vehicle_type_id":"4","last_reported":1684623943,"current_range_meters":6800,"station_id":"ce4bgqh2rcd13ifvqc5g","pricing_plan_id":"free"},{"bike_id":"19218de5-3f50-44f2-adae-f069833a7744","system_id":"levelo_inurba_marseille","lat":43.303046,"lon":5.368981,"is_reserved":false,"is_disabled":false,"rental_uris":{"android":"levelo://app?vid=19218de5-3f50-44f2-adae-f069833a7744","ios":"levelo://app?vid=19218de5-3f50-44f2-adae-f069833a7744"},"vehicle_type_id":"4","last_reported":1684623943,"current_range_meters":22000,"station_id":"ce4bgqh2rcd13ifvqc5g","pricing_plan_id":"free"},{"bike_id":"752d47ae-6d5c-4077-8a80-524f92481ff9","system_id":"levelo_inurba_marseille","lat":43.303,"lon":5.36909,"is_reserved":false,"is_disabled":false,"rental_uris":{"android":"levelo://app?vid=752d47ae-6d5c-4077-8a80-524f92481ff9","ios":"levelo://app?vid=752d47ae-6d5c-4077-8a80-524f92481ff9"},"vehicle_type_id":"4","last_reported":1684623943,"current_range_meters":25200,"station_id":"ce4bgqh2rcd13ifvqc5g","pricing_plan_id":"free"},{"bike_id":"6ca53fc9-e5f4-48e0-8506-2735d8e0b417","system_id":"levelo_inurba_marseille","lat":43.303046,"lon":5.368981,"is_reserved":false,"is_disabled":false,"rental_uris":{"android":"levelo://app?vid=6ca53fc9-e5f4-48e0-8506-2735d8e0b417","ios":"levelo://app?vid=6ca53fc9-e5f4-48e0-8506-2735d8e0b417"},"vehicle_type_id":"4","last_reported":1684623943,"current_range_meters":10400,"station_id":"ce4bgqh2rcd13ifvqc5g","pricing_plan_id":"free"},{"bike_id":"d291ddc1-0407-44d8-b043-ed97bc1e7850","system_id":"levelo_inurba_marseille","lat":43.315289,"lon":5.380349,"is_reserved":false,"is_disabled":false,"rental_uris":{"android":"levelo://app?vid=d291ddc1-0407-44d8-b043-ed97bc1e7850","ios":"levelo://app?vid=d291ddc1-0407-44d8-b043-ed97bc1e7850"},"vehicle_type_id":"4","last_reported":1684623943,"current_range_meters":28800,"station_id":"ce4bhsp2rcd13ifvqi50","pricing_plan_id":"free"},{"bike_id":"8375d563-44ef-4c64-ba35-6b0ca056e6d1","system_id":"levelo_inurba_marseille","lat":43.315289,"lon":5.380349,"is_reserved":false,"is_disabled":false,"rental_uris":{"android":"levelo://app?vid=8375d563-44ef-4c64-ba35-6b0ca056e6d1","ios":"levelo://app?vid=8375d563-44ef-4c64-ba35-6b0ca056e6d1"},"vehicle_type_id":"4","last_reported":1684623943,"current_range_meters":21200,"station_id":"ce4bhsp2rcd13ifvqi50","pricing_plan_id":"free"},{"bike_id":"510b9e40-2393-4d0e-9320-c40b36402a61","system_id":"levelo_inurba_marseille","lat":43.308012,"lon":5.381511,"is_reserved":false,"is_disabled":false,"rental_uris":{"android":"levelo://app?vid=510b9e40-2393-4d0e-9320-c40b36402a61","ios":"levelo://app?vid=510b9e40-2393-4d0e-9320-c40b36402a61"},"vehicle_type_id":"4","last_reported":1684623943,"current_range_meters":31200,"station_id":"ce4bgt12rcd13ifvqce0","pricing_plan_id":"free"},{"bike_id":"e974bce5-f02f-4930-a1ba-6edbff55b68a","system_id":"levelo_inurba_marseille","lat":43.308012,"lon":5.381511,"is_reserved":false,"is_disabled":false,"rental_uris":{"android":"levelo://app?vid=e974bce5-f02f-4930-a1ba-6edbff55b68a","ios":"levelo://app?vid=e974bce5-f02f-4930-a1ba-6edbff55b68a"},"vehicle_type_id":"4","last_reported":1684623943,"current_range_meters":23200,"station_id":"ce4bgt12rcd13ifvqce0","pricing_plan_id":"free"},{"bike_id":"1c85d5b6-8ee4-4aa3-a270-977d5772da60","system_id":"levelo_inurba_marseille","lat":43.308012,"lon":5.381511,"is_reserved":false,"is_disabled":false,"rental_uris":{"android":"levelo://app?vid=1c85d5b6-8ee4-4aa3-a270-977d5772da60","ios":"levelo://app?vid=1c85d5b6-8ee4-4aa3-a270-977d5772da60"},"vehicle_type_id":"4","last_reported":1684623943,"current_range_meters":22000,"station_id":"ce4bgt12rcd13ifvqce0","pricing_plan_id":"free"},{"bike_id":"802515b4-f2fe-4f88-8cb0-818adff6ccac","system_id":"levelo_inurba_marseille","lat":43.304606,"lon":5.379026,"is_reserved":false,"is_disabled":false,"rental_uris":{"android":"levelo://app?vid=802515b4-f2fe-4f88-8cb0-818adff6ccac","ios":"levelo://app?vid=802515b4-f2fe-4f88-8cb0-818adff6ccac"},"vehicle_type_id":"4","last_reported":1684623943,"current_range_meters":28000,"station_id":"ce4bgup2rcd13ifvqcn0","pricing_plan_id":"free"},{"bike_id":"d6383257-fc3f-4b04-b848-29e9967948c7","system_id":"levelo_inurba_marseille","lat":43.30146,"lon":5.37404,"is_reserved":false,"is_disabled":false,"rental_uris":{"android":"levelo://app?vid=d6383257-fc3f-4b04-b848-29e9967948c7","ios":"levelo://app?vid=d6383257-fc3f-4b04-b848-29e9967948c7"},"vehicle_type_id":"4","last_reported":1684623943,"current_range_meters":19200,"station_id":"","pricing_plan_id":"free"},{"bike_id":"24c4b749-f0f6-4e50-b63f-6fb682a02a6f","system_id":"levelo_inurba_marseille","lat":43.30146,"lon":5.37419,"is_reserved":false,"is_disabled":false,"rental_uris":{"android":"levelo://app?vid=24c4b749-f0f6-4e50-b63f-6fb682a02a6f","ios":"levelo://app?vid=24c4b749-f0f6-4e50-b63f-6fb682a02a6f"},"vehicle_type_id":"4","last_reported":1684623943,"current_range_meters":31200,"station_id":"","pricing_plan_id":"free"},{"bike_id":"344bac3c-c35f-4d72-b165-962ffe89734e","system_id":"levelo_inurba_marseille","lat":43.30142,"lon":5.3741,"is_reserved":false,"is_disabled":false,"rental_uris":{"android":"levelo://app?vid=344bac3c-c35f-4d72-b165-962ffe89734e","ios":"levelo://app?vid=344bac3c-c35f-4d72-b165-962ffe89734e"},"vehicle_type_id":"4","last_reported":1684623943,"current_range_meters":22000,"station_id":"","pricing_plan_id":"free"},{"bike_id":"d2160bfa-e1c8-4f64-b460-dc124a43fdce","system_id":"levelo_inurba_marseille","lat":43.30136,"lon":5.37419,"is_reserved":false,"is_disabled":false,"rental_uris":{"android":"levelo://app?vid=d2160bfa-e1c8-4f64-b460-dc124a43fdce","ios":"levelo://app?vid=d2160bfa-e1c8-4f64-b460-dc124a43fdce"},"vehicle_type_id":"4","last_reported":1684623943,"current_range_meters":20800,"station_id":"","pricing_plan_id":"free"},{"bike_id":"7142b64d-6cb8-4308-bcd7-643639486303","system_id":"levelo_inurba_marseille","lat":43.319935,"lon":5.381699,"is_reserved":false,"is_disabled":false,"rental_uris":{"android":"levelo://app?vid=7142b64d-6cb8-4308-bcd7-643639486303","ios":"levelo://app?vid=7142b64d-6cb8-4308-bcd7-643639486303"},"vehicle_type_id":"4","last_reported":1684623943,"current_range_meters":29600,"station_id":"ce4bhr12rcd13ifvqhpg","pricing_plan_id":"free"},{"bike_id":"139082d9-1532-42a9-b682-d4b8d6d765b1","system_id":"levelo_inurba_marseille","lat":43.319935,"lon":5.381699,"is_reserved":false,"is_disabled":false,"rental_uris":{"android":"levelo://app?vid=139082d9-1532-42a9-b682-d4b8d6d765b1","ios":"levelo://app?vid=139082d9-1532-42a9-b682-d4b8d6d765b1"},"vehicle_type_id":"4","last_reported":1684623943,"current_range_meters":15600,"station_id":"ce4bhr12rcd13ifvqhpg","pricing_plan_id":"free"},{"bike_id":"6c8c0b50-1bda-42af-b87a-c8dae15142ac","system_id":"levelo_inurba_marseille","lat":43.313571,"lon":5.384829,"is_reserved":false,"is_disabled":false,"rental_uris":{"android":"levelo://app?vid=6c8c0b50-1bda-42af-b87a-c8dae15142ac","ios":"levelo://app?vid=6c8c0b50-1bda-42af-b87a-c8dae15142ac"},"vehicle_type_id":"4","last_reported":1684623943,"current_range_meters":28000,"station_id":"ce4bgt92rcd13ifvqcf0","pricing_plan_id":"free"},{"bike_id":"e30a8554-ecf9-4054-ad2d-4392dae1b66d","system_id":"levelo_inurba_marseille","lat":43.313571,"lon":5.384829,"is_reserved":false,"is_disabled":false,"rental_uris":{"android":"levelo://app?vid=e30a8554-ecf9-4054-ad2d-4392dae1b66d","ios":"levelo://app?vid=e30a8554-ecf9-4054-ad2d-4392dae1b66d"},"vehicle_type_id":"4","last_reported":1684623943,"current_range_meters":28400,"station_id":"ce4bgt92rcd13ifvqcf0","pricing_plan_id":"free"},{"bike_id":"ff8887da-1024-45bd-8837-4cd9e524ee87","system_id":"levelo_inurba_marseille","lat":43.313571,"lon":5.384829,"is_reserved":false,"is_disabled":false,"rental_uris":{"android":"levelo://app?vid=ff8887da-1024-45bd-8837-4cd9e524ee87","ios":"levelo://app?vid=ff8887da-1024-45bd-8837-4cd9e524ee87"},"vehicle_type_id":"4","last_reported":1684623943,"current_range_meters":11200,"station_id":"ce4bgt92rcd13ifvqcf0","pricing_plan_id":"free"},{"bike_id":"4ad29d12-ac23-431c-9c7b-fe7e2bc5a580","system_id":"levelo_inurba_marseille","lat":43.305364,"lon":5.384119,"is_reserved":false,"is_disabled":false,"rental_uris":{"android":"levelo://app?vid=4ad29d12-ac23-431c-9c7b-fe7e2bc5a580","ios":"levelo://app?vid=4ad29d12-ac23-431c-9c7b-fe7e2bc5a580"},"vehicle_type_id":"4","last_reported":1684623943,"current_range_meters":18000,"station_id":"ce4bgg92rcd13ifvqb30","pricing_plan_id":"free"},{"bike_id":"5c40a3cb-3852-49ab-8209-a1d11b88d3b0","system_id":"levelo_inurba_marseille","lat":43.305364,"lon":5.384119,"is_reserved":false,"is_disabled":false,"rental_uris":{"android":"levelo://app?vid=5c40a3cb-3852-49ab-8209-a1d11b88d3b0","ios":"levelo://app?vid=5c40a3cb-3852-49ab-8209-a1d11b88d3b0"},"vehicle_type_id":"4","last_reported":1684623943,"current_range_meters":31200,"station_id":"ce4bgg92rcd13ifvqb30","pricing_plan_id":"free"},{"bike_id":"a90336bf-2eff-4e88-9ec0-008b8099440c","system_id":"levelo_inurba_marseille","lat":43.299243,"lon":5.374807,"is_reserved":false,"is_disabled":false,"rental_uris":{"android":"levelo://app?vid=a90336bf-2eff-4e88-9ec0-008b8099440c","ios":"levelo://app?vid=a90336bf-2eff-4e88-9ec0-008b8099440c"},"vehicle_type_id":"4","last_reported":1684623943,"current_range_meters":26400,"station_id":"ce4bgjh2rcd13ifvqbg0","pricing_plan_id":"free"},{"bike_id":"a3a0c130-bef6-4552-af38-7944adfcc05e","system_id":"levelo_inurba_marseille","lat":43.311722,"lon":5.387247,"is_reserved":false,"is_disabled":false,"rental_uris":{"android":"levelo://app?vid=a3a0c130-bef6-4552-af38-7944adfcc05e","ios":"levelo://app?vid=a3a0c130-bef6-4552-af38-7944adfcc05e"},"vehicle_type_id":"4","last_reported":1684623943,"current_range_meters":28400,"station_id":"ce4bgv12rcd13ifvqcp0","pricing_plan_id":"free"},{"bike_id":"c8055d66-e67d-4494-8b36-ba022f1c0e46","system_id":"levelo_inurba_marseille","lat":43.299243,"lon":5.374807,"is_reserved":false,"is_disabled":false,"rental_uris":{"android":"levelo://app?vid=c8055d66-e67d-4494-8b36-ba022f1c0e46","ios":"levelo://app?vid=c8055d66-e67d-4494-8b36-ba022f1c0e46"},"vehicle_type_id":"4","last_reported":1684623943,"current_range_meters":30800,"station_id":"ce4bgjh2rcd13ifvqbg0","pricing_plan_id":"free"},{"bike_id":"2f7a87f6-43e1-4379-a579-7fa12e8ccc03","system_id":"levelo_inurba_marseille","lat":43.311722,"lon":5.387247,"is_reserved":false,"is_disabled":false,"rental_uris":{"android":"levelo://app?vid=2f7a87f6-43e1-4379-a579-7fa12e8ccc03","ios":"levelo://app?vid=2f7a87f6-43e1-4379-a579-7fa12e8ccc03"},"vehicle_type_id":"4","last_reported":1684623943,"current_range_meters":29200,"station_id":"ce4bgv12rcd13ifvqcp0","pricing_plan_id":"free"},{"bike_id":"6421aa2c-37f7-4298-a882-e69ef2c52659","system_id":"levelo_inurba_marseille","lat":43.299243,"lon":5.374807,"is_reserved":false,"is_disabled":false,"rental_uris":{"android":"levelo://app?vid=6421aa2c-37f7-4298-a882-e69ef2c52659","ios":"levelo://app?vid=6421aa2c-37f7-4298-a882-e69ef2c52659"},"vehicle_type_id":"4","last_reported":1684623943,"current_range_meters":28400,"station_id":"ce4bgjh2rcd13ifvqbg0","pricing_plan_id":"free"},{"bike_id":"e66f6cdd-fb89-4a87-8588-ea0549ec081d","system_id":"levelo_inurba_marseille","lat":43.299243,"lon":5.374807,"is_reserved":false,"is_disabled":false,"rental_uris":{"android":"levelo://app?vid=e66f6cdd-fb89-4a87-8588-ea0549ec081d","ios":"levelo://app?vid=e66f6cdd-fb89-4a87-8588-ea0549ec081d"},"vehicle_type_id":"4","last_reported":1684623943,"current_range_meters":31200,"station_id":"ce4bgjh2rcd13ifvqbg0","pricing_plan_id":"free"},{"bike_id":"17758178-c0e1-4742-a332-e2df57be5107","system_id":"levelo_inurba_marseille","lat":43.29911,"lon":5.37463,"is_reserved":false,"is_disabled":false,"rental_uris":{"android":"levelo://app?vid=17758178-c0e1-4742-a332-e2df57be5107","ios":"levelo://app?vid=17758178-c0e1-4742-a332-e2df57be5107"},"vehicle_type_id":"4","last_reported":1684623943,"current_range_meters":22800,"station_id":"ce4bgjh2rcd13ifvqbg0","pricing_plan_id":"free"},{"bike_id":"3cf87e46-abc3-4b36-ae13-cb54111b24cb","system_id":"levelo_inurba_marseille","lat":43.311722,"lon":5.387247,"is_reserved":false,"is_disabled":false,"rental_uris":{"android":"levelo://app?vid=3cf87e46-abc3-4b36-ae13-cb54111b24cb","ios":"levelo://app?vid=3cf87e46-abc3-4b36-ae13-cb54111b24cb"},"vehicle_type_id":"4","last_reported":1684623943,"current_range_meters":31200,"station_id":"ce4bgv12rcd13ifvqcp0","pricing_plan_id":"free"},{"bike_id":"c4e81a65-e9c9-40c7-938f-08dd366aef79","system_id":"levelo_inurba_marseille","lat":43.299243,"lon":5.374807,"is_reserved":false,"is_disabled":false,"rental_uris":{"android":"levelo://app?vid=c4e81a65-e9c9-40c7-938f-08dd366aef79","ios":"levelo://app?vid=c4e81a65-e9c9-40c7-938f-08dd366aef79"},"vehicle_type_id":"4","last_reported":1684623943,"current_range_meters":28400,"station_id":"ce4bgjh2rcd13ifvqbg0","pricing_plan_id":"free"},{"bike_id":"5e34cc0a-bc99-4ca6-96d7-a8e71198c69d","system_id":"levelo_inurba_marseille","lat":43.299243,"lon":5.37481,"is_reserved":false,"is_disabled":false,"rental_uris":{"android":"levelo://app?vid=5e34cc0a-bc99-4ca6-96d7-a8e71198c69d","ios":"levelo://app?vid=5e34cc0a-bc99-4ca6-96d7-a8e71198c69d"},"vehicle_type_id":"4","last_reported":1684623943,"current_range_meters":26800,"station_id":"ce4bgjh2rcd13ifvqbg0","pricing_plan_id":"free"},{"bike_id":"62713cae-5a8d-4848-8924-84a42582c98a","system_id":"levelo_inurba_marseille","lat":43.299243,"lon":5.37481,"is_reserved":false,"is_disabled":false,"rental_uris":{"android":"levelo://app?vid=62713cae-5a8d-4848-8924-84a42582c98a","ios":"levelo://app?vid=62713cae-5a8d-4848-8924-84a42582c98a"},"vehicle_type_id":"4","last_reported":1684623943,"current_range_meters":31200,"station_id":"ce4bgjh2rcd13ifvqbg0","pricing_plan_id":"free"},{"bike_id":"d0e014ba-f9b7-4ba3-82cc-6979a4b2f781","system_id":"levelo_inurba_marseille","lat":43.311722,"lon":5.387247,"is_reserved":false,"is_disabled":false,"rental_uris":{"android":"levelo://app?vid=d0e014ba-f9b7-4ba3-82cc-6979a4b2f781","ios":"levelo://app?vid=d0e014ba-f9b7-4ba3-82cc-6979a4b2f781"},"vehicle_type_id":"4","last_reported":1684623943,"current_range_meters":25600,"station_id":"ce4bgv12rcd13ifvqcp0","pricing_plan_id":"free"},{"bike_id":"a5948fa4-7f4c-4e4e-9c13-81c75d80991a","system_id":"levelo_inurba_marseille","lat":43.311722,"lon":5.387247,"is_reserved":false,"is_disabled":false,"rental_uris":{"android":"levelo://app?vid=a5948fa4-7f4c-4e4e-9c13-81c75d80991a","ios":"levelo://app?vid=a5948fa4-7f4c-4e4e-9c13-81c75d80991a"},"vehicle_type_id":"4","last_reported":1684623943,"current_range_meters":23200,"station_id":"ce4bgv12rcd13ifvqcp0","pricing_plan_id":"free"},{"bike_id":"9f0ebdbb-6a28-4f79-abbb-df99e1f8464d","system_id":"levelo_inurba_marseille","lat":43.311722,"lon":5.387247,"is_reserved":false,"is_disabled":false,"rental_uris":{"android":"levelo://app?vid=9f0ebdbb-6a28-4f79-abbb-df99e1f8464d","ios":"levelo://app?vid=9f0ebdbb-6a28-4f79-abbb-df99e1f8464d"},"vehicle_type_id":"4","last_reported":1684623943,"current_range_meters":19200,"station_id":"ce4bgv12rcd13ifvqcp0","pricing_plan_id":"free"},{"bike_id":"71a7cd51-c98e-4b63-902f-c2f5a808a065","system_id":"levelo_inurba_marseille","lat":43.32767,"lon":5.36707,"is_reserved":false,"is_disabled":false,"rental_uris":{"android":"levelo://app?vid=71a7cd51-c98e-4b63-902f-c2f5a808a065","ios":"levelo://app?vid=71a7cd51-c98e-4b63-902f-c2f5a808a065"},"vehicle_type_id":"4","last_reported":1684623943,"current_range_meters":21200,"station_id":"","pricing_plan_id":"free"},{"bike_id":"5cf7ffc9-a389-4209-a251-5b3b341d543c","system_id":"levelo_inurba_marseille","lat":43.297794,"lon":5.370888,"is_reserved":false,"is_disabled":false,"rental_uris":{"android":"levelo://app?vid=5cf7ffc9-a389-4209-a251-5b3b341d543c","ios":"levelo://app?vid=5cf7ffc9-a389-4209-a251-5b3b341d543c"},"vehicle_type_id":"4","last_reported":1684623943,"current_range_meters":31200,"station_id":"ce4bgop2rcd13ifvqc1g","pricing_plan_id":"free"},{"bike_id":"3a71f41b-23a8-4407-ba65-e6ca37d7f313","system_id":"levelo_inurba_marseille","lat":43.297794,"lon":5.370888,"is_reserved":false,"is_disabled":false,"rental_uris":{"android":"levelo://app?vid=3a71f41b-23a8-4407-ba65-e6ca37d7f313","ios":"levelo://app?vid=3a71f41b-23a8-4407-ba65-e6ca37d7f313"},"vehicle_type_id":"4","last_reported":1684623943,"current_range_meters":31200,"station_id":"ce4bgop2rcd13ifvqc1g","pricing_plan_id":"free"},{"bike_id":"da5c6273-c63c-47c5-8d95-bdac8afdbd5e","system_id":"levelo_inurba_marseille","lat":43.297794,"lon":5.370888,"is_reserved":false,"is_disabled":false,"rental_uris":{"android":"levelo://app?vid=da5c6273-c63c-47c5-8d95-bdac8afdbd5e","ios":"levelo://app?vid=da5c6273-c63c-47c5-8d95-bdac8afdbd5e"},"vehicle_type_id":"4","last_reported":1684623943,"current_range_meters":23200,"station_id":"ce4bgop2rcd13ifvqc1g","pricing_plan_id":"free"},{"bike_id":"2d4ea538-f0d0-4dfc-9202-567977f1d062","system_id":"levelo_inurba_marseille","lat":43.297774,"lon":5.370875,"is_reserved":false,"is_disabled":false,"rental_uris":{"android":"levelo://app?vid=2d4ea538-f0d0-4dfc-9202-567977f1d062","ios":"levelo://app?vid=2d4ea538-f0d0-4dfc-9202-567977f1d062"},"vehicle_type_id":"4","last_reported":1684623943,"current_range_meters":27200,"station_id":"ce4bgop2rcd13ifvqc1g","pricing_plan_id":"free"},{"bike_id":"41a2b8f0-2bb4-48af-b01a-5624103b582f","system_id":"levelo_inurba_marseille","lat":43.297794,"lon":5.370888,"is_reserved":false,"is_disabled":false,"rental_uris":{"android":"levelo://app?vid=41a2b8f0-2bb4-48af-b01a-5624103b582f","ios":"levelo://app?vid=41a2b8f0-2bb4-48af-b01a-5624103b582f"},"vehicle_type_id":"4","last_reported":1684623943,"current_range_meters":31200,"station_id":"ce4bgop2rcd13ifvqc1g","pricing_plan_id":"free"},{"bike_id":"411c53dc-8a67-493a-b123-b1e299cae53c","system_id":"levelo_inurba_marseille","lat":43.328371,"lon":5.366909,"is_reserved":false,"is_disabled":false,"rental_uris":{"android":"levelo://app?vid=411c53dc-8a67-493a-b123-b1e299cae53c","ios":"levelo://app?vid=411c53dc-8a67-493a-b123-b1e299cae53c"},"vehicle_type_id":"4","last_reported":1684623943,"current_range_meters":30000,"station_id":"ce4bhs92rcd13ifvqi0g","pricing_plan_id":"free"},{"bike_id":"fccfd339-db22-4277-bdd0-196f87e474ac","system_id":"levelo_inurba_marseille","lat":43.328371,"lon":5.366909,"is_reserved":false,"is_disabled":false,"rental_uris":{"android":"levelo://app?vid=fccfd339-db22-4277-bdd0-196f87e474ac","ios":"levelo://app?vid=fccfd339-db22-4277-bdd0-196f87e474ac"},"vehicle_type_id":"4","last_reported":1684623943,"current_range_meters":21600,"station_id":"ce4bhs92rcd13ifvqi0g","pricing_plan_id":"free"},{"bike_id":"a7fb6a73-9ebf-4b56-938e-67995ffda768","system_id":"levelo_inurba_marseille","lat":43.328371,"lon":5.366909,"is_reserved":false,"is_disabled":false,"rental_uris":{"android":"levelo://app?vid=a7fb6a73-9ebf-4b56-938e-67995ffda768","ios":"levelo://app?vid=a7fb6a73-9ebf-4b56-938e-67995ffda768"},"vehicle_type_id":"4","last_reported":1684623943,"current_range_meters":31200,"station_id":"ce4bhs92rcd13ifvqi0g","pricing_plan_id":"free"},{"bike_id":"9d891959-73d6-4c5c-ad12-227228d64e9d","system_id":"levelo_inurba_marseille","lat":43.328371,"lon":5.366909,"is_reserved":false,"is_disabled":false,"rental_uris":{"android":"levelo://app?vid=9d891959-73d6-4c5c-ad12-227228d64e9d","ios":"levelo://app?vid=9d891959-73d6-4c5c-ad12-227228d64e9d"},"vehicle_type_id":"4","last_reported":1684623943,"current_range_meters":19200,"station_id":"ce4bhs92rcd13ifvqi0g","pricing_plan_id":"free"},{"bike_id":"603ebff5-e2d7-41cd-ab80-1218573f88c5","system_id":"levelo_inurba_marseille","lat":43.328371,"lon":5.366909,"is_reserved":false,"is_disabled":false,"rental_uris":{"android":"levelo://app?vid=603ebff5-e2d7-41cd-ab80-1218573f88c5","ios":"levelo://app?vid=603ebff5-e2d7-41cd-ab80-1218573f88c5"},"vehicle_type_id":"4","last_reported":1684623943,"current_range_meters":30000,"station_id":"ce4bhs92rcd13ifvqi0g","pricing_plan_id":"free"},{"bike_id":"bd0cd171-ddc8-443f-ad52-c3c60e0946fd","system_id":"levelo_inurba_marseille","lat":43.29718,"lon":5.36613,"is_reserved":false,"is_disabled":false,"rental_uris":{"android":"levelo://app?vid=bd0cd171-ddc8-443f-ad52-c3c60e0946fd","ios":"levelo://app?vid=bd0cd171-ddc8-443f-ad52-c3c60e0946fd"},"vehicle_type_id":"4","last_reported":1684623943,"current_range_meters":2400,"station_id":"","pricing_plan_id":"free"},{"bike_id":"de338054-150d-4f92-8ba2-f43c70283500","system_id":"levelo_inurba_marseille","lat":43.328371,"lon":5.366909,"is_reserved":false,"is_disabled":false,"rental_uris":{"android":"levelo://app?vid=de338054-150d-4f92-8ba2-f43c70283500","ios":"levelo://app?vid=de338054-150d-4f92-8ba2-f43c70283500"},"vehicle_type_id":"4","last_reported":1684623943,"current_range_meters":18800,"station_id":"ce4bhs92rcd13ifvqi0g","pricing_plan_id":"free"},{"bike_id":"4c34d452-7e64-4a57-a842-ccf742ccfa47","system_id":"levelo_inurba_marseille","lat":43.29709,"lon":5.36606,"is_reserved":false,"is_disabled":false,"rental_uris":{"android":"levelo://app?vid=4c34d452-7e64-4a57-a842-ccf742ccfa47","ios":"levelo://app?vid=4c34d452-7e64-4a57-a842-ccf742ccfa47"},"vehicle_type_id":"4","last_reported":1684623943,"current_range_meters":28000,"station_id":"","pricing_plan_id":"free"},{"bike_id":"50d173d1-18ff-41f7-9eb8-ae9dc916a04c","system_id":"levelo_inurba_marseille","lat":43.296131,"lon":5.370791,"is_reserved":false,"is_disabled":false,"rental_uris":{"android":"levelo://app?vid=50d173d1-18ff-41f7-9eb8-ae9dc916a04c","ios":"levelo://app?vid=50d173d1-18ff-41f7-9eb8-ae9dc916a04c"},"vehicle_type_id":"4","last_reported":1684623943,"current_range_meters":28800,"station_id":"ce4bgnh2rcd13ifvqc0g","pricing_plan_id":"free"},{"bike_id":"14060c1f-51a9-426a-86f0-e4083e7e25f7","system_id":"levelo_inurba_marseille","lat":43.296131,"lon":5.370791,"is_reserved":false,"is_disabled":false,"rental_uris":{"android":"levelo://app?vid=14060c1f-51a9-426a-86f0-e4083e7e25f7","ios":"levelo://app?vid=14060c1f-51a9-426a-86f0-e4083e7e25f7"},"vehicle_type_id":"4","last_reported":1684623943,"current_range_meters":31200,"station_id":"ce4bgnh2rcd13ifvqc0g","pricing_plan_id":"free"},{"bike_id":"ee6619ff-faea-4d23-a990-697445c25ee4","system_id":"levelo_inurba_marseille","lat":43.296131,"lon":5.370773,"is_reserved":false,"is_disabled":false,"rental_uris":{"android":"levelo://app?vid=ee6619ff-faea-4d23-a990-697445c25ee4","ios":"levelo://app?vid=ee6619ff-faea-4d23-a990-697445c25ee4"},"vehicle_type_id":"4","last_reported":1684623943,"current_range_meters":25600,"station_id":"ce4bgnh2rcd13ifvqc0g","pricing_plan_id":"free"},{"bike_id":"9428382f-f8d8-43ea-8dce-6c96c2d3e1a1","system_id":"levelo_inurba_marseille","lat":43.296129,"lon":5.370777,"is_reserved":false,"is_disabled":false,"rental_uris":{"android":"levelo://app?vid=9428382f-f8d8-43ea-8dce-6c96c2d3e1a1","ios":"levelo://app?vid=9428382f-f8d8-43ea-8dce-6c96c2d3e1a1"},"vehicle_type_id":"4","last_reported":1684623943,"current_range_meters":27600,"station_id":"ce4bgnh2rcd13ifvqc0g","pricing_plan_id":"free"},{"bike_id":"4ee5bc37-8c2b-4e71-bcf4-7883170f0091","system_id":"levelo_inurba_marseille","lat":43.296223,"lon":5.371758,"is_reserved":false,"is_disabled":false,"rental_uris":{"android":"levelo://app?vid=4ee5bc37-8c2b-4e71-bcf4-7883170f0091","ios":"levelo://app?vid=4ee5bc37-8c2b-4e71-bcf4-7883170f0091"},"vehicle_type_id":"4","last_reported":1684623943,"current_range_meters":17200,"station_id":"ce4bh012rcd13ifvqd00","pricing_plan_id":"free"},{"bike_id":"1d0998d3-da8c-4aed-96f0-608a1f7a49d9","system_id":"levelo_inurba_marseille","lat":43.29573,"lon":5.367355,"is_reserved":false,"is_disabled":false,"rental_uris":{"android":"levelo://app?vid=1d0998d3-da8c-4aed-96f0-608a1f7a49d9","ios":"levelo://app?vid=1d0998d3-da8c-4aed-96f0-608a1f7a49d9"},"vehicle_type_id":"4","last_reported":1684623943,"current_range_meters":31200,"station_id":"ce4bgph2rcd13ifvqc2g","pricing_plan_id":"free"},{"bike_id":"fc6e2bcd-09da-4159-b251-159a47439ec7","system_id":"levelo_inurba_marseille","lat":43.29573,"lon":5.367355,"is_reserved":false,"is_disabled":false,"rental_uris":{"android":"levelo://app?vid=fc6e2bcd-09da-4159-b251-159a47439ec7","ios":"levelo://app?vid=fc6e2bcd-09da-4159-b251-159a47439ec7"},"vehicle_type_id":"4","last_reported":1684623943,"current_range_meters":26400,"station_id":"ce4bgph2rcd13ifvqc2g","pricing_plan_id":"free"},{"bike_id":"657bca6d-8e8f-47c9-aff1-e87c0019496b","system_id":"levelo_inurba_marseille","lat":43.29573,"lon":5.367355,"is_reserved":false,"is_disabled":false,"rental_uris":{"android":"levelo://app?vid=657bca6d-8e8f-47c9-aff1-e87c0019496b","ios":"levelo://app?vid=657bca6d-8e8f-47c9-aff1-e87c0019496b"},"vehicle_type_id":"4","last_reported":1684623943,"current_range_meters":31200,"station_id":"ce4bgph2rcd13ifvqc2g","pricing_plan_id":"free"},{"bike_id":"d4a0ed23-79ff-45e9-8a98-d2e951bad43c","system_id":"levelo_inurba_marseille","lat":43.296935,"lon":5.376544,"is_reserved":false,"is_disabled":false,"rental_uris":{"android":"levelo://app?vid=d4a0ed23-79ff-45e9-8a98-d2e951bad43c","ios":"levelo://app?vid=d4a0ed23-79ff-45e9-8a98-d2e951bad43c"},"vehicle_type_id":"4","last_reported":1684623943,"current_range_meters":27600,"station_id":"ce4bgkh2rcd13ifvqbl0","pricing_plan_id":"free"},{"bike_id":"76ece9c1-1312-4537-9709-bf4ea90540fe","system_id":"levelo_inurba_marseille","lat":43.296921,"lon":5.376579,"is_reserved":false,"is_disabled":false,"rental_uris":{"android":"levelo://app?vid=76ece9c1-1312-4537-9709-bf4ea90540fe","ios":"levelo://app?vid=76ece9c1-1312-4537-9709-bf4ea90540fe"},"vehicle_type_id":"4","last_reported":1684623943,"current_range_meters":26000,"station_id":"ce4bgkh2rcd13ifvqbl0","pricing_plan_id":"free"},{"bike_id":"78600f9d-0191-4cf0-89fb-d4ca8adce7d4","system_id":"levelo_inurba_marseille","lat":43.309589,"lon":5.390258,"is_reserved":false,"is_disabled":false,"rental_uris":{"android":"levelo://app?vid=78600f9d-0191-4cf0-89fb-d4ca8adce7d4","ios":"levelo://app?vid=78600f9d-0191-4cf0-89fb-d4ca8adce7d4"},"vehicle_type_id":"4","last_reported":1684623943,"current_range_meters":4000,"station_id":"ce4bgup2rcd13ifvqco0","pricing_plan_id":"free"},{"bike_id":"d51774e0-f69d-41e7-8fda-1fee590401c1","system_id":"levelo_inurba_marseille","lat":43.299028,"lon":5.381509,"is_reserved":false,"is_disabled":false,"rental_uris":{"android":"levelo://app?vid=d51774e0-f69d-41e7-8fda-1fee590401c1","ios":"levelo://app?vid=d51774e0-f69d-41e7-8fda-1fee590401c1"},"vehicle_type_id":"4","last_reported":1684623943,"current_range_meters":19600,"station_id":"ce4bgj12rcd13ifvqbc0","pricing_plan_id":"free"},{"bike_id":"440f72a1-bd1c-4fb4-abb9-c7ebb98be29e","system_id":"levelo_inurba_marseille","lat":43.309589,"lon":5.390258,"is_reserved":false,"is_disabled":false,"rental_uris":{"android":"levelo://app?vid=440f72a1-bd1c-4fb4-abb9-c7ebb98be29e","ios":"levelo://app?vid=440f72a1-bd1c-4fb4-abb9-c7ebb98be29e"},"vehicle_type_id":"4","last_reported":1684623943,"current_range_meters":29600,"station_id":"ce4bgup2rcd13ifvqco0","pricing_plan_id":"free"},{"bike_id":"6d142601-3356-4f7b-a905-496e6c551eff","system_id":"levelo_inurba_marseille","lat":43.309589,"lon":5.390258,"is_reserved":false,"is_disabled":false,"rental_uris":{"android":"levelo://app?vid=6d142601-3356-4f7b-a905-496e6c551eff","ios":"levelo://app?vid=6d142601-3356-4f7b-a905-496e6c551eff"},"vehicle_type_id":"4","last_reported":1684623943,"current_range_meters":30000,"station_id":"ce4bgup2rcd13ifvqco0","pricing_plan_id":"free"},{"bike_id":"7b09178d-5807-499e-9823-355648b461df","system_id":"levelo_inurba_marseille","lat":43.309589,"lon":5.390258,"is_reserved":false,"is_disabled":false,"rental_uris":{"android":"levelo://app?vid=7b09178d-5807-499e-9823-355648b461df","ios":"levelo://app?vid=7b09178d-5807-499e-9823-355648b461df"},"vehicle_type_id":"4","last_reported":1684623943,"current_range_meters":19200,"station_id":"ce4bgup2rcd13ifvqco0","pricing_plan_id":"free"},{"bike_id":"f33db1fe-926d-4a99-a51f-962f8f76e53b","system_id":"levelo_inurba_marseille","lat":43.309589,"lon":5.390258,"is_reserved":false,"is_disabled":false,"rental_uris":{"android":"levelo://app?vid=f33db1fe-926d-4a99-a51f-962f8f76e53b","ios":"levelo://app?vid=f33db1fe-926d-4a99-a51f-962f8f76e53b"},"vehicle_type_id":"4","last_reported":1684623943,"current_range_meters":31200,"station_id":"ce4bgup2rcd13ifvqco0","pricing_plan_id":"free"},{"bike_id":"0a29580f-5e9b-4579-96f8-0784851378ec","system_id":"levelo_inurba_marseille","lat":43.309589,"lon":5.390258,"is_reserved":false,"is_disabled":false,"rental_uris":{"android":"levelo://app?vid=0a29580f-5e9b-4579-96f8-0784851378ec","ios":"levelo://app?vid=0a29580f-5e9b-4579-96f8-0784851378ec"},"vehicle_type_id":"4","last_reported":1684623943,"current_range_meters":28000,"station_id":"ce4bgup2rcd13ifvqco0","pricing_plan_id":"free"},{"bike_id":"aa7ac010-0405-405e-8069-576e880d9630","system_id":"levelo_inurba_marseille","lat":43.317557,"lon":5.390173,"is_reserved":false,"is_disabled":false,"rental_uris":{"android":"levelo://app?vid=aa7ac010-0405-405e-8069-576e880d9630","ios":"levelo://app?vid=aa7ac010-0405-405e-8069-576e880d9630"},"vehicle_type_id":"4","last_reported":1684623943,"current_range_meters":25200,"station_id":"ce4bhqp2rcd13ifvqhng","pricing_plan_id":"free"},{"bike_id":"fb93c5a0-9bd3-4259-a605-c6520d0c8359","system_id":"levelo_inurba_marseille","lat":43.31755,"lon":5.39015,"is_reserved":false,"is_disabled":false,"rental_uris":{"android":"levelo://app?vid=fb93c5a0-9bd3-4259-a605-c6520d0c8359","ios":"levelo://app?vid=fb93c5a0-9bd3-4259-a605-c6520d0c8359"},"vehicle_type_id":"4","last_reported":1684623943,"current_range_meters":24800,"station_id":"ce4bhqp2rcd13ifvqhng","pricing_plan_id":"free"},{"bike_id":"7ccdf964-879f-4af8-bcb9-0bfc70a2cad2","system_id":"levelo_inurba_marseille","lat":43.317557,"lon":5.390173,"is_reserved":false,"is_disabled":false,"rental_uris":{"android":"levelo://app?vid=7ccdf964-879f-4af8-bcb9-0bfc70a2cad2","ios":"levelo://app?vid=7ccdf964-879f-4af8-bcb9-0bfc70a2cad2"},"vehicle_type_id":"4","last_reported":1684623943,"current_range_meters":21200,"station_id":"ce4bhqp2rcd13ifvqhng","pricing_plan_id":"free"},{"bike_id":"5ecb331d-8c6f-4338-8806-8cde07be5d2b","system_id":"levelo_inurba_marseille","lat":43.317557,"lon":5.390173,"is_reserved":false,"is_disabled":false,"rental_uris":{"android":"levelo://app?vid=5ecb331d-8c6f-4338-8806-8cde07be5d2b","ios":"levelo://app?vid=5ecb331d-8c6f-4338-8806-8cde07be5d2b"},"vehicle_type_id":"4","last_reported":1684623943,"current_range_meters":20400,"station_id":"ce4bhqp2rcd13ifvqhng","pricing_plan_id":"free"},{"bike_id":"f033f00a-6274-4738-9f29-de87994da64a","system_id":"levelo_inurba_marseille","lat":43.317557,"lon":5.390173,"is_reserved":false,"is_disabled":false,"rental_uris":{"android":"levelo://app?vid=f033f00a-6274-4738-9f29-de87994da64a","ios":"levelo://app?vid=f033f00a-6274-4738-9f29-de87994da64a"},"vehicle_type_id":"4","last_reported":1684623943,"current_range_meters":5600,"station_id":"ce4bhqp2rcd13ifvqhng","pricing_plan_id":"free"},{"bike_id":"1db118af-764a-46bd-bb70-607a508d6111","system_id":"levelo_inurba_marseille","lat":43.298037,"lon":5.381066,"is_reserved":false,"is_disabled":false,"rental_uris":{"android":"levelo://app?vid=1db118af-764a-46bd-bb70-607a508d6111","ios":"levelo://app?vid=1db118af-764a-46bd-bb70-607a508d6111"},"vehicle_type_id":"4","last_reported":1684623943,"current_range_meters":11600,"station_id":"ce4bgip2rcd13ifvqbb0","pricing_plan_id":"free"},{"bike_id":"c9ee41a9-6e34-4557-8c1e-08edb8f400a7","system_id":"levelo_inurba_marseille","lat":43.304274,"lon":5.388873,"is_reserved":false,"is_disabled":false,"rental_uris":{"android":"levelo://app?vid=c9ee41a9-6e34-4557-8c1e-08edb8f400a7","ios":"levelo://app?vid=c9ee41a9-6e34-4557-8c1e-08edb8f400a7"},"vehicle_type_id":"4","last_reported":1684623943,"current_range_meters":12000,"station_id":"ce4bgk12rcd13ifvqbi0","pricing_plan_id":"free"},{"bike_id":"a5e36738-528a-466a-8b59-e21afe33e707","system_id":"levelo_inurba_marseille","lat":43.29572,"lon":5.37518,"is_reserved":false,"is_disabled":false,"rental_uris":{"android":"levelo://app?vid=a5e36738-528a-466a-8b59-e21afe33e707","ios":"levelo://app?vid=a5e36738-528a-466a-8b59-e21afe33e707"},"vehicle_type_id":"4","last_reported":1684623943,"current_range_meters":20400,"station_id":"ce4bgh92rcd13ifvqb50","pricing_plan_id":"free"},{"bike_id":"edb5c2b1-bb68-4a4d-8203-16bf2d165b5d","system_id":"levelo_inurba_marseille","lat":43.304278,"lon":5.388868,"is_reserved":false,"is_disabled":false,"rental_uris":{"android":"levelo://app?vid=edb5c2b1-bb68-4a4d-8203-16bf2d165b5d","ios":"levelo://app?vid=edb5c2b1-bb68-4a4d-8203-16bf2d165b5d"},"vehicle_type_id":"4","last_reported":1684623943,"current_range_meters":30000,"station_id":"ce4bgk12rcd13ifvqbi0","pricing_plan_id":"free"},{"bike_id":"e08123c8-5dfa-492f-b0c9-6e0277fdd7cc","system_id":"levelo_inurba_marseille","lat":43.304278,"lon":5.388868,"is_reserved":false,"is_disabled":false,"rental_uris":{"android":"levelo://app?vid=e08123c8-5dfa-492f-b0c9-6e0277fdd7cc","ios":"levelo://app?vid=e08123c8-5dfa-492f-b0c9-6e0277fdd7cc"},"vehicle_type_id":"4","last_reported":1684623943,"current_range_meters":16400,"station_id":"ce4bgk12rcd13ifvqbi0","pricing_plan_id":"free"},{"bike_id":"cdaafd20-5dbd-436c-8bdc-f9b2322cb1b6","system_id":"levelo_inurba_marseille","lat":43.29565,"lon":5.3755,"is_reserved":false,"is_disabled":false,"rental_uris":{"android":"levelo://app?vid=cdaafd20-5dbd-436c-8bdc-f9b2322cb1b6","ios":"levelo://app?vid=cdaafd20-5dbd-436c-8bdc-f9b2322cb1b6"},"vehicle_type_id":"4","last_reported":1684623943,"current_range_meters":26000,"station_id":"ce4bgh92rcd13ifvqb50","pricing_plan_id":"free"},{"bike_id":"06eb87bd-8a6d-46e3-873e-dbda916c047b","system_id":"levelo_inurba_marseille","lat":43.299717,"lon":5.384845,"is_reserved":false,"is_disabled":false,"rental_uris":{"android":"levelo://app?vid=06eb87bd-8a6d-46e3-873e-dbda916c047b","ios":"levelo://app?vid=06eb87bd-8a6d-46e3-873e-dbda916c047b"},"vehicle_type_id":"4","last_reported":1684623943,"current_range_meters":18400,"station_id":"ce4bgj92rcd13ifvqbd0","pricing_plan_id":"free"},{"bike_id":"5696ba2a-42f7-4796-902b-ad0f58f59137","system_id":"levelo_inurba_marseille","lat":43.299724,"lon":5.384848,"is_reserved":false,"is_disabled":false,"rental_uris":{"android":"levelo://app?vid=5696ba2a-42f7-4796-902b-ad0f58f59137","ios":"levelo://app?vid=5696ba2a-42f7-4796-902b-ad0f58f59137"},"vehicle_type_id":"4","last_reported":1684623943,"current_range_meters":31200,"station_id":"ce4bgj92rcd13ifvqbd0","pricing_plan_id":"free"},{"bike_id":"971d4110-b124-456d-abfb-48f1b176b188","system_id":"levelo_inurba_marseille","lat":43.299707,"lon":5.384859,"is_reserved":false,"is_disabled":false,"rental_uris":{"android":"levelo://app?vid=971d4110-b124-456d-abfb-48f1b176b188","ios":"levelo://app?vid=971d4110-b124-456d-abfb-48f1b176b188"},"vehicle_type_id":"4","last_reported":1684623943,"current_range_meters":19200,"station_id":"ce4bgj92rcd13ifvqbd0","pricing_plan_id":"free"},{"bike_id":"e267f340-98f6-4e1c-9dff-034ba5864fb0","system_id":"levelo_inurba_marseille","lat":43.3236,"lon":5.38877,"is_reserved":false,"is_disabled":false,"rental_uris":{"android":"levelo://app?vid=e267f340-98f6-4e1c-9dff-034ba5864fb0","ios":"levelo://app?vid=e267f340-98f6-4e1c-9dff-034ba5864fb0"},"vehicle_type_id":"4","last_reported":1684623943,"current_range_meters":6400,"station_id":"ce4bhqp2rcd13ifvqhog","pricing_plan_id":"free"},{"bike_id":"52a6850f-f203-4723-9ad0-8e1af0436565","system_id":"levelo_inurba_marseille","lat":43.3236,"lon":5.38877,"is_reserved":false,"is_disabled":false,"rental_uris":{"android":"levelo://app?vid=52a6850f-f203-4723-9ad0-8e1af0436565","ios":"levelo://app?vid=52a6850f-f203-4723-9ad0-8e1af0436565"},"vehicle_type_id":"4","last_reported":1684623943,"current_range_meters":15200,"station_id":"ce4bhqp2rcd13ifvqhog","pricing_plan_id":"free"},{"bike_id":"3412a373-aecd-4d88-b7ef-1ec34573d2fa","system_id":"levelo_inurba_marseille","lat":43.32362,"lon":5.38876,"is_reserved":false,"is_disabled":false,"rental_uris":{"android":"levelo://app?vid=3412a373-aecd-4d88-b7ef-1ec34573d2fa","ios":"levelo://app?vid=3412a373-aecd-4d88-b7ef-1ec34573d2fa"},"vehicle_type_id":"4","last_reported":1684623943,"current_range_meters":22400,"station_id":"ce4bhqp2rcd13ifvqhog","pricing_plan_id":"free"},{"bike_id":"4ac8d894-44aa-44fe-a5bc-75ed68bed853","system_id":"levelo_inurba_marseille","lat":43.32363,"lon":5.38878,"is_reserved":false,"is_disabled":false,"rental_uris":{"android":"levelo://app?vid=4ac8d894-44aa-44fe-a5bc-75ed68bed853","ios":"levelo://app?vid=4ac8d894-44aa-44fe-a5bc-75ed68bed853"},"vehicle_type_id":"4","last_reported":1684623943,"current_range_meters":19600,"station_id":"ce4bhqp2rcd13ifvqhog","pricing_plan_id":"free"},{"bike_id":"73045699-9656-449f-aed1-96552ac57a20","system_id":"levelo_inurba_marseille","lat":43.32363,"lon":5.38881,"is_reserved":false,"is_disabled":false,"rental_uris":{"android":"levelo://app?vid=73045699-9656-449f-aed1-96552ac57a20","ios":"levelo://app?vid=73045699-9656-449f-aed1-96552ac57a20"},"vehicle_type_id":"4","last_reported":1684623943,"current_range_meters":10400,"station_id":"ce4bhqp2rcd13ifvqhog","pricing_plan_id":"free"},{"bike_id":"01d401da-ad68-4b2e-a4ac-24f3f8771d91","system_id":"levelo_inurba_marseille","lat":43.32367,"lon":5.388836,"is_reserved":false,"is_disabled":false,"rental_uris":{"android":"levelo://app?vid=01d401da-ad68-4b2e-a4ac-24f3f8771d91","ios":"levelo://app?vid=01d401da-ad68-4b2e-a4ac-24f3f8771d91"},"vehicle_type_id":"4","last_reported":1684623943,"current_range_meters":24000,"station_id":"ce4bhqp2rcd13ifvqhog","pricing_plan_id":"free"},{"bike_id":"54116cb7-e06e-44b7-b6c6-7288ee4c40a3","system_id":"levelo_inurba_marseille","lat":43.32369,"lon":5.38883,"is_reserved":false,"is_disabled":false,"rental_uris":{"android":"levelo://app?vid=54116cb7-e06e-44b7-b6c6-7288ee4c40a3","ios":"levelo://app?vid=54116cb7-e06e-44b7-b6c6-7288ee4c40a3"},"vehicle_type_id":"4","last_reported":1684623943,"current_range_meters":2400,"station_id":"ce4bhqp2rcd13ifvqhog","pricing_plan_id":"free"},{"bike_id":"53c80b4b-d032-45da-9217-748d7d82aa73","system_id":"levelo_inurba_marseille","lat":43.3237,"lon":5.38883,"is_reserved":false,"is_disabled":false,"rental_uris":{"android":"levelo://app?vid=53c80b4b-d032-45da-9217-748d7d82aa73","ios":"levelo://app?vid=53c80b4b-d032-45da-9217-748d7d82aa73"},"vehicle_type_id":"4","last_reported":1684623943,"current_range_meters":14800,"station_id":"ce4bhqp2rcd13ifvqhog","pricing_plan_id":"free"},{"bike_id":"20d5f6c4-c969-4d17-af53-bfd2ba6c1276","system_id":"levelo_inurba_marseille","lat":43.29602,"lon":5.381084,"is_reserved":false,"is_disabled":false,"rental_uris":{"android":"levelo://app?vid=20d5f6c4-c969-4d17-af53-bfd2ba6c1276","ios":"levelo://app?vid=20d5f6c4-c969-4d17-af53-bfd2ba6c1276"},"vehicle_type_id":"4","last_reported":1684623943,"current_range_meters":14800,"station_id":"ce4bgl12rcd13ifvqbo0","pricing_plan_id":"free"},{"bike_id":"b6f2b3a2-6861-41b2-a93e-9c5ff8afc542","system_id":"levelo_inurba_marseille","lat":43.30129,"lon":5.38939,"is_reserved":false,"is_disabled":false,"rental_uris":{"android":"levelo://app?vid=b6f2b3a2-6861-41b2-a93e-9c5ff8afc542","ios":"levelo://app?vid=b6f2b3a2-6861-41b2-a93e-9c5ff8afc542"},"vehicle_type_id":"4","last_reported":1684623943,"current_range_meters":30400,"station_id":"","pricing_plan_id":"free"},{"bike_id":"febed918-b5c6-40fa-a0df-c6564988b292","system_id":"levelo_inurba_marseille","lat":43.305994,"lon":5.393687,"is_reserved":false,"is_disabled":false,"rental_uris":{"android":"levelo://app?vid=febed918-b5c6-40fa-a0df-c6564988b292","ios":"levelo://app?vid=febed918-b5c6-40fa-a0df-c6564988b292"},"vehicle_type_id":"4","last_reported":1684623943,"current_range_meters":24800,"station_id":"ce4bh0p2rcd13ifvqd80","pricing_plan_id":"free"},{"bike_id":"25b83541-432b-44a6-bd50-48e663a38fee","system_id":"levelo_inurba_marseille","lat":43.305994,"lon":5.393687,"is_reserved":false,"is_disabled":false,"rental_uris":{"android":"levelo://app?vid=25b83541-432b-44a6-bd50-48e663a38fee","ios":"levelo://app?vid=25b83541-432b-44a6-bd50-48e663a38fee"},"vehicle_type_id":"4","last_reported":1684623943,"current_range_meters":31600,"station_id":"ce4bh0p2rcd13ifvqd80","pricing_plan_id":"free"},{"bike_id":"5c3cf778-e481-44d6-8116-1aaa6ec7c630","system_id":"levelo_inurba_marseille","lat":43.305994,"lon":5.393687,"is_reserved":false,"is_disabled":false,"rental_uris":{"android":"levelo://app?vid=5c3cf778-e481-44d6-8116-1aaa6ec7c630","ios":"levelo://app?vid=5c3cf778-e481-44d6-8116-1aaa6ec7c630"},"vehicle_type_id":"4","last_reported":1684623943,"current_range_meters":31200,"station_id":"ce4bh0p2rcd13ifvqd80","pricing_plan_id":"free"},{"bike_id":"30ffcd5c-78cb-4950-a0fb-2a69c88d5694","system_id":"levelo_inurba_marseille","lat":43.303002,"lon":5.392142,"is_reserved":false,"is_disabled":false,"rental_uris":{"android":"levelo://app?vid=30ffcd5c-78cb-4950-a0fb-2a69c88d5694","ios":"levelo://app?vid=30ffcd5c-78cb-4950-a0fb-2a69c88d5694"},"vehicle_type_id":"4","last_reported":1684623943,"current_range_meters":31200,"station_id":"ce4bgkh2rcd13ifvqbk0","pricing_plan_id":"free"},{"bike_id":"5ba6130f-6301-4c51-a9f2-90d32ab801ac","system_id":"levelo_inurba_marseille","lat":43.303002,"lon":5.392142,"is_reserved":false,"is_disabled":false,"rental_uris":{"android":"levelo://app?vid=5ba6130f-6301-4c51-a9f2-90d32ab801ac","ios":"levelo://app?vid=5ba6130f-6301-4c51-a9f2-90d32ab801ac"},"vehicle_type_id":"4","last_reported":1684623943,"current_range_meters":13200,"station_id":"ce4bgkh2rcd13ifvqbk0","pricing_plan_id":"free"},{"bike_id":"100df340-0d9b-48f5-aafc-1d254a417dc3","system_id":"levelo_inurba_marseille","lat":43.298764,"lon":5.388973,"is_reserved":false,"is_disabled":false,"rental_uris":{"android":"levelo://app?vid=100df340-0d9b-48f5-aafc-1d254a417dc3","ios":"levelo://app?vid=100df340-0d9b-48f5-aafc-1d254a417dc3"},"vehicle_type_id":"4","last_reported":1684623943,"current_range_meters":23600,"station_id":"ce4bh392rcd13ifvqdl0","pricing_plan_id":"free"},{"bike_id":"3d46510d-c7de-4cf3-9594-0c2acbd3d40d","system_id":"levelo_inurba_marseille","lat":43.298764,"lon":5.388973,"is_reserved":false,"is_disabled":false,"rental_uris":{"android":"levelo://app?vid=3d46510d-c7de-4cf3-9594-0c2acbd3d40d","ios":"levelo://app?vid=3d46510d-c7de-4cf3-9594-0c2acbd3d40d"},"vehicle_type_id":"4","last_reported":1684623943,"current_range_meters":19600,"station_id":"ce4bh392rcd13ifvqdl0","pricing_plan_id":"free"},{"bike_id":"153e3dcb-6bf7-477b-b93a-98ca1ad915cb","system_id":"levelo_inurba_marseille","lat":43.292663,"lon":5.376394,"is_reserved":false,"is_disabled":false,"rental_uris":{"android":"levelo://app?vid=153e3dcb-6bf7-477b-b93a-98ca1ad915cb","ios":"levelo://app?vid=153e3dcb-6bf7-477b-b93a-98ca1ad915cb"},"vehicle_type_id":"4","last_reported":1684623943,"current_range_meters":31200,"station_id":"ce4bgi12rcd13ifvqb80","pricing_plan_id":"free"},{"bike_id":"027a0232-3675-4361-89ee-9ed164354f96","system_id":"levelo_inurba_marseille","lat":43.298764,"lon":5.388973,"is_reserved":false,"is_disabled":false,"rental_uris":{"android":"levelo://app?vid=027a0232-3675-4361-89ee-9ed164354f96","ios":"levelo://app?vid=027a0232-3675-4361-89ee-9ed164354f96"},"vehicle_type_id":"4","last_reported":1684623943,"current_range_meters":28800,"station_id":"ce4bh392rcd13ifvqdl0","pricing_plan_id":"free"},{"bike_id":"d4fdf4a6-839a-4b44-b03d-66bbb7ad8772","system_id":"levelo_inurba_marseille","lat":43.298764,"lon":5.388973,"is_reserved":false,"is_disabled":false,"rental_uris":{"android":"levelo://app?vid=d4fdf4a6-839a-4b44-b03d-66bbb7ad8772","ios":"levelo://app?vid=d4fdf4a6-839a-4b44-b03d-66bbb7ad8772"},"vehicle_type_id":"4","last_reported":1684623943,"current_range_meters":2800,"station_id":"ce4bh392rcd13ifvqdl0","pricing_plan_id":"free"},{"bike_id":"a97908cf-9a18-4888-88d0-04013c50604a","system_id":"levelo_inurba_marseille","lat":43.298764,"lon":5.388973,"is_reserved":false,"is_disabled":false,"rental_uris":{"android":"levelo://app?vid=a97908cf-9a18-4888-88d0-04013c50604a","ios":"levelo://app?vid=a97908cf-9a18-4888-88d0-04013c50604a"},"vehicle_type_id":"4","last_reported":1684623943,"current_range_meters":19600,"station_id":"ce4bh392rcd13ifvqdl0","pricing_plan_id":"free"},{"bike_id":"98d45206-c5e6-4068-a95a-cd109b710f95","system_id":"levelo_inurba_marseille","lat":43.298764,"lon":5.388973,"is_reserved":false,"is_disabled":false,"rental_uris":{"android":"levelo://app?vid=98d45206-c5e6-4068-a95a-cd109b710f95","ios":"levelo://app?vid=98d45206-c5e6-4068-a95a-cd109b710f95"},"vehicle_type_id":"4","last_reported":1684623943,"current_range_meters":29200,"station_id":"ce4bh392rcd13ifvqdl0","pricing_plan_id":"free"},{"bike_id":"631cf141-6f0a-41bf-9e49-ca488df68b37","system_id":"levelo_inurba_marseille","lat":43.298764,"lon":5.388973,"is_reserved":false,"is_disabled":false,"rental_uris":{"android":"levelo://app?vid=631cf141-6f0a-41bf-9e49-ca488df68b37","ios":"levelo://app?vid=631cf141-6f0a-41bf-9e49-ca488df68b37"},"vehicle_type_id":"4","last_reported":1684623943,"current_range_meters":30800,"station_id":"ce4bh392rcd13ifvqdl0","pricing_plan_id":"free"},{"bike_id":"734d3108-d469-4678-a552-8b6b171e70b5","system_id":"levelo_inurba_marseille","lat":43.29164,"lon":5.3715,"is_reserved":false,"is_disabled":false,"rental_uris":{"android":"levelo://app?vid=734d3108-d469-4678-a552-8b6b171e70b5","ios":"levelo://app?vid=734d3108-d469-4678-a552-8b6b171e70b5"},"vehicle_type_id":"4","last_reported":1684623943,"current_range_meters":19600,"station_id":"ce4bha92rcd13ifvqeh0","pricing_plan_id":"free"},{"bike_id":"157943ef-ff85-4f51-bdef-e0d89042904c","system_id":"levelo_inurba_marseille","lat":43.298764,"lon":5.388973,"is_reserved":false,"is_disabled":false,"rental_uris":{"android":"levelo://app?vid=157943ef-ff85-4f51-bdef-e0d89042904c","ios":"levelo://app?vid=157943ef-ff85-4f51-bdef-e0d89042904c"},"vehicle_type_id":"4","last_reported":1684623943,"current_range_meters":10800,"station_id":"ce4bh392rcd13ifvqdl0","pricing_plan_id":"free"},{"bike_id":"8f1e5f34-ddca-419e-bf18-dee7d045e41e","system_id":"levelo_inurba_marseille","lat":43.298764,"lon":5.388973,"is_reserved":false,"is_disabled":false,"rental_uris":{"android":"levelo://app?vid=8f1e5f34-ddca-419e-bf18-dee7d045e41e","ios":"levelo://app?vid=8f1e5f34-ddca-419e-bf18-dee7d045e41e"},"vehicle_type_id":"4","last_reported":1684623943,"current_range_meters":28800,"station_id":"ce4bh392rcd13ifvqdl0","pricing_plan_id":"free"},{"bike_id":"168820a3-5cc1-445c-b7de-2ed9f6dcf6a5","system_id":"levelo_inurba_marseille","lat":43.298764,"lon":5.388973,"is_reserved":false,"is_disabled":false,"rental_uris":{"android":"levelo://app?vid=168820a3-5cc1-445c-b7de-2ed9f6dcf6a5","ios":"levelo://app?vid=168820a3-5cc1-445c-b7de-2ed9f6dcf6a5"},"vehicle_type_id":"4","last_reported":1684623943,"current_range_meters":0,"station_id":"ce4bh392rcd13ifvqdl0","pricing_plan_id":"free"},{"bike_id":"93a0805c-c1e5-432e-b2ec-521dc82438da","system_id":"levelo_inurba_marseille","lat":43.29201,"lon":5.35915,"is_reserved":false,"is_disabled":false,"rental_uris":{"android":"levelo://app?vid=93a0805c-c1e5-432e-b2ec-521dc82438da","ios":"levelo://app?vid=93a0805c-c1e5-432e-b2ec-521dc82438da"},"vehicle_type_id":"4","last_reported":1684623943,"current_range_meters":30400,"station_id":"","pricing_plan_id":"free"},{"bike_id":"dc368bd4-28a3-4521-a8ff-8f20aed7e729","system_id":"levelo_inurba_marseille","lat":43.30887,"lon":5.39624,"is_reserved":false,"is_disabled":false,"rental_uris":{"android":"levelo://app?vid=dc368bd4-28a3-4521-a8ff-8f20aed7e729","ios":"levelo://app?vid=dc368bd4-28a3-4521-a8ff-8f20aed7e729"},"vehicle_type_id":"4","last_reported":1684623943,"current_range_meters":20800,"station_id":"","pricing_plan_id":"free"},{"bike_id":"00b4637a-42e4-41c2-b306-4969effcc106","system_id":"levelo_inurba_marseille","lat":43.30885,"lon":5.39632,"is_reserved":false,"is_disabled":false,"rental_uris":{"android":"levelo://app?vid=00b4637a-42e4-41c2-b306-4969effcc106","ios":"levelo://app?vid=00b4637a-42e4-41c2-b306-4969effcc106"},"vehicle_type_id":"4","last_reported":1684623943,"current_range_meters":29600,"station_id":"","pricing_plan_id":"free"},{"bike_id":"c3bb868b-d73d-4d76-a0e2-f02ceaa0a50d","system_id":"levelo_inurba_marseille","lat":43.30889,"lon":5.39633,"is_reserved":false,"is_disabled":false,"rental_uris":{"android":"levelo://app?vid=c3bb868b-d73d-4d76-a0e2-f02ceaa0a50d","ios":"levelo://app?vid=c3bb868b-d73d-4d76-a0e2-f02ceaa0a50d"},"vehicle_type_id":"4","last_reported":1684623943,"current_range_meters":12400,"station_id":"","pricing_plan_id":"free"},{"bike_id":"d2ae3085-2478-4856-a3eb-d79b11f9f3f2","system_id":"levelo_inurba_marseille","lat":43.30888,"lon":5.39633,"is_reserved":false,"is_disabled":false,"rental_uris":{"android":"levelo://app?vid=d2ae3085-2478-4856-a3eb-d79b11f9f3f2","ios":"levelo://app?vid=d2ae3085-2478-4856-a3eb-d79b11f9f3f2"},"vehicle_type_id":"4","last_reported":1684623943,"current_range_meters":30400,"station_id":"","pricing_plan_id":"free"},{"bike_id":"65e575fa-a358-41d8-a675-f34d67f48ecf","system_id":"levelo_inurba_marseille","lat":43.30889,"lon":5.39635,"is_reserved":false,"is_disabled":false,"rental_uris":{"android":"levelo://app?vid=65e575fa-a358-41d8-a675-f34d67f48ecf","ios":"levelo://app?vid=65e575fa-a358-41d8-a675-f34d67f48ecf"},"vehicle_type_id":"4","last_reported":1684623943,"current_range_meters":24000,"station_id":"ce4bh012rcd13ifvqcv0","pricing_plan_id":"free"},{"bike_id":"277d0ef9-8202-4f24-b4a4-a89d43b5f795","system_id":"levelo_inurba_marseille","lat":43.29198,"lon":5.3579,"is_reserved":false,"is_disabled":false,"rental_uris":{"android":"levelo://app?vid=277d0ef9-8202-4f24-b4a4-a89d43b5f795","ios":"levelo://app?vid=277d0ef9-8202-4f24-b4a4-a89d43b5f795"},"vehicle_type_id":"4","last_reported":1684623943,"current_range_meters":19200,"station_id":"ce4bhb12rcd13ifvqel0","pricing_plan_id":"free"},{"bike_id":"86278db7-8898-4866-9e40-671e7eda7ded","system_id":"levelo_inurba_marseille","lat":43.309038,"lon":5.396546,"is_reserved":false,"is_disabled":false,"rental_uris":{"android":"levelo://app?vid=86278db7-8898-4866-9e40-671e7eda7ded","ios":"levelo://app?vid=86278db7-8898-4866-9e40-671e7eda7ded"},"vehicle_type_id":"4","last_reported":1684623943,"current_range_meters":20000,"station_id":"ce4bh012rcd13ifvqcv0","pricing_plan_id":"free"},{"bike_id":"7bd616d9-1de0-4f44-beec-c18f87869800","system_id":"levelo_inurba_marseille","lat":43.30884,"lon":5.39637,"is_reserved":false,"is_disabled":false,"rental_uris":{"android":"levelo://app?vid=7bd616d9-1de0-4f44-beec-c18f87869800","ios":"levelo://app?vid=7bd616d9-1de0-4f44-beec-c18f87869800"},"vehicle_type_id":"4","last_reported":1684623943,"current_range_meters":31200,"station_id":"","pricing_plan_id":"free"},{"bike_id":"560fb464-6bff-4314-aa59-c1cb6143d36c","system_id":"levelo_inurba_marseille","lat":43.309038,"lon":5.396546,"is_reserved":false,"is_disabled":false,"rental_uris":{"android":"levelo://app?vid=560fb464-6bff-4314-aa59-c1cb6143d36c","ios":"levelo://app?vid=560fb464-6bff-4314-aa59-c1cb6143d36c"},"vehicle_type_id":"4","last_reported":1684623943,"current_range_meters":22000,"station_id":"ce4bh012rcd13ifvqcv0","pricing_plan_id":"free"},{"bike_id":"81d9fee4-cd3d-4b8c-9858-7f72234fa5b5","system_id":"levelo_inurba_marseille","lat":43.313291,"lon":5.396838,"is_reserved":false,"is_disabled":false,"rental_uris":{"android":"levelo://app?vid=81d9fee4-cd3d-4b8c-9858-7f72234fa5b5","ios":"levelo://app?vid=81d9fee4-cd3d-4b8c-9858-7f72234fa5b5"},"vehicle_type_id":"4","last_reported":1684623943,"current_range_meters":22000,"station_id":"ce4bgvp2rcd13ifvqcu0","pricing_plan_id":"free"},{"bike_id":"1fcff798-4baf-46f3-8082-5f298e0e9e4a","system_id":"levelo_inurba_marseille","lat":43.313291,"lon":5.396838,"is_reserved":false,"is_disabled":false,"rental_uris":{"android":"levelo://app?vid=1fcff798-4baf-46f3-8082-5f298e0e9e4a","ios":"levelo://app?vid=1fcff798-4baf-46f3-8082-5f298e0e9e4a"},"vehicle_type_id":"4","last_reported":1684623943,"current_range_meters":14800,"station_id":"ce4bgvp2rcd13ifvqcu0","pricing_plan_id":"free"},{"bike_id":"088bc694-e2fa-4d07-bb41-0ea147f59cff","system_id":"levelo_inurba_marseille","lat":43.313291,"lon":5.396838,"is_reserved":false,"is_disabled":false,"rental_uris":{"android":"levelo://app?vid=088bc694-e2fa-4d07-bb41-0ea147f59cff","ios":"levelo://app?vid=088bc694-e2fa-4d07-bb41-0ea147f59cff"},"vehicle_type_id":"4","last_reported":1684623943,"current_range_meters":28400,"station_id":"ce4bgvp2rcd13ifvqcu0","pricing_plan_id":"free"},{"bike_id":"19ce7439-a588-42db-9450-d17afc9e1229","system_id":"levelo_inurba_marseille","lat":43.313291,"lon":5.396838,"is_reserved":false,"is_disabled":false,"rental_uris":{"android":"levelo://app?vid=19ce7439-a588-42db-9450-d17afc9e1229","ios":"levelo://app?vid=19ce7439-a588-42db-9450-d17afc9e1229"},"vehicle_type_id":"4","last_reported":1684623943,"current_range_meters":23600,"station_id":"ce4bgvp2rcd13ifvqcu0","pricing_plan_id":"free"},{"bike_id":"0c0ef071-b901-4368-9f46-46b3492353ea","system_id":"levelo_inurba_marseille","lat":43.313291,"lon":5.396838,"is_reserved":false,"is_disabled":false,"rental_uris":{"android":"levelo://app?vid=0c0ef071-b901-4368-9f46-46b3492353ea","ios":"levelo://app?vid=0c0ef071-b901-4368-9f46-46b3492353ea"},"vehicle_type_id":"4","last_reported":1684623943,"current_range_meters":30000,"station_id":"ce4bgvp2rcd13ifvqcu0","pricing_plan_id":"free"},{"bike_id":"4eb0beed-14be-4983-88d9-dfc09b440871","system_id":"levelo_inurba_marseille","lat":43.29527,"lon":5.38535,"is_reserved":false,"is_disabled":false,"rental_uris":{"android":"levelo://app?vid=4eb0beed-14be-4983-88d9-dfc09b440871","ios":"levelo://app?vid=4eb0beed-14be-4983-88d9-dfc09b440871"},"vehicle_type_id":"4","last_reported":1684623943,"current_range_meters":31200,"station_id":"ce4bgih2rcd13ifvqba0","pricing_plan_id":"free"},{"bike_id":"45747053-13d7-4507-af9a-933b90c4d183","system_id":"levelo_inurba_marseille","lat":43.29529,"lon":5.385581,"is_reserved":false,"is_disabled":false,"rental_uris":{"android":"levelo://app?vid=45747053-13d7-4507-af9a-933b90c4d183","ios":"levelo://app?vid=45747053-13d7-4507-af9a-933b90c4d183"},"vehicle_type_id":"4","last_reported":1684623943,"current_range_meters":29600,"station_id":"ce4bgih2rcd13ifvqba0","pricing_plan_id":"free"},{"bike_id":"327da11f-9bf9-4e8c-9a54-113005a48640","system_id":"levelo_inurba_marseille","lat":43.32827,"lon":5.38904,"is_reserved":false,"is_disabled":false,"rental_uris":{"android":"levelo://app?vid=327da11f-9bf9-4e8c-9a54-113005a48640","ios":"levelo://app?vid=327da11f-9bf9-4e8c-9a54-113005a48640"},"vehicle_type_id":"4","last_reported":1684623943,"current_range_meters":28400,"station_id":"","pricing_plan_id":"free"},{"bike_id":"1e0a5868-8efc-4408-a159-cd5bd94ed6ec","system_id":"levelo_inurba_marseille","lat":43.30213,"lon":5.39464,"is_reserved":false,"is_disabled":false,"rental_uris":{"android":"levelo://app?vid=1e0a5868-8efc-4408-a159-cd5bd94ed6ec","ios":"levelo://app?vid=1e0a5868-8efc-4408-a159-cd5bd94ed6ec"},"vehicle_type_id":"4","last_reported":1684623943,"current_range_meters":31200,"station_id":"ce4bh0p2rcd13ifvqd70","pricing_plan_id":"free"},{"bike_id":"dba57a29-c5fe-4533-9070-67be3242723e","system_id":"levelo_inurba_marseille","lat":43.290624,"lon":5.359245,"is_reserved":false,"is_disabled":false,"rental_uris":{"android":"levelo://app?vid=dba57a29-c5fe-4533-9070-67be3242723e","ios":"levelo://app?vid=dba57a29-c5fe-4533-9070-67be3242723e"},"vehicle_type_id":"4","last_reported":1684623943,"current_range_meters":23200,"station_id":"ce4bha92rcd13ifvqeg0","pricing_plan_id":"free"},{"bike_id":"4fffcc47-27e9-4725-a4cf-890ee42cf029","system_id":"levelo_inurba_marseille","lat":43.290631,"lon":5.359244,"is_reserved":false,"is_disabled":false,"rental_uris":{"android":"levelo://app?vid=4fffcc47-27e9-4725-a4cf-890ee42cf029","ios":"levelo://app?vid=4fffcc47-27e9-4725-a4cf-890ee42cf029"},"vehicle_type_id":"4","last_reported":1684623943,"current_range_meters":26400,"station_id":"ce4bha92rcd13ifvqeg0","pricing_plan_id":"free"},{"bike_id":"34bca02c-abac-442e-b7d8-521fa5a24922","system_id":"levelo_inurba_marseille","lat":43.290631,"lon":5.359244,"is_reserved":false,"is_disabled":false,"rental_uris":{"android":"levelo://app?vid=34bca02c-abac-442e-b7d8-521fa5a24922","ios":"levelo://app?vid=34bca02c-abac-442e-b7d8-521fa5a24922"},"vehicle_type_id":"4","last_reported":1684623943,"current_range_meters":14000,"station_id":"ce4bha92rcd13ifvqeg0","pricing_plan_id":"free"},{"bike_id":"52840670-adf9-433a-a316-2a64c5a381b4","system_id":"levelo_inurba_marseille","lat":43.294153,"lon":5.386305,"is_reserved":false,"is_disabled":false,"rental_uris":{"android":"levelo://app?vid=52840670-adf9-433a-a316-2a64c5a381b4","ios":"levelo://app?vid=52840670-adf9-433a-a316-2a64c5a381b4"},"vehicle_type_id":"4","last_reported":1684623943,"current_range_meters":31200,"station_id":"ce4bh2h2rcd13ifvqdh0","pricing_plan_id":"free"},{"bike_id":"962087f6-81d5-4df7-bd30-73e08cc02a76","system_id":"levelo_inurba_marseille","lat":43.29424,"lon":5.38625,"is_reserved":false,"is_disabled":false,"rental_uris":{"android":"levelo://app?vid=962087f6-81d5-4df7-bd30-73e08cc02a76","ios":"levelo://app?vid=962087f6-81d5-4df7-bd30-73e08cc02a76"},"vehicle_type_id":"4","last_reported":1684623943,"current_range_meters":28000,"station_id":"ce4bh2h2rcd13ifvqdh0","pricing_plan_id":"free"},{"bike_id":"3a3e72e2-c6a3-49e8-b775-79d6a10a3504","system_id":"levelo_inurba_marseille","lat":43.29421,"lon":5.38622,"is_reserved":false,"is_disabled":false,"rental_uris":{"android":"levelo://app?vid=3a3e72e2-c6a3-49e8-b775-79d6a10a3504","ios":"levelo://app?vid=3a3e72e2-c6a3-49e8-b775-79d6a10a3504"},"vehicle_type_id":"4","last_reported":1684623943,"current_range_meters":28000,"station_id":"ce4bh2h2rcd13ifvqdh0","pricing_plan_id":"free"},{"bike_id":"02fa5ae5-b3ff-444d-b45a-54b9201ca890","system_id":"levelo_inurba_marseille","lat":43.2942,"lon":5.38621,"is_reserved":false,"is_disabled":false,"rental_uris":{"android":"levelo://app?vid=02fa5ae5-b3ff-444d-b45a-54b9201ca890","ios":"levelo://app?vid=02fa5ae5-b3ff-444d-b45a-54b9201ca890"},"vehicle_type_id":"4","last_reported":1684623943,"current_range_meters":31200,"station_id":"ce4bh2h2rcd13ifvqdh0","pricing_plan_id":"free"},{"bike_id":"b37b2f9a-c6bb-44be-99c7-32d0df1ded0a","system_id":"levelo_inurba_marseille","lat":43.29419,"lon":5.38622,"is_reserved":false,"is_disabled":false,"rental_uris":{"android":"levelo://app?vid=b37b2f9a-c6bb-44be-99c7-32d0df1ded0a","ios":"levelo://app?vid=b37b2f9a-c6bb-44be-99c7-32d0df1ded0a"},"vehicle_type_id":"4","last_reported":1684623943,"current_range_meters":28800,"station_id":"ce4bh2h2rcd13ifvqdh0","pricing_plan_id":"free"},{"bike_id":"13c8c367-9e64-4dc9-a4b1-ae1d1be2fe8a","system_id":"levelo_inurba_marseille","lat":43.2942,"lon":5.38625,"is_reserved":false,"is_disabled":false,"rental_uris":{"android":"levelo://app?vid=13c8c367-9e64-4dc9-a4b1-ae1d1be2fe8a","ios":"levelo://app?vid=13c8c367-9e64-4dc9-a4b1-ae1d1be2fe8a"},"vehicle_type_id":"4","last_reported":1684623943,"current_range_meters":29200,"station_id":"ce4bh2h2rcd13ifvqdh0","pricing_plan_id":"free"},{"bike_id":"009bb9df-27b2-4075-a2d2-f749c3ae4413","system_id":"levelo_inurba_marseille","lat":43.29418,"lon":5.38622,"is_reserved":false,"is_disabled":false,"rental_uris":{"android":"levelo://app?vid=009bb9df-27b2-4075-a2d2-f749c3ae4413","ios":"levelo://app?vid=009bb9df-27b2-4075-a2d2-f749c3ae4413"},"vehicle_type_id":"4","last_reported":1684623943,"current_range_meters":29200,"station_id":"ce4bh2h2rcd13ifvqdh0","pricing_plan_id":"free"},{"bike_id":"d554c963-3dd3-4cd0-8427-56054b9b7f76","system_id":"levelo_inurba_marseille","lat":43.2942,"lon":5.38627,"is_reserved":false,"is_disabled":false,"rental_uris":{"android":"levelo://app?vid=d554c963-3dd3-4cd0-8427-56054b9b7f76","ios":"levelo://app?vid=d554c963-3dd3-4cd0-8427-56054b9b7f76"},"vehicle_type_id":"4","last_reported":1684623943,"current_range_meters":27600,"station_id":"ce4bh2h2rcd13ifvqdh0","pricing_plan_id":"free"},{"bike_id":"ea790441-eb84-4fe5-8c63-5be1511c11e1","system_id":"levelo_inurba_marseille","lat":43.29418,"lon":5.38625,"is_reserved":false,"is_disabled":false,"rental_uris":{"android":"levelo://app?vid=ea790441-eb84-4fe5-8c63-5be1511c11e1","ios":"levelo://app?vid=ea790441-eb84-4fe5-8c63-5be1511c11e1"},"vehicle_type_id":"4","last_reported":1684623943,"current_range_meters":22400,"station_id":"ce4bh2h2rcd13ifvqdh0","pricing_plan_id":"free"},{"bike_id":"9df58e7d-7ceb-450e-a784-212f6a8f0f6e","system_id":"levelo_inurba_marseille","lat":43.29417,"lon":5.38627,"is_reserved":false,"is_disabled":false,"rental_uris":{"android":"levelo://app?vid=9df58e7d-7ceb-450e-a784-212f6a8f0f6e","ios":"levelo://app?vid=9df58e7d-7ceb-450e-a784-212f6a8f0f6e"},"vehicle_type_id":"4","last_reported":1684623943,"current_range_meters":14400,"station_id":"ce4bh2h2rcd13ifvqdh0","pricing_plan_id":"free"},{"bike_id":"982b7c83-bfa4-4f19-b6f2-4933f6621050","system_id":"levelo_inurba_marseille","lat":43.29418,"lon":5.38629,"is_reserved":false,"is_disabled":false,"rental_uris":{"android":"levelo://app?vid=982b7c83-bfa4-4f19-b6f2-4933f6621050","ios":"levelo://app?vid=982b7c83-bfa4-4f19-b6f2-4933f6621050"},"vehicle_type_id":"4","last_reported":1684623943,"current_range_meters":21200,"station_id":"ce4bh2h2rcd13ifvqdh0","pricing_plan_id":"free"},{"bike_id":"b0a9cc6e-e415-4a00-a684-437b0c4780f2","system_id":"levelo_inurba_marseille","lat":43.29414,"lon":5.38626,"is_reserved":false,"is_disabled":false,"rental_uris":{"android":"levelo://app?vid=b0a9cc6e-e415-4a00-a684-437b0c4780f2","ios":"levelo://app?vid=b0a9cc6e-e415-4a00-a684-437b0c4780f2"},"vehicle_type_id":"4","last_reported":1684623943,"current_range_meters":24400,"station_id":"ce4bh2h2rcd13ifvqdh0","pricing_plan_id":"free"},{"bike_id":"0049b9e2-e32e-464f-85d6-2214d638d750","system_id":"levelo_inurba_marseille","lat":43.289184,"lon":5.366408,"is_reserved":false,"is_disabled":false,"rental_uris":{"android":"levelo://app?vid=0049b9e2-e32e-464f-85d6-2214d638d750","ios":"levelo://app?vid=0049b9e2-e32e-464f-85d6-2214d638d750"},"vehicle_type_id":"4","last_reported":1684623943,"current_range_meters":26000,"station_id":"ce4bhap2rcd13ifvqek0","pricing_plan_id":"free"},{"bike_id":"7f26f1e5-cd81-41d3-a68f-b332aad71eb4","system_id":"levelo_inurba_marseille","lat":43.29412,"lon":5.38632,"is_reserved":false,"is_disabled":false,"rental_uris":{"android":"levelo://app?vid=7f26f1e5-cd81-41d3-a68f-b332aad71eb4","ios":"levelo://app?vid=7f26f1e5-cd81-41d3-a68f-b332aad71eb4"},"vehicle_type_id":"4","last_reported":1684623943,"current_range_meters":22400,"station_id":"ce4bh2h2rcd13ifvqdh0","pricing_plan_id":"free"},{"bike_id":"8b18c2de-6b4c-45e3-9345-1b1069f97806","system_id":"levelo_inurba_marseille","lat":43.28946,"lon":5.36409,"is_reserved":false,"is_disabled":false,"rental_uris":{"android":"levelo://app?vid=8b18c2de-6b4c-45e3-9345-1b1069f97806","ios":"levelo://app?vid=8b18c2de-6b4c-45e3-9345-1b1069f97806"},"vehicle_type_id":"4","last_reported":1684623943,"current_range_meters":11200,"station_id":"","pricing_plan_id":"free"},{"bike_id":"bea32610-beac-406e-b1c1-83ebce03ee0c","system_id":"levelo_inurba_marseille","lat":43.289184,"lon":5.366408,"is_reserved":false,"is_disabled":false,"rental_uris":{"android":"levelo://app?vid=bea32610-beac-406e-b1c1-83ebce03ee0c","ios":"levelo://app?vid=bea32610-beac-406e-b1c1-83ebce03ee0c"},"vehicle_type_id":"4","last_reported":1684623943,"current_range_meters":20800,"station_id":"ce4bhap2rcd13ifvqek0","pricing_plan_id":"free"},{"bike_id":"6b3cf94b-e4d6-4bc6-9e3f-af81f63d3461","system_id":"levelo_inurba_marseille","lat":43.289468,"lon":5.363719,"is_reserved":false,"is_disabled":false,"rental_uris":{"android":"levelo://app?vid=6b3cf94b-e4d6-4bc6-9e3f-af81f63d3461","ios":"levelo://app?vid=6b3cf94b-e4d6-4bc6-9e3f-af81f63d3461"},"vehicle_type_id":"4","last_reported":1684623943,"current_range_meters":29600,"station_id":"ce4bhc92rcd13ifvqetg","pricing_plan_id":"free"},{"bike_id":"93ae4ea4-a38c-4b5f-99a1-3d7185022eff","system_id":"levelo_inurba_marseille","lat":43.28935,"lon":5.36639,"is_reserved":false,"is_disabled":false,"rental_uris":{"android":"levelo://app?vid=93ae4ea4-a38c-4b5f-99a1-3d7185022eff","ios":"levelo://app?vid=93ae4ea4-a38c-4b5f-99a1-3d7185022eff"},"vehicle_type_id":"4","last_reported":1684623943,"current_range_meters":24400,"station_id":"ce4bhap2rcd13ifvqek0","pricing_plan_id":"free"},{"bike_id":"b86e5d6a-8c4e-48ba-8511-a53e24488549","system_id":"levelo_inurba_marseille","lat":43.28939,"lon":5.36411,"is_reserved":false,"is_disabled":false,"rental_uris":{"android":"levelo://app?vid=b86e5d6a-8c4e-48ba-8511-a53e24488549","ios":"levelo://app?vid=b86e5d6a-8c4e-48ba-8511-a53e24488549"},"vehicle_type_id":"4","last_reported":1684623943,"current_range_meters":22800,"station_id":"","pricing_plan_id":"free"},{"bike_id":"b9ac7daa-7e7a-4825-8331-09cf1fc42e79","system_id":"levelo_inurba_marseille","lat":43.289468,"lon":5.363719,"is_reserved":false,"is_disabled":false,"rental_uris":{"android":"levelo://app?vid=b9ac7daa-7e7a-4825-8331-09cf1fc42e79","ios":"levelo://app?vid=b9ac7daa-7e7a-4825-8331-09cf1fc42e79"},"vehicle_type_id":"4","last_reported":1684623943,"current_range_meters":30400,"station_id":"ce4bhc92rcd13ifvqetg","pricing_plan_id":"free"},{"bike_id":"1a8101d3-b3a6-45ab-85bd-9563966fcc1f","system_id":"levelo_inurba_marseille","lat":43.289401,"lon":5.363793,"is_reserved":false,"is_disabled":false,"rental_uris":{"android":"levelo://app?vid=1a8101d3-b3a6-45ab-85bd-9563966fcc1f","ios":"levelo://app?vid=1a8101d3-b3a6-45ab-85bd-9563966fcc1f"},"vehicle_type_id":"4","last_reported":1684623943,"current_range_meters":25600,"station_id":"ce4bhc92rcd13ifvqetg","pricing_plan_id":"free"},{"bike_id":"cd8f4067-38ee-4bba-ab0f-a8ba2947805e","system_id":"levelo_inurba_marseille","lat":43.289468,"lon":5.363719,"is_reserved":false,"is_disabled":false,"rental_uris":{"android":"levelo://app?vid=cd8f4067-38ee-4bba-ab0f-a8ba2947805e","ios":"levelo://app?vid=cd8f4067-38ee-4bba-ab0f-a8ba2947805e"},"vehicle_type_id":"4","last_reported":1684623943,"current_range_meters":30400,"station_id":"ce4bhc92rcd13ifvqetg","pricing_plan_id":"free"},{"bike_id":"d3af7d54-a4a4-46fb-8400-2166ea8eea68","system_id":"levelo_inurba_marseille","lat":43.28929,"lon":5.36375,"is_reserved":false,"is_disabled":false,"rental_uris":{"android":"levelo://app?vid=d3af7d54-a4a4-46fb-8400-2166ea8eea68","ios":"levelo://app?vid=d3af7d54-a4a4-46fb-8400-2166ea8eea68"},"vehicle_type_id":"4","last_reported":1684623943,"current_range_meters":18800,"station_id":"ce4bhc92rcd13ifvqetg","pricing_plan_id":"free"},{"bike_id":"48a3d624-22ff-43bd-86f8-6974e7166ae9","system_id":"levelo_inurba_marseille","lat":43.289468,"lon":5.363719,"is_reserved":false,"is_disabled":false,"rental_uris":{"android":"levelo://app?vid=48a3d624-22ff-43bd-86f8-6974e7166ae9","ios":"levelo://app?vid=48a3d624-22ff-43bd-86f8-6974e7166ae9"},"vehicle_type_id":"4","last_reported":1684623943,"current_range_meters":12800,"station_id":"ce4bhc92rcd13ifvqetg","pricing_plan_id":"free"},{"bike_id":"5cb70de7-7a2f-4901-a8e9-943d7aa4a2a8","system_id":"levelo_inurba_marseille","lat":43.292642,"lon":5.384254,"is_reserved":false,"is_disabled":false,"rental_uris":{"android":"levelo://app?vid=5cb70de7-7a2f-4901-a8e9-943d7aa4a2a8","ios":"levelo://app?vid=5cb70de7-7a2f-4901-a8e9-943d7aa4a2a8"},"vehicle_type_id":"4","last_reported":1684623943,"current_range_meters":25600,"station_id":"ce4bh692rcd13ifvqea0","pricing_plan_id":"free"},{"bike_id":"318178b6-c36a-4d8f-a444-b45a641eab6b","system_id":"levelo_inurba_marseille","lat":43.289468,"lon":5.363719,"is_reserved":false,"is_disabled":false,"rental_uris":{"android":"levelo://app?vid=318178b6-c36a-4d8f-a444-b45a641eab6b","ios":"levelo://app?vid=318178b6-c36a-4d8f-a444-b45a641eab6b"},"vehicle_type_id":"4","last_reported":1684623943,"current_range_meters":31200,"station_id":"ce4bhc92rcd13ifvqetg","pricing_plan_id":"free"},{"bike_id":"c9385c13-f39c-460f-b6b2-99ec8d617571","system_id":"levelo_inurba_marseille","lat":43.304296,"lon":5.397513,"is_reserved":false,"is_disabled":false,"rental_uris":{"android":"levelo://app?vid=c9385c13-f39c-460f-b6b2-99ec8d617571","ios":"levelo://app?vid=c9385c13-f39c-460f-b6b2-99ec8d617571"},"vehicle_type_id":"4","last_reported":1684623943,"current_range_meters":0,"station_id":"ce4bh092rcd13ifvqd20","pricing_plan_id":"free"},{"bike_id":"10add061-8da5-4d59-bdeb-6d2ac0b0a15b","system_id":"levelo_inurba_marseille","lat":43.29259,"lon":5.38441,"is_reserved":false,"is_disabled":false,"rental_uris":{"android":"levelo://app?vid=10add061-8da5-4d59-bdeb-6d2ac0b0a15b","ios":"levelo://app?vid=10add061-8da5-4d59-bdeb-6d2ac0b0a15b"},"vehicle_type_id":"4","last_reported":1684623943,"current_range_meters":11600,"station_id":"ce4bh692rcd13ifvqea0","pricing_plan_id":"free"},{"bike_id":"3a052c00-62d7-4ef3-b2f2-02d8d27f5c42","system_id":"levelo_inurba_marseille","lat":43.304274,"lon":5.397513,"is_reserved":false,"is_disabled":false,"rental_uris":{"android":"levelo://app?vid=3a052c00-62d7-4ef3-b2f2-02d8d27f5c42","ios":"levelo://app?vid=3a052c00-62d7-4ef3-b2f2-02d8d27f5c42"},"vehicle_type_id":"4","last_reported":1684623943,"current_range_meters":31200,"station_id":"ce4bh092rcd13ifvqd20","pricing_plan_id":"free"},{"bike_id":"839c49a7-12bf-4eba-9657-d1ce35e9e57f","system_id":"levelo_inurba_marseille","lat":43.29254,"lon":5.38443,"is_reserved":false,"is_disabled":false,"rental_uris":{"android":"levelo://app?vid=839c49a7-12bf-4eba-9657-d1ce35e9e57f","ios":"levelo://app?vid=839c49a7-12bf-4eba-9657-d1ce35e9e57f"},"vehicle_type_id":"4","last_reported":1684623943,"current_range_meters":14000,"station_id":"ce4bh692rcd13ifvqea0","pricing_plan_id":"free"},{"bike_id":"4fddac79-b8a0-47a9-9c6e-2d3755c608db","system_id":"levelo_inurba_marseille","lat":43.33039,"lon":5.38917,"is_reserved":false,"is_disabled":false,"rental_uris":{"android":"levelo://app?vid=4fddac79-b8a0-47a9-9c6e-2d3755c608db","ios":"levelo://app?vid=4fddac79-b8a0-47a9-9c6e-2d3755c608db"},"vehicle_type_id":"4","last_reported":1684623943,"current_range_meters":17200,"station_id":"ce4bhr92rcd13ifvqhrg","pricing_plan_id":"free"},{"bike_id":"7c0bd459-b79a-45a3-94a5-7aa324ac70c6","system_id":"levelo_inurba_marseille","lat":43.290104,"lon":5.356111,"is_reserved":false,"is_disabled":false,"rental_uris":{"android":"levelo://app?vid=7c0bd459-b79a-45a3-94a5-7aa324ac70c6","ios":"levelo://app?vid=7c0bd459-b79a-45a3-94a5-7aa324ac70c6"},"vehicle_type_id":"4","last_reported":1684623943,"current_range_meters":26000,"station_id":"ce4bhb92rcd13ifvqen0","pricing_plan_id":"free"},{"bike_id":"33361b3d-e7a7-4868-94a1-db985853bd97","system_id":"levelo_inurba_marseille","lat":43.290104,"lon":5.356111,"is_reserved":false,"is_disabled":false,"rental_uris":{"android":"levelo://app?vid=33361b3d-e7a7-4868-94a1-db985853bd97","ios":"levelo://app?vid=33361b3d-e7a7-4868-94a1-db985853bd97"},"vehicle_type_id":"4","last_reported":1684623943,"current_range_meters":28800,"station_id":"ce4bhb92rcd13ifvqen0","pricing_plan_id":"free"},{"bike_id":"414e54ce-ba22-4a4d-9806-b6e5e79532c5","system_id":"levelo_inurba_marseille","lat":43.33045,"lon":5.38918,"is_reserved":false,"is_disabled":false,"rental_uris":{"android":"levelo://app?vid=414e54ce-ba22-4a4d-9806-b6e5e79532c5","ios":"levelo://app?vid=414e54ce-ba22-4a4d-9806-b6e5e79532c5"},"vehicle_type_id":"4","last_reported":1684623943,"current_range_meters":22800,"station_id":"ce4bhr92rcd13ifvqhrg","pricing_plan_id":"free"},{"bike_id":"8b16e323-4f74-41b8-940c-5be9fb253fe1","system_id":"levelo_inurba_marseille","lat":43.33044,"lon":5.38921,"is_reserved":false,"is_disabled":false,"rental_uris":{"android":"levelo://app?vid=8b16e323-4f74-41b8-940c-5be9fb253fe1","ios":"levelo://app?vid=8b16e323-4f74-41b8-940c-5be9fb253fe1"},"vehicle_type_id":"4","last_reported":1684623943,"current_range_meters":19600,"station_id":"ce4bhr92rcd13ifvqhrg","pricing_plan_id":"free"},{"bike_id":"dc561eec-74b8-4a9d-8360-fde7940ea8ed","system_id":"levelo_inurba_marseille","lat":43.33046,"lon":5.38921,"is_reserved":false,"is_disabled":false,"rental_uris":{"android":"levelo://app?vid=dc561eec-74b8-4a9d-8360-fde7940ea8ed","ios":"levelo://app?vid=dc561eec-74b8-4a9d-8360-fde7940ea8ed"},"vehicle_type_id":"4","last_reported":1684623943,"current_range_meters":17200,"station_id":"ce4bhr92rcd13ifvqhrg","pricing_plan_id":"free"},{"bike_id":"2d04834a-69a2-413f-9f4a-d7f214aac159","system_id":"levelo_inurba_marseille","lat":43.33039,"lon":5.38942,"is_reserved":false,"is_disabled":false,"rental_uris":{"android":"levelo://app?vid=2d04834a-69a2-413f-9f4a-d7f214aac159","ios":"levelo://app?vid=2d04834a-69a2-413f-9f4a-d7f214aac159"},"vehicle_type_id":"4","last_reported":1684623943,"current_range_meters":26400,"station_id":"ce4bhr92rcd13ifvqhrg","pricing_plan_id":"free"},{"bike_id":"2c8cbcd0-cfbf-4878-b7d0-b2c807b5933d","system_id":"levelo_inurba_marseille","lat":43.297814,"lon":5.393513,"is_reserved":false,"is_disabled":false,"rental_uris":{"android":"levelo://app?vid=2c8cbcd0-cfbf-4878-b7d0-b2c807b5933d","ios":"levelo://app?vid=2c8cbcd0-cfbf-4878-b7d0-b2c807b5933d"},"vehicle_type_id":"4","last_reported":1684623943,"current_range_meters":25200,"station_id":"chh1huq6cuj3fo74tm60","pricing_plan_id":"free"},{"bike_id":"ae6496a8-56fc-48cc-9a2f-410c56376096","system_id":"levelo_inurba_marseille","lat":43.297814,"lon":5.393513,"is_reserved":false,"is_disabled":false,"rental_uris":{"android":"levelo://app?vid=ae6496a8-56fc-48cc-9a2f-410c56376096","ios":"levelo://app?vid=ae6496a8-56fc-48cc-9a2f-410c56376096"},"vehicle_type_id":"4","last_reported":1684623943,"current_range_meters":5200,"station_id":"chh1huq6cuj3fo74tm60","pricing_plan_id":"free"},{"bike_id":"bcae12fb-ede9-4c47-accb-27aa97a4965c","system_id":"levelo_inurba_marseille","lat":43.289741,"lon":5.378306,"is_reserved":false,"is_disabled":false,"rental_uris":{"android":"levelo://app?vid=bcae12fb-ede9-4c47-accb-27aa97a4965c","ios":"levelo://app?vid=bcae12fb-ede9-4c47-accb-27aa97a4965c"},"vehicle_type_id":"4","last_reported":1684623943,"current_range_meters":27200,"station_id":"ce4bh9p2rcd13ifvqed0","pricing_plan_id":"free"},{"bike_id":"16fd87f3-72c6-48ff-a8dc-db3d8e59bb00","system_id":"levelo_inurba_marseille","lat":43.30511,"lon":5.39946,"is_reserved":false,"is_disabled":false,"rental_uris":{"android":"levelo://app?vid=16fd87f3-72c6-48ff-a8dc-db3d8e59bb00","ios":"levelo://app?vid=16fd87f3-72c6-48ff-a8dc-db3d8e59bb00"},"vehicle_type_id":"4","last_reported":1684623943,"current_range_meters":16000,"station_id":"","pricing_plan_id":"free"},{"bike_id":"add24a0d-7f36-491a-9ffb-6c154abf71f6","system_id":"levelo_inurba_marseille","lat":43.28856,"lon":5.358371,"is_reserved":false,"is_disabled":false,"rental_uris":{"android":"levelo://app?vid=add24a0d-7f36-491a-9ffb-6c154abf71f6","ios":"levelo://app?vid=add24a0d-7f36-491a-9ffb-6c154abf71f6"},"vehicle_type_id":"4","last_reported":1684623943,"current_range_meters":31200,"station_id":"ce4bhb12rcd13ifvqem0","pricing_plan_id":"free"},{"bike_id":"9b82232c-5a8e-47d9-a52a-5746a9837c04","system_id":"levelo_inurba_marseille","lat":43.28856,"lon":5.358371,"is_reserved":false,"is_disabled":false,"rental_uris":{"android":"levelo://app?vid=9b82232c-5a8e-47d9-a52a-5746a9837c04","ios":"levelo://app?vid=9b82232c-5a8e-47d9-a52a-5746a9837c04"},"vehicle_type_id":"4","last_reported":1684623943,"current_range_meters":31200,"station_id":"ce4bhb12rcd13ifvqem0","pricing_plan_id":"free"},{"bike_id":"b650b36b-4783-4f94-95c1-dd1a230dbec7","system_id":"levelo_inurba_marseille","lat":43.28856,"lon":5.358371,"is_reserved":false,"is_disabled":false,"rental_uris":{"android":"levelo://app?vid=b650b36b-4783-4f94-95c1-dd1a230dbec7","ios":"levelo://app?vid=b650b36b-4783-4f94-95c1-dd1a230dbec7"},"vehicle_type_id":"4","last_reported":1684623943,"current_range_meters":20400,"station_id":"ce4bhb12rcd13ifvqem0","pricing_plan_id":"free"},{"bike_id":"76ffa434-42b9-425e-8e60-0595161a4fcb","system_id":"levelo_inurba_marseille","lat":43.28856,"lon":5.358371,"is_reserved":false,"is_disabled":false,"rental_uris":{"android":"levelo://app?vid=76ffa434-42b9-425e-8e60-0595161a4fcb","ios":"levelo://app?vid=76ffa434-42b9-425e-8e60-0595161a4fcb"},"vehicle_type_id":"4","last_reported":1684623943,"current_range_meters":28000,"station_id":"ce4bhb12rcd13ifvqem0","pricing_plan_id":"free"},{"bike_id":"87fb0304-d8c5-40ad-a30f-f6f47ea61642","system_id":"levelo_inurba_marseille","lat":43.28856,"lon":5.358371,"is_reserved":false,"is_disabled":false,"rental_uris":{"android":"levelo://app?vid=87fb0304-d8c5-40ad-a30f-f6f47ea61642","ios":"levelo://app?vid=87fb0304-d8c5-40ad-a30f-f6f47ea61642"},"vehicle_type_id":"4","last_reported":1684623943,"current_range_meters":28000,"station_id":"ce4bhb12rcd13ifvqem0","pricing_plan_id":"free"},{"bike_id":"75b4009b-e9ea-41be-a317-b185092c6242","system_id":"levelo_inurba_marseille","lat":43.28874,"lon":5.37664,"is_reserved":false,"is_disabled":false,"rental_uris":{"android":"levelo://app?vid=75b4009b-e9ea-41be-a317-b185092c6242","ios":"levelo://app?vid=75b4009b-e9ea-41be-a317-b185092c6242"},"vehicle_type_id":"4","last_reported":1684623943,"current_range_meters":12000,"station_id":"","pricing_plan_id":"free"},{"bike_id":"8eb0c063-4b5b-423f-9de0-bf47f8244c02","system_id":"levelo_inurba_marseille","lat":43.28844,"lon":5.35856,"is_reserved":false,"is_disabled":false,"rental_uris":{"android":"levelo://app?vid=8eb0c063-4b5b-423f-9de0-bf47f8244c02","ios":"levelo://app?vid=8eb0c063-4b5b-423f-9de0-bf47f8244c02"},"vehicle_type_id":"4","last_reported":1684623943,"current_range_meters":22000,"station_id":"ce4bhb12rcd13ifvqem0","pricing_plan_id":"free"},{"bike_id":"75d949a4-f5a2-461a-8d70-c4d8bf348254","system_id":"levelo_inurba_marseille","lat":43.30642,"lon":5.401031,"is_reserved":false,"is_disabled":false,"rental_uris":{"android":"levelo://app?vid=75d949a4-f5a2-461a-8d70-c4d8bf348254","ios":"levelo://app?vid=75d949a4-f5a2-461a-8d70-c4d8bf348254"},"vehicle_type_id":"4","last_reported":1684623943,"current_range_meters":18800,"station_id":"ce4bh112rcd13ifvqda0","pricing_plan_id":"free"},{"bike_id":"ce43ccc0-4aec-4433-bd07-e3b234fb6ae8","system_id":"levelo_inurba_marseille","lat":43.33749,"lon":5.37462,"is_reserved":false,"is_disabled":false,"rental_uris":{"android":"levelo://app?vid=ce43ccc0-4aec-4433-bd07-e3b234fb6ae8","ios":"levelo://app?vid=ce43ccc0-4aec-4433-bd07-e3b234fb6ae8"},"vehicle_type_id":"4","last_reported":1684623943,"current_range_meters":14400,"station_id":"","pricing_plan_id":"free"},{"bike_id":"42275aee-47fa-4700-8079-abb66e61df36","system_id":"levelo_inurba_marseille","lat":43.30642,"lon":5.401031,"is_reserved":false,"is_disabled":false,"rental_uris":{"android":"levelo://app?vid=42275aee-47fa-4700-8079-abb66e61df36","ios":"levelo://app?vid=42275aee-47fa-4700-8079-abb66e61df36"},"vehicle_type_id":"4","last_reported":1684623943,"current_range_meters":30000,"station_id":"ce4bh112rcd13ifvqda0","pricing_plan_id":"free"},{"bike_id":"66a74e04-1afd-4831-9866-d6b53dc382c7","system_id":"levelo_inurba_marseille","lat":43.33753,"lon":5.37443,"is_reserved":false,"is_disabled":false,"rental_uris":{"android":"levelo://app?vid=66a74e04-1afd-4831-9866-d6b53dc382c7","ios":"levelo://app?vid=66a74e04-1afd-4831-9866-d6b53dc382c7"},"vehicle_type_id":"4","last_reported":1684623943,"current_range_meters":10400,"station_id":"","pricing_plan_id":"free"},{"bike_id":"4fab9a27-7a8b-4462-b190-fbf817086433","system_id":"levelo_inurba_marseille","lat":43.30645,"lon":5.40076,"is_reserved":false,"is_disabled":false,"rental_uris":{"android":"levelo://app?vid=4fab9a27-7a8b-4462-b190-fbf817086433","ios":"levelo://app?vid=4fab9a27-7a8b-4462-b190-fbf817086433"},"vehicle_type_id":"4","last_reported":1684623943,"current_range_meters":21200,"station_id":"ce4bh112rcd13ifvqda0","pricing_plan_id":"free"},{"bike_id":"518943f0-d7f8-4ffe-b519-a278bcc29a92","system_id":"levelo_inurba_marseille","lat":43.30645,"lon":5.40077,"is_reserved":false,"is_disabled":false,"rental_uris":{"android":"levelo://app?vid=518943f0-d7f8-4ffe-b519-a278bcc29a92","ios":"levelo://app?vid=518943f0-d7f8-4ffe-b519-a278bcc29a92"},"vehicle_type_id":"4","last_reported":1684623943,"current_range_meters":26400,"station_id":"","pricing_plan_id":"free"},{"bike_id":"c6b0a6fc-9b6a-4e43-9ec2-072d7a66e5c9","system_id":"levelo_inurba_marseille","lat":43.337553,"lon":5.374674,"is_reserved":false,"is_disabled":false,"rental_uris":{"android":"levelo://app?vid=c6b0a6fc-9b6a-4e43-9ec2-072d7a66e5c9","ios":"levelo://app?vid=c6b0a6fc-9b6a-4e43-9ec2-072d7a66e5c9"},"vehicle_type_id":"4","last_reported":1684623943,"current_range_meters":30000,"station_id":"","pricing_plan_id":"free"},