{"last_updated":1778701124,"ttl":60,"version":"2.2","data":{"bikes":[{"bike_id":"56ea0cdd-526f-482d-8996-3d4f8ef150ef","system_id":"levelo_inurba_marseille","lat":43.2755,"lon":5.35894,"is_reserved":false,"is_disabled":false,"rental_uris":{"android":"levelo://app?vid=56ea0cdd-526f-482d-8996-3d4f8ef150ef","ios":"levelo://app?vid=56ea0cdd-526f-482d-8996-3d4f8ef150ef"},"vehicle_type_id":"4","last_reported":1778701124,"current_range_meters":2800,"station_id":"","pricing_plan_id":"cebpf4jnsgd1na2vs0mg"},{"bike_id":"a2404173-0d64-467d-bd7e-18dd02749877","system_id":"levelo_inurba_marseille","lat":43.248136,"lon":5.374614,"is_reserved":false,"is_disabled":false,"rental_uris":{"android":"levelo://app?vid=a2404173-0d64-467d-bd7e-18dd02749877","ios":"levelo://app?vid=a2404173-0d64-467d-bd7e-18dd02749877"},"vehicle_type_id":"4","last_reported":1778701124,"current_range_meters":2800,"station_id":"ce4bhgh2rcd13ifvqfb0","pricing_plan_id":"cebpf4jnsgd1na2vs0mg"},{"bike_id":"30503ec7-3b29-4842-b8e6-bb46e3a61b06","system_id":"levelo_inurba_marseille","lat":43.28343,"lon":5.38118,"is_reserved":false,"is_disabled":false,"rental_uris":{"android":"levelo://app?vid=30503ec7-3b29-4842-b8e6-bb46e3a61b06","ios":"levelo://app?vid=30503ec7-3b29-4842-b8e6-bb46e3a61b06"},"vehicle_type_id":"4","last_reported":1778701124,"current_range_meters":2800,"station_id":"ce4bh412rcd13ifvqdr0","pricing_plan_id":"cebpf4jnsgd1na2vs0mg"},{"bike_id":"eba75a83-d417-436f-bb1a-0b2a956c41ae","system_id":"levelo_inurba_marseille","lat":43.32822,"lon":5.42611,"is_reserved":false,"is_disabled":false,"rental_uris":{"android":"levelo://app?vid=eba75a83-d417-436f-bb1a-0b2a956c41ae","ios":"levelo://app?vid=eba75a83-d417-436f-bb1a-0b2a956c41ae"},"vehicle_type_id":"4","last_reported":1778701124,"current_range_meters":2800,"station_id":"","pricing_plan_id":"cebpf4jnsgd1na2vs0mg"},{"bike_id":"6b65a7ec-42ec-40b3-a214-4a08bf60d10a","system_id":"levelo_inurba_marseille","lat":43.24143,"lon":5.39731,"is_reserved":false,"is_disabled":false,"rental_uris":{"android":"levelo://app?vid=6b65a7ec-42ec-40b3-a214-4a08bf60d10a","ios":"levelo://app?vid=6b65a7ec-42ec-40b3-a214-4a08bf60d10a"},"vehicle_type_id":"4","last_reported":1778701124,"current_range_meters":2800,"station_id":"ce4bhn12rcd13ifvqgpg","pricing_plan_id":"cebpf4jnsgd1na2vs0mg"},{"bike_id":"d86a164d-999e-4ce8-999f-d8acf2b3abaa","system_id":"levelo_inurba_marseille","lat":43.30151,"lon":5.37427,"is_reserved":false,"is_disabled":false,"rental_uris":{"android":"levelo://app?vid=d86a164d-999e-4ce8-999f-d8acf2b3abaa","ios":"levelo://app?vid=d86a164d-999e-4ce8-999f-d8acf2b3abaa"},"vehicle_type_id":"4","last_reported":1778701124,"current_range_meters":2800,"station_id":"ce4bgs92rcd13ifvqcc0","pricing_plan_id":"cebpf4jnsgd1na2vs0mg"},{"bike_id":"526706b8-c8b3-4cf3-a093-2833e4a36598","system_id":"levelo_inurba_marseille","lat":43.30439,"lon":5.38883,"is_reserved":false,"is_disabled":false,"rental_uris":{"android":"levelo://app?vid=526706b8-c8b3-4cf3-a093-2833e4a36598","ios":"levelo://app?vid=526706b8-c8b3-4cf3-a093-2833e4a36598"},"vehicle_type_id":"4","last_reported":1778701124,"current_range_meters":2800,"station_id":"ce4bgk12rcd13ifvqbi0","pricing_plan_id":"cebpf4jnsgd1na2vs0mg"},{"bike_id":"d8268183-8129-4d5c-b142-70b87e26e1cd","system_id":"levelo_inurba_marseille","lat":43.28156,"lon":5.42656,"is_reserved":false,"is_disabled":false,"rental_uris":{"android":"levelo://app?vid=d8268183-8129-4d5c-b142-70b87e26e1cd","ios":"levelo://app?vid=d8268183-8129-4d5c-b142-70b87e26e1cd"},"vehicle_type_id":"4","last_reported":1778701124,"current_range_meters":2800,"station_id":"ce4bhnh2rcd13ifvqgug","pricing_plan_id":"cebpf4jnsgd1na2vs0mg"},{"bike_id":"32a3932f-a33a-44d6-9d0a-b7cf45b4a0d7","system_id":"levelo_inurba_marseille","lat":43.27368,"lon":5.36256,"is_reserved":false,"is_disabled":true,"rental_uris":{"android":"levelo://app?vid=32a3932f-a33a-44d6-9d0a-b7cf45b4a0d7","ios":"levelo://app?vid=32a3932f-a33a-44d6-9d0a-b7cf45b4a0d7"},"vehicle_type_id":"4","last_reported":1778701124,"current_range_meters":2800,"station_id":"ce4bhbh2rcd13ifvqeo0","pricing_plan_id":"cebpf4jnsgd1na2vs0mg"},{"bike_id":"53d0e627-4f69-42ab-9820-264f6253f473","system_id":"levelo_inurba_marseille","lat":43.28419,"lon":5.37521,"is_reserved":false,"is_disabled":false,"rental_uris":{"android":"levelo://app?vid=53d0e627-4f69-42ab-9820-264f6253f473","ios":"levelo://app?vid=53d0e627-4f69-42ab-9820-264f6253f473"},"vehicle_type_id":"4","last_reported":1778701124,"current_range_meters":2800,"station_id":"ce4bh412rcd13ifvqds0","pricing_plan_id":"cebpf4jnsgd1na2vs0mg"},{"bike_id":"b391d551-3286-4ba9-b690-88936c1f7b06","system_id":"levelo_inurba_marseille","lat":43.2903,"lon":5.38642,"is_reserved":false,"is_disabled":false,"rental_uris":{"android":"levelo://app?vid=b391d551-3286-4ba9-b690-88936c1f7b06","ios":"levelo://app?vid=b391d551-3286-4ba9-b690-88936c1f7b06"},"vehicle_type_id":"4","last_reported":1778701124,"current_range_meters":2800,"station_id":"ce4bh4p2rcd13ifvqe0g","pricing_plan_id":"cebpf4jnsgd1na2vs0mg"},{"bike_id":"7434fa44-7e94-469e-af88-da0849123d34","system_id":"levelo_inurba_marseille","lat":43.29534,"lon":5.39034,"is_reserved":false,"is_disabled":false,"rental_uris":{"android":"levelo://app?vid=7434fa44-7e94-469e-af88-da0849123d34","ios":"levelo://app?vid=7434fa44-7e94-469e-af88-da0849123d34"},"vehicle_type_id":"4","last_reported":1778701124,"current_range_meters":3200,"station_id":"ce4bh3p2rcd13ifvqdp0","pricing_plan_id":"cebpf4jnsgd1na2vs0mg"},{"bike_id":"9d089406-4f97-46f9-8bc4-16305ebf2766","system_id":"levelo_inurba_marseille","lat":43.25512,"lon":5.37634,"is_reserved":false,"is_disabled":false,"rental_uris":{"android":"levelo://app?vid=9d089406-4f97-46f9-8bc4-16305ebf2766","ios":"levelo://app?vid=9d089406-4f97-46f9-8bc4-16305ebf2766"},"vehicle_type_id":"4","last_reported":1778701124,"current_range_meters":3200,"station_id":"ce4bhh12rcd13ifvqff0","pricing_plan_id":"cebpf4jnsgd1na2vs0mg"},{"bike_id":"e24fa629-466b-45d7-b771-09dc8c5392e4","system_id":"levelo_inurba_marseille","lat":43.29721,"lon":5.377,"is_reserved":false,"is_disabled":false,"rental_uris":{"android":"levelo://app?vid=e24fa629-466b-45d7-b771-09dc8c5392e4","ios":"levelo://app?vid=e24fa629-466b-45d7-b771-09dc8c5392e4"},"vehicle_type_id":"4","last_reported":1778701124,"current_range_meters":3200,"station_id":"ce4bgkh2rcd13ifvqbl0","pricing_plan_id":"cebpf4jnsgd1na2vs0mg"},{"bike_id":"900acfa1-708b-48c3-8f4e-d7e39814d065","system_id":"levelo_inurba_marseille","lat":43.29577,"lon":5.37506,"is_reserved":false,"is_disabled":false,"rental_uris":{"android":"levelo://app?vid=900acfa1-708b-48c3-8f4e-d7e39814d065","ios":"levelo://app?vid=900acfa1-708b-48c3-8f4e-d7e39814d065"},"vehicle_type_id":"4","last_reported":1778701124,"current_range_meters":3200,"station_id":"ce4bgh92rcd13ifvqb50","pricing_plan_id":"cebpf4jnsgd1na2vs0mg"},{"bike_id":"d17caecb-63d0-45e5-a1bd-999d47bfa305","system_id":"levelo_inurba_marseille","lat":43.34151,"lon":5.40901,"is_reserved":false,"is_disabled":false,"rental_uris":{"android":"levelo://app?vid=d17caecb-63d0-45e5-a1bd-999d47bfa305","ios":"levelo://app?vid=d17caecb-63d0-45e5-a1bd-999d47bfa305"},"vehicle_type_id":"4","last_reported":1778701124,"current_range_meters":3600,"station_id":"ce4bhqh2rcd13ifvqhlg","pricing_plan_id":"cebpf4jnsgd1na2vs0mg"},{"bike_id":"3ffc93a6-bb76-4eaf-bf6b-a7895365a766","system_id":"levelo_inurba_marseille","lat":43.34152,"lon":5.40902,"is_reserved":false,"is_disabled":false,"rental_uris":{"android":"levelo://app?vid=3ffc93a6-bb76-4eaf-bf6b-a7895365a766","ios":"levelo://app?vid=3ffc93a6-bb76-4eaf-bf6b-a7895365a766"},"vehicle_type_id":"4","last_reported":1778701124,"current_range_meters":3600,"station_id":"ce4bhqh2rcd13ifvqhlg","pricing_plan_id":"cebpf4jnsgd1na2vs0mg"},{"bike_id":"2efb78c3-6e7e-4e10-8854-7990d4c66f52","system_id":"levelo_inurba_marseille","lat":43.31529,"lon":5.38041,"is_reserved":false,"is_disabled":false,"rental_uris":{"android":"levelo://app?vid=2efb78c3-6e7e-4e10-8854-7990d4c66f52","ios":"levelo://app?vid=2efb78c3-6e7e-4e10-8854-7990d4c66f52"},"vehicle_type_id":"4","last_reported":1778701124,"current_range_meters":3600,"station_id":"ce4bhsp2rcd13ifvqi50","pricing_plan_id":"cebpf4jnsgd1na2vs0mg"},{"bike_id":"d42eff96-2a63-4bb7-854f-d06471913ef6","system_id":"levelo_inurba_marseille","lat":43.31718,"lon":5.37717,"is_reserved":false,"is_disabled":true,"rental_uris":{"android":"levelo://app?vid=d42eff96-2a63-4bb7-854f-d06471913ef6","ios":"levelo://app?vid=d42eff96-2a63-4bb7-854f-d06471913ef6"},"vehicle_type_id":"4","last_reported":1778701124,"current_range_meters":3600,"station_id":"ce4bgth2rcd13ifvqch0","pricing_plan_id":"cebpf4jnsgd1na2vs0mg"},{"bike_id":"2a8b24e9-9caf-4306-b9f8-0461eeb21443","system_id":"levelo_inurba_marseille","lat":43.3134,"lon":5.37918,"is_reserved":false,"is_disabled":false,"rental_uris":{"android":"levelo://app?vid=2a8b24e9-9caf-4306-b9f8-0461eeb21443","ios":"levelo://app?vid=2a8b24e9-9caf-4306-b9f8-0461eeb21443"},"vehicle_type_id":"4","last_reported":1778701124,"current_range_meters":3600,"station_id":"","pricing_plan_id":"cebpf4jnsgd1na2vs0mg"},{"bike_id":"36de638f-3c82-4801-ab6f-c7dea5d5b6dc","system_id":"levelo_inurba_marseille","lat":43.29511,"lon":5.3904,"is_reserved":false,"is_disabled":false,"rental_uris":{"android":"levelo://app?vid=36de638f-3c82-4801-ab6f-c7dea5d5b6dc","ios":"levelo://app?vid=36de638f-3c82-4801-ab6f-c7dea5d5b6dc"},"vehicle_type_id":"4","last_reported":1778701124,"current_range_meters":3600,"station_id":"ce4bh3p2rcd13ifvqdp0","pricing_plan_id":"cebpf4jnsgd1na2vs0mg"},{"bike_id":"dd30dafa-ab4c-4185-b2c3-6f6ba4f3e360","system_id":"levelo_inurba_marseille","lat":43.25578,"lon":5.3823,"is_reserved":false,"is_disabled":true,"rental_uris":{"android":"levelo://app?vid=dd30dafa-ab4c-4185-b2c3-6f6ba4f3e360","ios":"levelo://app?vid=dd30dafa-ab4c-4185-b2c3-6f6ba4f3e360"},"vehicle_type_id":"4","last_reported":1778701124,"current_range_meters":3600,"station_id":"ce4bhih2rcd13ifvqfs0","pricing_plan_id":"cebpf4jnsgd1na2vs0mg"},{"bike_id":"d344a44d-be01-4599-8522-cfc8e33e69e6","system_id":"levelo_inurba_marseille","lat":43.24095,"lon":5.37751,"is_reserved":false,"is_disabled":false,"rental_uris":{"android":"levelo://app?vid=d344a44d-be01-4599-8522-cfc8e33e69e6","ios":"levelo://app?vid=d344a44d-be01-4599-8522-cfc8e33e69e6"},"vehicle_type_id":"4","last_reported":1778701124,"current_range_meters":3600,"station_id":"ce4bhnp2rcd13ifvqgvg","pricing_plan_id":"cebpf4jnsgd1na2vs0mg"},{"bike_id":"047b1edb-38f7-4ce3-8c99-b41ced83b0bf","system_id":"levelo_inurba_marseille","lat":43.26219,"lon":5.37439,"is_reserved":false,"is_disabled":true,"rental_uris":{"android":"levelo://app?vid=047b1edb-38f7-4ce3-8c99-b41ced83b0bf","ios":"levelo://app?vid=047b1edb-38f7-4ce3-8c99-b41ced83b0bf"},"vehicle_type_id":"4","last_reported":1778701124,"current_range_meters":3600,"station_id":"ce4bhgp2rcd13ifvqfc0","pricing_plan_id":"cebpf4jnsgd1na2vs0mg"},{"bike_id":"48a8b1d0-61c1-4542-9403-59c1fe911ffa","system_id":"levelo_inurba_marseille","lat":43.298,"lon":5.38087,"is_reserved":false,"is_disabled":false,"rental_uris":{"android":"levelo://app?vid=48a8b1d0-61c1-4542-9403-59c1fe911ffa","ios":"levelo://app?vid=48a8b1d0-61c1-4542-9403-59c1fe911ffa"},"vehicle_type_id":"4","last_reported":1778701124,"current_range_meters":3600,"station_id":"ce4bgip2rcd13ifvqbb0","pricing_plan_id":"cebpf4jnsgd1na2vs0mg"},{"bike_id":"b08622a3-72db-4a2e-bcf0-dfe85e04359c","system_id":"levelo_inurba_marseille","lat":43.28661,"lon":5.36257,"is_reserved":false,"is_disabled":false,"rental_uris":{"android":"levelo://app?vid=b08622a3-72db-4a2e-bcf0-dfe85e04359c","ios":"levelo://app?vid=b08622a3-72db-4a2e-bcf0-dfe85e04359c"},"vehicle_type_id":"4","last_reported":1778701124,"current_range_meters":3600,"station_id":"","pricing_plan_id":"cebpf4jnsgd1na2vs0mg"},{"bike_id":"4fa4b39a-f640-40a3-82d4-b22062366cfc","system_id":"levelo_inurba_marseille","lat":43.30004,"lon":5.36725,"is_reserved":false,"is_disabled":false,"rental_uris":{"android":"levelo://app?vid=4fa4b39a-f640-40a3-82d4-b22062366cfc","ios":"levelo://app?vid=4fa4b39a-f640-40a3-82d4-b22062366cfc"},"vehicle_type_id":"4","last_reported":1778701124,"current_range_meters":3600,"station_id":"","pricing_plan_id":"cebpf4jnsgd1na2vs0mg"},{"bike_id":"6ae12494-4ba0-4c2a-afb5-6d73fde837f0","system_id":"levelo_inurba_marseille","lat":43.29597,"lon":5.38109,"is_reserved":false,"is_disabled":false,"rental_uris":{"android":"levelo://app?vid=6ae12494-4ba0-4c2a-afb5-6d73fde837f0","ios":"levelo://app?vid=6ae12494-4ba0-4c2a-afb5-6d73fde837f0"},"vehicle_type_id":"4","last_reported":1778701124,"current_range_meters":3600,"station_id":"ce4bgl12rcd13ifvqbo0","pricing_plan_id":"cebpf4jnsgd1na2vs0mg"},{"bike_id":"092b7b00-428b-43b6-88dd-122403d8f88b","system_id":"levelo_inurba_marseille","lat":43.28714,"lon":5.37919,"is_reserved":false,"is_disabled":false,"rental_uris":{"android":"levelo://app?vid=092b7b00-428b-43b6-88dd-122403d8f88b","ios":"levelo://app?vid=092b7b00-428b-43b6-88dd-122403d8f88b"},"vehicle_type_id":"4","last_reported":1778701124,"current_range_meters":3600,"station_id":"ce4bh9p2rcd13ifvqec0","pricing_plan_id":"cebpf4jnsgd1na2vs0mg"},{"bike_id":"b28175c4-e194-4f59-8c02-22aa2472037d","system_id":"levelo_inurba_marseille","lat":43.24818,"lon":5.41884,"is_reserved":false,"is_disabled":false,"rental_uris":{"android":"levelo://app?vid=b28175c4-e194-4f59-8c02-22aa2472037d","ios":"levelo://app?vid=b28175c4-e194-4f59-8c02-22aa2472037d"},"vehicle_type_id":"4","last_reported":1778701124,"current_range_meters":3600,"station_id":"","pricing_plan_id":"cebpf4jnsgd1na2vs0mg"},{"bike_id":"efecaf7c-84a1-4832-b784-4ad7d92db289","system_id":"levelo_inurba_marseille","lat":43.28366,"lon":5.3862,"is_reserved":false,"is_disabled":false,"rental_uris":{"android":"levelo://app?vid=efecaf7c-84a1-4832-b784-4ad7d92db289","ios":"levelo://app?vid=efecaf7c-84a1-4832-b784-4ad7d92db289"},"vehicle_type_id":"4","last_reported":1778701124,"current_range_meters":3600,"station_id":"ce4bh492rcd13ifvqdvg","pricing_plan_id":"cebpf4jnsgd1na2vs0mg"},{"bike_id":"39cd2488-efbd-400d-980b-e9e5e59fad91","system_id":"levelo_inurba_marseille","lat":43.29805,"lon":5.38113,"is_reserved":false,"is_disabled":false,"rental_uris":{"android":"levelo://app?vid=39cd2488-efbd-400d-980b-e9e5e59fad91","ios":"levelo://app?vid=39cd2488-efbd-400d-980b-e9e5e59fad91"},"vehicle_type_id":"4","last_reported":1778701124,"current_range_meters":3600,"station_id":"ce4bgip2rcd13ifvqbb0","pricing_plan_id":"cebpf4jnsgd1na2vs0mg"},{"bike_id":"44625de2-ceea-45a3-b6e0-4e74c0a1850b","system_id":"levelo_inurba_marseille","lat":43.29601,"lon":5.38102,"is_reserved":false,"is_disabled":false,"rental_uris":{"android":"levelo://app?vid=44625de2-ceea-45a3-b6e0-4e74c0a1850b","ios":"levelo://app?vid=44625de2-ceea-45a3-b6e0-4e74c0a1850b"},"vehicle_type_id":"4","last_reported":1778701124,"current_range_meters":3600,"station_id":"ce4bgl12rcd13ifvqbo0","pricing_plan_id":"cebpf4jnsgd1na2vs0mg"},{"bike_id":"c17c7fd4-6c30-41de-ae59-084b47c37378","system_id":"levelo_inurba_marseille","lat":43.2931,"lon":5.37178,"is_reserved":false,"is_disabled":false,"rental_uris":{"android":"levelo://app?vid=c17c7fd4-6c30-41de-ae59-084b47c37378","ios":"levelo://app?vid=c17c7fd4-6c30-41de-ae59-084b47c37378"},"vehicle_type_id":"4","last_reported":1778701124,"current_range_meters":3600,"station_id":"ce4bgh92rcd13ifvqb40","pricing_plan_id":"cebpf4jnsgd1na2vs0mg"},{"bike_id":"5f26d5ac-662b-47ee-afbe-38c58dedd3fa","system_id":"levelo_inurba_marseille","lat":43.30425,"lon":5.38883,"is_reserved":false,"is_disabled":false,"rental_uris":{"android":"levelo://app?vid=5f26d5ac-662b-47ee-afbe-38c58dedd3fa","ios":"levelo://app?vid=5f26d5ac-662b-47ee-afbe-38c58dedd3fa"},"vehicle_type_id":"4","last_reported":1778701124,"current_range_meters":3600,"station_id":"ce4bgk12rcd13ifvqbi0","pricing_plan_id":"cebpf4jnsgd1na2vs0mg"},{"bike_id":"74df38ad-5945-44f6-9cd4-ed98c3e4834e","system_id":"levelo_inurba_marseille","lat":43.24656,"lon":5.38176,"is_reserved":false,"is_disabled":false,"rental_uris":{"android":"levelo://app?vid=74df38ad-5945-44f6-9cd4-ed98c3e4834e","ios":"levelo://app?vid=74df38ad-5945-44f6-9cd4-ed98c3e4834e"},"vehicle_type_id":"4","last_reported":1778701124,"current_range_meters":4000,"station_id":"ce4bhih2rcd13ifvqfr0","pricing_plan_id":"cebpf4jnsgd1na2vs0mg"},{"bike_id":"0a548a91-b357-4015-92ae-90e8dde0afd9","system_id":"levelo_inurba_marseille","lat":43.30893,"lon":5.37194,"is_reserved":false,"is_disabled":false,"rental_uris":{"android":"levelo://app?vid=0a548a91-b357-4015-92ae-90e8dde0afd9","ios":"levelo://app?vid=0a548a91-b357-4015-92ae-90e8dde0afd9"},"vehicle_type_id":"4","last_reported":1778701124,"current_range_meters":4000,"station_id":"ce4bguh2rcd13ifvqckg","pricing_plan_id":"cebpf4jnsgd1na2vs0mg"},{"bike_id":"30e7b792-103b-464e-8c0d-9be6a0686f00","system_id":"levelo_inurba_marseille","lat":43.30152,"lon":5.39858,"is_reserved":false,"is_disabled":false,"rental_uris":{"android":"levelo://app?vid=30e7b792-103b-464e-8c0d-9be6a0686f00","ios":"levelo://app?vid=30e7b792-103b-464e-8c0d-9be6a0686f00"},"vehicle_type_id":"4","last_reported":1778701124,"current_range_meters":4000,"station_id":"ce4bh0h2rcd13ifvqd40","pricing_plan_id":"cebpf4jnsgd1na2vs0mg"},{"bike_id":"9eb4cf02-eacb-431a-bc85-a5d415b59c3c","system_id":"levelo_inurba_marseille","lat":43.301161,"lon":5.398657,"is_reserved":false,"is_disabled":false,"rental_uris":{"android":"levelo://app?vid=9eb4cf02-eacb-431a-bc85-a5d415b59c3c","ios":"levelo://app?vid=9eb4cf02-eacb-431a-bc85-a5d415b59c3c"},"vehicle_type_id":"4","last_reported":1778701124,"current_range_meters":4000,"station_id":"ce4bgj92rcd13ifvqbd0","pricing_plan_id":"cebpf4jnsgd1na2vs0mg"},{"bike_id":"90fab6ec-a0cb-4a99-bd2d-a3048ee56e03","system_id":"levelo_inurba_marseille","lat":43.268,"lon":5.38942,"is_reserved":false,"is_disabled":false,"rental_uris":{"android":"levelo://app?vid=90fab6ec-a0cb-4a99-bd2d-a3048ee56e03","ios":"levelo://app?vid=90fab6ec-a0cb-4a99-bd2d-a3048ee56e03"},"vehicle_type_id":"4","last_reported":1778701124,"current_range_meters":4000,"station_id":"","pricing_plan_id":"cebpf4jnsgd1na2vs0mg"},{"bike_id":"5dd78fb5-ad09-4012-9148-1ce388ebf8ce","system_id":"levelo_inurba_marseille","lat":43.25871,"lon":5.39913,"is_reserved":false,"is_disabled":false,"rental_uris":{"android":"levelo://app?vid=5dd78fb5-ad09-4012-9148-1ce388ebf8ce","ios":"levelo://app?vid=5dd78fb5-ad09-4012-9148-1ce388ebf8ce"},"vehicle_type_id":"4","last_reported":1778701124,"current_range_meters":4000,"station_id":"ce4bhl92rcd13ifvqghg","pricing_plan_id":"cebpf4jnsgd1na2vs0mg"},{"bike_id":"1a57a5a1-0fde-42f7-aa96-b913f2a92a91","system_id":"levelo_inurba_marseille","lat":43.24551,"lon":5.39526,"is_reserved":false,"is_disabled":false,"rental_uris":{"android":"levelo://app?vid=1a57a5a1-0fde-42f7-aa96-b913f2a92a91","ios":"levelo://app?vid=1a57a5a1-0fde-42f7-aa96-b913f2a92a91"},"vehicle_type_id":"4","last_reported":1778701124,"current_range_meters":4000,"station_id":"ce4bhlp2rcd13ifvqgjg","pricing_plan_id":"cebpf4jnsgd1na2vs0mg"},{"bike_id":"a0203571-9868-484b-ac8b-eb7b89e3f1f0","system_id":"levelo_inurba_marseille","lat":43.28704,"lon":5.46695,"is_reserved":false,"is_disabled":false,"rental_uris":{"android":"levelo://app?vid=a0203571-9868-484b-ac8b-eb7b89e3f1f0","ios":"levelo://app?vid=a0203571-9868-484b-ac8b-eb7b89e3f1f0"},"vehicle_type_id":"4","last_reported":1778701124,"current_range_meters":4000,"station_id":"st_d6tc3vkotcvc738tfjhg","pricing_plan_id":"cebpf4jnsgd1na2vs0mg"},{"bike_id":"d0e102fb-ba05-46e6-99ff-ded824909976","system_id":"levelo_inurba_marseille","lat":43.29492,"lon":5.43305,"is_reserved":false,"is_disabled":false,"rental_uris":{"android":"levelo://app?vid=d0e102fb-ba05-46e6-99ff-ded824909976","ios":"levelo://app?vid=d0e102fb-ba05-46e6-99ff-ded824909976"},"vehicle_type_id":"4","last_reported":1778701124,"current_range_meters":4000,"station_id":"st_d3j5ugp08ojc73fj9d10","pricing_plan_id":"cebpf4jnsgd1na2vs0mg"},{"bike_id":"f8988a02-88de-46dc-91e9-c389bdda8c2f","system_id":"levelo_inurba_marseille","lat":43.30957,"lon":5.3904,"is_reserved":false,"is_disabled":false,"rental_uris":{"android":"levelo://app?vid=f8988a02-88de-46dc-91e9-c389bdda8c2f","ios":"levelo://app?vid=f8988a02-88de-46dc-91e9-c389bdda8c2f"},"vehicle_type_id":"4","last_reported":1778701124,"current_range_meters":4000,"station_id":"ce4bgup2rcd13ifvqco0","pricing_plan_id":"cebpf4jnsgd1na2vs0mg"},{"bike_id":"b3615044-4e50-4733-8c2f-ccdc63a20ba9","system_id":"levelo_inurba_marseille","lat":43.248073,"lon":5.418409,"is_reserved":false,"is_disabled":false,"rental_uris":{"android":"levelo://app?vid=b3615044-4e50-4733-8c2f-ccdc63a20ba9","ios":"levelo://app?vid=b3615044-4e50-4733-8c2f-ccdc63a20ba9"},"vehicle_type_id":"4","last_reported":1778701124,"current_range_meters":4000,"station_id":"","pricing_plan_id":"cebpf4jnsgd1na2vs0mg"},{"bike_id":"5dd68511-b4a3-4276-9fb9-d30a191306db","system_id":"levelo_inurba_marseille","lat":43.33761,"lon":5.37453,"is_reserved":false,"is_disabled":false,"rental_uris":{"android":"levelo://app?vid=5dd68511-b4a3-4276-9fb9-d30a191306db","ios":"levelo://app?vid=5dd68511-b4a3-4276-9fb9-d30a191306db"},"vehicle_type_id":"4","last_reported":1778701124,"current_range_meters":4400,"station_id":"","pricing_plan_id":"cebpf4jnsgd1na2vs0mg"},{"bike_id":"002dd5c2-43d5-4b4b-b355-153088b22174","system_id":"levelo_inurba_marseille","lat":43.2979,"lon":5.39744,"is_reserved":false,"is_disabled":false,"rental_uris":{"android":"levelo://app?vid=002dd5c2-43d5-4b4b-b355-153088b22174","ios":"levelo://app?vid=002dd5c2-43d5-4b4b-b355-153088b22174"},"vehicle_type_id":"4","last_reported":1778701124,"current_range_meters":4400,"station_id":"","pricing_plan_id":"cebpf4jnsgd1na2vs0mg"},{"bike_id":"3549c190-ba25-4a06-b751-5b52c4ff2b2c","system_id":"levelo_inurba_marseille","lat":43.225323,"lon":5.348352,"is_reserved":false,"is_disabled":false,"rental_uris":{"android":"levelo://app?vid=3549c190-ba25-4a06-b751-5b52c4ff2b2c","ios":"levelo://app?vid=3549c190-ba25-4a06-b751-5b52c4ff2b2c"},"vehicle_type_id":"4","last_reported":1778701124,"current_range_meters":4400,"station_id":"st_cvj5dfep6f1abm77gieg","pricing_plan_id":"cebpf4jnsgd1na2vs0mg"},{"bike_id":"2e758067-7398-464d-8c8c-898dc52377f8","system_id":"levelo_inurba_marseille","lat":43.2951,"lon":5.39044,"is_reserved":false,"is_disabled":false,"rental_uris":{"android":"levelo://app?vid=2e758067-7398-464d-8c8c-898dc52377f8","ios":"levelo://app?vid=2e758067-7398-464d-8c8c-898dc52377f8"},"vehicle_type_id":"4","last_reported":1778701124,"current_range_meters":4400,"station_id":"ce4bh3p2rcd13ifvqdp0","pricing_plan_id":"cebpf4jnsgd1na2vs0mg"},{"bike_id":"43a06db5-04b5-4a22-9e6f-f46b3fa2bbc7","system_id":"levelo_inurba_marseille","lat":43.32114,"lon":5.36757,"is_reserved":false,"is_disabled":false,"rental_uris":{"android":"levelo://app?vid=43a06db5-04b5-4a22-9e6f-f46b3fa2bbc7","ios":"levelo://app?vid=43a06db5-04b5-4a22-9e6f-f46b3fa2bbc7"},"vehicle_type_id":"4","last_reported":1778701124,"current_range_meters":4400,"station_id":"ce4bhrh2rcd13ifvqhug","pricing_plan_id":"cebpf4jnsgd1na2vs0mg"},{"bike_id":"1f5556bc-4bf7-481f-9874-e3e1df7edc42","system_id":"levelo_inurba_marseille","lat":43.28526,"lon":5.44094,"is_reserved":false,"is_disabled":true,"rental_uris":{"android":"levelo://app?vid=1f5556bc-4bf7-481f-9874-e3e1df7edc42","ios":"levelo://app?vid=1f5556bc-4bf7-481f-9874-e3e1df7edc42"},"vehicle_type_id":"4","last_reported":1778701124,"current_range_meters":4400,"station_id":"st_d3j3df2ikq2c7380ej80","pricing_plan_id":"cebpf4jnsgd1na2vs0mg"},{"bike_id":"f7cc1ca1-f0c8-4a07-8780-3e6c276f07f4","system_id":"levelo_inurba_marseille","lat":43.26206,"lon":5.37922,"is_reserved":false,"is_disabled":false,"rental_uris":{"android":"levelo://app?vid=f7cc1ca1-f0c8-4a07-8780-3e6c276f07f4","ios":"levelo://app?vid=f7cc1ca1-f0c8-4a07-8780-3e6c276f07f4"},"vehicle_type_id":"4","last_reported":1778701124,"current_range_meters":4400,"station_id":"ce4bhjp2rcd13ifvqg90","pricing_plan_id":"cebpf4jnsgd1na2vs0mg"},{"bike_id":"b8c52f40-c88b-41d6-98f6-76196ddf5d74","system_id":"levelo_inurba_marseille","lat":43.29133,"lon":5.38058,"is_reserved":false,"is_disabled":false,"rental_uris":{"android":"levelo://app?vid=b8c52f40-c88b-41d6-98f6-76196ddf5d74","ios":"levelo://app?vid=b8c52f40-c88b-41d6-98f6-76196ddf5d74"},"vehicle_type_id":"4","last_reported":1778701124,"current_range_meters":4400,"station_id":"","pricing_plan_id":"cebpf4jnsgd1na2vs0mg"},{"bike_id":"df013e05-d102-47a8-9ff5-a6f94dbc496c","system_id":"levelo_inurba_marseille","lat":43.31993,"lon":5.38141,"is_reserved":false,"is_disabled":false,"rental_uris":{"android":"levelo://app?vid=df013e05-d102-47a8-9ff5-a6f94dbc496c","ios":"levelo://app?vid=df013e05-d102-47a8-9ff5-a6f94dbc496c"},"vehicle_type_id":"4","last_reported":1778701124,"current_range_meters":4400,"station_id":"ce4bhr12rcd13ifvqhpg","pricing_plan_id":"cebpf4jnsgd1na2vs0mg"},{"bike_id":"2f536e43-e383-4086-99e4-1f0b245777ad","system_id":"levelo_inurba_marseille","lat":43.28467,"lon":5.35883,"is_reserved":false,"is_disabled":false,"rental_uris":{"android":"levelo://app?vid=2f536e43-e383-4086-99e4-1f0b245777ad","ios":"levelo://app?vid=2f536e43-e383-4086-99e4-1f0b245777ad"},"vehicle_type_id":"4","last_reported":1778701124,"current_range_meters":4400,"station_id":"ce4bhah2rcd13ifvqei0","pricing_plan_id":"cebpf4jnsgd1na2vs0mg"},{"bike_id":"ac671817-1ab9-451e-afc5-46012ed0190e","system_id":"levelo_inurba_marseille","lat":43.283469,"lon":5.381086,"is_reserved":false,"is_disabled":false,"rental_uris":{"android":"levelo://app?vid=ac671817-1ab9-451e-afc5-46012ed0190e","ios":"levelo://app?vid=ac671817-1ab9-451e-afc5-46012ed0190e"},"vehicle_type_id":"4","last_reported":1778701124,"current_range_meters":4400,"station_id":"ce4bh412rcd13ifvqdr0","pricing_plan_id":"cebpf4jnsgd1na2vs0mg"},{"bike_id":"a691a0cd-6865-4993-89a1-86be8efd277b","system_id":"levelo_inurba_marseille","lat":43.29848,"lon":5.36288,"is_reserved":false,"is_disabled":false,"rental_uris":{"android":"levelo://app?vid=a691a0cd-6865-4993-89a1-86be8efd277b","ios":"levelo://app?vid=a691a0cd-6865-4993-89a1-86be8efd277b"},"vehicle_type_id":"4","last_reported":1778701124,"current_range_meters":4400,"station_id":"ce4bgpp2rcd13ifvqc3g","pricing_plan_id":"cebpf4jnsgd1na2vs0mg"},{"bike_id":"5f63ec14-1859-44a1-884c-e1ad2ebc7c95","system_id":"levelo_inurba_marseille","lat":43.293681,"lon":5.378462,"is_reserved":false,"is_disabled":false,"rental_uris":{"android":"levelo://app?vid=5f63ec14-1859-44a1-884c-e1ad2ebc7c95","ios":"levelo://app?vid=5f63ec14-1859-44a1-884c-e1ad2ebc7c95"},"vehicle_type_id":"4","last_reported":1778701124,"current_range_meters":4800,"station_id":"ce4bgjh2rcd13ifvqbf0","pricing_plan_id":"cebpf4jnsgd1na2vs0mg"},{"bike_id":"8e012732-d687-40e6-979a-b5776aae3c15","system_id":"levelo_inurba_marseille","lat":43.32106,"lon":5.36756,"is_reserved":false,"is_disabled":false,"rental_uris":{"android":"levelo://app?vid=8e012732-d687-40e6-979a-b5776aae3c15","ios":"levelo://app?vid=8e012732-d687-40e6-979a-b5776aae3c15"},"vehicle_type_id":"4","last_reported":1778701124,"current_range_meters":4800,"station_id":"ce4bhrh2rcd13ifvqhug","pricing_plan_id":"cebpf4jnsgd1na2vs0mg"},{"bike_id":"ab5a67cc-2b0d-4199-b45d-a9d7d6047cab","system_id":"levelo_inurba_marseille","lat":43.30191,"lon":5.36837,"is_reserved":false,"is_disabled":false,"rental_uris":{"android":"levelo://app?vid=ab5a67cc-2b0d-4199-b45d-a9d7d6047cab","ios":"levelo://app?vid=ab5a67cc-2b0d-4199-b45d-a9d7d6047cab"},"vehicle_type_id":"4","last_reported":1778701124,"current_range_meters":4800,"station_id":"","pricing_plan_id":"cebpf4jnsgd1na2vs0mg"},{"bike_id":"64a46267-6b52-4a02-b6f6-f5c2f77a133d","system_id":"levelo_inurba_marseille","lat":43.28804,"lon":5.4005,"is_reserved":false,"is_disabled":true,"rental_uris":{"android":"levelo://app?vid=64a46267-6b52-4a02-b6f6-f5c2f77a133d","ios":"levelo://app?vid=64a46267-6b52-4a02-b6f6-f5c2f77a133d"},"vehicle_type_id":"4","last_reported":1778701124,"current_range_meters":4800,"station_id":"","pricing_plan_id":"cebpf4jnsgd1na2vs0mg"},{"bike_id":"adbf1305-be55-4856-954b-682d9b181800","system_id":"levelo_inurba_marseille","lat":43.2893,"lon":5.396344,"is_reserved":false,"is_disabled":false,"rental_uris":{"android":"levelo://app?vid=adbf1305-be55-4856-954b-682d9b181800","ios":"levelo://app?vid=adbf1305-be55-4856-954b-682d9b181800"},"vehicle_type_id":"4","last_reported":1778701124,"current_range_meters":4800,"station_id":"ce4bh392rcd13ifvqdm0","pricing_plan_id":"cebpf4jnsgd1na2vs0mg"},{"bike_id":"f3acf221-ac54-4ed5-b1ec-a3daba4e5770","system_id":"levelo_inurba_marseille","lat":43.288594,"lon":5.425146,"is_reserved":false,"is_disabled":true,"rental_uris":{"android":"levelo://app?vid=f3acf221-ac54-4ed5-b1ec-a3daba4e5770","ios":"levelo://app?vid=f3acf221-ac54-4ed5-b1ec-a3daba4e5770"},"vehicle_type_id":"4","last_reported":1778701124,"current_range_meters":4800,"station_id":"","pricing_plan_id":"cebpf4jnsgd1na2vs0mg"},{"bike_id":"1e3e5b1d-3c66-44cb-b6b6-9cb6b6fb1e43","system_id":"levelo_inurba_marseille","lat":43.28667,"lon":5.38673,"is_reserved":false,"is_disabled":false,"rental_uris":{"android":"levelo://app?vid=1e3e5b1d-3c66-44cb-b6b6-9cb6b6fb1e43","ios":"levelo://app?vid=1e3e5b1d-3c66-44cb-b6b6-9cb6b6fb1e43"},"vehicle_type_id":"4","last_reported":1778701124,"current_range_meters":4800,"station_id":"ce4bh492rcd13ifvqdug","pricing_plan_id":"cebpf4jnsgd1na2vs0mg"},{"bike_id":"72c9506b-84af-47ac-8148-a1c78fedff3a","system_id":"levelo_inurba_marseille","lat":43.30801,"lon":5.38154,"is_reserved":false,"is_disabled":false,"rental_uris":{"android":"levelo://app?vid=72c9506b-84af-47ac-8148-a1c78fedff3a","ios":"levelo://app?vid=72c9506b-84af-47ac-8148-a1c78fedff3a"},"vehicle_type_id":"4","last_reported":1778701124,"current_range_meters":4800,"station_id":"ce4bgt12rcd13ifvqce0","pricing_plan_id":"cebpf4jnsgd1na2vs0mg"},{"bike_id":"531abc4a-a2b0-4070-8f3e-1f8dee8334dd","system_id":"levelo_inurba_marseille","lat":43.25493,"lon":5.37645,"is_reserved":false,"is_disabled":false,"rental_uris":{"android":"levelo://app?vid=531abc4a-a2b0-4070-8f3e-1f8dee8334dd","ios":"levelo://app?vid=531abc4a-a2b0-4070-8f3e-1f8dee8334dd"},"vehicle_type_id":"4","last_reported":1778701124,"current_range_meters":4800,"station_id":"ce4bhh12rcd13ifvqff0","pricing_plan_id":"cebpf4jnsgd1na2vs0mg"},{"bike_id":"98aeb44e-8278-4312-aac2-2f16e0920667","system_id":"levelo_inurba_marseille","lat":43.30893,"lon":5.39656,"is_reserved":false,"is_disabled":false,"rental_uris":{"android":"levelo://app?vid=98aeb44e-8278-4312-aac2-2f16e0920667","ios":"levelo://app?vid=98aeb44e-8278-4312-aac2-2f16e0920667"},"vehicle_type_id":"4","last_reported":1778701124,"current_range_meters":4800,"station_id":"ce4bh012rcd13ifvqcv0","pricing_plan_id":"cebpf4jnsgd1na2vs0mg"},{"bike_id":"da4a429d-bfc6-48ce-9c3d-5d8ca4b6484f","system_id":"levelo_inurba_marseille","lat":43.2953,"lon":5.38542,"is_reserved":false,"is_disabled":false,"rental_uris":{"android":"levelo://app?vid=da4a429d-bfc6-48ce-9c3d-5d8ca4b6484f","ios":"levelo://app?vid=da4a429d-bfc6-48ce-9c3d-5d8ca4b6484f"},"vehicle_type_id":"4","last_reported":1778701124,"current_range_meters":4800,"station_id":"ce4bgih2rcd13ifvqba0","pricing_plan_id":"cebpf4jnsgd1na2vs0mg"},{"bike_id":"0d7b76bf-bd29-4fd1-a824-bb64da67fbfc","system_id":"levelo_inurba_marseille","lat":43.29533,"lon":5.38551,"is_reserved":false,"is_disabled":false,"rental_uris":{"android":"levelo://app?vid=0d7b76bf-bd29-4fd1-a824-bb64da67fbfc","ios":"levelo://app?vid=0d7b76bf-bd29-4fd1-a824-bb64da67fbfc"},"vehicle_type_id":"4","last_reported":1778701124,"current_range_meters":4800,"station_id":"ce4bgih2rcd13ifvqba0","pricing_plan_id":"cebpf4jnsgd1na2vs0mg"},{"bike_id":"af2fe825-5a3c-4a3c-b6a5-74aa3ecaecd0","system_id":"levelo_inurba_marseille","lat":43.29004,"lon":5.35618,"is_reserved":false,"is_disabled":false,"rental_uris":{"android":"levelo://app?vid=af2fe825-5a3c-4a3c-b6a5-74aa3ecaecd0","ios":"levelo://app?vid=af2fe825-5a3c-4a3c-b6a5-74aa3ecaecd0"},"vehicle_type_id":"4","last_reported":1778701124,"current_range_meters":4800,"station_id":"ce4bhb92rcd13ifvqen0","pricing_plan_id":"cebpf4jnsgd1na2vs0mg"},{"bike_id":"72d9b333-6340-445d-b4a3-2541590e555d","system_id":"levelo_inurba_marseille","lat":43.24659,"lon":5.38167,"is_reserved":false,"is_disabled":false,"rental_uris":{"android":"levelo://app?vid=72d9b333-6340-445d-b4a3-2541590e555d","ios":"levelo://app?vid=72d9b333-6340-445d-b4a3-2541590e555d"},"vehicle_type_id":"4","last_reported":1778701124,"current_range_meters":4800,"station_id":"ce4bhih2rcd13ifvqfr0","pricing_plan_id":"cebpf4jnsgd1na2vs0mg"},{"bike_id":"0f37d688-46c0-4558-9b09-89bb1915d2b6","system_id":"levelo_inurba_marseille","lat":43.33551,"lon":5.3747,"is_reserved":false,"is_disabled":false,"rental_uris":{"android":"levelo://app?vid=0f37d688-46c0-4558-9b09-89bb1915d2b6","ios":"levelo://app?vid=0f37d688-46c0-4558-9b09-89bb1915d2b6"},"vehicle_type_id":"4","last_reported":1778701124,"current_range_meters":4800,"station_id":"st_d46tts09ee8s73dlu43g","pricing_plan_id":"cebpf4jnsgd1na2vs0mg"},{"bike_id":"f73297ab-6f52-4418-817b-03f078835bf9","system_id":"levelo_inurba_marseille","lat":43.29543,"lon":5.38547,"is_reserved":false,"is_disabled":false,"rental_uris":{"android":"levelo://app?vid=f73297ab-6f52-4418-817b-03f078835bf9","ios":"levelo://app?vid=f73297ab-6f52-4418-817b-03f078835bf9"},"vehicle_type_id":"4","last_reported":1778701124,"current_range_meters":4800,"station_id":"ce4bgih2rcd13ifvqba0","pricing_plan_id":"cebpf4jnsgd1na2vs0mg"},{"bike_id":"1f30259c-4299-4c81-a9a6-517babd2fc9a","system_id":"levelo_inurba_marseille","lat":43.28406,"lon":5.37508,"is_reserved":false,"is_disabled":false,"rental_uris":{"android":"levelo://app?vid=1f30259c-4299-4c81-a9a6-517babd2fc9a","ios":"levelo://app?vid=1f30259c-4299-4c81-a9a6-517babd2fc9a"},"vehicle_type_id":"4","last_reported":1778701124,"current_range_meters":4800,"station_id":"ce4bh412rcd13ifvqds0","pricing_plan_id":"cebpf4jnsgd1na2vs0mg"},{"bike_id":"66bb1d1a-0a66-445e-b553-a38109b764e6","system_id":"levelo_inurba_marseille","lat":43.30639,"lon":5.40077,"is_reserved":false,"is_disabled":false,"rental_uris":{"android":"levelo://app?vid=66bb1d1a-0a66-445e-b553-a38109b764e6","ios":"levelo://app?vid=66bb1d1a-0a66-445e-b553-a38109b764e6"},"vehicle_type_id":"4","last_reported":1778701124,"current_range_meters":5600,"station_id":"ce4bh112rcd13ifvqda0","pricing_plan_id":"cebpf4jnsgd1na2vs0mg"},{"bike_id":"aff5cc42-3685-48ce-8c14-8495b1a9b20f","system_id":"levelo_inurba_marseille","lat":43.29169,"lon":5.37162,"is_reserved":false,"is_disabled":false,"rental_uris":{"android":"levelo://app?vid=aff5cc42-3685-48ce-8c14-8495b1a9b20f","ios":"levelo://app?vid=aff5cc42-3685-48ce-8c14-8495b1a9b20f"},"vehicle_type_id":"4","last_reported":1778701124,"current_range_meters":5600,"station_id":"ce4bha92rcd13ifvqeh0","pricing_plan_id":"cebpf4jnsgd1na2vs0mg"},{"bike_id":"e1b77a67-2e7a-462a-816e-d742d96fe03c","system_id":"levelo_inurba_marseille","lat":43.33556,"lon":5.37459,"is_reserved":false,"is_disabled":false,"rental_uris":{"android":"levelo://app?vid=e1b77a67-2e7a-462a-816e-d742d96fe03c","ios":"levelo://app?vid=e1b77a67-2e7a-462a-816e-d742d96fe03c"},"vehicle_type_id":"4","last_reported":1778701124,"current_range_meters":5600,"station_id":"st_d46tts09ee8s73dlu43g","pricing_plan_id":"cebpf4jnsgd1na2vs0mg"},{"bike_id":"21f7ec37-6c35-4e56-85bf-5f2d1ec9f36a","system_id":"levelo_inurba_marseille","lat":43.26231,"lon":5.38774,"is_reserved":false,"is_disabled":false,"rental_uris":{"android":"levelo://app?vid=21f7ec37-6c35-4e56-85bf-5f2d1ec9f36a","ios":"levelo://app?vid=21f7ec37-6c35-4e56-85bf-5f2d1ec9f36a"},"vehicle_type_id":"4","last_reported":1778701124,"current_range_meters":5600,"station_id":"","pricing_plan_id":"cebpf4jnsgd1na2vs0mg"},{"bike_id":"369cab5b-99ea-47a7-adfa-0a875db7d03f","system_id":"levelo_inurba_marseille","lat":43.29633,"lon":5.37815,"is_reserved":false,"is_disabled":false,"rental_uris":{"android":"levelo://app?vid=369cab5b-99ea-47a7-adfa-0a875db7d03f","ios":"levelo://app?vid=369cab5b-99ea-47a7-adfa-0a875db7d03f"},"vehicle_type_id":"4","last_reported":1778701124,"current_range_meters":5600,"station_id":"","pricing_plan_id":"cebpf4jnsgd1na2vs0mg"},{"bike_id":"04457e6f-0405-4b98-9944-c702e39a01bd","system_id":"levelo_inurba_marseille","lat":43.3144,"lon":5.37392,"is_reserved":false,"is_disabled":false,"rental_uris":{"android":"levelo://app?vid=04457e6f-0405-4b98-9944-c702e39a01bd","ios":"levelo://app?vid=04457e6f-0405-4b98-9944-c702e39a01bd"},"vehicle_type_id":"4","last_reported":1778701124,"current_range_meters":5600,"station_id":"","pricing_plan_id":"cebpf4jnsgd1na2vs0mg"},{"bike_id":"ec09b295-1cb9-4669-abee-66d7b8d8eb2c","system_id":"levelo_inurba_marseille","lat":43.24822,"lon":5.37459,"is_reserved":false,"is_disabled":false,"rental_uris":{"android":"levelo://app?vid=ec09b295-1cb9-4669-abee-66d7b8d8eb2c","ios":"levelo://app?vid=ec09b295-1cb9-4669-abee-66d7b8d8eb2c"},"vehicle_type_id":"4","last_reported":1778701124,"current_range_meters":5600,"station_id":"ce4bhgh2rcd13ifvqfb0","pricing_plan_id":"cebpf4jnsgd1na2vs0mg"},{"bike_id":"9620d844-2337-435b-90b1-5e38867ab699","system_id":"levelo_inurba_marseille","lat":43.29573,"lon":5.3998,"is_reserved":false,"is_disabled":false,"rental_uris":{"android":"levelo://app?vid=9620d844-2337-435b-90b1-5e38867ab699","ios":"levelo://app?vid=9620d844-2337-435b-90b1-5e38867ab699"},"vehicle_type_id":"4","last_reported":1778701124,"current_range_meters":5600,"station_id":"ce4bh312rcd13ifvqdj0","pricing_plan_id":"cebpf4jnsgd1na2vs0mg"},{"bike_id":"b21abf59-b8ad-40eb-986a-6c091e984c08","system_id":"levelo_inurba_marseille","lat":43.24811,"lon":5.37449,"is_reserved":false,"is_disabled":false,"rental_uris":{"android":"levelo://app?vid=b21abf59-b8ad-40eb-986a-6c091e984c08","ios":"levelo://app?vid=b21abf59-b8ad-40eb-986a-6c091e984c08"},"vehicle_type_id":"4","last_reported":1778701124,"current_range_meters":5600,"station_id":"ce4bhgh2rcd13ifvqfb0","pricing_plan_id":"cebpf4jnsgd1na2vs0mg"},{"bike_id":"23caf17b-1e52-442c-aa4d-98646caf2cbc","system_id":"levelo_inurba_marseille","lat":43.290302,"lon":5.386558,"is_reserved":false,"is_disabled":false,"rental_uris":{"android":"levelo://app?vid=23caf17b-1e52-442c-aa4d-98646caf2cbc","ios":"levelo://app?vid=23caf17b-1e52-442c-aa4d-98646caf2cbc"},"vehicle_type_id":"4","last_reported":1778701124,"current_range_meters":5600,"station_id":"ce4bh4p2rcd13ifvqe0g","pricing_plan_id":"cebpf4jnsgd1na2vs0mg"},{"bike_id":"35b6ecdf-03fe-450e-88d8-82bb00199c3c","system_id":"levelo_inurba_marseille","lat":43.29782,"lon":5.38154,"is_reserved":false,"is_disabled":true,"rental_uris":{"android":"levelo://app?vid=35b6ecdf-03fe-450e-88d8-82bb00199c3c","ios":"levelo://app?vid=35b6ecdf-03fe-450e-88d8-82bb00199c3c"},"vehicle_type_id":"4","last_reported":1778701124,"current_range_meters":5600,"station_id":"ce4bgip2rcd13ifvqbb0","pricing_plan_id":"cebpf4jnsgd1na2vs0mg"},{"bike_id":"87c81631-4451-4236-92c6-4b297de3f797","system_id":"levelo_inurba_marseille","lat":43.31373,"lon":5.38494,"is_reserved":false,"is_disabled":false,"rental_uris":{"android":"levelo://app?vid=87c81631-4451-4236-92c6-4b297de3f797","ios":"levelo://app?vid=87c81631-4451-4236-92c6-4b297de3f797"},"vehicle_type_id":"4","last_reported":1778701124,"current_range_meters":5600,"station_id":"ce4bgt92rcd13ifvqcf0","pricing_plan_id":"cebpf4jnsgd1na2vs0mg"},{"bike_id":"b9c7cd32-9284-4f54-9cbe-6b2a766e20fb","system_id":"levelo_inurba_marseille","lat":43.25098,"lon":5.3951,"is_reserved":false,"is_disabled":false,"rental_uris":{"android":"levelo://app?vid=b9c7cd32-9284-4f54-9cbe-6b2a766e20fb","ios":"levelo://app?vid=b9c7cd32-9284-4f54-9cbe-6b2a766e20fb"},"vehicle_type_id":"4","last_reported":1778701124,"current_range_meters":5600,"station_id":"ce4bhm12rcd13ifvqgkg","pricing_plan_id":"cebpf4jnsgd1na2vs0mg"},{"bike_id":"8b2482db-e468-44a2-9f5e-15c9614724f2","system_id":"levelo_inurba_marseille","lat":43.29561,"lon":5.3854,"is_reserved":false,"is_disabled":false,"rental_uris":{"android":"levelo://app?vid=8b2482db-e468-44a2-9f5e-15c9614724f2","ios":"levelo://app?vid=8b2482db-e468-44a2-9f5e-15c9614724f2"},"vehicle_type_id":"4","last_reported":1778701124,"current_range_meters":5600,"station_id":"ce4bgih2rcd13ifvqba0","pricing_plan_id":"cebpf4jnsgd1na2vs0mg"},{"bike_id":"4216da6f-21e0-41a1-b7e4-6feada8239bc","system_id":"levelo_inurba_marseille","lat":43.26957,"lon":5.38633,"is_reserved":false,"is_disabled":false,"rental_uris":{"android":"levelo://app?vid=4216da6f-21e0-41a1-b7e4-6feada8239bc","ios":"levelo://app?vid=4216da6f-21e0-41a1-b7e4-6feada8239bc"},"vehicle_type_id":"4","last_reported":1778701124,"current_range_meters":5600,"station_id":"ce4bhh92rcd13ifvqfh0","pricing_plan_id":"cebpf4jnsgd1na2vs0mg"},{"bike_id":"b2624d21-8d60-49d1-abad-bef1f0574231","system_id":"levelo_inurba_marseille","lat":43.25473,"lon":5.37653,"is_reserved":false,"is_disabled":false,"rental_uris":{"android":"levelo://app?vid=b2624d21-8d60-49d1-abad-bef1f0574231","ios":"levelo://app?vid=b2624d21-8d60-49d1-abad-bef1f0574231"},"vehicle_type_id":"4","last_reported":1778701124,"current_range_meters":5600,"station_id":"ce4bhh12rcd13ifvqff0","pricing_plan_id":"cebpf4jnsgd1na2vs0mg"},{"bike_id":"630f590b-0a9f-466b-9ca4-6c71573fb46f","system_id":"levelo_inurba_marseille","lat":43.29219,"lon":5.3609,"is_reserved":false,"is_disabled":false,"rental_uris":{"android":"levelo://app?vid=630f590b-0a9f-466b-9ca4-6c71573fb46f","ios":"levelo://app?vid=630f590b-0a9f-466b-9ca4-6c71573fb46f"},"vehicle_type_id":"4","last_reported":1778701124,"current_range_meters":5600,"station_id":"ce4bhbh2rcd13ifvqeqg","pricing_plan_id":"cebpf4jnsgd1na2vs0mg"},{"bike_id":"cd774ff9-8359-41d2-a32a-ba672b8630c3","system_id":"levelo_inurba_marseille","lat":43.29271,"lon":5.37599,"is_reserved":false,"is_disabled":false,"rental_uris":{"android":"levelo://app?vid=cd774ff9-8359-41d2-a32a-ba672b8630c3","ios":"levelo://app?vid=cd774ff9-8359-41d2-a32a-ba672b8630c3"},"vehicle_type_id":"4","last_reported":1778701124,"current_range_meters":5600,"station_id":"ce4bgi12rcd13ifvqb80","pricing_plan_id":"cebpf4jnsgd1na2vs0mg"},{"bike_id":"fc7a5463-6558-432c-b127-9646c6c5fd6b","system_id":"levelo_inurba_marseille","lat":43.29911,"lon":5.38146,"is_reserved":false,"is_disabled":false,"rental_uris":{"android":"levelo://app?vid=fc7a5463-6558-432c-b127-9646c6c5fd6b","ios":"levelo://app?vid=fc7a5463-6558-432c-b127-9646c6c5fd6b"},"vehicle_type_id":"4","last_reported":1778701124,"current_range_meters":6000,"station_id":"ce4bgj12rcd13ifvqbc0","pricing_plan_id":"cebpf4jnsgd1na2vs0mg"},{"bike_id":"492bc1b5-62c1-45cd-be18-d591945c5eae","system_id":"levelo_inurba_marseille","lat":43.25861,"lon":5.3991,"is_reserved":false,"is_disabled":true,"rental_uris":{"android":"levelo://app?vid=492bc1b5-62c1-45cd-be18-d591945c5eae","ios":"levelo://app?vid=492bc1b5-62c1-45cd-be18-d591945c5eae"},"vehicle_type_id":"4","last_reported":1778701124,"current_range_meters":6000,"station_id":"ce4bhl92rcd13ifvqghg","pricing_plan_id":"cebpf4jnsgd1na2vs0mg"},{"bike_id":"5500c1b0-ea99-47fc-8107-90f5b5a191cc","system_id":"levelo_inurba_marseille","lat":43.29538,"lon":5.39024,"is_reserved":false,"is_disabled":false,"rental_uris":{"android":"levelo://app?vid=5500c1b0-ea99-47fc-8107-90f5b5a191cc","ios":"levelo://app?vid=5500c1b0-ea99-47fc-8107-90f5b5a191cc"},"vehicle_type_id":"4","last_reported":1778701124,"current_range_meters":6000,"station_id":"ce4bh3p2rcd13ifvqdp0","pricing_plan_id":"cebpf4jnsgd1na2vs0mg"},{"bike_id":"de5b6ea9-09fa-482a-bcb1-75522b57abbd","system_id":"levelo_inurba_marseille","lat":43.29586,"lon":5.38122,"is_reserved":false,"is_disabled":false,"rental_uris":{"android":"levelo://app?vid=de5b6ea9-09fa-482a-bcb1-75522b57abbd","ios":"levelo://app?vid=de5b6ea9-09fa-482a-bcb1-75522b57abbd"},"vehicle_type_id":"4","last_reported":1778701124,"current_range_meters":6000,"station_id":"ce4bgl12rcd13ifvqbo0","pricing_plan_id":"cebpf4jnsgd1na2vs0mg"},{"bike_id":"04fab4f5-3865-44d6-9da6-cd03201dc7b5","system_id":"levelo_inurba_marseille","lat":43.29501,"lon":5.42288,"is_reserved":false,"is_disabled":false,"rental_uris":{"android":"levelo://app?vid=04fab4f5-3865-44d6-9da6-cd03201dc7b5","ios":"levelo://app?vid=04fab4f5-3865-44d6-9da6-cd03201dc7b5"},"vehicle_type_id":"4","last_reported":1778701124,"current_range_meters":6000,"station_id":"","pricing_plan_id":"cebpf4jnsgd1na2vs0mg"},{"bike_id":"6d5846d2-0874-495b-b7bc-c517b4a30462","system_id":"levelo_inurba_marseille","lat":43.30202,"lon":5.38062,"is_reserved":false,"is_disabled":false,"rental_uris":{"android":"levelo://app?vid=6d5846d2-0874-495b-b7bc-c517b4a30462","ios":"levelo://app?vid=6d5846d2-0874-495b-b7bc-c517b4a30462"},"vehicle_type_id":"4","last_reported":1778701124,"current_range_meters":6000,"station_id":"","pricing_plan_id":"cebpf4jnsgd1na2vs0mg"},{"bike_id":"97363090-ecb5-48a7-af4e-96c47dbd9234","system_id":"levelo_inurba_marseille","lat":43.29976,"lon":5.38485,"is_reserved":false,"is_disabled":false,"rental_uris":{"android":"levelo://app?vid=97363090-ecb5-48a7-af4e-96c47dbd9234","ios":"levelo://app?vid=97363090-ecb5-48a7-af4e-96c47dbd9234"},"vehicle_type_id":"4","last_reported":1778701124,"current_range_meters":6000,"station_id":"ce4bgj92rcd13ifvqbd0","pricing_plan_id":"cebpf4jnsgd1na2vs0mg"},{"bike_id":"48066121-841a-4b69-bb96-5a67813041e0","system_id":"levelo_inurba_marseille","lat":43.28717,"lon":5.46686,"is_reserved":false,"is_disabled":false,"rental_uris":{"android":"levelo://app?vid=48066121-841a-4b69-bb96-5a67813041e0","ios":"levelo://app?vid=48066121-841a-4b69-bb96-5a67813041e0"},"vehicle_type_id":"4","last_reported":1778701124,"current_range_meters":6000,"station_id":"st_d6tc3vkotcvc738tfjhg","pricing_plan_id":"cebpf4jnsgd1na2vs0mg"},{"bike_id":"b93f308d-6e17-4743-88cf-22d1124332e6","system_id":"levelo_inurba_marseille","lat":43.25336,"lon":5.42159,"is_reserved":false,"is_disabled":false,"rental_uris":{"android":"levelo://app?vid=b93f308d-6e17-4743-88cf-22d1124332e6","ios":"levelo://app?vid=b93f308d-6e17-4743-88cf-22d1124332e6"},"vehicle_type_id":"4","last_reported":1778701124,"current_range_meters":6000,"station_id":"st_d2m65c5bi1j21697t3ng","pricing_plan_id":"cebpf4jnsgd1na2vs0mg"},{"bike_id":"22418c41-98c8-454e-b794-2a1abe0ca90b","system_id":"levelo_inurba_marseille","lat":43.28937,"lon":5.36615,"is_reserved":false,"is_disabled":false,"rental_uris":{"android":"levelo://app?vid=22418c41-98c8-454e-b794-2a1abe0ca90b","ios":"levelo://app?vid=22418c41-98c8-454e-b794-2a1abe0ca90b"},"vehicle_type_id":"4","last_reported":1778701124,"current_range_meters":6000,"station_id":"ce4bhap2rcd13ifvqek0","pricing_plan_id":"cebpf4jnsgd1na2vs0mg"},{"bike_id":"e04be0cd-1b2c-46b7-8cd9-a95a3760551c","system_id":"levelo_inurba_marseille","lat":43.309464,"lon":5.390238,"is_reserved":false,"is_disabled":false,"rental_uris":{"android":"levelo://app?vid=e04be0cd-1b2c-46b7-8cd9-a95a3760551c","ios":"levelo://app?vid=e04be0cd-1b2c-46b7-8cd9-a95a3760551c"},"vehicle_type_id":"4","last_reported":1778701124,"current_range_meters":6000,"station_id":"ce4bgup2rcd13ifvqco0","pricing_plan_id":"cebpf4jnsgd1na2vs0mg"},{"bike_id":"96915386-c2eb-4357-bc6e-b86f495e68ae","system_id":"levelo_inurba_marseille","lat":43.29849,"lon":5.36273,"is_reserved":false,"is_disabled":false,"rental_uris":{"android":"levelo://app?vid=96915386-c2eb-4357-bc6e-b86f495e68ae","ios":"levelo://app?vid=96915386-c2eb-4357-bc6e-b86f495e68ae"},"vehicle_type_id":"4","last_reported":1778701124,"current_range_meters":6000,"station_id":"ce4bgpp2rcd13ifvqc3g","pricing_plan_id":"cebpf4jnsgd1na2vs0mg"},{"bike_id":"57fa8647-1b98-48a4-b191-288b4d11f6e5","system_id":"levelo_inurba_marseille","lat":43.29262,"lon":5.36854,"is_reserved":false,"is_disabled":false,"rental_uris":{"android":"levelo://app?vid=57fa8647-1b98-48a4-b191-288b4d11f6e5","ios":"levelo://app?vid=57fa8647-1b98-48a4-b191-288b4d11f6e5"},"vehicle_type_id":"4","last_reported":1778701124,"current_range_meters":6000,"station_id":"ce4bhbp2rcd13ifvqesg","pricing_plan_id":"cebpf4jnsgd1na2vs0mg"},{"bike_id":"9a2f9f70-cf1c-40c8-9d4f-b4481a7125d6","system_id":"levelo_inurba_marseille","lat":43.29266,"lon":5.37635,"is_reserved":false,"is_disabled":false,"rental_uris":{"android":"levelo://app?vid=9a2f9f70-cf1c-40c8-9d4f-b4481a7125d6","ios":"levelo://app?vid=9a2f9f70-cf1c-40c8-9d4f-b4481a7125d6"},"vehicle_type_id":"4","last_reported":1778701124,"current_range_meters":6000,"station_id":"ce4bgi12rcd13ifvqb80","pricing_plan_id":"cebpf4jnsgd1na2vs0mg"},{"bike_id":"aa3f6d5a-caf7-4884-92ce-12eb0b9c9e82","system_id":"levelo_inurba_marseille","lat":43.2801,"lon":5.39315,"is_reserved":false,"is_disabled":false,"rental_uris":{"android":"levelo://app?vid=aa3f6d5a-caf7-4884-92ce-12eb0b9c9e82","ios":"levelo://app?vid=aa3f6d5a-caf7-4884-92ce-12eb0b9c9e82"},"vehicle_type_id":"4","last_reported":1778701124,"current_range_meters":6000,"station_id":"","pricing_plan_id":"cebpf4jnsgd1na2vs0mg"},{"bike_id":"e60a32a3-2c99-43f1-bf5d-5317ea6e5856","system_id":"levelo_inurba_marseille","lat":43.30613,"lon":5.40071,"is_reserved":false,"is_disabled":false,"rental_uris":{"android":"levelo://app?vid=e60a32a3-2c99-43f1-bf5d-5317ea6e5856","ios":"levelo://app?vid=e60a32a3-2c99-43f1-bf5d-5317ea6e5856"},"vehicle_type_id":"4","last_reported":1778701124,"current_range_meters":6000,"station_id":"ce4bh112rcd13ifvqda0","pricing_plan_id":"cebpf4jnsgd1na2vs0mg"},{"bike_id":"eb778b7f-d6bc-49a0-94fa-f96e2976ee7d","system_id":"levelo_inurba_marseille","lat":43.25623,"lon":5.41983,"is_reserved":false,"is_disabled":false,"rental_uris":{"android":"levelo://app?vid=eb778b7f-d6bc-49a0-94fa-f96e2976ee7d","ios":"levelo://app?vid=eb778b7f-d6bc-49a0-94fa-f96e2976ee7d"},"vehicle_type_id":"4","last_reported":1778701124,"current_range_meters":6000,"station_id":"","pricing_plan_id":"cebpf4jnsgd1na2vs0mg"},{"bike_id":"90696508-a5d0-432c-92b1-dc6f9bd70bd0","system_id":"levelo_inurba_marseille","lat":43.299713,"lon":5.37188,"is_reserved":false,"is_disabled":false,"rental_uris":{"android":"levelo://app?vid=90696508-a5d0-432c-92b1-dc6f9bd70bd0","ios":"levelo://app?vid=90696508-a5d0-432c-92b1-dc6f9bd70bd0"},"vehicle_type_id":"4","last_reported":1778701124,"current_range_meters":6400,"station_id":"ce4bgr92rcd13ifvqc7g","pricing_plan_id":"cebpf4jnsgd1na2vs0mg"},{"bike_id":"2ddc5aa7-3320-48d9-b373-74f3a0ed5c7b","system_id":"levelo_inurba_marseille","lat":43.30043,"lon":5.40323,"is_reserved":false,"is_disabled":false,"rental_uris":{"android":"levelo://app?vid=2ddc5aa7-3320-48d9-b373-74f3a0ed5c7b","ios":"levelo://app?vid=2ddc5aa7-3320-48d9-b373-74f3a0ed5c7b"},"vehicle_type_id":"4","last_reported":1778701124,"current_range_meters":6400,"station_id":"","pricing_plan_id":"cebpf4jnsgd1na2vs0mg"},{"bike_id":"9c7153ca-4d9e-4321-ac94-48b7873aac07","system_id":"levelo_inurba_marseille","lat":43.27609,"lon":5.36118,"is_reserved":false,"is_disabled":false,"rental_uris":{"android":"levelo://app?vid=9c7153ca-4d9e-4321-ac94-48b7873aac07","ios":"levelo://app?vid=9c7153ca-4d9e-4321-ac94-48b7873aac07"},"vehicle_type_id":"4","last_reported":1778701124,"current_range_meters":6400,"station_id":"ce4bgj92rcd13ifvqbe0","pricing_plan_id":"cebpf4jnsgd1na2vs0mg"},{"bike_id":"72179d6d-4306-495c-979e-7fc83e24d3fc","system_id":"levelo_inurba_marseille","lat":43.30204,"lon":5.36611,"is_reserved":false,"is_disabled":false,"rental_uris":{"android":"levelo://app?vid=72179d6d-4306-495c-979e-7fc83e24d3fc","ios":"levelo://app?vid=72179d6d-4306-495c-979e-7fc83e24d3fc"},"vehicle_type_id":"4","last_reported":1778701124,"current_range_meters":6400,"station_id":"ce4bgrh2rcd13ifvqc8g","pricing_plan_id":"cebpf4jnsgd1na2vs0mg"},{"bike_id":"10a3b9be-d5ba-4992-854a-2354c738daff","system_id":"levelo_inurba_marseille","lat":43.31267,"lon":5.37811,"is_reserved":false,"is_disabled":false,"rental_uris":{"android":"levelo://app?vid=10a3b9be-d5ba-4992-854a-2354c738daff","ios":"levelo://app?vid=10a3b9be-d5ba-4992-854a-2354c738daff"},"vehicle_type_id":"4","last_reported":1778701124,"current_range_meters":6400,"station_id":"","pricing_plan_id":"cebpf4jnsgd1na2vs0mg"},{"bike_id":"3dcc866a-ab0f-4972-a756-75996ce2ec64","system_id":"levelo_inurba_marseille","lat":43.30413,"lon":5.38886,"is_reserved":false,"is_disabled":false,"rental_uris":{"android":"levelo://app?vid=3dcc866a-ab0f-4972-a756-75996ce2ec64","ios":"levelo://app?vid=3dcc866a-ab0f-4972-a756-75996ce2ec64"},"vehicle_type_id":"4","last_reported":1778701124,"current_range_meters":6400,"station_id":"ce4bgk12rcd13ifvqbi0","pricing_plan_id":"cebpf4jnsgd1na2vs0mg"},{"bike_id":"771b1cfe-b223-47db-bb5c-3a2a5d0efb8f","system_id":"levelo_inurba_marseille","lat":43.26936,"lon":5.40273,"is_reserved":false,"is_disabled":false,"rental_uris":{"android":"levelo://app?vid=771b1cfe-b223-47db-bb5c-3a2a5d0efb8f","ios":"levelo://app?vid=771b1cfe-b223-47db-bb5c-3a2a5d0efb8f"},"vehicle_type_id":"4","last_reported":1778701124,"current_range_meters":6400,"station_id":"cjm6bp8fraef2m0cb0m0","pricing_plan_id":"cebpf4jnsgd1na2vs0mg"},{"bike_id":"268abac0-c83f-4e50-9c79-85306f60b946","system_id":"levelo_inurba_marseille","lat":43.248112,"lon":5.374597,"is_reserved":false,"is_disabled":false,"rental_uris":{"android":"levelo://app?vid=268abac0-c83f-4e50-9c79-85306f60b946","ios":"levelo://app?vid=268abac0-c83f-4e50-9c79-85306f60b946"},"vehicle_type_id":"4","last_reported":1778701124,"current_range_meters":6400,"station_id":"ce4bhgh2rcd13ifvqfb0","pricing_plan_id":"cebpf4jnsgd1na2vs0mg"},{"bike_id":"bf2ef27f-e437-49fe-bd38-5f977fe511f2","system_id":"levelo_inurba_marseille","lat":43.29043,"lon":5.3591,"is_reserved":false,"is_disabled":false,"rental_uris":{"android":"levelo://app?vid=bf2ef27f-e437-49fe-bd38-5f977fe511f2","ios":"levelo://app?vid=bf2ef27f-e437-49fe-bd38-5f977fe511f2"},"vehicle_type_id":"4","last_reported":1778701124,"current_range_meters":6400,"station_id":"ce4bha92rcd13ifvqeg0","pricing_plan_id":"cebpf4jnsgd1na2vs0mg"},{"bike_id":"b68725fb-48bd-4094-a63b-2967d5e783dd","system_id":"levelo_inurba_marseille","lat":43.27921,"lon":5.39583,"is_reserved":false,"is_disabled":true,"rental_uris":{"android":"levelo://app?vid=b68725fb-48bd-4094-a63b-2967d5e783dd","ios":"levelo://app?vid=b68725fb-48bd-4094-a63b-2967d5e783dd"},"vehicle_type_id":"4","last_reported":1778701124,"current_range_meters":6400,"station_id":"ce4bhf92rcd13ifvqf40","pricing_plan_id":"cebpf4jnsgd1na2vs0mg"},{"bike_id":"21f7c80b-e859-4147-a914-fe78ef3a4744","system_id":"levelo_inurba_marseille","lat":43.29532,"lon":5.38552,"is_reserved":false,"is_disabled":false,"rental_uris":{"android":"levelo://app?vid=21f7c80b-e859-4147-a914-fe78ef3a4744","ios":"levelo://app?vid=21f7c80b-e859-4147-a914-fe78ef3a4744"},"vehicle_type_id":"4","last_reported":1778701124,"current_range_meters":6400,"station_id":"ce4bgih2rcd13ifvqba0","pricing_plan_id":"cebpf4jnsgd1na2vs0mg"},{"bike_id":"53ab3346-6ae3-47d4-9670-f84e0aea8e0c","system_id":"levelo_inurba_marseille","lat":43.24808,"lon":5.37461,"is_reserved":false,"is_disabled":false,"rental_uris":{"android":"levelo://app?vid=53ab3346-6ae3-47d4-9670-f84e0aea8e0c","ios":"levelo://app?vid=53ab3346-6ae3-47d4-9670-f84e0aea8e0c"},"vehicle_type_id":"4","last_reported":1778701124,"current_range_meters":6400,"station_id":"ce4bhgh2rcd13ifvqfb0","pricing_plan_id":"cebpf4jnsgd1na2vs0mg"},{"bike_id":"dfb10d0b-3d38-4ae7-a749-d24ceb770b67","system_id":"levelo_inurba_marseille","lat":43.29164,"lon":5.38742,"is_reserved":false,"is_disabled":false,"rental_uris":{"android":"levelo://app?vid=dfb10d0b-3d38-4ae7-a749-d24ceb770b67","ios":"levelo://app?vid=dfb10d0b-3d38-4ae7-a749-d24ceb770b67"},"vehicle_type_id":"4","last_reported":1778701124,"current_range_meters":6400,"station_id":"","pricing_plan_id":"cebpf4jnsgd1na2vs0mg"},{"bike_id":"1b92dc77-fa37-4622-8e11-1fa6fd28c9b8","system_id":"levelo_inurba_marseille","lat":43.31327,"lon":5.39694,"is_reserved":false,"is_disabled":false,"rental_uris":{"android":"levelo://app?vid=1b92dc77-fa37-4622-8e11-1fa6fd28c9b8","ios":"levelo://app?vid=1b92dc77-fa37-4622-8e11-1fa6fd28c9b8"},"vehicle_type_id":"4","last_reported":1778701124,"current_range_meters":6400,"station_id":"ce4bgvp2rcd13ifvqcu0","pricing_plan_id":"cebpf4jnsgd1na2vs0mg"},{"bike_id":"6622655d-e7b6-4404-84f9-eccee736a6bf","system_id":"levelo_inurba_marseille","lat":43.30144,"lon":5.38074,"is_reserved":false,"is_disabled":false,"rental_uris":{"android":"levelo://app?vid=6622655d-e7b6-4404-84f9-eccee736a6bf","ios":"levelo://app?vid=6622655d-e7b6-4404-84f9-eccee736a6bf"},"vehicle_type_id":"4","last_reported":1778701124,"current_range_meters":6400,"station_id":"ce4bgjp2rcd13ifvqbh0","pricing_plan_id":"cebpf4jnsgd1na2vs0mg"},{"bike_id":"4e3b640b-e37e-41e6-a2c5-1d91d6b3a7e4","system_id":"levelo_inurba_marseille","lat":43.29529,"lon":5.38544,"is_reserved":false,"is_disabled":false,"rental_uris":{"android":"levelo://app?vid=4e3b640b-e37e-41e6-a2c5-1d91d6b3a7e4","ios":"levelo://app?vid=4e3b640b-e37e-41e6-a2c5-1d91d6b3a7e4"},"vehicle_type_id":"4","last_reported":1778701124,"current_range_meters":6400,"station_id":"ce4bgih2rcd13ifvqba0","pricing_plan_id":"cebpf4jnsgd1na2vs0mg"},{"bike_id":"08ba0adf-0ad5-4d14-929e-efd0da986a9b","system_id":"levelo_inurba_marseille","lat":43.27239,"lon":5.40864,"is_reserved":false,"is_disabled":false,"rental_uris":{"android":"levelo://app?vid=08ba0adf-0ad5-4d14-929e-efd0da986a9b","ios":"levelo://app?vid=08ba0adf-0ad5-4d14-929e-efd0da986a9b"},"vehicle_type_id":"4","last_reported":1778701124,"current_range_meters":6400,"station_id":"","pricing_plan_id":"cebpf4jnsgd1na2vs0mg"},{"bike_id":"5fb8929d-8102-448c-b915-edd3a3b92015","system_id":"levelo_inurba_marseille","lat":43.33161,"lon":5.37686,"is_reserved":false,"is_disabled":false,"rental_uris":{"android":"levelo://app?vid=5fb8929d-8102-448c-b915-edd3a3b92015","ios":"levelo://app?vid=5fb8929d-8102-448c-b915-edd3a3b92015"},"vehicle_type_id":"4","last_reported":1778701124,"current_range_meters":6400,"station_id":"st_d46cu089ee8s73dldbu0","pricing_plan_id":"cebpf4jnsgd1na2vs0mg"},{"bike_id":"bc5e2925-16a2-4686-bd58-cc9a88f025e6","system_id":"levelo_inurba_marseille","lat":43.25863,"lon":5.39906,"is_reserved":false,"is_disabled":false,"rental_uris":{"android":"levelo://app?vid=bc5e2925-16a2-4686-bd58-cc9a88f025e6","ios":"levelo://app?vid=bc5e2925-16a2-4686-bd58-cc9a88f025e6"},"vehicle_type_id":"4","last_reported":1778701124,"current_range_meters":6400,"station_id":"ce4bhl92rcd13ifvqghg","pricing_plan_id":"cebpf4jnsgd1na2vs0mg"},{"bike_id":"0dac72c1-f82f-4c1f-95e6-fbf0c1410ae5","system_id":"levelo_inurba_marseille","lat":43.23976,"lon":5.36625,"is_reserved":false,"is_disabled":false,"rental_uris":{"android":"levelo://app?vid=0dac72c1-f82f-4c1f-95e6-fbf0c1410ae5","ios":"levelo://app?vid=0dac72c1-f82f-4c1f-95e6-fbf0c1410ae5"},"vehicle_type_id":"4","last_reported":1778701124,"current_range_meters":6400,"station_id":"ce4bhi12rcd13ifvqfp0","pricing_plan_id":"cebpf4jnsgd1na2vs0mg"},{"bike_id":"386a0781-ba44-458a-8526-4864b27dc5e8","system_id":"levelo_inurba_marseille","lat":43.2317,"lon":5.39989,"is_reserved":false,"is_disabled":false,"rental_uris":{"android":"levelo://app?vid=386a0781-ba44-458a-8526-4864b27dc5e8","ios":"levelo://app?vid=386a0781-ba44-458a-8526-4864b27dc5e8"},"vehicle_type_id":"4","last_reported":1778701124,"current_range_meters":6800,"station_id":"ce4bhn12rcd13ifvqgqg","pricing_plan_id":"cebpf4jnsgd1na2vs0mg"},{"bike_id":"405f1dbf-c088-4880-9365-03325b4d46a5","system_id":"levelo_inurba_marseille","lat":43.27999,"lon":5.40005,"is_reserved":false,"is_disabled":false,"rental_uris":{"android":"levelo://app?vid=405f1dbf-c088-4880-9365-03325b4d46a5","ios":"levelo://app?vid=405f1dbf-c088-4880-9365-03325b4d46a5"},"vehicle_type_id":"4","last_reported":1778701124,"current_range_meters":6800,"station_id":"ce4bho92rcd13ifvqh4g","pricing_plan_id":"cebpf4jnsgd1na2vs0mg"},{"bike_id":"8dc1bf7c-4942-447e-8a68-83ae9a7796fd","system_id":"levelo_inurba_marseille","lat":43.30139,"lon":5.37422,"is_reserved":false,"is_disabled":false,"rental_uris":{"android":"levelo://app?vid=8dc1bf7c-4942-447e-8a68-83ae9a7796fd","ios":"levelo://app?vid=8dc1bf7c-4942-447e-8a68-83ae9a7796fd"},"vehicle_type_id":"4","last_reported":1778701124,"current_range_meters":6800,"station_id":"ce4bgs92rcd13ifvqcc0","pricing_plan_id":"cebpf4jnsgd1na2vs0mg"},{"bike_id":"cd5c5fe1-7b4c-4490-9e82-584dc3d81e71","system_id":"levelo_inurba_marseille","lat":43.26819,"lon":5.3946,"is_reserved":false,"is_disabled":false,"rental_uris":{"android":"levelo://app?vid=cd5c5fe1-7b4c-4490-9e82-584dc3d81e71","ios":"levelo://app?vid=cd5c5fe1-7b4c-4490-9e82-584dc3d81e71"},"vehicle_type_id":"4","last_reported":1778701124,"current_range_meters":6800,"station_id":"","pricing_plan_id":"cebpf4jnsgd1na2vs0mg"},{"bike_id":"789e91a0-44bc-408c-b927-aaa50397eee8","system_id":"levelo_inurba_marseille","lat":43.288632,"lon":5.425215,"is_reserved":false,"is_disabled":false,"rental_uris":{"android":"levelo://app?vid=789e91a0-44bc-408c-b927-aaa50397eee8","ios":"levelo://app?vid=789e91a0-44bc-408c-b927-aaa50397eee8"},"vehicle_type_id":"4","last_reported":1778701124,"current_range_meters":6800,"station_id":"st_d3b462108ojc7389ooeg","pricing_plan_id":"cebpf4jnsgd1na2vs0mg"},{"bike_id":"2155b81d-4ed5-458a-9a0a-b79f20514091","system_id":"levelo_inurba_marseille","lat":43.2738,"lon":5.3626,"is_reserved":false,"is_disabled":false,"rental_uris":{"android":"levelo://app?vid=2155b81d-4ed5-458a-9a0a-b79f20514091","ios":"levelo://app?vid=2155b81d-4ed5-458a-9a0a-b79f20514091"},"vehicle_type_id":"4","last_reported":1778701124,"current_range_meters":6800,"station_id":"ce4bhbh2rcd13ifvqeo0","pricing_plan_id":"cebpf4jnsgd1na2vs0mg"},{"bike_id":"4660d09c-3d67-4691-b901-cf7c81798d2c","system_id":"levelo_inurba_marseille","lat":43.27509,"lon":5.41576,"is_reserved":false,"is_disabled":true,"rental_uris":{"android":"levelo://app?vid=4660d09c-3d67-4691-b901-cf7c81798d2c","ios":"levelo://app?vid=4660d09c-3d67-4691-b901-cf7c81798d2c"},"vehicle_type_id":"4","last_reported":1778701124,"current_range_meters":6800,"station_id":"st_d6im8g6chgec73a5pndg","pricing_plan_id":"cebpf4jnsgd1na2vs0mg"},{"bike_id":"0f4a975b-7889-43db-857b-2d6fb8450403","system_id":"levelo_inurba_marseille","lat":43.27381,"lon":5.36248,"is_reserved":false,"is_disabled":false,"rental_uris":{"android":"levelo://app?vid=0f4a975b-7889-43db-857b-2d6fb8450403","ios":"levelo://app?vid=0f4a975b-7889-43db-857b-2d6fb8450403"},"vehicle_type_id":"4","last_reported":1778701124,"current_range_meters":6800,"station_id":"ce4bhbh2rcd13ifvqeo0","pricing_plan_id":"cebpf4jnsgd1na2vs0mg"},{"bike_id":"e87d90bf-7f27-4494-86f8-3a1d5cd041da","system_id":"levelo_inurba_marseille","lat":43.23785,"lon":5.36655,"is_reserved":false,"is_disabled":false,"rental_uris":{"android":"levelo://app?vid=e87d90bf-7f27-4494-86f8-3a1d5cd041da","ios":"levelo://app?vid=e87d90bf-7f27-4494-86f8-3a1d5cd041da"},"vehicle_type_id":"4","last_reported":1778701124,"current_range_meters":6800,"station_id":"st_d3nk18o9ro0c73en2l3g","pricing_plan_id":"cebpf4jnsgd1na2vs0mg"},{"bike_id":"9e83ca00-73a4-44f8-af9e-eaf3aee75f4d","system_id":"levelo_inurba_marseille","lat":43.29202,"lon":5.35808,"is_reserved":false,"is_disabled":false,"rental_uris":{"android":"levelo://app?vid=9e83ca00-73a4-44f8-af9e-eaf3aee75f4d","ios":"levelo://app?vid=9e83ca00-73a4-44f8-af9e-eaf3aee75f4d"},"vehicle_type_id":"4","last_reported":1778701124,"current_range_meters":6800,"station_id":"ce4bhb12rcd13ifvqel0","pricing_plan_id":"cebpf4jnsgd1na2vs0mg"},{"bike_id":"e8be6d30-92bd-4faa-804d-9aab5a4d7b08","system_id":"levelo_inurba_marseille","lat":43.2893,"lon":5.36648,"is_reserved":false,"is_disabled":false,"rental_uris":{"android":"levelo://app?vid=e8be6d30-92bd-4faa-804d-9aab5a4d7b08","ios":"levelo://app?vid=e8be6d30-92bd-4faa-804d-9aab5a4d7b08"},"vehicle_type_id":"4","last_reported":1778701124,"current_range_meters":6800,"station_id":"ce4bhap2rcd13ifvqek0","pricing_plan_id":"cebpf4jnsgd1na2vs0mg"},{"bike_id":"ccd513c3-26c1-4dcf-b1d6-678679d91c8d","system_id":"levelo_inurba_marseille","lat":43.29308,"lon":5.37452,"is_reserved":false,"is_disabled":false,"rental_uris":{"android":"levelo://app?vid=ccd513c3-26c1-4dcf-b1d6-678679d91c8d","ios":"levelo://app?vid=ccd513c3-26c1-4dcf-b1d6-678679d91c8d"},"vehicle_type_id":"4","last_reported":1778701124,"current_range_meters":6800,"station_id":"ce4bgi12rcd13ifvqb70","pricing_plan_id":"cebpf4jnsgd1na2vs0mg"},{"bike_id":"414015c3-2480-4755-a304-e0427bf2620f","system_id":"levelo_inurba_marseille","lat":43.29522,"lon":5.39036,"is_reserved":false,"is_disabled":false,"rental_uris":{"android":"levelo://app?vid=414015c3-2480-4755-a304-e0427bf2620f","ios":"levelo://app?vid=414015c3-2480-4755-a304-e0427bf2620f"},"vehicle_type_id":"4","last_reported":1778701124,"current_range_meters":6800,"station_id":"ce4bh3p2rcd13ifvqdp0","pricing_plan_id":"cebpf4jnsgd1na2vs0mg"},{"bike_id":"b539794b-9564-41c4-af5b-33f37d930411","system_id":"levelo_inurba_marseille","lat":43.29875,"lon":5.38922,"is_reserved":false,"is_disabled":false,"rental_uris":{"android":"levelo://app?vid=b539794b-9564-41c4-af5b-33f37d930411","ios":"levelo://app?vid=b539794b-9564-41c4-af5b-33f37d930411"},"vehicle_type_id":"4","last_reported":1778701124,"current_range_meters":6800,"station_id":"ce4bh392rcd13ifvqdl0","pricing_plan_id":"cebpf4jnsgd1na2vs0mg"},{"bike_id":"d425baa6-8879-45b4-831a-3cde4259c9d8","system_id":"levelo_inurba_marseille","lat":43.30547,"lon":5.36557,"is_reserved":false,"is_disabled":false,"rental_uris":{"android":"levelo://app?vid=d425baa6-8879-45b4-831a-3cde4259c9d8","ios":"levelo://app?vid=d425baa6-8879-45b4-831a-3cde4259c9d8"},"vehicle_type_id":"4","last_reported":1778701124,"current_range_meters":6800,"station_id":"ce4bgs12rcd13ifvqcag","pricing_plan_id":"cebpf4jnsgd1na2vs0mg"},{"bike_id":"4c2ebf2f-679f-4d9d-8fea-3fc309890292","system_id":"levelo_inurba_marseille","lat":43.30138,"lon":5.37472,"is_reserved":false,"is_disabled":true,"rental_uris":{"android":"levelo://app?vid=4c2ebf2f-679f-4d9d-8fea-3fc309890292","ios":"levelo://app?vid=4c2ebf2f-679f-4d9d-8fea-3fc309890292"},"vehicle_type_id":"4","last_reported":1778701124,"current_range_meters":6800,"station_id":"ce4bgs92rcd13ifvqcc0","pricing_plan_id":"cebpf4jnsgd1na2vs0mg"},{"bike_id":"02b0c393-3fce-4646-8e55-954077194616","system_id":"levelo_inurba_marseille","lat":43.27375,"lon":5.3625,"is_reserved":false,"is_disabled":false,"rental_uris":{"android":"levelo://app?vid=02b0c393-3fce-4646-8e55-954077194616","ios":"levelo://app?vid=02b0c393-3fce-4646-8e55-954077194616"},"vehicle_type_id":"4","last_reported":1778701124,"current_range_meters":6800,"station_id":"ce4bhbh2rcd13ifvqeo0","pricing_plan_id":"cebpf4jnsgd1na2vs0mg"},{"bike_id":"1301d2af-c91a-458f-a0c0-3744da869577","system_id":"levelo_inurba_marseille","lat":43.212,"lon":5.35072,"is_reserved":false,"is_disabled":false,"rental_uris":{"android":"levelo://app?vid=1301d2af-c91a-458f-a0c0-3744da869577","ios":"levelo://app?vid=1301d2af-c91a-458f-a0c0-3744da869577"},"vehicle_type_id":"4","last_reported":1778701124,"current_range_meters":6800,"station_id":"st_cvj6sg6p6f1abm77japg","pricing_plan_id":"cebpf4jnsgd1na2vs0mg"},{"bike_id":"3d714867-47ec-4f5e-b20a-604efdd315ea","system_id":"levelo_inurba_marseille","lat":43.29608,"lon":5.38104,"is_reserved":false,"is_disabled":false,"rental_uris":{"android":"levelo://app?vid=3d714867-47ec-4f5e-b20a-604efdd315ea","ios":"levelo://app?vid=3d714867-47ec-4f5e-b20a-604efdd315ea"},"vehicle_type_id":"4","last_reported":1778701124,"current_range_meters":6800,"station_id":"ce4bgl12rcd13ifvqbo0","pricing_plan_id":"cebpf4jnsgd1na2vs0mg"},{"bike_id":"dfb5ec42-ea95-4264-ab0d-c96582641d8d","system_id":"levelo_inurba_marseille","lat":43.285773,"lon":5.395,"is_reserved":false,"is_disabled":false,"rental_uris":{"android":"levelo://app?vid=dfb5ec42-ea95-4264-ab0d-c96582641d8d","ios":"levelo://app?vid=dfb5ec42-ea95-4264-ab0d-c96582641d8d"},"vehicle_type_id":"4","last_reported":1778701124,"current_range_meters":6800,"station_id":"ce4bh292rcd13ifvqdg0","pricing_plan_id":"cebpf4jnsgd1na2vs0mg"},{"bike_id":"bf606dac-6822-4042-b0cf-442eca8dcda8","system_id":"levelo_inurba_marseille","lat":43.30948,"lon":5.39022,"is_reserved":false,"is_disabled":false,"rental_uris":{"android":"levelo://app?vid=bf606dac-6822-4042-b0cf-442eca8dcda8","ios":"levelo://app?vid=bf606dac-6822-4042-b0cf-442eca8dcda8"},"vehicle_type_id":"4","last_reported":1778701124,"current_range_meters":6800,"station_id":"ce4bgup2rcd13ifvqco0","pricing_plan_id":"cebpf4jnsgd1na2vs0mg"},{"bike_id":"a0606dcd-56a2-486d-a97d-ece2bbdc6e78","system_id":"levelo_inurba_marseille","lat":43.33208,"lon":5.37726,"is_reserved":false,"is_disabled":false,"rental_uris":{"android":"levelo://app?vid=a0606dcd-56a2-486d-a97d-ece2bbdc6e78","ios":"levelo://app?vid=a0606dcd-56a2-486d-a97d-ece2bbdc6e78"},"vehicle_type_id":"4","last_reported":1778701124,"current_range_meters":7200,"station_id":"","pricing_plan_id":"cebpf4jnsgd1na2vs0mg"},{"bike_id":"6206d17b-cf9d-41b3-a41d-c6052f6a6ce2","system_id":"levelo_inurba_marseille","lat":43.33546,"lon":5.37456,"is_reserved":false,"is_disabled":false,"rental_uris":{"android":"levelo://app?vid=6206d17b-cf9d-41b3-a41d-c6052f6a6ce2","ios":"levelo://app?vid=6206d17b-cf9d-41b3-a41d-c6052f6a6ce2"},"vehicle_type_id":"4","last_reported":1778701124,"current_range_meters":7200,"station_id":"st_d46tts09ee8s73dlu43g","pricing_plan_id":"cebpf4jnsgd1na2vs0mg"},{"bike_id":"ae764b70-9be3-49e3-9286-093436898b0f","system_id":"levelo_inurba_marseille","lat":43.29265,"lon":5.38424,"is_reserved":false,"is_disabled":false,"rental_uris":{"android":"levelo://app?vid=ae764b70-9be3-49e3-9286-093436898b0f","ios":"levelo://app?vid=ae764b70-9be3-49e3-9286-093436898b0f"},"vehicle_type_id":"4","last_reported":1778701124,"current_range_meters":7200,"station_id":"ce4bh692rcd13ifvqea0","pricing_plan_id":"cebpf4jnsgd1na2vs0mg"},{"bike_id":"a5233650-af7d-450e-9ae3-b0989430838e","system_id":"levelo_inurba_marseille","lat":43.30025,"lon":5.38658,"is_reserved":false,"is_disabled":false,"rental_uris":{"android":"levelo://app?vid=a5233650-af7d-450e-9ae3-b0989430838e","ios":"levelo://app?vid=a5233650-af7d-450e-9ae3-b0989430838e"},"vehicle_type_id":"4","last_reported":1778701124,"current_range_meters":7200,"station_id":"","pricing_plan_id":"cebpf4jnsgd1na2vs0mg"},{"bike_id":"95c8be4d-b6e3-42fd-a081-a690f0f3c246","system_id":"levelo_inurba_marseille","lat":43.24808,"lon":5.37428,"is_reserved":false,"is_disabled":false,"rental_uris":{"android":"levelo://app?vid=95c8be4d-b6e3-42fd-a081-a690f0f3c246","ios":"levelo://app?vid=95c8be4d-b6e3-42fd-a081-a690f0f3c246"},"vehicle_type_id":"4","last_reported":1778701124,"current_range_meters":7200,"station_id":"ce4bhgh2rcd13ifvqfb0","pricing_plan_id":"cebpf4jnsgd1na2vs0mg"},{"bike_id":"ed122cb0-9c4b-4104-b359-218c1bf83706","system_id":"levelo_inurba_marseille","lat":43.29571,"lon":5.39969,"is_reserved":false,"is_disabled":true,"rental_uris":{"android":"levelo://app?vid=ed122cb0-9c4b-4104-b359-218c1bf83706","ios":"levelo://app?vid=ed122cb0-9c4b-4104-b359-218c1bf83706"},"vehicle_type_id":"4","last_reported":1778701124,"current_range_meters":7200,"station_id":"ce4bh312rcd13ifvqdj0","pricing_plan_id":"cebpf4jnsgd1na2vs0mg"},{"bike_id":"a69bbb17-e904-4bbe-b1a6-d8e7b08362c7","system_id":"levelo_inurba_marseille","lat":43.23989,"lon":5.39923,"is_reserved":false,"is_disabled":false,"rental_uris":{"android":"levelo://app?vid=a69bbb17-e904-4bbe-b1a6-d8e7b08362c7","ios":"levelo://app?vid=a69bbb17-e904-4bbe-b1a6-d8e7b08362c7"},"vehicle_type_id":"4","last_reported":1778701124,"current_range_meters":7200,"station_id":"","pricing_plan_id":"cebpf4jnsgd1na2vs0mg"},{"bike_id":"42731a40-4bbc-4699-988f-96d94835f8c7","system_id":"levelo_inurba_marseille","lat":43.29963,"lon":5.38489,"is_reserved":false,"is_disabled":false,"rental_uris":{"android":"levelo://app?vid=42731a40-4bbc-4699-988f-96d94835f8c7","ios":"levelo://app?vid=42731a40-4bbc-4699-988f-96d94835f8c7"},"vehicle_type_id":"4","last_reported":1778701124,"current_range_meters":7200,"station_id":"ce4bgj92rcd13ifvqbd0","pricing_plan_id":"cebpf4jnsgd1na2vs0mg"},{"bike_id":"4685b90e-2b73-4802-b777-c45c4167e5fa","system_id":"levelo_inurba_marseille","lat":43.30125,"lon":5.43118,"is_reserved":false,"is_disabled":false,"rental_uris":{"android":"levelo://app?vid=4685b90e-2b73-4802-b777-c45c4167e5fa","ios":"levelo://app?vid=4685b90e-2b73-4802-b777-c45c4167e5fa"},"vehicle_type_id":"4","last_reported":1778701124,"current_range_meters":7200,"station_id":"st_d3js3co5814s73ftftug","pricing_plan_id":"cebpf4jnsgd1na2vs0mg"},{"bike_id":"9e8c9ddd-eb46-433b-9afb-3ab2c8fe09f9","system_id":"levelo_inurba_marseille","lat":43.271696,"lon":5.409875,"is_reserved":false,"is_disabled":false,"rental_uris":{"android":"levelo://app?vid=9e8c9ddd-eb46-433b-9afb-3ab2c8fe09f9","ios":"levelo://app?vid=9e8c9ddd-eb46-433b-9afb-3ab2c8fe09f9"},"vehicle_type_id":"4","last_reported":1778701124,"current_range_meters":7200,"station_id":"ce4bhl12rcd13ifvqgf0","pricing_plan_id":"cebpf4jnsgd1na2vs0mg"},{"bike_id":"55bddeef-6277-473d-91a7-709e6bbcdb2f","system_id":"levelo_inurba_marseille","lat":43.30044,"lon":5.38629,"is_reserved":false,"is_disabled":false,"rental_uris":{"android":"levelo://app?vid=55bddeef-6277-473d-91a7-709e6bbcdb2f","ios":"levelo://app?vid=55bddeef-6277-473d-91a7-709e6bbcdb2f"},"vehicle_type_id":"4","last_reported":1778701124,"current_range_meters":7200,"station_id":"","pricing_plan_id":"cebpf4jnsgd1na2vs0mg"},{"bike_id":"eca35c7d-09f6-4636-b1d5-edf22411817f","system_id":"levelo_inurba_marseille","lat":43.29264,"lon":5.3761,"is_reserved":false,"is_disabled":false,"rental_uris":{"android":"levelo://app?vid=eca35c7d-09f6-4636-b1d5-edf22411817f","ios":"levelo://app?vid=eca35c7d-09f6-4636-b1d5-edf22411817f"},"vehicle_type_id":"4","last_reported":1778701124,"current_range_meters":7200,"station_id":"ce4bgi12rcd13ifvqb80","pricing_plan_id":"cebpf4jnsgd1na2vs0mg"},{"bike_id":"18fa636b-78ed-461e-a47f-2d40c73fe271","system_id":"levelo_inurba_marseille","lat":43.30308,"lon":5.39194,"is_reserved":false,"is_disabled":false,"rental_uris":{"android":"levelo://app?vid=18fa636b-78ed-461e-a47f-2d40c73fe271","ios":"levelo://app?vid=18fa636b-78ed-461e-a47f-2d40c73fe271"},"vehicle_type_id":"4","last_reported":1778701124,"current_range_meters":7200,"station_id":"ce4bgkh2rcd13ifvqbk0","pricing_plan_id":"cebpf4jnsgd1na2vs0mg"},{"bike_id":"38787105-a2d5-4476-91d6-7cc27000f542","system_id":"levelo_inurba_marseille","lat":43.29272,"lon":5.38457,"is_reserved":false,"is_disabled":false,"rental_uris":{"android":"levelo://app?vid=38787105-a2d5-4476-91d6-7cc27000f542","ios":"levelo://app?vid=38787105-a2d5-4476-91d6-7cc27000f542"},"vehicle_type_id":"4","last_reported":1778701124,"current_range_meters":7200,"station_id":"ce4bh692rcd13ifvqea0","pricing_plan_id":"cebpf4jnsgd1na2vs0mg"},{"bike_id":"76550bf5-ac1c-45c1-94bc-61082ba93480","system_id":"levelo_inurba_marseille","lat":43.29017,"lon":5.38645,"is_reserved":false,"is_disabled":false,"rental_uris":{"android":"levelo://app?vid=76550bf5-ac1c-45c1-94bc-61082ba93480","ios":"levelo://app?vid=76550bf5-ac1c-45c1-94bc-61082ba93480"},"vehicle_type_id":"4","last_reported":1778701124,"current_range_meters":7200,"station_id":"ce4bh4p2rcd13ifvqe0g","pricing_plan_id":"cebpf4jnsgd1na2vs0mg"},{"bike_id":"95c02ffd-d429-4bb4-9cec-b7834d99f0f6","system_id":"levelo_inurba_marseille","lat":43.33164,"lon":5.37699,"is_reserved":false,"is_disabled":false,"rental_uris":{"android":"levelo://app?vid=95c02ffd-d429-4bb4-9cec-b7834d99f0f6","ios":"levelo://app?vid=95c02ffd-d429-4bb4-9cec-b7834d99f0f6"},"vehicle_type_id":"4","last_reported":1778701124,"current_range_meters":7200,"station_id":"st_d46cu089ee8s73dldbu0","pricing_plan_id":"cebpf4jnsgd1na2vs0mg"},{"bike_id":"f7b71e8a-de3b-4d59-8cbd-1c1ed6357a73","system_id":"levelo_inurba_marseille","lat":43.26959,"lon":5.40271,"is_reserved":false,"is_disabled":true,"rental_uris":{"android":"levelo://app?vid=f7b71e8a-de3b-4d59-8cbd-1c1ed6357a73","ios":"levelo://app?vid=f7b71e8a-de3b-4d59-8cbd-1c1ed6357a73"},"vehicle_type_id":"4","last_reported":1778701124,"current_range_meters":7200,"station_id":"cjm6bp8fraef2m0cb0m0","pricing_plan_id":"cebpf4jnsgd1na2vs0mg"},{"bike_id":"41c545a1-7ecd-45d0-9f47-a5fa7e6b1bd6","system_id":"levelo_inurba_marseille","lat":43.28704,"lon":5.39995,"is_reserved":false,"is_disabled":false,"rental_uris":{"android":"levelo://app?vid=41c545a1-7ecd-45d0-9f47-a5fa7e6b1bd6","ios":"levelo://app?vid=41c545a1-7ecd-45d0-9f47-a5fa7e6b1bd6"},"vehicle_type_id":"4","last_reported":1778701124,"current_range_meters":7200,"station_id":"ce4bho92rcd13ifvqh3g","pricing_plan_id":"cebpf4jnsgd1na2vs0mg"},{"bike_id":"c8f05c78-1548-4c31-916e-2eaa20713e87","system_id":"levelo_inurba_marseille","lat":43.24547,"lon":5.39528,"is_reserved":false,"is_disabled":false,"rental_uris":{"android":"levelo://app?vid=c8f05c78-1548-4c31-916e-2eaa20713e87","ios":"levelo://app?vid=c8f05c78-1548-4c31-916e-2eaa20713e87"},"vehicle_type_id":"4","last_reported":1778701124,"current_range_meters":7200,"station_id":"ce4bhlp2rcd13ifvqgjg","pricing_plan_id":"cebpf4jnsgd1na2vs0mg"},{"bike_id":"ce074118-931a-45f0-85a9-21de1c76d0e7","system_id":"levelo_inurba_marseille","lat":43.29533,"lon":5.3854,"is_reserved":false,"is_disabled":false,"rental_uris":{"android":"levelo://app?vid=ce074118-931a-45f0-85a9-21de1c76d0e7","ios":"levelo://app?vid=ce074118-931a-45f0-85a9-21de1c76d0e7"},"vehicle_type_id":"4","last_reported":1778701124,"current_range_meters":7200,"station_id":"ce4bgih2rcd13ifvqba0","pricing_plan_id":"cebpf4jnsgd1na2vs0mg"},{"bike_id":"c3c0c967-747e-4370-a109-3503a7ff3950","system_id":"levelo_inurba_marseille","lat":43.30211,"lon":5.39465,"is_reserved":false,"is_disabled":false,"rental_uris":{"android":"levelo://app?vid=c3c0c967-747e-4370-a109-3503a7ff3950","ios":"levelo://app?vid=c3c0c967-747e-4370-a109-3503a7ff3950"},"vehicle_type_id":"4","last_reported":1778701124,"current_range_meters":7200,"station_id":"ce4bh0p2rcd13ifvqd70","pricing_plan_id":"cebpf4jnsgd1na2vs0mg"},{"bike_id":"0ddd1a44-6a20-4f20-87bb-54f6dbe51696","system_id":"levelo_inurba_marseille","lat":43.31738,"lon":5.4018,"is_reserved":false,"is_disabled":false,"rental_uris":{"android":"levelo://app?vid=0ddd1a44-6a20-4f20-87bb-54f6dbe51696","ios":"levelo://app?vid=0ddd1a44-6a20-4f20-87bb-54f6dbe51696"},"vehicle_type_id":"4","last_reported":1778701124,"current_range_meters":7200,"station_id":"","pricing_plan_id":"cebpf4jnsgd1na2vs0mg"},{"bike_id":"6558a215-088b-4d96-81b8-6bad41db068e","system_id":"levelo_inurba_marseille","lat":43.309311,"lon":5.401372,"is_reserved":false,"is_disabled":false,"rental_uris":{"android":"levelo://app?vid=6558a215-088b-4d96-81b8-6bad41db068e","ios":"levelo://app?vid=6558a215-088b-4d96-81b8-6bad41db068e"},"vehicle_type_id":"4","last_reported":1778701124,"current_range_meters":7200,"station_id":"ce4bgvp2rcd13ifvqct0","pricing_plan_id":"cebpf4jnsgd1na2vs0mg"},{"bike_id":"800c3744-4e25-44a2-9ea9-11f8f535b62f","system_id":"levelo_inurba_marseille","lat":43.31343,"lon":5.36702,"is_reserved":false,"is_disabled":false,"rental_uris":{"android":"levelo://app?vid=800c3744-4e25-44a2-9ea9-11f8f535b62f","ios":"levelo://app?vid=800c3744-4e25-44a2-9ea9-11f8f535b62f"},"vehicle_type_id":"4","last_reported":1778701124,"current_range_meters":7200,"station_id":"ce4bgr92rcd13ifvqc6g","pricing_plan_id":"cebpf4jnsgd1na2vs0mg"},{"bike_id":"e0e3f93f-16e8-4b39-b089-98387a4c334d","system_id":"levelo_inurba_marseille","lat":43.33549,"lon":5.37471,"is_reserved":false,"is_disabled":false,"rental_uris":{"android":"levelo://app?vid=e0e3f93f-16e8-4b39-b089-98387a4c334d","ios":"levelo://app?vid=e0e3f93f-16e8-4b39-b089-98387a4c334d"},"vehicle_type_id":"4","last_reported":1778701124,"current_range_meters":7200,"station_id":"st_d46tts09ee8s73dlu43g","pricing_plan_id":"cebpf4jnsgd1na2vs0mg"},{"bike_id":"4751127d-3aa2-446e-8601-6629ed659fa5","system_id":"levelo_inurba_marseille","lat":43.22565,"lon":5.41616,"is_reserved":false,"is_disabled":false,"rental_uris":{"android":"levelo://app?vid=4751127d-3aa2-446e-8601-6629ed659fa5","ios":"levelo://app?vid=4751127d-3aa2-446e-8601-6629ed659fa5"},"vehicle_type_id":"4","last_reported":1778701124,"current_range_meters":7200,"station_id":"st_d2o4gvlbi1j2169b742g","pricing_plan_id":"cebpf4jnsgd1na2vs0mg"},{"bike_id":"1c057f45-2582-439b-8aed-d0f6fff69221","system_id":"levelo_inurba_marseille","lat":43.30805,"lon":5.38139,"is_reserved":false,"is_disabled":false,"rental_uris":{"android":"levelo://app?vid=1c057f45-2582-439b-8aed-d0f6fff69221","ios":"levelo://app?vid=1c057f45-2582-439b-8aed-d0f6fff69221"},"vehicle_type_id":"4","last_reported":1778701124,"current_range_meters":7200,"station_id":"ce4bgt12rcd13ifvqce0","pricing_plan_id":"cebpf4jnsgd1na2vs0mg"},{"bike_id":"48779911-3369-4814-9a58-64fe522b0338","system_id":"levelo_inurba_marseille","lat":43.28932,"lon":5.38408,"is_reserved":false,"is_disabled":false,"rental_uris":{"android":"levelo://app?vid=48779911-3369-4814-9a58-64fe522b0338","ios":"levelo://app?vid=48779911-3369-4814-9a58-64fe522b0338"},"vehicle_type_id":"4","last_reported":1778701124,"current_range_meters":7200,"station_id":"ce4bh612rcd13ifvqe6g","pricing_plan_id":"cebpf4jnsgd1na2vs0mg"},{"bike_id":"e125947d-3837-4274-9812-998777c096b3","system_id":"levelo_inurba_marseille","lat":43.2931,"lon":5.37156,"is_reserved":false,"is_disabled":false,"rental_uris":{"android":"levelo://app?vid=e125947d-3837-4274-9812-998777c096b3","ios":"levelo://app?vid=e125947d-3837-4274-9812-998777c096b3"},"vehicle_type_id":"4","last_reported":1778701124,"current_range_meters":7200,"station_id":"ce4bgh92rcd13ifvqb40","pricing_plan_id":"cebpf4jnsgd1na2vs0mg"},{"bike_id":"a1eeefa8-17fb-45b1-be3a-5a18bf5d68e4","system_id":"levelo_inurba_marseille","lat":43.30457,"lon":5.37901,"is_reserved":false,"is_disabled":false,"rental_uris":{"android":"levelo://app?vid=a1eeefa8-17fb-45b1-be3a-5a18bf5d68e4","ios":"levelo://app?vid=a1eeefa8-17fb-45b1-be3a-5a18bf5d68e4"},"vehicle_type_id":"4","last_reported":1778701124,"current_range_meters":7200,"station_id":"ce4bgup2rcd13ifvqcn0","pricing_plan_id":"cebpf4jnsgd1na2vs0mg"},{"bike_id":"3baf60fe-0260-4ac0-9a4d-b71fdd4d99a9","system_id":"levelo_inurba_marseille","lat":43.31673,"lon":5.40499,"is_reserved":false,"is_disabled":false,"rental_uris":{"android":"levelo://app?vid=3baf60fe-0260-4ac0-9a4d-b71fdd4d99a9","ios":"levelo://app?vid=3baf60fe-0260-4ac0-9a4d-b71fdd4d99a9"},"vehicle_type_id":"4","last_reported":1778701124,"current_range_meters":8000,"station_id":"ce4bh012rcd13ifvqd00","pricing_plan_id":"cebpf4jnsgd1na2vs0mg"},{"bike_id":"65191135-268b-4aca-b249-8c026a0bfedd","system_id":"levelo_inurba_marseille","lat":43.2718,"lon":5.40985,"is_reserved":false,"is_disabled":false,"rental_uris":{"android":"levelo://app?vid=65191135-268b-4aca-b249-8c026a0bfedd","ios":"levelo://app?vid=65191135-268b-4aca-b249-8c026a0bfedd"},"vehicle_type_id":"4","last_reported":1778701124,"current_range_meters":8000,"station_id":"ce4bhl12rcd13ifvqgf0","pricing_plan_id":"cebpf4jnsgd1na2vs0mg"},{"bike_id":"5cc198a6-34e5-473a-93cb-39326f9cacbc","system_id":"levelo_inurba_marseille","lat":43.29303,"lon":5.37457,"is_reserved":false,"is_disabled":false,"rental_uris":{"android":"levelo://app?vid=5cc198a6-34e5-473a-93cb-39326f9cacbc","ios":"levelo://app?vid=5cc198a6-34e5-473a-93cb-39326f9cacbc"},"vehicle_type_id":"4","last_reported":1778701124,"current_range_meters":8000,"station_id":"ce4bgi12rcd13ifvqb70","pricing_plan_id":"cebpf4jnsgd1na2vs0mg"},{"bike_id":"fc226c98-f322-48a2-8f2c-6caf8724578d","system_id":"levelo_inurba_marseille","lat":43.31104,"lon":5.37767,"is_reserved":false,"is_disabled":false,"rental_uris":{"android":"levelo://app?vid=fc226c98-f322-48a2-8f2c-6caf8724578d","ios":"levelo://app?vid=fc226c98-f322-48a2-8f2c-6caf8724578d"},"vehicle_type_id":"4","last_reported":1778701124,"current_range_meters":8000,"station_id":"ce4bgt92rcd13ifvqcg0","pricing_plan_id":"cebpf4jnsgd1na2vs0mg"},{"bike_id":"0cea4717-0949-40fd-ae94-1db72ec6ad8c","system_id":"levelo_inurba_marseille","lat":43.2954,"lon":5.38536,"is_reserved":false,"is_disabled":false,"rental_uris":{"android":"levelo://app?vid=0cea4717-0949-40fd-ae94-1db72ec6ad8c","ios":"levelo://app?vid=0cea4717-0949-40fd-ae94-1db72ec6ad8c"},"vehicle_type_id":"4","last_reported":1778701124,"current_range_meters":8000,"station_id":"ce4bgih2rcd13ifvqba0","pricing_plan_id":"cebpf4jnsgd1na2vs0mg"},{"bike_id":"9f02bc8a-fa31-4d99-9454-67e6be4c4e30","system_id":"levelo_inurba_marseille","lat":43.24815,"lon":5.37456,"is_reserved":false,"is_disabled":false,"rental_uris":{"android":"levelo://app?vid=9f02bc8a-fa31-4d99-9454-67e6be4c4e30","ios":"levelo://app?vid=9f02bc8a-fa31-4d99-9454-67e6be4c4e30"},"vehicle_type_id":"4","last_reported":1778701124,"current_range_meters":8000,"station_id":"ce4bhgh2rcd13ifvqfb0","pricing_plan_id":"cebpf4jnsgd1na2vs0mg"},{"bike_id":"ed4c3f2a-5d31-4810-95b1-c0338c5b21d1","system_id":"levelo_inurba_marseille","lat":43.337742,"lon":5.374345,"is_reserved":false,"is_disabled":false,"rental_uris":{"android":"levelo://app?vid=ed4c3f2a-5d31-4810-95b1-c0338c5b21d1","ios":"levelo://app?vid=ed4c3f2a-5d31-4810-95b1-c0338c5b21d1"},"vehicle_type_id":"4","last_reported":1778701124,"current_range_meters":8000,"station_id":"","pricing_plan_id":"cebpf4jnsgd1na2vs0mg"},{"bike_id":"4df5ee85-eda0-43d3-94a5-93bc50f0d34f","system_id":"levelo_inurba_marseille","lat":43.286663,"lon":5.363541,"is_reserved":false,"is_disabled":false,"rental_uris":{"android":"levelo://app?vid=4df5ee85-eda0-43d3-94a5-93bc50f0d34f","ios":"levelo://app?vid=4df5ee85-eda0-43d3-94a5-93bc50f0d34f"},"vehicle_type_id":"4","last_reported":1778701124,"current_range_meters":8000,"station_id":"ce4bhah2rcd13ifvqej0","pricing_plan_id":"cebpf4jnsgd1na2vs0mg"},{"bike_id":"b1f85c10-3a72-4895-b4df-4b7782abd0b1","system_id":"levelo_inurba_marseille","lat":43.28537,"lon":5.44089,"is_reserved":false,"is_disabled":false,"rental_uris":{"android":"levelo://app?vid=b1f85c10-3a72-4895-b4df-4b7782abd0b1","ios":"levelo://app?vid=b1f85c10-3a72-4895-b4df-4b7782abd0b1"},"vehicle_type_id":"4","last_reported":1778701124,"current_range_meters":8000,"station_id":"st_d3j3df2ikq2c7380ej80","pricing_plan_id":"cebpf4jnsgd1na2vs0mg"},{"bike_id":"34cc106d-e88f-464c-b290-ce7702652b61","system_id":"levelo_inurba_marseille","lat":43.28934,"lon":5.36399,"is_reserved":false,"is_disabled":false,"rental_uris":{"android":"levelo://app?vid=34cc106d-e88f-464c-b290-ce7702652b61","ios":"levelo://app?vid=34cc106d-e88f-464c-b290-ce7702652b61"},"vehicle_type_id":"4","last_reported":1778701124,"current_range_meters":8000,"station_id":"ce4bhc92rcd13ifvqetg","pricing_plan_id":"cebpf4jnsgd1na2vs0mg"},{"bike_id":"cca1d82c-0eb6-46fd-9a26-94a084e3cf72","system_id":"levelo_inurba_marseille","lat":43.29533,"lon":5.38555,"is_reserved":false,"is_disabled":false,"rental_uris":{"android":"levelo://app?vid=cca1d82c-0eb6-46fd-9a26-94a084e3cf72","ios":"levelo://app?vid=cca1d82c-0eb6-46fd-9a26-94a084e3cf72"},"vehicle_type_id":"4","last_reported":1778701124,"current_range_meters":8000,"station_id":"ce4bgih2rcd13ifvqba0","pricing_plan_id":"cebpf4jnsgd1na2vs0mg"},{"bike_id":"a8e2156a-ba98-4fc0-b1b1-078a9bd03e83","system_id":"levelo_inurba_marseille","lat":43.28653,"lon":5.3637,"is_reserved":false,"is_disabled":false,"rental_uris":{"android":"levelo://app?vid=a8e2156a-ba98-4fc0-b1b1-078a9bd03e83","ios":"levelo://app?vid=a8e2156a-ba98-4fc0-b1b1-078a9bd03e83"},"vehicle_type_id":"4","last_reported":1778701124,"current_range_meters":8000,"station_id":"ce4bhah2rcd13ifvqej0","pricing_plan_id":"cebpf4jnsgd1na2vs0mg"},{"bike_id":"43a2f767-7ee0-407a-b2c9-53079b15b7f3","system_id":"levelo_inurba_marseille","lat":43.29005,"lon":5.35618,"is_reserved":false,"is_disabled":false,"rental_uris":{"android":"levelo://app?vid=43a2f767-7ee0-407a-b2c9-53079b15b7f3","ios":"levelo://app?vid=43a2f767-7ee0-407a-b2c9-53079b15b7f3"},"vehicle_type_id":"4","last_reported":1778701124,"current_range_meters":8000,"station_id":"ce4bhb92rcd13ifvqen0","pricing_plan_id":"cebpf4jnsgd1na2vs0mg"},{"bike_id":"0e19ad00-118f-4e3e-9e57-5eaff83bd63e","system_id":"levelo_inurba_marseille","lat":43.29595,"lon":5.38096,"is_reserved":false,"is_disabled":false,"rental_uris":{"android":"levelo://app?vid=0e19ad00-118f-4e3e-9e57-5eaff83bd63e","ios":"levelo://app?vid=0e19ad00-118f-4e3e-9e57-5eaff83bd63e"},"vehicle_type_id":"4","last_reported":1778701124,"current_range_meters":8000,"station_id":"ce4bgl12rcd13ifvqbo0","pricing_plan_id":"cebpf4jnsgd1na2vs0mg"},{"bike_id":"85c4beb0-759e-43b8-96d0-4a792eb6f9e1","system_id":"levelo_inurba_marseille","lat":43.24837,"lon":5.37445,"is_reserved":false,"is_disabled":false,"rental_uris":{"android":"levelo://app?vid=85c4beb0-759e-43b8-96d0-4a792eb6f9e1","ios":"levelo://app?vid=85c4beb0-759e-43b8-96d0-4a792eb6f9e1"},"vehicle_type_id":"4","last_reported":1778701124,"current_range_meters":8000,"station_id":"","pricing_plan_id":"cebpf4jnsgd1na2vs0mg"},{"bike_id":"1a89895e-8800-4f4d-b66d-53ac6088ee88","system_id":"levelo_inurba_marseille","lat":43.31133,"lon":5.37767,"is_reserved":false,"is_disabled":false,"rental_uris":{"android":"levelo://app?vid=1a89895e-8800-4f4d-b66d-53ac6088ee88","ios":"levelo://app?vid=1a89895e-8800-4f4d-b66d-53ac6088ee88"},"vehicle_type_id":"4","last_reported":1778701124,"current_range_meters":8000,"station_id":"ce4bgt92rcd13ifvqcg0","pricing_plan_id":"cebpf4jnsgd1na2vs0mg"},{"bike_id":"8edf9741-10e3-4dc0-96d6-2bc85a82680e","system_id":"levelo_inurba_marseille","lat":43.29537,"lon":5.38536,"is_reserved":false,"is_disabled":false,"rental_uris":{"android":"levelo://app?vid=8edf9741-10e3-4dc0-96d6-2bc85a82680e","ios":"levelo://app?vid=8edf9741-10e3-4dc0-96d6-2bc85a82680e"},"vehicle_type_id":"4","last_reported":1778701124,"current_range_meters":8000,"station_id":"ce4bgih2rcd13ifvqba0","pricing_plan_id":"cebpf4jnsgd1na2vs0mg"},{"bike_id":"b299766d-661b-4293-b516-1846fa5fb91f","system_id":"levelo_inurba_marseille","lat":43.2857,"lon":5.38639,"is_reserved":false,"is_disabled":false,"rental_uris":{"android":"levelo://app?vid=b299766d-661b-4293-b516-1846fa5fb91f","ios":"levelo://app?vid=b299766d-661b-4293-b516-1846fa5fb91f"},"vehicle_type_id":"4","last_reported":1778701124,"current_range_meters":8000,"station_id":"","pricing_plan_id":"cebpf4jnsgd1na2vs0mg"},{"bike_id":"d74d0a4a-95fe-495e-a1f8-d63c249a6160","system_id":"levelo_inurba_marseille","lat":43.302088,"lon":5.394673,"is_reserved":false,"is_disabled":false,"rental_uris":{"android":"levelo://app?vid=d74d0a4a-95fe-495e-a1f8-d63c249a6160","ios":"levelo://app?vid=d74d0a4a-95fe-495e-a1f8-d63c249a6160"},"vehicle_type_id":"4","last_reported":1778701124,"current_range_meters":8000,"station_id":"ce4bh0p2rcd13ifvqd70","pricing_plan_id":"cebpf4jnsgd1na2vs0mg"},{"bike_id":"96cfd789-c593-41fa-98ca-46dbfdd0476a","system_id":"levelo_inurba_marseille","lat":43.26372,"lon":5.41085,"is_reserved":false,"is_disabled":false,"rental_uris":{"android":"levelo://app?vid=96cfd789-c593-41fa-98ca-46dbfdd0476a","ios":"levelo://app?vid=96cfd789-c593-41fa-98ca-46dbfdd0476a"},"vehicle_type_id":"4","last_reported":1778701124,"current_range_meters":8000,"station_id":"st_d4e5ca6na9uc73bfl5fg","pricing_plan_id":"cebpf4jnsgd1na2vs0mg"},{"bike_id":"56df46b6-b91b-40cc-b8f4-2a517e1e89ce","system_id":"levelo_inurba_marseille","lat":43.295717,"lon":5.375273,"is_reserved":false,"is_disabled":false,"rental_uris":{"android":"levelo://app?vid=56df46b6-b91b-40cc-b8f4-2a517e1e89ce","ios":"levelo://app?vid=56df46b6-b91b-40cc-b8f4-2a517e1e89ce"},"vehicle_type_id":"4","last_reported":1778701124,"current_range_meters":8000,"station_id":"ce4bgh92rcd13ifvqb50","pricing_plan_id":"cebpf4jnsgd1na2vs0mg"},{"bike_id":"8bb75740-110f-4d4e-8348-fb9d76c42c05","system_id":"levelo_inurba_marseille","lat":43.28701,"lon":5.46677,"is_reserved":false,"is_disabled":false,"rental_uris":{"android":"levelo://app?vid=8bb75740-110f-4d4e-8348-fb9d76c42c05","ios":"levelo://app?vid=8bb75740-110f-4d4e-8348-fb9d76c42c05"},"vehicle_type_id":"4","last_reported":1778701124,"current_range_meters":8000,"station_id":"st_d6tc3vkotcvc738tfjhg","pricing_plan_id":"cebpf4jnsgd1na2vs0mg"},{"bike_id":"6e70dae6-54d0-47a0-93ef-de0e8a081ba0","system_id":"levelo_inurba_marseille","lat":43.30109,"lon":5.37461,"is_reserved":false,"is_disabled":true,"rental_uris":{"android":"levelo://app?vid=6e70dae6-54d0-47a0-93ef-de0e8a081ba0","ios":"levelo://app?vid=6e70dae6-54d0-47a0-93ef-de0e8a081ba0"},"vehicle_type_id":"4","last_reported":1778701124,"current_range_meters":8000,"station_id":"","pricing_plan_id":"cebpf4jnsgd1na2vs0mg"},{"bike_id":"cea33832-e1d0-4bbe-898f-3d20bbd75847","system_id":"levelo_inurba_marseille","lat":43.29608,"lon":5.38106,"is_reserved":false,"is_disabled":false,"rental_uris":{"android":"levelo://app?vid=cea33832-e1d0-4bbe-898f-3d20bbd75847","ios":"levelo://app?vid=cea33832-e1d0-4bbe-898f-3d20bbd75847"},"vehicle_type_id":"4","last_reported":1778701124,"current_range_meters":8000,"station_id":"ce4bgl12rcd13ifvqbo0","pricing_plan_id":"cebpf4jnsgd1na2vs0mg"},{"bike_id":"a837d482-82b4-4861-96d6-d582d4fa0838","system_id":"levelo_inurba_marseille","lat":43.23965,"lon":5.36644,"is_reserved":false,"is_disabled":false,"rental_uris":{"android":"levelo://app?vid=a837d482-82b4-4861-96d6-d582d4fa0838","ios":"levelo://app?vid=a837d482-82b4-4861-96d6-d582d4fa0838"},"vehicle_type_id":"4","last_reported":1778701124,"current_range_meters":8000,"station_id":"ce4bhi12rcd13ifvqfp0","pricing_plan_id":"cebpf4jnsgd1na2vs0mg"},{"bike_id":"1dee72ea-cbbb-4f0f-b373-7962e2bff9d2","system_id":"levelo_inurba_marseille","lat":43.24642,"lon":5.38975,"is_reserved":false,"is_disabled":false,"rental_uris":{"android":"levelo://app?vid=1dee72ea-cbbb-4f0f-b373-7962e2bff9d2","ios":"levelo://app?vid=1dee72ea-cbbb-4f0f-b373-7962e2bff9d2"},"vehicle_type_id":"4","last_reported":1778701124,"current_range_meters":8000,"station_id":"","pricing_plan_id":"cebpf4jnsgd1na2vs0mg"},{"bike_id":"8c213e32-c8d9-4960-bc93-fa01f8be8240","system_id":"levelo_inurba_marseille","lat":43.31063,"lon":5.3719,"is_reserved":false,"is_disabled":false,"rental_uris":{"android":"levelo://app?vid=8c213e32-c8d9-4960-bc93-fa01f8be8240","ios":"levelo://app?vid=8c213e32-c8d9-4960-bc93-fa01f8be8240"},"vehicle_type_id":"4","last_reported":1778701124,"current_range_meters":8400,"station_id":"st_d4kl2rp97mjs73e7tdfg","pricing_plan_id":"cebpf4jnsgd1na2vs0mg"},{"bike_id":"0fd65c31-ddcd-45a0-912c-517bdd224376","system_id":"levelo_inurba_marseille","lat":43.2924,"lon":5.38453,"is_reserved":false,"is_disabled":false,"rental_uris":{"android":"levelo://app?vid=0fd65c31-ddcd-45a0-912c-517bdd224376","ios":"levelo://app?vid=0fd65c31-ddcd-45a0-912c-517bdd224376"},"vehicle_type_id":"4","last_reported":1778701124,"current_range_meters":8400,"station_id":"ce4bh692rcd13ifvqea0","pricing_plan_id":"cebpf4jnsgd1na2vs0mg"},{"bike_id":"35e8ee96-f021-41ee-8a16-5cd416ace246","system_id":"levelo_inurba_marseille","lat":43.28148,"lon":5.42645,"is_reserved":false,"is_disabled":false,"rental_uris":{"android":"levelo://app?vid=35e8ee96-f021-41ee-8a16-5cd416ace246","ios":"levelo://app?vid=35e8ee96-f021-41ee-8a16-5cd416ace246"},"vehicle_type_id":"4","last_reported":1778701124,"current_range_meters":8400,"station_id":"ce4bhnh2rcd13ifvqgug","pricing_plan_id":"cebpf4jnsgd1na2vs0mg"},{"bike_id":"47e5c869-44ea-4944-8239-d9b748d4ca52","system_id":"levelo_inurba_marseille","lat":43.27558,"lon":5.38419,"is_reserved":false,"is_disabled":false,"rental_uris":{"android":"levelo://app?vid=47e5c869-44ea-4944-8239-d9b748d4ca52","ios":"levelo://app?vid=47e5c869-44ea-4944-8239-d9b748d4ca52"},"vehicle_type_id":"4","last_reported":1778701124,"current_range_meters":8400,"station_id":"ce4bhh92rcd13ifvqfi0","pricing_plan_id":"cebpf4jnsgd1na2vs0mg"},{"bike_id":"d42a7cf1-1fa2-40ee-b441-c73427ab11ef","system_id":"levelo_inurba_marseille","lat":43.23975,"lon":5.36618,"is_reserved":false,"is_disabled":false,"rental_uris":{"android":"levelo://app?vid=d42a7cf1-1fa2-40ee-b441-c73427ab11ef","ios":"levelo://app?vid=d42a7cf1-1fa2-40ee-b441-c73427ab11ef"},"vehicle_type_id":"4","last_reported":1778701124,"current_range_meters":8400,"station_id":"ce4bhi12rcd13ifvqfp0","pricing_plan_id":"cebpf4jnsgd1na2vs0mg"},{"bike_id":"3e360de6-20e6-4323-b769-b777116d8d02","system_id":"levelo_inurba_marseille","lat":43.29539,"lon":5.38537,"is_reserved":false,"is_disabled":false,"rental_uris":{"android":"levelo://app?vid=3e360de6-20e6-4323-b769-b777116d8d02","ios":"levelo://app?vid=3e360de6-20e6-4323-b769-b777116d8d02"},"vehicle_type_id":"4","last_reported":1778701124,"current_range_meters":8400,"station_id":"ce4bgih2rcd13ifvqba0","pricing_plan_id":"cebpf4jnsgd1na2vs0mg"},{"bike_id":"7aa15090-ffee-4662-a7ae-19fd31cb266e","system_id":"levelo_inurba_marseille","lat":43.28648,"lon":5.38687,"is_reserved":false,"is_disabled":false,"rental_uris":{"android":"levelo://app?vid=7aa15090-ffee-4662-a7ae-19fd31cb266e","ios":"levelo://app?vid=7aa15090-ffee-4662-a7ae-19fd31cb266e"},"vehicle_type_id":"4","last_reported":1778701124,"current_range_meters":8400,"station_id":"ce4bh492rcd13ifvqdug","pricing_plan_id":"cebpf4jnsgd1na2vs0mg"},{"bike_id":"782dea9d-6a70-488f-94a1-e5617d320473","system_id":"levelo_inurba_marseille","lat":43.29591,"lon":5.36749,"is_reserved":false,"is_disabled":false,"rental_uris":{"android":"levelo://app?vid=782dea9d-6a70-488f-94a1-e5617d320473","ios":"levelo://app?vid=782dea9d-6a70-488f-94a1-e5617d320473"},"vehicle_type_id":"4","last_reported":1778701124,"current_range_meters":8400,"station_id":"ce4bgph2rcd13ifvqc2g","pricing_plan_id":"cebpf4jnsgd1na2vs0mg"},{"bike_id":"0bc3c181-5a56-49f5-a1e7-73368f35dd11","system_id":"levelo_inurba_marseille","lat":43.27368,"lon":5.36248,"is_reserved":false,"is_disabled":false,"rental_uris":{"android":"levelo://app?vid=0bc3c181-5a56-49f5-a1e7-73368f35dd11","ios":"levelo://app?vid=0bc3c181-5a56-49f5-a1e7-73368f35dd11"},"vehicle_type_id":"4","last_reported":1778701124,"current_range_meters":8400,"station_id":"ce4bhbh2rcd13ifvqeo0","pricing_plan_id":"cebpf4jnsgd1na2vs0mg"},{"bike_id":"0da6948a-b597-4317-b926-141efbb7181d","system_id":"levelo_inurba_marseille","lat":43.25491,"lon":5.37657,"is_reserved":false,"is_disabled":false,"rental_uris":{"android":"levelo://app?vid=0da6948a-b597-4317-b926-141efbb7181d","ios":"levelo://app?vid=0da6948a-b597-4317-b926-141efbb7181d"},"vehicle_type_id":"4","last_reported":1778701124,"current_range_meters":8400,"station_id":"ce4bhh12rcd13ifvqff0","pricing_plan_id":"cebpf4jnsgd1na2vs0mg"},{"bike_id":"b4fa7954-cff6-454a-8698-60eb0bbab1eb","system_id":"levelo_inurba_marseille","lat":43.28614,"lon":5.35119,"is_reserved":false,"is_disabled":false,"rental_uris":{"android":"levelo://app?vid=b4fa7954-cff6-454a-8698-60eb0bbab1eb","ios":"levelo://app?vid=b4fa7954-cff6-454a-8698-60eb0bbab1eb"},"vehicle_type_id":"4","last_reported":1778701124,"current_range_meters":8400,"station_id":"ce4bhch2rcd13ifvqeug","pricing_plan_id":"cebpf4jnsgd1na2vs0mg"},{"bike_id":"e7639aa3-651f-4e26-8dc2-eebbc9adb5f8","system_id":"levelo_inurba_marseille","lat":43.24636,"lon":5.38907,"is_reserved":false,"is_disabled":true,"rental_uris":{"android":"levelo://app?vid=e7639aa3-651f-4e26-8dc2-eebbc9adb5f8","ios":"levelo://app?vid=e7639aa3-651f-4e26-8dc2-eebbc9adb5f8"},"vehicle_type_id":"4","last_reported":1778701124,"current_range_meters":8400,"station_id":"ce4bhg12rcd13ifvqf60","pricing_plan_id":"cebpf4jnsgd1na2vs0mg"},{"bike_id":"175d2ecc-03de-490a-b0be-420b83a25287","system_id":"levelo_inurba_marseille","lat":43.29525,"lon":5.3855,"is_reserved":false,"is_disabled":false,"rental_uris":{"android":"levelo://app?vid=175d2ecc-03de-490a-b0be-420b83a25287","ios":"levelo://app?vid=175d2ecc-03de-490a-b0be-420b83a25287"},"vehicle_type_id":"4","last_reported":1778701124,"current_range_meters":8400,"station_id":"ce4bgih2rcd13ifvqba0","pricing_plan_id":"cebpf4jnsgd1na2vs0mg"},