{"last_updated":1739516933,"ttl":60,"version":"2.2","data":{"bikes":[{"bike_id":"162708bb-7ef6-4017-8fbc-573dcb8ec747","system_id":"levelo_inurba_marseille","lat":43.34142,"lon":5.40906,"is_reserved":false,"is_disabled":false,"rental_uris":{"android":"levelo://app?vid=162708bb-7ef6-4017-8fbc-573dcb8ec747","ios":"levelo://app?vid=162708bb-7ef6-4017-8fbc-573dcb8ec747"},"vehicle_type_id":"4","last_reported":1739516933,"current_range_meters":25600,"station_id":"ce4bhqh2rcd13ifvqhlg","pricing_plan_id":"cebpf4jnsgd1na2vs0mg"},{"bike_id":"23c37aa2-d86d-4e05-ba0a-9558b2f6ea2e","system_id":"levelo_inurba_marseille","lat":43.25937,"lon":5.4091,"is_reserved":false,"is_disabled":false,"rental_uris":{"android":"levelo://app?vid=23c37aa2-d86d-4e05-ba0a-9558b2f6ea2e","ios":"levelo://app?vid=23c37aa2-d86d-4e05-ba0a-9558b2f6ea2e"},"vehicle_type_id":"4","last_reported":1739516933,"current_range_meters":33600,"station_id":"ce4bhm92rcd13ifvqglg","pricing_plan_id":"cebpf4jnsgd1na2vs0mg"},{"bike_id":"fabe0dc0-e9b8-4510-811e-856b5cccb082","system_id":"levelo_inurba_marseille","lat":43.25505,"lon":5.37657,"is_reserved":false,"is_disabled":true,"rental_uris":{"android":"levelo://app?vid=fabe0dc0-e9b8-4510-811e-856b5cccb082","ios":"levelo://app?vid=fabe0dc0-e9b8-4510-811e-856b5cccb082"},"vehicle_type_id":"4","last_reported":1739516933,"current_range_meters":38000,"station_id":"ce4bhh12rcd13ifvqff0","pricing_plan_id":"cebpf4jnsgd1na2vs0mg"},{"bike_id":"8de44643-9c65-479b-92b5-27d16e23072f","system_id":"levelo_inurba_marseille","lat":43.22928,"lon":5.353815,"is_reserved":false,"is_disabled":false,"rental_uris":{"android":"levelo://app?vid=8de44643-9c65-479b-92b5-27d16e23072f","ios":"levelo://app?vid=8de44643-9c65-479b-92b5-27d16e23072f"},"vehicle_type_id":"4","last_reported":1739516933,"current_range_meters":38000,"station_id":"cpo3532slgdg3j2ikp40","pricing_plan_id":"cebpf4jnsgd1na2vs0mg"},{"bike_id":"cbe1212c-5034-48c9-a46a-1647b28b6c2d","system_id":"levelo_inurba_marseille","lat":43.28317,"lon":5.38118,"is_reserved":false,"is_disabled":true,"rental_uris":{"android":"levelo://app?vid=cbe1212c-5034-48c9-a46a-1647b28b6c2d","ios":"levelo://app?vid=cbe1212c-5034-48c9-a46a-1647b28b6c2d"},"vehicle_type_id":"4","last_reported":1739516933,"current_range_meters":34000,"station_id":"ce4bh412rcd13ifvqdr0","pricing_plan_id":"cebpf4jnsgd1na2vs0mg"},{"bike_id":"74b88b07-23bd-4dcd-aea6-19664a84e9b6","system_id":"levelo_inurba_marseille","lat":43.287021,"lon":5.399857,"is_reserved":false,"is_disabled":false,"rental_uris":{"android":"levelo://app?vid=74b88b07-23bd-4dcd-aea6-19664a84e9b6","ios":"levelo://app?vid=74b88b07-23bd-4dcd-aea6-19664a84e9b6"},"vehicle_type_id":"4","last_reported":1739516933,"current_range_meters":23200,"station_id":"ce4bho92rcd13ifvqh3g","pricing_plan_id":"cebpf4jnsgd1na2vs0mg"},{"bike_id":"68226932-c6f0-4ec0-a130-8a216e63b2ce","system_id":"levelo_inurba_marseille","lat":43.284134,"lon":5.375236,"is_reserved":false,"is_disabled":false,"rental_uris":{"android":"levelo://app?vid=68226932-c6f0-4ec0-a130-8a216e63b2ce","ios":"levelo://app?vid=68226932-c6f0-4ec0-a130-8a216e63b2ce"},"vehicle_type_id":"4","last_reported":1739516933,"current_range_meters":30000,"station_id":"ce4bh412rcd13ifvqds0","pricing_plan_id":"cebpf4jnsgd1na2vs0mg"},{"bike_id":"1d4165b9-e8af-42e7-8e88-54a0f84b4f26","system_id":"levelo_inurba_marseille","lat":43.23198,"lon":5.39975,"is_reserved":false,"is_disabled":false,"rental_uris":{"android":"levelo://app?vid=1d4165b9-e8af-42e7-8e88-54a0f84b4f26","ios":"levelo://app?vid=1d4165b9-e8af-42e7-8e88-54a0f84b4f26"},"vehicle_type_id":"4","last_reported":1739516933,"current_range_meters":30800,"station_id":"ce4bhn12rcd13ifvqgqg","pricing_plan_id":"cebpf4jnsgd1na2vs0mg"},{"bike_id":"bf46de10-7c63-4fab-a484-f7df83630723","system_id":"levelo_inurba_marseille","lat":43.251155,"lon":5.403221,"is_reserved":false,"is_disabled":false,"rental_uris":{"android":"levelo://app?vid=bf46de10-7c63-4fab-a484-f7df83630723","ios":"levelo://app?vid=bf46de10-7c63-4fab-a484-f7df83630723"},"vehicle_type_id":"4","last_reported":1739516933,"current_range_meters":18000,"station_id":"ce4bhlh2rcd13ifvqgig","pricing_plan_id":"cebpf4jnsgd1na2vs0mg"},{"bike_id":"e8887aed-fddd-4b96-bc9f-849d198fae08","system_id":"levelo_inurba_marseille","lat":43.25583,"lon":5.38257,"is_reserved":false,"is_disabled":false,"rental_uris":{"android":"levelo://app?vid=e8887aed-fddd-4b96-bc9f-849d198fae08","ios":"levelo://app?vid=e8887aed-fddd-4b96-bc9f-849d198fae08"},"vehicle_type_id":"4","last_reported":1739516933,"current_range_meters":10000,"station_id":"ce4bhih2rcd13ifvqfs0","pricing_plan_id":"cebpf4jnsgd1na2vs0mg"},{"bike_id":"3d55dfbc-79dc-4a16-8c46-cf49fec8982e","system_id":"levelo_inurba_marseille","lat":43.24389,"lon":5.37059,"is_reserved":false,"is_disabled":false,"rental_uris":{"android":"levelo://app?vid=3d55dfbc-79dc-4a16-8c46-cf49fec8982e","ios":"levelo://app?vid=3d55dfbc-79dc-4a16-8c46-cf49fec8982e"},"vehicle_type_id":"4","last_reported":1739516933,"current_range_meters":38000,"station_id":"ce4bhhh2rcd13ifvqfk0","pricing_plan_id":"cebpf4jnsgd1na2vs0mg"},{"bike_id":"115871b7-7259-4686-9175-45074f2e5cd6","system_id":"levelo_inurba_marseille","lat":43.27209,"lon":5.39184,"is_reserved":false,"is_disabled":true,"rental_uris":{"android":"levelo://app?vid=115871b7-7259-4686-9175-45074f2e5cd6","ios":"levelo://app?vid=115871b7-7259-4686-9175-45074f2e5cd6"},"vehicle_type_id":"4","last_reported":1739516933,"current_range_meters":0,"station_id":"ce4bhhp2rcd13ifvqfm0","pricing_plan_id":"cebpf4jnsgd1na2vs0mg"},{"bike_id":"a82b5847-bbd9-4c72-9bb9-b927d0f66304","system_id":"levelo_inurba_marseille","lat":43.30799,"lon":5.37652,"is_reserved":false,"is_disabled":false,"rental_uris":{"android":"levelo://app?vid=a82b5847-bbd9-4c72-9bb9-b927d0f66304","ios":"levelo://app?vid=a82b5847-bbd9-4c72-9bb9-b927d0f66304"},"vehicle_type_id":"4","last_reported":1739516933,"current_range_meters":24000,"station_id":"ce4bgv92rcd13ifvqcq0","pricing_plan_id":"cebpf4jnsgd1na2vs0mg"},{"bike_id":"8390feee-0735-4b8f-90c8-f81c741ca7d5","system_id":"levelo_inurba_marseille","lat":43.24806,"lon":5.37469,"is_reserved":false,"is_disabled":false,"rental_uris":{"android":"levelo://app?vid=8390feee-0735-4b8f-90c8-f81c741ca7d5","ios":"levelo://app?vid=8390feee-0735-4b8f-90c8-f81c741ca7d5"},"vehicle_type_id":"4","last_reported":1739516933,"current_range_meters":36000,"station_id":"ce4bhgh2rcd13ifvqfb0","pricing_plan_id":"cebpf4jnsgd1na2vs0mg"},{"bike_id":"d75c0598-f170-4aa3-b916-db7f188f9880","system_id":"levelo_inurba_marseille","lat":43.25448,"lon":5.41696,"is_reserved":false,"is_disabled":false,"rental_uris":{"android":"levelo://app?vid=d75c0598-f170-4aa3-b916-db7f188f9880","ios":"levelo://app?vid=d75c0598-f170-4aa3-b916-db7f188f9880"},"vehicle_type_id":"4","last_reported":1739516933,"current_range_meters":9200,"station_id":"","pricing_plan_id":"cebpf4jnsgd1na2vs0mg"},{"bike_id":"419461ff-c02a-44f5-8ced-15bda10c4fdc","system_id":"levelo_inurba_marseille","lat":43.29795,"lon":5.39346,"is_reserved":false,"is_disabled":false,"rental_uris":{"android":"levelo://app?vid=419461ff-c02a-44f5-8ced-15bda10c4fdc","ios":"levelo://app?vid=419461ff-c02a-44f5-8ced-15bda10c4fdc"},"vehicle_type_id":"4","last_reported":1739516933,"current_range_meters":38400,"station_id":"chh1huq6cuj3fo74tm60","pricing_plan_id":"cebpf4jnsgd1na2vs0mg"},{"bike_id":"6b42f4f1-2360-420a-81a5-fa8f868ac30d","system_id":"levelo_inurba_marseille","lat":43.27214,"lon":5.39037,"is_reserved":false,"is_disabled":false,"rental_uris":{"android":"levelo://app?vid=6b42f4f1-2360-420a-81a5-fa8f868ac30d","ios":"levelo://app?vid=6b42f4f1-2360-420a-81a5-fa8f868ac30d"},"vehicle_type_id":"4","last_reported":1739516933,"current_range_meters":38000,"station_id":"","pricing_plan_id":"cebpf4jnsgd1na2vs0mg"},{"bike_id":"c5d83290-7e41-4747-be49-5a88384d605e","system_id":"levelo_inurba_marseille","lat":43.28495,"lon":5.38529,"is_reserved":false,"is_disabled":true,"rental_uris":{"android":"levelo://app?vid=c5d83290-7e41-4747-be49-5a88384d605e","ios":"levelo://app?vid=c5d83290-7e41-4747-be49-5a88384d605e"},"vehicle_type_id":"4","last_reported":1739516933,"current_range_meters":20800,"station_id":"ce4bh8p2rcd13ifvqeb0","pricing_plan_id":"cebpf4jnsgd1na2vs0mg"},{"bike_id":"56192679-cc8f-4f99-a19c-ed0875b3f321","system_id":"levelo_inurba_marseille","lat":43.31718,"lon":5.42421,"is_reserved":false,"is_disabled":false,"rental_uris":{"android":"levelo://app?vid=56192679-cc8f-4f99-a19c-ed0875b3f321","ios":"levelo://app?vid=56192679-cc8f-4f99-a19c-ed0875b3f321"},"vehicle_type_id":"4","last_reported":1739516933,"current_range_meters":38800,"station_id":"ce4bhp92rcd13ifvqhbg","pricing_plan_id":"cebpf4jnsgd1na2vs0mg"},{"bike_id":"1e93ede2-dad8-4287-ad3b-954fc9b3cf80","system_id":"levelo_inurba_marseille","lat":43.31368,"lon":5.38516,"is_reserved":false,"is_disabled":false,"rental_uris":{"android":"levelo://app?vid=1e93ede2-dad8-4287-ad3b-954fc9b3cf80","ios":"levelo://app?vid=1e93ede2-dad8-4287-ad3b-954fc9b3cf80"},"vehicle_type_id":"4","last_reported":1739516933,"current_range_meters":8800,"station_id":"ce4bgt92rcd13ifvqcf0","pricing_plan_id":"cebpf4jnsgd1na2vs0mg"},{"bike_id":"b09f54a7-16e7-4ffa-b2d1-3540c9a254de","system_id":"levelo_inurba_marseille","lat":43.28857,"lon":5.35854,"is_reserved":false,"is_disabled":false,"rental_uris":{"android":"levelo://app?vid=b09f54a7-16e7-4ffa-b2d1-3540c9a254de","ios":"levelo://app?vid=b09f54a7-16e7-4ffa-b2d1-3540c9a254de"},"vehicle_type_id":"4","last_reported":1739516933,"current_range_meters":35200,"station_id":"ce4bhb12rcd13ifvqem0","pricing_plan_id":"cebpf4jnsgd1na2vs0mg"},{"bike_id":"b34c6303-752a-46a1-93ad-ddbc991e20b6","system_id":"levelo_inurba_marseille","lat":43.23071,"lon":5.35514,"is_reserved":false,"is_disabled":false,"rental_uris":{"android":"levelo://app?vid=b34c6303-752a-46a1-93ad-ddbc991e20b6","ios":"levelo://app?vid=b34c6303-752a-46a1-93ad-ddbc991e20b6"},"vehicle_type_id":"4","last_reported":1739516933,"current_range_meters":6400,"station_id":"cpo3342slgdg3j2ifvpg","pricing_plan_id":"cebpf4jnsgd1na2vs0mg"},{"bike_id":"f4297ec3-a745-470f-8379-4a2b1e421801","system_id":"levelo_inurba_marseille","lat":43.290382,"lon":5.359109,"is_reserved":false,"is_disabled":true,"rental_uris":{"android":"levelo://app?vid=f4297ec3-a745-470f-8379-4a2b1e421801","ios":"levelo://app?vid=f4297ec3-a745-470f-8379-4a2b1e421801"},"vehicle_type_id":"4","last_reported":1739516933,"current_range_meters":38400,"station_id":"ce4bha92rcd13ifvqeg0","pricing_plan_id":"cebpf4jnsgd1na2vs0mg"},{"bike_id":"7c814e09-a8f8-48c3-ae10-7d1fadb63c08","system_id":"levelo_inurba_marseille","lat":43.3014,"lon":5.37419,"is_reserved":false,"is_disabled":false,"rental_uris":{"android":"levelo://app?vid=7c814e09-a8f8-48c3-ae10-7d1fadb63c08","ios":"levelo://app?vid=7c814e09-a8f8-48c3-ae10-7d1fadb63c08"},"vehicle_type_id":"4","last_reported":1739516933,"current_range_meters":24400,"station_id":"ce4bgs92rcd13ifvqcc0","pricing_plan_id":"cebpf4jnsgd1na2vs0mg"},{"bike_id":"5d9be53a-98dc-4ebc-8789-5594b7be7bc7","system_id":"levelo_inurba_marseille","lat":43.31318,"lon":5.39711,"is_reserved":false,"is_disabled":false,"rental_uris":{"android":"levelo://app?vid=5d9be53a-98dc-4ebc-8789-5594b7be7bc7","ios":"levelo://app?vid=5d9be53a-98dc-4ebc-8789-5594b7be7bc7"},"vehicle_type_id":"4","last_reported":1739516933,"current_range_meters":34800,"station_id":"ce4bgvp2rcd13ifvqcu0","pricing_plan_id":"cebpf4jnsgd1na2vs0mg"},{"bike_id":"a6d22002-9977-46ab-96b3-9865bfd1ef0e","system_id":"levelo_inurba_marseille","lat":43.32474,"lon":5.36566,"is_reserved":false,"is_disabled":false,"rental_uris":{"android":"levelo://app?vid=a6d22002-9977-46ab-96b3-9865bfd1ef0e","ios":"levelo://app?vid=a6d22002-9977-46ab-96b3-9865bfd1ef0e"},"vehicle_type_id":"4","last_reported":1739516933,"current_range_meters":38800,"station_id":"ce4bhs12rcd13ifvqhvg","pricing_plan_id":"cebpf4jnsgd1na2vs0mg"},{"bike_id":"fe7e5d39-02bf-4d77-8679-c12a541ced1e","system_id":"levelo_inurba_marseille","lat":43.28948,"lon":5.39624,"is_reserved":false,"is_disabled":false,"rental_uris":{"android":"levelo://app?vid=fe7e5d39-02bf-4d77-8679-c12a541ced1e","ios":"levelo://app?vid=fe7e5d39-02bf-4d77-8679-c12a541ced1e"},"vehicle_type_id":"4","last_reported":1739516933,"current_range_meters":39200,"station_id":"ce4bh3h2rcd13ifvqdn0","pricing_plan_id":"cebpf4jnsgd1na2vs0mg"},{"bike_id":"d88723f8-71d7-4769-b728-3355d8d1e938","system_id":"levelo_inurba_marseille","lat":43.28943,"lon":5.36642,"is_reserved":false,"is_disabled":false,"rental_uris":{"android":"levelo://app?vid=d88723f8-71d7-4769-b728-3355d8d1e938","ios":"levelo://app?vid=d88723f8-71d7-4769-b728-3355d8d1e938"},"vehicle_type_id":"4","last_reported":1739516933,"current_range_meters":32800,"station_id":"ce4bhap2rcd13ifvqek0","pricing_plan_id":"cebpf4jnsgd1na2vs0mg"},{"bike_id":"f70b2f82-580a-48dc-a562-9ab074b1bd2b","system_id":"levelo_inurba_marseille","lat":43.24649,"lon":5.38891,"is_reserved":false,"is_disabled":false,"rental_uris":{"android":"levelo://app?vid=f70b2f82-580a-48dc-a562-9ab074b1bd2b","ios":"levelo://app?vid=f70b2f82-580a-48dc-a562-9ab074b1bd2b"},"vehicle_type_id":"4","last_reported":1739516933,"current_range_meters":23200,"station_id":"ce4bhg12rcd13ifvqf60","pricing_plan_id":"cebpf4jnsgd1na2vs0mg"},{"bike_id":"5b94872e-e8e0-48b1-a4f8-764a45f452f2","system_id":"levelo_inurba_marseille","lat":43.30568,"lon":5.36735,"is_reserved":false,"is_disabled":false,"rental_uris":{"android":"levelo://app?vid=5b94872e-e8e0-48b1-a4f8-764a45f452f2","ios":"levelo://app?vid=5b94872e-e8e0-48b1-a4f8-764a45f452f2"},"vehicle_type_id":"4","last_reported":1739516933,"current_range_meters":39200,"station_id":"ce4bgrp2rcd13ifvqc9g","pricing_plan_id":"cebpf4jnsgd1na2vs0mg"},{"bike_id":"50e5a0ed-9431-4dbe-b952-8e5f0c3fa8c6","system_id":"levelo_inurba_marseille","lat":43.29038,"lon":5.35925,"is_reserved":false,"is_disabled":false,"rental_uris":{"android":"levelo://app?vid=50e5a0ed-9431-4dbe-b952-8e5f0c3fa8c6","ios":"levelo://app?vid=50e5a0ed-9431-4dbe-b952-8e5f0c3fa8c6"},"vehicle_type_id":"4","last_reported":1739516933,"current_range_meters":27600,"station_id":"ce4bha92rcd13ifvqeg0","pricing_plan_id":"cebpf4jnsgd1na2vs0mg"},{"bike_id":"2a7fbfda-36d8-455b-955d-63e67c8c1e23","system_id":"levelo_inurba_marseille","lat":43.30915,"lon":5.44044,"is_reserved":false,"is_disabled":false,"rental_uris":{"android":"levelo://app?vid=2a7fbfda-36d8-455b-955d-63e67c8c1e23","ios":"levelo://app?vid=2a7fbfda-36d8-455b-955d-63e67c8c1e23"},"vehicle_type_id":"4","last_reported":1739516933,"current_range_meters":26800,"station_id":"","pricing_plan_id":"cebpf4jnsgd1na2vs0mg"},{"bike_id":"3c94bbd2-975f-4b09-ac6e-8466a000999d","system_id":"levelo_inurba_marseille","lat":43.33598,"lon":5.41064,"is_reserved":false,"is_disabled":false,"rental_uris":{"android":"levelo://app?vid=3c94bbd2-975f-4b09-ac6e-8466a000999d","ios":"levelo://app?vid=3c94bbd2-975f-4b09-ac6e-8466a000999d"},"vehicle_type_id":"4","last_reported":1739516933,"current_range_meters":39200,"station_id":"ce4bhqh2rcd13ifvqhmg","pricing_plan_id":"cebpf4jnsgd1na2vs0mg"},{"bike_id":"670d8b79-cf37-4bf6-9297-ca0919e71705","system_id":"levelo_inurba_marseille","lat":43.30545,"lon":5.38429,"is_reserved":false,"is_disabled":true,"rental_uris":{"android":"levelo://app?vid=670d8b79-cf37-4bf6-9297-ca0919e71705","ios":"levelo://app?vid=670d8b79-cf37-4bf6-9297-ca0919e71705"},"vehicle_type_id":"4","last_reported":1739516933,"current_range_meters":32400,"station_id":"ce4bgg92rcd13ifvqb30","pricing_plan_id":"cebpf4jnsgd1na2vs0mg"},{"bike_id":"4004e863-e0ca-4122-9424-ab9f70e142e6","system_id":"levelo_inurba_marseille","lat":43.31651,"lon":5.39679,"is_reserved":false,"is_disabled":false,"rental_uris":{"android":"levelo://app?vid=4004e863-e0ca-4122-9424-ab9f70e142e6","ios":"levelo://app?vid=4004e863-e0ca-4122-9424-ab9f70e142e6"},"vehicle_type_id":"4","last_reported":1739516933,"current_range_meters":24400,"station_id":"","pricing_plan_id":"cebpf4jnsgd1na2vs0mg"},{"bike_id":"ad9b5912-f329-4b7c-b1ff-512cdba8e36d","system_id":"levelo_inurba_marseille","lat":43.293,"lon":5.43467,"is_reserved":false,"is_disabled":false,"rental_uris":{"android":"levelo://app?vid=ad9b5912-f329-4b7c-b1ff-512cdba8e36d","ios":"levelo://app?vid=ad9b5912-f329-4b7c-b1ff-512cdba8e36d"},"vehicle_type_id":"4","last_reported":1739516933,"current_range_meters":30800,"station_id":"","pricing_plan_id":"cebpf4jnsgd1na2vs0mg"},{"bike_id":"a976e7ac-6155-4dcb-8d3a-9fd779764b7a","system_id":"levelo_inurba_marseille","lat":43.27826,"lon":5.39222,"is_reserved":false,"is_disabled":false,"rental_uris":{"android":"levelo://app?vid=a976e7ac-6155-4dcb-8d3a-9fd779764b7a","ios":"levelo://app?vid=a976e7ac-6155-4dcb-8d3a-9fd779764b7a"},"vehicle_type_id":"4","last_reported":1739516933,"current_range_meters":38800,"station_id":"ce4bhjp2rcd13ifvqga0","pricing_plan_id":"cebpf4jnsgd1na2vs0mg"},{"bike_id":"38e50440-f74d-4300-90a5-919b98e4d9d9","system_id":"levelo_inurba_marseille","lat":43.30869,"lon":5.37193,"is_reserved":false,"is_disabled":false,"rental_uris":{"android":"levelo://app?vid=38e50440-f74d-4300-90a5-919b98e4d9d9","ios":"levelo://app?vid=38e50440-f74d-4300-90a5-919b98e4d9d9"},"vehicle_type_id":"4","last_reported":1739516933,"current_range_meters":39200,"station_id":"ce4bguh2rcd13ifvqckg","pricing_plan_id":"cebpf4jnsgd1na2vs0mg"},{"bike_id":"e4d14330-222d-46d5-8f26-efec567da29c","system_id":"levelo_inurba_marseille","lat":43.286141,"lon":5.351017,"is_reserved":false,"is_disabled":false,"rental_uris":{"android":"levelo://app?vid=e4d14330-222d-46d5-8f26-efec567da29c","ios":"levelo://app?vid=e4d14330-222d-46d5-8f26-efec567da29c"},"vehicle_type_id":"4","last_reported":1739516933,"current_range_meters":38000,"station_id":"ce4bhch2rcd13ifvqeug","pricing_plan_id":"cebpf4jnsgd1na2vs0mg"},{"bike_id":"7e06e853-47c2-45ff-8474-aa94e54a8ef7","system_id":"levelo_inurba_marseille","lat":43.29043,"lon":5.39958,"is_reserved":false,"is_disabled":false,"rental_uris":{"android":"levelo://app?vid=7e06e853-47c2-45ff-8474-aa94e54a8ef7","ios":"levelo://app?vid=7e06e853-47c2-45ff-8474-aa94e54a8ef7"},"vehicle_type_id":"4","last_reported":1739516933,"current_range_meters":38400,"station_id":"ce4bh392rcd13ifvqdm0","pricing_plan_id":"cebpf4jnsgd1na2vs0mg"},{"bike_id":"f92e748a-9f9b-4e54-8084-07e33515f3d5","system_id":"levelo_inurba_marseille","lat":43.27072,"lon":5.39343,"is_reserved":false,"is_disabled":true,"rental_uris":{"android":"levelo://app?vid=f92e748a-9f9b-4e54-8084-07e33515f3d5","ios":"levelo://app?vid=f92e748a-9f9b-4e54-8084-07e33515f3d5"},"vehicle_type_id":"4","last_reported":1739516933,"current_range_meters":0,"station_id":"","pricing_plan_id":"cebpf4jnsgd1na2vs0mg"},{"bike_id":"03f1ee11-be7f-45e6-a171-a893130e88b6","system_id":"levelo_inurba_marseille","lat":43.290006,"lon":5.356158,"is_reserved":false,"is_disabled":true,"rental_uris":{"android":"levelo://app?vid=03f1ee11-be7f-45e6-a171-a893130e88b6","ios":"levelo://app?vid=03f1ee11-be7f-45e6-a171-a893130e88b6"},"vehicle_type_id":"4","last_reported":1739516933,"current_range_meters":36800,"station_id":"ce4bhb92rcd13ifvqen0","pricing_plan_id":"cebpf4jnsgd1na2vs0mg"},{"bike_id":"704ec19d-e7c0-4858-a423-dcfa560220a5","system_id":"levelo_inurba_marseille","lat":43.231829,"lon":5.399826,"is_reserved":false,"is_disabled":false,"rental_uris":{"android":"levelo://app?vid=704ec19d-e7c0-4858-a423-dcfa560220a5","ios":"levelo://app?vid=704ec19d-e7c0-4858-a423-dcfa560220a5"},"vehicle_type_id":"4","last_reported":1739516933,"current_range_meters":34800,"station_id":"ce4bhn12rcd13ifvqgqg","pricing_plan_id":"cebpf4jnsgd1na2vs0mg"},{"bike_id":"5c31f567-3052-407e-90e7-b0ad6252e100","system_id":"levelo_inurba_marseille","lat":43.30126,"lon":5.39884,"is_reserved":false,"is_disabled":true,"rental_uris":{"android":"levelo://app?vid=5c31f567-3052-407e-90e7-b0ad6252e100","ios":"levelo://app?vid=5c31f567-3052-407e-90e7-b0ad6252e100"},"vehicle_type_id":"4","last_reported":1739516933,"current_range_meters":38800,"station_id":"ce4bh0h2rcd13ifvqd40","pricing_plan_id":"cebpf4jnsgd1na2vs0mg"},{"bike_id":"3b65282a-f1d0-4275-aeb0-d72b1002d850","system_id":"levelo_inurba_marseille","lat":43.30149,"lon":5.3742,"is_reserved":false,"is_disabled":false,"rental_uris":{"android":"levelo://app?vid=3b65282a-f1d0-4275-aeb0-d72b1002d850","ios":"levelo://app?vid=3b65282a-f1d0-4275-aeb0-d72b1002d850"},"vehicle_type_id":"4","last_reported":1739516933,"current_range_meters":38800,"station_id":"ce4bgs92rcd13ifvqcc0","pricing_plan_id":"cebpf4jnsgd1na2vs0mg"},{"bike_id":"a8097534-6aa2-41d5-91e4-b7587e1ec40b","system_id":"levelo_inurba_marseille","lat":43.32536,"lon":5.41427,"is_reserved":false,"is_disabled":false,"rental_uris":{"android":"levelo://app?vid=a8097534-6aa2-41d5-91e4-b7587e1ec40b","ios":"levelo://app?vid=a8097534-6aa2-41d5-91e4-b7587e1ec40b"},"vehicle_type_id":"4","last_reported":1739516933,"current_range_meters":13600,"station_id":"ce4bhq12rcd13ifvqhhg","pricing_plan_id":"cebpf4jnsgd1na2vs0mg"},{"bike_id":"9ffe0681-9ede-4d8e-8df5-acca9b5ea6d7","system_id":"levelo_inurba_marseille","lat":43.29251,"lon":5.40917,"is_reserved":false,"is_disabled":false,"rental_uris":{"android":"levelo://app?vid=9ffe0681-9ede-4d8e-8df5-acca9b5ea6d7","ios":"levelo://app?vid=9ffe0681-9ede-4d8e-8df5-acca9b5ea6d7"},"vehicle_type_id":"4","last_reported":1739516933,"current_range_meters":38000,"station_id":"ce4bh192rcd13ifvqdc0","pricing_plan_id":"cebpf4jnsgd1na2vs0mg"},{"bike_id":"5e354ef9-9e17-4f62-b0c6-2b400de36972","system_id":"levelo_inurba_marseille","lat":43.25573,"lon":5.38243,"is_reserved":false,"is_disabled":false,"rental_uris":{"android":"levelo://app?vid=5e354ef9-9e17-4f62-b0c6-2b400de36972","ios":"levelo://app?vid=5e354ef9-9e17-4f62-b0c6-2b400de36972"},"vehicle_type_id":"4","last_reported":1739516933,"current_range_meters":26000,"station_id":"ce4bhih2rcd13ifvqfs0","pricing_plan_id":"cebpf4jnsgd1na2vs0mg"},{"bike_id":"9cf8e6d9-67b8-441b-8ab4-08ef8560d2b0","system_id":"levelo_inurba_marseille","lat":43.33514,"lon":5.35585,"is_reserved":false,"is_disabled":true,"rental_uris":{"android":"levelo://app?vid=9cf8e6d9-67b8-441b-8ab4-08ef8560d2b0","ios":"levelo://app?vid=9cf8e6d9-67b8-441b-8ab4-08ef8560d2b0"},"vehicle_type_id":"4","last_reported":1739516933,"current_range_meters":0,"station_id":"","pricing_plan_id":"cebpf4jnsgd1na2vs0mg"},{"bike_id":"7a3720dd-298c-4d87-91ef-5d83e7db7658","system_id":"levelo_inurba_marseille","lat":43.240778,"lon":5.377463,"is_reserved":false,"is_disabled":false,"rental_uris":{"android":"levelo://app?vid=7a3720dd-298c-4d87-91ef-5d83e7db7658","ios":"levelo://app?vid=7a3720dd-298c-4d87-91ef-5d83e7db7658"},"vehicle_type_id":"4","last_reported":1739516933,"current_range_meters":38400,"station_id":"ce4bhnp2rcd13ifvqgvg","pricing_plan_id":"cebpf4jnsgd1na2vs0mg"},{"bike_id":"6279f888-1d4b-4ebb-b3f2-c7248902b00f","system_id":"levelo_inurba_marseille","lat":43.25491,"lon":5.3766,"is_reserved":false,"is_disabled":false,"rental_uris":{"android":"levelo://app?vid=6279f888-1d4b-4ebb-b3f2-c7248902b00f","ios":"levelo://app?vid=6279f888-1d4b-4ebb-b3f2-c7248902b00f"},"vehicle_type_id":"4","last_reported":1739516933,"current_range_meters":18000,"station_id":"ce4bhh12rcd13ifvqff0","pricing_plan_id":"cebpf4jnsgd1na2vs0mg"},{"bike_id":"ab4c983f-8a50-4c35-9ac5-504956717998","system_id":"levelo_inurba_marseille","lat":43.289345,"lon":5.363988,"is_reserved":false,"is_disabled":false,"rental_uris":{"android":"levelo://app?vid=ab4c983f-8a50-4c35-9ac5-504956717998","ios":"levelo://app?vid=ab4c983f-8a50-4c35-9ac5-504956717998"},"vehicle_type_id":"4","last_reported":1739516933,"current_range_meters":38000,"station_id":"ce4bhc92rcd13ifvqetg","pricing_plan_id":"cebpf4jnsgd1na2vs0mg"},{"bike_id":"3dac6192-3123-4c95-afea-ba492f5c9f4e","system_id":"levelo_inurba_marseille","lat":43.32675,"lon":5.43108,"is_reserved":false,"is_disabled":false,"rental_uris":{"android":"levelo://app?vid=3dac6192-3123-4c95-afea-ba492f5c9f4e","ios":"levelo://app?vid=3dac6192-3123-4c95-afea-ba492f5c9f4e"},"vehicle_type_id":"4","last_reported":1739516933,"current_range_meters":30800,"station_id":"","pricing_plan_id":"cebpf4jnsgd1na2vs0mg"},{"bike_id":"c0c875a4-5c95-4254-a403-0897218cf352","system_id":"levelo_inurba_marseille","lat":43.28264,"lon":5.35082,"is_reserved":false,"is_disabled":false,"rental_uris":{"android":"levelo://app?vid=c0c875a4-5c95-4254-a403-0897218cf352","ios":"levelo://app?vid=c0c875a4-5c95-4254-a403-0897218cf352"},"vehicle_type_id":"4","last_reported":1739516933,"current_range_meters":38400,"station_id":"ce4bhbp2rcd13ifvqerg","pricing_plan_id":"cebpf4jnsgd1na2vs0mg"},{"bike_id":"c5203c0d-7bab-469e-a249-6dee65b4f39e","system_id":"levelo_inurba_marseille","lat":43.33609,"lon":5.41037,"is_reserved":false,"is_disabled":false,"rental_uris":{"android":"levelo://app?vid=c5203c0d-7bab-469e-a249-6dee65b4f39e","ios":"levelo://app?vid=c5203c0d-7bab-469e-a249-6dee65b4f39e"},"vehicle_type_id":"4","last_reported":1739516933,"current_range_meters":22800,"station_id":"ce4bhqh2rcd13ifvqhmg","pricing_plan_id":"cebpf4jnsgd1na2vs0mg"},{"bike_id":"4b52c719-bf05-47bb-badd-687e6eb72a19","system_id":"levelo_inurba_marseille","lat":43.24656,"lon":5.38179,"is_reserved":false,"is_disabled":false,"rental_uris":{"android":"levelo://app?vid=4b52c719-bf05-47bb-badd-687e6eb72a19","ios":"levelo://app?vid=4b52c719-bf05-47bb-badd-687e6eb72a19"},"vehicle_type_id":"4","last_reported":1739516933,"current_range_meters":36800,"station_id":"ce4bhih2rcd13ifvqfr0","pricing_plan_id":"cebpf4jnsgd1na2vs0mg"},{"bike_id":"54ed897e-fdc9-469e-8750-6e9e47d159a7","system_id":"levelo_inurba_marseille","lat":43.29621,"lon":5.40596,"is_reserved":false,"is_disabled":true,"rental_uris":{"android":"levelo://app?vid=54ed897e-fdc9-469e-8750-6e9e47d159a7","ios":"levelo://app?vid=54ed897e-fdc9-469e-8750-6e9e47d159a7"},"vehicle_type_id":"4","last_reported":1739516933,"current_range_meters":800,"station_id":"ce4bh0h2rcd13ifvqd60","pricing_plan_id":"cebpf4jnsgd1na2vs0mg"},{"bike_id":"3ac2b6e7-d6e3-45a2-9861-45249de36810","system_id":"levelo_inurba_marseille","lat":43.2903,"lon":5.38632,"is_reserved":false,"is_disabled":false,"rental_uris":{"android":"levelo://app?vid=3ac2b6e7-d6e3-45a2-9861-45249de36810","ios":"levelo://app?vid=3ac2b6e7-d6e3-45a2-9861-45249de36810"},"vehicle_type_id":"4","last_reported":1739516933,"current_range_meters":6400,"station_id":"ce4bh4p2rcd13ifvqe0g","pricing_plan_id":"cebpf4jnsgd1na2vs0mg"},{"bike_id":"51ab7186-5043-4bed-baca-73708608a302","system_id":"levelo_inurba_marseille","lat":43.29584,"lon":5.37026,"is_reserved":false,"is_disabled":true,"rental_uris":{"android":"levelo://app?vid=51ab7186-5043-4bed-baca-73708608a302","ios":"levelo://app?vid=51ab7186-5043-4bed-baca-73708608a302"},"vehicle_type_id":"4","last_reported":1739516933,"current_range_meters":0,"station_id":"","pricing_plan_id":"cebpf4jnsgd1na2vs0mg"},{"bike_id":"0a091e32-861c-4a90-ba8d-79373292393c","system_id":"levelo_inurba_marseille","lat":43.27622,"lon":5.36095,"is_reserved":false,"is_disabled":false,"rental_uris":{"android":"levelo://app?vid=0a091e32-861c-4a90-ba8d-79373292393c","ios":"levelo://app?vid=0a091e32-861c-4a90-ba8d-79373292393c"},"vehicle_type_id":"4","last_reported":1739516933,"current_range_meters":6800,"station_id":"ce4bgj92rcd13ifvqbe0","pricing_plan_id":"cebpf4jnsgd1na2vs0mg"},{"bike_id":"d3fc5f7e-9983-4343-a9af-f36df7d45f29","system_id":"levelo_inurba_marseille","lat":43.23187,"lon":5.39974,"is_reserved":false,"is_disabled":false,"rental_uris":{"android":"levelo://app?vid=d3fc5f7e-9983-4343-a9af-f36df7d45f29","ios":"levelo://app?vid=d3fc5f7e-9983-4343-a9af-f36df7d45f29"},"vehicle_type_id":"4","last_reported":1739516933,"current_range_meters":21600,"station_id":"ce4bhn12rcd13ifvqgqg","pricing_plan_id":"cebpf4jnsgd1na2vs0mg"},{"bike_id":"d01cfddf-7881-4b7c-815e-f570bddc475f","system_id":"levelo_inurba_marseille","lat":43.279393,"lon":5.410536,"is_reserved":false,"is_disabled":false,"rental_uris":{"android":"levelo://app?vid=d01cfddf-7881-4b7c-815e-f570bddc475f","ios":"levelo://app?vid=d01cfddf-7881-4b7c-815e-f570bddc475f"},"vehicle_type_id":"4","last_reported":1739516933,"current_range_meters":38400,"station_id":"ce4bhnp2rcd13ifvqh0g","pricing_plan_id":"cebpf4jnsgd1na2vs0mg"},{"bike_id":"135c7653-d335-4a46-8f93-05bf95658542","system_id":"levelo_inurba_marseille","lat":43.2894,"lon":5.39633,"is_reserved":false,"is_disabled":false,"rental_uris":{"android":"levelo://app?vid=135c7653-d335-4a46-8f93-05bf95658542","ios":"levelo://app?vid=135c7653-d335-4a46-8f93-05bf95658542"},"vehicle_type_id":"4","last_reported":1739516933,"current_range_meters":32400,"station_id":"ce4bh3h2rcd13ifvqdn0","pricing_plan_id":"cebpf4jnsgd1na2vs0mg"},{"bike_id":"5183e10c-197b-4f74-999e-87fdae66d3e7","system_id":"levelo_inurba_marseille","lat":43.25718,"lon":5.4112,"is_reserved":false,"is_disabled":false,"rental_uris":{"android":"levelo://app?vid=5183e10c-197b-4f74-999e-87fdae66d3e7","ios":"levelo://app?vid=5183e10c-197b-4f74-999e-87fdae66d3e7"},"vehicle_type_id":"4","last_reported":1739516933,"current_range_meters":25200,"station_id":"ce4bhkp2rcd13ifvqgd0","pricing_plan_id":"cebpf4jnsgd1na2vs0mg"},{"bike_id":"c40e2cb9-b89c-4dbd-956b-535ef79f1d37","system_id":"levelo_inurba_marseille","lat":43.248059,"lon":5.374554,"is_reserved":false,"is_disabled":false,"rental_uris":{"android":"levelo://app?vid=c40e2cb9-b89c-4dbd-956b-535ef79f1d37","ios":"levelo://app?vid=c40e2cb9-b89c-4dbd-956b-535ef79f1d37"},"vehicle_type_id":"4","last_reported":1739516933,"current_range_meters":28800,"station_id":"ce4bhgh2rcd13ifvqfb0","pricing_plan_id":"cebpf4jnsgd1na2vs0mg"},{"bike_id":"7cd0daa1-55ff-4122-a5aa-b2ad843b72ea","system_id":"levelo_inurba_marseille","lat":43.280967,"lon":5.398592,"is_reserved":false,"is_disabled":false,"rental_uris":{"android":"levelo://app?vid=7cd0daa1-55ff-4122-a5aa-b2ad843b72ea","ios":"levelo://app?vid=7cd0daa1-55ff-4122-a5aa-b2ad843b72ea"},"vehicle_type_id":"4","last_reported":1739516933,"current_range_meters":8400,"station_id":"","pricing_plan_id":"cebpf4jnsgd1na2vs0mg"},{"bike_id":"79665ef5-e5c4-4fbd-9a3d-55fc72ed1691","system_id":"levelo_inurba_marseille","lat":43.28699,"lon":5.39988,"is_reserved":false,"is_disabled":false,"rental_uris":{"android":"levelo://app?vid=79665ef5-e5c4-4fbd-9a3d-55fc72ed1691","ios":"levelo://app?vid=79665ef5-e5c4-4fbd-9a3d-55fc72ed1691"},"vehicle_type_id":"4","last_reported":1739516933,"current_range_meters":36400,"station_id":"ce4bho92rcd13ifvqh3g","pricing_plan_id":"cebpf4jnsgd1na2vs0mg"},{"bike_id":"d94ad0a4-4209-47fc-bb1e-86a94e106366","system_id":"levelo_inurba_marseille","lat":43.28874,"lon":5.35848,"is_reserved":false,"is_disabled":false,"rental_uris":{"android":"levelo://app?vid=d94ad0a4-4209-47fc-bb1e-86a94e106366","ios":"levelo://app?vid=d94ad0a4-4209-47fc-bb1e-86a94e106366"},"vehicle_type_id":"4","last_reported":1739516933,"current_range_meters":9200,"station_id":"ce4bhb12rcd13ifvqem0","pricing_plan_id":"cebpf4jnsgd1na2vs0mg"},{"bike_id":"ee079ffa-4416-4a91-bc98-3bd665acea3b","system_id":"levelo_inurba_marseille","lat":43.337266,"lon":5.391779,"is_reserved":false,"is_disabled":false,"rental_uris":{"android":"levelo://app?vid=ee079ffa-4416-4a91-bc98-3bd665acea3b","ios":"levelo://app?vid=ee079ffa-4416-4a91-bc98-3bd665acea3b"},"vehicle_type_id":"4","last_reported":1739516933,"current_range_meters":38400,"station_id":"ce4bhr92rcd13ifvqhsg","pricing_plan_id":"cebpf4jnsgd1na2vs0mg"},{"bike_id":"1fa82dc6-47d4-4356-bbca-393bf4461726","system_id":"levelo_inurba_marseille","lat":43.239614,"lon":5.366252,"is_reserved":false,"is_disabled":false,"rental_uris":{"android":"levelo://app?vid=1fa82dc6-47d4-4356-bbca-393bf4461726","ios":"levelo://app?vid=1fa82dc6-47d4-4356-bbca-393bf4461726"},"vehicle_type_id":"4","last_reported":1739516933,"current_range_meters":37600,"station_id":"ce4bhi12rcd13ifvqfp0","pricing_plan_id":"cebpf4jnsgd1na2vs0mg"},{"bike_id":"cc4eda91-48f6-45c9-8681-5f846d10e663","system_id":"levelo_inurba_marseille","lat":43.29537,"lon":5.37498,"is_reserved":false,"is_disabled":false,"rental_uris":{"android":"levelo://app?vid=cc4eda91-48f6-45c9-8681-5f846d10e663","ios":"levelo://app?vid=cc4eda91-48f6-45c9-8681-5f846d10e663"},"vehicle_type_id":"4","last_reported":1739516933,"current_range_meters":38000,"station_id":"ce4bgkp2rcd13ifvqbmg","pricing_plan_id":"cebpf4jnsgd1na2vs0mg"},{"bike_id":"25b98de5-6355-4dab-b08e-8a826c10c247","system_id":"levelo_inurba_marseille","lat":43.23179,"lon":5.39996,"is_reserved":false,"is_disabled":false,"rental_uris":{"android":"levelo://app?vid=25b98de5-6355-4dab-b08e-8a826c10c247","ios":"levelo://app?vid=25b98de5-6355-4dab-b08e-8a826c10c247"},"vehicle_type_id":"4","last_reported":1739516933,"current_range_meters":28000,"station_id":"ce4bhn12rcd13ifvqgqg","pricing_plan_id":"cebpf4jnsgd1na2vs0mg"},{"bike_id":"9638b1de-6e65-4723-820d-87a0cd11082b","system_id":"levelo_inurba_marseille","lat":43.29976,"lon":5.38504,"is_reserved":false,"is_disabled":true,"rental_uris":{"android":"levelo://app?vid=9638b1de-6e65-4723-820d-87a0cd11082b","ios":"levelo://app?vid=9638b1de-6e65-4723-820d-87a0cd11082b"},"vehicle_type_id":"4","last_reported":1739516933,"current_range_meters":36800,"station_id":"ce4bgj92rcd13ifvqbd0","pricing_plan_id":"cebpf4jnsgd1na2vs0mg"},{"bike_id":"a7fe1bfe-4759-4823-8b0c-ef04fdbaa489","system_id":"levelo_inurba_marseille","lat":43.29036,"lon":5.39961,"is_reserved":false,"is_disabled":false,"rental_uris":{"android":"levelo://app?vid=a7fe1bfe-4759-4823-8b0c-ef04fdbaa489","ios":"levelo://app?vid=a7fe1bfe-4759-4823-8b0c-ef04fdbaa489"},"vehicle_type_id":"4","last_reported":1739516933,"current_range_meters":36400,"station_id":"ce4bh392rcd13ifvqdm0","pricing_plan_id":"cebpf4jnsgd1na2vs0mg"},{"bike_id":"2a4b9998-a405-4a0e-9257-7329c18e12ae","system_id":"levelo_inurba_marseille","lat":43.2407,"lon":5.37762,"is_reserved":false,"is_disabled":false,"rental_uris":{"android":"levelo://app?vid=2a4b9998-a405-4a0e-9257-7329c18e12ae","ios":"levelo://app?vid=2a4b9998-a405-4a0e-9257-7329c18e12ae"},"vehicle_type_id":"4","last_reported":1739516933,"current_range_meters":16800,"station_id":"ce4bhnp2rcd13ifvqgvg","pricing_plan_id":"cebpf4jnsgd1na2vs0mg"},{"bike_id":"896ec56b-5525-4094-9b48-4e6034904017","system_id":"levelo_inurba_marseille","lat":43.30876,"lon":5.39647,"is_reserved":false,"is_disabled":false,"rental_uris":{"android":"levelo://app?vid=896ec56b-5525-4094-9b48-4e6034904017","ios":"levelo://app?vid=896ec56b-5525-4094-9b48-4e6034904017"},"vehicle_type_id":"4","last_reported":1739516933,"current_range_meters":38800,"station_id":"ce4bh012rcd13ifvqcv0","pricing_plan_id":"cebpf4jnsgd1na2vs0mg"},{"bike_id":"c5054f03-dd5c-48c8-8e0f-77c2001efb8c","system_id":"levelo_inurba_marseille","lat":43.28696,"lon":5.38528,"is_reserved":false,"is_disabled":false,"rental_uris":{"android":"levelo://app?vid=c5054f03-dd5c-48c8-8e0f-77c2001efb8c","ios":"levelo://app?vid=c5054f03-dd5c-48c8-8e0f-77c2001efb8c"},"vehicle_type_id":"4","last_reported":1739516933,"current_range_meters":38800,"station_id":"ce4bh492rcd13ifvqdug","pricing_plan_id":"cebpf4jnsgd1na2vs0mg"},{"bike_id":"f6523bc1-ba42-4697-979f-356f9d366a6a","system_id":"levelo_inurba_marseille","lat":43.304608,"lon":5.37911,"is_reserved":false,"is_disabled":false,"rental_uris":{"android":"levelo://app?vid=f6523bc1-ba42-4697-979f-356f9d366a6a","ios":"levelo://app?vid=f6523bc1-ba42-4697-979f-356f9d366a6a"},"vehicle_type_id":"4","last_reported":1739516933,"current_range_meters":39200,"station_id":"ce4bgup2rcd13ifvqcn0","pricing_plan_id":"cebpf4jnsgd1na2vs0mg"},{"bike_id":"a3c1a4ab-82f6-4315-9ed6-5bac6bafe89a","system_id":"levelo_inurba_marseille","lat":43.28717,"lon":5.36094,"is_reserved":false,"is_disabled":false,"rental_uris":{"android":"levelo://app?vid=a3c1a4ab-82f6-4315-9ed6-5bac6bafe89a","ios":"levelo://app?vid=a3c1a4ab-82f6-4315-9ed6-5bac6bafe89a"},"vehicle_type_id":"4","last_reported":1739516933,"current_range_meters":18800,"station_id":"cki0cbj6b192h4jlfktg","pricing_plan_id":"cebpf4jnsgd1na2vs0mg"},{"bike_id":"cb2c880d-6099-4e99-b126-5db2ed775e84","system_id":"levelo_inurba_marseille","lat":43.25011,"lon":5.38945,"is_reserved":false,"is_disabled":false,"rental_uris":{"android":"levelo://app?vid=cb2c880d-6099-4e99-b126-5db2ed775e84","ios":"levelo://app?vid=cb2c880d-6099-4e99-b126-5db2ed775e84"},"vehicle_type_id":"4","last_reported":1739516933,"current_range_meters":38800,"station_id":"ce4bhgp2rcd13ifvqfd0","pricing_plan_id":"cebpf4jnsgd1na2vs0mg"},{"bike_id":"0f2de5cd-c636-4001-ab39-c26b347a3fee","system_id":"levelo_inurba_marseille","lat":43.26096,"lon":5.39423,"is_reserved":false,"is_disabled":false,"rental_uris":{"android":"levelo://app?vid=0f2de5cd-c636-4001-ab39-c26b347a3fee","ios":"levelo://app?vid=0f2de5cd-c636-4001-ab39-c26b347a3fee"},"vehicle_type_id":"4","last_reported":1739516933,"current_range_meters":37600,"station_id":"ce4bhh92rcd13ifvqfj0","pricing_plan_id":"cebpf4jnsgd1na2vs0mg"},{"bike_id":"df9c0929-4670-407a-b490-ed29d51d825e","system_id":"levelo_inurba_marseille","lat":43.28355,"lon":5.38641,"is_reserved":false,"is_disabled":false,"rental_uris":{"android":"levelo://app?vid=df9c0929-4670-407a-b490-ed29d51d825e","ios":"levelo://app?vid=df9c0929-4670-407a-b490-ed29d51d825e"},"vehicle_type_id":"4","last_reported":1739516933,"current_range_meters":39200,"station_id":"ce4bh492rcd13ifvqdvg","pricing_plan_id":"cebpf4jnsgd1na2vs0mg"},{"bike_id":"64c6b46b-656d-4ea4-b38b-769c889a07b3","system_id":"levelo_inurba_marseille","lat":43.26556,"lon":5.39027,"is_reserved":false,"is_disabled":false,"rental_uris":{"android":"levelo://app?vid=64c6b46b-656d-4ea4-b38b-769c889a07b3","ios":"levelo://app?vid=64c6b46b-656d-4ea4-b38b-769c889a07b3"},"vehicle_type_id":"4","last_reported":1739516933,"current_range_meters":38000,"station_id":"ce4bhe12rcd13ifvqf30","pricing_plan_id":"cebpf4jnsgd1na2vs0mg"},{"bike_id":"a9591f57-40b0-4884-aa29-23cc39ec7d64","system_id":"levelo_inurba_marseille","lat":43.26217,"lon":5.37447,"is_reserved":false,"is_disabled":true,"rental_uris":{"android":"levelo://app?vid=a9591f57-40b0-4884-aa29-23cc39ec7d64","ios":"levelo://app?vid=a9591f57-40b0-4884-aa29-23cc39ec7d64"},"vehicle_type_id":"4","last_reported":1739516933,"current_range_meters":0,"station_id":"ce4bhgp2rcd13ifvqfc0","pricing_plan_id":"cebpf4jnsgd1na2vs0mg"},{"bike_id":"3a4a65ff-bde8-4be3-acb0-f549f61459c4","system_id":"levelo_inurba_marseille","lat":43.28473,"lon":5.38426,"is_reserved":false,"is_disabled":false,"rental_uris":{"android":"levelo://app?vid=3a4a65ff-bde8-4be3-acb0-f549f61459c4","ios":"levelo://app?vid=3a4a65ff-bde8-4be3-acb0-f549f61459c4"},"vehicle_type_id":"4","last_reported":1739516933,"current_range_meters":35200,"station_id":"ce4bh512rcd13ifvqe3g","pricing_plan_id":"cebpf4jnsgd1na2vs0mg"},{"bike_id":"0c9f491e-2c2e-4a66-985f-4b2dd1fa46b1","system_id":"levelo_inurba_marseille","lat":43.30291,"lon":5.37692,"is_reserved":false,"is_disabled":false,"rental_uris":{"android":"levelo://app?vid=0c9f491e-2c2e-4a66-985f-4b2dd1fa46b1","ios":"levelo://app?vid=0c9f491e-2c2e-4a66-985f-4b2dd1fa46b1"},"vehicle_type_id":"4","last_reported":1739516933,"current_range_meters":38000,"station_id":"ce4bguh2rcd13ifvqcj0","pricing_plan_id":"cebpf4jnsgd1na2vs0mg"},{"bike_id":"f7722aa8-7dbb-40b4-8785-faf5a2e7b631","system_id":"levelo_inurba_marseille","lat":43.25001,"lon":5.38937,"is_reserved":false,"is_disabled":false,"rental_uris":{"android":"levelo://app?vid=f7722aa8-7dbb-40b4-8785-faf5a2e7b631","ios":"levelo://app?vid=f7722aa8-7dbb-40b4-8785-faf5a2e7b631"},"vehicle_type_id":"4","last_reported":1739516933,"current_range_meters":38000,"station_id":"ce4bhgp2rcd13ifvqfd0","pricing_plan_id":"cebpf4jnsgd1na2vs0mg"},{"bike_id":"ec496d4a-c31a-4f2c-947b-b17f6dc6b31a","system_id":"levelo_inurba_marseille","lat":43.25007,"lon":5.3894,"is_reserved":false,"is_disabled":false,"rental_uris":{"android":"levelo://app?vid=ec496d4a-c31a-4f2c-947b-b17f6dc6b31a","ios":"levelo://app?vid=ec496d4a-c31a-4f2c-947b-b17f6dc6b31a"},"vehicle_type_id":"4","last_reported":1739516933,"current_range_meters":38000,"station_id":"ce4bhgp2rcd13ifvqfd0","pricing_plan_id":"cebpf4jnsgd1na2vs0mg"},{"bike_id":"3f7bf0a1-1880-4dda-85df-47b053e3ee9f","system_id":"levelo_inurba_marseille","lat":43.30141,"lon":5.3808,"is_reserved":false,"is_disabled":false,"rental_uris":{"android":"levelo://app?vid=3f7bf0a1-1880-4dda-85df-47b053e3ee9f","ios":"levelo://app?vid=3f7bf0a1-1880-4dda-85df-47b053e3ee9f"},"vehicle_type_id":"4","last_reported":1739516933,"current_range_meters":9200,"station_id":"ce4bgjp2rcd13ifvqbh0","pricing_plan_id":"cebpf4jnsgd1na2vs0mg"},{"bike_id":"ce9192c8-f654-463c-aef4-e222e092c42b","system_id":"levelo_inurba_marseille","lat":43.31684,"lon":5.40475,"is_reserved":false,"is_disabled":false,"rental_uris":{"android":"levelo://app?vid=ce9192c8-f654-463c-aef4-e222e092c42b","ios":"levelo://app?vid=ce9192c8-f654-463c-aef4-e222e092c42b"},"vehicle_type_id":"4","last_reported":1739516933,"current_range_meters":28800,"station_id":"ce4bh012rcd13ifvqd00","pricing_plan_id":"cebpf4jnsgd1na2vs0mg"},{"bike_id":"23849fcd-4bc4-44f6-8337-e9a9a16fe0e7","system_id":"levelo_inurba_marseille","lat":43.297417,"lon":5.479579,"is_reserved":false,"is_disabled":false,"rental_uris":{"android":"levelo://app?vid=23849fcd-4bc4-44f6-8337-e9a9a16fe0e7","ios":"levelo://app?vid=23849fcd-4bc4-44f6-8337-e9a9a16fe0e7"},"vehicle_type_id":"4","last_reported":1739516933,"current_range_meters":4800,"station_id":"","pricing_plan_id":"cebpf4jnsgd1na2vs0mg"},{"bike_id":"b9cf6ea9-95ee-46f8-b845-52cb5a2eb86a","system_id":"levelo_inurba_marseille","lat":43.30481,"lon":5.37899,"is_reserved":false,"is_disabled":false,"rental_uris":{"android":"levelo://app?vid=b9cf6ea9-95ee-46f8-b845-52cb5a2eb86a","ios":"levelo://app?vid=b9cf6ea9-95ee-46f8-b845-52cb5a2eb86a"},"vehicle_type_id":"4","last_reported":1739516933,"current_range_meters":34000,"station_id":"ce4bgup2rcd13ifvqcn0","pricing_plan_id":"cebpf4jnsgd1na2vs0mg"},{"bike_id":"4256c6d7-6900-450d-95e0-fc240a7ecbf6","system_id":"levelo_inurba_marseille","lat":43.3128,"lon":5.40161,"is_reserved":false,"is_disabled":false,"rental_uris":{"android":"levelo://app?vid=4256c6d7-6900-450d-95e0-fc240a7ecbf6","ios":"levelo://app?vid=4256c6d7-6900-450d-95e0-fc240a7ecbf6"},"vehicle_type_id":"4","last_reported":1739516933,"current_range_meters":10800,"station_id":"ce4bh092rcd13ifvqd30","pricing_plan_id":"cebpf4jnsgd1na2vs0mg"},{"bike_id":"978ca430-5806-427e-a6a2-e650f48ff5c5","system_id":"levelo_inurba_marseille","lat":43.279915,"lon":5.400172,"is_reserved":false,"is_disabled":false,"rental_uris":{"android":"levelo://app?vid=978ca430-5806-427e-a6a2-e650f48ff5c5","ios":"levelo://app?vid=978ca430-5806-427e-a6a2-e650f48ff5c5"},"vehicle_type_id":"4","last_reported":1739516933,"current_range_meters":22800,"station_id":"ce4bho92rcd13ifvqh4g","pricing_plan_id":"cebpf4jnsgd1na2vs0mg"},{"bike_id":"17dcf9e7-ab23-4799-a0b4-0a47648783be","system_id":"levelo_inurba_marseille","lat":43.30157,"lon":5.38092,"is_reserved":false,"is_disabled":false,"rental_uris":{"android":"levelo://app?vid=17dcf9e7-ab23-4799-a0b4-0a47648783be","ios":"levelo://app?vid=17dcf9e7-ab23-4799-a0b4-0a47648783be"},"vehicle_type_id":"4","last_reported":1739516933,"current_range_meters":17200,"station_id":"ce4bgjp2rcd13ifvqbh0","pricing_plan_id":"cebpf4jnsgd1na2vs0mg"},{"bike_id":"6cfbf51a-4ec4-4b50-afa2-a58eb7355bc4","system_id":"levelo_inurba_marseille","lat":43.327185,"lon":5.391674,"is_reserved":false,"is_disabled":false,"rental_uris":{"android":"levelo://app?vid=6cfbf51a-4ec4-4b50-afa2-a58eb7355bc4","ios":"levelo://app?vid=6cfbf51a-4ec4-4b50-afa2-a58eb7355bc4"},"vehicle_type_id":"4","last_reported":1739516933,"current_range_meters":24400,"station_id":"","pricing_plan_id":"cebpf4jnsgd1na2vs0mg"},{"bike_id":"2ffed822-7174-41f8-ad36-b592fa66c5a6","system_id":"levelo_inurba_marseille","lat":43.23087,"lon":5.3551,"is_reserved":false,"is_disabled":false,"rental_uris":{"android":"levelo://app?vid=2ffed822-7174-41f8-ad36-b592fa66c5a6","ios":"levelo://app?vid=2ffed822-7174-41f8-ad36-b592fa66c5a6"},"vehicle_type_id":"4","last_reported":1739516933,"current_range_meters":6400,"station_id":"cpo3342slgdg3j2ifvpg","pricing_plan_id":"cebpf4jnsgd1na2vs0mg"},{"bike_id":"1f91cd7a-cebf-4ea0-9a53-a7c89148183a","system_id":"levelo_inurba_marseille","lat":43.24691,"lon":5.38158,"is_reserved":false,"is_disabled":false,"rental_uris":{"android":"levelo://app?vid=1f91cd7a-cebf-4ea0-9a53-a7c89148183a","ios":"levelo://app?vid=1f91cd7a-cebf-4ea0-9a53-a7c89148183a"},"vehicle_type_id":"4","last_reported":1739516933,"current_range_meters":11200,"station_id":"ce4bhih2rcd13ifvqfr0","pricing_plan_id":"cebpf4jnsgd1na2vs0mg"},{"bike_id":"90069231-8d02-46fd-ba3f-d8e7e83900ee","system_id":"levelo_inurba_marseille","lat":43.288438,"lon":5.438192,"is_reserved":false,"is_disabled":true,"rental_uris":{"android":"levelo://app?vid=90069231-8d02-46fd-ba3f-d8e7e83900ee","ios":"levelo://app?vid=90069231-8d02-46fd-ba3f-d8e7e83900ee"},"vehicle_type_id":"4","last_reported":1739516933,"current_range_meters":0,"station_id":"","pricing_plan_id":"cebpf4jnsgd1na2vs0mg"},{"bike_id":"9d249881-5a15-4231-8a5b-9e0b021f19d2","system_id":"levelo_inurba_marseille","lat":43.279541,"lon":5.38718,"is_reserved":false,"is_disabled":true,"rental_uris":{"android":"levelo://app?vid=9d249881-5a15-4231-8a5b-9e0b021f19d2","ios":"levelo://app?vid=9d249881-5a15-4231-8a5b-9e0b021f19d2"},"vehicle_type_id":"4","last_reported":1739516933,"current_range_meters":32800,"station_id":"ce4bhg12rcd13ifvqf80","pricing_plan_id":"cebpf4jnsgd1na2vs0mg"},{"bike_id":"8bc54ebe-91ca-42d9-9424-fbf351e8f752","system_id":"levelo_inurba_marseille","lat":43.30303,"lon":5.37712,"is_reserved":false,"is_disabled":false,"rental_uris":{"android":"levelo://app?vid=8bc54ebe-91ca-42d9-9424-fbf351e8f752","ios":"levelo://app?vid=8bc54ebe-91ca-42d9-9424-fbf351e8f752"},"vehicle_type_id":"4","last_reported":1739516933,"current_range_meters":38800,"station_id":"ce4bguh2rcd13ifvqcj0","pricing_plan_id":"cebpf4jnsgd1na2vs0mg"},{"bike_id":"21af4f6e-7ea6-4d16-a6b7-895889e3fb75","system_id":"levelo_inurba_marseille","lat":43.310754,"lon":5.383515,"is_reserved":false,"is_disabled":false,"rental_uris":{"android":"levelo://app?vid=21af4f6e-7ea6-4d16-a6b7-895889e3fb75","ios":"levelo://app?vid=21af4f6e-7ea6-4d16-a6b7-895889e3fb75"},"vehicle_type_id":"4","last_reported":1739516933,"current_range_meters":38800,"station_id":"ce4bgv92rcd13ifvqcr0","pricing_plan_id":"cebpf4jnsgd1na2vs0mg"},{"bike_id":"8878e5e8-e13c-4318-b499-fd415887d7cd","system_id":"levelo_inurba_marseille","lat":43.23963,"lon":5.36644,"is_reserved":false,"is_disabled":false,"rental_uris":{"android":"levelo://app?vid=8878e5e8-e13c-4318-b499-fd415887d7cd","ios":"levelo://app?vid=8878e5e8-e13c-4318-b499-fd415887d7cd"},"vehicle_type_id":"4","last_reported":1739516933,"current_range_meters":4000,"station_id":"ce4bhi12rcd13ifvqfp0","pricing_plan_id":"cebpf4jnsgd1na2vs0mg"},{"bike_id":"d6d61c8e-dde7-465e-9168-1931099a05b8","system_id":"levelo_inurba_marseille","lat":43.2873,"lon":5.36108,"is_reserved":false,"is_disabled":false,"rental_uris":{"android":"levelo://app?vid=d6d61c8e-dde7-465e-9168-1931099a05b8","ios":"levelo://app?vid=d6d61c8e-dde7-465e-9168-1931099a05b8"},"vehicle_type_id":"4","last_reported":1739516933,"current_range_meters":8800,"station_id":"cki0cbj6b192h4jlfktg","pricing_plan_id":"cebpf4jnsgd1na2vs0mg"},{"bike_id":"722c03d4-5f09-4a1d-bb2e-829c66405a32","system_id":"levelo_inurba_marseille","lat":43.279218,"lon":5.395718,"is_reserved":false,"is_disabled":true,"rental_uris":{"android":"levelo://app?vid=722c03d4-5f09-4a1d-bb2e-829c66405a32","ios":"levelo://app?vid=722c03d4-5f09-4a1d-bb2e-829c66405a32"},"vehicle_type_id":"4","last_reported":1739516933,"current_range_meters":36800,"station_id":"ce4bhf92rcd13ifvqf40","pricing_plan_id":"cebpf4jnsgd1na2vs0mg"},{"bike_id":"0e8bdc60-8631-4aa1-aaf0-acd1769efb48","system_id":"levelo_inurba_marseille","lat":43.31363,"lon":5.38501,"is_reserved":false,"is_disabled":false,"rental_uris":{"android":"levelo://app?vid=0e8bdc60-8631-4aa1-aaf0-acd1769efb48","ios":"levelo://app?vid=0e8bdc60-8631-4aa1-aaf0-acd1769efb48"},"vehicle_type_id":"4","last_reported":1739516933,"current_range_meters":24400,"station_id":"ce4bgt92rcd13ifvqcf0","pricing_plan_id":"cebpf4jnsgd1na2vs0mg"},{"bike_id":"90cfa73d-7616-4bf6-9dd1-b8a25d85d359","system_id":"levelo_inurba_marseille","lat":43.26486,"lon":5.39571,"is_reserved":false,"is_disabled":true,"rental_uris":{"android":"levelo://app?vid=90cfa73d-7616-4bf6-9dd1-b8a25d85d359","ios":"levelo://app?vid=90cfa73d-7616-4bf6-9dd1-b8a25d85d359"},"vehicle_type_id":"4","last_reported":1739516933,"current_range_meters":38000,"station_id":"ce4bhi12rcd13ifvqfq0","pricing_plan_id":"cebpf4jnsgd1na2vs0mg"},{"bike_id":"ddbbcf0b-65fe-459d-b467-e1710dbf8d5e","system_id":"levelo_inurba_marseille","lat":43.30479,"lon":5.37906,"is_reserved":false,"is_disabled":false,"rental_uris":{"android":"levelo://app?vid=ddbbcf0b-65fe-459d-b467-e1710dbf8d5e","ios":"levelo://app?vid=ddbbcf0b-65fe-459d-b467-e1710dbf8d5e"},"vehicle_type_id":"4","last_reported":1739516933,"current_range_meters":39200,"station_id":"ce4bgup2rcd13ifvqcn0","pricing_plan_id":"cebpf4jnsgd1na2vs0mg"},{"bike_id":"00d56cf1-086d-4634-a590-acaef2a38372","system_id":"levelo_inurba_marseille","lat":43.26036,"lon":5.394,"is_reserved":false,"is_disabled":false,"rental_uris":{"android":"levelo://app?vid=00d56cf1-086d-4634-a590-acaef2a38372","ios":"levelo://app?vid=00d56cf1-086d-4634-a590-acaef2a38372"},"vehicle_type_id":"4","last_reported":1739516933,"current_range_meters":38000,"station_id":"ce4bhh92rcd13ifvqfj0","pricing_plan_id":"cebpf4jnsgd1na2vs0mg"},{"bike_id":"f502111f-7748-48e8-918b-58ab12805627","system_id":"levelo_inurba_marseille","lat":43.279484,"lon":5.41035,"is_reserved":false,"is_disabled":false,"rental_uris":{"android":"levelo://app?vid=f502111f-7748-48e8-918b-58ab12805627","ios":"levelo://app?vid=f502111f-7748-48e8-918b-58ab12805627"},"vehicle_type_id":"4","last_reported":1739516933,"current_range_meters":38400,"station_id":"ce4bhnp2rcd13ifvqh0g","pricing_plan_id":"cebpf4jnsgd1na2vs0mg"},{"bike_id":"0fa6a578-9a96-4900-af02-c31e8debc384","system_id":"levelo_inurba_marseille","lat":43.27215,"lon":5.39184,"is_reserved":false,"is_disabled":false,"rental_uris":{"android":"levelo://app?vid=0fa6a578-9a96-4900-af02-c31e8debc384","ios":"levelo://app?vid=0fa6a578-9a96-4900-af02-c31e8debc384"},"vehicle_type_id":"4","last_reported":1739516933,"current_range_meters":38400,"station_id":"ce4bhhp2rcd13ifvqfm0","pricing_plan_id":"cebpf4jnsgd1na2vs0mg"},{"bike_id":"58d34a01-9cad-4201-b7f6-b8bb3e54bb31","system_id":"levelo_inurba_marseille","lat":43.25107,"lon":5.40336,"is_reserved":false,"is_disabled":false,"rental_uris":{"android":"levelo://app?vid=58d34a01-9cad-4201-b7f6-b8bb3e54bb31","ios":"levelo://app?vid=58d34a01-9cad-4201-b7f6-b8bb3e54bb31"},"vehicle_type_id":"4","last_reported":1739516933,"current_range_meters":26000,"station_id":"ce4bhlh2rcd13ifvqgig","pricing_plan_id":"cebpf4jnsgd1na2vs0mg"},{"bike_id":"5016e875-414a-41bd-8f00-6a5845e39ba6","system_id":"levelo_inurba_marseille","lat":43.30796,"lon":5.43528,"is_reserved":false,"is_disabled":false,"rental_uris":{"android":"levelo://app?vid=5016e875-414a-41bd-8f00-6a5845e39ba6","ios":"levelo://app?vid=5016e875-414a-41bd-8f00-6a5845e39ba6"},"vehicle_type_id":"4","last_reported":1739516933,"current_range_meters":36000,"station_id":"ce4bhph2rcd13ifvqheg","pricing_plan_id":"cebpf4jnsgd1na2vs0mg"},{"bike_id":"26fca7c2-5eb0-4444-b69c-4560b72548ac","system_id":"levelo_inurba_marseille","lat":43.31264,"lon":5.40183,"is_reserved":false,"is_disabled":false,"rental_uris":{"android":"levelo://app?vid=26fca7c2-5eb0-4444-b69c-4560b72548ac","ios":"levelo://app?vid=26fca7c2-5eb0-4444-b69c-4560b72548ac"},"vehicle_type_id":"4","last_reported":1739516933,"current_range_meters":17600,"station_id":"ce4bh092rcd13ifvqd30","pricing_plan_id":"cebpf4jnsgd1na2vs0mg"},{"bike_id":"51e40a89-2ac8-4991-99a4-870e538e7d5f","system_id":"levelo_inurba_marseille","lat":43.28939,"lon":5.39646,"is_reserved":false,"is_disabled":true,"rental_uris":{"android":"levelo://app?vid=51e40a89-2ac8-4991-99a4-870e538e7d5f","ios":"levelo://app?vid=51e40a89-2ac8-4991-99a4-870e538e7d5f"},"vehicle_type_id":"4","last_reported":1739516933,"current_range_meters":38800,"station_id":"ce4bh3h2rcd13ifvqdn0","pricing_plan_id":"cebpf4jnsgd1na2vs0mg"},{"bike_id":"39d40468-b29c-46fb-aaf9-a1a8071ae0f6","system_id":"levelo_inurba_marseille","lat":43.29973,"lon":5.41338,"is_reserved":false,"is_disabled":false,"rental_uris":{"android":"levelo://app?vid=39d40468-b29c-46fb-aaf9-a1a8071ae0f6","ios":"levelo://app?vid=39d40468-b29c-46fb-aaf9-a1a8071ae0f6"},"vehicle_type_id":"4","last_reported":1739516933,"current_range_meters":37600,"station_id":"ce4bhp12rcd13ifvqh9g","pricing_plan_id":"cebpf4jnsgd1na2vs0mg"},{"bike_id":"5f50397d-dfa0-4db2-bef8-1eb4e3607580","system_id":"levelo_inurba_marseille","lat":43.31714,"lon":5.40449,"is_reserved":false,"is_disabled":false,"rental_uris":{"android":"levelo://app?vid=5f50397d-dfa0-4db2-bef8-1eb4e3607580","ios":"levelo://app?vid=5f50397d-dfa0-4db2-bef8-1eb4e3607580"},"vehicle_type_id":"4","last_reported":1739516933,"current_range_meters":17200,"station_id":"ce4bh012rcd13ifvqd00","pricing_plan_id":"cebpf4jnsgd1na2vs0mg"},{"bike_id":"7ab1a7b8-fddf-4296-90cf-919e5783cfe8","system_id":"levelo_inurba_marseille","lat":43.25107,"lon":5.40314,"is_reserved":false,"is_disabled":false,"rental_uris":{"android":"levelo://app?vid=7ab1a7b8-fddf-4296-90cf-919e5783cfe8","ios":"levelo://app?vid=7ab1a7b8-fddf-4296-90cf-919e5783cfe8"},"vehicle_type_id":"4","last_reported":1739516933,"current_range_meters":30800,"station_id":"ce4bhlh2rcd13ifvqgig","pricing_plan_id":"cebpf4jnsgd1na2vs0mg"},{"bike_id":"4d77db09-905c-49b4-96d1-a6c7bd4303b6","system_id":"levelo_inurba_marseille","lat":43.27372,"lon":5.36261,"is_reserved":false,"is_disabled":false,"rental_uris":{"android":"levelo://app?vid=4d77db09-905c-49b4-96d1-a6c7bd4303b6","ios":"levelo://app?vid=4d77db09-905c-49b4-96d1-a6c7bd4303b6"},"vehicle_type_id":"4","last_reported":1739516933,"current_range_meters":30800,"station_id":"ce4bhbh2rcd13ifvqeo0","pricing_plan_id":"cebpf4jnsgd1na2vs0mg"},{"bike_id":"8fd4fd35-b145-4a8c-a6eb-54e222cc3ec4","system_id":"levelo_inurba_marseille","lat":43.29184,"lon":5.35805,"is_reserved":false,"is_disabled":false,"rental_uris":{"android":"levelo://app?vid=8fd4fd35-b145-4a8c-a6eb-54e222cc3ec4","ios":"levelo://app?vid=8fd4fd35-b145-4a8c-a6eb-54e222cc3ec4"},"vehicle_type_id":"4","last_reported":1739516933,"current_range_meters":25200,"station_id":"ce4bhb12rcd13ifvqel0","pricing_plan_id":"cebpf4jnsgd1na2vs0mg"},{"bike_id":"79e5ad63-abd5-4d07-9e51-60dc9e7253cd","system_id":"levelo_inurba_marseille","lat":43.231906,"lon":5.399901,"is_reserved":false,"is_disabled":true,"rental_uris":{"android":"levelo://app?vid=79e5ad63-abd5-4d07-9e51-60dc9e7253cd","ios":"levelo://app?vid=79e5ad63-abd5-4d07-9e51-60dc9e7253cd"},"vehicle_type_id":"4","last_reported":1739516933,"current_range_meters":0,"station_id":"ce4bhn12rcd13ifvqgqg","pricing_plan_id":"cebpf4jnsgd1na2vs0mg"},{"bike_id":"a0bb3239-6312-40a3-8801-e3741eced193","system_id":"levelo_inurba_marseille","lat":43.295484,"lon":5.422788,"is_reserved":false,"is_disabled":false,"rental_uris":{"android":"levelo://app?vid=a0bb3239-6312-40a3-8801-e3741eced193","ios":"levelo://app?vid=a0bb3239-6312-40a3-8801-e3741eced193"},"vehicle_type_id":"4","last_reported":1739516933,"current_range_meters":38000,"station_id":"ce4bhph2rcd13ifvqhdg","pricing_plan_id":"cebpf4jnsgd1na2vs0mg"},{"bike_id":"492e558b-0ce5-4984-b6b1-1d33f225a96b","system_id":"levelo_inurba_marseille","lat":43.24175,"lon":5.36399,"is_reserved":false,"is_disabled":false,"rental_uris":{"android":"levelo://app?vid=492e558b-0ce5-4984-b6b1-1d33f225a96b","ios":"levelo://app?vid=492e558b-0ce5-4984-b6b1-1d33f225a96b"},"vehicle_type_id":"4","last_reported":1739516933,"current_range_meters":38400,"station_id":"cpo36qri1sfpv3e86is0","pricing_plan_id":"cebpf4jnsgd1na2vs0mg"},{"bike_id":"6bf99e3e-9f10-4617-93f9-2e16108e33a0","system_id":"levelo_inurba_marseille","lat":43.23158,"lon":5.43697,"is_reserved":false,"is_disabled":false,"rental_uris":{"android":"levelo://app?vid=6bf99e3e-9f10-4617-93f9-2e16108e33a0","ios":"levelo://app?vid=6bf99e3e-9f10-4617-93f9-2e16108e33a0"},"vehicle_type_id":"4","last_reported":1739516933,"current_range_meters":38800,"station_id":"ce4bhmp2rcd13ifvqgog","pricing_plan_id":"cebpf4jnsgd1na2vs0mg"},{"bike_id":"4e761e9d-2b37-4a5a-9ff0-c8e96e0d42db","system_id":"levelo_inurba_marseille","lat":43.30571,"lon":5.3721,"is_reserved":false,"is_disabled":false,"rental_uris":{"android":"levelo://app?vid=4e761e9d-2b37-4a5a-9ff0-c8e96e0d42db","ios":"levelo://app?vid=4e761e9d-2b37-4a5a-9ff0-c8e96e0d42db"},"vehicle_type_id":"4","last_reported":1739516933,"current_range_meters":16400,"station_id":"ce4bgqh2rcd13ifvqc4g","pricing_plan_id":"cebpf4jnsgd1na2vs0mg"},{"bike_id":"0790c391-41c7-46a3-a1be-9b8c3274c170","system_id":"levelo_inurba_marseille","lat":43.29031,"lon":5.39986,"is_reserved":false,"is_disabled":false,"rental_uris":{"android":"levelo://app?vid=0790c391-41c7-46a3-a1be-9b8c3274c170","ios":"levelo://app?vid=0790c391-41c7-46a3-a1be-9b8c3274c170"},"vehicle_type_id":"4","last_reported":1739516933,"current_range_meters":36800,"station_id":"ce4bh392rcd13ifvqdm0","pricing_plan_id":"cebpf4jnsgd1na2vs0mg"},{"bike_id":"17359da5-754b-4c1f-9974-59fc1ea40a51","system_id":"levelo_inurba_marseille","lat":43.30471,"lon":5.37905,"is_reserved":false,"is_disabled":false,"rental_uris":{"android":"levelo://app?vid=17359da5-754b-4c1f-9974-59fc1ea40a51","ios":"levelo://app?vid=17359da5-754b-4c1f-9974-59fc1ea40a51"},"vehicle_type_id":"4","last_reported":1739516933,"current_range_meters":37600,"station_id":"ce4bgup2rcd13ifvqcn0","pricing_plan_id":"cebpf4jnsgd1na2vs0mg"},{"bike_id":"1637a0cf-bf29-4186-90ff-2a16e918aeaf","system_id":"levelo_inurba_marseille","lat":43.29263,"lon":5.40897,"is_reserved":false,"is_disabled":false,"rental_uris":{"android":"levelo://app?vid=1637a0cf-bf29-4186-90ff-2a16e918aeaf","ios":"levelo://app?vid=1637a0cf-bf29-4186-90ff-2a16e918aeaf"},"vehicle_type_id":"4","last_reported":1739516933,"current_range_meters":19200,"station_id":"ce4bh192rcd13ifvqdc0","pricing_plan_id":"cebpf4jnsgd1na2vs0mg"},{"bike_id":"3e364230-e791-4719-a976-7d1bf64b79a1","system_id":"levelo_inurba_marseille","lat":43.31246,"lon":5.36815,"is_reserved":false,"is_disabled":true,"rental_uris":{"android":"levelo://app?vid=3e364230-e791-4719-a976-7d1bf64b79a1","ios":"levelo://app?vid=3e364230-e791-4719-a976-7d1bf64b79a1"},"vehicle_type_id":"4","last_reported":1739516933,"current_range_meters":1200,"station_id":"ce4bgl92rcd13ifvqbq0","pricing_plan_id":"cebpf4jnsgd1na2vs0mg"},{"bike_id":"ff489825-db76-49d3-aa98-c1c0aaa6bdad","system_id":"levelo_inurba_marseille","lat":43.29235,"lon":5.36666,"is_reserved":false,"is_disabled":false,"rental_uris":{"android":"levelo://app?vid=ff489825-db76-49d3-aa98-c1c0aaa6bdad","ios":"levelo://app?vid=ff489825-db76-49d3-aa98-c1c0aaa6bdad"},"vehicle_type_id":"4","last_reported":1739516933,"current_range_meters":7200,"station_id":"","pricing_plan_id":"cebpf4jnsgd1na2vs0mg"},{"bike_id":"73af0b7d-5095-4af1-aeaa-4e029e31df94","system_id":"levelo_inurba_marseille","lat":43.27673,"lon":5.38857,"is_reserved":false,"is_disabled":false,"rental_uris":{"android":"levelo://app?vid=73af0b7d-5095-4af1-aeaa-4e029e31df94","ios":"levelo://app?vid=73af0b7d-5095-4af1-aeaa-4e029e31df94"},"vehicle_type_id":"4","last_reported":1739516933,"current_range_meters":8400,"station_id":"ce4bhi12rcd13ifvqfo0","pricing_plan_id":"cebpf4jnsgd1na2vs0mg"},{"bike_id":"b5793197-90f8-46f4-812c-bfe71f90f59c","system_id":"levelo_inurba_marseille","lat":43.29637,"lon":5.40623,"is_reserved":false,"is_disabled":false,"rental_uris":{"android":"levelo://app?vid=b5793197-90f8-46f4-812c-bfe71f90f59c","ios":"levelo://app?vid=b5793197-90f8-46f4-812c-bfe71f90f59c"},"vehicle_type_id":"4","last_reported":1739516933,"current_range_meters":38800,"station_id":"ce4bh0h2rcd13ifvqd60","pricing_plan_id":"cebpf4jnsgd1na2vs0mg"},{"bike_id":"0926a065-2ee9-4eb7-93cd-59a4a5018e48","system_id":"levelo_inurba_marseille","lat":43.2835,"lon":5.3865,"is_reserved":false,"is_disabled":false,"rental_uris":{"android":"levelo://app?vid=0926a065-2ee9-4eb7-93cd-59a4a5018e48","ios":"levelo://app?vid=0926a065-2ee9-4eb7-93cd-59a4a5018e48"},"vehicle_type_id":"4","last_reported":1739516933,"current_range_meters":30400,"station_id":"ce4bh492rcd13ifvqdvg","pricing_plan_id":"cebpf4jnsgd1na2vs0mg"},{"bike_id":"af7ae1e3-87b2-4cd3-9b8f-a973c351af89","system_id":"levelo_inurba_marseille","lat":43.23174,"lon":5.40022,"is_reserved":false,"is_disabled":false,"rental_uris":{"android":"levelo://app?vid=af7ae1e3-87b2-4cd3-9b8f-a973c351af89","ios":"levelo://app?vid=af7ae1e3-87b2-4cd3-9b8f-a973c351af89"},"vehicle_type_id":"4","last_reported":1739516933,"current_range_meters":36000,"station_id":"ce4bhn12rcd13ifvqgqg","pricing_plan_id":"cebpf4jnsgd1na2vs0mg"},{"bike_id":"004dcd9f-fe33-47bd-93fa-19bdccc4b89f","system_id":"levelo_inurba_marseille","lat":43.251181,"lon":5.403092,"is_reserved":false,"is_disabled":false,"rental_uris":{"android":"levelo://app?vid=004dcd9f-fe33-47bd-93fa-19bdccc4b89f","ios":"levelo://app?vid=004dcd9f-fe33-47bd-93fa-19bdccc4b89f"},"vehicle_type_id":"4","last_reported":1739516933,"current_range_meters":39200,"station_id":"ce4bhm12rcd13ifvqgkg","pricing_plan_id":"cebpf4jnsgd1na2vs0mg"},{"bike_id":"4dbc26c6-2a15-45e7-b1cd-4e0586d88b2f","system_id":"levelo_inurba_marseille","lat":43.27362,"lon":5.36254,"is_reserved":false,"is_disabled":true,"rental_uris":{"android":"levelo://app?vid=4dbc26c6-2a15-45e7-b1cd-4e0586d88b2f","ios":"levelo://app?vid=4dbc26c6-2a15-45e7-b1cd-4e0586d88b2f"},"vehicle_type_id":"4","last_reported":1739516933,"current_range_meters":36000,"station_id":"ce4bhbh2rcd13ifvqeo0","pricing_plan_id":"cebpf4jnsgd1na2vs0mg"},{"bike_id":"2a8d5b38-12c7-43ca-969a-fe7b4ef5b359","system_id":"levelo_inurba_marseille","lat":43.316964,"lon":5.377451,"is_reserved":false,"is_disabled":true,"rental_uris":{"android":"levelo://app?vid=2a8d5b38-12c7-43ca-969a-fe7b4ef5b359","ios":"levelo://app?vid=2a8d5b38-12c7-43ca-969a-fe7b4ef5b359"},"vehicle_type_id":"4","last_reported":1739516933,"current_range_meters":0,"station_id":"ce4bgth2rcd13ifvqch0","pricing_plan_id":"cebpf4jnsgd1na2vs0mg"},{"bike_id":"6d5a124a-5ef9-4ef5-9f28-d40c1219dcc1","system_id":"levelo_inurba_marseille","lat":43.323616,"lon":5.388834,"is_reserved":false,"is_disabled":false,"rental_uris":{"android":"levelo://app?vid=6d5a124a-5ef9-4ef5-9f28-d40c1219dcc1","ios":"levelo://app?vid=6d5a124a-5ef9-4ef5-9f28-d40c1219dcc1"},"vehicle_type_id":"4","last_reported":1739516933,"current_range_meters":16000,"station_id":"ce4bhqp2rcd13ifvqhog","pricing_plan_id":"cebpf4jnsgd1na2vs0mg"},{"bike_id":"1f6ba3af-8859-467c-9802-ce9b84441ce9","system_id":"levelo_inurba_marseille","lat":43.27816,"lon":5.40741,"is_reserved":false,"is_disabled":true,"rental_uris":{"android":"levelo://app?vid=1f6ba3af-8859-467c-9802-ce9b84441ce9","ios":"levelo://app?vid=1f6ba3af-8859-467c-9802-ce9b84441ce9"},"vehicle_type_id":"4","last_reported":1739516933,"current_range_meters":2000,"station_id":"ce4bhnh2rcd13ifvqgtg","pricing_plan_id":"cebpf4jnsgd1na2vs0mg"},{"bike_id":"00f8a0ff-c4e3-42da-8103-f17cc4b1ba0d","system_id":"levelo_inurba_marseille","lat":43.281518,"lon":5.426457,"is_reserved":false,"is_disabled":false,"rental_uris":{"android":"levelo://app?vid=00f8a0ff-c4e3-42da-8103-f17cc4b1ba0d","ios":"levelo://app?vid=00f8a0ff-c4e3-42da-8103-f17cc4b1ba0d"},"vehicle_type_id":"4","last_reported":1739516933,"current_range_meters":18000,"station_id":"ce4bhnh2rcd13ifvqgug","pricing_plan_id":"cebpf4jnsgd1na2vs0mg"},{"bike_id":"6fc7235b-f0a6-4bf5-aed0-5b9b2d472961","system_id":"levelo_inurba_marseille","lat":43.30543,"lon":5.36698,"is_reserved":false,"is_disabled":false,"rental_uris":{"android":"levelo://app?vid=6fc7235b-f0a6-4bf5-aed0-5b9b2d472961","ios":"levelo://app?vid=6fc7235b-f0a6-4bf5-aed0-5b9b2d472961"},"vehicle_type_id":"4","last_reported":1739516933,"current_range_meters":27200,"station_id":"ce4bgrp2rcd13ifvqc9g","pricing_plan_id":"cebpf4jnsgd1na2vs0mg"},{"bike_id":"d7211194-703e-4d7b-b1fc-6a1467a41aa6","system_id":"levelo_inurba_marseille","lat":43.28039,"lon":5.36955,"is_reserved":false,"is_disabled":false,"rental_uris":{"android":"levelo://app?vid=d7211194-703e-4d7b-b1fc-6a1467a41aa6","ios":"levelo://app?vid=d7211194-703e-4d7b-b1fc-6a1467a41aa6"},"vehicle_type_id":"4","last_reported":1739516933,"current_range_meters":37600,"station_id":"ce4bha12rcd13ifvqef0","pricing_plan_id":"cebpf4jnsgd1na2vs0mg"},{"bike_id":"5429a055-5c17-4863-ac08-ee7234bc7af8","system_id":"levelo_inurba_marseille","lat":43.32268,"lon":5.36837,"is_reserved":false,"is_disabled":false,"rental_uris":{"android":"levelo://app?vid=5429a055-5c17-4863-ac08-ee7234bc7af8","ios":"levelo://app?vid=5429a055-5c17-4863-ac08-ee7234bc7af8"},"vehicle_type_id":"4","last_reported":1739516933,"current_range_meters":37600,"station_id":"","pricing_plan_id":"cebpf4jnsgd1na2vs0mg"},{"bike_id":"1b745f62-ad2a-489b-a845-f3299b39637e","system_id":"levelo_inurba_marseille","lat":43.30778,"lon":5.36994,"is_reserved":false,"is_disabled":false,"rental_uris":{"android":"levelo://app?vid=1b745f62-ad2a-489b-a845-f3299b39637e","ios":"levelo://app?vid=1b745f62-ad2a-489b-a845-f3299b39637e"},"vehicle_type_id":"4","last_reported":1739516933,"current_range_meters":26800,"station_id":"","pricing_plan_id":"cebpf4jnsgd1na2vs0mg"},{"bike_id":"9183921d-8e97-4c4b-a98e-67fb34e43b27","system_id":"levelo_inurba_marseille","lat":43.2861,"lon":5.35131,"is_reserved":false,"is_disabled":false,"rental_uris":{"android":"levelo://app?vid=9183921d-8e97-4c4b-a98e-67fb34e43b27","ios":"levelo://app?vid=9183921d-8e97-4c4b-a98e-67fb34e43b27"},"vehicle_type_id":"4","last_reported":1739516933,"current_range_meters":12000,"station_id":"ce4bhch2rcd13ifvqeug","pricing_plan_id":"cebpf4jnsgd1na2vs0mg"},{"bike_id":"e067571b-67a4-4767-99d2-aec18283f7e1","system_id":"levelo_inurba_marseille","lat":43.29629,"lon":5.37143,"is_reserved":false,"is_disabled":true,"rental_uris":{"android":"levelo://app?vid=e067571b-67a4-4767-99d2-aec18283f7e1","ios":"levelo://app?vid=e067571b-67a4-4767-99d2-aec18283f7e1"},"vehicle_type_id":"4","last_reported":1739516933,"current_range_meters":38800,"station_id":"ce4bgnh2rcd13ifvqc0g","pricing_plan_id":"cebpf4jnsgd1na2vs0mg"},{"bike_id":"acc39daa-3a4d-4c95-b5a8-16360a611402","system_id":"levelo_inurba_marseille","lat":43.29619,"lon":5.37177,"is_reserved":false,"is_disabled":true,"rental_uris":{"android":"levelo://app?vid=acc39daa-3a4d-4c95-b5a8-16360a611402","ios":"levelo://app?vid=acc39daa-3a4d-4c95-b5a8-16360a611402"},"vehicle_type_id":"4","last_reported":1739516933,"current_range_meters":36400,"station_id":"ce4bgnh2rcd13ifvqc0g","pricing_plan_id":"cebpf4jnsgd1na2vs0mg"},{"bike_id":"859c79c3-9c5b-47b3-94ad-94355d1f1457","system_id":"levelo_inurba_marseille","lat":43.243962,"lon":5.370499,"is_reserved":false,"is_disabled":false,"rental_uris":{"android":"levelo://app?vid=859c79c3-9c5b-47b3-94ad-94355d1f1457","ios":"levelo://app?vid=859c79c3-9c5b-47b3-94ad-94355d1f1457"},"vehicle_type_id":"4","last_reported":1739516933,"current_range_meters":14000,"station_id":"ce4bhhh2rcd13ifvqfk0","pricing_plan_id":"cebpf4jnsgd1na2vs0mg"},{"bike_id":"6d1bf480-99a1-4bd6-b14e-45dd413efdc1","system_id":"levelo_inurba_marseille","lat":43.31331,"lon":5.39741,"is_reserved":false,"is_disabled":false,"rental_uris":{"android":"levelo://app?vid=6d1bf480-99a1-4bd6-b14e-45dd413efdc1","ios":"levelo://app?vid=6d1bf480-99a1-4bd6-b14e-45dd413efdc1"},"vehicle_type_id":"4","last_reported":1739516933,"current_range_meters":11600,"station_id":"ce4bgvp2rcd13ifvqcu0","pricing_plan_id":"cebpf4jnsgd1na2vs0mg"},{"bike_id":"2f1367e3-87e5-4d8a-973e-ba517aab4bf3","system_id":"levelo_inurba_marseille","lat":43.298489,"lon":5.362947,"is_reserved":false,"is_disabled":false,"rental_uris":{"android":"levelo://app?vid=2f1367e3-87e5-4d8a-973e-ba517aab4bf3","ios":"levelo://app?vid=2f1367e3-87e5-4d8a-973e-ba517aab4bf3"},"vehicle_type_id":"4","last_reported":1739516933,"current_range_meters":8800,"station_id":"ce4bgpp2rcd13ifvqc3g","pricing_plan_id":"cebpf4jnsgd1na2vs0mg"},{"bike_id":"9f33e96b-9ea5-47c5-8394-c6f7aeb0bc97","system_id":"levelo_inurba_marseille","lat":43.30138,"lon":5.39885,"is_reserved":false,"is_disabled":false,"rental_uris":{"android":"levelo://app?vid=9f33e96b-9ea5-47c5-8394-c6f7aeb0bc97","ios":"levelo://app?vid=9f33e96b-9ea5-47c5-8394-c6f7aeb0bc97"},"vehicle_type_id":"4","last_reported":1739516933,"current_range_meters":27600,"station_id":"ce4bh0h2rcd13ifvqd40","pricing_plan_id":"cebpf4jnsgd1na2vs0mg"},{"bike_id":"0e7b7964-ea54-42c5-bc2b-8ebf34f8cbe5","system_id":"levelo_inurba_marseille","lat":43.27617,"lon":5.36111,"is_reserved":false,"is_disabled":false,"rental_uris":{"android":"levelo://app?vid=0e7b7964-ea54-42c5-bc2b-8ebf34f8cbe5","ios":"levelo://app?vid=0e7b7964-ea54-42c5-bc2b-8ebf34f8cbe5"},"vehicle_type_id":"4","last_reported":1739516933,"current_range_meters":29600,"station_id":"ce4bgj92rcd13ifvqbe0","pricing_plan_id":"cebpf4jnsgd1na2vs0mg"},{"bike_id":"fd20bddc-d49d-41f9-a9c1-d3d9b04f7a45","system_id":"levelo_inurba_marseille","lat":43.31231,"lon":5.36877,"is_reserved":false,"is_disabled":false,"rental_uris":{"android":"levelo://app?vid=fd20bddc-d49d-41f9-a9c1-d3d9b04f7a45","ios":"levelo://app?vid=fd20bddc-d49d-41f9-a9c1-d3d9b04f7a45"},"vehicle_type_id":"4","last_reported":1739516933,"current_range_meters":10000,"station_id":"ce4bgl92rcd13ifvqbq0","pricing_plan_id":"cebpf4jnsgd1na2vs0mg"},{"bike_id":"354fd4a4-7dfc-4738-9ee9-b52996f0e69f","system_id":"levelo_inurba_marseille","lat":43.28674,"lon":5.38674,"is_reserved":false,"is_disabled":false,"rental_uris":{"android":"levelo://app?vid=354fd4a4-7dfc-4738-9ee9-b52996f0e69f","ios":"levelo://app?vid=354fd4a4-7dfc-4738-9ee9-b52996f0e69f"},"vehicle_type_id":"4","last_reported":1739516933,"current_range_meters":37600,"station_id":"ce4bh492rcd13ifvqdug","pricing_plan_id":"cebpf4jnsgd1na2vs0mg"},{"bike_id":"25003f86-dfac-483f-8c76-e702fa4fc47a","system_id":"levelo_inurba_marseille","lat":43.2815,"lon":5.42629,"is_reserved":false,"is_disabled":false,"rental_uris":{"android":"levelo://app?vid=25003f86-dfac-483f-8c76-e702fa4fc47a","ios":"levelo://app?vid=25003f86-dfac-483f-8c76-e702fa4fc47a"},"vehicle_type_id":"4","last_reported":1739516933,"current_range_meters":8000,"station_id":"ce4bhnh2rcd13ifvqgug","pricing_plan_id":"cebpf4jnsgd1na2vs0mg"},{"bike_id":"daddb9e7-2aea-461b-aa41-7cbe47034c1f","system_id":"levelo_inurba_marseille","lat":43.30994,"lon":5.401645,"is_reserved":false,"is_disabled":false,"rental_uris":{"android":"levelo://app?vid=daddb9e7-2aea-461b-aa41-7cbe47034c1f","ios":"levelo://app?vid=daddb9e7-2aea-461b-aa41-7cbe47034c1f"},"vehicle_type_id":"4","last_reported":1739516933,"current_range_meters":10000,"station_id":"ce4bgvp2rcd13ifvqct0","pricing_plan_id":"cebpf4jnsgd1na2vs0mg"},{"bike_id":"d6f38d8d-bb5a-4b27-b5d4-6029f0946ece","system_id":"levelo_inurba_marseille","lat":43.274649,"lon":5.435227,"is_reserved":false,"is_disabled":false,"rental_uris":{"android":"levelo://app?vid=d6f38d8d-bb5a-4b27-b5d4-6029f0946ece","ios":"levelo://app?vid=d6f38d8d-bb5a-4b27-b5d4-6029f0946ece"},"vehicle_type_id":"4","last_reported":1739516933,"current_range_meters":9200,"station_id":"","pricing_plan_id":"cebpf4jnsgd1na2vs0mg"},{"bike_id":"5d1096d5-7ebd-44e2-a204-0a125d9ed440","system_id":"levelo_inurba_marseille","lat":43.25109,"lon":5.4033,"is_reserved":false,"is_disabled":false,"rental_uris":{"android":"levelo://app?vid=5d1096d5-7ebd-44e2-a204-0a125d9ed440","ios":"levelo://app?vid=5d1096d5-7ebd-44e2-a204-0a125d9ed440"},"vehicle_type_id":"4","last_reported":1739516933,"current_range_meters":31200,"station_id":"ce4bhlh2rcd13ifvqgig","pricing_plan_id":"cebpf4jnsgd1na2vs0mg"},{"bike_id":"9e8fe326-5d76-4691-9e64-acf86b994dab","system_id":"levelo_inurba_marseille","lat":43.27615,"lon":5.36115,"is_reserved":false,"is_disabled":false,"rental_uris":{"android":"levelo://app?vid=9e8fe326-5d76-4691-9e64-acf86b994dab","ios":"levelo://app?vid=9e8fe326-5d76-4691-9e64-acf86b994dab"},"vehicle_type_id":"4","last_reported":1739516933,"current_range_meters":28000,"station_id":"ce4bgj92rcd13ifvqbe0","pricing_plan_id":"cebpf4jnsgd1na2vs0mg"},{"bike_id":"eb74081f-8035-495f-a073-abb8444b5eb2","system_id":"levelo_inurba_marseille","lat":43.23958,"lon":5.36627,"is_reserved":false,"is_disabled":false,"rental_uris":{"android":"levelo://app?vid=eb74081f-8035-495f-a073-abb8444b5eb2","ios":"levelo://app?vid=eb74081f-8035-495f-a073-abb8444b5eb2"},"vehicle_type_id":"4","last_reported":1739516933,"current_range_meters":36800,"station_id":"ce4bhi12rcd13ifvqfp0","pricing_plan_id":"cebpf4jnsgd1na2vs0mg"},{"bike_id":"213e7ed3-b6c6-470c-8e37-ca6ffb58bff8","system_id":"levelo_inurba_marseille","lat":43.274893,"lon":5.424567,"is_reserved":false,"is_disabled":true,"rental_uris":{"android":"levelo://app?vid=213e7ed3-b6c6-470c-8e37-ca6ffb58bff8","ios":"levelo://app?vid=213e7ed3-b6c6-470c-8e37-ca6ffb58bff8"},"vehicle_type_id":"4","last_reported":1739516933,"current_range_meters":25200,"station_id":"ce4bhn92rcd13ifvqgrg","pricing_plan_id":"cebpf4jnsgd1na2vs0mg"},{"bike_id":"9e9a6714-3fc9-40fa-9906-8520375a2b7c","system_id":"levelo_inurba_marseille","lat":43.23151,"lon":5.43718,"is_reserved":false,"is_disabled":false,"rental_uris":{"android":"levelo://app?vid=9e9a6714-3fc9-40fa-9906-8520375a2b7c","ios":"levelo://app?vid=9e9a6714-3fc9-40fa-9906-8520375a2b7c"},"vehicle_type_id":"4","last_reported":1739516933,"current_range_meters":39200,"station_id":"ce4bhmp2rcd13ifvqgog","pricing_plan_id":"cebpf4jnsgd1na2vs0mg"},{"bike_id":"861e94fe-13dc-4381-880a-a34620fe78bc","system_id":"levelo_inurba_marseille","lat":43.315416,"lon":5.380273,"is_reserved":false,"is_disabled":false,"rental_uris":{"android":"levelo://app?vid=861e94fe-13dc-4381-880a-a34620fe78bc","ios":"levelo://app?vid=861e94fe-13dc-4381-880a-a34620fe78bc"},"vehicle_type_id":"4","last_reported":1739516933,"current_range_meters":24400,"station_id":"ce4bhsp2rcd13ifvqi50","pricing_plan_id":"cebpf4jnsgd1na2vs0mg"},{"bike_id":"d55a9866-f32d-4ff7-8223-0b3fcd8e3341","system_id":"levelo_inurba_marseille","lat":43.32477,"lon":5.36579,"is_reserved":false,"is_disabled":false,"rental_uris":{"android":"levelo://app?vid=d55a9866-f32d-4ff7-8223-0b3fcd8e3341","ios":"levelo://app?vid=d55a9866-f32d-4ff7-8223-0b3fcd8e3341"},"vehicle_type_id":"4","last_reported":1739516933,"current_range_meters":31200,"station_id":"ce4bhs12rcd13ifvqhvg","pricing_plan_id":"cebpf4jnsgd1na2vs0mg"},{"bike_id":"5432c8b4-ca85-4cb1-ae85-3fed69e9666b","system_id":"levelo_inurba_marseille","lat":43.30477,"lon":5.37908,"is_reserved":false,"is_disabled":false,"rental_uris":{"android":"levelo://app?vid=5432c8b4-ca85-4cb1-ae85-3fed69e9666b","ios":"levelo://app?vid=5432c8b4-ca85-4cb1-ae85-3fed69e9666b"},"vehicle_type_id":"4","last_reported":1739516933,"current_range_meters":34000,"station_id":"ce4bgup2rcd13ifvqcn0","pricing_plan_id":"cebpf4jnsgd1na2vs0mg"},{"bike_id":"1ec14052-2d33-4aa1-9ab8-58cc71db74d1","system_id":"levelo_inurba_marseille","lat":43.24149,"lon":5.36372,"is_reserved":false,"is_disabled":true,"rental_uris":{"android":"levelo://app?vid=1ec14052-2d33-4aa1-9ab8-58cc71db74d1","ios":"levelo://app?vid=1ec14052-2d33-4aa1-9ab8-58cc71db74d1"},"vehicle_type_id":"4","last_reported":1739516933,"current_range_meters":2000,"station_id":"cpo36qri1sfpv3e86is0","pricing_plan_id":"cebpf4jnsgd1na2vs0mg"},{"bike_id":"6e58a69c-2a4e-4c49-840d-6e728a603acb","system_id":"levelo_inurba_marseille","lat":43.23061,"lon":5.35502,"is_reserved":false,"is_disabled":false,"rental_uris":{"android":"levelo://app?vid=6e58a69c-2a4e-4c49-840d-6e728a603acb","ios":"levelo://app?vid=6e58a69c-2a4e-4c49-840d-6e728a603acb"},"vehicle_type_id":"4","last_reported":1739516933,"current_range_meters":37600,"station_id":"cpo3342slgdg3j2ifvpg","pricing_plan_id":"cebpf4jnsgd1na2vs0mg"},{"bike_id":"b895121b-6d12-446c-bf2b-50817081b4a2","system_id":"levelo_inurba_marseille","lat":43.28003,"lon":5.38727,"is_reserved":false,"is_disabled":false,"rental_uris":{"android":"levelo://app?vid=b895121b-6d12-446c-bf2b-50817081b4a2","ios":"levelo://app?vid=b895121b-6d12-446c-bf2b-50817081b4a2"},"vehicle_type_id":"4","last_reported":1739516933,"current_range_meters":36400,"station_id":"ce4bhg12rcd13ifvqf80","pricing_plan_id":"cebpf4jnsgd1na2vs0mg"},{"bike_id":"e849d64a-4319-4900-ae12-23b13c13803b","system_id":"levelo_inurba_marseille","lat":43.30469,"lon":5.37902,"is_reserved":false,"is_disabled":false,"rental_uris":{"android":"levelo://app?vid=e849d64a-4319-4900-ae12-23b13c13803b","ios":"levelo://app?vid=e849d64a-4319-4900-ae12-23b13c13803b"},"vehicle_type_id":"4","last_reported":1739516933,"current_range_meters":32800,"station_id":"ce4bgup2rcd13ifvqcn0","pricing_plan_id":"cebpf4jnsgd1na2vs0mg"},{"bike_id":"ad8f6ef4-cc35-4977-9039-32a61f9200e5","system_id":"levelo_inurba_marseille","lat":43.28606,"lon":5.35106,"is_reserved":false,"is_disabled":false,"rental_uris":{"android":"levelo://app?vid=ad8f6ef4-cc35-4977-9039-32a61f9200e5","ios":"levelo://app?vid=ad8f6ef4-cc35-4977-9039-32a61f9200e5"},"vehicle_type_id":"4","last_reported":1739516933,"current_range_meters":38400,"station_id":"ce4bhch2rcd13ifvqeug","pricing_plan_id":"cebpf4jnsgd1na2vs0mg"},{"bike_id":"0734d612-ef77-4b2c-aaa6-bce46c2274cc","system_id":"levelo_inurba_marseille","lat":43.299419,"lon":5.36535,"is_reserved":false,"is_disabled":true,"rental_uris":{"android":"levelo://app?vid=0734d612-ef77-4b2c-aaa6-bce46c2274cc","ios":"levelo://app?vid=0734d612-ef77-4b2c-aaa6-bce46c2274cc"},"vehicle_type_id":"4","last_reported":1739516933,"current_range_meters":30800,"station_id":"ce4bgm92rcd13ifvqbr0","pricing_plan_id":"cebpf4jnsgd1na2vs0mg"},{"bike_id":"f50eff07-a8c4-4cc6-b46b-160543be4a0c","system_id":"levelo_inurba_marseille","lat":43.28402,"lon":5.37513,"is_reserved":false,"is_disabled":false,"rental_uris":{"android":"levelo://app?vid=f50eff07-a8c4-4cc6-b46b-160543be4a0c","ios":"levelo://app?vid=f50eff07-a8c4-4cc6-b46b-160543be4a0c"},"vehicle_type_id":"4","last_reported":1739516933,"current_range_meters":16000,"station_id":"ce4bh412rcd13ifvqds0","pricing_plan_id":"cebpf4jnsgd1na2vs0mg"},{"bike_id":"a8a2f86c-9c40-4b00-9d62-6448a3d71e30","system_id":"levelo_inurba_marseille","lat":43.30154,"lon":5.38089,"is_reserved":false,"is_disabled":false,"rental_uris":{"android":"levelo://app?vid=a8a2f86c-9c40-4b00-9d62-6448a3d71e30","ios":"levelo://app?vid=a8a2f86c-9c40-4b00-9d62-6448a3d71e30"},"vehicle_type_id":"4","last_reported":1739516933,"current_range_meters":37600,"station_id":"ce4bgjp2rcd13ifvqbh0","pricing_plan_id":"cebpf4jnsgd1na2vs0mg"},{"bike_id":"4450d397-c7c4-4c68-aed9-fa811598c082","system_id":"levelo_inurba_marseille","lat":43.32535,"lon":5.3648,"is_reserved":false,"is_disabled":false,"rental_uris":{"android":"levelo://app?vid=4450d397-c7c4-4c68-aed9-fa811598c082","ios":"levelo://app?vid=4450d397-c7c4-4c68-aed9-fa811598c082"},"vehicle_type_id":"4","last_reported":1739516933,"current_range_meters":32000,"station_id":"","pricing_plan_id":"cebpf4jnsgd1na2vs0mg"},{"bike_id":"c186b7ff-1611-4e5e-b1a9-a47eed5d97f0","system_id":"levelo_inurba_marseille","lat":43.3132,"lon":5.39688,"is_reserved":false,"is_disabled":true,"rental_uris":{"android":"levelo://app?vid=c186b7ff-1611-4e5e-b1a9-a47eed5d97f0","ios":"levelo://app?vid=c186b7ff-1611-4e5e-b1a9-a47eed5d97f0"},"vehicle_type_id":"4","last_reported":1739516933,"current_range_meters":0,"station_id":"ce4bgvp2rcd13ifvqcu0","pricing_plan_id":"cebpf4jnsgd1na2vs0mg"},{"bike_id":"371b24fd-427a-4acf-a12d-3c4c10502b0d","system_id":"levelo_inurba_marseille","lat":43.28362,"lon":5.38773,"is_reserved":false,"is_disabled":false,"rental_uris":{"android":"levelo://app?vid=371b24fd-427a-4acf-a12d-3c4c10502b0d","ios":"levelo://app?vid=371b24fd-427a-4acf-a12d-3c4c10502b0d"},"vehicle_type_id":"4","last_reported":1739516933,"current_range_meters":38000,"station_id":"ce4bh492rcd13ifvqdvg","pricing_plan_id":"cebpf4jnsgd1na2vs0mg"},{"bike_id":"825e3936-0631-4092-8751-d678ad3a94bc","system_id":"levelo_inurba_marseille","lat":43.31272,"lon":5.40161,"is_reserved":false,"is_disabled":false,"rental_uris":{"android":"levelo://app?vid=825e3936-0631-4092-8751-d678ad3a94bc","ios":"levelo://app?vid=825e3936-0631-4092-8751-d678ad3a94bc"},"vehicle_type_id":"4","last_reported":1739516933,"current_range_meters":8000,"station_id":"ce4bh092rcd13ifvqd30","pricing_plan_id":"cebpf4jnsgd1na2vs0mg"},{"bike_id":"04e79b02-26b7-408e-8d07-a04361b8a27a","system_id":"levelo_inurba_marseille","lat":43.23181,"lon":5.39992,"is_reserved":false,"is_disabled":false,"rental_uris":{"android":"levelo://app?vid=04e79b02-26b7-408e-8d07-a04361b8a27a","ios":"levelo://app?vid=04e79b02-26b7-408e-8d07-a04361b8a27a"},"vehicle_type_id":"4","last_reported":1739516933,"current_range_meters":38800,"station_id":"ce4bhn12rcd13ifvqgqg","pricing_plan_id":"cebpf4jnsgd1na2vs0mg"},{"bike_id":"6b656e81-a99f-458b-b133-2509327cf097","system_id":"levelo_inurba_marseille","lat":43.28249,"lon":5.36097,"is_reserved":false,"is_disabled":false,"rental_uris":{"android":"levelo://app?vid=6b656e81-a99f-458b-b133-2509327cf097","ios":"levelo://app?vid=6b656e81-a99f-458b-b133-2509327cf097"},"vehicle_type_id":"4","last_reported":1739516933,"current_range_meters":15200,"station_id":"","pricing_plan_id":"cebpf4jnsgd1na2vs0mg"},{"bike_id":"a9f37a00-0441-4ad7-b782-5e3f3b0e51f8","system_id":"levelo_inurba_marseille","lat":43.2315,"lon":5.43724,"is_reserved":false,"is_disabled":false,"rental_uris":{"android":"levelo://app?vid=a9f37a00-0441-4ad7-b782-5e3f3b0e51f8","ios":"levelo://app?vid=a9f37a00-0441-4ad7-b782-5e3f3b0e51f8"},"vehicle_type_id":"4","last_reported":1739516933,"current_range_meters":17200,"station_id":"ce4bhmp2rcd13ifvqgog","pricing_plan_id":"cebpf4jnsgd1na2vs0mg"},{"bike_id":"b64cb318-9a9d-45df-b9e1-d16ce258851f","system_id":"levelo_inurba_marseille","lat":43.281554,"lon":5.426384,"is_reserved":false,"is_disabled":true,"rental_uris":{"android":"levelo://app?vid=b64cb318-9a9d-45df-b9e1-d16ce258851f","ios":"levelo://app?vid=b64cb318-9a9d-45df-b9e1-d16ce258851f"},"vehicle_type_id":"4","last_reported":1739516933,"current_range_meters":2800,"station_id":"ce4bhnh2rcd13ifvqgug","pricing_plan_id":"cebpf4jnsgd1na2vs0mg"},{"bike_id":"152fd37b-faf3-480e-a36f-94e6a745b61a","system_id":"levelo_inurba_marseille","lat":43.293068,"lon":5.371815,"is_reserved":false,"is_disabled":true,"rental_uris":{"android":"levelo://app?vid=152fd37b-faf3-480e-a36f-94e6a745b61a","ios":"levelo://app?vid=152fd37b-faf3-480e-a36f-94e6a745b61a"},"vehicle_type_id":"4","last_reported":1739516933,"current_range_meters":38800,"station_id":"ce4bgh92rcd13ifvqb40","pricing_plan_id":"cebpf4jnsgd1na2vs0mg"},{"bike_id":"c1747c16-3973-489f-af08-42648679d7d5","system_id":"levelo_inurba_marseille","lat":43.23154,"lon":5.43714,"is_reserved":false,"is_disabled":false,"rental_uris":{"android":"levelo://app?vid=c1747c16-3973-489f-af08-42648679d7d5","ios":"levelo://app?vid=c1747c16-3973-489f-af08-42648679d7d5"},"vehicle_type_id":"4","last_reported":1739516933,"current_range_meters":20000,"station_id":"ce4bhmp2rcd13ifvqgog","pricing_plan_id":"cebpf4jnsgd1na2vs0mg"},{"bike_id":"134a4a22-5177-473f-8a38-0bad709cecbb","system_id":"levelo_inurba_marseille","lat":43.29108,"lon":5.38131,"is_reserved":false,"is_disabled":false,"rental_uris":{"android":"levelo://app?vid=134a4a22-5177-473f-8a38-0bad709cecbb","ios":"levelo://app?vid=134a4a22-5177-473f-8a38-0bad709cecbb"},"vehicle_type_id":"4","last_reported":1739516933,"current_range_meters":36800,"station_id":"ce4bh512rcd13ifvqe2g","pricing_plan_id":"cebpf4jnsgd1na2vs0mg"},{"bike_id":"131a3d2d-0fa7-4199-8a07-3cf997d16a95","system_id":"levelo_inurba_marseille","lat":43.31331,"lon":5.39719,"is_reserved":false,"is_disabled":false,"rental_uris":{"android":"levelo://app?vid=131a3d2d-0fa7-4199-8a07-3cf997d16a95","ios":"levelo://app?vid=131a3d2d-0fa7-4199-8a07-3cf997d16a95"},"vehicle_type_id":"4","last_reported":1739516933,"current_range_meters":4400,"station_id":"ce4bgvp2rcd13ifvqcu0","pricing_plan_id":"cebpf4jnsgd1na2vs0mg"},{"bike_id":"80447043-cc20-4f01-89de-a6705f0695c4","system_id":"levelo_inurba_marseille","lat":43.28259,"lon":5.35083,"is_reserved":false,"is_disabled":false,"rental_uris":{"android":"levelo://app?vid=80447043-cc20-4f01-89de-a6705f0695c4","ios":"levelo://app?vid=80447043-cc20-4f01-89de-a6705f0695c4"},"vehicle_type_id":"4","last_reported":1739516933,"current_range_meters":8000,"station_id":"ce4bhbp2rcd13ifvqerg","pricing_plan_id":"cebpf4jnsgd1na2vs0mg"},{"bike_id":"62862006-05b4-4c32-b74d-3d73ca0f3a49","system_id":"levelo_inurba_marseille","lat":43.29493,"lon":5.36395,"is_reserved":false,"is_disabled":false,"rental_uris":{"android":"levelo://app?vid=62862006-05b4-4c32-b74d-3d73ca0f3a49","ios":"levelo://app?vid=62862006-05b4-4c32-b74d-3d73ca0f3a49"},"vehicle_type_id":"4","last_reported":1739516933,"current_range_meters":27600,"station_id":"","pricing_plan_id":"cebpf4jnsgd1na2vs0mg"},{"bike_id":"527fb167-ceff-455e-ae21-9ef95f9ad97b","system_id":"levelo_inurba_marseille","lat":43.285741,"lon":5.395018,"is_reserved":false,"is_disabled":false,"rental_uris":{"android":"levelo://app?vid=527fb167-ceff-455e-ae21-9ef95f9ad97b","ios":"levelo://app?vid=527fb167-ceff-455e-ae21-9ef95f9ad97b"},"vehicle_type_id":"4","last_reported":1739516933,"current_range_meters":38800,"station_id":"ce4bh292rcd13ifvqdg0","pricing_plan_id":"cebpf4jnsgd1na2vs0mg"},{"bike_id":"bbb6f758-ef12-4737-861c-2da510dfe0ae","system_id":"levelo_inurba_marseille","lat":43.30151,"lon":5.37519,"is_reserved":false,"is_disabled":false,"rental_uris":{"android":"levelo://app?vid=bbb6f758-ef12-4737-861c-2da510dfe0ae","ios":"levelo://app?vid=bbb6f758-ef12-4737-861c-2da510dfe0ae"},"vehicle_type_id":"4","last_reported":1739516933,"current_range_meters":20800,"station_id":"","pricing_plan_id":"cebpf4jnsgd1na2vs0mg"},{"bike_id":"ba6e0d8f-5a2e-462a-96c3-ee4a15a20301","system_id":"levelo_inurba_marseille","lat":43.30479,"lon":5.3792,"is_reserved":false,"is_disabled":false,"rental_uris":{"android":"levelo://app?vid=ba6e0d8f-5a2e-462a-96c3-ee4a15a20301","ios":"levelo://app?vid=ba6e0d8f-5a2e-462a-96c3-ee4a15a20301"},"vehicle_type_id":"4","last_reported":1739516933,"current_range_meters":35600,"station_id":"ce4bgup2rcd13ifvqcn0","pricing_plan_id":"cebpf4jnsgd1na2vs0mg"},{"bike_id":"c04ac249-dc10-4dab-92dc-2ad767cf01f6","system_id":"levelo_inurba_marseille","lat":43.30473,"lon":5.379,"is_reserved":false,"is_disabled":false,"rental_uris":{"android":"levelo://app?vid=c04ac249-dc10-4dab-92dc-2ad767cf01f6","ios":"levelo://app?vid=c04ac249-dc10-4dab-92dc-2ad767cf01f6"},"vehicle_type_id":"4","last_reported":1739516933,"current_range_meters":36000,"station_id":"ce4bgup2rcd13ifvqcn0","pricing_plan_id":"cebpf4jnsgd1na2vs0mg"},{"bike_id":"973ad2a7-44d0-4dfc-aabe-779b9eeced18","system_id":"levelo_inurba_marseille","lat":43.30781,"lon":5.37663,"is_reserved":false,"is_disabled":false,"rental_uris":{"android":"levelo://app?vid=973ad2a7-44d0-4dfc-aabe-779b9eeced18","ios":"levelo://app?vid=973ad2a7-44d0-4dfc-aabe-779b9eeced18"},"vehicle_type_id":"4","last_reported":1739516933,"current_range_meters":38800,"station_id":"ce4bgv92rcd13ifvqcq0","pricing_plan_id":"cebpf4jnsgd1na2vs0mg"},{"bike_id":"2283e225-97e6-4fca-8c98-dbf6416907b2","system_id":"levelo_inurba_marseille","lat":43.30466,"lon":5.37915,"is_reserved":false,"is_disabled":false,"rental_uris":{"android":"levelo://app?vid=2283e225-97e6-4fca-8c98-dbf6416907b2","ios":"levelo://app?vid=2283e225-97e6-4fca-8c98-dbf6416907b2"},"vehicle_type_id":"4","last_reported":1739516933,"current_range_meters":26800,"station_id":"ce4bgup2rcd13ifvqcn0","pricing_plan_id":"cebpf4jnsgd1na2vs0mg"},{"bike_id":"a93f7d49-edc5-45ec-baf3-74ca26311e2c","system_id":"levelo_inurba_marseille","lat":43.2603,"lon":5.37563,"is_reserved":false,"is_disabled":false,"rental_uris":{"android":"levelo://app?vid=a93f7d49-edc5-45ec-baf3-74ca26311e2c","ios":"levelo://app?vid=a93f7d49-edc5-45ec-baf3-74ca26311e2c"},"vehicle_type_id":"4","last_reported":1739516933,"current_range_meters":38000,"station_id":"ce4bhgh2rcd13ifvqfa0","pricing_plan_id":"cebpf4jnsgd1na2vs0mg"},{"bike_id":"7c63fcdc-90c7-409a-ac4b-b5b3c364141a","system_id":"levelo_inurba_marseille","lat":43.30544,"lon":5.38429,"is_reserved":false,"is_disabled":true,"rental_uris":{"android":"levelo://app?vid=7c63fcdc-90c7-409a-ac4b-b5b3c364141a","ios":"levelo://app?vid=7c63fcdc-90c7-409a-ac4b-b5b3c364141a"},"vehicle_type_id":"4","last_reported":1739516933,"current_range_meters":36000,"station_id":"ce4bgg92rcd13ifvqb30","pricing_plan_id":"cebpf4jnsgd1na2vs0mg"},{"bike_id":"3bfb027b-d84e-43d4-b525-dfd6851f7b90","system_id":"levelo_inurba_marseille","lat":43.31267,"lon":5.40166,"is_reserved":false,"is_disabled":false,"rental_uris":{"android":"levelo://app?vid=3bfb027b-d84e-43d4-b525-dfd6851f7b90","ios":"levelo://app?vid=3bfb027b-d84e-43d4-b525-dfd6851f7b90"},"vehicle_type_id":"4","last_reported":1739516933,"current_range_meters":20800,"station_id":"ce4bh092rcd13ifvqd30","pricing_plan_id":"cebpf4jnsgd1na2vs0mg"},{"bike_id":"89bd0d18-1411-4b9e-ac03-27169631b5ac","system_id":"levelo_inurba_marseille","lat":43.2894,"lon":5.39627,"is_reserved":false,"is_disabled":false,"rental_uris":{"android":"levelo://app?vid=89bd0d18-1411-4b9e-ac03-27169631b5ac","ios":"levelo://app?vid=89bd0d18-1411-4b9e-ac03-27169631b5ac"},"vehicle_type_id":"4","last_reported":1739516933,"current_range_meters":39200,"station_id":"ce4bh3h2rcd13ifvqdn0","pricing_plan_id":"cebpf4jnsgd1na2vs0mg"},{"bike_id":"ee566f3d-0e78-4ced-ac1b-e3b33c18e89e","system_id":"levelo_inurba_marseille","lat":43.243974,"lon":5.370495,"is_reserved":false,"is_disabled":false,"rental_uris":{"android":"levelo://app?vid=ee566f3d-0e78-4ced-ac1b-e3b33c18e89e","ios":"levelo://app?vid=ee566f3d-0e78-4ced-ac1b-e3b33c18e89e"},"vehicle_type_id":"4","last_reported":1739516933,"current_range_meters":18800,"station_id":"ce4bhhh2rcd13ifvqfk0","pricing_plan_id":"cebpf4jnsgd1na2vs0mg"},{"bike_id":"da7f2fae-5747-45f2-981c-2899a6e7dc68","system_id":"levelo_inurba_marseille","lat":43.25584,"lon":5.38228,"is_reserved":false,"is_disabled":false,"rental_uris":{"android":"levelo://app?vid=da7f2fae-5747-45f2-981c-2899a6e7dc68","ios":"levelo://app?vid=da7f2fae-5747-45f2-981c-2899a6e7dc68"},"vehicle_type_id":"4","last_reported":1739516933,"current_range_meters":26000,"station_id":"ce4bhih2rcd13ifvqfs0","pricing_plan_id":"cebpf4jnsgd1na2vs0mg"},{"bike_id":"0522f794-1232-4c9b-bc22-b0243233d03c","system_id":"levelo_inurba_marseille","lat":43.279345,"lon":5.41053,"is_reserved":false,"is_disabled":false,"rental_uris":{"android":"levelo://app?vid=0522f794-1232-4c9b-bc22-b0243233d03c","ios":"levelo://app?vid=0522f794-1232-4c9b-bc22-b0243233d03c"},"vehicle_type_id":"4","last_reported":1739516933,"current_range_meters":38800,"station_id":"ce4bhnp2rcd13ifvqh0g","pricing_plan_id":"cebpf4jnsgd1na2vs0mg"},{"bike_id":"e97cb684-fdb6-4e8d-8ae0-067048630202","system_id":"levelo_inurba_marseille","lat":43.28476,"lon":5.38416,"is_reserved":false,"is_disabled":false,"rental_uris":{"android":"levelo://app?vid=e97cb684-fdb6-4e8d-8ae0-067048630202","ios":"levelo://app?vid=e97cb684-fdb6-4e8d-8ae0-067048630202"},"vehicle_type_id":"4","last_reported":1739516933,"current_range_meters":10800,"station_id":"ce4bh512rcd13ifvqe3g","pricing_plan_id":"cebpf4jnsgd1na2vs0mg"},{"bike_id":"7a8a0287-264a-4a19-acda-b1382233fe54","system_id":"levelo_inurba_marseille","lat":43.31331,"lon":5.39714,"is_reserved":false,"is_disabled":false,"rental_uris":{"android":"levelo://app?vid=7a8a0287-264a-4a19-acda-b1382233fe54","ios":"levelo://app?vid=7a8a0287-264a-4a19-acda-b1382233fe54"},"vehicle_type_id":"4","last_reported":1739516933,"current_range_meters":16800,"station_id":"ce4bgvp2rcd13ifvqcu0","pricing_plan_id":"cebpf4jnsgd1na2vs0mg"},{"bike_id":"54ce597b-1ca1-4d62-923d-d4b29eec04b3","system_id":"levelo_inurba_marseille","lat":43.31131,"lon":5.38261,"is_reserved":false,"is_disabled":false,"rental_uris":{"android":"levelo://app?vid=54ce597b-1ca1-4d62-923d-d4b29eec04b3","ios":"levelo://app?vid=54ce597b-1ca1-4d62-923d-d4b29eec04b3"},"vehicle_type_id":"4","last_reported":1739516933,"current_range_meters":6400,"station_id":"","pricing_plan_id":"cebpf4jnsgd1na2vs0mg"},{"bike_id":"5900da6e-6ade-4e81-b9ef-ce2685f5a5b4","system_id":"levelo_inurba_marseille","lat":43.28854,"lon":5.39332,"is_reserved":false,"is_disabled":true,"rental_uris":{"android":"levelo://app?vid=5900da6e-6ade-4e81-b9ef-ce2685f5a5b4","ios":"levelo://app?vid=5900da6e-6ade-4e81-b9ef-ce2685f5a5b4"},"vehicle_type_id":"4","last_reported":1739516933,"current_range_meters":4800,"station_id":"ce4bh2p2rcd13ifvqdi0","pricing_plan_id":"cebpf4jnsgd1na2vs0mg"},{"bike_id":"d2390134-cb0a-4e75-9b5a-5182f3230d9e","system_id":"levelo_inurba_marseille","lat":43.30151,"lon":5.37421,"is_reserved":false,"is_disabled":false,"rental_uris":{"android":"levelo://app?vid=d2390134-cb0a-4e75-9b5a-5182f3230d9e","ios":"levelo://app?vid=d2390134-cb0a-4e75-9b5a-5182f3230d9e"},"vehicle_type_id":"4","last_reported":1739516933,"current_range_meters":38000,"station_id":"ce4bgs92rcd13ifvqcc0","pricing_plan_id":"cebpf4jnsgd1na2vs0mg"},{"bike_id":"607b1169-7ce6-4105-9206-1b16531919d1","system_id":"levelo_inurba_marseille","lat":43.28994,"lon":5.35626,"is_reserved":false,"is_disabled":false,"rental_uris":{"android":"levelo://app?vid=607b1169-7ce6-4105-9206-1b16531919d1","ios":"levelo://app?vid=607b1169-7ce6-4105-9206-1b16531919d1"},"vehicle_type_id":"4","last_reported":1739516933,"current_range_meters":35200,"station_id":"ce4bhb92rcd13ifvqen0","pricing_plan_id":"cebpf4jnsgd1na2vs0mg"},{"bike_id":"8ecee20b-ca8d-4afb-bfc7-4ae9a3ec5fd2","system_id":"levelo_inurba_marseille","lat":43.28483,"lon":5.38551,"is_reserved":false,"is_disabled":false,"rental_uris":{"android":"levelo://app?vid=8ecee20b-ca8d-4afb-bfc7-4ae9a3ec5fd2","ios":"levelo://app?vid=8ecee20b-ca8d-4afb-bfc7-4ae9a3ec5fd2"},"vehicle_type_id":"4","last_reported":1739516933,"current_range_meters":6000,"station_id":"ce4bh8p2rcd13ifvqeb0","pricing_plan_id":"cebpf4jnsgd1na2vs0mg"},{"bike_id":"5659bf41-4cae-4136-bee8-78fe202573fb","system_id":"levelo_inurba_marseille","lat":43.30454,"lon":5.37942,"is_reserved":false,"is_disabled":false,"rental_uris":{"android":"levelo://app?vid=5659bf41-4cae-4136-bee8-78fe202573fb","ios":"levelo://app?vid=5659bf41-4cae-4136-bee8-78fe202573fb"},"vehicle_type_id":"4","last_reported":1739516933,"current_range_meters":38800,"station_id":"ce4bgup2rcd13ifvqcn0","pricing_plan_id":"cebpf4jnsgd1na2vs0mg"},{"bike_id":"6d7e53c6-fdb7-4f45-aefc-31ad7e99f224","system_id":"levelo_inurba_marseille","lat":43.31264,"lon":5.40181,"is_reserved":false,"is_disabled":true,"rental_uris":{"android":"levelo://app?vid=6d7e53c6-fdb7-4f45-aefc-31ad7e99f224","ios":"levelo://app?vid=6d7e53c6-fdb7-4f45-aefc-31ad7e99f224"},"vehicle_type_id":"4","last_reported":1739516933,"current_range_meters":0,"station_id":"ce4bh092rcd13ifvqd30","pricing_plan_id":"cebpf4jnsgd1na2vs0mg"},{"bike_id":"5bd0fb79-8e1e-4ada-8963-ad425f186c63","system_id":"levelo_inurba_marseille","lat":43.30471,"lon":5.37918,"is_reserved":false,"is_disabled":false,"rental_uris":{"android":"levelo://app?vid=5bd0fb79-8e1e-4ada-8963-ad425f186c63","ios":"levelo://app?vid=5bd0fb79-8e1e-4ada-8963-ad425f186c63"},"vehicle_type_id":"4","last_reported":1739516933,"current_range_meters":28800,"station_id":"ce4bgup2rcd13ifvqcn0","pricing_plan_id":"cebpf4jnsgd1na2vs0mg"},{"bike_id":"e5ef80dd-4702-46bb-bfde-5dd61590a716","system_id":"levelo_inurba_marseille","lat":43.29258,"lon":5.409086,"is_reserved":false,"is_disabled":false,"rental_uris":{"android":"levelo://app?vid=e5ef80dd-4702-46bb-bfde-5dd61590a716","ios":"levelo://app?vid=e5ef80dd-4702-46bb-bfde-5dd61590a716"},"vehicle_type_id":"4","last_reported":1739516933,"current_range_meters":37600,"station_id":"ce4bh192rcd13ifvqdc0","pricing_plan_id":"cebpf4jnsgd1na2vs0mg"},{"bike_id":"39dd43a7-ebb8-40e7-8206-788a02d9b9e8","system_id":"levelo_inurba_marseille","lat":43.307876,"lon":5.376536,"is_reserved":false,"is_disabled":false,"rental_uris":{"android":"levelo://app?vid=39dd43a7-ebb8-40e7-8206-788a02d9b9e8","ios":"levelo://app?vid=39dd43a7-ebb8-40e7-8206-788a02d9b9e8"},"vehicle_type_id":"4","last_reported":1739516933,"current_range_meters":28800,"station_id":"ce4bgv92rcd13ifvqcq0","pricing_plan_id":"cebpf4jnsgd1na2vs0mg"},{"bike_id":"d5759068-1fad-4f54-9856-d87ead305c76","system_id":"levelo_inurba_marseille","lat":43.29276,"lon":5.40111,"is_reserved":false,"is_disabled":false,"rental_uris":{"android":"levelo://app?vid=d5759068-1fad-4f54-9856-d87ead305c76","ios":"levelo://app?vid=d5759068-1fad-4f54-9856-d87ead305c76"},"vehicle_type_id":"4","last_reported":1739516933,"current_range_meters":7200,"station_id":"ce4bh312rcd13ifvqdk0","pricing_plan_id":"cebpf4jnsgd1na2vs0mg"},{"bike_id":"8366fb7c-0063-4186-8d36-8b24404479fb","system_id":"levelo_inurba_marseille","lat":43.31359,"lon":5.38505,"is_reserved":false,"is_disabled":true,"rental_uris":{"android":"levelo://app?vid=8366fb7c-0063-4186-8d36-8b24404479fb","ios":"levelo://app?vid=8366fb7c-0063-4186-8d36-8b24404479fb"},"vehicle_type_id":"4","last_reported":1739516933,"current_range_meters":0,"station_id":"ce4bgt92rcd13ifvqcf0","pricing_plan_id":"cebpf4jnsgd1na2vs0mg"},{"bike_id":"4ead6ba4-f84b-42e8-b681-23db07a03f5e","system_id":"levelo_inurba_marseille","lat":43.30861,"lon":5.39654,"is_reserved":false,"is_disabled":false,"rental_uris":{"android":"levelo://app?vid=4ead6ba4-f84b-42e8-b681-23db07a03f5e","ios":"levelo://app?vid=4ead6ba4-f84b-42e8-b681-23db07a03f5e"},"vehicle_type_id":"4","last_reported":1739516933,"current_range_meters":27200,"station_id":"ce4bh012rcd13ifvqcv0","pricing_plan_id":"cebpf4jnsgd1na2vs0mg"},{"bike_id":"90d6b28b-d2ff-499b-949c-5a4f2ff008b1","system_id":"levelo_inurba_marseille","lat":43.24389,"lon":5.3703,"is_reserved":false,"is_disabled":false,"rental_uris":{"android":"levelo://app?vid=90d6b28b-d2ff-499b-949c-5a4f2ff008b1","ios":"levelo://app?vid=90d6b28b-d2ff-499b-949c-5a4f2ff008b1"},"vehicle_type_id":"4","last_reported":1739516933,"current_range_meters":37600,"station_id":"ce4bhhh2rcd13ifvqfk0","pricing_plan_id":"cebpf4jnsgd1na2vs0mg"},{"bike_id":"0bcf13c0-f59c-4988-8838-69f30d35f568","system_id":"levelo_inurba_marseille","lat":43.25921,"lon":5.40865,"is_reserved":false,"is_disabled":false,"rental_uris":{"android":"levelo://app?vid=0bcf13c0-f59c-4988-8838-69f30d35f568","ios":"levelo://app?vid=0bcf13c0-f59c-4988-8838-69f30d35f568"},"vehicle_type_id":"4","last_reported":1739516933,"current_range_meters":32800,"station_id":"ce4bhm92rcd13ifvqglg","pricing_plan_id":"cebpf4jnsgd1na2vs0mg"},{"bike_id":"0d9b6382-6e77-4d74-878f-99f113979979","system_id":"levelo_inurba_marseille","lat":43.30403,"lon":5.413,"is_reserved":false,"is_disabled":false,"rental_uris":{"android":"levelo://app?vid=0d9b6382-6e77-4d74-878f-99f113979979","ios":"levelo://app?vid=0d9b6382-6e77-4d74-878f-99f113979979"},"vehicle_type_id":"4","last_reported":1739516933,"current_range_meters":27600,"station_id":"ce4bhop2rcd13ifvqh8g","pricing_plan_id":"cebpf4jnsgd1na2vs0mg"},{"bike_id":"2fd96256-7a3f-48fc-8306-1d9159eb9aed","system_id":"levelo_inurba_marseille","lat":43.23157,"lon":5.43703,"is_reserved":false,"is_disabled":false,"rental_uris":{"android":"levelo://app?vid=2fd96256-7a3f-48fc-8306-1d9159eb9aed","ios":"levelo://app?vid=2fd96256-7a3f-48fc-8306-1d9159eb9aed"},"vehicle_type_id":"4","last_reported":1739516933,"current_range_meters":39200,"station_id":"ce4bhmp2rcd13ifvqgog","pricing_plan_id":"cebpf4jnsgd1na2vs0mg"},{"bike_id":"1604f216-d035-4a70-8ff0-d8686e5ef507","system_id":"levelo_inurba_marseille","lat":43.29041,"lon":5.38665,"is_reserved":false,"is_disabled":true,"rental_uris":{"android":"levelo://app?vid=1604f216-d035-4a70-8ff0-d8686e5ef507","ios":"levelo://app?vid=1604f216-d035-4a70-8ff0-d8686e5ef507"},