{"last_updated":1753075161,"ttl":60,"version":"2.2","data":{"bikes":[{"bike_id":"53b742a7-31ae-4272-9bba-7740339e2a2f","system_id":"levelo_inurba_marseille","lat":43.33747,"lon":5.37463,"is_reserved":false,"is_disabled":false,"rental_uris":{"android":"levelo://app?vid=53b742a7-31ae-4272-9bba-7740339e2a2f","ios":"levelo://app?vid=53b742a7-31ae-4272-9bba-7740339e2a2f"},"vehicle_type_id":"1","last_reported":1753075161,"current_range_meters":8000,"station_id":"","pricing_plan_id":"cebpf4jnsgd1na2vs0mg"},{"bike_id":"57bb565d-2136-465a-803d-648474c4a3a7","system_id":"levelo_inurba_marseille","lat":43.331144,"lon":5.355188,"is_reserved":false,"is_disabled":false,"rental_uris":{"android":"levelo://app?vid=57bb565d-2136-465a-803d-648474c4a3a7","ios":"levelo://app?vid=57bb565d-2136-465a-803d-648474c4a3a7"},"vehicle_type_id":"4","last_reported":1753075161,"current_range_meters":2800,"station_id":"","pricing_plan_id":"cebpf4jnsgd1na2vs0mg"},{"bike_id":"78cf64b6-550a-44f0-8152-cbd9443a024f","system_id":"levelo_inurba_marseille","lat":43.300568,"lon":5.366078,"is_reserved":false,"is_disabled":false,"rental_uris":{"android":"levelo://app?vid=78cf64b6-550a-44f0-8152-cbd9443a024f","ios":"levelo://app?vid=78cf64b6-550a-44f0-8152-cbd9443a024f"},"vehicle_type_id":"4","last_reported":1753075161,"current_range_meters":3200,"station_id":"","pricing_plan_id":"cebpf4jnsgd1na2vs0mg"},{"bike_id":"55aa679c-ef7c-4be1-9335-f946e851cf8c","system_id":"levelo_inurba_marseille","lat":43.253619,"lon":5.375829,"is_reserved":false,"is_disabled":true,"rental_uris":{"android":"levelo://app?vid=55aa679c-ef7c-4be1-9335-f946e851cf8c","ios":"levelo://app?vid=55aa679c-ef7c-4be1-9335-f946e851cf8c"},"vehicle_type_id":"4","last_reported":1753075161,"current_range_meters":3600,"station_id":"","pricing_plan_id":"cebpf4jnsgd1na2vs0mg"},{"bike_id":"bb1cd7a1-464c-4c8c-b894-6306d52075e4","system_id":"levelo_inurba_marseille","lat":43.350171,"lon":5.350271,"is_reserved":false,"is_disabled":false,"rental_uris":{"android":"levelo://app?vid=bb1cd7a1-464c-4c8c-b894-6306d52075e4","ios":"levelo://app?vid=bb1cd7a1-464c-4c8c-b894-6306d52075e4"},"vehicle_type_id":"4","last_reported":1753075161,"current_range_meters":3600,"station_id":"","pricing_plan_id":"cebpf4jnsgd1na2vs0mg"},{"bike_id":"21298d24-a76a-4fd6-88f9-bc3c3feeeed6","system_id":"levelo_inurba_marseille","lat":43.246836,"lon":5.381599,"is_reserved":false,"is_disabled":true,"rental_uris":{"android":"levelo://app?vid=21298d24-a76a-4fd6-88f9-bc3c3feeeed6","ios":"levelo://app?vid=21298d24-a76a-4fd6-88f9-bc3c3feeeed6"},"vehicle_type_id":"4","last_reported":1753075161,"current_range_meters":3600,"station_id":"ce4bhih2rcd13ifvqfr0","pricing_plan_id":"cebpf4jnsgd1na2vs0mg"},{"bike_id":"2d5426b7-c5ef-4761-9a4a-28e19dac621a","system_id":"levelo_inurba_marseille","lat":43.3041,"lon":5.41283,"is_reserved":false,"is_disabled":true,"rental_uris":{"android":"levelo://app?vid=2d5426b7-c5ef-4761-9a4a-28e19dac621a","ios":"levelo://app?vid=2d5426b7-c5ef-4761-9a4a-28e19dac621a"},"vehicle_type_id":"4","last_reported":1753075161,"current_range_meters":3600,"station_id":"ce4bhop2rcd13ifvqh8g","pricing_plan_id":"cebpf4jnsgd1na2vs0mg"},{"bike_id":"6f18ab1b-0c74-47b1-bed8-837677176207","system_id":"levelo_inurba_marseille","lat":43.320278,"lon":5.40945,"is_reserved":false,"is_disabled":true,"rental_uris":{"android":"levelo://app?vid=6f18ab1b-0c74-47b1-bed8-837677176207","ios":"levelo://app?vid=6f18ab1b-0c74-47b1-bed8-837677176207"},"vehicle_type_id":"4","last_reported":1753075161,"current_range_meters":3600,"station_id":"","pricing_plan_id":"cebpf4jnsgd1na2vs0mg"},{"bike_id":"475b9799-8c28-49d7-a2bd-b989a871d401","system_id":"levelo_inurba_marseille","lat":43.240742,"lon":5.377536,"is_reserved":false,"is_disabled":true,"rental_uris":{"android":"levelo://app?vid=475b9799-8c28-49d7-a2bd-b989a871d401","ios":"levelo://app?vid=475b9799-8c28-49d7-a2bd-b989a871d401"},"vehicle_type_id":"4","last_reported":1753075161,"current_range_meters":4400,"station_id":"ce4bhnp2rcd13ifvqgvg","pricing_plan_id":"cebpf4jnsgd1na2vs0mg"},{"bike_id":"06fcaf41-a3b3-4096-a515-28545e82af83","system_id":"levelo_inurba_marseille","lat":43.22687,"lon":5.34803,"is_reserved":false,"is_disabled":false,"rental_uris":{"android":"levelo://app?vid=06fcaf41-a3b3-4096-a515-28545e82af83","ios":"levelo://app?vid=06fcaf41-a3b3-4096-a515-28545e82af83"},"vehicle_type_id":"4","last_reported":1753075161,"current_range_meters":4400,"station_id":"","pricing_plan_id":"cebpf4jnsgd1na2vs0mg"},{"bike_id":"ac141403-2eff-454e-8bd1-3d400d40ed2b","system_id":"levelo_inurba_marseille","lat":43.33114,"lon":5.40004,"is_reserved":false,"is_disabled":false,"rental_uris":{"android":"levelo://app?vid=ac141403-2eff-454e-8bd1-3d400d40ed2b","ios":"levelo://app?vid=ac141403-2eff-454e-8bd1-3d400d40ed2b"},"vehicle_type_id":"4","last_reported":1753075161,"current_range_meters":5600,"station_id":"","pricing_plan_id":"cebpf4jnsgd1na2vs0mg"},{"bike_id":"04df6d8c-1eb7-48fe-9426-eeaacf413d40","system_id":"levelo_inurba_marseille","lat":43.308899,"lon":5.396347,"is_reserved":false,"is_disabled":false,"rental_uris":{"android":"levelo://app?vid=04df6d8c-1eb7-48fe-9426-eeaacf413d40","ios":"levelo://app?vid=04df6d8c-1eb7-48fe-9426-eeaacf413d40"},"vehicle_type_id":"4","last_reported":1753075161,"current_range_meters":6000,"station_id":"ce4bh012rcd13ifvqcv0","pricing_plan_id":"cebpf4jnsgd1na2vs0mg"},{"bike_id":"192c0fa5-c826-4847-bdd0-11edb7180ff9","system_id":"levelo_inurba_marseille","lat":43.30688,"lon":5.40104,"is_reserved":false,"is_disabled":true,"rental_uris":{"android":"levelo://app?vid=192c0fa5-c826-4847-bdd0-11edb7180ff9","ios":"levelo://app?vid=192c0fa5-c826-4847-bdd0-11edb7180ff9"},"vehicle_type_id":"4","last_reported":1753075161,"current_range_meters":6000,"station_id":"ce4bh112rcd13ifvqda0","pricing_plan_id":"cebpf4jnsgd1na2vs0mg"},{"bike_id":"94c07cb2-0943-4d24-99f2-97bdab47aa3f","system_id":"levelo_inurba_marseille","lat":43.337444,"lon":5.374475,"is_reserved":false,"is_disabled":false,"rental_uris":{"android":"levelo://app?vid=94c07cb2-0943-4d24-99f2-97bdab47aa3f","ios":"levelo://app?vid=94c07cb2-0943-4d24-99f2-97bdab47aa3f"},"vehicle_type_id":"4","last_reported":1753075161,"current_range_meters":6000,"station_id":"","pricing_plan_id":"cebpf4jnsgd1na2vs0mg"},{"bike_id":"1bd67b17-c499-42cd-90ef-f1feca5f9c95","system_id":"levelo_inurba_marseille","lat":43.304191,"lon":5.412828,"is_reserved":false,"is_disabled":false,"rental_uris":{"android":"levelo://app?vid=1bd67b17-c499-42cd-90ef-f1feca5f9c95","ios":"levelo://app?vid=1bd67b17-c499-42cd-90ef-f1feca5f9c95"},"vehicle_type_id":"4","last_reported":1753075161,"current_range_meters":6400,"station_id":"ce4bhop2rcd13ifvqh8g","pricing_plan_id":"cebpf4jnsgd1na2vs0mg"},{"bike_id":"dbe3f53f-5cf1-428e-b135-1e976ecdd9e1","system_id":"levelo_inurba_marseille","lat":43.229295,"lon":5.353761,"is_reserved":false,"is_disabled":true,"rental_uris":{"android":"levelo://app?vid=dbe3f53f-5cf1-428e-b135-1e976ecdd9e1","ios":"levelo://app?vid=dbe3f53f-5cf1-428e-b135-1e976ecdd9e1"},"vehicle_type_id":"4","last_reported":1753075161,"current_range_meters":6400,"station_id":"","pricing_plan_id":"cebpf4jnsgd1na2vs0mg"},{"bike_id":"4ccc5962-2090-46b6-9c4d-cb966b8d1116","system_id":"levelo_inurba_marseille","lat":43.286223,"lon":5.351029,"is_reserved":false,"is_disabled":false,"rental_uris":{"android":"levelo://app?vid=4ccc5962-2090-46b6-9c4d-cb966b8d1116","ios":"levelo://app?vid=4ccc5962-2090-46b6-9c4d-cb966b8d1116"},"vehicle_type_id":"4","last_reported":1753075161,"current_range_meters":6800,"station_id":"ce4bhch2rcd13ifvqeug","pricing_plan_id":"cebpf4jnsgd1na2vs0mg"},{"bike_id":"0fd02cf6-67fb-4589-807f-241dd50b7e1a","system_id":"levelo_inurba_marseille","lat":43.299071,"lon":5.436571,"is_reserved":false,"is_disabled":true,"rental_uris":{"android":"levelo://app?vid=0fd02cf6-67fb-4589-807f-241dd50b7e1a","ios":"levelo://app?vid=0fd02cf6-67fb-4589-807f-241dd50b7e1a"},"vehicle_type_id":"4","last_reported":1753075161,"current_range_meters":7200,"station_id":"ce4bhpp2rcd13ifvqhfg","pricing_plan_id":"cebpf4jnsgd1na2vs0mg"},{"bike_id":"11a43a3e-2d75-4df3-ba59-43e1875d5f3e","system_id":"levelo_inurba_marseille","lat":43.24178,"lon":5.36395,"is_reserved":false,"is_disabled":true,"rental_uris":{"android":"levelo://app?vid=11a43a3e-2d75-4df3-ba59-43e1875d5f3e","ios":"levelo://app?vid=11a43a3e-2d75-4df3-ba59-43e1875d5f3e"},"vehicle_type_id":"4","last_reported":1753075161,"current_range_meters":7200,"station_id":"cpo36qri1sfpv3e86is0","pricing_plan_id":"cebpf4jnsgd1na2vs0mg"},{"bike_id":"ff4d55d2-06e1-4a89-ba66-8dfb99920e85","system_id":"levelo_inurba_marseille","lat":43.28944,"lon":5.36394,"is_reserved":false,"is_disabled":true,"rental_uris":{"android":"levelo://app?vid=ff4d55d2-06e1-4a89-ba66-8dfb99920e85","ios":"levelo://app?vid=ff4d55d2-06e1-4a89-ba66-8dfb99920e85"},"vehicle_type_id":"4","last_reported":1753075161,"current_range_meters":7200,"station_id":"ce4bhc92rcd13ifvqetg","pricing_plan_id":"cebpf4jnsgd1na2vs0mg"},{"bike_id":"2f7b9cdf-b6c7-4492-81a2-2bd894f35745","system_id":"levelo_inurba_marseille","lat":43.23058,"lon":5.35491,"is_reserved":false,"is_disabled":true,"rental_uris":{"android":"levelo://app?vid=2f7b9cdf-b6c7-4492-81a2-2bd894f35745","ios":"levelo://app?vid=2f7b9cdf-b6c7-4492-81a2-2bd894f35745"},"vehicle_type_id":"4","last_reported":1753075161,"current_range_meters":8000,"station_id":"cpo3342slgdg3j2ifvpg","pricing_plan_id":"cebpf4jnsgd1na2vs0mg"},{"bike_id":"589de5b0-1c97-4dc8-b509-5ff6bef86054","system_id":"levelo_inurba_marseille","lat":43.270704,"lon":5.42275,"is_reserved":false,"is_disabled":true,"rental_uris":{"android":"levelo://app?vid=589de5b0-1c97-4dc8-b509-5ff6bef86054","ios":"levelo://app?vid=589de5b0-1c97-4dc8-b509-5ff6bef86054"},"vehicle_type_id":"4","last_reported":1753075161,"current_range_meters":8000,"station_id":"ce4bhk92rcd13ifvqgb0","pricing_plan_id":"cebpf4jnsgd1na2vs0mg"},{"bike_id":"cbd7089c-9d2d-42db-a268-faaaa69d7343","system_id":"levelo_inurba_marseille","lat":43.26224,"lon":5.37417,"is_reserved":false,"is_disabled":true,"rental_uris":{"android":"levelo://app?vid=cbd7089c-9d2d-42db-a268-faaaa69d7343","ios":"levelo://app?vid=cbd7089c-9d2d-42db-a268-faaaa69d7343"},"vehicle_type_id":"4","last_reported":1753075161,"current_range_meters":8000,"station_id":"","pricing_plan_id":"cebpf4jnsgd1na2vs0mg"},{"bike_id":"ed415a14-b4b4-4caf-8a06-7fd1c907bac5","system_id":"levelo_inurba_marseille","lat":43.21523,"lon":5.34643,"is_reserved":false,"is_disabled":false,"rental_uris":{"android":"levelo://app?vid=ed415a14-b4b4-4caf-8a06-7fd1c907bac5","ios":"levelo://app?vid=ed415a14-b4b4-4caf-8a06-7fd1c907bac5"},"vehicle_type_id":"4","last_reported":1753075161,"current_range_meters":8000,"station_id":"","pricing_plan_id":"cebpf4jnsgd1na2vs0mg"},{"bike_id":"f70a938e-963a-438a-83e4-629be62d883f","system_id":"levelo_inurba_marseille","lat":43.31703,"lon":5.40441,"is_reserved":false,"is_disabled":false,"rental_uris":{"android":"levelo://app?vid=f70a938e-963a-438a-83e4-629be62d883f","ios":"levelo://app?vid=f70a938e-963a-438a-83e4-629be62d883f"},"vehicle_type_id":"4","last_reported":1753075161,"current_range_meters":8000,"station_id":"ce4bh012rcd13ifvqd00","pricing_plan_id":"cebpf4jnsgd1na2vs0mg"},{"bike_id":"cf9f7b6f-b252-45aa-bd41-e7b8a5947e88","system_id":"levelo_inurba_marseille","lat":43.269497,"lon":5.402848,"is_reserved":false,"is_disabled":true,"rental_uris":{"android":"levelo://app?vid=cf9f7b6f-b252-45aa-bd41-e7b8a5947e88","ios":"levelo://app?vid=cf9f7b6f-b252-45aa-bd41-e7b8a5947e88"},"vehicle_type_id":"4","last_reported":1753075161,"current_range_meters":8400,"station_id":"cjm6bp8fraef2m0cb0m0","pricing_plan_id":"cebpf4jnsgd1na2vs0mg"},{"bike_id":"bdd969c3-9e0a-4f25-9eb0-adc05f5732c3","system_id":"levelo_inurba_marseille","lat":43.261982,"lon":5.374491,"is_reserved":false,"is_disabled":true,"rental_uris":{"android":"levelo://app?vid=bdd969c3-9e0a-4f25-9eb0-adc05f5732c3","ios":"levelo://app?vid=bdd969c3-9e0a-4f25-9eb0-adc05f5732c3"},"vehicle_type_id":"4","last_reported":1753075161,"current_range_meters":8400,"station_id":"ce4bhgp2rcd13ifvqfc0","pricing_plan_id":"cebpf4jnsgd1na2vs0mg"},{"bike_id":"506d4972-4152-4f4c-b8da-e763d1a6a8d8","system_id":"levelo_inurba_marseille","lat":43.29732,"lon":5.37723,"is_reserved":false,"is_disabled":false,"rental_uris":{"android":"levelo://app?vid=506d4972-4152-4f4c-b8da-e763d1a6a8d8","ios":"levelo://app?vid=506d4972-4152-4f4c-b8da-e763d1a6a8d8"},"vehicle_type_id":"4","last_reported":1753075161,"current_range_meters":8400,"station_id":"ce4bgkh2rcd13ifvqbl0","pricing_plan_id":"cebpf4jnsgd1na2vs0mg"},{"bike_id":"b24994f1-f2b3-4095-ba25-5cbdfd11f070","system_id":"levelo_inurba_marseille","lat":43.28584,"lon":5.39519,"is_reserved":false,"is_disabled":false,"rental_uris":{"android":"levelo://app?vid=b24994f1-f2b3-4095-ba25-5cbdfd11f070","ios":"levelo://app?vid=b24994f1-f2b3-4095-ba25-5cbdfd11f070"},"vehicle_type_id":"4","last_reported":1753075161,"current_range_meters":8400,"station_id":"ce4bh292rcd13ifvqdg0","pricing_plan_id":"cebpf4jnsgd1na2vs0mg"},{"bike_id":"a6de290b-5c15-427b-bc37-8301607e1735","system_id":"levelo_inurba_marseille","lat":43.337444,"lon":5.374475,"is_reserved":false,"is_disabled":false,"rental_uris":{"android":"levelo://app?vid=a6de290b-5c15-427b-bc37-8301607e1735","ios":"levelo://app?vid=a6de290b-5c15-427b-bc37-8301607e1735"},"vehicle_type_id":"4","last_reported":1753075161,"current_range_meters":8800,"station_id":"","pricing_plan_id":"cebpf4jnsgd1na2vs0mg"},{"bike_id":"892e06aa-05f6-415f-96f6-13455b0802de","system_id":"levelo_inurba_marseille","lat":43.2957,"lon":5.375,"is_reserved":false,"is_disabled":true,"rental_uris":{"android":"levelo://app?vid=892e06aa-05f6-415f-96f6-13455b0802de","ios":"levelo://app?vid=892e06aa-05f6-415f-96f6-13455b0802de"},"vehicle_type_id":"4","last_reported":1753075161,"current_range_meters":8800,"station_id":"ce4bgh92rcd13ifvqb50","pricing_plan_id":"cebpf4jnsgd1na2vs0mg"},{"bike_id":"c2ea4085-f07d-4f51-b765-531f288de438","system_id":"levelo_inurba_marseille","lat":43.31125,"lon":5.37766,"is_reserved":false,"is_disabled":false,"rental_uris":{"android":"levelo://app?vid=c2ea4085-f07d-4f51-b765-531f288de438","ios":"levelo://app?vid=c2ea4085-f07d-4f51-b765-531f288de438"},"vehicle_type_id":"4","last_reported":1753075161,"current_range_meters":8800,"station_id":"ce4bgt92rcd13ifvqcg0","pricing_plan_id":"cebpf4jnsgd1na2vs0mg"},{"bike_id":"20597f8e-6c1b-4a51-9e3f-8ecf88381375","system_id":"levelo_inurba_marseille","lat":43.30319,"lon":5.39202,"is_reserved":false,"is_disabled":true,"rental_uris":{"android":"levelo://app?vid=20597f8e-6c1b-4a51-9e3f-8ecf88381375","ios":"levelo://app?vid=20597f8e-6c1b-4a51-9e3f-8ecf88381375"},"vehicle_type_id":"4","last_reported":1753075161,"current_range_meters":8800,"station_id":"ce4bgkh2rcd13ifvqbk0","pricing_plan_id":"cebpf4jnsgd1na2vs0mg"},{"bike_id":"e30e7fae-9b75-4e53-92d9-ab7abee562f1","system_id":"levelo_inurba_marseille","lat":43.309372,"lon":5.401452,"is_reserved":false,"is_disabled":false,"rental_uris":{"android":"levelo://app?vid=e30e7fae-9b75-4e53-92d9-ab7abee562f1","ios":"levelo://app?vid=e30e7fae-9b75-4e53-92d9-ab7abee562f1"},"vehicle_type_id":"4","last_reported":1753075161,"current_range_meters":8800,"station_id":"ce4bgvp2rcd13ifvqct0","pricing_plan_id":"cebpf4jnsgd1na2vs0mg"},{"bike_id":"f18952d9-de72-4b00-ac50-ca46d1bc16b9","system_id":"levelo_inurba_marseille","lat":43.21195,"lon":5.35069,"is_reserved":false,"is_disabled":false,"rental_uris":{"android":"levelo://app?vid=f18952d9-de72-4b00-ac50-ca46d1bc16b9","ios":"levelo://app?vid=f18952d9-de72-4b00-ac50-ca46d1bc16b9"},"vehicle_type_id":"4","last_reported":1753075161,"current_range_meters":8800,"station_id":"st_cvj6sg6p6f1abm77japg","pricing_plan_id":"cebpf4jnsgd1na2vs0mg"},{"bike_id":"d25b3b74-1eb0-48d4-998a-10d14228da57","system_id":"levelo_inurba_marseille","lat":43.297065,"lon":5.366201,"is_reserved":false,"is_disabled":true,"rental_uris":{"android":"levelo://app?vid=d25b3b74-1eb0-48d4-998a-10d14228da57","ios":"levelo://app?vid=d25b3b74-1eb0-48d4-998a-10d14228da57"},"vehicle_type_id":"4","last_reported":1753075161,"current_range_meters":9200,"station_id":"ce4bgn12rcd13ifvqbt0","pricing_plan_id":"cebpf4jnsgd1na2vs0mg"},{"bike_id":"ec56498c-7315-46d2-8779-4f1d12c61dba","system_id":"levelo_inurba_marseille","lat":43.26762,"lon":5.37776,"is_reserved":false,"is_disabled":true,"rental_uris":{"android":"levelo://app?vid=ec56498c-7315-46d2-8779-4f1d12c61dba","ios":"levelo://app?vid=ec56498c-7315-46d2-8779-4f1d12c61dba"},"vehicle_type_id":"4","last_reported":1753075161,"current_range_meters":9600,"station_id":"","pricing_plan_id":"cebpf4jnsgd1na2vs0mg"},{"bike_id":"476631f2-1a9c-4047-87b0-bacaef849e11","system_id":"levelo_inurba_marseille","lat":43.31127,"lon":5.3777,"is_reserved":false,"is_disabled":false,"rental_uris":{"android":"levelo://app?vid=476631f2-1a9c-4047-87b0-bacaef849e11","ios":"levelo://app?vid=476631f2-1a9c-4047-87b0-bacaef849e11"},"vehicle_type_id":"4","last_reported":1753075161,"current_range_meters":9600,"station_id":"ce4bgt92rcd13ifvqcg0","pricing_plan_id":"cebpf4jnsgd1na2vs0mg"},{"bike_id":"5c77bf2c-e9c1-4650-8636-0855b97dc402","system_id":"levelo_inurba_marseille","lat":43.28354,"lon":5.38102,"is_reserved":false,"is_disabled":false,"rental_uris":{"android":"levelo://app?vid=5c77bf2c-e9c1-4650-8636-0855b97dc402","ios":"levelo://app?vid=5c77bf2c-e9c1-4650-8636-0855b97dc402"},"vehicle_type_id":"4","last_reported":1753075161,"current_range_meters":9600,"station_id":"ce4bh412rcd13ifvqdr0","pricing_plan_id":"cebpf4jnsgd1na2vs0mg"},{"bike_id":"e16ce09c-16e0-4914-bf0f-e92d0933f493","system_id":"levelo_inurba_marseille","lat":43.30405,"lon":5.413,"is_reserved":false,"is_disabled":false,"rental_uris":{"android":"levelo://app?vid=e16ce09c-16e0-4914-bf0f-e92d0933f493","ios":"levelo://app?vid=e16ce09c-16e0-4914-bf0f-e92d0933f493"},"vehicle_type_id":"4","last_reported":1753075161,"current_range_meters":10000,"station_id":"ce4bhop2rcd13ifvqh8g","pricing_plan_id":"cebpf4jnsgd1na2vs0mg"},{"bike_id":"9036d315-4723-4cdd-9f68-856fe767f9c3","system_id":"levelo_inurba_marseille","lat":43.331506,"lon":5.381759,"is_reserved":false,"is_disabled":false,"rental_uris":{"android":"levelo://app?vid=9036d315-4723-4cdd-9f68-856fe767f9c3","ios":"levelo://app?vid=9036d315-4723-4cdd-9f68-856fe767f9c3"},"vehicle_type_id":"4","last_reported":1753075161,"current_range_meters":10000,"station_id":"","pricing_plan_id":"cebpf4jnsgd1na2vs0mg"},{"bike_id":"fa06e38c-58b9-4aea-bcf5-74a645703fd3","system_id":"levelo_inurba_marseille","lat":43.28708,"lon":5.39997,"is_reserved":false,"is_disabled":true,"rental_uris":{"android":"levelo://app?vid=fa06e38c-58b9-4aea-bcf5-74a645703fd3","ios":"levelo://app?vid=fa06e38c-58b9-4aea-bcf5-74a645703fd3"},"vehicle_type_id":"4","last_reported":1753075161,"current_range_meters":10000,"station_id":"ce4bho92rcd13ifvqh3g","pricing_plan_id":"cebpf4jnsgd1na2vs0mg"},{"bike_id":"1e8b1880-264c-4b77-bf82-6c996a6dc688","system_id":"levelo_inurba_marseille","lat":43.211953,"lon":5.350739,"is_reserved":false,"is_disabled":false,"rental_uris":{"android":"levelo://app?vid=1e8b1880-264c-4b77-bf82-6c996a6dc688","ios":"levelo://app?vid=1e8b1880-264c-4b77-bf82-6c996a6dc688"},"vehicle_type_id":"4","last_reported":1753075161,"current_range_meters":10000,"station_id":"st_cvj6sg6p6f1abm77japg","pricing_plan_id":"cebpf4jnsgd1na2vs0mg"},{"bike_id":"07caa269-3c62-42a2-abde-f3fbfc8dd231","system_id":"levelo_inurba_marseille","lat":43.27226,"lon":5.39192,"is_reserved":false,"is_disabled":false,"rental_uris":{"android":"levelo://app?vid=07caa269-3c62-42a2-abde-f3fbfc8dd231","ios":"levelo://app?vid=07caa269-3c62-42a2-abde-f3fbfc8dd231"},"vehicle_type_id":"4","last_reported":1753075161,"current_range_meters":9600,"station_id":"ce4bhhp2rcd13ifvqfm0","pricing_plan_id":"cebpf4jnsgd1na2vs0mg"},{"bike_id":"59617e16-d273-470f-a969-2783d8608691","system_id":"levelo_inurba_marseille","lat":43.29796,"lon":5.39341,"is_reserved":false,"is_disabled":false,"rental_uris":{"android":"levelo://app?vid=59617e16-d273-470f-a969-2783d8608691","ios":"levelo://app?vid=59617e16-d273-470f-a969-2783d8608691"},"vehicle_type_id":"4","last_reported":1753075161,"current_range_meters":10000,"station_id":"chh1huq6cuj3fo74tm60","pricing_plan_id":"cebpf4jnsgd1na2vs0mg"},{"bike_id":"f96368a8-c94b-4619-a4ff-e99b0b02d119","system_id":"levelo_inurba_marseille","lat":43.30891,"lon":5.37211,"is_reserved":false,"is_disabled":false,"rental_uris":{"android":"levelo://app?vid=f96368a8-c94b-4619-a4ff-e99b0b02d119","ios":"levelo://app?vid=f96368a8-c94b-4619-a4ff-e99b0b02d119"},"vehicle_type_id":"4","last_reported":1753075161,"current_range_meters":10000,"station_id":"ce4bguh2rcd13ifvqckg","pricing_plan_id":"cebpf4jnsgd1na2vs0mg"},{"bike_id":"95b5bcfa-54af-48c0-bd18-8f73f959ce2b","system_id":"levelo_inurba_marseille","lat":43.31935,"lon":5.37313,"is_reserved":false,"is_disabled":true,"rental_uris":{"android":"levelo://app?vid=95b5bcfa-54af-48c0-bd18-8f73f959ce2b","ios":"levelo://app?vid=95b5bcfa-54af-48c0-bd18-8f73f959ce2b"},"vehicle_type_id":"4","last_reported":1753075161,"current_range_meters":10000,"station_id":"","pricing_plan_id":"cebpf4jnsgd1na2vs0mg"},{"bike_id":"299ec8a6-d5a7-41ea-8121-1c7f792257d2","system_id":"levelo_inurba_marseille","lat":43.27399,"lon":5.36243,"is_reserved":false,"is_disabled":true,"rental_uris":{"android":"levelo://app?vid=299ec8a6-d5a7-41ea-8121-1c7f792257d2","ios":"levelo://app?vid=299ec8a6-d5a7-41ea-8121-1c7f792257d2"},"vehicle_type_id":"4","last_reported":1753075161,"current_range_meters":10800,"station_id":"ce4bhbh2rcd13ifvqeo0","pricing_plan_id":"cebpf4jnsgd1na2vs0mg"},{"bike_id":"f335eb8b-f2b0-48df-963c-2425602f9038","system_id":"levelo_inurba_marseille","lat":43.269987,"lon":5.401174,"is_reserved":false,"is_disabled":true,"rental_uris":{"android":"levelo://app?vid=f335eb8b-f2b0-48df-963c-2425602f9038","ios":"levelo://app?vid=f335eb8b-f2b0-48df-963c-2425602f9038"},"vehicle_type_id":"4","last_reported":1753075161,"current_range_meters":10800,"station_id":"","pricing_plan_id":"cebpf4jnsgd1na2vs0mg"},{"bike_id":"86c3422c-5828-4ec9-8c82-7bec17ac3699","system_id":"levelo_inurba_marseille","lat":43.23188,"lon":5.39974,"is_reserved":false,"is_disabled":false,"rental_uris":{"android":"levelo://app?vid=86c3422c-5828-4ec9-8c82-7bec17ac3699","ios":"levelo://app?vid=86c3422c-5828-4ec9-8c82-7bec17ac3699"},"vehicle_type_id":"4","last_reported":1753075161,"current_range_meters":10800,"station_id":"ce4bhn12rcd13ifvqgqg","pricing_plan_id":"cebpf4jnsgd1na2vs0mg"},{"bike_id":"96793585-b370-4499-97b5-55297e845c8f","system_id":"levelo_inurba_marseille","lat":43.21767,"lon":5.34593,"is_reserved":false,"is_disabled":true,"rental_uris":{"android":"levelo://app?vid=96793585-b370-4499-97b5-55297e845c8f","ios":"levelo://app?vid=96793585-b370-4499-97b5-55297e845c8f"},"vehicle_type_id":"4","last_reported":1753075161,"current_range_meters":10800,"station_id":"st_cvj6r9ubvosntc0bgbag","pricing_plan_id":"cebpf4jnsgd1na2vs0mg"},{"bike_id":"7f7c773c-89c7-4474-b9ba-9373822aea52","system_id":"levelo_inurba_marseille","lat":43.258647,"lon":5.398913,"is_reserved":false,"is_disabled":true,"rental_uris":{"android":"levelo://app?vid=7f7c773c-89c7-4474-b9ba-9373822aea52","ios":"levelo://app?vid=7f7c773c-89c7-4474-b9ba-9373822aea52"},"vehicle_type_id":"4","last_reported":1753075161,"current_range_meters":10800,"station_id":"ce4bhl92rcd13ifvqghg","pricing_plan_id":"cebpf4jnsgd1na2vs0mg"},{"bike_id":"053762ef-2967-4c03-83aa-9c21c06b9aed","system_id":"levelo_inurba_marseille","lat":43.24064,"lon":5.37718,"is_reserved":false,"is_disabled":false,"rental_uris":{"android":"levelo://app?vid=053762ef-2967-4c03-83aa-9c21c06b9aed","ios":"levelo://app?vid=053762ef-2967-4c03-83aa-9c21c06b9aed"},"vehicle_type_id":"4","last_reported":1753075161,"current_range_meters":10800,"station_id":"ce4bhnp2rcd13ifvqgvg","pricing_plan_id":"cebpf4jnsgd1na2vs0mg"},{"bike_id":"dee6628b-f370-478a-a4db-32c84542aee7","system_id":"levelo_inurba_marseille","lat":43.332828,"lon":5.390165,"is_reserved":false,"is_disabled":false,"rental_uris":{"android":"levelo://app?vid=dee6628b-f370-478a-a4db-32c84542aee7","ios":"levelo://app?vid=dee6628b-f370-478a-a4db-32c84542aee7"},"vehicle_type_id":"4","last_reported":1753075161,"current_range_meters":10800,"station_id":"","pricing_plan_id":"cebpf4jnsgd1na2vs0mg"},{"bike_id":"d67a0051-67ef-4e02-a635-cec8e9781a5a","system_id":"levelo_inurba_marseille","lat":43.30323,"lon":5.40442,"is_reserved":false,"is_disabled":false,"rental_uris":{"android":"levelo://app?vid=d67a0051-67ef-4e02-a635-cec8e9781a5a","ios":"levelo://app?vid=d67a0051-67ef-4e02-a635-cec8e9781a5a"},"vehicle_type_id":"4","last_reported":1753075161,"current_range_meters":10800,"station_id":"ce4bh012rcd13ifvqd10","pricing_plan_id":"cebpf4jnsgd1na2vs0mg"},{"bike_id":"d73f155c-efdb-4286-b5c7-5cca8c6dda7e","system_id":"levelo_inurba_marseille","lat":43.30632,"lon":5.373484,"is_reserved":false,"is_disabled":false,"rental_uris":{"android":"levelo://app?vid=d73f155c-efdb-4286-b5c7-5cca8c6dda7e","ios":"levelo://app?vid=d73f155c-efdb-4286-b5c7-5cca8c6dda7e"},"vehicle_type_id":"4","last_reported":1753075161,"current_range_meters":11200,"station_id":"","pricing_plan_id":"cebpf4jnsgd1na2vs0mg"},{"bike_id":"02c734a1-449a-4577-93cf-d6c608c78150","system_id":"levelo_inurba_marseille","lat":43.28711,"lon":5.379344,"is_reserved":false,"is_disabled":false,"rental_uris":{"android":"levelo://app?vid=02c734a1-449a-4577-93cf-d6c608c78150","ios":"levelo://app?vid=02c734a1-449a-4577-93cf-d6c608c78150"},"vehicle_type_id":"4","last_reported":1753075161,"current_range_meters":11200,"station_id":"ce4bh9p2rcd13ifvqec0","pricing_plan_id":"cebpf4jnsgd1na2vs0mg"},{"bike_id":"0f07c0e6-8028-4fab-9691-a2c5085cf8ec","system_id":"levelo_inurba_marseille","lat":43.32348,"lon":5.38865,"is_reserved":false,"is_disabled":false,"rental_uris":{"android":"levelo://app?vid=0f07c0e6-8028-4fab-9691-a2c5085cf8ec","ios":"levelo://app?vid=0f07c0e6-8028-4fab-9691-a2c5085cf8ec"},"vehicle_type_id":"4","last_reported":1753075161,"current_range_meters":11200,"station_id":"ce4bhqp2rcd13ifvqhog","pricing_plan_id":"cebpf4jnsgd1na2vs0mg"},{"bike_id":"53a4d0d9-c032-4a10-8bd9-b77c80605247","system_id":"levelo_inurba_marseille","lat":43.28941,"lon":5.43015,"is_reserved":false,"is_disabled":false,"rental_uris":{"android":"levelo://app?vid=53a4d0d9-c032-4a10-8bd9-b77c80605247","ios":"levelo://app?vid=53a4d0d9-c032-4a10-8bd9-b77c80605247"},"vehicle_type_id":"4","last_reported":1753075161,"current_range_meters":11200,"station_id":"","pricing_plan_id":"cebpf4jnsgd1na2vs0mg"},{"bike_id":"ec08b37f-beda-4918-8271-779e911d5420","system_id":"levelo_inurba_marseille","lat":43.25866,"lon":5.399,"is_reserved":false,"is_disabled":false,"rental_uris":{"android":"levelo://app?vid=ec08b37f-beda-4918-8271-779e911d5420","ios":"levelo://app?vid=ec08b37f-beda-4918-8271-779e911d5420"},"vehicle_type_id":"4","last_reported":1753075161,"current_range_meters":11200,"station_id":"ce4bhl92rcd13ifvqghg","pricing_plan_id":"cebpf4jnsgd1na2vs0mg"},{"bike_id":"b9d2f6b1-2316-4e08-a5d8-0d15d3bb3c6d","system_id":"levelo_inurba_marseille","lat":43.27433,"lon":5.38774,"is_reserved":false,"is_disabled":false,"rental_uris":{"android":"levelo://app?vid=b9d2f6b1-2316-4e08-a5d8-0d15d3bb3c6d","ios":"levelo://app?vid=b9d2f6b1-2316-4e08-a5d8-0d15d3bb3c6d"},"vehicle_type_id":"4","last_reported":1753075161,"current_range_meters":11200,"station_id":"","pricing_plan_id":"cebpf4jnsgd1na2vs0mg"},{"bike_id":"63b0b856-af33-4970-b22e-c07117f2395e","system_id":"levelo_inurba_marseille","lat":43.211817,"lon":5.350799,"is_reserved":false,"is_disabled":false,"rental_uris":{"android":"levelo://app?vid=63b0b856-af33-4970-b22e-c07117f2395e","ios":"levelo://app?vid=63b0b856-af33-4970-b22e-c07117f2395e"},"vehicle_type_id":"4","last_reported":1753075161,"current_range_meters":11200,"station_id":"st_cvj6sg6p6f1abm77japg","pricing_plan_id":"cebpf4jnsgd1na2vs0mg"},{"bike_id":"24677df8-3180-482b-ad1e-30fa45751a3e","system_id":"levelo_inurba_marseille","lat":43.25954,"lon":5.40887,"is_reserved":false,"is_disabled":false,"rental_uris":{"android":"levelo://app?vid=24677df8-3180-482b-ad1e-30fa45751a3e","ios":"levelo://app?vid=24677df8-3180-482b-ad1e-30fa45751a3e"},"vehicle_type_id":"4","last_reported":1753075161,"current_range_meters":11200,"station_id":"ce4bhm92rcd13ifvqglg","pricing_plan_id":"cebpf4jnsgd1na2vs0mg"},{"bike_id":"696c5e5f-ee49-4cdd-b0d3-ceab6c87d298","system_id":"levelo_inurba_marseille","lat":43.32113,"lon":5.36783,"is_reserved":false,"is_disabled":false,"rental_uris":{"android":"levelo://app?vid=696c5e5f-ee49-4cdd-b0d3-ceab6c87d298","ios":"levelo://app?vid=696c5e5f-ee49-4cdd-b0d3-ceab6c87d298"},"vehicle_type_id":"4","last_reported":1753075161,"current_range_meters":11600,"station_id":"ce4bhrh2rcd13ifvqhug","pricing_plan_id":"cebpf4jnsgd1na2vs0mg"},{"bike_id":"0e9dbe4f-d79d-4d8f-b425-0e74eb551795","system_id":"levelo_inurba_marseille","lat":43.314876,"lon":5.372998,"is_reserved":false,"is_disabled":false,"rental_uris":{"android":"levelo://app?vid=0e9dbe4f-d79d-4d8f-b425-0e74eb551795","ios":"levelo://app?vid=0e9dbe4f-d79d-4d8f-b425-0e74eb551795"},"vehicle_type_id":"4","last_reported":1753075161,"current_range_meters":11600,"station_id":"ce4bgt12rcd13ifvqcd0","pricing_plan_id":"cebpf4jnsgd1na2vs0mg"},{"bike_id":"aa7039ed-31a0-4747-a640-e94f3558d15e","system_id":"levelo_inurba_marseille","lat":43.22504,"lon":5.34776,"is_reserved":false,"is_disabled":true,"rental_uris":{"android":"levelo://app?vid=aa7039ed-31a0-4747-a640-e94f3558d15e","ios":"levelo://app?vid=aa7039ed-31a0-4747-a640-e94f3558d15e"},"vehicle_type_id":"4","last_reported":1753075161,"current_range_meters":11600,"station_id":"","pricing_plan_id":"cebpf4jnsgd1na2vs0mg"},{"bike_id":"d3aca52a-4e64-461a-8fd1-e9a035bafbdf","system_id":"levelo_inurba_marseille","lat":43.257213,"lon":5.411019,"is_reserved":false,"is_disabled":false,"rental_uris":{"android":"levelo://app?vid=d3aca52a-4e64-461a-8fd1-e9a035bafbdf","ios":"levelo://app?vid=d3aca52a-4e64-461a-8fd1-e9a035bafbdf"},"vehicle_type_id":"4","last_reported":1753075161,"current_range_meters":11600,"station_id":"","pricing_plan_id":"cebpf4jnsgd1na2vs0mg"},{"bike_id":"6a7a9a7b-7ede-4303-b00d-36585591ce66","system_id":"levelo_inurba_marseille","lat":43.28709,"lon":5.39993,"is_reserved":false,"is_disabled":false,"rental_uris":{"android":"levelo://app?vid=6a7a9a7b-7ede-4303-b00d-36585591ce66","ios":"levelo://app?vid=6a7a9a7b-7ede-4303-b00d-36585591ce66"},"vehicle_type_id":"4","last_reported":1753075161,"current_range_meters":11600,"station_id":"ce4bho92rcd13ifvqh3g","pricing_plan_id":"cebpf4jnsgd1na2vs0mg"},{"bike_id":"ff2c165e-5b5b-40b7-9ef9-0c664fd09a94","system_id":"levelo_inurba_marseille","lat":43.29007,"lon":5.38594,"is_reserved":false,"is_disabled":true,"rental_uris":{"android":"levelo://app?vid=ff2c165e-5b5b-40b7-9ef9-0c664fd09a94","ios":"levelo://app?vid=ff2c165e-5b5b-40b7-9ef9-0c664fd09a94"},"vehicle_type_id":"4","last_reported":1753075161,"current_range_meters":11600,"station_id":"ce4bh4p2rcd13ifvqe0g","pricing_plan_id":"cebpf4jnsgd1na2vs0mg"},{"bike_id":"c9695da4-3048-4cfc-83f0-62c3fac1ccbe","system_id":"levelo_inurba_marseille","lat":43.23073,"lon":5.35496,"is_reserved":false,"is_disabled":true,"rental_uris":{"android":"levelo://app?vid=c9695da4-3048-4cfc-83f0-62c3fac1ccbe","ios":"levelo://app?vid=c9695da4-3048-4cfc-83f0-62c3fac1ccbe"},"vehicle_type_id":"4","last_reported":1753075161,"current_range_meters":12000,"station_id":"cpo3342slgdg3j2ifvpg","pricing_plan_id":"cebpf4jnsgd1na2vs0mg"},{"bike_id":"c1e6057c-ff5a-4477-a9f1-93444a633642","system_id":"levelo_inurba_marseille","lat":43.27171,"lon":5.39036,"is_reserved":false,"is_disabled":false,"rental_uris":{"android":"levelo://app?vid=c1e6057c-ff5a-4477-a9f1-93444a633642","ios":"levelo://app?vid=c1e6057c-ff5a-4477-a9f1-93444a633642"},"vehicle_type_id":"4","last_reported":1753075161,"current_range_meters":12000,"station_id":"","pricing_plan_id":"cebpf4jnsgd1na2vs0mg"},{"bike_id":"482f6641-abe7-4780-9bcd-2e246966a766","system_id":"levelo_inurba_marseille","lat":43.28723,"lon":5.37946,"is_reserved":false,"is_disabled":false,"rental_uris":{"android":"levelo://app?vid=482f6641-abe7-4780-9bcd-2e246966a766","ios":"levelo://app?vid=482f6641-abe7-4780-9bcd-2e246966a766"},"vehicle_type_id":"4","last_reported":1753075161,"current_range_meters":12000,"station_id":"ce4bh9p2rcd13ifvqec0","pricing_plan_id":"cebpf4jnsgd1na2vs0mg"},{"bike_id":"37d8cb1b-1988-4390-9e4c-4eca73c82c19","system_id":"levelo_inurba_marseille","lat":43.26193,"lon":5.37456,"is_reserved":false,"is_disabled":true,"rental_uris":{"android":"levelo://app?vid=37d8cb1b-1988-4390-9e4c-4eca73c82c19","ios":"levelo://app?vid=37d8cb1b-1988-4390-9e4c-4eca73c82c19"},"vehicle_type_id":"4","last_reported":1753075161,"current_range_meters":12000,"station_id":"ce4bhgp2rcd13ifvqfc0","pricing_plan_id":"cebpf4jnsgd1na2vs0mg"},{"bike_id":"d9ffc317-5093-4b79-a3ac-b6a04220854f","system_id":"levelo_inurba_marseille","lat":43.28716,"lon":5.37965,"is_reserved":false,"is_disabled":false,"rental_uris":{"android":"levelo://app?vid=d9ffc317-5093-4b79-a3ac-b6a04220854f","ios":"levelo://app?vid=d9ffc317-5093-4b79-a3ac-b6a04220854f"},"vehicle_type_id":"4","last_reported":1753075161,"current_range_meters":12000,"station_id":"ce4bh9p2rcd13ifvqec0","pricing_plan_id":"cebpf4jnsgd1na2vs0mg"},{"bike_id":"07fb1559-bb03-4902-a00a-f9dcbdfe6cfb","system_id":"levelo_inurba_marseille","lat":43.28703,"lon":5.37401,"is_reserved":false,"is_disabled":false,"rental_uris":{"android":"levelo://app?vid=07fb1559-bb03-4902-a00a-f9dcbdfe6cfb","ios":"levelo://app?vid=07fb1559-bb03-4902-a00a-f9dcbdfe6cfb"},"vehicle_type_id":"4","last_reported":1753075161,"current_range_meters":12400,"station_id":"ce4bh3p2rcd13ifvqdq0","pricing_plan_id":"cebpf4jnsgd1na2vs0mg"},{"bike_id":"218a227e-c64f-4f98-8a22-59cb1cdfd846","system_id":"levelo_inurba_marseille","lat":43.24087,"lon":5.37755,"is_reserved":false,"is_disabled":true,"rental_uris":{"android":"levelo://app?vid=218a227e-c64f-4f98-8a22-59cb1cdfd846","ios":"levelo://app?vid=218a227e-c64f-4f98-8a22-59cb1cdfd846"},"vehicle_type_id":"4","last_reported":1753075161,"current_range_meters":12400,"station_id":"ce4bhnp2rcd13ifvqgvg","pricing_plan_id":"cebpf4jnsgd1na2vs0mg"},{"bike_id":"eb240428-00e7-472b-91f5-4bf4c52fb633","system_id":"levelo_inurba_marseille","lat":43.26222,"lon":5.37897,"is_reserved":false,"is_disabled":true,"rental_uris":{"android":"levelo://app?vid=eb240428-00e7-472b-91f5-4bf4c52fb633","ios":"levelo://app?vid=eb240428-00e7-472b-91f5-4bf4c52fb633"},"vehicle_type_id":"4","last_reported":1753075161,"current_range_meters":12400,"station_id":"ce4bhjp2rcd13ifvqg90","pricing_plan_id":"cebpf4jnsgd1na2vs0mg"},{"bike_id":"753f9505-aeee-4c39-8398-fb208a3c502b","system_id":"levelo_inurba_marseille","lat":43.30931,"lon":5.4017,"is_reserved":false,"is_disabled":false,"rental_uris":{"android":"levelo://app?vid=753f9505-aeee-4c39-8398-fb208a3c502b","ios":"levelo://app?vid=753f9505-aeee-4c39-8398-fb208a3c502b"},"vehicle_type_id":"4","last_reported":1753075161,"current_range_meters":12400,"station_id":"ce4bgvp2rcd13ifvqct0","pricing_plan_id":"cebpf4jnsgd1na2vs0mg"},{"bike_id":"818af348-8353-408a-a5a7-73a4f441ee47","system_id":"levelo_inurba_marseille","lat":43.31367,"lon":5.385,"is_reserved":false,"is_disabled":false,"rental_uris":{"android":"levelo://app?vid=818af348-8353-408a-a5a7-73a4f441ee47","ios":"levelo://app?vid=818af348-8353-408a-a5a7-73a4f441ee47"},"vehicle_type_id":"4","last_reported":1753075161,"current_range_meters":12400,"station_id":"ce4bgt92rcd13ifvqcf0","pricing_plan_id":"cebpf4jnsgd1na2vs0mg"},{"bike_id":"ff304561-c8ce-4ac1-9008-9c7fa7a2d85b","system_id":"levelo_inurba_marseille","lat":43.29258,"lon":5.38441,"is_reserved":false,"is_disabled":true,"rental_uris":{"android":"levelo://app?vid=ff304561-c8ce-4ac1-9008-9c7fa7a2d85b","ios":"levelo://app?vid=ff304561-c8ce-4ac1-9008-9c7fa7a2d85b"},"vehicle_type_id":"4","last_reported":1753075161,"current_range_meters":12400,"station_id":"ce4bh692rcd13ifvqea0","pricing_plan_id":"cebpf4jnsgd1na2vs0mg"},{"bike_id":"cb331a89-56a6-4651-9865-7241cd4ca587","system_id":"levelo_inurba_marseille","lat":43.32473,"lon":5.36573,"is_reserved":false,"is_disabled":false,"rental_uris":{"android":"levelo://app?vid=cb331a89-56a6-4651-9865-7241cd4ca587","ios":"levelo://app?vid=cb331a89-56a6-4651-9865-7241cd4ca587"},"vehicle_type_id":"4","last_reported":1753075161,"current_range_meters":12400,"station_id":"ce4bhs12rcd13ifvqhvg","pricing_plan_id":"cebpf4jnsgd1na2vs0mg"},{"bike_id":"89954574-8c17-4192-a9ff-7a3c7f4c8faa","system_id":"levelo_inurba_marseille","lat":43.28006,"lon":5.40007,"is_reserved":false,"is_disabled":false,"rental_uris":{"android":"levelo://app?vid=89954574-8c17-4192-a9ff-7a3c7f4c8faa","ios":"levelo://app?vid=89954574-8c17-4192-a9ff-7a3c7f4c8faa"},"vehicle_type_id":"4","last_reported":1753075161,"current_range_meters":12400,"station_id":"ce4bho92rcd13ifvqh4g","pricing_plan_id":"cebpf4jnsgd1na2vs0mg"},{"bike_id":"341eec4e-ddcf-4f75-95c6-ecd84ef432ec","system_id":"levelo_inurba_marseille","lat":43.22937,"lon":5.3538,"is_reserved":false,"is_disabled":false,"rental_uris":{"android":"levelo://app?vid=341eec4e-ddcf-4f75-95c6-ecd84ef432ec","ios":"levelo://app?vid=341eec4e-ddcf-4f75-95c6-ecd84ef432ec"},"vehicle_type_id":"4","last_reported":1753075161,"current_range_meters":12800,"station_id":"cpo3532slgdg3j2ikp40","pricing_plan_id":"cebpf4jnsgd1na2vs0mg"},{"bike_id":"8eafeccf-ef09-43c0-9e3e-e74fecc1cfa1","system_id":"levelo_inurba_marseille","lat":43.290383,"lon":5.399569,"is_reserved":false,"is_disabled":false,"rental_uris":{"android":"levelo://app?vid=8eafeccf-ef09-43c0-9e3e-e74fecc1cfa1","ios":"levelo://app?vid=8eafeccf-ef09-43c0-9e3e-e74fecc1cfa1"},"vehicle_type_id":"4","last_reported":1753075161,"current_range_meters":12800,"station_id":"ce4bh392rcd13ifvqdm0","pricing_plan_id":"cebpf4jnsgd1na2vs0mg"},{"bike_id":"bdc1fd4b-3be2-43ec-8490-24512b54e93c","system_id":"levelo_inurba_marseille","lat":43.288535,"lon":5.393284,"is_reserved":false,"is_disabled":false,"rental_uris":{"android":"levelo://app?vid=bdc1fd4b-3be2-43ec-8490-24512b54e93c","ios":"levelo://app?vid=bdc1fd4b-3be2-43ec-8490-24512b54e93c"},"vehicle_type_id":"4","last_reported":1753075161,"current_range_meters":12800,"station_id":"ce4bh2p2rcd13ifvqdi0","pricing_plan_id":"cebpf4jnsgd1na2vs0mg"},{"bike_id":"53cb4f43-b1af-4efe-9f40-e0338804f4d4","system_id":"levelo_inurba_marseille","lat":43.31309,"lon":5.39088,"is_reserved":false,"is_disabled":false,"rental_uris":{"android":"levelo://app?vid=53cb4f43-b1af-4efe-9f40-e0338804f4d4","ios":"levelo://app?vid=53cb4f43-b1af-4efe-9f40-e0338804f4d4"},"vehicle_type_id":"4","last_reported":1753075161,"current_range_meters":12800,"station_id":"","pricing_plan_id":"cebpf4jnsgd1na2vs0mg"},{"bike_id":"27f7a596-6914-46e0-aa3c-8eca9f5470d3","system_id":"levelo_inurba_marseille","lat":43.27019,"lon":5.40328,"is_reserved":false,"is_disabled":false,"rental_uris":{"android":"levelo://app?vid=27f7a596-6914-46e0-aa3c-8eca9f5470d3","ios":"levelo://app?vid=27f7a596-6914-46e0-aa3c-8eca9f5470d3"},"vehicle_type_id":"4","last_reported":1753075161,"current_range_meters":12800,"station_id":"","pricing_plan_id":"cebpf4jnsgd1na2vs0mg"},{"bike_id":"0cb2c80a-7457-4a4a-ad92-f0361b5225d6","system_id":"levelo_inurba_marseille","lat":43.24413,"lon":5.37413,"is_reserved":false,"is_disabled":false,"rental_uris":{"android":"levelo://app?vid=0cb2c80a-7457-4a4a-ad92-f0361b5225d6","ios":"levelo://app?vid=0cb2c80a-7457-4a4a-ad92-f0361b5225d6"},"vehicle_type_id":"4","last_reported":1753075161,"current_range_meters":12800,"station_id":"","pricing_plan_id":"cebpf4jnsgd1na2vs0mg"},{"bike_id":"4e5823ac-9313-4e20-81da-720a18c2dac7","system_id":"levelo_inurba_marseille","lat":43.32122,"lon":5.36772,"is_reserved":false,"is_disabled":false,"rental_uris":{"android":"levelo://app?vid=4e5823ac-9313-4e20-81da-720a18c2dac7","ios":"levelo://app?vid=4e5823ac-9313-4e20-81da-720a18c2dac7"},"vehicle_type_id":"4","last_reported":1753075161,"current_range_meters":12800,"station_id":"ce4bhrh2rcd13ifvqhug","pricing_plan_id":"cebpf4jnsgd1na2vs0mg"},{"bike_id":"42752829-3ee2-4e84-849d-429017304915","system_id":"levelo_inurba_marseille","lat":43.28478,"lon":5.35969,"is_reserved":false,"is_disabled":true,"rental_uris":{"android":"levelo://app?vid=42752829-3ee2-4e84-849d-429017304915","ios":"levelo://app?vid=42752829-3ee2-4e84-849d-429017304915"},"vehicle_type_id":"4","last_reported":1753075161,"current_range_meters":12800,"station_id":"ce4bhah2rcd13ifvqei0","pricing_plan_id":"cebpf4jnsgd1na2vs0mg"},{"bike_id":"c3fbbd79-0d90-4c63-8b12-2bbe58e8c01e","system_id":"levelo_inurba_marseille","lat":43.304139,"lon":5.397525,"is_reserved":false,"is_disabled":false,"rental_uris":{"android":"levelo://app?vid=c3fbbd79-0d90-4c63-8b12-2bbe58e8c01e","ios":"levelo://app?vid=c3fbbd79-0d90-4c63-8b12-2bbe58e8c01e"},"vehicle_type_id":"4","last_reported":1753075161,"current_range_meters":12800,"station_id":"ce4bh092rcd13ifvqd20","pricing_plan_id":"cebpf4jnsgd1na2vs0mg"},{"bike_id":"4825f572-5606-4699-8c58-8ed13b8f359f","system_id":"levelo_inurba_marseille","lat":43.241681,"lon":5.364048,"is_reserved":false,"is_disabled":true,"rental_uris":{"android":"levelo://app?vid=4825f572-5606-4699-8c58-8ed13b8f359f","ios":"levelo://app?vid=4825f572-5606-4699-8c58-8ed13b8f359f"},"vehicle_type_id":"4","last_reported":1753075161,"current_range_meters":13600,"station_id":"cpo36qri1sfpv3e86is0","pricing_plan_id":"cebpf4jnsgd1na2vs0mg"},{"bike_id":"4c8283f7-9214-4f90-b93f-b371d5ff3abb","system_id":"levelo_inurba_marseille","lat":43.211855,"lon":5.35086,"is_reserved":false,"is_disabled":false,"rental_uris":{"android":"levelo://app?vid=4c8283f7-9214-4f90-b93f-b371d5ff3abb","ios":"levelo://app?vid=4c8283f7-9214-4f90-b93f-b371d5ff3abb"},"vehicle_type_id":"4","last_reported":1753075161,"current_range_meters":13600,"station_id":"st_cvj6sg6p6f1abm77japg","pricing_plan_id":"cebpf4jnsgd1na2vs0mg"},{"bike_id":"03772b11-05f4-48cd-b352-479340b3f53c","system_id":"levelo_inurba_marseille","lat":43.28483,"lon":5.38425,"is_reserved":false,"is_disabled":true,"rental_uris":{"android":"levelo://app?vid=03772b11-05f4-48cd-b352-479340b3f53c","ios":"levelo://app?vid=03772b11-05f4-48cd-b352-479340b3f53c"},"vehicle_type_id":"4","last_reported":1753075161,"current_range_meters":13600,"station_id":"ce4bh512rcd13ifvqe3g","pricing_plan_id":"cebpf4jnsgd1na2vs0mg"},{"bike_id":"3a0ad0b3-730c-4b6f-afc8-d25401cb7d69","system_id":"levelo_inurba_marseille","lat":43.246699,"lon":5.38156,"is_reserved":false,"is_disabled":false,"rental_uris":{"android":"levelo://app?vid=3a0ad0b3-730c-4b6f-afc8-d25401cb7d69","ios":"levelo://app?vid=3a0ad0b3-730c-4b6f-afc8-d25401cb7d69"},"vehicle_type_id":"4","last_reported":1753075161,"current_range_meters":13600,"station_id":"ce4bhih2rcd13ifvqfr0","pricing_plan_id":"cebpf4jnsgd1na2vs0mg"},{"bike_id":"4355836e-ae99-4039-b85f-c4e239c9dca5","system_id":"levelo_inurba_marseille","lat":43.29895,"lon":5.43663,"is_reserved":false,"is_disabled":false,"rental_uris":{"android":"levelo://app?vid=4355836e-ae99-4039-b85f-c4e239c9dca5","ios":"levelo://app?vid=4355836e-ae99-4039-b85f-c4e239c9dca5"},"vehicle_type_id":"4","last_reported":1753075161,"current_range_meters":14000,"station_id":"ce4bhpp2rcd13ifvqhfg","pricing_plan_id":"cebpf4jnsgd1na2vs0mg"},{"bike_id":"736c363b-3641-43dd-b890-bd43d8fd5283","system_id":"levelo_inurba_marseille","lat":43.211905,"lon":5.350765,"is_reserved":false,"is_disabled":false,"rental_uris":{"android":"levelo://app?vid=736c363b-3641-43dd-b890-bd43d8fd5283","ios":"levelo://app?vid=736c363b-3641-43dd-b890-bd43d8fd5283"},"vehicle_type_id":"4","last_reported":1753075161,"current_range_meters":14000,"station_id":"st_cvj6sg6p6f1abm77japg","pricing_plan_id":"cebpf4jnsgd1na2vs0mg"},{"bike_id":"e0785b12-a3f3-4d52-8157-2005b5688f24","system_id":"levelo_inurba_marseille","lat":43.28721,"lon":5.37945,"is_reserved":false,"is_disabled":false,"rental_uris":{"android":"levelo://app?vid=e0785b12-a3f3-4d52-8157-2005b5688f24","ios":"levelo://app?vid=e0785b12-a3f3-4d52-8157-2005b5688f24"},"vehicle_type_id":"4","last_reported":1753075161,"current_range_meters":14000,"station_id":"ce4bh9p2rcd13ifvqec0","pricing_plan_id":"cebpf4jnsgd1na2vs0mg"},{"bike_id":"f3f581c3-7fd6-46b6-b25c-df950de01306","system_id":"levelo_inurba_marseille","lat":43.287114,"lon":5.399843,"is_reserved":false,"is_disabled":true,"rental_uris":{"android":"levelo://app?vid=f3f581c3-7fd6-46b6-b25c-df950de01306","ios":"levelo://app?vid=f3f581c3-7fd6-46b6-b25c-df950de01306"},"vehicle_type_id":"4","last_reported":1753075161,"current_range_meters":14000,"station_id":"ce4bho92rcd13ifvqh3g","pricing_plan_id":"cebpf4jnsgd1na2vs0mg"},{"bike_id":"cba0a76f-9781-4d60-8f58-176edd478839","system_id":"levelo_inurba_marseille","lat":43.33771,"lon":5.37463,"is_reserved":false,"is_disabled":false,"rental_uris":{"android":"levelo://app?vid=cba0a76f-9781-4d60-8f58-176edd478839","ios":"levelo://app?vid=cba0a76f-9781-4d60-8f58-176edd478839"},"vehicle_type_id":"4","last_reported":1753075161,"current_range_meters":14000,"station_id":"","pricing_plan_id":"cebpf4jnsgd1na2vs0mg"},{"bike_id":"7230cb4d-8cd2-4957-9d99-c27265ab6ce1","system_id":"levelo_inurba_marseille","lat":43.29299,"lon":5.37168,"is_reserved":false,"is_disabled":false,"rental_uris":{"android":"levelo://app?vid=7230cb4d-8cd2-4957-9d99-c27265ab6ce1","ios":"levelo://app?vid=7230cb4d-8cd2-4957-9d99-c27265ab6ce1"},"vehicle_type_id":"4","last_reported":1753075161,"current_range_meters":14000,"station_id":"","pricing_plan_id":"cebpf4jnsgd1na2vs0mg"},{"bike_id":"61544ea3-a0b6-4fb1-9f76-fa48ec8fc6a3","system_id":"levelo_inurba_marseille","lat":43.30283,"lon":5.37686,"is_reserved":false,"is_disabled":true,"rental_uris":{"android":"levelo://app?vid=61544ea3-a0b6-4fb1-9f76-fa48ec8fc6a3","ios":"levelo://app?vid=61544ea3-a0b6-4fb1-9f76-fa48ec8fc6a3"},"vehicle_type_id":"4","last_reported":1753075161,"current_range_meters":14400,"station_id":"ce4bguh2rcd13ifvqcj0","pricing_plan_id":"cebpf4jnsgd1na2vs0mg"},{"bike_id":"f30171ba-a56b-47ae-ad9b-f891aa8d89a6","system_id":"levelo_inurba_marseille","lat":43.31364,"lon":5.38501,"is_reserved":false,"is_disabled":false,"rental_uris":{"android":"levelo://app?vid=f30171ba-a56b-47ae-ad9b-f891aa8d89a6","ios":"levelo://app?vid=f30171ba-a56b-47ae-ad9b-f891aa8d89a6"},"vehicle_type_id":"4","last_reported":1753075161,"current_range_meters":14400,"station_id":"ce4bgt92rcd13ifvqcf0","pricing_plan_id":"cebpf4jnsgd1na2vs0mg"},{"bike_id":"b8a30a56-8d49-4952-b533-15590def56e6","system_id":"levelo_inurba_marseille","lat":43.29196,"lon":5.39316,"is_reserved":false,"is_disabled":false,"rental_uris":{"android":"levelo://app?vid=b8a30a56-8d49-4952-b533-15590def56e6","ios":"levelo://app?vid=b8a30a56-8d49-4952-b533-15590def56e6"},"vehicle_type_id":"4","last_reported":1753075161,"current_range_meters":14400,"station_id":"ce4bh192rcd13ifvqdd0","pricing_plan_id":"cebpf4jnsgd1na2vs0mg"},{"bike_id":"01ef6f38-0cb9-4831-9c9a-0f76f326e484","system_id":"levelo_inurba_marseille","lat":43.2903,"lon":5.35622,"is_reserved":false,"is_disabled":true,"rental_uris":{"android":"levelo://app?vid=01ef6f38-0cb9-4831-9c9a-0f76f326e484","ios":"levelo://app?vid=01ef6f38-0cb9-4831-9c9a-0f76f326e484"},"vehicle_type_id":"4","last_reported":1753075161,"current_range_meters":14800,"station_id":"ce4bhb92rcd13ifvqen0","pricing_plan_id":"cebpf4jnsgd1na2vs0mg"},{"bike_id":"91f3f1b7-ec72-46d1-a603-4babab5fd129","system_id":"levelo_inurba_marseille","lat":43.28706,"lon":5.37401,"is_reserved":false,"is_disabled":false,"rental_uris":{"android":"levelo://app?vid=91f3f1b7-ec72-46d1-a603-4babab5fd129","ios":"levelo://app?vid=91f3f1b7-ec72-46d1-a603-4babab5fd129"},"vehicle_type_id":"4","last_reported":1753075161,"current_range_meters":15200,"station_id":"ce4bh3p2rcd13ifvqdq0","pricing_plan_id":"cebpf4jnsgd1na2vs0mg"},{"bike_id":"3d36c590-bfb3-4f3d-a821-3b0275041fa7","system_id":"levelo_inurba_marseille","lat":43.3043,"lon":5.41288,"is_reserved":false,"is_disabled":false,"rental_uris":{"android":"levelo://app?vid=3d36c590-bfb3-4f3d-a821-3b0275041fa7","ios":"levelo://app?vid=3d36c590-bfb3-4f3d-a821-3b0275041fa7"},"vehicle_type_id":"4","last_reported":1753075161,"current_range_meters":14800,"station_id":"ce4bhop2rcd13ifvqh8g","pricing_plan_id":"cebpf4jnsgd1na2vs0mg"},{"bike_id":"195ed7f7-22bf-4a2a-8a9a-b6fa89f53e8e","system_id":"levelo_inurba_marseille","lat":43.31168,"lon":5.38718,"is_reserved":false,"is_disabled":false,"rental_uris":{"android":"levelo://app?vid=195ed7f7-22bf-4a2a-8a9a-b6fa89f53e8e","ios":"levelo://app?vid=195ed7f7-22bf-4a2a-8a9a-b6fa89f53e8e"},"vehicle_type_id":"4","last_reported":1753075161,"current_range_meters":14800,"station_id":"ce4bgv12rcd13ifvqcp0","pricing_plan_id":"cebpf4jnsgd1na2vs0mg"},{"bike_id":"8b70e333-db95-4dad-9f25-3f58617e52f2","system_id":"levelo_inurba_marseille","lat":43.299085,"lon":5.436674,"is_reserved":false,"is_disabled":false,"rental_uris":{"android":"levelo://app?vid=8b70e333-db95-4dad-9f25-3f58617e52f2","ios":"levelo://app?vid=8b70e333-db95-4dad-9f25-3f58617e52f2"},"vehicle_type_id":"4","last_reported":1753075161,"current_range_meters":14800,"station_id":"ce4bhpp2rcd13ifvqhfg","pricing_plan_id":"cebpf4jnsgd1na2vs0mg"},{"bike_id":"d2a9ef2a-3ecf-454e-ac8d-c81b3a196753","system_id":"levelo_inurba_marseille","lat":43.28623,"lon":5.3822,"is_reserved":false,"is_disabled":false,"rental_uris":{"android":"levelo://app?vid=d2a9ef2a-3ecf-454e-ac8d-c81b3a196753","ios":"levelo://app?vid=d2a9ef2a-3ecf-454e-ac8d-c81b3a196753"},"vehicle_type_id":"4","last_reported":1753075161,"current_range_meters":14800,"station_id":"","pricing_plan_id":"cebpf4jnsgd1na2vs0mg"},{"bike_id":"841226dc-d800-4af0-adb4-d3fc7c7cf8e8","system_id":"levelo_inurba_marseille","lat":43.29552,"lon":5.42298,"is_reserved":false,"is_disabled":true,"rental_uris":{"android":"levelo://app?vid=841226dc-d800-4af0-adb4-d3fc7c7cf8e8","ios":"levelo://app?vid=841226dc-d800-4af0-adb4-d3fc7c7cf8e8"},"vehicle_type_id":"4","last_reported":1753075161,"current_range_meters":14800,"station_id":"ce4bhph2rcd13ifvqhdg","pricing_plan_id":"cebpf4jnsgd1na2vs0mg"},{"bike_id":"1705f469-72b3-4b6b-a3ab-684dfcba22ca","system_id":"levelo_inurba_marseille","lat":43.26567,"lon":5.39002,"is_reserved":false,"is_disabled":true,"rental_uris":{"android":"levelo://app?vid=1705f469-72b3-4b6b-a3ab-684dfcba22ca","ios":"levelo://app?vid=1705f469-72b3-4b6b-a3ab-684dfcba22ca"},"vehicle_type_id":"4","last_reported":1753075161,"current_range_meters":14800,"station_id":"ce4bhe12rcd13ifvqf30","pricing_plan_id":"cebpf4jnsgd1na2vs0mg"},{"bike_id":"43e703c6-9907-49a0-ac06-2809026f4383","system_id":"levelo_inurba_marseille","lat":43.22499,"lon":5.34777,"is_reserved":false,"is_disabled":false,"rental_uris":{"android":"levelo://app?vid=43e703c6-9907-49a0-ac06-2809026f4383","ios":"levelo://app?vid=43e703c6-9907-49a0-ac06-2809026f4383"},"vehicle_type_id":"4","last_reported":1753075161,"current_range_meters":14800,"station_id":"st_cvj5dfep6f1abm77gieg","pricing_plan_id":"cebpf4jnsgd1na2vs0mg"},{"bike_id":"52fc553f-1e8c-4701-a604-31e90c76b1d4","system_id":"levelo_inurba_marseille","lat":43.3151,"lon":5.37297,"is_reserved":false,"is_disabled":false,"rental_uris":{"android":"levelo://app?vid=52fc553f-1e8c-4701-a604-31e90c76b1d4","ios":"levelo://app?vid=52fc553f-1e8c-4701-a604-31e90c76b1d4"},"vehicle_type_id":"4","last_reported":1753075161,"current_range_meters":15200,"station_id":"ce4bgt12rcd13ifvqcd0","pricing_plan_id":"cebpf4jnsgd1na2vs0mg"},{"bike_id":"4fd0694f-0d35-473d-a82b-3d5b06754cb4","system_id":"levelo_inurba_marseille","lat":43.32414,"lon":5.44883,"is_reserved":false,"is_disabled":false,"rental_uris":{"android":"levelo://app?vid=4fd0694f-0d35-473d-a82b-3d5b06754cb4","ios":"levelo://app?vid=4fd0694f-0d35-473d-a82b-3d5b06754cb4"},"vehicle_type_id":"4","last_reported":1753075161,"current_range_meters":15200,"station_id":"","pricing_plan_id":"cebpf4jnsgd1na2vs0mg"},{"bike_id":"428abd34-efd3-468f-8690-edd428d4e84d","system_id":"levelo_inurba_marseille","lat":43.28171,"lon":5.42643,"is_reserved":false,"is_disabled":false,"rental_uris":{"android":"levelo://app?vid=428abd34-efd3-468f-8690-edd428d4e84d","ios":"levelo://app?vid=428abd34-efd3-468f-8690-edd428d4e84d"},"vehicle_type_id":"4","last_reported":1753075161,"current_range_meters":15200,"station_id":"ce4bhnh2rcd13ifvqgug","pricing_plan_id":"cebpf4jnsgd1na2vs0mg"},{"bike_id":"c3108234-85f0-454a-b0a6-60fa8653d492","system_id":"levelo_inurba_marseille","lat":43.27068,"lon":5.42269,"is_reserved":false,"is_disabled":false,"rental_uris":{"android":"levelo://app?vid=c3108234-85f0-454a-b0a6-60fa8653d492","ios":"levelo://app?vid=c3108234-85f0-454a-b0a6-60fa8653d492"},"vehicle_type_id":"4","last_reported":1753075161,"current_range_meters":15200,"station_id":"ce4bhk92rcd13ifvqgb0","pricing_plan_id":"cebpf4jnsgd1na2vs0mg"},{"bike_id":"25847f69-3a29-40ab-8fbc-478287196b45","system_id":"levelo_inurba_marseille","lat":43.26571,"lon":5.39007,"is_reserved":false,"is_disabled":false,"rental_uris":{"android":"levelo://app?vid=25847f69-3a29-40ab-8fbc-478287196b45","ios":"levelo://app?vid=25847f69-3a29-40ab-8fbc-478287196b45"},"vehicle_type_id":"4","last_reported":1753075161,"current_range_meters":16000,"station_id":"ce4bhe12rcd13ifvqf30","pricing_plan_id":"cebpf4jnsgd1na2vs0mg"},{"bike_id":"6f26a76c-e266-4fba-94d6-363420aae210","system_id":"levelo_inurba_marseille","lat":43.304212,"lon":5.397558,"is_reserved":false,"is_disabled":false,"rental_uris":{"android":"levelo://app?vid=6f26a76c-e266-4fba-94d6-363420aae210","ios":"levelo://app?vid=6f26a76c-e266-4fba-94d6-363420aae210"},"vehicle_type_id":"4","last_reported":1753075161,"current_range_meters":16000,"station_id":"ce4bh092rcd13ifvqd20","pricing_plan_id":"cebpf4jnsgd1na2vs0mg"},{"bike_id":"474ac65d-bd8b-4629-a217-92eff3842408","system_id":"levelo_inurba_marseille","lat":43.29383,"lon":5.37857,"is_reserved":false,"is_disabled":true,"rental_uris":{"android":"levelo://app?vid=474ac65d-bd8b-4629-a217-92eff3842408","ios":"levelo://app?vid=474ac65d-bd8b-4629-a217-92eff3842408"},"vehicle_type_id":"4","last_reported":1753075161,"current_range_meters":16000,"station_id":"ce4bgjh2rcd13ifvqbf0","pricing_plan_id":"cebpf4jnsgd1na2vs0mg"},{"bike_id":"b6380031-1931-4b9b-95e3-9731b8b81348","system_id":"levelo_inurba_marseille","lat":43.29765,"lon":5.37101,"is_reserved":false,"is_disabled":true,"rental_uris":{"android":"levelo://app?vid=b6380031-1931-4b9b-95e3-9731b8b81348","ios":"levelo://app?vid=b6380031-1931-4b9b-95e3-9731b8b81348"},"vehicle_type_id":"4","last_reported":1753075161,"current_range_meters":16000,"station_id":"ce4bgop2rcd13ifvqc1g","pricing_plan_id":"cebpf4jnsgd1na2vs0mg"},{"bike_id":"d100812f-9e77-4b3a-a11b-18211b570584","system_id":"levelo_inurba_marseille","lat":43.32457,"lon":5.36683,"is_reserved":false,"is_disabled":false,"rental_uris":{"android":"levelo://app?vid=d100812f-9e77-4b3a-a11b-18211b570584","ios":"levelo://app?vid=d100812f-9e77-4b3a-a11b-18211b570584"},"vehicle_type_id":"4","last_reported":1753075161,"current_range_meters":16000,"station_id":"","pricing_plan_id":"cebpf4jnsgd1na2vs0mg"},{"bike_id":"42d36240-00c4-4a45-b4b4-1a0aa964ba33","system_id":"levelo_inurba_marseille","lat":43.25105,"lon":5.40332,"is_reserved":false,"is_disabled":false,"rental_uris":{"android":"levelo://app?vid=42d36240-00c4-4a45-b4b4-1a0aa964ba33","ios":"levelo://app?vid=42d36240-00c4-4a45-b4b4-1a0aa964ba33"},"vehicle_type_id":"4","last_reported":1753075161,"current_range_meters":16000,"station_id":"ce4bhlh2rcd13ifvqgig","pricing_plan_id":"cebpf4jnsgd1na2vs0mg"},{"bike_id":"6c4b484a-bc7c-448b-9deb-befe0796cdd5","system_id":"levelo_inurba_marseille","lat":43.309609,"lon":5.390388,"is_reserved":false,"is_disabled":false,"rental_uris":{"android":"levelo://app?vid=6c4b484a-bc7c-448b-9deb-befe0796cdd5","ios":"levelo://app?vid=6c4b484a-bc7c-448b-9deb-befe0796cdd5"},"vehicle_type_id":"4","last_reported":1753075161,"current_range_meters":16000,"station_id":"ce4bgup2rcd13ifvqco0","pricing_plan_id":"cebpf4jnsgd1na2vs0mg"},{"bike_id":"c47c4612-aa9a-40e0-9a78-5da247b20688","system_id":"levelo_inurba_marseille","lat":43.22505,"lon":5.34779,"is_reserved":false,"is_disabled":false,"rental_uris":{"android":"levelo://app?vid=c47c4612-aa9a-40e0-9a78-5da247b20688","ios":"levelo://app?vid=c47c4612-aa9a-40e0-9a78-5da247b20688"},"vehicle_type_id":"4","last_reported":1753075161,"current_range_meters":16000,"station_id":"st_cvj5dfep6f1abm77gieg","pricing_plan_id":"cebpf4jnsgd1na2vs0mg"},{"bike_id":"c82a52a4-3569-456f-8537-5f2257772393","system_id":"levelo_inurba_marseille","lat":43.28374,"lon":5.38627,"is_reserved":false,"is_disabled":false,"rental_uris":{"android":"levelo://app?vid=c82a52a4-3569-456f-8537-5f2257772393","ios":"levelo://app?vid=c82a52a4-3569-456f-8537-5f2257772393"},"vehicle_type_id":"4","last_reported":1753075161,"current_range_meters":16000,"station_id":"ce4bh492rcd13ifvqdvg","pricing_plan_id":"cebpf4jnsgd1na2vs0mg"},{"bike_id":"1bff2a07-f5ea-43a5-9113-6ab29a6a6cf8","system_id":"levelo_inurba_marseille","lat":43.312754,"lon":5.401719,"is_reserved":false,"is_disabled":false,"rental_uris":{"android":"levelo://app?vid=1bff2a07-f5ea-43a5-9113-6ab29a6a6cf8","ios":"levelo://app?vid=1bff2a07-f5ea-43a5-9113-6ab29a6a6cf8"},"vehicle_type_id":"4","last_reported":1753075161,"current_range_meters":16400,"station_id":"ce4bh092rcd13ifvqd30","pricing_plan_id":"cebpf4jnsgd1na2vs0mg"},{"bike_id":"c0b3cbf6-8e98-4d86-a56b-3420f7072e80","system_id":"levelo_inurba_marseille","lat":43.30651,"lon":5.40075,"is_reserved":false,"is_disabled":false,"rental_uris":{"android":"levelo://app?vid=c0b3cbf6-8e98-4d86-a56b-3420f7072e80","ios":"levelo://app?vid=c0b3cbf6-8e98-4d86-a56b-3420f7072e80"},"vehicle_type_id":"4","last_reported":1753075161,"current_range_meters":16400,"station_id":"ce4bh112rcd13ifvqda0","pricing_plan_id":"cebpf4jnsgd1na2vs0mg"},{"bike_id":"25ba3407-5a3a-4241-bff3-f1bbd1fc5162","system_id":"levelo_inurba_marseille","lat":43.2924,"lon":5.40912,"is_reserved":false,"is_disabled":false,"rental_uris":{"android":"levelo://app?vid=25ba3407-5a3a-4241-bff3-f1bbd1fc5162","ios":"levelo://app?vid=25ba3407-5a3a-4241-bff3-f1bbd1fc5162"},"vehicle_type_id":"4","last_reported":1753075161,"current_range_meters":16400,"station_id":"ce4bh192rcd13ifvqdc0","pricing_plan_id":"cebpf4jnsgd1na2vs0mg"},{"bike_id":"a0d354d7-2bf5-4aec-8013-b95deff3ae53","system_id":"levelo_inurba_marseille","lat":43.21189,"lon":5.35079,"is_reserved":false,"is_disabled":false,"rental_uris":{"android":"levelo://app?vid=a0d354d7-2bf5-4aec-8013-b95deff3ae53","ios":"levelo://app?vid=a0d354d7-2bf5-4aec-8013-b95deff3ae53"},"vehicle_type_id":"4","last_reported":1753075161,"current_range_meters":16400,"station_id":"","pricing_plan_id":"cebpf4jnsgd1na2vs0mg"},{"bike_id":"3117258b-a0b2-4038-960e-7505313a6719","system_id":"levelo_inurba_marseille","lat":43.32119,"lon":5.36775,"is_reserved":false,"is_disabled":false,"rental_uris":{"android":"levelo://app?vid=3117258b-a0b2-4038-960e-7505313a6719","ios":"levelo://app?vid=3117258b-a0b2-4038-960e-7505313a6719"},"vehicle_type_id":"4","last_reported":1753075161,"current_range_meters":16400,"station_id":"ce4bhrh2rcd13ifvqhug","pricing_plan_id":"cebpf4jnsgd1na2vs0mg"},{"bike_id":"a150e1d6-c311-468e-81dc-881f6dfaeb28","system_id":"levelo_inurba_marseille","lat":43.23203,"lon":5.35552,"is_reserved":false,"is_disabled":false,"rental_uris":{"android":"levelo://app?vid=a150e1d6-c311-468e-81dc-881f6dfaeb28","ios":"levelo://app?vid=a150e1d6-c311-468e-81dc-881f6dfaeb28"},"vehicle_type_id":"4","last_reported":1753075161,"current_range_meters":16400,"station_id":"ce4bhu92rcd13ifvqi70","pricing_plan_id":"cebpf4jnsgd1na2vs0mg"},{"bike_id":"57abbde9-9ee5-483b-8063-641c82b7c2e7","system_id":"levelo_inurba_marseille","lat":43.231932,"lon":5.399738,"is_reserved":false,"is_disabled":false,"rental_uris":{"android":"levelo://app?vid=57abbde9-9ee5-483b-8063-641c82b7c2e7","ios":"levelo://app?vid=57abbde9-9ee5-483b-8063-641c82b7c2e7"},"vehicle_type_id":"4","last_reported":1753075161,"current_range_meters":16400,"station_id":"ce4bhn12rcd13ifvqgqg","pricing_plan_id":"cebpf4jnsgd1na2vs0mg"},{"bike_id":"bb61349b-4e5e-45b5-bd35-113f89377bd6","system_id":"levelo_inurba_marseille","lat":43.287162,"lon":5.379483,"is_reserved":false,"is_disabled":false,"rental_uris":{"android":"levelo://app?vid=bb61349b-4e5e-45b5-bd35-113f89377bd6","ios":"levelo://app?vid=bb61349b-4e5e-45b5-bd35-113f89377bd6"},"vehicle_type_id":"4","last_reported":1753075161,"current_range_meters":16400,"station_id":"ce4bh9p2rcd13ifvqec0","pricing_plan_id":"cebpf4jnsgd1na2vs0mg"},{"bike_id":"c9070665-9df3-4d88-9457-2dce5256ff0f","system_id":"levelo_inurba_marseille","lat":43.240719,"lon":5.377593,"is_reserved":false,"is_disabled":false,"rental_uris":{"android":"levelo://app?vid=c9070665-9df3-4d88-9457-2dce5256ff0f","ios":"levelo://app?vid=c9070665-9df3-4d88-9457-2dce5256ff0f"},"vehicle_type_id":"4","last_reported":1753075161,"current_range_meters":16400,"station_id":"ce4bhnp2rcd13ifvqgvg","pricing_plan_id":"cebpf4jnsgd1na2vs0mg"},{"bike_id":"ac49738a-4d4f-43d3-9c67-46980e61ae95","system_id":"levelo_inurba_marseille","lat":43.31721,"lon":5.37683,"is_reserved":false,"is_disabled":false,"rental_uris":{"android":"levelo://app?vid=ac49738a-4d4f-43d3-9c67-46980e61ae95","ios":"levelo://app?vid=ac49738a-4d4f-43d3-9c67-46980e61ae95"},"vehicle_type_id":"4","last_reported":1753075161,"current_range_meters":16400,"station_id":"ce4bgth2rcd13ifvqch0","pricing_plan_id":"cebpf4jnsgd1na2vs0mg"},{"bike_id":"ff5bba57-6d14-4f97-bab2-4d71c3e63161","system_id":"levelo_inurba_marseille","lat":43.211912,"lon":5.350726,"is_reserved":false,"is_disabled":false,"rental_uris":{"android":"levelo://app?vid=ff5bba57-6d14-4f97-bab2-4d71c3e63161","ios":"levelo://app?vid=ff5bba57-6d14-4f97-bab2-4d71c3e63161"},"vehicle_type_id":"4","last_reported":1753075161,"current_range_meters":16800,"station_id":"st_cvj6sg6p6f1abm77japg","pricing_plan_id":"cebpf4jnsgd1na2vs0mg"},{"bike_id":"551976cf-01df-4655-b8b6-f004d6681f19","system_id":"levelo_inurba_marseille","lat":43.27052,"lon":5.40283,"is_reserved":false,"is_disabled":true,"rental_uris":{"android":"levelo://app?vid=551976cf-01df-4655-b8b6-f004d6681f19","ios":"levelo://app?vid=551976cf-01df-4655-b8b6-f004d6681f19"},"vehicle_type_id":"4","last_reported":1753075161,"current_range_meters":16800,"station_id":"ce4bhk92rcd13ifvqgc0","pricing_plan_id":"cebpf4jnsgd1na2vs0mg"},{"bike_id":"19665075-1169-45a7-af41-9f1c346d2c17","system_id":"levelo_inurba_marseille","lat":43.239558,"lon":5.366264,"is_reserved":false,"is_disabled":true,"rental_uris":{"android":"levelo://app?vid=19665075-1169-45a7-af41-9f1c346d2c17","ios":"levelo://app?vid=19665075-1169-45a7-af41-9f1c346d2c17"},"vehicle_type_id":"4","last_reported":1753075161,"current_range_meters":16800,"station_id":"ce4bhi12rcd13ifvqfp0","pricing_plan_id":"cebpf4jnsgd1na2vs0mg"},{"bike_id":"c695f162-6b42-40d7-8780-ed224e75f8e8","system_id":"levelo_inurba_marseille","lat":43.22802,"lon":5.34964,"is_reserved":false,"is_disabled":false,"rental_uris":{"android":"levelo://app?vid=c695f162-6b42-40d7-8780-ed224e75f8e8","ios":"levelo://app?vid=c695f162-6b42-40d7-8780-ed224e75f8e8"},"vehicle_type_id":"4","last_reported":1753075161,"current_range_meters":16800,"station_id":"","pricing_plan_id":"cebpf4jnsgd1na2vs0mg"},{"bike_id":"7f65ce50-53c3-4a03-9179-831deed16192","system_id":"levelo_inurba_marseille","lat":43.2319,"lon":5.35558,"is_reserved":false,"is_disabled":false,"rental_uris":{"android":"levelo://app?vid=7f65ce50-53c3-4a03-9179-831deed16192","ios":"levelo://app?vid=7f65ce50-53c3-4a03-9179-831deed16192"},"vehicle_type_id":"4","last_reported":1753075161,"current_range_meters":16800,"station_id":"ce4bhu92rcd13ifvqi70","pricing_plan_id":"cebpf4jnsgd1na2vs0mg"},{"bike_id":"4505f6b7-6ff4-4178-8278-62348175a8bb","system_id":"levelo_inurba_marseille","lat":43.25132,"lon":5.40325,"is_reserved":false,"is_disabled":false,"rental_uris":{"android":"levelo://app?vid=4505f6b7-6ff4-4178-8278-62348175a8bb","ios":"levelo://app?vid=4505f6b7-6ff4-4178-8278-62348175a8bb"},"vehicle_type_id":"4","last_reported":1753075161,"current_range_meters":16800,"station_id":"ce4bhlh2rcd13ifvqgig","pricing_plan_id":"cebpf4jnsgd1na2vs0mg"},{"bike_id":"ef5bec01-1508-4f8d-9a81-91129dfbdd34","system_id":"levelo_inurba_marseille","lat":43.25115,"lon":5.40339,"is_reserved":false,"is_disabled":false,"rental_uris":{"android":"levelo://app?vid=ef5bec01-1508-4f8d-9a81-91129dfbdd34","ios":"levelo://app?vid=ef5bec01-1508-4f8d-9a81-91129dfbdd34"},"vehicle_type_id":"4","last_reported":1753075161,"current_range_meters":16800,"station_id":"ce4bhlh2rcd13ifvqgig","pricing_plan_id":"cebpf4jnsgd1na2vs0mg"},{"bike_id":"02bda465-5730-4d42-a0d1-5ffc89217a3f","system_id":"levelo_inurba_marseille","lat":43.28258,"lon":5.35066,"is_reserved":false,"is_disabled":false,"rental_uris":{"android":"levelo://app?vid=02bda465-5730-4d42-a0d1-5ffc89217a3f","ios":"levelo://app?vid=02bda465-5730-4d42-a0d1-5ffc89217a3f"},"vehicle_type_id":"4","last_reported":1753075161,"current_range_meters":16800,"station_id":"","pricing_plan_id":"cebpf4jnsgd1na2vs0mg"},{"bike_id":"ecdfd721-9355-47ec-bb72-adc3ee5af59a","system_id":"levelo_inurba_marseille","lat":43.27182,"lon":5.40987,"is_reserved":false,"is_disabled":false,"rental_uris":{"android":"levelo://app?vid=ecdfd721-9355-47ec-bb72-adc3ee5af59a","ios":"levelo://app?vid=ecdfd721-9355-47ec-bb72-adc3ee5af59a"},"vehicle_type_id":"4","last_reported":1753075161,"current_range_meters":16800,"station_id":"ce4bhl12rcd13ifvqgf0","pricing_plan_id":"cebpf4jnsgd1na2vs0mg"},{"bike_id":"15859cd3-d785-4a8f-ae1f-8acb5a6b79a4","system_id":"levelo_inurba_marseille","lat":43.23179,"lon":5.35567,"is_reserved":false,"is_disabled":true,"rental_uris":{"android":"levelo://app?vid=15859cd3-d785-4a8f-ae1f-8acb5a6b79a4","ios":"levelo://app?vid=15859cd3-d785-4a8f-ae1f-8acb5a6b79a4"},"vehicle_type_id":"4","last_reported":1753075161,"current_range_meters":16800,"station_id":"ce4bhu92rcd13ifvqi70","pricing_plan_id":"cebpf4jnsgd1na2vs0mg"},{"bike_id":"42c6daca-a04f-4385-b335-d79919ebfbf3","system_id":"levelo_inurba_marseille","lat":43.324789,"lon":5.365874,"is_reserved":false,"is_disabled":false,"rental_uris":{"android":"levelo://app?vid=42c6daca-a04f-4385-b335-d79919ebfbf3","ios":"levelo://app?vid=42c6daca-a04f-4385-b335-d79919ebfbf3"},"vehicle_type_id":"4","last_reported":1753075161,"current_range_meters":16800,"station_id":"ce4bhs12rcd13ifvqhvg","pricing_plan_id":"cebpf4jnsgd1na2vs0mg"},{"bike_id":"44b4bb7d-13b2-444a-b646-968f71bf0759","system_id":"levelo_inurba_marseille","lat":43.306031,"lon":5.393519,"is_reserved":false,"is_disabled":true,"rental_uris":{"android":"levelo://app?vid=44b4bb7d-13b2-444a-b646-968f71bf0759","ios":"levelo://app?vid=44b4bb7d-13b2-444a-b646-968f71bf0759"},"vehicle_type_id":"4","last_reported":1753075161,"current_range_meters":16800,"station_id":"ce4bh0p2rcd13ifvqd80","pricing_plan_id":"cebpf4jnsgd1na2vs0mg"},{"bike_id":"1c22819b-ef69-41c3-af80-068c7a58af48","system_id":"levelo_inurba_marseille","lat":43.321088,"lon":5.367864,"is_reserved":false,"is_disabled":false,"rental_uris":{"android":"levelo://app?vid=1c22819b-ef69-41c3-af80-068c7a58af48","ios":"levelo://app?vid=1c22819b-ef69-41c3-af80-068c7a58af48"},"vehicle_type_id":"4","last_reported":1753075161,"current_range_meters":16800,"station_id":"ce4bhrh2rcd13ifvqhug","pricing_plan_id":"cebpf4jnsgd1na2vs0mg"},{"bike_id":"5a42e90a-94ef-4a1b-b43d-3c279f1b53e1","system_id":"levelo_inurba_marseille","lat":43.231901,"lon":5.355554,"is_reserved":false,"is_disabled":false,"rental_uris":{"android":"levelo://app?vid=5a42e90a-94ef-4a1b-b43d-3c279f1b53e1","ios":"levelo://app?vid=5a42e90a-94ef-4a1b-b43d-3c279f1b53e1"},"vehicle_type_id":"4","last_reported":1753075161,"current_range_meters":16800,"station_id":"ce4bhu92rcd13ifvqi70","pricing_plan_id":"cebpf4jnsgd1na2vs0mg"},{"bike_id":"8ec3987c-4e5e-4f67-aba7-96e36709e826","system_id":"levelo_inurba_marseille","lat":43.327374,"lon":5.409146,"is_reserved":false,"is_disabled":false,"rental_uris":{"android":"levelo://app?vid=8ec3987c-4e5e-4f67-aba7-96e36709e826","ios":"levelo://app?vid=8ec3987c-4e5e-4f67-aba7-96e36709e826"},"vehicle_type_id":"4","last_reported":1753075161,"current_range_meters":16800,"station_id":"","pricing_plan_id":"cebpf4jnsgd1na2vs0mg"},{"bike_id":"c4ddf749-008b-4a14-af16-f3a13a431402","system_id":"levelo_inurba_marseille","lat":43.21218,"lon":5.35052,"is_reserved":false,"is_disabled":false,"rental_uris":{"android":"levelo://app?vid=c4ddf749-008b-4a14-af16-f3a13a431402","ios":"levelo://app?vid=c4ddf749-008b-4a14-af16-f3a13a431402"},"vehicle_type_id":"4","last_reported":1753075161,"current_range_meters":17200,"station_id":"","pricing_plan_id":"cebpf4jnsgd1na2vs0mg"},{"bike_id":"85414a3a-8e19-4139-9cbb-1bedd74e2ef2","system_id":"levelo_inurba_marseille","lat":43.23207,"lon":5.35546,"is_reserved":false,"is_disabled":false,"rental_uris":{"android":"levelo://app?vid=85414a3a-8e19-4139-9cbb-1bedd74e2ef2","ios":"levelo://app?vid=85414a3a-8e19-4139-9cbb-1bedd74e2ef2"},"vehicle_type_id":"4","last_reported":1753075161,"current_range_meters":17200,"station_id":"ce4bhu92rcd13ifvqi70","pricing_plan_id":"cebpf4jnsgd1na2vs0mg"},{"bike_id":"6cf1ed0c-445d-47e0-a831-c7549e62beed","system_id":"levelo_inurba_marseille","lat":43.304468,"lon":5.388976,"is_reserved":false,"is_disabled":true,"rental_uris":{"android":"levelo://app?vid=6cf1ed0c-445d-47e0-a831-c7549e62beed","ios":"levelo://app?vid=6cf1ed0c-445d-47e0-a831-c7549e62beed"},"vehicle_type_id":"4","last_reported":1753075161,"current_range_meters":17200,"station_id":"ce4bgk12rcd13ifvqbi0","pricing_plan_id":"cebpf4jnsgd1na2vs0mg"},{"bike_id":"d2547933-ca48-418a-b2e1-db528c786820","system_id":"levelo_inurba_marseille","lat":43.23203,"lon":5.35526,"is_reserved":false,"is_disabled":false,"rental_uris":{"android":"levelo://app?vid=d2547933-ca48-418a-b2e1-db528c786820","ios":"levelo://app?vid=d2547933-ca48-418a-b2e1-db528c786820"},"vehicle_type_id":"4","last_reported":1753075161,"current_range_meters":17200,"station_id":"ce4bhu92rcd13ifvqi70","pricing_plan_id":"cebpf4jnsgd1na2vs0mg"},{"bike_id":"ea8732f4-0a6d-48aa-9a2f-8257067a4a7d","system_id":"levelo_inurba_marseille","lat":43.314859,"lon":5.372951,"is_reserved":false,"is_disabled":false,"rental_uris":{"android":"levelo://app?vid=ea8732f4-0a6d-48aa-9a2f-8257067a4a7d","ios":"levelo://app?vid=ea8732f4-0a6d-48aa-9a2f-8257067a4a7d"},"vehicle_type_id":"4","last_reported":1753075161,"current_range_meters":17200,"station_id":"ce4bgt12rcd13ifvqcd0","pricing_plan_id":"cebpf4jnsgd1na2vs0mg"},{"bike_id":"b2450978-2353-4d4d-93bd-ec44ae81fd08","system_id":"levelo_inurba_marseille","lat":43.28849,"lon":5.39324,"is_reserved":false,"is_disabled":false,"rental_uris":{"android":"levelo://app?vid=b2450978-2353-4d4d-93bd-ec44ae81fd08","ios":"levelo://app?vid=b2450978-2353-4d4d-93bd-ec44ae81fd08"},"vehicle_type_id":"4","last_reported":1753075161,"current_range_meters":17200,"station_id":"ce4bh2p2rcd13ifvqdi0","pricing_plan_id":"cebpf4jnsgd1na2vs0mg"},{"bike_id":"50d16da1-39af-48c8-9080-8fc1a2184959","system_id":"levelo_inurba_marseille","lat":43.211905,"lon":5.350707,"is_reserved":false,"is_disabled":false,"rental_uris":{"android":"levelo://app?vid=50d16da1-39af-48c8-9080-8fc1a2184959","ios":"levelo://app?vid=50d16da1-39af-48c8-9080-8fc1a2184959"},"vehicle_type_id":"4","last_reported":1753075161,"current_range_meters":17200,"station_id":"st_cvj6sg6p6f1abm77japg","pricing_plan_id":"cebpf4jnsgd1na2vs0mg"},{"bike_id":"d778a561-0abe-4676-9dca-d85a214615cb","system_id":"levelo_inurba_marseille","lat":43.337743,"lon":5.374289,"is_reserved":false,"is_disabled":false,"rental_uris":{"android":"levelo://app?vid=d778a561-0abe-4676-9dca-d85a214615cb","ios":"levelo://app?vid=d778a561-0abe-4676-9dca-d85a214615cb"},"vehicle_type_id":"4","last_reported":1753075161,"current_range_meters":17600,"station_id":"","pricing_plan_id":"cebpf4jnsgd1na2vs0mg"},{"bike_id":"144d9ad2-f769-4753-8844-45fa575c03d8","system_id":"levelo_inurba_marseille","lat":43.290967,"lon":5.381705,"is_reserved":false,"is_disabled":true,"rental_uris":{"android":"levelo://app?vid=144d9ad2-f769-4753-8844-45fa575c03d8","ios":"levelo://app?vid=144d9ad2-f769-4753-8844-45fa575c03d8"},"vehicle_type_id":"4","last_reported":1753075161,"current_range_meters":17600,"station_id":"ce4bh512rcd13ifvqe2g","pricing_plan_id":"cebpf4jnsgd1na2vs0mg"},{"bike_id":"8e7beff7-775d-4a5d-a875-86c3add653bc","system_id":"levelo_inurba_marseille","lat":43.28708,"lon":5.3998,"is_reserved":false,"is_disabled":false,"rental_uris":{"android":"levelo://app?vid=8e7beff7-775d-4a5d-a875-86c3add653bc","ios":"levelo://app?vid=8e7beff7-775d-4a5d-a875-86c3add653bc"},"vehicle_type_id":"4","last_reported":1753075161,"current_range_meters":17600,"station_id":"ce4bho92rcd13ifvqh3g","pricing_plan_id":"cebpf4jnsgd1na2vs0mg"},{"bike_id":"1edc5d4d-3e64-4fb9-b4f7-7e8ca62c6eba","system_id":"levelo_inurba_marseille","lat":43.231848,"lon":5.399754,"is_reserved":false,"is_disabled":false,"rental_uris":{"android":"levelo://app?vid=1edc5d4d-3e64-4fb9-b4f7-7e8ca62c6eba","ios":"levelo://app?vid=1edc5d4d-3e64-4fb9-b4f7-7e8ca62c6eba"},"vehicle_type_id":"4","last_reported":1753075161,"current_range_meters":17600,"station_id":"ce4bhn12rcd13ifvqgqg","pricing_plan_id":"cebpf4jnsgd1na2vs0mg"},{"bike_id":"a95607eb-463b-4cda-a224-f545762ec41b","system_id":"levelo_inurba_marseille","lat":43.29428,"lon":5.38602,"is_reserved":false,"is_disabled":true,"rental_uris":{"android":"levelo://app?vid=a95607eb-463b-4cda-a224-f545762ec41b","ios":"levelo://app?vid=a95607eb-463b-4cda-a224-f545762ec41b"},"vehicle_type_id":"4","last_reported":1753075161,"current_range_meters":17600,"station_id":"ce4bh2h2rcd13ifvqdh0","pricing_plan_id":"cebpf4jnsgd1na2vs0mg"},{"bike_id":"4faa3c8e-9b5a-4d55-aebc-2e52610bf132","system_id":"levelo_inurba_marseille","lat":43.3266,"lon":5.42353,"is_reserved":false,"is_disabled":false,"rental_uris":{"android":"levelo://app?vid=4faa3c8e-9b5a-4d55-aebc-2e52610bf132","ios":"levelo://app?vid=4faa3c8e-9b5a-4d55-aebc-2e52610bf132"},"vehicle_type_id":"4","last_reported":1753075161,"current_range_meters":17600,"station_id":"","pricing_plan_id":"cebpf4jnsgd1na2vs0mg"},{"bike_id":"c4324aff-291c-4a78-bd83-b065cd60e8d1","system_id":"levelo_inurba_marseille","lat":43.2319,"lon":5.35566,"is_reserved":false,"is_disabled":false,"rental_uris":{"android":"levelo://app?vid=c4324aff-291c-4a78-bd83-b065cd60e8d1","ios":"levelo://app?vid=c4324aff-291c-4a78-bd83-b065cd60e8d1"},"vehicle_type_id":"4","last_reported":1753075161,"current_range_meters":17600,"station_id":"ce4bhu92rcd13ifvqi70","pricing_plan_id":"cebpf4jnsgd1na2vs0mg"},{"bike_id":"3865ff14-736d-4b19-8f7c-e2d5e48a50d2","system_id":"levelo_inurba_marseille","lat":43.323646,"lon":5.388869,"is_reserved":false,"is_disabled":false,"rental_uris":{"android":"levelo://app?vid=3865ff14-736d-4b19-8f7c-e2d5e48a50d2","ios":"levelo://app?vid=3865ff14-736d-4b19-8f7c-e2d5e48a50d2"},"vehicle_type_id":"4","last_reported":1753075161,"current_range_meters":17600,"station_id":"ce4bhqp2rcd13ifvqhog","pricing_plan_id":"cebpf4jnsgd1na2vs0mg"},{"bike_id":"ab67d62d-583f-4f74-976b-3e9f5750f312","system_id":"levelo_inurba_marseille","lat":43.29693,"lon":5.36632,"is_reserved":false,"is_disabled":true,"rental_uris":{"android":"levelo://app?vid=ab67d62d-583f-4f74-976b-3e9f5750f312","ios":"levelo://app?vid=ab67d62d-583f-4f74-976b-3e9f5750f312"},"vehicle_type_id":"4","last_reported":1753075161,"current_range_meters":17600,"station_id":"ce4bgn12rcd13ifvqbt0","pricing_plan_id":"cebpf4jnsgd1na2vs0mg"},{"bike_id":"8423e589-47bf-47a8-b90f-452fc938c46b","system_id":"levelo_inurba_marseille","lat":43.32358,"lon":5.36747,"is_reserved":false,"is_disabled":false,"rental_uris":{"android":"levelo://app?vid=8423e589-47bf-47a8-b90f-452fc938c46b","ios":"levelo://app?vid=8423e589-47bf-47a8-b90f-452fc938c46b"},"vehicle_type_id":"4","last_reported":1753075161,"current_range_meters":17600,"station_id":"ce4bhsh2rcd13ifvqi2g","pricing_plan_id":"cebpf4jnsgd1na2vs0mg"},{"bike_id":"2d6095ea-f882-494d-a187-fa879408181e","system_id":"levelo_inurba_marseille","lat":43.25158,"lon":5.37352,"is_reserved":false,"is_disabled":false,"rental_uris":{"android":"levelo://app?vid=2d6095ea-f882-494d-a187-fa879408181e","ios":"levelo://app?vid=2d6095ea-f882-494d-a187-fa879408181e"},"vehicle_type_id":"4","last_reported":1753075161,"current_range_meters":17600,"station_id":"","pricing_plan_id":"cebpf4jnsgd1na2vs0mg"},{"bike_id":"9b3aacf5-1c8a-44ba-830c-34d695c8f727","system_id":"levelo_inurba_marseille","lat":43.26182,"lon":5.37466,"is_reserved":false,"is_disabled":true,"rental_uris":{"android":"levelo://app?vid=9b3aacf5-1c8a-44ba-830c-34d695c8f727","ios":"levelo://app?vid=9b3aacf5-1c8a-44ba-830c-34d695c8f727"},"vehicle_type_id":"4","last_reported":1753075161,"current_range_meters":18000,"station_id":"ce4bhgp2rcd13ifvqfc0","pricing_plan_id":"cebpf4jnsgd1na2vs0mg"},{"bike_id":"db613240-5ba4-4073-9c1f-00ffd85c2ab0","system_id":"levelo_inurba_marseille","lat":43.26572,"lon":5.3901,"is_reserved":false,"is_disabled":false,"rental_uris":{"android":"levelo://app?vid=db613240-5ba4-4073-9c1f-00ffd85c2ab0","ios":"levelo://app?vid=db613240-5ba4-4073-9c1f-00ffd85c2ab0"},"vehicle_type_id":"4","last_reported":1753075161,"current_range_meters":18000,"station_id":"ce4bhe12rcd13ifvqf30","pricing_plan_id":"cebpf4jnsgd1na2vs0mg"},{"bike_id":"fd0ed72f-86ae-4072-8b0d-20766ca39f58","system_id":"levelo_inurba_marseille","lat":43.31489,"lon":5.37306,"is_reserved":false,"is_disabled":false,"rental_uris":{"android":"levelo://app?vid=fd0ed72f-86ae-4072-8b0d-20766ca39f58","ios":"levelo://app?vid=fd0ed72f-86ae-4072-8b0d-20766ca39f58"},"vehicle_type_id":"4","last_reported":1753075161,"current_range_meters":18000,"station_id":"ce4bgt12rcd13ifvqcd0","pricing_plan_id":"cebpf4jnsgd1na2vs0mg"},{"bike_id":"de6a3c05-55e2-41e1-816b-dcb3e0ba55c7","system_id":"levelo_inurba_marseille","lat":43.28363,"lon":5.38087,"is_reserved":false,"is_disabled":false,"rental_uris":{"android":"levelo://app?vid=de6a3c05-55e2-41e1-816b-dcb3e0ba55c7","ios":"levelo://app?vid=de6a3c05-55e2-41e1-816b-dcb3e0ba55c7"},"vehicle_type_id":"4","last_reported":1753075161,"current_range_meters":18000,"station_id":"ce4bh412rcd13ifvqdr0","pricing_plan_id":"cebpf4jnsgd1na2vs0mg"},{"bike_id":"e10dc17e-f970-454b-96c8-f9a38fee430d","system_id":"levelo_inurba_marseille","lat":43.33745,"lon":5.37491,"is_reserved":false,"is_disabled":false,"rental_uris":{"android":"levelo://app?vid=e10dc17e-f970-454b-96c8-f9a38fee430d","ios":"levelo://app?vid=e10dc17e-f970-454b-96c8-f9a38fee430d"},"vehicle_type_id":"4","last_reported":1753075161,"current_range_meters":18000,"station_id":"","pricing_plan_id":"cebpf4jnsgd1na2vs0mg"},{"bike_id":"402aa937-20f3-4a3d-a8f3-5a18633f6a79","system_id":"levelo_inurba_marseille","lat":43.30619,"lon":5.37221,"is_reserved":false,"is_disabled":false,"rental_uris":{"android":"levelo://app?vid=402aa937-20f3-4a3d-a8f3-5a18633f6a79","ios":"levelo://app?vid=402aa937-20f3-4a3d-a8f3-5a18633f6a79"},"vehicle_type_id":"4","last_reported":1753075161,"current_range_meters":18000,"station_id":"ce4bgqh2rcd13ifvqc4g","pricing_plan_id":"cebpf4jnsgd1na2vs0mg"},{"bike_id":"11896e7e-541b-43da-adf5-78ad222cf7a2","system_id":"levelo_inurba_marseille","lat":43.23198,"lon":5.35542,"is_reserved":false,"is_disabled":false,"rental_uris":{"android":"levelo://app?vid=11896e7e-541b-43da-adf5-78ad222cf7a2","ios":"levelo://app?vid=11896e7e-541b-43da-adf5-78ad222cf7a2"},"vehicle_type_id":"4","last_reported":1753075161,"current_range_meters":18000,"station_id":"ce4bhu92rcd13ifvqi70","pricing_plan_id":"cebpf4jnsgd1na2vs0mg"},{"bike_id":"82730c7f-774e-4b6d-b0b2-b4b8ceeba246","system_id":"levelo_inurba_marseille","lat":43.274359,"lon":5.394142,"is_reserved":false,"is_disabled":false,"rental_uris":{"android":"levelo://app?vid=82730c7f-774e-4b6d-b0b2-b4b8ceeba246","ios":"levelo://app?vid=82730c7f-774e-4b6d-b0b2-b4b8ceeba246"},"vehicle_type_id":"4","last_reported":1753075161,"current_range_meters":18000,"station_id":"ce4bhdp2rcd13ifvqf20","pricing_plan_id":"cebpf4jnsgd1na2vs0mg"},{"bike_id":"c5b002c8-7323-459c-85b1-2c49f242ef67","system_id":"levelo_inurba_marseille","lat":43.30494,"lon":5.39348,"is_reserved":false,"is_disabled":false,"rental_uris":{"android":"levelo://app?vid=c5b002c8-7323-459c-85b1-2c49f242ef67","ios":"levelo://app?vid=c5b002c8-7323-459c-85b1-2c49f242ef67"},"vehicle_type_id":"4","last_reported":1753075161,"current_range_meters":18000,"station_id":"","pricing_plan_id":"cebpf4jnsgd1na2vs0mg"},{"bike_id":"4e3a9934-4f1f-44fc-83db-2f3d83ae9d8d","system_id":"levelo_inurba_marseille","lat":43.28351,"lon":5.41552,"is_reserved":false,"is_disabled":true,"rental_uris":{"android":"levelo://app?vid=4e3a9934-4f1f-44fc-83db-2f3d83ae9d8d","ios":"levelo://app?vid=4e3a9934-4f1f-44fc-83db-2f3d83ae9d8d"},"vehicle_type_id":"4","last_reported":1753075161,"current_range_meters":18800,"station_id":"","pricing_plan_id":"cebpf4jnsgd1na2vs0mg"},{"bike_id":"b6191c96-af83-462f-a3cc-e4778a781fff","system_id":"levelo_inurba_marseille","lat":43.212,"lon":5.35058,"is_reserved":false,"is_disabled":false,"rental_uris":{"android":"levelo://app?vid=b6191c96-af83-462f-a3cc-e4778a781fff","ios":"levelo://app?vid=b6191c96-af83-462f-a3cc-e4778a781fff"},"vehicle_type_id":"4","last_reported":1753075161,"current_range_meters":18800,"station_id":"st_cvj6sg6p6f1abm77japg","pricing_plan_id":"cebpf4jnsgd1na2vs0mg"},{"bike_id":"91faf937-6768-4101-98da-411036d125c4","system_id":"levelo_inurba_marseille","lat":43.22938,"lon":5.35407,"is_reserved":false,"is_disabled":false,"rental_uris":{"android":"levelo://app?vid=91faf937-6768-4101-98da-411036d125c4","ios":"levelo://app?vid=91faf937-6768-4101-98da-411036d125c4"},"vehicle_type_id":"4","last_reported":1753075161,"current_range_meters":18800,"station_id":"cpo3532slgdg3j2ikp40","pricing_plan_id":"cebpf4jnsgd1na2vs0mg"},{"bike_id":"1939f174-202a-4c81-862c-a082219c81fc","system_id":"levelo_inurba_marseille","lat":43.28166,"lon":5.42654,"is_reserved":false,"is_disabled":false,"rental_uris":{"android":"levelo://app?vid=1939f174-202a-4c81-862c-a082219c81fc","ios":"levelo://app?vid=1939f174-202a-4c81-862c-a082219c81fc"},"vehicle_type_id":"4","last_reported":1753075161,"current_range_meters":18000,"station_id":"ce4bhnh2rcd13ifvqgug","pricing_plan_id":"cebpf4jnsgd1na2vs0mg"},{"bike_id":"1ef2503f-ea41-4c4a-a986-942aff558f83","system_id":"levelo_inurba_marseille","lat":43.31744,"lon":5.40455,"is_reserved":false,"is_disabled":false,"rental_uris":{"android":"levelo://app?vid=1ef2503f-ea41-4c4a-a986-942aff558f83","ios":"levelo://app?vid=1ef2503f-ea41-4c4a-a986-942aff558f83"},"vehicle_type_id":"4","last_reported":1753075161,"current_range_meters":18800,"station_id":"","pricing_plan_id":"cebpf4jnsgd1na2vs0mg"},{"bike_id":"7481cf07-3eaa-495c-a4e5-7c21bb1a9368","system_id":"levelo_inurba_marseille","lat":43.3375,"lon":5.37475,"is_reserved":false,"is_disabled":false,"rental_uris":{"android":"levelo://app?vid=7481cf07-3eaa-495c-a4e5-7c21bb1a9368","ios":"levelo://app?vid=7481cf07-3eaa-495c-a4e5-7c21bb1a9368"},"vehicle_type_id":"4","last_reported":1753075161,"current_range_meters":18800,"station_id":"","pricing_plan_id":"cebpf4jnsgd1na2vs0mg"},{"bike_id":"e7da084f-56e1-484c-8bd3-9f31a35e14c3","system_id":"levelo_inurba_marseille","lat":43.265746,"lon":5.390076,"is_reserved":false,"is_disabled":true,"rental_uris":{"android":"levelo://app?vid=e7da084f-56e1-484c-8bd3-9f31a35e14c3","ios":"levelo://app?vid=e7da084f-56e1-484c-8bd3-9f31a35e14c3"},"vehicle_type_id":"4","last_reported":1753075161,"current_range_meters":18800,"station_id":"ce4bhe12rcd13ifvqf30","pricing_plan_id":"cebpf4jnsgd1na2vs0mg"},{"bike_id":"cf9c41eb-f80c-493b-b928-bdee1491bffb","system_id":"levelo_inurba_marseille","lat":43.314837,"lon":5.373005,"is_reserved":false,"is_disabled":false,"rental_uris":{"android":"levelo://app?vid=cf9c41eb-f80c-493b-b928-bdee1491bffb","ios":"levelo://app?vid=cf9c41eb-f80c-493b-b928-bdee1491bffb"},"vehicle_type_id":"4","last_reported":1753075161,"current_range_meters":18800,"station_id":"ce4bgt12rcd13ifvqcd0","pricing_plan_id":"cebpf4jnsgd1na2vs0mg"},{"bike_id":"cca108d3-2823-4bde-876c-9ba8667f69df","system_id":"levelo_inurba_marseille","lat":43.283002,"lon":5.433183,"is_reserved":false,"is_disabled":false,"rental_uris":{"android":"levelo://app?vid=cca108d3-2823-4bde-876c-9ba8667f69df","ios":"levelo://app?vid=cca108d3-2823-4bde-876c-9ba8667f69df"},"vehicle_type_id":"4","last_reported":1753075161,"current_range_meters":18800,"station_id":"","pricing_plan_id":"cebpf4jnsgd1na2vs0mg"},{"bike_id":"ccb3a2c1-5335-4346-b5bb-08cb08061e0e","system_id":"levelo_inurba_marseille","lat":43.297777,"lon":5.381044,"is_reserved":false,"is_disabled":true,"rental_uris":{"android":"levelo://app?vid=ccb3a2c1-5335-4346-b5bb-08cb08061e0e","ios":"levelo://app?vid=ccb3a2c1-5335-4346-b5bb-08cb08061e0e"},"vehicle_type_id":"4","last_reported":1753075161,"current_range_meters":18800,"station_id":"ce4bgip2rcd13ifvqbb0","pricing_plan_id":"cebpf4jnsgd1na2vs0mg"},{"bike_id":"728755e2-24c8-4bba-8ded-523c5feb93fd","system_id":"levelo_inurba_marseille","lat":43.3109,"lon":5.38366,"is_reserved":false,"is_disabled":false,"rental_uris":{"android":"levelo://app?vid=728755e2-24c8-4bba-8ded-523c5feb93fd","ios":"levelo://app?vid=728755e2-24c8-4bba-8ded-523c5feb93fd"},"vehicle_type_id":"4","last_reported":1753075161,"current_range_meters":18800,"station_id":"ce4bgv92rcd13ifvqcr0","pricing_plan_id":"cebpf4jnsgd1na2vs0mg"},{"bike_id":"5d8faae4-e96a-4185-aca5-13454c7a14ac","system_id":"levelo_inurba_marseille","lat":43.287141,"lon":5.379339,"is_reserved":false,"is_disabled":false,"rental_uris":{"android":"levelo://app?vid=5d8faae4-e96a-4185-aca5-13454c7a14ac","ios":"levelo://app?vid=5d8faae4-e96a-4185-aca5-13454c7a14ac"},"vehicle_type_id":"4","last_reported":1753075161,"current_range_meters":18800,"station_id":"ce4bh9p2rcd13ifvqec0","pricing_plan_id":"cebpf4jnsgd1na2vs0mg"},{"bike_id":"4d2fb385-600a-460f-817d-c81c8838ad28","system_id":"levelo_inurba_marseille","lat":43.32367,"lon":5.3676,"is_reserved":false,"is_disabled":false,"rental_uris":{"android":"levelo://app?vid=4d2fb385-600a-460f-817d-c81c8838ad28","ios":"levelo://app?vid=4d2fb385-600a-460f-817d-c81c8838ad28"},"vehicle_type_id":"4","last_reported":1753075161,"current_range_meters":19200,"station_id":"ce4bhsh2rcd13ifvqi2g","pricing_plan_id":"cebpf4jnsgd1na2vs0mg"},{"bike_id":"298d7476-28c7-4c61-8302-df95a7d5d3d6","system_id":"levelo_inurba_marseille","lat":43.22509,"lon":5.34747,"is_reserved":false,"is_disabled":false,"rental_uris":{"android":"levelo://app?vid=298d7476-28c7-4c61-8302-df95a7d5d3d6","ios":"levelo://app?vid=298d7476-28c7-4c61-8302-df95a7d5d3d6"},"vehicle_type_id":"4","last_reported":1753075161,"current_range_meters":19200,"station_id":"st_cvj5dfep6f1abm77gieg","pricing_plan_id":"cebpf4jnsgd1na2vs0mg"},{"bike_id":"383b9b1c-f5ef-4dd0-80b8-e2514dc6b601","system_id":"levelo_inurba_marseille","lat":43.27989,"lon":5.40012,"is_reserved":false,"is_disabled":false,"rental_uris":{"android":"levelo://app?vid=383b9b1c-f5ef-4dd0-80b8-e2514dc6b601","ios":"levelo://app?vid=383b9b1c-f5ef-4dd0-80b8-e2514dc6b601"},"vehicle_type_id":"4","last_reported":1753075161,"current_range_meters":19200,"station_id":"","pricing_plan_id":"cebpf4jnsgd1na2vs0mg"},{"bike_id":"099fa841-6d95-4394-8c64-f0872b581ac3","system_id":"levelo_inurba_marseille","lat":43.32335,"lon":5.40623,"is_reserved":false,"is_disabled":false,"rental_uris":{"android":"levelo://app?vid=099fa841-6d95-4394-8c64-f0872b581ac3","ios":"levelo://app?vid=099fa841-6d95-4394-8c64-f0872b581ac3"},"vehicle_type_id":"4","last_reported":1753075161,"current_range_meters":19200,"station_id":"ce4bhq92rcd13ifvqhjg","pricing_plan_id":"cebpf4jnsgd1na2vs0mg"},{"bike_id":"4db84a14-3e43-45ba-b326-52d955296885","system_id":"levelo_inurba_marseille","lat":43.261934,"lon":5.374478,"is_reserved":false,"is_disabled":true,"rental_uris":{"android":"levelo://app?vid=4db84a14-3e43-45ba-b326-52d955296885","ios":"levelo://app?vid=4db84a14-3e43-45ba-b326-52d955296885"},"vehicle_type_id":"4","last_reported":1753075161,"current_range_meters":19200,"station_id":"ce4bhgp2rcd13ifvqfc0","pricing_plan_id":"cebpf4jnsgd1na2vs0mg"},{"bike_id":"9c6054f6-f3d6-4299-b335-a51db33a53b7","system_id":"levelo_inurba_marseille","lat":43.29972,"lon":5.37171,"is_reserved":false,"is_disabled":false,"rental_uris":{"android":"levelo://app?vid=9c6054f6-f3d6-4299-b335-a51db33a53b7","ios":"levelo://app?vid=9c6054f6-f3d6-4299-b335-a51db33a53b7"},"vehicle_type_id":"4","last_reported":1753075161,"current_range_meters":19200,"station_id":"ce4bgr92rcd13ifvqc7g","pricing_plan_id":"cebpf4jnsgd1na2vs0mg"},{"bike_id":"d2de94d4-e1d9-4df2-81f3-4cc2123ddefc","system_id":"levelo_inurba_marseille","lat":43.28722,"lon":5.37949,"is_reserved":false,"is_disabled":false,"rental_uris":{"android":"levelo://app?vid=d2de94d4-e1d9-4df2-81f3-4cc2123ddefc","ios":"levelo://app?vid=d2de94d4-e1d9-4df2-81f3-4cc2123ddefc"},"vehicle_type_id":"4","last_reported":1753075161,"current_range_meters":19600,"station_id":"ce4bh9p2rcd13ifvqec0","pricing_plan_id":"cebpf4jnsgd1na2vs0mg"},{"bike_id":"bc784c3c-f505-4c3f-94c8-4934d1a1bc7c","system_id":"levelo_inurba_marseille","lat":43.29905,"lon":5.39401,"is_reserved":false,"is_disabled":false,"rental_uris":{"android":"levelo://app?vid=bc784c3c-f505-4c3f-94c8-4934d1a1bc7c","ios":"levelo://app?vid=bc784c3c-f505-4c3f-94c8-4934d1a1bc7c"},"vehicle_type_id":"4","last_reported":1753075161,"current_range_meters":19600,"station_id":"","pricing_plan_id":"cebpf4jnsgd1na2vs0mg"},{"bike_id":"58cbfa7e-c704-4866-ba9b-204648f1391a","system_id":"levelo_inurba_marseille","lat":43.299579,"lon":5.380973,"is_reserved":false,"is_disabled":true,"rental_uris":{"android":"levelo://app?vid=58cbfa7e-c704-4866-ba9b-204648f1391a","ios":"levelo://app?vid=58cbfa7e-c704-4866-ba9b-204648f1391a"},"vehicle_type_id":"4","last_reported":1753075161,"current_range_meters":19600,"station_id":"","pricing_plan_id":"cebpf4jnsgd1na2vs0mg"},{"bike_id":"263d4ced-6e04-4169-ac4b-7fa733c92fa6","system_id":"levelo_inurba_marseille","lat":43.323551,"lon":5.367374,"is_reserved":false,"is_disabled":false,"rental_uris":{"android":"levelo://app?vid=263d4ced-6e04-4169-ac4b-7fa733c92fa6","ios":"levelo://app?vid=263d4ced-6e04-4169-ac4b-7fa733c92fa6"},"vehicle_type_id":"4","last_reported":1753075161,"current_range_meters":19600,"station_id":"ce4bhsh2rcd13ifvqi2g","pricing_plan_id":"cebpf4jnsgd1na2vs0mg"},{"bike_id":"4e27f713-7e99-4e9a-93f6-7ecf301dd0f1","system_id":"levelo_inurba_marseille","lat":43.32525,"lon":5.45035,"is_reserved":false,"is_disabled":false,"rental_uris":{"android":"levelo://app?vid=4e27f713-7e99-4e9a-93f6-7ecf301dd0f1","ios":"levelo://app?vid=4e27f713-7e99-4e9a-93f6-7ecf301dd0f1"},"vehicle_type_id":"4","last_reported":1753075161,"current_range_meters":20000,"station_id":"","pricing_plan_id":"cebpf4jnsgd1na2vs0mg"},{"bike_id":"6fd60fcc-a488-429a-83dc-26c625b54d84","system_id":"levelo_inurba_marseille","lat":43.31495,"lon":5.37318,"is_reserved":false,"is_disabled":false,"rental_uris":{"android":"levelo://app?vid=6fd60fcc-a488-429a-83dc-26c625b54d84","ios":"levelo://app?vid=6fd60fcc-a488-429a-83dc-26c625b54d84"},"vehicle_type_id":"4","last_reported":1753075161,"current_range_meters":20000,"station_id":"ce4bgt12rcd13ifvqcd0","pricing_plan_id":"cebpf4jnsgd1na2vs0mg"},{"bike_id":"f2327917-3ceb-47fc-8c4f-bdfa40069235","system_id":"levelo_inurba_marseille","lat":43.31125,"lon":5.37771,"is_reserved":false,"is_disabled":false,"rental_uris":{"android":"levelo://app?vid=f2327917-3ceb-47fc-8c4f-bdfa40069235","ios":"levelo://app?vid=f2327917-3ceb-47fc-8c4f-bdfa40069235"},"vehicle_type_id":"4","last_reported":1753075161,"current_range_meters":20000,"station_id":"ce4bgt92rcd13ifvqcg0","pricing_plan_id":"cebpf4jnsgd1na2vs0mg"},{"bike_id":"d2229c93-297f-41f1-8cb1-b4545e35da58","system_id":"levelo_inurba_marseille","lat":43.308964,"lon":5.371961,"is_reserved":false,"is_disabled":false,"rental_uris":{"android":"levelo://app?vid=d2229c93-297f-41f1-8cb1-b4545e35da58","ios":"levelo://app?vid=d2229c93-297f-41f1-8cb1-b4545e35da58"},"vehicle_type_id":"4","last_reported":1753075161,"current_range_meters":20000,"station_id":"ce4bguh2rcd13ifvqckg","pricing_plan_id":"cebpf4jnsgd1na2vs0mg"},{"bike_id":"a5f880db-a79d-409a-913f-1dfe60d08222","system_id":"levelo_inurba_marseille","lat":43.2992,"lon":5.37474,"is_reserved":false,"is_disabled":false,"rental_uris":{"android":"levelo://app?vid=a5f880db-a79d-409a-913f-1dfe60d08222","ios":"levelo://app?vid=a5f880db-a79d-409a-913f-1dfe60d08222"},"vehicle_type_id":"4","last_reported":1753075161,"current_range_meters":20000,"station_id":"ce4bgjh2rcd13ifvqbg0","pricing_plan_id":"cebpf4jnsgd1na2vs0mg"},{"bike_id":"2975a10e-052a-4ed4-8afb-b52549159b49","system_id":"levelo_inurba_marseille","lat":43.3287,"lon":5.38768,"is_reserved":false,"is_disabled":false,"rental_uris":{"android":"levelo://app?vid=2975a10e-052a-4ed4-8afb-b52549159b49","ios":"levelo://app?vid=2975a10e-052a-4ed4-8afb-b52549159b49"},"vehicle_type_id":"4","last_reported":1753075161,"current_range_meters":20000,"station_id":"","pricing_plan_id":"cebpf4jnsgd1na2vs0mg"},{"bike_id":"668bfa40-7ae0-42dd-a6b6-6631a40f0c0f","system_id":"levelo_inurba_marseille","lat":43.331388,"lon":5.386007,"is_reserved":false,"is_disabled":false,"rental_uris":{"android":"levelo://app?vid=668bfa40-7ae0-42dd-a6b6-6631a40f0c0f","ios":"levelo://app?vid=668bfa40-7ae0-42dd-a6b6-6631a40f0c0f"},"vehicle_type_id":"4","last_reported":1753075161,"current_range_meters":20000,"station_id":"","pricing_plan_id":"cebpf4jnsgd1na2vs0mg"},{"bike_id":"9b6a491b-2483-467b-adb0-360a34aec6ed","system_id":"levelo_inurba_marseille","lat":43.306128,"lon":5.393572,"is_reserved":false,"is_disabled":true,"rental_uris":{"android":"levelo://app?vid=9b6a491b-2483-467b-adb0-360a34aec6ed","ios":"levelo://app?vid=9b6a491b-2483-467b-adb0-360a34aec6ed"},"vehicle_type_id":"4","last_reported":1753075161,"current_range_meters":20000,"station_id":"ce4bh0p2rcd13ifvqd80","pricing_plan_id":"cebpf4jnsgd1na2vs0mg"},{"bike_id":"b2f60a78-1919-4c57-93f1-f82fc2b8786f","system_id":"levelo_inurba_marseille","lat":43.278306,"lon":5.392019,"is_reserved":false,"is_disabled":true,"rental_uris":{"android":"levelo://app?vid=b2f60a78-1919-4c57-93f1-f82fc2b8786f","ios":"levelo://app?vid=b2f60a78-1919-4c57-93f1-f82fc2b8786f"},"vehicle_type_id":"4","last_reported":1753075161,"current_range_meters":20000,"station_id":"ce4bhjp2rcd13ifvqga0","pricing_plan_id":"cebpf4jnsgd1na2vs0mg"},{"bike_id":"fe732a6c-bff8-47cc-932a-3c976c2c7a76","system_id":"levelo_inurba_marseille","lat":43.280363,"lon":5.369555,"is_reserved":false,"is_disabled":true,"rental_uris":{"android":"levelo://app?vid=fe732a6c-bff8-47cc-932a-3c976c2c7a76","ios":"levelo://app?vid=fe732a6c-bff8-47cc-932a-3c976c2c7a76"},"vehicle_type_id":"4","last_reported":1753075161,"current_range_meters":20400,"station_id":"","pricing_plan_id":"cebpf4jnsgd1na2vs0mg"},{"bike_id":"18cc91f1-6a27-49f5-9bb6-c6ee2ff7cdff","system_id":"levelo_inurba_marseille","lat":43.2421,"lon":5.37835,"is_reserved":false,"is_disabled":false,"rental_uris":{"android":"levelo://app?vid=18cc91f1-6a27-49f5-9bb6-c6ee2ff7cdff","ios":"levelo://app?vid=18cc91f1-6a27-49f5-9bb6-c6ee2ff7cdff"},"vehicle_type_id":"4","last_reported":1753075161,"current_range_meters":20400,"station_id":"","pricing_plan_id":"cebpf4jnsgd1na2vs0mg"},{"bike_id":"75a97bc5-9b71-419a-a337-1fe1aa86d6d3","system_id":"levelo_inurba_marseille","lat":43.31077,"lon":5.38371,"is_reserved":false,"is_disabled":false,"rental_uris":{"android":"levelo://app?vid=75a97bc5-9b71-419a-a337-1fe1aa86d6d3","ios":"levelo://app?vid=75a97bc5-9b71-419a-a337-1fe1aa86d6d3"},"vehicle_type_id":"4","last_reported":1753075161,"current_range_meters":20400,"station_id":"ce4bgv92rcd13ifvqcr0","pricing_plan_id":"cebpf4jnsgd1na2vs0mg"},{"bike_id":"13adf853-6ca7-4ebd-8c9f-f4512dd3a322","system_id":"levelo_inurba_marseille","lat":43.33289,"lon":5.39871,"is_reserved":false,"is_disabled":false,"rental_uris":{"android":"levelo://app?vid=13adf853-6ca7-4ebd-8c9f-f4512dd3a322","ios":"levelo://app?vid=13adf853-6ca7-4ebd-8c9f-f4512dd3a322"},"vehicle_type_id":"4","last_reported":1753075161,"current_range_meters":20400,"station_id":"","pricing_plan_id":"cebpf4jnsgd1na2vs0mg"},{"bike_id":"b67ca3f0-e632-4b9e-ad2f-ba95e62966cd","system_id":"levelo_inurba_marseille","lat":43.305313,"lon":5.384172,"is_reserved":false,"is_disabled":false,"rental_uris":{"android":"levelo://app?vid=b67ca3f0-e632-4b9e-ad2f-ba95e62966cd","ios":"levelo://app?vid=b67ca3f0-e632-4b9e-ad2f-ba95e62966cd"},"vehicle_type_id":"4","last_reported":1753075161,"current_range_meters":20400,"station_id":"ce4bhrh2rcd13ifvqhug","pricing_plan_id":"cebpf4jnsgd1na2vs0mg"},{"bike_id":"f00edc13-f36f-48e1-91ef-9c20dba77eb5","system_id":"levelo_inurba_marseille","lat":43.337588,"lon":5.374346,"is_reserved":false,"is_disabled":false,"rental_uris":{"android":"levelo://app?vid=f00edc13-f36f-48e1-91ef-9c20dba77eb5","ios":"levelo://app?vid=f00edc13-f36f-48e1-91ef-9c20dba77eb5"},"vehicle_type_id":"4","last_reported":1753075161,"current_range_meters":20400,"station_id":"","pricing_plan_id":"cebpf4jnsgd1na2vs0mg"},{"bike_id":"3604a33e-983e-4330-ab63-f732f2d5cb74","system_id":"levelo_inurba_marseille","lat":43.305483,"lon":5.365355,"is_reserved":false,"is_disabled":true,"rental_uris":{"android":"levelo://app?vid=3604a33e-983e-4330-ab63-f732f2d5cb74","ios":"levelo://app?vid=3604a33e-983e-4330-ab63-f732f2d5cb74"},"vehicle_type_id":"4","last_reported":1753075161,"current_range_meters":20400,"station_id":"ce4bgs12rcd13ifvqcag","pricing_plan_id":"cebpf4jnsgd1na2vs0mg"},{"bike_id":"7c2d1fcc-642d-4b3e-b123-58c7a5afe87a","system_id":"levelo_inurba_marseille","lat":43.32368,"lon":5.38921,"is_reserved":false,"is_disabled":false,"rental_uris":{"android":"levelo://app?vid=7c2d1fcc-642d-4b3e-b123-58c7a5afe87a","ios":"levelo://app?vid=7c2d1fcc-642d-4b3e-b123-58c7a5afe87a"},"vehicle_type_id":"4","last_reported":1753075161,"current_range_meters":20400,"station_id":"ce4bhqp2rcd13ifvqhog","pricing_plan_id":"cebpf4jnsgd1na2vs0mg"},{"bike_id":"ee888420-9c39-4d92-ae08-a8ecacc0a319","system_id":"levelo_inurba_marseille","lat":43.287231,"lon":5.379348,"is_reserved":false,"is_disabled":false,"rental_uris":{"android":"levelo://app?vid=ee888420-9c39-4d92-ae08-a8ecacc0a319","ios":"levelo://app?vid=ee888420-9c39-4d92-ae08-a8ecacc0a319"},"vehicle_type_id":"4","last_reported":1753075161,"current_range_meters":20400,"station_id":"ce4bh9p2rcd13ifvqec0","pricing_plan_id":"cebpf4jnsgd1na2vs0mg"},{"bike_id":"e77da9ef-8155-42a4-a49c-30e2b59818cc","system_id":"levelo_inurba_marseille","lat":43.337444,"lon":5.374475,"is_reserved":false,"is_disabled":false,"rental_uris":{"android":"levelo://app?vid=e77da9ef-8155-42a4-a49c-30e2b59818cc","ios":"levelo://app?vid=e77da9ef-8155-42a4-a49c-30e2b59818cc"},"vehicle_type_id":"4","last_reported":1753075161,"current_range_meters":20400,"station_id":"","pricing_plan_id":"cebpf4jnsgd1na2vs0mg"},{"bike_id":"5140bb8e-c44f-4d3a-995a-3be3ee966f00","system_id":"levelo_inurba_marseille","lat":43.2841,"lon":5.37501,"is_reserved":false,"is_disabled":false,"rental_uris":{"android":"levelo://app?vid=5140bb8e-c44f-4d3a-995a-3be3ee966f00","ios":"levelo://app?vid=5140bb8e-c44f-4d3a-995a-3be3ee966f00"},"vehicle_type_id":"4","last_reported":1753075161,"current_range_meters":20800,"station_id":"ce4bh412rcd13ifvqds0","pricing_plan_id":"cebpf4jnsgd1na2vs0mg"},{"bike_id":"7c77537c-4798-4d3c-98d9-a14ce8881d96","system_id":"levelo_inurba_marseille","lat":43.29011,"lon":5.35602,"is_reserved":false,"is_disabled":true,"rental_uris":{"android":"levelo://app?vid=7c77537c-4798-4d3c-98d9-a14ce8881d96","ios":"levelo://app?vid=7c77537c-4798-4d3c-98d9-a14ce8881d96"},"vehicle_type_id":"4","last_reported":1753075161,"current_range_meters":20800,"station_id":"ce4bhb92rcd13ifvqen0","pricing_plan_id":"cebpf4jnsgd1na2vs0mg"},