{"last_updated":1773141827,"ttl":60,"version":"2.2","data":{"bikes":[{"bike_id":"d836b3f9-d22b-4e36-9788-587fa8497bc6","system_id":"levelo_inurba_marseille","lat":43.2417,"lon":5.36392,"is_reserved":false,"is_disabled":false,"rental_uris":{"android":"levelo://app?vid=d836b3f9-d22b-4e36-9788-587fa8497bc6","ios":"levelo://app?vid=d836b3f9-d22b-4e36-9788-587fa8497bc6"},"vehicle_type_id":"4","last_reported":1773141828,"current_range_meters":10800,"station_id":"cpo36qri1sfpv3e86is0","pricing_plan_id":"cebpf4jnsgd1na2vs0mg"},{"bike_id":"550f0157-9dee-4681-8f50-3896b766742f","system_id":"levelo_inurba_marseille","lat":43.25866,"lon":5.39877,"is_reserved":false,"is_disabled":false,"rental_uris":{"android":"levelo://app?vid=550f0157-9dee-4681-8f50-3896b766742f","ios":"levelo://app?vid=550f0157-9dee-4681-8f50-3896b766742f"},"vehicle_type_id":"4","last_reported":1773141828,"current_range_meters":39200,"station_id":"ce4bhl92rcd13ifvqghg","pricing_plan_id":"cebpf4jnsgd1na2vs0mg"},{"bike_id":"1aeca4c0-5785-4134-b736-ca240ce57e2b","system_id":"levelo_inurba_marseille","lat":43.30251,"lon":5.40046,"is_reserved":false,"is_disabled":false,"rental_uris":{"android":"levelo://app?vid=1aeca4c0-5785-4134-b736-ca240ce57e2b","ios":"levelo://app?vid=1aeca4c0-5785-4134-b736-ca240ce57e2b"},"vehicle_type_id":"4","last_reported":1773141828,"current_range_meters":32800,"station_id":"ce4bgvh2rcd13ifvqcs0","pricing_plan_id":"cebpf4jnsgd1na2vs0mg"},{"bike_id":"577736ec-0dd9-446b-bdd3-a790c927821a","system_id":"levelo_inurba_marseille","lat":43.27837,"lon":5.3921,"is_reserved":false,"is_disabled":false,"rental_uris":{"android":"levelo://app?vid=577736ec-0dd9-446b-bdd3-a790c927821a","ios":"levelo://app?vid=577736ec-0dd9-446b-bdd3-a790c927821a"},"vehicle_type_id":"4","last_reported":1773141828,"current_range_meters":23200,"station_id":"ce4bhjp2rcd13ifvqga0","pricing_plan_id":"cebpf4jnsgd1na2vs0mg"},{"bike_id":"a288b9ab-a9bb-4ef5-b546-668de4d089da","system_id":"levelo_inurba_marseille","lat":43.29523,"lon":5.37515,"is_reserved":false,"is_disabled":false,"rental_uris":{"android":"levelo://app?vid=a288b9ab-a9bb-4ef5-b546-668de4d089da","ios":"levelo://app?vid=a288b9ab-a9bb-4ef5-b546-668de4d089da"},"vehicle_type_id":"4","last_reported":1773141828,"current_range_meters":28800,"station_id":"ce4bgkp2rcd13ifvqbmg","pricing_plan_id":"cebpf4jnsgd1na2vs0mg"},{"bike_id":"aaa57c9c-a5dc-480c-97b9-d3c8d31e41e6","system_id":"levelo_inurba_marseille","lat":43.30545,"lon":5.36566,"is_reserved":false,"is_disabled":false,"rental_uris":{"android":"levelo://app?vid=aaa57c9c-a5dc-480c-97b9-d3c8d31e41e6","ios":"levelo://app?vid=aaa57c9c-a5dc-480c-97b9-d3c8d31e41e6"},"vehicle_type_id":"4","last_reported":1773141828,"current_range_meters":38000,"station_id":"ce4bgs12rcd13ifvqcag","pricing_plan_id":"cebpf4jnsgd1na2vs0mg"},{"bike_id":"ec2fd004-5e6a-4378-b889-ecc25a28039f","system_id":"levelo_inurba_marseille","lat":43.28148,"lon":5.4264,"is_reserved":false,"is_disabled":false,"rental_uris":{"android":"levelo://app?vid=ec2fd004-5e6a-4378-b889-ecc25a28039f","ios":"levelo://app?vid=ec2fd004-5e6a-4378-b889-ecc25a28039f"},"vehicle_type_id":"4","last_reported":1773141828,"current_range_meters":35200,"station_id":"ce4bhnh2rcd13ifvqgug","pricing_plan_id":"cebpf4jnsgd1na2vs0mg"},{"bike_id":"a561aea9-3659-40aa-952b-fd7ee45a0ff6","system_id":"levelo_inurba_marseille","lat":43.30143,"lon":5.38772,"is_reserved":false,"is_disabled":false,"rental_uris":{"android":"levelo://app?vid=a561aea9-3659-40aa-952b-fd7ee45a0ff6","ios":"levelo://app?vid=a561aea9-3659-40aa-952b-fd7ee45a0ff6"},"vehicle_type_id":"4","last_reported":1773141828,"current_range_meters":39200,"station_id":"ce4bghh2rcd13ifvqb60","pricing_plan_id":"cebpf4jnsgd1na2vs0mg"},{"bike_id":"957d5153-e7e5-4874-9557-99dd830de934","system_id":"levelo_inurba_marseille","lat":43.3464,"lon":5.36722,"is_reserved":false,"is_disabled":false,"rental_uris":{"android":"levelo://app?vid=957d5153-e7e5-4874-9557-99dd830de934","ios":"levelo://app?vid=957d5153-e7e5-4874-9557-99dd830de934"},"vehicle_type_id":"4","last_reported":1773141828,"current_range_meters":34000,"station_id":"","pricing_plan_id":"cebpf4jnsgd1na2vs0mg"},{"bike_id":"18f1c463-f6d6-4fd3-b57c-9bff424cb238","system_id":"levelo_inurba_marseille","lat":43.29244,"lon":5.37609,"is_reserved":false,"is_disabled":false,"rental_uris":{"android":"levelo://app?vid=18f1c463-f6d6-4fd3-b57c-9bff424cb238","ios":"levelo://app?vid=18f1c463-f6d6-4fd3-b57c-9bff424cb238"},"vehicle_type_id":"4","last_reported":1773141828,"current_range_meters":38000,"station_id":"ce4bgi12rcd13ifvqb80","pricing_plan_id":"cebpf4jnsgd1na2vs0mg"},{"bike_id":"4b816d63-fc3c-45dd-aea6-96b4203fe4c8","system_id":"levelo_inurba_marseille","lat":43.28477,"lon":5.48391,"is_reserved":false,"is_disabled":false,"rental_uris":{"android":"levelo://app?vid=4b816d63-fc3c-45dd-aea6-96b4203fe4c8","ios":"levelo://app?vid=4b816d63-fc3c-45dd-aea6-96b4203fe4c8"},"vehicle_type_id":"4","last_reported":1773141828,"current_range_meters":38400,"station_id":"st_d3svhcjqgbts73a3dn0g","pricing_plan_id":"cebpf4jnsgd1na2vs0mg"},{"bike_id":"9548c5b7-5eac-46d1-8ff7-8823f888763f","system_id":"levelo_inurba_marseille","lat":43.33167,"lon":5.37684,"is_reserved":false,"is_disabled":false,"rental_uris":{"android":"levelo://app?vid=9548c5b7-5eac-46d1-8ff7-8823f888763f","ios":"levelo://app?vid=9548c5b7-5eac-46d1-8ff7-8823f888763f"},"vehicle_type_id":"4","last_reported":1773141828,"current_range_meters":35600,"station_id":"st_d46cu089ee8s73dldbu0","pricing_plan_id":"cebpf4jnsgd1na2vs0mg"},{"bike_id":"fe3b6ef8-5734-4670-a69c-2a7e6e0e4342","system_id":"levelo_inurba_marseille","lat":43.29616,"lon":5.37146,"is_reserved":false,"is_disabled":false,"rental_uris":{"android":"levelo://app?vid=fe3b6ef8-5734-4670-a69c-2a7e6e0e4342","ios":"levelo://app?vid=fe3b6ef8-5734-4670-a69c-2a7e6e0e4342"},"vehicle_type_id":"4","last_reported":1773141828,"current_range_meters":37600,"station_id":"ce4bgnh2rcd13ifvqc0g","pricing_plan_id":"cebpf4jnsgd1na2vs0mg"},{"bike_id":"1ee08fee-017d-4804-9294-89d045f096b0","system_id":"levelo_inurba_marseille","lat":43.279905,"lon":5.4001,"is_reserved":false,"is_disabled":false,"rental_uris":{"android":"levelo://app?vid=1ee08fee-017d-4804-9294-89d045f096b0","ios":"levelo://app?vid=1ee08fee-017d-4804-9294-89d045f096b0"},"vehicle_type_id":"4","last_reported":1773141828,"current_range_meters":22000,"station_id":"ce4bho92rcd13ifvqh4g","pricing_plan_id":"cebpf4jnsgd1na2vs0mg"},{"bike_id":"24797630-66e6-48ac-9e2f-402e12f91c0a","system_id":"levelo_inurba_marseille","lat":43.27991,"lon":5.41655,"is_reserved":false,"is_disabled":false,"rental_uris":{"android":"levelo://app?vid=24797630-66e6-48ac-9e2f-402e12f91c0a","ios":"levelo://app?vid=24797630-66e6-48ac-9e2f-402e12f91c0a"},"vehicle_type_id":"4","last_reported":1773141828,"current_range_meters":3600,"station_id":"ce4bho12rcd13ifvqh1g","pricing_plan_id":"cebpf4jnsgd1na2vs0mg"},{"bike_id":"c3e5f7db-9aee-4e14-8726-6f1186a37e17","system_id":"levelo_inurba_marseille","lat":43.30155,"lon":5.38074,"is_reserved":false,"is_disabled":false,"rental_uris":{"android":"levelo://app?vid=c3e5f7db-9aee-4e14-8726-6f1186a37e17","ios":"levelo://app?vid=c3e5f7db-9aee-4e14-8726-6f1186a37e17"},"vehicle_type_id":"4","last_reported":1773141828,"current_range_meters":34800,"station_id":"ce4bgjp2rcd13ifvqbh0","pricing_plan_id":"cebpf4jnsgd1na2vs0mg"},{"bike_id":"defa0dcb-9a4c-4abf-ac8d-3696d01f59d4","system_id":"levelo_inurba_marseille","lat":43.28229,"lon":5.39063,"is_reserved":false,"is_disabled":false,"rental_uris":{"android":"levelo://app?vid=defa0dcb-9a4c-4abf-ac8d-3696d01f59d4","ios":"levelo://app?vid=defa0dcb-9a4c-4abf-ac8d-3696d01f59d4"},"vehicle_type_id":"4","last_reported":1773141828,"current_range_meters":33200,"station_id":"ce4bhn92rcd13ifvqgsg","pricing_plan_id":"cebpf4jnsgd1na2vs0mg"},{"bike_id":"b32e1fec-13ae-4c1f-b583-73be3e302a01","system_id":"levelo_inurba_marseille","lat":43.24814,"lon":5.37472,"is_reserved":false,"is_disabled":false,"rental_uris":{"android":"levelo://app?vid=b32e1fec-13ae-4c1f-b583-73be3e302a01","ios":"levelo://app?vid=b32e1fec-13ae-4c1f-b583-73be3e302a01"},"vehicle_type_id":"4","last_reported":1773141828,"current_range_meters":36000,"station_id":"ce4bhgh2rcd13ifvqfb0","pricing_plan_id":"cebpf4jnsgd1na2vs0mg"},{"bike_id":"864c6078-41af-4bee-945c-48c82002f112","system_id":"levelo_inurba_marseille","lat":43.32481,"lon":5.36568,"is_reserved":false,"is_disabled":false,"rental_uris":{"android":"levelo://app?vid=864c6078-41af-4bee-945c-48c82002f112","ios":"levelo://app?vid=864c6078-41af-4bee-945c-48c82002f112"},"vehicle_type_id":"4","last_reported":1773141828,"current_range_meters":25200,"station_id":"ce4bhs12rcd13ifvqhvg","pricing_plan_id":"cebpf4jnsgd1na2vs0mg"},{"bike_id":"a60534b3-9ee9-4333-a7c1-1f4c68d62ab0","system_id":"levelo_inurba_marseille","lat":43.25936,"lon":5.40862,"is_reserved":false,"is_disabled":false,"rental_uris":{"android":"levelo://app?vid=a60534b3-9ee9-4333-a7c1-1f4c68d62ab0","ios":"levelo://app?vid=a60534b3-9ee9-4333-a7c1-1f4c68d62ab0"},"vehicle_type_id":"4","last_reported":1773141828,"current_range_meters":30400,"station_id":"ce4bhm92rcd13ifvqglg","pricing_plan_id":"cebpf4jnsgd1na2vs0mg"},{"bike_id":"37f283b3-f4c9-46a8-b061-23abb822cfa9","system_id":"levelo_inurba_marseille","lat":43.30915,"lon":5.36852,"is_reserved":false,"is_disabled":false,"rental_uris":{"android":"levelo://app?vid=37f283b3-f4c9-46a8-b061-23abb822cfa9","ios":"levelo://app?vid=37f283b3-f4c9-46a8-b061-23abb822cfa9"},"vehicle_type_id":"4","last_reported":1773141828,"current_range_meters":24000,"station_id":"ce4bgn92rcd13ifvqbvg","pricing_plan_id":"cebpf4jnsgd1na2vs0mg"},{"bike_id":"abd13d01-d3b3-4b8f-a3f9-05a8c130dea1","system_id":"levelo_inurba_marseille","lat":43.28065,"lon":5.3965,"is_reserved":false,"is_disabled":false,"rental_uris":{"android":"levelo://app?vid=abd13d01-d3b3-4b8f-a3f9-05a8c130dea1","ios":"levelo://app?vid=abd13d01-d3b3-4b8f-a3f9-05a8c130dea1"},"vehicle_type_id":"4","last_reported":1773141828,"current_range_meters":38400,"station_id":"ce4bho12rcd13ifvqh2g","pricing_plan_id":"cebpf4jnsgd1na2vs0mg"},{"bike_id":"adf428bd-16ce-4d6b-94cd-289d20e6adfb","system_id":"levelo_inurba_marseille","lat":43.26895,"lon":5.40229,"is_reserved":false,"is_disabled":false,"rental_uris":{"android":"levelo://app?vid=adf428bd-16ce-4d6b-94cd-289d20e6adfb","ios":"levelo://app?vid=adf428bd-16ce-4d6b-94cd-289d20e6adfb"},"vehicle_type_id":"4","last_reported":1773141828,"current_range_meters":26800,"station_id":"","pricing_plan_id":"cebpf4jnsgd1na2vs0mg"},{"bike_id":"8a6671b8-31ec-4064-b97c-4b7142aa7c6f","system_id":"levelo_inurba_marseille","lat":43.25104,"lon":5.40322,"is_reserved":false,"is_disabled":false,"rental_uris":{"android":"levelo://app?vid=8a6671b8-31ec-4064-b97c-4b7142aa7c6f","ios":"levelo://app?vid=8a6671b8-31ec-4064-b97c-4b7142aa7c6f"},"vehicle_type_id":"4","last_reported":1773141828,"current_range_meters":38000,"station_id":"ce4bhlh2rcd13ifvqgig","pricing_plan_id":"cebpf4jnsgd1na2vs0mg"},{"bike_id":"9cc09629-76f8-46a4-a76a-172ee2993776","system_id":"levelo_inurba_marseille","lat":43.32097,"lon":5.36768,"is_reserved":false,"is_disabled":false,"rental_uris":{"android":"levelo://app?vid=9cc09629-76f8-46a4-a76a-172ee2993776","ios":"levelo://app?vid=9cc09629-76f8-46a4-a76a-172ee2993776"},"vehicle_type_id":"4","last_reported":1773141828,"current_range_meters":32400,"station_id":"ce4bhrh2rcd13ifvqhug","pricing_plan_id":"cebpf4jnsgd1na2vs0mg"},{"bike_id":"800f493e-8660-471b-8739-825a4aee9761","system_id":"levelo_inurba_marseille","lat":43.30956,"lon":5.39032,"is_reserved":false,"is_disabled":false,"rental_uris":{"android":"levelo://app?vid=800f493e-8660-471b-8739-825a4aee9761","ios":"levelo://app?vid=800f493e-8660-471b-8739-825a4aee9761"},"vehicle_type_id":"4","last_reported":1773141828,"current_range_meters":37600,"station_id":"ce4bgup2rcd13ifvqco0","pricing_plan_id":"cebpf4jnsgd1na2vs0mg"},{"bike_id":"8ae944a9-73e4-40dd-b559-5de5fadd517a","system_id":"levelo_inurba_marseille","lat":43.26226,"lon":5.37422,"is_reserved":false,"is_disabled":false,"rental_uris":{"android":"levelo://app?vid=8ae944a9-73e4-40dd-b559-5de5fadd517a","ios":"levelo://app?vid=8ae944a9-73e4-40dd-b559-5de5fadd517a"},"vehicle_type_id":"4","last_reported":1773141828,"current_range_meters":20000,"station_id":"ce4bhgp2rcd13ifvqfc0","pricing_plan_id":"cebpf4jnsgd1na2vs0mg"},{"bike_id":"9ac89a19-e749-498e-b869-7c753ce88359","system_id":"levelo_inurba_marseille","lat":43.3036,"lon":5.41856,"is_reserved":false,"is_disabled":false,"rental_uris":{"android":"levelo://app?vid=9ac89a19-e749-498e-b869-7c753ce88359","ios":"levelo://app?vid=9ac89a19-e749-498e-b869-7c753ce88359"},"vehicle_type_id":"4","last_reported":1773141828,"current_range_meters":12400,"station_id":"ce4bhop2rcd13ifvqh7g","pricing_plan_id":"cebpf4jnsgd1na2vs0mg"},{"bike_id":"b5369474-d595-42d6-ba6e-c39f04602da0","system_id":"levelo_inurba_marseille","lat":43.22569,"lon":5.41626,"is_reserved":false,"is_disabled":false,"rental_uris":{"android":"levelo://app?vid=b5369474-d595-42d6-ba6e-c39f04602da0","ios":"levelo://app?vid=b5369474-d595-42d6-ba6e-c39f04602da0"},"vehicle_type_id":"4","last_reported":1773141828,"current_range_meters":10800,"station_id":"st_d2o4gvlbi1j2169b742g","pricing_plan_id":"cebpf4jnsgd1na2vs0mg"},{"bike_id":"5c75f21b-7e95-43b6-a338-699ae6c6da3a","system_id":"levelo_inurba_marseille","lat":43.25805,"lon":5.39434,"is_reserved":false,"is_disabled":false,"rental_uris":{"android":"levelo://app?vid=5c75f21b-7e95-43b6-a338-699ae6c6da3a","ios":"levelo://app?vid=5c75f21b-7e95-43b6-a338-699ae6c6da3a"},"vehicle_type_id":"4","last_reported":1773141828,"current_range_meters":12400,"station_id":"ce4bhip2rcd13ifvqft0","pricing_plan_id":"cebpf4jnsgd1na2vs0mg"},{"bike_id":"defb3785-ffdb-45c6-b37a-b3aa30aa857c","system_id":"levelo_inurba_marseille","lat":43.24172,"lon":5.39734,"is_reserved":false,"is_disabled":false,"rental_uris":{"android":"levelo://app?vid=defb3785-ffdb-45c6-b37a-b3aa30aa857c","ios":"levelo://app?vid=defb3785-ffdb-45c6-b37a-b3aa30aa857c"},"vehicle_type_id":"4","last_reported":1773141828,"current_range_meters":38400,"station_id":"ce4bhn12rcd13ifvqgpg","pricing_plan_id":"cebpf4jnsgd1na2vs0mg"},{"bike_id":"51e55b24-3d3b-443a-b515-8c783220422e","system_id":"levelo_inurba_marseille","lat":43.28614,"lon":5.39866,"is_reserved":false,"is_disabled":false,"rental_uris":{"android":"levelo://app?vid=51e55b24-3d3b-443a-b515-8c783220422e","ios":"levelo://app?vid=51e55b24-3d3b-443a-b515-8c783220422e"},"vehicle_type_id":"4","last_reported":1773141828,"current_range_meters":28400,"station_id":"st_d4a7ka997mjs738ck50g","pricing_plan_id":"cebpf4jnsgd1na2vs0mg"},{"bike_id":"ffca8b48-6a41-4c14-bbf9-9d4227cddf8b","system_id":"levelo_inurba_marseille","lat":43.31713,"lon":5.404,"is_reserved":false,"is_disabled":false,"rental_uris":{"android":"levelo://app?vid=ffca8b48-6a41-4c14-bbf9-9d4227cddf8b","ios":"levelo://app?vid=ffca8b48-6a41-4c14-bbf9-9d4227cddf8b"},"vehicle_type_id":"4","last_reported":1773141828,"current_range_meters":18800,"station_id":"ce4bh012rcd13ifvqd00","pricing_plan_id":"cebpf4jnsgd1na2vs0mg"},{"bike_id":"26aa5a84-7c56-4e4b-b67f-4e70084d4713","system_id":"levelo_inurba_marseille","lat":43.29216,"lon":5.36846,"is_reserved":false,"is_disabled":false,"rental_uris":{"android":"levelo://app?vid=26aa5a84-7c56-4e4b-b67f-4e70084d4713","ios":"levelo://app?vid=26aa5a84-7c56-4e4b-b67f-4e70084d4713"},"vehicle_type_id":"4","last_reported":1773141828,"current_range_meters":11200,"station_id":"","pricing_plan_id":"cebpf4jnsgd1na2vs0mg"},{"bike_id":"57be604b-33d9-4634-bc58-ddcff506a976","system_id":"levelo_inurba_marseille","lat":43.24055,"lon":5.37747,"is_reserved":false,"is_disabled":false,"rental_uris":{"android":"levelo://app?vid=57be604b-33d9-4634-bc58-ddcff506a976","ios":"levelo://app?vid=57be604b-33d9-4634-bc58-ddcff506a976"},"vehicle_type_id":"4","last_reported":1773141828,"current_range_meters":39200,"station_id":"ce4bhnp2rcd13ifvqgvg","pricing_plan_id":"cebpf4jnsgd1na2vs0mg"},{"bike_id":"c3a6abe6-c2fe-4a0d-bd39-b1c9edd3f158","system_id":"levelo_inurba_marseille","lat":43.29521,"lon":5.37521,"is_reserved":false,"is_disabled":false,"rental_uris":{"android":"levelo://app?vid=c3a6abe6-c2fe-4a0d-bd39-b1c9edd3f158","ios":"levelo://app?vid=c3a6abe6-c2fe-4a0d-bd39-b1c9edd3f158"},"vehicle_type_id":"4","last_reported":1773141828,"current_range_meters":39200,"station_id":"ce4bgkp2rcd13ifvqbmg","pricing_plan_id":"cebpf4jnsgd1na2vs0mg"},{"bike_id":"4879d3c3-e3b5-42ca-ab65-740f4f2a8681","system_id":"levelo_inurba_marseille","lat":43.2417,"lon":5.36412,"is_reserved":false,"is_disabled":false,"rental_uris":{"android":"levelo://app?vid=4879d3c3-e3b5-42ca-ab65-740f4f2a8681","ios":"levelo://app?vid=4879d3c3-e3b5-42ca-ab65-740f4f2a8681"},"vehicle_type_id":"4","last_reported":1773141828,"current_range_meters":16800,"station_id":"cpo36qri1sfpv3e86is0","pricing_plan_id":"cebpf4jnsgd1na2vs0mg"},{"bike_id":"406dc9a2-14d2-43f3-b09a-1270cddb760c","system_id":"levelo_inurba_marseille","lat":43.29906,"lon":5.37475,"is_reserved":false,"is_disabled":false,"rental_uris":{"android":"levelo://app?vid=406dc9a2-14d2-43f3-b09a-1270cddb760c","ios":"levelo://app?vid=406dc9a2-14d2-43f3-b09a-1270cddb760c"},"vehicle_type_id":"4","last_reported":1773141828,"current_range_meters":39200,"station_id":"ce4bgjh2rcd13ifvqbg0","pricing_plan_id":"cebpf4jnsgd1na2vs0mg"},{"bike_id":"6cfb7bd9-f8d6-449b-b9ee-b500434706d4","system_id":"levelo_inurba_marseille","lat":43.32453,"lon":5.36579,"is_reserved":false,"is_disabled":false,"rental_uris":{"android":"levelo://app?vid=6cfb7bd9-f8d6-449b-b9ee-b500434706d4","ios":"levelo://app?vid=6cfb7bd9-f8d6-449b-b9ee-b500434706d4"},"vehicle_type_id":"4","last_reported":1773141828,"current_range_meters":28400,"station_id":"ce4bhs12rcd13ifvqhvg","pricing_plan_id":"cebpf4jnsgd1na2vs0mg"},{"bike_id":"05681e4e-87b0-4520-8776-5b1952252019","system_id":"levelo_inurba_marseille","lat":43.30314,"lon":5.369,"is_reserved":false,"is_disabled":false,"rental_uris":{"android":"levelo://app?vid=05681e4e-87b0-4520-8776-5b1952252019","ios":"levelo://app?vid=05681e4e-87b0-4520-8776-5b1952252019"},"vehicle_type_id":"4","last_reported":1773141828,"current_range_meters":32800,"station_id":"ce4bgqh2rcd13ifvqc5g","pricing_plan_id":"cebpf4jnsgd1na2vs0mg"},{"bike_id":"2c836b03-51a7-4097-96f7-8a0f0d0e719d","system_id":"levelo_inurba_marseille","lat":43.24804,"lon":5.37455,"is_reserved":false,"is_disabled":false,"rental_uris":{"android":"levelo://app?vid=2c836b03-51a7-4097-96f7-8a0f0d0e719d","ios":"levelo://app?vid=2c836b03-51a7-4097-96f7-8a0f0d0e719d"},"vehicle_type_id":"4","last_reported":1773141828,"current_range_meters":37600,"station_id":"ce4bhgh2rcd13ifvqfb0","pricing_plan_id":"cebpf4jnsgd1na2vs0mg"},{"bike_id":"5e98cd14-31b8-4319-a3f9-4020968dfdec","system_id":"levelo_inurba_marseille","lat":43.29595,"lon":5.36745,"is_reserved":false,"is_disabled":false,"rental_uris":{"android":"levelo://app?vid=5e98cd14-31b8-4319-a3f9-4020968dfdec","ios":"levelo://app?vid=5e98cd14-31b8-4319-a3f9-4020968dfdec"},"vehicle_type_id":"4","last_reported":1773141828,"current_range_meters":36400,"station_id":"ce4bgph2rcd13ifvqc2g","pricing_plan_id":"cebpf4jnsgd1na2vs0mg"},{"bike_id":"49578953-6b5f-4d8b-8563-1660aa3595a2","system_id":"levelo_inurba_marseille","lat":43.29611,"lon":5.38073,"is_reserved":false,"is_disabled":false,"rental_uris":{"android":"levelo://app?vid=49578953-6b5f-4d8b-8563-1660aa3595a2","ios":"levelo://app?vid=49578953-6b5f-4d8b-8563-1660aa3595a2"},"vehicle_type_id":"4","last_reported":1773141828,"current_range_meters":6400,"station_id":"ce4bgl12rcd13ifvqbo0","pricing_plan_id":"cebpf4jnsgd1na2vs0mg"},{"bike_id":"0042b9c4-6034-4b14-a836-5261c3b74b6f","system_id":"levelo_inurba_marseille","lat":43.29258,"lon":5.376,"is_reserved":false,"is_disabled":false,"rental_uris":{"android":"levelo://app?vid=0042b9c4-6034-4b14-a836-5261c3b74b6f","ios":"levelo://app?vid=0042b9c4-6034-4b14-a836-5261c3b74b6f"},"vehicle_type_id":"4","last_reported":1773141828,"current_range_meters":39200,"station_id":"ce4bgi12rcd13ifvqb80","pricing_plan_id":"cebpf4jnsgd1na2vs0mg"},{"bike_id":"6073a47f-518c-413d-af8e-2cd2ccfbc29d","system_id":"levelo_inurba_marseille","lat":43.25581,"lon":5.38221,"is_reserved":false,"is_disabled":false,"rental_uris":{"android":"levelo://app?vid=6073a47f-518c-413d-af8e-2cd2ccfbc29d","ios":"levelo://app?vid=6073a47f-518c-413d-af8e-2cd2ccfbc29d"},"vehicle_type_id":"4","last_reported":1773141828,"current_range_meters":39200,"station_id":"ce4bhih2rcd13ifvqfs0","pricing_plan_id":"cebpf4jnsgd1na2vs0mg"},{"bike_id":"05a6aeb6-8ecc-444c-a68d-cdb267f43480","system_id":"levelo_inurba_marseille","lat":43.24648,"lon":5.38912,"is_reserved":false,"is_disabled":false,"rental_uris":{"android":"levelo://app?vid=05a6aeb6-8ecc-444c-a68d-cdb267f43480","ios":"levelo://app?vid=05a6aeb6-8ecc-444c-a68d-cdb267f43480"},"vehicle_type_id":"4","last_reported":1773141828,"current_range_meters":38800,"station_id":"ce4bhg12rcd13ifvqf60","pricing_plan_id":"cebpf4jnsgd1na2vs0mg"},{"bike_id":"4d918a95-6ede-4f0d-8771-87f15900f998","system_id":"levelo_inurba_marseille","lat":43.30373,"lon":5.41885,"is_reserved":false,"is_disabled":true,"rental_uris":{"android":"levelo://app?vid=4d918a95-6ede-4f0d-8771-87f15900f998","ios":"levelo://app?vid=4d918a95-6ede-4f0d-8771-87f15900f998"},"vehicle_type_id":"4","last_reported":1773141828,"current_range_meters":31200,"station_id":"ce4bhop2rcd13ifvqh7g","pricing_plan_id":"cebpf4jnsgd1na2vs0mg"},{"bike_id":"704a2250-d7d4-477b-b824-ec4356a8dd6e","system_id":"levelo_inurba_marseille","lat":43.296,"lon":5.38089,"is_reserved":false,"is_disabled":false,"rental_uris":{"android":"levelo://app?vid=704a2250-d7d4-477b-b824-ec4356a8dd6e","ios":"levelo://app?vid=704a2250-d7d4-477b-b824-ec4356a8dd6e"},"vehicle_type_id":"4","last_reported":1773141828,"current_range_meters":35200,"station_id":"ce4bgl12rcd13ifvqbo0","pricing_plan_id":"cebpf4jnsgd1na2vs0mg"},{"bike_id":"a5642da5-590f-492f-89f9-0fbe17148ab4","system_id":"levelo_inurba_marseille","lat":43.23785,"lon":5.36632,"is_reserved":false,"is_disabled":false,"rental_uris":{"android":"levelo://app?vid=a5642da5-590f-492f-89f9-0fbe17148ab4","ios":"levelo://app?vid=a5642da5-590f-492f-89f9-0fbe17148ab4"},"vehicle_type_id":"4","last_reported":1773141828,"current_range_meters":17600,"station_id":"st_d3nk18o9ro0c73en2l3g","pricing_plan_id":"cebpf4jnsgd1na2vs0mg"},{"bike_id":"ed8dec86-aa91-45f9-93c0-8464f27d0f2d","system_id":"levelo_inurba_marseille","lat":43.29537,"lon":5.38518,"is_reserved":false,"is_disabled":false,"rental_uris":{"android":"levelo://app?vid=ed8dec86-aa91-45f9-93c0-8464f27d0f2d","ios":"levelo://app?vid=ed8dec86-aa91-45f9-93c0-8464f27d0f2d"},"vehicle_type_id":"4","last_reported":1773141828,"current_range_meters":20000,"station_id":"ce4bgih2rcd13ifvqba0","pricing_plan_id":"cebpf4jnsgd1na2vs0mg"},{"bike_id":"69f2ffbf-585f-43a8-8001-70d9c4e50d2f","system_id":"levelo_inurba_marseille","lat":43.31321,"lon":5.3678,"is_reserved":false,"is_disabled":false,"rental_uris":{"android":"levelo://app?vid=69f2ffbf-585f-43a8-8001-70d9c4e50d2f","ios":"levelo://app?vid=69f2ffbf-585f-43a8-8001-70d9c4e50d2f"},"vehicle_type_id":"4","last_reported":1773141828,"current_range_meters":22400,"station_id":"","pricing_plan_id":"cebpf4jnsgd1na2vs0mg"},{"bike_id":"525d593e-e5ab-4f9b-a084-f494d61aa115","system_id":"levelo_inurba_marseille","lat":43.30349,"lon":5.41868,"is_reserved":false,"is_disabled":false,"rental_uris":{"android":"levelo://app?vid=525d593e-e5ab-4f9b-a084-f494d61aa115","ios":"levelo://app?vid=525d593e-e5ab-4f9b-a084-f494d61aa115"},"vehicle_type_id":"4","last_reported":1773141828,"current_range_meters":38400,"station_id":"ce4bhop2rcd13ifvqh7g","pricing_plan_id":"cebpf4jnsgd1na2vs0mg"},{"bike_id":"7450e62c-bf50-4fbe-b108-15be83443ffd","system_id":"levelo_inurba_marseille","lat":43.32098,"lon":5.36779,"is_reserved":false,"is_disabled":false,"rental_uris":{"android":"levelo://app?vid=7450e62c-bf50-4fbe-b108-15be83443ffd","ios":"levelo://app?vid=7450e62c-bf50-4fbe-b108-15be83443ffd"},"vehicle_type_id":"4","last_reported":1773141828,"current_range_meters":36400,"station_id":"ce4bhrh2rcd13ifvqhug","pricing_plan_id":"cebpf4jnsgd1na2vs0mg"},{"bike_id":"b1c6c7ac-15c1-4242-86da-05e5185f138f","system_id":"levelo_inurba_marseille","lat":43.27206,"lon":5.39184,"is_reserved":false,"is_disabled":false,"rental_uris":{"android":"levelo://app?vid=b1c6c7ac-15c1-4242-86da-05e5185f138f","ios":"levelo://app?vid=b1c6c7ac-15c1-4242-86da-05e5185f138f"},"vehicle_type_id":"4","last_reported":1773141828,"current_range_meters":17200,"station_id":"ce4bhhp2rcd13ifvqfm0","pricing_plan_id":"cebpf4jnsgd1na2vs0mg"},{"bike_id":"19978875-9c6e-45ef-ae36-aa9c375e7262","system_id":"levelo_inurba_marseille","lat":43.26566,"lon":5.37318,"is_reserved":false,"is_disabled":false,"rental_uris":{"android":"levelo://app?vid=19978875-9c6e-45ef-ae36-aa9c375e7262","ios":"levelo://app?vid=19978875-9c6e-45ef-ae36-aa9c375e7262"},"vehicle_type_id":"4","last_reported":1773141828,"current_range_meters":19200,"station_id":"ce4bhg12rcd13ifvqf70","pricing_plan_id":"cebpf4jnsgd1na2vs0mg"},{"bike_id":"584f94a8-9738-4289-81b1-d1bf00e66289","system_id":"levelo_inurba_marseille","lat":43.2982,"lon":5.42132,"is_reserved":false,"is_disabled":false,"rental_uris":{"android":"levelo://app?vid=584f94a8-9738-4289-81b1-d1bf00e66289","ios":"levelo://app?vid=584f94a8-9738-4289-81b1-d1bf00e66289"},"vehicle_type_id":"4","last_reported":1773141828,"current_range_meters":39200,"station_id":"","pricing_plan_id":"cebpf4jnsgd1na2vs0mg"},{"bike_id":"1dddf214-da8a-4b2e-a101-7925bc045082","system_id":"levelo_inurba_marseille","lat":43.27517,"lon":5.41579,"is_reserved":false,"is_disabled":false,"rental_uris":{"android":"levelo://app?vid=1dddf214-da8a-4b2e-a101-7925bc045082","ios":"levelo://app?vid=1dddf214-da8a-4b2e-a101-7925bc045082"},"vehicle_type_id":"4","last_reported":1773141828,"current_range_meters":23200,"station_id":"st_d6im8g6chgec73a5pndg","pricing_plan_id":"cebpf4jnsgd1na2vs0mg"},{"bike_id":"d6f14395-4096-4aa0-9976-0b0d27bc36fe","system_id":"levelo_inurba_marseille","lat":43.29202,"lon":5.35786,"is_reserved":false,"is_disabled":false,"rental_uris":{"android":"levelo://app?vid=d6f14395-4096-4aa0-9976-0b0d27bc36fe","ios":"levelo://app?vid=d6f14395-4096-4aa0-9976-0b0d27bc36fe"},"vehicle_type_id":"4","last_reported":1773141828,"current_range_meters":28800,"station_id":"ce4bhb12rcd13ifvqel0","pricing_plan_id":"cebpf4jnsgd1na2vs0mg"},{"bike_id":"f3711349-3e20-461a-bd4e-fc3af2d6debc","system_id":"levelo_inurba_marseille","lat":43.28547,"lon":5.44138,"is_reserved":false,"is_disabled":false,"rental_uris":{"android":"levelo://app?vid=f3711349-3e20-461a-bd4e-fc3af2d6debc","ios":"levelo://app?vid=f3711349-3e20-461a-bd4e-fc3af2d6debc"},"vehicle_type_id":"4","last_reported":1773141828,"current_range_meters":9600,"station_id":"st_d3j3df2ikq2c7380ej80","pricing_plan_id":"cebpf4jnsgd1na2vs0mg"},{"bike_id":"5554e7a3-794d-40a2-829b-fd624b041e0e","system_id":"levelo_inurba_marseille","lat":43.2404,"lon":5.37713,"is_reserved":false,"is_disabled":false,"rental_uris":{"android":"levelo://app?vid=5554e7a3-794d-40a2-829b-fd624b041e0e","ios":"levelo://app?vid=5554e7a3-794d-40a2-829b-fd624b041e0e"},"vehicle_type_id":"4","last_reported":1773141828,"current_range_meters":39200,"station_id":"","pricing_plan_id":"cebpf4jnsgd1na2vs0mg"},{"bike_id":"622e5860-5704-4572-9f37-ca7b41d86075","system_id":"levelo_inurba_marseille","lat":43.32106,"lon":5.3675,"is_reserved":false,"is_disabled":false,"rental_uris":{"android":"levelo://app?vid=622e5860-5704-4572-9f37-ca7b41d86075","ios":"levelo://app?vid=622e5860-5704-4572-9f37-ca7b41d86075"},"vehicle_type_id":"4","last_reported":1773141828,"current_range_meters":27600,"station_id":"ce4bhrh2rcd13ifvqhug","pricing_plan_id":"cebpf4jnsgd1na2vs0mg"},{"bike_id":"df54282d-462c-4c9d-8e19-ace663d2371a","system_id":"levelo_inurba_marseille","lat":43.30207,"lon":5.39438,"is_reserved":false,"is_disabled":false,"rental_uris":{"android":"levelo://app?vid=df54282d-462c-4c9d-8e19-ace663d2371a","ios":"levelo://app?vid=df54282d-462c-4c9d-8e19-ace663d2371a"},"vehicle_type_id":"4","last_reported":1773141828,"current_range_meters":28800,"station_id":"ce4bh0p2rcd13ifvqd70","pricing_plan_id":"cebpf4jnsgd1na2vs0mg"},{"bike_id":"8244d1df-890f-4ad4-ab9b-e024e8173753","system_id":"levelo_inurba_marseille","lat":43.30792,"lon":5.37656,"is_reserved":false,"is_disabled":false,"rental_uris":{"android":"levelo://app?vid=8244d1df-890f-4ad4-ab9b-e024e8173753","ios":"levelo://app?vid=8244d1df-890f-4ad4-ab9b-e024e8173753"},"vehicle_type_id":"4","last_reported":1773141828,"current_range_meters":40000,"station_id":"ce4bgv92rcd13ifvqcq0","pricing_plan_id":"cebpf4jnsgd1na2vs0mg"},{"bike_id":"8659c399-23ba-4102-9d94-77f327a64cb0","system_id":"levelo_inurba_marseille","lat":43.29618,"lon":5.37722,"is_reserved":false,"is_disabled":false,"rental_uris":{"android":"levelo://app?vid=8659c399-23ba-4102-9d94-77f327a64cb0","ios":"levelo://app?vid=8659c399-23ba-4102-9d94-77f327a64cb0"},"vehicle_type_id":"4","last_reported":1773141828,"current_range_meters":39200,"station_id":"ce4bgi92rcd13ifvqb90","pricing_plan_id":"cebpf4jnsgd1na2vs0mg"},{"bike_id":"015d9371-23df-44c5-9b5b-b46e61885283","system_id":"levelo_inurba_marseille","lat":43.32053,"lon":5.37179,"is_reserved":false,"is_disabled":false,"rental_uris":{"android":"levelo://app?vid=015d9371-23df-44c5-9b5b-b46e61885283","ios":"levelo://app?vid=015d9371-23df-44c5-9b5b-b46e61885283"},"vehicle_type_id":"4","last_reported":1773141828,"current_range_meters":30000,"station_id":"","pricing_plan_id":"cebpf4jnsgd1na2vs0mg"},{"bike_id":"48fdecad-937e-4d35-9d6d-13e2ebad536c","system_id":"levelo_inurba_marseille","lat":43.27208,"lon":5.39188,"is_reserved":false,"is_disabled":false,"rental_uris":{"android":"levelo://app?vid=48fdecad-937e-4d35-9d6d-13e2ebad536c","ios":"levelo://app?vid=48fdecad-937e-4d35-9d6d-13e2ebad536c"},"vehicle_type_id":"4","last_reported":1773141828,"current_range_meters":39200,"station_id":"ce4bhhp2rcd13ifvqfm0","pricing_plan_id":"cebpf4jnsgd1na2vs0mg"},{"bike_id":"026b6d39-1708-4c13-bb32-68f3e9bd9d47","system_id":"levelo_inurba_marseille","lat":43.25946,"lon":5.40878,"is_reserved":false,"is_disabled":false,"rental_uris":{"android":"levelo://app?vid=026b6d39-1708-4c13-bb32-68f3e9bd9d47","ios":"levelo://app?vid=026b6d39-1708-4c13-bb32-68f3e9bd9d47"},"vehicle_type_id":"4","last_reported":1773141828,"current_range_meters":19600,"station_id":"ce4bhm92rcd13ifvqglg","pricing_plan_id":"cebpf4jnsgd1na2vs0mg"},{"bike_id":"f42d357d-43c9-4859-93ae-7f9812f807cf","system_id":"levelo_inurba_marseille","lat":43.31697,"lon":5.37776,"is_reserved":false,"is_disabled":false,"rental_uris":{"android":"levelo://app?vid=f42d357d-43c9-4859-93ae-7f9812f807cf","ios":"levelo://app?vid=f42d357d-43c9-4859-93ae-7f9812f807cf"},"vehicle_type_id":"4","last_reported":1773141828,"current_range_meters":38000,"station_id":"ce4bgth2rcd13ifvqch0","pricing_plan_id":"cebpf4jnsgd1na2vs0mg"},{"bike_id":"eee948e3-4c9f-4db5-ac11-b6948fa1e03c","system_id":"levelo_inurba_marseille","lat":43.23193,"lon":5.35552,"is_reserved":false,"is_disabled":false,"rental_uris":{"android":"levelo://app?vid=eee948e3-4c9f-4db5-ac11-b6948fa1e03c","ios":"levelo://app?vid=eee948e3-4c9f-4db5-ac11-b6948fa1e03c"},"vehicle_type_id":"4","last_reported":1773141828,"current_range_meters":38400,"station_id":"ce4bhu92rcd13ifvqi70","pricing_plan_id":"cebpf4jnsgd1na2vs0mg"},{"bike_id":"531e89df-7d89-4282-92a7-19804985cdf6","system_id":"levelo_inurba_marseille","lat":43.24798,"lon":5.37455,"is_reserved":false,"is_disabled":false,"rental_uris":{"android":"levelo://app?vid=531e89df-7d89-4282-92a7-19804985cdf6","ios":"levelo://app?vid=531e89df-7d89-4282-92a7-19804985cdf6"},"vehicle_type_id":"4","last_reported":1773141828,"current_range_meters":38800,"station_id":"ce4bhgh2rcd13ifvqfb0","pricing_plan_id":"cebpf4jnsgd1na2vs0mg"},{"bike_id":"9b48402e-3ef0-4e83-aa48-db41cf0891a9","system_id":"levelo_inurba_marseille","lat":43.27064,"lon":5.38307,"is_reserved":false,"is_disabled":false,"rental_uris":{"android":"levelo://app?vid=9b48402e-3ef0-4e83-aa48-db41cf0891a9","ios":"levelo://app?vid=9b48402e-3ef0-4e83-aa48-db41cf0891a9"},"vehicle_type_id":"4","last_reported":1773141828,"current_range_meters":23200,"station_id":"st_d3n2fo6cfp8s73cte1j0","pricing_plan_id":"cebpf4jnsgd1na2vs0mg"},{"bike_id":"d7daf13e-0d11-4259-adbb-61659f30042b","system_id":"levelo_inurba_marseille","lat":43.29267,"lon":5.36844,"is_reserved":false,"is_disabled":false,"rental_uris":{"android":"levelo://app?vid=d7daf13e-0d11-4259-adbb-61659f30042b","ios":"levelo://app?vid=d7daf13e-0d11-4259-adbb-61659f30042b"},"vehicle_type_id":"4","last_reported":1773141828,"current_range_meters":27600,"station_id":"ce4bhbp2rcd13ifvqesg","pricing_plan_id":"cebpf4jnsgd1na2vs0mg"},{"bike_id":"4b5116e0-5a5c-4dc0-9155-ccbc69c13cef","system_id":"levelo_inurba_marseille","lat":43.27072,"lon":5.42269,"is_reserved":false,"is_disabled":false,"rental_uris":{"android":"levelo://app?vid=4b5116e0-5a5c-4dc0-9155-ccbc69c13cef","ios":"levelo://app?vid=4b5116e0-5a5c-4dc0-9155-ccbc69c13cef"},"vehicle_type_id":"4","last_reported":1773141828,"current_range_meters":10800,"station_id":"ce4bhk92rcd13ifvqgb0","pricing_plan_id":"cebpf4jnsgd1na2vs0mg"},{"bike_id":"6e3c74d1-fd4f-41b5-a40e-9eb79af731a1","system_id":"levelo_inurba_marseille","lat":43.32097,"lon":5.36773,"is_reserved":false,"is_disabled":false,"rental_uris":{"android":"levelo://app?vid=6e3c74d1-fd4f-41b5-a40e-9eb79af731a1","ios":"levelo://app?vid=6e3c74d1-fd4f-41b5-a40e-9eb79af731a1"},"vehicle_type_id":"4","last_reported":1773141828,"current_range_meters":6800,"station_id":"ce4bhrh2rcd13ifvqhug","pricing_plan_id":"cebpf4jnsgd1na2vs0mg"},{"bike_id":"83d7f33c-d1db-4292-9262-93ff1da802eb","system_id":"levelo_inurba_marseille","lat":43.32495,"lon":5.41476,"is_reserved":false,"is_disabled":false,"rental_uris":{"android":"levelo://app?vid=83d7f33c-d1db-4292-9262-93ff1da802eb","ios":"levelo://app?vid=83d7f33c-d1db-4292-9262-93ff1da802eb"},"vehicle_type_id":"4","last_reported":1773141828,"current_range_meters":36800,"station_id":"ce4bhq12rcd13ifvqhhg","pricing_plan_id":"cebpf4jnsgd1na2vs0mg"},{"bike_id":"93610280-3e40-40c2-8a0c-0a8ce5075865","system_id":"levelo_inurba_marseille","lat":43.29727,"lon":5.41059,"is_reserved":false,"is_disabled":false,"rental_uris":{"android":"levelo://app?vid=93610280-3e40-40c2-8a0c-0a8ce5075865","ios":"levelo://app?vid=93610280-3e40-40c2-8a0c-0a8ce5075865"},"vehicle_type_id":"4","last_reported":1773141828,"current_range_meters":33600,"station_id":"","pricing_plan_id":"cebpf4jnsgd1na2vs0mg"},{"bike_id":"1e1178e2-4085-4be9-bc5b-dfc82fb6d96d","system_id":"levelo_inurba_marseille","lat":43.23967,"lon":5.36629,"is_reserved":false,"is_disabled":false,"rental_uris":{"android":"levelo://app?vid=1e1178e2-4085-4be9-bc5b-dfc82fb6d96d","ios":"levelo://app?vid=1e1178e2-4085-4be9-bc5b-dfc82fb6d96d"},"vehicle_type_id":"4","last_reported":1773141828,"current_range_meters":38400,"station_id":"ce4bhi12rcd13ifvqfp0","pricing_plan_id":"cebpf4jnsgd1na2vs0mg"},{"bike_id":"8bc805ca-bcac-46ab-b9b9-1126461e799c","system_id":"levelo_inurba_marseille","lat":43.31102,"lon":5.42433,"is_reserved":false,"is_disabled":false,"rental_uris":{"android":"levelo://app?vid=8bc805ca-bcac-46ab-b9b9-1126461e799c","ios":"levelo://app?vid=8bc805ca-bcac-46ab-b9b9-1126461e799c"},"vehicle_type_id":"4","last_reported":1773141828,"current_range_meters":34000,"station_id":"ce4bhp92rcd13ifvqhag","pricing_plan_id":"cebpf4jnsgd1na2vs0mg"},{"bike_id":"68e26663-7c55-4485-aed0-64a15b161498","system_id":"levelo_inurba_marseille","lat":43.30782,"lon":5.37636,"is_reserved":false,"is_disabled":true,"rental_uris":{"android":"levelo://app?vid=68e26663-7c55-4485-aed0-64a15b161498","ios":"levelo://app?vid=68e26663-7c55-4485-aed0-64a15b161498"},"vehicle_type_id":"4","last_reported":1773141828,"current_range_meters":16400,"station_id":"ce4bgv92rcd13ifvqcq0","pricing_plan_id":"cebpf4jnsgd1na2vs0mg"},{"bike_id":"b5f247d8-3934-4f5f-88d5-1ed966db082c","system_id":"levelo_inurba_marseille","lat":43.30563,"lon":5.36503,"is_reserved":false,"is_disabled":false,"rental_uris":{"android":"levelo://app?vid=b5f247d8-3934-4f5f-88d5-1ed966db082c","ios":"levelo://app?vid=b5f247d8-3934-4f5f-88d5-1ed966db082c"},"vehicle_type_id":"4","last_reported":1773141828,"current_range_meters":35600,"station_id":"ce4bgs12rcd13ifvqcag","pricing_plan_id":"cebpf4jnsgd1na2vs0mg"},{"bike_id":"905cd94e-2347-4c21-891c-949be2f37f85","system_id":"levelo_inurba_marseille","lat":43.29811,"lon":5.4188,"is_reserved":false,"is_disabled":false,"rental_uris":{"android":"levelo://app?vid=905cd94e-2347-4c21-891c-949be2f37f85","ios":"levelo://app?vid=905cd94e-2347-4c21-891c-949be2f37f85"},"vehicle_type_id":"4","last_reported":1773141828,"current_range_meters":33200,"station_id":"","pricing_plan_id":"cebpf4jnsgd1na2vs0mg"},{"bike_id":"e0dc69a6-751b-446d-8ea4-e240757d48e0","system_id":"levelo_inurba_marseille","lat":43.296,"lon":5.375,"is_reserved":false,"is_disabled":false,"rental_uris":{"android":"levelo://app?vid=e0dc69a6-751b-446d-8ea4-e240757d48e0","ios":"levelo://app?vid=e0dc69a6-751b-446d-8ea4-e240757d48e0"},"vehicle_type_id":"4","last_reported":1773141828,"current_range_meters":12000,"station_id":"ce4bgh92rcd13ifvqb50","pricing_plan_id":"cebpf4jnsgd1na2vs0mg"},{"bike_id":"9b8f2026-86f3-4865-a65f-459a294463ce","system_id":"levelo_inurba_marseille","lat":43.30118,"lon":5.37436,"is_reserved":false,"is_disabled":false,"rental_uris":{"android":"levelo://app?vid=9b8f2026-86f3-4865-a65f-459a294463ce","ios":"levelo://app?vid=9b8f2026-86f3-4865-a65f-459a294463ce"},"vehicle_type_id":"4","last_reported":1773141828,"current_range_meters":39200,"station_id":"ce4bgs92rcd13ifvqcc0","pricing_plan_id":"cebpf4jnsgd1na2vs0mg"},{"bike_id":"73e601f4-063b-472f-a8bc-c257580b3a52","system_id":"levelo_inurba_marseille","lat":43.2955,"lon":5.37517,"is_reserved":false,"is_disabled":false,"rental_uris":{"android":"levelo://app?vid=73e601f4-063b-472f-a8bc-c257580b3a52","ios":"levelo://app?vid=73e601f4-063b-472f-a8bc-c257580b3a52"},"vehicle_type_id":"4","last_reported":1773141828,"current_range_meters":38000,"station_id":"ce4bgkp2rcd13ifvqbmg","pricing_plan_id":"cebpf4jnsgd1na2vs0mg"},{"bike_id":"94ca7e3b-72f8-4e3c-9410-a4cf84138933","system_id":"levelo_inurba_marseille","lat":43.24641,"lon":5.38835,"is_reserved":false,"is_disabled":false,"rental_uris":{"android":"levelo://app?vid=94ca7e3b-72f8-4e3c-9410-a4cf84138933","ios":"levelo://app?vid=94ca7e3b-72f8-4e3c-9410-a4cf84138933"},"vehicle_type_id":"4","last_reported":1773141828,"current_range_meters":16000,"station_id":"","pricing_plan_id":"cebpf4jnsgd1na2vs0mg"},{"bike_id":"e3415c52-deab-4697-a869-71a98a8cc6b0","system_id":"levelo_inurba_marseille","lat":43.30911,"lon":5.36851,"is_reserved":false,"is_disabled":false,"rental_uris":{"android":"levelo://app?vid=e3415c52-deab-4697-a869-71a98a8cc6b0","ios":"levelo://app?vid=e3415c52-deab-4697-a869-71a98a8cc6b0"},"vehicle_type_id":"4","last_reported":1773141828,"current_range_meters":36000,"station_id":"ce4bgn92rcd13ifvqbvg","pricing_plan_id":"cebpf4jnsgd1na2vs0mg"},{"bike_id":"e891634a-1748-4ef6-b911-cbe5ccb82ed1","system_id":"levelo_inurba_marseille","lat":43.25082,"lon":5.3952,"is_reserved":false,"is_disabled":false,"rental_uris":{"android":"levelo://app?vid=e891634a-1748-4ef6-b911-cbe5ccb82ed1","ios":"levelo://app?vid=e891634a-1748-4ef6-b911-cbe5ccb82ed1"},"vehicle_type_id":"4","last_reported":1773141828,"current_range_meters":4000,"station_id":"ce4bhm12rcd13ifvqgkg","pricing_plan_id":"cebpf4jnsgd1na2vs0mg"},{"bike_id":"6365aca6-4c9b-4238-8e57-42eb10f1e752","system_id":"levelo_inurba_marseille","lat":43.25108,"lon":5.40324,"is_reserved":false,"is_disabled":false,"rental_uris":{"android":"levelo://app?vid=6365aca6-4c9b-4238-8e57-42eb10f1e752","ios":"levelo://app?vid=6365aca6-4c9b-4238-8e57-42eb10f1e752"},"vehicle_type_id":"4","last_reported":1773141828,"current_range_meters":8000,"station_id":"ce4bhlh2rcd13ifvqgig","pricing_plan_id":"cebpf4jnsgd1na2vs0mg"},{"bike_id":"d073c3d9-dc51-4730-8456-aed64a514698","system_id":"levelo_inurba_marseille","lat":43.24194,"lon":5.39679,"is_reserved":false,"is_disabled":false,"rental_uris":{"android":"levelo://app?vid=d073c3d9-dc51-4730-8456-aed64a514698","ios":"levelo://app?vid=d073c3d9-dc51-4730-8456-aed64a514698"},"vehicle_type_id":"4","last_reported":1773141828,"current_range_meters":30000,"station_id":"ce4bhn12rcd13ifvqgpg","pricing_plan_id":"cebpf4jnsgd1na2vs0mg"},{"bike_id":"abe5719a-ab48-478f-ba53-ec4622594442","system_id":"levelo_inurba_marseille","lat":43.29299,"lon":5.37459,"is_reserved":false,"is_disabled":false,"rental_uris":{"android":"levelo://app?vid=abe5719a-ab48-478f-ba53-ec4622594442","ios":"levelo://app?vid=abe5719a-ab48-478f-ba53-ec4622594442"},"vehicle_type_id":"4","last_reported":1773141828,"current_range_meters":30000,"station_id":"ce4bgi12rcd13ifvqb70","pricing_plan_id":"cebpf4jnsgd1na2vs0mg"},{"bike_id":"d9084fab-d9aa-4edd-8989-c2edf4959f5d","system_id":"levelo_inurba_marseille","lat":43.26683,"lon":5.38262,"is_reserved":false,"is_disabled":false,"rental_uris":{"android":"levelo://app?vid=d9084fab-d9aa-4edd-8989-c2edf4959f5d","ios":"levelo://app?vid=d9084fab-d9aa-4edd-8989-c2edf4959f5d"},"vehicle_type_id":"4","last_reported":1773141828,"current_range_meters":40000,"station_id":"ce4bhg92rcd13ifvqf90","pricing_plan_id":"cebpf4jnsgd1na2vs0mg"},{"bike_id":"d600fe0a-56d2-4a7b-8c97-cc5010c8cd24","system_id":"levelo_inurba_marseille","lat":43.292701,"lon":5.37632,"is_reserved":false,"is_disabled":true,"rental_uris":{"android":"levelo://app?vid=d600fe0a-56d2-4a7b-8c97-cc5010c8cd24","ios":"levelo://app?vid=d600fe0a-56d2-4a7b-8c97-cc5010c8cd24"},"vehicle_type_id":"4","last_reported":1773141828,"current_range_meters":39200,"station_id":"ce4bgi12rcd13ifvqb80","pricing_plan_id":"cebpf4jnsgd1na2vs0mg"},{"bike_id":"6896d8eb-6c9e-4011-bd7c-c8043863197c","system_id":"levelo_inurba_marseille","lat":43.2482,"lon":5.37494,"is_reserved":false,"is_disabled":false,"rental_uris":{"android":"levelo://app?vid=6896d8eb-6c9e-4011-bd7c-c8043863197c","ios":"levelo://app?vid=6896d8eb-6c9e-4011-bd7c-c8043863197c"},"vehicle_type_id":"4","last_reported":1773141828,"current_range_meters":24800,"station_id":"","pricing_plan_id":"cebpf4jnsgd1na2vs0mg"},{"bike_id":"1cc9d818-ddab-430c-b105-170c5b484573","system_id":"levelo_inurba_marseille","lat":43.29732,"lon":5.37695,"is_reserved":false,"is_disabled":true,"rental_uris":{"android":"levelo://app?vid=1cc9d818-ddab-430c-b105-170c5b484573","ios":"levelo://app?vid=1cc9d818-ddab-430c-b105-170c5b484573"},"vehicle_type_id":"4","last_reported":1773141828,"current_range_meters":26800,"station_id":"ce4bgkh2rcd13ifvqbl0","pricing_plan_id":"cebpf4jnsgd1na2vs0mg"},{"bike_id":"8e6161ae-e83b-4303-a21e-0b552721fb89","system_id":"levelo_inurba_marseille","lat":43.28941,"lon":5.39624,"is_reserved":false,"is_disabled":false,"rental_uris":{"android":"levelo://app?vid=8e6161ae-e83b-4303-a21e-0b552721fb89","ios":"levelo://app?vid=8e6161ae-e83b-4303-a21e-0b552721fb89"},"vehicle_type_id":"4","last_reported":1773141828,"current_range_meters":38400,"station_id":"ce4bh3h2rcd13ifvqdn0","pricing_plan_id":"cebpf4jnsgd1na2vs0mg"},{"bike_id":"edff2cc4-a071-4a15-bf25-7895bd87b49e","system_id":"levelo_inurba_marseille","lat":43.22563,"lon":5.41634,"is_reserved":false,"is_disabled":false,"rental_uris":{"android":"levelo://app?vid=edff2cc4-a071-4a15-bf25-7895bd87b49e","ios":"levelo://app?vid=edff2cc4-a071-4a15-bf25-7895bd87b49e"},"vehicle_type_id":"4","last_reported":1773141828,"current_range_meters":8800,"station_id":"st_d2o4gvlbi1j2169b742g","pricing_plan_id":"cebpf4jnsgd1na2vs0mg"},{"bike_id":"e4897773-fef9-446d-a205-6ea4308f3d60","system_id":"levelo_inurba_marseille","lat":43.22558,"lon":5.41621,"is_reserved":false,"is_disabled":false,"rental_uris":{"android":"levelo://app?vid=e4897773-fef9-446d-a205-6ea4308f3d60","ios":"levelo://app?vid=e4897773-fef9-446d-a205-6ea4308f3d60"},"vehicle_type_id":"4","last_reported":1773141828,"current_range_meters":6400,"station_id":"st_d2o4gvlbi1j2169b742g","pricing_plan_id":"cebpf4jnsgd1na2vs0mg"},{"bike_id":"33eb8fb3-603e-4c84-a933-cc95f133c3af","system_id":"levelo_inurba_marseille","lat":43.29575,"lon":5.3759,"is_reserved":false,"is_disabled":false,"rental_uris":{"android":"levelo://app?vid=33eb8fb3-603e-4c84-a933-cc95f133c3af","ios":"levelo://app?vid=33eb8fb3-603e-4c84-a933-cc95f133c3af"},"vehicle_type_id":"4","last_reported":1773141828,"current_range_meters":24800,"station_id":"","pricing_plan_id":"cebpf4jnsgd1na2vs0mg"},{"bike_id":"c08fec78-7aa5-495e-814f-25b828c89a5c","system_id":"levelo_inurba_marseille","lat":43.24544,"lon":5.39526,"is_reserved":false,"is_disabled":false,"rental_uris":{"android":"levelo://app?vid=c08fec78-7aa5-495e-814f-25b828c89a5c","ios":"levelo://app?vid=c08fec78-7aa5-495e-814f-25b828c89a5c"},"vehicle_type_id":"4","last_reported":1773141828,"current_range_meters":24800,"station_id":"ce4bhlp2rcd13ifvqgjg","pricing_plan_id":"cebpf4jnsgd1na2vs0mg"},{"bike_id":"ef43e318-c00c-44b5-9fb0-7afc200a5f51","system_id":"levelo_inurba_marseille","lat":43.2987,"lon":5.41449,"is_reserved":false,"is_disabled":false,"rental_uris":{"android":"levelo://app?vid=ef43e318-c00c-44b5-9fb0-7afc200a5f51","ios":"levelo://app?vid=ef43e318-c00c-44b5-9fb0-7afc200a5f51"},"vehicle_type_id":"4","last_reported":1773141828,"current_range_meters":40000,"station_id":"","pricing_plan_id":"cebpf4jnsgd1na2vs0mg"},{"bike_id":"ebb11866-6f7e-4479-9489-10a49f5ef9db","system_id":"levelo_inurba_marseille","lat":43.29634,"lon":5.3771,"is_reserved":false,"is_disabled":false,"rental_uris":{"android":"levelo://app?vid=ebb11866-6f7e-4479-9489-10a49f5ef9db","ios":"levelo://app?vid=ebb11866-6f7e-4479-9489-10a49f5ef9db"},"vehicle_type_id":"4","last_reported":1773141828,"current_range_meters":38000,"station_id":"ce4bgi92rcd13ifvqb90","pricing_plan_id":"cebpf4jnsgd1na2vs0mg"},{"bike_id":"616f491c-e223-4356-9301-075ecb9eb28b","system_id":"levelo_inurba_marseille","lat":43.26204,"lon":5.40409,"is_reserved":false,"is_disabled":false,"rental_uris":{"android":"levelo://app?vid=616f491c-e223-4356-9301-075ecb9eb28b","ios":"levelo://app?vid=616f491c-e223-4356-9301-075ecb9eb28b"},"vehicle_type_id":"4","last_reported":1773141828,"current_range_meters":32000,"station_id":"ce4bhmh2rcd13ifvqgmg","pricing_plan_id":"cebpf4jnsgd1na2vs0mg"},{"bike_id":"e594ab4f-99d7-486f-a0b3-3cdbb6a3f196","system_id":"levelo_inurba_marseille","lat":43.28478,"lon":5.48401,"is_reserved":false,"is_disabled":false,"rental_uris":{"android":"levelo://app?vid=e594ab4f-99d7-486f-a0b3-3cdbb6a3f196","ios":"levelo://app?vid=e594ab4f-99d7-486f-a0b3-3cdbb6a3f196"},"vehicle_type_id":"4","last_reported":1773141828,"current_range_meters":33600,"station_id":"","pricing_plan_id":"cebpf4jnsgd1na2vs0mg"},{"bike_id":"cedac31f-b079-4e16-8fab-d7e72b3dd7b5","system_id":"levelo_inurba_marseille","lat":43.23145,"lon":5.43728,"is_reserved":false,"is_disabled":false,"rental_uris":{"android":"levelo://app?vid=cedac31f-b079-4e16-8fab-d7e72b3dd7b5","ios":"levelo://app?vid=cedac31f-b079-4e16-8fab-d7e72b3dd7b5"},"vehicle_type_id":"4","last_reported":1773141828,"current_range_meters":15200,"station_id":"ce4bhmp2rcd13ifvqgog","pricing_plan_id":"cebpf4jnsgd1na2vs0mg"},{"bike_id":"37686e6b-47d7-4425-9d76-29b3793ef589","system_id":"levelo_inurba_marseille","lat":43.3119,"lon":5.36797,"is_reserved":false,"is_disabled":false,"rental_uris":{"android":"levelo://app?vid=37686e6b-47d7-4425-9d76-29b3793ef589","ios":"levelo://app?vid=37686e6b-47d7-4425-9d76-29b3793ef589"},"vehicle_type_id":"4","last_reported":1773141828,"current_range_meters":37600,"station_id":"","pricing_plan_id":"cebpf4jnsgd1na2vs0mg"},{"bike_id":"11f1fdce-9987-446d-9ecb-d09d969f4ba8","system_id":"levelo_inurba_marseille","lat":43.2848,"lon":5.48404,"is_reserved":false,"is_disabled":false,"rental_uris":{"android":"levelo://app?vid=11f1fdce-9987-446d-9ecb-d09d969f4ba8","ios":"levelo://app?vid=11f1fdce-9987-446d-9ecb-d09d969f4ba8"},"vehicle_type_id":"4","last_reported":1773141828,"current_range_meters":37600,"station_id":"","pricing_plan_id":"cebpf4jnsgd1na2vs0mg"},{"bike_id":"6463a814-ab9c-408e-bb9a-251ede6124c1","system_id":"levelo_inurba_marseille","lat":43.29096,"lon":5.38143,"is_reserved":false,"is_disabled":false,"rental_uris":{"android":"levelo://app?vid=6463a814-ab9c-408e-bb9a-251ede6124c1","ios":"levelo://app?vid=6463a814-ab9c-408e-bb9a-251ede6124c1"},"vehicle_type_id":"4","last_reported":1773141828,"current_range_meters":17200,"station_id":"ce4bh512rcd13ifvqe2g","pricing_plan_id":"cebpf4jnsgd1na2vs0mg"},{"bike_id":"08c4662f-b8a6-4676-a2aa-27498ff34122","system_id":"levelo_inurba_marseille","lat":43.32109,"lon":5.36769,"is_reserved":false,"is_disabled":false,"rental_uris":{"android":"levelo://app?vid=08c4662f-b8a6-4676-a2aa-27498ff34122","ios":"levelo://app?vid=08c4662f-b8a6-4676-a2aa-27498ff34122"},"vehicle_type_id":"4","last_reported":1773141828,"current_range_meters":26000,"station_id":"ce4bhrh2rcd13ifvqhug","pricing_plan_id":"cebpf4jnsgd1na2vs0mg"},{"bike_id":"9a0031d7-25bf-4e8c-94ff-4784503d9cac","system_id":"levelo_inurba_marseille","lat":43.24369,"lon":5.44108,"is_reserved":false,"is_disabled":false,"rental_uris":{"android":"levelo://app?vid=9a0031d7-25bf-4e8c-94ff-4784503d9cac","ios":"levelo://app?vid=9a0031d7-25bf-4e8c-94ff-4784503d9cac"},"vehicle_type_id":"4","last_reported":1773141828,"current_range_meters":12400,"station_id":"","pricing_plan_id":"cebpf4jnsgd1na2vs0mg"},{"bike_id":"5e654f36-b9c7-448e-824d-57a1ae3d329d","system_id":"levelo_inurba_marseille","lat":43.27488,"lon":5.42425,"is_reserved":false,"is_disabled":false,"rental_uris":{"android":"levelo://app?vid=5e654f36-b9c7-448e-824d-57a1ae3d329d","ios":"levelo://app?vid=5e654f36-b9c7-448e-824d-57a1ae3d329d"},"vehicle_type_id":"4","last_reported":1773141828,"current_range_meters":25200,"station_id":"ce4bhn92rcd13ifvqgrg","pricing_plan_id":"cebpf4jnsgd1na2vs0mg"},{"bike_id":"71bd1d5d-a7cd-4a5e-9bbe-315af3ec60a8","system_id":"levelo_inurba_marseille","lat":43.28473,"lon":5.38424,"is_reserved":false,"is_disabled":true,"rental_uris":{"android":"levelo://app?vid=71bd1d5d-a7cd-4a5e-9bbe-315af3ec60a8","ios":"levelo://app?vid=71bd1d5d-a7cd-4a5e-9bbe-315af3ec60a8"},"vehicle_type_id":"4","last_reported":1773141828,"current_range_meters":14800,"station_id":"ce4bh512rcd13ifvqe3g","pricing_plan_id":"cebpf4jnsgd1na2vs0mg"},{"bike_id":"a089d132-4ca7-4e22-b487-b543c4acdb4e","system_id":"levelo_inurba_marseille","lat":43.25588,"lon":5.38227,"is_reserved":false,"is_disabled":false,"rental_uris":{"android":"levelo://app?vid=a089d132-4ca7-4e22-b487-b543c4acdb4e","ios":"levelo://app?vid=a089d132-4ca7-4e22-b487-b543c4acdb4e"},"vehicle_type_id":"4","last_reported":1773141828,"current_range_meters":39200,"station_id":"ce4bhih2rcd13ifvqfs0","pricing_plan_id":"cebpf4jnsgd1na2vs0mg"},{"bike_id":"cad85399-ce9b-4502-a9d5-67d50bad52cc","system_id":"levelo_inurba_marseille","lat":43.22936,"lon":5.35379,"is_reserved":false,"is_disabled":false,"rental_uris":{"android":"levelo://app?vid=cad85399-ce9b-4502-a9d5-67d50bad52cc","ios":"levelo://app?vid=cad85399-ce9b-4502-a9d5-67d50bad52cc"},"vehicle_type_id":"4","last_reported":1773141828,"current_range_meters":19600,"station_id":"cpo3532slgdg3j2ikp40","pricing_plan_id":"cebpf4jnsgd1na2vs0mg"},{"bike_id":"aee5635f-19c8-46c3-95d5-b087e8decb9c","system_id":"levelo_inurba_marseille","lat":43.25506,"lon":5.37634,"is_reserved":false,"is_disabled":false,"rental_uris":{"android":"levelo://app?vid=aee5635f-19c8-46c3-95d5-b087e8decb9c","ios":"levelo://app?vid=aee5635f-19c8-46c3-95d5-b087e8decb9c"},"vehicle_type_id":"4","last_reported":1773141828,"current_range_meters":17200,"station_id":"ce4bhh12rcd13ifvqff0","pricing_plan_id":"cebpf4jnsgd1na2vs0mg"},{"bike_id":"ea21537d-918a-492c-a00d-aa6c3e5c9df0","system_id":"levelo_inurba_marseille","lat":43.22565,"lon":5.41627,"is_reserved":false,"is_disabled":false,"rental_uris":{"android":"levelo://app?vid=ea21537d-918a-492c-a00d-aa6c3e5c9df0","ios":"levelo://app?vid=ea21537d-918a-492c-a00d-aa6c3e5c9df0"},"vehicle_type_id":"4","last_reported":1773141828,"current_range_meters":23200,"station_id":"st_d2o4gvlbi1j2169b742g","pricing_plan_id":"cebpf4jnsgd1na2vs0mg"},{"bike_id":"f3db9b7c-2b10-49c3-ba53-fc7aefcbeb46","system_id":"levelo_inurba_marseille","lat":43.2828,"lon":5.39714,"is_reserved":false,"is_disabled":false,"rental_uris":{"android":"levelo://app?vid=f3db9b7c-2b10-49c3-ba53-fc7aefcbeb46","ios":"levelo://app?vid=f3db9b7c-2b10-49c3-ba53-fc7aefcbeb46"},"vehicle_type_id":"4","last_reported":1773141828,"current_range_meters":33600,"station_id":"","pricing_plan_id":"cebpf4jnsgd1na2vs0mg"},{"bike_id":"04d68502-e0df-44ef-98ff-8751e9131415","system_id":"levelo_inurba_marseille","lat":43.24163,"lon":5.36381,"is_reserved":false,"is_disabled":false,"rental_uris":{"android":"levelo://app?vid=04d68502-e0df-44ef-98ff-8751e9131415","ios":"levelo://app?vid=04d68502-e0df-44ef-98ff-8751e9131415"},"vehicle_type_id":"4","last_reported":1773141828,"current_range_meters":20000,"station_id":"cpo36qri1sfpv3e86is0","pricing_plan_id":"cebpf4jnsgd1na2vs0mg"},{"bike_id":"6fe0ccf1-21d9-470c-a12b-f66a53c57754","system_id":"levelo_inurba_marseille","lat":43.30159,"lon":5.38098,"is_reserved":false,"is_disabled":false,"rental_uris":{"android":"levelo://app?vid=6fe0ccf1-21d9-470c-a12b-f66a53c57754","ios":"levelo://app?vid=6fe0ccf1-21d9-470c-a12b-f66a53c57754"},"vehicle_type_id":"4","last_reported":1773141828,"current_range_meters":34000,"station_id":"ce4bgjp2rcd13ifvqbh0","pricing_plan_id":"cebpf4jnsgd1na2vs0mg"},{"bike_id":"4b1b523d-d7f1-44d9-8b89-a48bfed52274","system_id":"levelo_inurba_marseille","lat":43.29679,"lon":5.37114,"is_reserved":false,"is_disabled":false,"rental_uris":{"android":"levelo://app?vid=4b1b523d-d7f1-44d9-8b89-a48bfed52274","ios":"levelo://app?vid=4b1b523d-d7f1-44d9-8b89-a48bfed52274"},"vehicle_type_id":"4","last_reported":1773141828,"current_range_meters":39200,"station_id":"","pricing_plan_id":"cebpf4jnsgd1na2vs0mg"},{"bike_id":"75fdfb90-ee0d-47d3-af9a-0975dd074a09","system_id":"levelo_inurba_marseille","lat":43.23146,"lon":5.43681,"is_reserved":false,"is_disabled":false,"rental_uris":{"android":"levelo://app?vid=75fdfb90-ee0d-47d3-af9a-0975dd074a09","ios":"levelo://app?vid=75fdfb90-ee0d-47d3-af9a-0975dd074a09"},"vehicle_type_id":"4","last_reported":1773141828,"current_range_meters":25600,"station_id":"ce4bhmp2rcd13ifvqgog","pricing_plan_id":"cebpf4jnsgd1na2vs0mg"},{"bike_id":"a7986b89-cfcc-41ec-8e0e-a75228e40442","system_id":"levelo_inurba_marseille","lat":43.310537,"lon":5.371633,"is_reserved":false,"is_disabled":false,"rental_uris":{"android":"levelo://app?vid=a7986b89-cfcc-41ec-8e0e-a75228e40442","ios":"levelo://app?vid=a7986b89-cfcc-41ec-8e0e-a75228e40442"},"vehicle_type_id":"4","last_reported":1773141828,"current_range_meters":33600,"station_id":"st_d4kl2rp97mjs73e7tdfg","pricing_plan_id":"cebpf4jnsgd1na2vs0mg"},{"bike_id":"072f5be3-e2d3-4243-a280-aa67dfb573ae","system_id":"levelo_inurba_marseille","lat":43.31179,"lon":5.37727,"is_reserved":false,"is_disabled":false,"rental_uris":{"android":"levelo://app?vid=072f5be3-e2d3-4243-a280-aa67dfb573ae","ios":"levelo://app?vid=072f5be3-e2d3-4243-a280-aa67dfb573ae"},"vehicle_type_id":"4","last_reported":1773141828,"current_range_meters":33600,"station_id":"","pricing_plan_id":"cebpf4jnsgd1na2vs0mg"},{"bike_id":"1dbef04d-eee4-4229-adae-d0e5e0acd1ba","system_id":"levelo_inurba_marseille","lat":43.28433,"lon":5.34993,"is_reserved":false,"is_disabled":false,"rental_uris":{"android":"levelo://app?vid=1dbef04d-eee4-4229-adae-d0e5e0acd1ba","ios":"levelo://app?vid=1dbef04d-eee4-4229-adae-d0e5e0acd1ba"},"vehicle_type_id":"4","last_reported":1773141828,"current_range_meters":31200,"station_id":"ce4bhbh2rcd13ifvqepg","pricing_plan_id":"cebpf4jnsgd1na2vs0mg"},{"bike_id":"df427871-eef3-4ff7-bb83-ffbb52f2406f","system_id":"levelo_inurba_marseille","lat":43.24997,"lon":5.38962,"is_reserved":false,"is_disabled":false,"rental_uris":{"android":"levelo://app?vid=df427871-eef3-4ff7-bb83-ffbb52f2406f","ios":"levelo://app?vid=df427871-eef3-4ff7-bb83-ffbb52f2406f"},"vehicle_type_id":"4","last_reported":1773141828,"current_range_meters":33600,"station_id":"ce4bhgp2rcd13ifvqfd0","pricing_plan_id":"cebpf4jnsgd1na2vs0mg"},{"bike_id":"03deec7a-c34a-434b-8d8d-e19093f76613","system_id":"levelo_inurba_marseille","lat":43.26941,"lon":5.38915,"is_reserved":false,"is_disabled":false,"rental_uris":{"android":"levelo://app?vid=03deec7a-c34a-434b-8d8d-e19093f76613","ios":"levelo://app?vid=03deec7a-c34a-434b-8d8d-e19093f76613"},"vehicle_type_id":"4","last_reported":1773141828,"current_range_meters":36000,"station_id":"ce4bhhh2rcd13ifvqfl0","pricing_plan_id":"cebpf4jnsgd1na2vs0mg"},{"bike_id":"1cefe13d-c309-4dd1-a72f-cfc0e1c24a1b","system_id":"levelo_inurba_marseille","lat":43.28932,"lon":5.38399,"is_reserved":false,"is_disabled":false,"rental_uris":{"android":"levelo://app?vid=1cefe13d-c309-4dd1-a72f-cfc0e1c24a1b","ios":"levelo://app?vid=1cefe13d-c309-4dd1-a72f-cfc0e1c24a1b"},"vehicle_type_id":"4","last_reported":1773141828,"current_range_meters":21600,"station_id":"ce4bh612rcd13ifvqe6g","pricing_plan_id":"cebpf4jnsgd1na2vs0mg"},{"bike_id":"7e3bb1c1-f504-4b29-b169-7e546daec31f","system_id":"levelo_inurba_marseille","lat":43.2481,"lon":5.37463,"is_reserved":false,"is_disabled":false,"rental_uris":{"android":"levelo://app?vid=7e3bb1c1-f504-4b29-b169-7e546daec31f","ios":"levelo://app?vid=7e3bb1c1-f504-4b29-b169-7e546daec31f"},"vehicle_type_id":"4","last_reported":1773141828,"current_range_meters":36800,"station_id":"ce4bhgh2rcd13ifvqfb0","pricing_plan_id":"cebpf4jnsgd1na2vs0mg"},{"bike_id":"93c6d395-5f6c-41bb-b249-900124ecb70c","system_id":"levelo_inurba_marseille","lat":43.33553,"lon":5.37458,"is_reserved":false,"is_disabled":false,"rental_uris":{"android":"levelo://app?vid=93c6d395-5f6c-41bb-b249-900124ecb70c","ios":"levelo://app?vid=93c6d395-5f6c-41bb-b249-900124ecb70c"},"vehicle_type_id":"4","last_reported":1773141828,"current_range_meters":30400,"station_id":"st_d46tts09ee8s73dlu43g","pricing_plan_id":"cebpf4jnsgd1na2vs0mg"},{"bike_id":"79ce6a44-61dd-477c-aa0b-1a849bd10fcb","system_id":"levelo_inurba_marseille","lat":43.28477,"lon":5.4839,"is_reserved":false,"is_disabled":false,"rental_uris":{"android":"levelo://app?vid=79ce6a44-61dd-477c-aa0b-1a849bd10fcb","ios":"levelo://app?vid=79ce6a44-61dd-477c-aa0b-1a849bd10fcb"},"vehicle_type_id":"4","last_reported":1773141828,"current_range_meters":26800,"station_id":"","pricing_plan_id":"cebpf4jnsgd1na2vs0mg"},{"bike_id":"d42cebad-c3aa-4be8-b33f-c44cf02b01f4","system_id":"levelo_inurba_marseille","lat":43.30308,"lon":5.36887,"is_reserved":false,"is_disabled":false,"rental_uris":{"android":"levelo://app?vid=d42cebad-c3aa-4be8-b33f-c44cf02b01f4","ios":"levelo://app?vid=d42cebad-c3aa-4be8-b33f-c44cf02b01f4"},"vehicle_type_id":"4","last_reported":1773141828,"current_range_meters":22800,"station_id":"ce4bgqh2rcd13ifvqc5g","pricing_plan_id":"cebpf4jnsgd1na2vs0mg"},{"bike_id":"ac8308a4-f739-4875-98d8-249fe4c0d891","system_id":"levelo_inurba_marseille","lat":43.32488,"lon":5.36566,"is_reserved":false,"is_disabled":false,"rental_uris":{"android":"levelo://app?vid=ac8308a4-f739-4875-98d8-249fe4c0d891","ios":"levelo://app?vid=ac8308a4-f739-4875-98d8-249fe4c0d891"},"vehicle_type_id":"4","last_reported":1773141828,"current_range_meters":40000,"station_id":"ce4bhs12rcd13ifvqhvg","pricing_plan_id":"cebpf4jnsgd1na2vs0mg"},{"bike_id":"447ba774-735e-4ed5-b8a8-6dc2096bdb69","system_id":"levelo_inurba_marseille","lat":43.31114,"lon":5.37774,"is_reserved":false,"is_disabled":true,"rental_uris":{"android":"levelo://app?vid=447ba774-735e-4ed5-b8a8-6dc2096bdb69","ios":"levelo://app?vid=447ba774-735e-4ed5-b8a8-6dc2096bdb69"},"vehicle_type_id":"4","last_reported":1773141828,"current_range_meters":9600,"station_id":"ce4bgt92rcd13ifvqcg0","pricing_plan_id":"cebpf4jnsgd1na2vs0mg"},{"bike_id":"63839d01-be07-406c-b01e-08930e985ea6","system_id":"levelo_inurba_marseille","lat":43.29026,"lon":5.38114,"is_reserved":false,"is_disabled":false,"rental_uris":{"android":"levelo://app?vid=63839d01-be07-406c-b01e-08930e985ea6","ios":"levelo://app?vid=63839d01-be07-406c-b01e-08930e985ea6"},"vehicle_type_id":"4","last_reported":1773141828,"current_range_meters":27600,"station_id":"ce4bh4p2rcd13ifvqe1g","pricing_plan_id":"cebpf4jnsgd1na2vs0mg"},{"bike_id":"984779bc-62f5-4c55-8c4f-e04417dcfe2f","system_id":"levelo_inurba_marseille","lat":43.26229,"lon":5.40461,"is_reserved":false,"is_disabled":false,"rental_uris":{"android":"levelo://app?vid=984779bc-62f5-4c55-8c4f-e04417dcfe2f","ios":"levelo://app?vid=984779bc-62f5-4c55-8c4f-e04417dcfe2f"},"vehicle_type_id":"4","last_reported":1773141828,"current_range_meters":15200,"station_id":"ce4bhmh2rcd13ifvqgmg","pricing_plan_id":"cebpf4jnsgd1na2vs0mg"},{"bike_id":"dd11b5db-7b35-4df3-8a3a-d7161b3ca943","system_id":"levelo_inurba_marseille","lat":43.30586,"lon":5.37203,"is_reserved":false,"is_disabled":false,"rental_uris":{"android":"levelo://app?vid=dd11b5db-7b35-4df3-8a3a-d7161b3ca943","ios":"levelo://app?vid=dd11b5db-7b35-4df3-8a3a-d7161b3ca943"},"vehicle_type_id":"4","last_reported":1773141828,"current_range_meters":30400,"station_id":"ce4bgqh2rcd13ifvqc4g","pricing_plan_id":"cebpf4jnsgd1na2vs0mg"},{"bike_id":"6966191e-2a59-4d90-83f5-9dbb328087a0","system_id":"levelo_inurba_marseille","lat":43.28479,"lon":5.48385,"is_reserved":false,"is_disabled":false,"rental_uris":{"android":"levelo://app?vid=6966191e-2a59-4d90-83f5-9dbb328087a0","ios":"levelo://app?vid=6966191e-2a59-4d90-83f5-9dbb328087a0"},"vehicle_type_id":"4","last_reported":1773141828,"current_range_meters":5600,"station_id":"","pricing_plan_id":"cebpf4jnsgd1na2vs0mg"},{"bike_id":"664572f5-5ae7-4382-a82f-3d389db05bba","system_id":"levelo_inurba_marseille","lat":43.28691,"lon":5.3864,"is_reserved":false,"is_disabled":true,"rental_uris":{"android":"levelo://app?vid=664572f5-5ae7-4382-a82f-3d389db05bba","ios":"levelo://app?vid=664572f5-5ae7-4382-a82f-3d389db05bba"},"vehicle_type_id":"4","last_reported":1773141828,"current_range_meters":3600,"station_id":"ce4bh492rcd13ifvqdug","pricing_plan_id":"cebpf4jnsgd1na2vs0mg"},{"bike_id":"89298778-5582-4f2f-8ae9-c710daa3915c","system_id":"levelo_inurba_marseille","lat":43.29597,"lon":5.38098,"is_reserved":false,"is_disabled":false,"rental_uris":{"android":"levelo://app?vid=89298778-5582-4f2f-8ae9-c710daa3915c","ios":"levelo://app?vid=89298778-5582-4f2f-8ae9-c710daa3915c"},"vehicle_type_id":"4","last_reported":1773141828,"current_range_meters":28400,"station_id":"ce4bgl12rcd13ifvqbo0","pricing_plan_id":"cebpf4jnsgd1na2vs0mg"},{"bike_id":"c67245cb-2170-4bce-8da2-b23385e30ee9","system_id":"levelo_inurba_marseille","lat":43.29711,"lon":5.42545,"is_reserved":false,"is_disabled":false,"rental_uris":{"android":"levelo://app?vid=c67245cb-2170-4bce-8da2-b23385e30ee9","ios":"levelo://app?vid=c67245cb-2170-4bce-8da2-b23385e30ee9"},"vehicle_type_id":"4","last_reported":1773141828,"current_range_meters":16400,"station_id":"","pricing_plan_id":"cebpf4jnsgd1na2vs0mg"},{"bike_id":"832b3c0c-ff1e-49c6-9b23-61aa7fa5759f","system_id":"levelo_inurba_marseille","lat":43.29913,"lon":5.37464,"is_reserved":false,"is_disabled":false,"rental_uris":{"android":"levelo://app?vid=832b3c0c-ff1e-49c6-9b23-61aa7fa5759f","ios":"levelo://app?vid=832b3c0c-ff1e-49c6-9b23-61aa7fa5759f"},"vehicle_type_id":"4","last_reported":1773141828,"current_range_meters":19200,"station_id":"ce4bgjh2rcd13ifvqbg0","pricing_plan_id":"cebpf4jnsgd1na2vs0mg"},{"bike_id":"7efcf4c7-49f4-4be3-9e95-91715385053b","system_id":"levelo_inurba_marseille","lat":43.30322,"lon":5.36883,"is_reserved":false,"is_disabled":false,"rental_uris":{"android":"levelo://app?vid=7efcf4c7-49f4-4be3-9e95-91715385053b","ios":"levelo://app?vid=7efcf4c7-49f4-4be3-9e95-91715385053b"},"vehicle_type_id":"4","last_reported":1773141828,"current_range_meters":18000,"station_id":"ce4bgqh2rcd13ifvqc5g","pricing_plan_id":"cebpf4jnsgd1na2vs0mg"},{"bike_id":"b7e35d72-969e-4bf5-a3a7-5c6489e97a1a","system_id":"levelo_inurba_marseille","lat":43.23192,"lon":5.3554,"is_reserved":false,"is_disabled":false,"rental_uris":{"android":"levelo://app?vid=b7e35d72-969e-4bf5-a3a7-5c6489e97a1a","ios":"levelo://app?vid=b7e35d72-969e-4bf5-a3a7-5c6489e97a1a"},"vehicle_type_id":"4","last_reported":1773141828,"current_range_meters":38400,"station_id":"ce4bhu92rcd13ifvqi70","pricing_plan_id":"cebpf4jnsgd1na2vs0mg"},{"bike_id":"481d7f35-e3b3-4df8-80f2-d627e15bc73b","system_id":"levelo_inurba_marseille","lat":43.2621,"lon":5.37449,"is_reserved":false,"is_disabled":false,"rental_uris":{"android":"levelo://app?vid=481d7f35-e3b3-4df8-80f2-d627e15bc73b","ios":"levelo://app?vid=481d7f35-e3b3-4df8-80f2-d627e15bc73b"},"vehicle_type_id":"4","last_reported":1773141828,"current_range_meters":31200,"station_id":"ce4bhgp2rcd13ifvqfc0","pricing_plan_id":"cebpf4jnsgd1na2vs0mg"},{"bike_id":"d216debe-13ad-497c-9809-383a47cc5ef9","system_id":"levelo_inurba_marseille","lat":43.32359,"lon":5.36736,"is_reserved":false,"is_disabled":false,"rental_uris":{"android":"levelo://app?vid=d216debe-13ad-497c-9809-383a47cc5ef9","ios":"levelo://app?vid=d216debe-13ad-497c-9809-383a47cc5ef9"},"vehicle_type_id":"4","last_reported":1773141828,"current_range_meters":36800,"station_id":"ce4bhsh2rcd13ifvqi2g","pricing_plan_id":"cebpf4jnsgd1na2vs0mg"},{"bike_id":"32c4f1f7-17c8-4a03-b0d8-54ddb0b13de5","system_id":"levelo_inurba_marseille","lat":43.33542,"lon":5.37468,"is_reserved":false,"is_disabled":false,"rental_uris":{"android":"levelo://app?vid=32c4f1f7-17c8-4a03-b0d8-54ddb0b13de5","ios":"levelo://app?vid=32c4f1f7-17c8-4a03-b0d8-54ddb0b13de5"},"vehicle_type_id":"4","last_reported":1773141828,"current_range_meters":34800,"station_id":"st_d46tts09ee8s73dlu43g","pricing_plan_id":"cebpf4jnsgd1na2vs0mg"},{"bike_id":"e93e4b05-492f-4c51-865b-dc3c2bd2e4bd","system_id":"levelo_inurba_marseille","lat":43.25331,"lon":5.42171,"is_reserved":false,"is_disabled":false,"rental_uris":{"android":"levelo://app?vid=e93e4b05-492f-4c51-865b-dc3c2bd2e4bd","ios":"levelo://app?vid=e93e4b05-492f-4c51-865b-dc3c2bd2e4bd"},"vehicle_type_id":"4","last_reported":1773141828,"current_range_meters":32400,"station_id":"st_d2m65c5bi1j21697t3ng","pricing_plan_id":"cebpf4jnsgd1na2vs0mg"},{"bike_id":"77cce443-3f90-4239-836a-70a21471f733","system_id":"levelo_inurba_marseille","lat":43.2706,"lon":5.38314,"is_reserved":false,"is_disabled":false,"rental_uris":{"android":"levelo://app?vid=77cce443-3f90-4239-836a-70a21471f733","ios":"levelo://app?vid=77cce443-3f90-4239-836a-70a21471f733"},"vehicle_type_id":"4","last_reported":1773141828,"current_range_meters":34800,"station_id":"st_d3n2fo6cfp8s73cte1j0","pricing_plan_id":"cebpf4jnsgd1na2vs0mg"},{"bike_id":"b1464651-8557-4b95-b594-9c68463903eb","system_id":"levelo_inurba_marseille","lat":43.27207,"lon":5.39202,"is_reserved":false,"is_disabled":false,"rental_uris":{"android":"levelo://app?vid=b1464651-8557-4b95-b594-9c68463903eb","ios":"levelo://app?vid=b1464651-8557-4b95-b594-9c68463903eb"},"vehicle_type_id":"4","last_reported":1773141828,"current_range_meters":30800,"station_id":"ce4bhhp2rcd13ifvqfm0","pricing_plan_id":"cebpf4jnsgd1na2vs0mg"},{"bike_id":"b1b72e65-4541-4aa5-9464-619c22b58492","system_id":"levelo_inurba_marseille","lat":43.27558,"lon":5.39636,"is_reserved":false,"is_disabled":false,"rental_uris":{"android":"levelo://app?vid=b1b72e65-4541-4aa5-9464-619c22b58492","ios":"levelo://app?vid=b1b72e65-4541-4aa5-9464-619c22b58492"},"vehicle_type_id":"4","last_reported":1773141828,"current_range_meters":27600,"station_id":"","pricing_plan_id":"cebpf4jnsgd1na2vs0mg"},{"bike_id":"3f084fef-6730-4c01-86b6-0bcf72df7333","system_id":"levelo_inurba_marseille","lat":43.29862,"lon":5.39735,"is_reserved":false,"is_disabled":false,"rental_uris":{"android":"levelo://app?vid=3f084fef-6730-4c01-86b6-0bcf72df7333","ios":"levelo://app?vid=3f084fef-6730-4c01-86b6-0bcf72df7333"},"vehicle_type_id":"4","last_reported":1773141828,"current_range_meters":36000,"station_id":"ce4bh0h2rcd13ifvqd50","pricing_plan_id":"cebpf4jnsgd1na2vs0mg"},{"bike_id":"2882ff64-4b69-4646-94c7-860d0be78035","system_id":"levelo_inurba_marseille","lat":43.29288,"lon":5.37427,"is_reserved":false,"is_disabled":false,"rental_uris":{"android":"levelo://app?vid=2882ff64-4b69-4646-94c7-860d0be78035","ios":"levelo://app?vid=2882ff64-4b69-4646-94c7-860d0be78035"},"vehicle_type_id":"4","last_reported":1773141828,"current_range_meters":30000,"station_id":"ce4bgi12rcd13ifvqb70","pricing_plan_id":"cebpf4jnsgd1na2vs0mg"},{"bike_id":"beae6932-1cb2-42f4-a0be-e7fa4a6e5cad","system_id":"levelo_inurba_marseille","lat":43.25005,"lon":5.38905,"is_reserved":false,"is_disabled":false,"rental_uris":{"android":"levelo://app?vid=beae6932-1cb2-42f4-a0be-e7fa4a6e5cad","ios":"levelo://app?vid=beae6932-1cb2-42f4-a0be-e7fa4a6e5cad"},"vehicle_type_id":"4","last_reported":1773141828,"current_range_meters":38000,"station_id":"ce4bhgp2rcd13ifvqfd0","pricing_plan_id":"cebpf4jnsgd1na2vs0mg"},{"bike_id":"cbef5c0b-d109-4c17-ab0b-db0d45f1dcb1","system_id":"levelo_inurba_marseille","lat":43.3055,"lon":5.36709,"is_reserved":false,"is_disabled":false,"rental_uris":{"android":"levelo://app?vid=cbef5c0b-d109-4c17-ab0b-db0d45f1dcb1","ios":"levelo://app?vid=cbef5c0b-d109-4c17-ab0b-db0d45f1dcb1"},"vehicle_type_id":"4","last_reported":1773141828,"current_range_meters":13600,"station_id":"ce4bgrp2rcd13ifvqc9g","pricing_plan_id":"cebpf4jnsgd1na2vs0mg"},{"bike_id":"0976d995-0bd5-4a37-a12f-7573097cdbbf","system_id":"levelo_inurba_marseille","lat":43.24404,"lon":5.37056,"is_reserved":false,"is_disabled":false,"rental_uris":{"android":"levelo://app?vid=0976d995-0bd5-4a37-a12f-7573097cdbbf","ios":"levelo://app?vid=0976d995-0bd5-4a37-a12f-7573097cdbbf"},"vehicle_type_id":"4","last_reported":1773141828,"current_range_meters":37600,"station_id":"ce4bhhh2rcd13ifvqfk0","pricing_plan_id":"cebpf4jnsgd1na2vs0mg"},{"bike_id":"d3b471e2-eaea-40d6-b207-95b0d07845f0","system_id":"levelo_inurba_marseille","lat":43.27956,"lon":5.41035,"is_reserved":false,"is_disabled":false,"rental_uris":{"android":"levelo://app?vid=d3b471e2-eaea-40d6-b207-95b0d07845f0","ios":"levelo://app?vid=d3b471e2-eaea-40d6-b207-95b0d07845f0"},"vehicle_type_id":"4","last_reported":1773141828,"current_range_meters":6800,"station_id":"ce4bhnp2rcd13ifvqh0g","pricing_plan_id":"cebpf4jnsgd1na2vs0mg"},{"bike_id":"6adc31c4-5cfa-4d5b-a4ca-9f1f649c5b2c","system_id":"levelo_inurba_marseille","lat":43.29798,"lon":5.42598,"is_reserved":false,"is_disabled":false,"rental_uris":{"android":"levelo://app?vid=6adc31c4-5cfa-4d5b-a4ca-9f1f649c5b2c","ios":"levelo://app?vid=6adc31c4-5cfa-4d5b-a4ca-9f1f649c5b2c"},"vehicle_type_id":"4","last_reported":1773141828,"current_range_meters":4800,"station_id":"","pricing_plan_id":"cebpf4jnsgd1na2vs0mg"},{"bike_id":"569bdbe6-135f-4da0-b981-6b14834da657","system_id":"levelo_inurba_marseille","lat":43.29283,"lon":5.36839,"is_reserved":false,"is_disabled":false,"rental_uris":{"android":"levelo://app?vid=569bdbe6-135f-4da0-b981-6b14834da657","ios":"levelo://app?vid=569bdbe6-135f-4da0-b981-6b14834da657"},"vehicle_type_id":"4","last_reported":1773141828,"current_range_meters":10000,"station_id":"ce4bhbp2rcd13ifvqesg","pricing_plan_id":"cebpf4jnsgd1na2vs0mg"},{"bike_id":"f6bf9564-52b6-4a7a-a275-e35fdff422de","system_id":"levelo_inurba_marseille","lat":43.32358,"lon":5.3672,"is_reserved":false,"is_disabled":false,"rental_uris":{"android":"levelo://app?vid=f6bf9564-52b6-4a7a-a275-e35fdff422de","ios":"levelo://app?vid=f6bf9564-52b6-4a7a-a275-e35fdff422de"},"vehicle_type_id":"4","last_reported":1773141828,"current_range_meters":5600,"station_id":"ce4bhsh2rcd13ifvqi2g","pricing_plan_id":"cebpf4jnsgd1na2vs0mg"},{"bike_id":"2564c1c9-01d0-4cc8-af33-cb04d53dfb74","system_id":"levelo_inurba_marseille","lat":43.27057,"lon":5.42268,"is_reserved":false,"is_disabled":false,"rental_uris":{"android":"levelo://app?vid=2564c1c9-01d0-4cc8-af33-cb04d53dfb74","ios":"levelo://app?vid=2564c1c9-01d0-4cc8-af33-cb04d53dfb74"},"vehicle_type_id":"4","last_reported":1773141828,"current_range_meters":12000,"station_id":"ce4bhk92rcd13ifvqgb0","pricing_plan_id":"cebpf4jnsgd1na2vs0mg"},{"bike_id":"80d92ef0-132e-468a-a47e-2bb2bb14889b","system_id":"levelo_inurba_marseille","lat":43.29169,"lon":5.37167,"is_reserved":false,"is_disabled":false,"rental_uris":{"android":"levelo://app?vid=80d92ef0-132e-468a-a47e-2bb2bb14889b","ios":"levelo://app?vid=80d92ef0-132e-468a-a47e-2bb2bb14889b"},"vehicle_type_id":"4","last_reported":1773141828,"current_range_meters":11600,"station_id":"ce4bha92rcd13ifvqeh0","pricing_plan_id":"cebpf4jnsgd1na2vs0mg"},{"bike_id":"1ed78316-1378-4cf1-89dc-82486992174d","system_id":"levelo_inurba_marseille","lat":43.279694,"lon":5.387333,"is_reserved":false,"is_disabled":false,"rental_uris":{"android":"levelo://app?vid=1ed78316-1378-4cf1-89dc-82486992174d","ios":"levelo://app?vid=1ed78316-1378-4cf1-89dc-82486992174d"},"vehicle_type_id":"4","last_reported":1773141828,"current_range_meters":18800,"station_id":"ce4bhg12rcd13ifvqf80","pricing_plan_id":"cebpf4jnsgd1na2vs0mg"},{"bike_id":"a4607f20-82df-489a-b070-89f19f12ea83","system_id":"levelo_inurba_marseille","lat":43.2621,"lon":5.37446,"is_reserved":false,"is_disabled":false,"rental_uris":{"android":"levelo://app?vid=a4607f20-82df-489a-b070-89f19f12ea83","ios":"levelo://app?vid=a4607f20-82df-489a-b070-89f19f12ea83"},"vehicle_type_id":"4","last_reported":1773141828,"current_range_meters":39200,"station_id":"ce4bhgp2rcd13ifvqfc0","pricing_plan_id":"cebpf4jnsgd1na2vs0mg"},{"bike_id":"63a6ef1e-321c-4b46-9e2f-9eb83cb9d354","system_id":"levelo_inurba_marseille","lat":43.27217,"lon":5.39151,"is_reserved":false,"is_disabled":false,"rental_uris":{"android":"levelo://app?vid=63a6ef1e-321c-4b46-9e2f-9eb83cb9d354","ios":"levelo://app?vid=63a6ef1e-321c-4b46-9e2f-9eb83cb9d354"},"vehicle_type_id":"4","last_reported":1773141828,"current_range_meters":36000,"station_id":"ce4bhhp2rcd13ifvqfm0","pricing_plan_id":"cebpf4jnsgd1na2vs0mg"},{"bike_id":"7492f64a-feec-4475-a8ac-d4bd70e8ae1e","system_id":"levelo_inurba_marseille","lat":43.23145,"lon":5.43725,"is_reserved":false,"is_disabled":false,"rental_uris":{"android":"levelo://app?vid=7492f64a-feec-4475-a8ac-d4bd70e8ae1e","ios":"levelo://app?vid=7492f64a-feec-4475-a8ac-d4bd70e8ae1e"},"vehicle_type_id":"4","last_reported":1773141828,"current_range_meters":22000,"station_id":"ce4bhmp2rcd13ifvqgog","pricing_plan_id":"cebpf4jnsgd1na2vs0mg"},{"bike_id":"7097e5f0-1617-4563-a11d-e981377cafbc","system_id":"levelo_inurba_marseille","lat":43.31342,"lon":5.36733,"is_reserved":false,"is_disabled":false,"rental_uris":{"android":"levelo://app?vid=7097e5f0-1617-4563-a11d-e981377cafbc","ios":"levelo://app?vid=7097e5f0-1617-4563-a11d-e981377cafbc"},"vehicle_type_id":"4","last_reported":1773141828,"current_range_meters":28400,"station_id":"ce4bgr92rcd13ifvqc6g","pricing_plan_id":"cebpf4jnsgd1na2vs0mg"},{"bike_id":"afa20618-0d5e-4dda-934c-d6c0b2a9d26b","system_id":"levelo_inurba_marseille","lat":43.30464,"lon":5.37888,"is_reserved":false,"is_disabled":false,"rental_uris":{"android":"levelo://app?vid=afa20618-0d5e-4dda-934c-d6c0b2a9d26b","ios":"levelo://app?vid=afa20618-0d5e-4dda-934c-d6c0b2a9d26b"},"vehicle_type_id":"4","last_reported":1773141828,"current_range_meters":30000,"station_id":"ce4bgup2rcd13ifvqcn0","pricing_plan_id":"cebpf4jnsgd1na2vs0mg"},{"bike_id":"e4fd2a6d-545b-4e3b-a5e6-fae5cf5ddd74","system_id":"levelo_inurba_marseille","lat":43.33227,"lon":5.38615,"is_reserved":false,"is_disabled":false,"rental_uris":{"android":"levelo://app?vid=e4fd2a6d-545b-4e3b-a5e6-fae5cf5ddd74","ios":"levelo://app?vid=e4fd2a6d-545b-4e3b-a5e6-fae5cf5ddd74"},"vehicle_type_id":"4","last_reported":1773141828,"current_range_meters":36400,"station_id":"","pricing_plan_id":"cebpf4jnsgd1na2vs0mg"},{"bike_id":"7739e670-6ad1-4986-90c8-e0074ab83683","system_id":"levelo_inurba_marseille","lat":43.26571,"lon":5.37286,"is_reserved":false,"is_disabled":false,"rental_uris":{"android":"levelo://app?vid=7739e670-6ad1-4986-90c8-e0074ab83683","ios":"levelo://app?vid=7739e670-6ad1-4986-90c8-e0074ab83683"},"vehicle_type_id":"4","last_reported":1773141828,"current_range_meters":28400,"station_id":"ce4bhg12rcd13ifvqf70","pricing_plan_id":"cebpf4jnsgd1na2vs0mg"},{"bike_id":"6292764a-36d3-4177-868b-8d28df16d07a","system_id":"levelo_inurba_marseille","lat":43.25079,"lon":5.39514,"is_reserved":false,"is_disabled":false,"rental_uris":{"android":"levelo://app?vid=6292764a-36d3-4177-868b-8d28df16d07a","ios":"levelo://app?vid=6292764a-36d3-4177-868b-8d28df16d07a"},"vehicle_type_id":"4","last_reported":1773141828,"current_range_meters":39200,"station_id":"ce4bhm12rcd13ifvqgkg","pricing_plan_id":"cebpf4jnsgd1na2vs0mg"},{"bike_id":"a6152a37-0e0f-4342-85ea-20dd708f93ee","system_id":"levelo_inurba_marseille","lat":43.23153,"lon":5.43703,"is_reserved":false,"is_disabled":false,"rental_uris":{"android":"levelo://app?vid=a6152a37-0e0f-4342-85ea-20dd708f93ee","ios":"levelo://app?vid=a6152a37-0e0f-4342-85ea-20dd708f93ee"},"vehicle_type_id":"4","last_reported":1773141828,"current_range_meters":36800,"station_id":"ce4bhmp2rcd13ifvqgog","pricing_plan_id":"cebpf4jnsgd1na2vs0mg"},{"bike_id":"fd7a85fe-04b7-4fdc-aa9d-9f4f30848aea","system_id":"levelo_inurba_marseille","lat":43.24065,"lon":5.37766,"is_reserved":false,"is_disabled":false,"rental_uris":{"android":"levelo://app?vid=fd7a85fe-04b7-4fdc-aa9d-9f4f30848aea","ios":"levelo://app?vid=fd7a85fe-04b7-4fdc-aa9d-9f4f30848aea"},"vehicle_type_id":"4","last_reported":1773141828,"current_range_meters":24000,"station_id":"ce4bhnp2rcd13ifvqgvg","pricing_plan_id":"cebpf4jnsgd1na2vs0mg"},{"bike_id":"657d8903-3635-4912-b469-eb1efb4465ec","system_id":"levelo_inurba_marseille","lat":43.24691,"lon":5.38148,"is_reserved":false,"is_disabled":false,"rental_uris":{"android":"levelo://app?vid=657d8903-3635-4912-b469-eb1efb4465ec","ios":"levelo://app?vid=657d8903-3635-4912-b469-eb1efb4465ec"},"vehicle_type_id":"4","last_reported":1773141828,"current_range_meters":36400,"station_id":"ce4bhih2rcd13ifvqfr0","pricing_plan_id":"cebpf4jnsgd1na2vs0mg"},{"bike_id":"9d5dab95-42e0-47db-91db-ee2c6c1256b0","system_id":"levelo_inurba_marseille","lat":43.25497,"lon":5.37648,"is_reserved":false,"is_disabled":false,"rental_uris":{"android":"levelo://app?vid=9d5dab95-42e0-47db-91db-ee2c6c1256b0","ios":"levelo://app?vid=9d5dab95-42e0-47db-91db-ee2c6c1256b0"},"vehicle_type_id":"4","last_reported":1773141828,"current_range_meters":38000,"station_id":"ce4bhh12rcd13ifvqff0","pricing_plan_id":"cebpf4jnsgd1na2vs0mg"},{"bike_id":"3ed9dacd-47d5-473e-a4ab-a372d8e4176a","system_id":"levelo_inurba_marseille","lat":43.30127,"lon":5.39873,"is_reserved":false,"is_disabled":true,"rental_uris":{"android":"levelo://app?vid=3ed9dacd-47d5-473e-a4ab-a372d8e4176a","ios":"levelo://app?vid=3ed9dacd-47d5-473e-a4ab-a372d8e4176a"},"vehicle_type_id":"4","last_reported":1773141828,"current_range_meters":26000,"station_id":"ce4bh0h2rcd13ifvqd40","pricing_plan_id":"cebpf4jnsgd1na2vs0mg"},{"bike_id":"aa69a35b-1f9c-4e40-9b72-5cbf6dcd27c1","system_id":"levelo_inurba_marseille","lat":43.30934,"lon":5.4014,"is_reserved":false,"is_disabled":false,"rental_uris":{"android":"levelo://app?vid=aa69a35b-1f9c-4e40-9b72-5cbf6dcd27c1","ios":"levelo://app?vid=aa69a35b-1f9c-4e40-9b72-5cbf6dcd27c1"},"vehicle_type_id":"4","last_reported":1773141828,"current_range_meters":36800,"station_id":"ce4bgvp2rcd13ifvqct0","pricing_plan_id":"cebpf4jnsgd1na2vs0mg"},{"bike_id":"d98d037d-3315-4c51-b1fb-f7cdf7fde838","system_id":"levelo_inurba_marseille","lat":43.23119,"lon":5.43693,"is_reserved":false,"is_disabled":false,"rental_uris":{"android":"levelo://app?vid=d98d037d-3315-4c51-b1fb-f7cdf7fde838","ios":"levelo://app?vid=d98d037d-3315-4c51-b1fb-f7cdf7fde838"},"vehicle_type_id":"4","last_reported":1773141828,"current_range_meters":9600,"station_id":"ce4bhmp2rcd13ifvqgog","pricing_plan_id":"cebpf4jnsgd1na2vs0mg"},{"bike_id":"d44d6705-8b07-4c99-8be2-a9a0fdc34e2f","system_id":"levelo_inurba_marseille","lat":43.32094,"lon":5.36756,"is_reserved":false,"is_disabled":false,"rental_uris":{"android":"levelo://app?vid=d44d6705-8b07-4c99-8be2-a9a0fdc34e2f","ios":"levelo://app?vid=d44d6705-8b07-4c99-8be2-a9a0fdc34e2f"},"vehicle_type_id":"4","last_reported":1773141828,"current_range_meters":6800,"station_id":"ce4bhrh2rcd13ifvqhug","pricing_plan_id":"cebpf4jnsgd1na2vs0mg"},{"bike_id":"4e13cebf-e3bd-4977-8d80-663fe93eec9a","system_id":"levelo_inurba_marseille","lat":43.31384,"lon":5.36707,"is_reserved":false,"is_disabled":false,"rental_uris":{"android":"levelo://app?vid=4e13cebf-e3bd-4977-8d80-663fe93eec9a","ios":"levelo://app?vid=4e13cebf-e3bd-4977-8d80-663fe93eec9a"},"vehicle_type_id":"4","last_reported":1773141828,"current_range_meters":6400,"station_id":"","pricing_plan_id":"cebpf4jnsgd1na2vs0mg"},{"bike_id":"28e65bbe-3424-401b-a04b-0a4c3f7dbfbd","system_id":"levelo_inurba_marseille","lat":43.261596,"lon":5.393512,"is_reserved":false,"is_disabled":false,"rental_uris":{"android":"levelo://app?vid=28e65bbe-3424-401b-a04b-0a4c3f7dbfbd","ios":"levelo://app?vid=28e65bbe-3424-401b-a04b-0a4c3f7dbfbd"},"vehicle_type_id":"4","last_reported":1773141828,"current_range_meters":25600,"station_id":"ce4bhh92rcd13ifvqfj0","pricing_plan_id":"cebpf4jnsgd1na2vs0mg"},{"bike_id":"18344d13-5ad9-4a90-bbbb-38ed6af181bc","system_id":"levelo_inurba_marseille","lat":43.2591,"lon":5.40893,"is_reserved":false,"is_disabled":false,"rental_uris":{"android":"levelo://app?vid=18344d13-5ad9-4a90-bbbb-38ed6af181bc","ios":"levelo://app?vid=18344d13-5ad9-4a90-bbbb-38ed6af181bc"},"vehicle_type_id":"4","last_reported":1773141828,"current_range_meters":28000,"station_id":"ce4bhm92rcd13ifvqglg","pricing_plan_id":"cebpf4jnsgd1na2vs0mg"},{"bike_id":"6ebd1174-a66e-4169-8dbb-9e9ffb9bb55f","system_id":"levelo_inurba_marseille","lat":43.29181,"lon":5.39304,"is_reserved":false,"is_disabled":false,"rental_uris":{"android":"levelo://app?vid=6ebd1174-a66e-4169-8dbb-9e9ffb9bb55f","ios":"levelo://app?vid=6ebd1174-a66e-4169-8dbb-9e9ffb9bb55f"},"vehicle_type_id":"4","last_reported":1773141828,"current_range_meters":37600,"station_id":"ce4bh192rcd13ifvqdd0","pricing_plan_id":"cebpf4jnsgd1na2vs0mg"},{"bike_id":"f780a682-e0f8-417c-aace-a2c147eaf4c1","system_id":"levelo_inurba_marseille","lat":43.25817,"lon":5.39431,"is_reserved":false,"is_disabled":true,"rental_uris":{"android":"levelo://app?vid=f780a682-e0f8-417c-aace-a2c147eaf4c1","ios":"levelo://app?vid=f780a682-e0f8-417c-aace-a2c147eaf4c1"},"vehicle_type_id":"4","last_reported":1773141828,"current_range_meters":0,"station_id":"ce4bhip2rcd13ifvqft0","pricing_plan_id":"cebpf4jnsgd1na2vs0mg"},{"bike_id":"204d42a9-563d-4c76-915f-f87f91c21570","system_id":"levelo_inurba_marseille","lat":43.31535,"lon":5.37279,"is_reserved":false,"is_disabled":false,"rental_uris":{"android":"levelo://app?vid=204d42a9-563d-4c76-915f-f87f91c21570","ios":"levelo://app?vid=204d42a9-563d-4c76-915f-f87f91c21570"},"vehicle_type_id":"4","last_reported":1773141828,"current_range_meters":32000,"station_id":"","pricing_plan_id":"cebpf4jnsgd1na2vs0mg"},{"bike_id":"b708976c-2a36-497f-8637-f1523d59ea21","system_id":"levelo_inurba_marseille","lat":43.26691,"lon":5.3829,"is_reserved":false,"is_disabled":false,"rental_uris":{"android":"levelo://app?vid=b708976c-2a36-497f-8637-f1523d59ea21","ios":"levelo://app?vid=b708976c-2a36-497f-8637-f1523d59ea21"},"vehicle_type_id":"4","last_reported":1773141828,"current_range_meters":23200,"station_id":"ce4bhg92rcd13ifvqf90","pricing_plan_id":"cebpf4jnsgd1na2vs0mg"},{"bike_id":"607a3c92-ca6a-4c0e-951b-7fea0ee07e1b","system_id":"levelo_inurba_marseille","lat":43.295534,"lon":5.400663,"is_reserved":false,"is_disabled":true,"rental_uris":{"android":"levelo://app?vid=607a3c92-ca6a-4c0e-951b-7fea0ee07e1b","ios":"levelo://app?vid=607a3c92-ca6a-4c0e-951b-7fea0ee07e1b"},"vehicle_type_id":"4","last_reported":1773141828,"current_range_meters":400,"station_id":"ce4bh312rcd13ifvqdj0","pricing_plan_id":"cebpf4jnsgd1na2vs0mg"},{"bike_id":"2c36a755-7ac4-41d6-a7fb-6475d599ecef","system_id":"levelo_inurba_marseille","lat":43.29604,"lon":5.38083,"is_reserved":false,"is_disabled":false,"rental_uris":{"android":"levelo://app?vid=2c36a755-7ac4-41d6-a7fb-6475d599ecef","ios":"levelo://app?vid=2c36a755-7ac4-41d6-a7fb-6475d599ecef"},"vehicle_type_id":"4","last_reported":1773141828,"current_range_meters":39200,"station_id":"ce4bgl12rcd13ifvqbo0","pricing_plan_id":"cebpf4jnsgd1na2vs0mg"},{"bike_id":"23fc598d-f808-4287-a2fb-dcbe6bd11524","system_id":"levelo_inurba_marseille","lat":43.28465,"lon":5.48403,"is_reserved":false,"is_disabled":false,"rental_uris":{"android":"levelo://app?vid=23fc598d-f808-4287-a2fb-dcbe6bd11524","ios":"levelo://app?vid=23fc598d-f808-4287-a2fb-dcbe6bd11524"},"vehicle_type_id":"4","last_reported":1773141828,"current_range_meters":38800,"station_id":"","pricing_plan_id":"cebpf4jnsgd1na2vs0mg"},{"bike_id":"f0d85e77-c78a-4899-b931-126b1bdccc38","system_id":"levelo_inurba_marseille","lat":43.22567,"lon":5.41635,"is_reserved":false,"is_disabled":false,"rental_uris":{"android":"levelo://app?vid=f0d85e77-c78a-4899-b931-126b1bdccc38","ios":"levelo://app?vid=f0d85e77-c78a-4899-b931-126b1bdccc38"},"vehicle_type_id":"4","last_reported":1773141828,"current_range_meters":10800,"station_id":"st_d2o4gvlbi1j2169b742g","pricing_plan_id":"cebpf4jnsgd1na2vs0mg"},{"bike_id":"3afa846a-3499-402e-8576-cc13bd78fadf","system_id":"levelo_inurba_marseille","lat":43.29611,"lon":5.38061,"is_reserved":false,"is_disabled":true,"rental_uris":{"android":"levelo://app?vid=3afa846a-3499-402e-8576-cc13bd78fadf","ios":"levelo://app?vid=3afa846a-3499-402e-8576-cc13bd78fadf"},"vehicle_type_id":"4","last_reported":1773141828,"current_range_meters":9600,"station_id":"ce4bgl12rcd13ifvqbo0","pricing_plan_id":"cebpf4jnsgd1na2vs0mg"},{"bike_id":"7ac1d431-face-4848-a4f8-4967cb1c7734","system_id":"levelo_inurba_marseille","lat":43.307845,"lon":5.37648,"is_reserved":false,"is_disabled":false,"rental_uris":{"android":"levelo://app?vid=7ac1d431-face-4848-a4f8-4967cb1c7734","ios":"levelo://app?vid=7ac1d431-face-4848-a4f8-4967cb1c7734"},"vehicle_type_id":"4","last_reported":1773141828,"current_range_meters":34800,"station_id":"ce4bgv92rcd13ifvqcq0","pricing_plan_id":"cebpf4jnsgd1na2vs0mg"},{"bike_id":"40e0d2e9-37fe-4a04-bb36-4e76f8c7199c","system_id":"levelo_inurba_marseille","lat":43.32095,"lon":5.36771,"is_reserved":false,"is_disabled":false,"rental_uris":{"android":"levelo://app?vid=40e0d2e9-37fe-4a04-bb36-4e76f8c7199c","ios":"levelo://app?vid=40e0d2e9-37fe-4a04-bb36-4e76f8c7199c"},"vehicle_type_id":"4","last_reported":1773141828,"current_range_meters":28800,"station_id":"ce4bhrh2rcd13ifvqhug","pricing_plan_id":"cebpf4jnsgd1na2vs0mg"},{"bike_id":"c00e6d14-b88c-46d0-a280-c7856069daeb","system_id":"levelo_inurba_marseille","lat":43.28717,"lon":5.39978,"is_reserved":false,"is_disabled":false,"rental_uris":{"android":"levelo://app?vid=c00e6d14-b88c-46d0-a280-c7856069daeb","ios":"levelo://app?vid=c00e6d14-b88c-46d0-a280-c7856069daeb"},"vehicle_type_id":"4","last_reported":1773141828,"current_range_meters":39200,"station_id":"ce4bho92rcd13ifvqh3g","pricing_plan_id":"cebpf4jnsgd1na2vs0mg"},{"bike_id":"d1f17bd0-952b-430c-9f55-6aa33da92ab7","system_id":"levelo_inurba_marseille","lat":43.2887,"lon":5.42513,"is_reserved":false,"is_disabled":false,"rental_uris":{"android":"levelo://app?vid=d1f17bd0-952b-430c-9f55-6aa33da92ab7","ios":"levelo://app?vid=d1f17bd0-952b-430c-9f55-6aa33da92ab7"},"vehicle_type_id":"4","last_reported":1773141828,"current_range_meters":4400,"station_id":"st_d3b462108ojc7389ooeg","pricing_plan_id":"cebpf4jnsgd1na2vs0mg"},{"bike_id":"5d71f78f-b103-4ed8-bff3-5f5ae9cbdf3b","system_id":"levelo_inurba_marseille","lat":43.29282,"lon":5.3685,"is_reserved":false,"is_disabled":false,"rental_uris":{"android":"levelo://app?vid=5d71f78f-b103-4ed8-bff3-5f5ae9cbdf3b","ios":"levelo://app?vid=5d71f78f-b103-4ed8-bff3-5f5ae9cbdf3b"},"vehicle_type_id":"4","last_reported":1773141828,"current_range_meters":22800,"station_id":"ce4bhbp2rcd13ifvqesg","pricing_plan_id":"cebpf4jnsgd1na2vs0mg"},{"bike_id":"101e1011-f9be-4f7f-88da-2f84b7374cb1","system_id":"levelo_inurba_marseille","lat":43.30878,"lon":5.37192,"is_reserved":false,"is_disabled":false,"rental_uris":{"android":"levelo://app?vid=101e1011-f9be-4f7f-88da-2f84b7374cb1","ios":"levelo://app?vid=101e1011-f9be-4f7f-88da-2f84b7374cb1"},"vehicle_type_id":"4","last_reported":1773141828,"current_range_meters":40000,"station_id":"ce4bguh2rcd13ifvqckg","pricing_plan_id":"cebpf4jnsgd1na2vs0mg"},{"bike_id":"d59f6bda-e40b-42f3-90c3-d9ad1181f0c5","system_id":"levelo_inurba_marseille","lat":43.24636,"lon":5.38884,"is_reserved":false,"is_disabled":false,"rental_uris":{"android":"levelo://app?vid=d59f6bda-e40b-42f3-90c3-d9ad1181f0c5","ios":"levelo://app?vid=d59f6bda-e40b-42f3-90c3-d9ad1181f0c5"},"vehicle_type_id":"4","last_reported":1773141828,"current_range_meters":18000,"station_id":"ce4bhg12rcd13ifvqf60","pricing_plan_id":"cebpf4jnsgd1na2vs0mg"},{"bike_id":"5bab29ae-c4bc-4a09-9205-2680625e98ce","system_id":"levelo_inurba_marseille","lat":43.31478,"lon":5.373,"is_reserved":false,"is_disabled":false,"rental_uris":{"android":"levelo://app?vid=5bab29ae-c4bc-4a09-9205-2680625e98ce","ios":"levelo://app?vid=5bab29ae-c4bc-4a09-9205-2680625e98ce"},"vehicle_type_id":"4","last_reported":1773141828,"current_range_meters":16400,"station_id":"ce4bgt12rcd13ifvqcd0","pricing_plan_id":"cebpf4jnsgd1na2vs0mg"},{"bike_id":"f9e9b065-2bea-4b87-a17e-af8e646f9e7a","system_id":"levelo_inurba_marseille","lat":43.26794,"lon":5.39407,"is_reserved":false,"is_disabled":false,"rental_uris":{"android":"levelo://app?vid=f9e9b065-2bea-4b87-a17e-af8e646f9e7a","ios":"levelo://app?vid=f9e9b065-2bea-4b87-a17e-af8e646f9e7a"},"vehicle_type_id":"4","last_reported":1773141828,"current_range_meters":35600,"station_id":"ce4bhh12rcd13ifvqfg0","pricing_plan_id":"cebpf4jnsgd1na2vs0mg"},{"bike_id":"9a4c9fe6-93e6-431c-8db6-1a67b0134b2c","system_id":"levelo_inurba_marseille","lat":43.26542,"lon":5.37275,"is_reserved":false,"is_disabled":false,"rental_uris":{"android":"levelo://app?vid=9a4c9fe6-93e6-431c-8db6-1a67b0134b2c","ios":"levelo://app?vid=9a4c9fe6-93e6-431c-8db6-1a67b0134b2c"},"vehicle_type_id":"4","last_reported":1773141828,"current_range_meters":38400,"station_id":"ce4bhg12rcd13ifvqf70","pricing_plan_id":"cebpf4jnsgd1na2vs0mg"},{"bike_id":"54aa5aea-6018-471a-96e1-3c75b95f3618","system_id":"levelo_inurba_marseille","lat":43.29912,"lon":5.38626,"is_reserved":false,"is_disabled":false,"rental_uris":{"android":"levelo://app?vid=54aa5aea-6018-471a-96e1-3c75b95f3618","ios":"levelo://app?vid=54aa5aea-6018-471a-96e1-3c75b95f3618"},"vehicle_type_id":"4","last_reported":1773141828,"current_range_meters":31200,"station_id":"","pricing_plan_id":"cebpf4jnsgd1na2vs0mg"},{"bike_id":"430bf5ef-6abd-44cf-b122-4a0344adc911","system_id":"levelo_inurba_marseille","lat":43.304277,"lon":5.388916,"is_reserved":false,"is_disabled":false,"rental_uris":{"android":"levelo://app?vid=430bf5ef-6abd-44cf-b122-4a0344adc911","ios":"levelo://app?vid=430bf5ef-6abd-44cf-b122-4a0344adc911"},"vehicle_type_id":"4","last_reported":1773141828,"current_range_meters":34800,"station_id":"ce4bgk12rcd13ifvqbi0","pricing_plan_id":"cebpf4jnsgd1na2vs0mg"},{"bike_id":"4d650b84-4c87-42d2-8dd7-e4c822bb0148","system_id":"levelo_inurba_marseille","lat":43.29584,"lon":5.3752,"is_reserved":false,"is_disabled":false,"rental_uris":{"android":"levelo://app?vid=4d650b84-4c87-42d2-8dd7-e4c822bb0148","ios":"levelo://app?vid=4d650b84-4c87-42d2-8dd7-e4c822bb0148"},"vehicle_type_id":"4","last_reported":1773141828,"current_range_meters":28400,"station_id":"ce4bgh92rcd13ifvqb50","pricing_plan_id":"cebpf4jnsgd1na2vs0mg"},{"bike_id":"477b9980-2920-43dd-98ab-3feb7a99ec00","system_id":"levelo_inurba_marseille","lat":43.30168,"lon":5.381,"is_reserved":false,"is_disabled":true,"rental_uris":{"android":"levelo://app?vid=477b9980-2920-43dd-98ab-3feb7a99ec00","ios":"levelo://app?vid=477b9980-2920-43dd-98ab-3feb7a99ec00"},"vehicle_type_id":"4","last_reported":1773141828,"current_range_meters":38400,"station_id":"ce4bgjp2rcd13ifvqbh0","pricing_plan_id":"cebpf4jnsgd1na2vs0mg"},{"bike_id":"f49f061e-ee09-4960-891e-9b1876fa3e7f","system_id":"levelo_inurba_marseille","lat":43.30937,"lon":5.39016,"is_reserved":false,"is_disabled":false,"rental_uris":{"android":"levelo://app?vid=f49f061e-ee09-4960-891e-9b1876fa3e7f","ios":"levelo://app?vid=f49f061e-ee09-4960-891e-9b1876fa3e7f"},"vehicle_type_id":"4","last_reported":1773141828,"current_range_meters":8000,"station_id":"ce4bgup2rcd13ifvqco0","pricing_plan_id":"cebpf4jnsgd1na2vs0mg"},{"bike_id":"c2e52aad-0cc7-44a8-b875-38dbf805cda2","system_id":"levelo_inurba_marseille","lat":43.29605,"lon":5.37703,"is_reserved":false,"is_disabled":true,"rental_uris":{"android":"levelo://app?vid=c2e52aad-0cc7-44a8-b875-38dbf805cda2","ios":"levelo://app?vid=c2e52aad-0cc7-44a8-b875-38dbf805cda2"},"vehicle_type_id":"4","last_reported":1773141828,"current_range_meters":38000,"station_id":"","pricing_plan_id":"cebpf4jnsgd1na2vs0mg"},{"bike_id":"bc1dac9a-1be4-4cc2-a3b8-abe8b16b9f30","system_id":"levelo_inurba_marseille","lat":43.29277,"lon":5.36839,"is_reserved":false,"is_disabled":false,"rental_uris":{"android":"levelo://app?vid=bc1dac9a-1be4-4cc2-a3b8-abe8b16b9f30","ios":"levelo://app?vid=bc1dac9a-1be4-4cc2-a3b8-abe8b16b9f30"},"vehicle_type_id":"4","last_reported":1773141828,"current_range_meters":39200,"station_id":"ce4bhbp2rcd13ifvqesg","pricing_plan_id":"cebpf4jnsgd1na2vs0mg"},{"bike_id":"86a27d56-a425-48ed-be8d-deb254057217","system_id":"levelo_inurba_marseille","lat":43.29296,"lon":5.37438,"is_reserved":false,"is_disabled":false,"rental_uris":{"android":"levelo://app?vid=86a27d56-a425-48ed-be8d-deb254057217","ios":"levelo://app?vid=86a27d56-a425-48ed-be8d-deb254057217"},"vehicle_type_id":"4","last_reported":1773141828,"current_range_meters":12400,"station_id":"ce4bgi12rcd13ifvqb70","pricing_plan_id":"cebpf4jnsgd1na2vs0mg"},{"bike_id":"95d98b6d-34fc-4842-a046-4540728f96e9","system_id":"levelo_inurba_marseille","lat":43.28663,"lon":5.38666,"is_reserved":false,"is_disabled":false,"rental_uris":{"android":"levelo://app?vid=95d98b6d-34fc-4842-a046-4540728f96e9","ios":"levelo://app?vid=95d98b6d-34fc-4842-a046-4540728f96e9"},"vehicle_type_id":"4","last_reported":1773141828,"current_range_meters":39200,"station_id":"ce4bh492rcd13ifvqdug","pricing_plan_id":"cebpf4jnsgd1na2vs0mg"},{"bike_id":"7a3b5875-f1e8-4acd-acbf-c2a29528e4b7","system_id":"levelo_inurba_marseille","lat":43.28494,"lon":5.48421,"is_reserved":false,"is_disabled":false,"rental_uris":{"android":"levelo://app?vid=7a3b5875-f1e8-4acd-acbf-c2a29528e4b7","ios":"levelo://app?vid=7a3b5875-f1e8-4acd-acbf-c2a29528e4b7"},"vehicle_type_id":"4","last_reported":1773141828,"current_range_meters":11600,"station_id":"st_d3svhcjqgbts73a3dn0g","pricing_plan_id":"cebpf4jnsgd1na2vs0mg"},{"bike_id":"9cd21b4f-5b91-47c4-9f59-c7c5557c0e8a","system_id":"levelo_inurba_marseille","lat":43.31201,"lon":5.36852,"is_reserved":false,"is_disabled":false,"rental_uris":{"android":"levelo://app?vid=9cd21b4f-5b91-47c4-9f59-c7c5557c0e8a","ios":"levelo://app?vid=9cd21b4f-5b91-47c4-9f59-c7c5557c0e8a"},"vehicle_type_id":"4","last_reported":1773141828,"current_range_meters":40000,"station_id":"ce4bgl92rcd13ifvqbq0","pricing_plan_id":"cebpf4jnsgd1na2vs0mg"},{"bike_id":"ae4181aa-8dc8-4249-8735-32d22936bfd0","system_id":"levelo_inurba_marseille","lat":43.23195,"lon":5.35572,"is_reserved":false,"is_disabled":false,"rental_uris":{"android":"levelo://app?vid=ae4181aa-8dc8-4249-8735-32d22936bfd0","ios":"levelo://app?vid=ae4181aa-8dc8-4249-8735-32d22936bfd0"},"vehicle_type_id":"4","last_reported":1773141828,"current_range_meters":28400,"station_id":"ce4bhu92rcd13ifvqi70","pricing_plan_id":"cebpf4jnsgd1na2vs0mg"},{"bike_id":"e7b6972b-117e-47e0-9f41-cbcc9b6a3781","system_id":"levelo_inurba_marseille","lat":43.32091,"lon":5.36754,"is_reserved":false,"is_disabled":false,"rental_uris":{"android":"levelo://app?vid=e7b6972b-117e-47e0-9f41-cbcc9b6a3781","ios":"levelo://app?vid=e7b6972b-117e-47e0-9f41-cbcc9b6a3781"},"vehicle_type_id":"4","last_reported":1773141828,"current_range_meters":6800,"station_id":"ce4bhrh2rcd13ifvqhug","pricing_plan_id":"cebpf4jnsgd1na2vs0mg"},{"bike_id":"96f44eb0-23e6-4af3-a49e-6a79b426f38c","system_id":"levelo_inurba_marseille","lat":43.28479,"lon":5.3842,"is_reserved":false,"is_disabled":false,"rental_uris":{"android":"levelo://app?vid=96f44eb0-23e6-4af3-a49e-6a79b426f38c","ios":"levelo://app?vid=96f44eb0-23e6-4af3-a49e-6a79b426f38c"},"vehicle_type_id":"4","last_reported":1773141828,"current_range_meters":26000,"station_id":"ce4bh512rcd13ifvqe3g","pricing_plan_id":"cebpf4jnsgd1na2vs0mg"},{"bike_id":"48000cab-41de-4600-a63e-0b6cccd6d62b","system_id":"levelo_inurba_marseille","lat":43.28172,"lon":5.42665,"is_reserved":false,"is_disabled":false,"rental_uris":{"android":"levelo://app?vid=48000cab-41de-4600-a63e-0b6cccd6d62b","ios":"levelo://app?vid=48000cab-41de-4600-a63e-0b6cccd6d62b"},"vehicle_type_id":"4","last_reported":1773141828,"current_range_meters":35600,"station_id":"ce4bhnh2rcd13ifvqgug","pricing_plan_id":"cebpf4jnsgd1na2vs0mg"},{"bike_id":"4b5b71ea-e60c-42f9-bfb2-792d940d3176","system_id":"levelo_inurba_marseille","lat":43.23058,"lon":5.35489,"is_reserved":false,"is_disabled":false,"rental_uris":{"android":"levelo://app?vid=4b5b71ea-e60c-42f9-bfb2-792d940d3176","ios":"levelo://app?vid=4b5b71ea-e60c-42f9-bfb2-792d940d3176"},"vehicle_type_id":"4","last_reported":1773141828,"current_range_meters":39200,"station_id":"cpo3342slgdg3j2ifvpg","pricing_plan_id":"cebpf4jnsgd1na2vs0mg"},{"bike_id":"d3611ff2-55b3-42cc-9920-0abd14ff4bd3","system_id":"levelo_inurba_marseille","lat":43.3121,"lon":5.36864,"is_reserved":false,"is_disabled":false,"rental_uris":{"android":"levelo://app?vid=d3611ff2-55b3-42cc-9920-0abd14ff4bd3","ios":"levelo://app?vid=d3611ff2-55b3-42cc-9920-0abd14ff4bd3"},"vehicle_type_id":"4","last_reported":1773141828,"current_range_meters":40000,"station_id":"ce4bgl92rcd13ifvqbq0","pricing_plan_id":"cebpf4jnsgd1na2vs0mg"},{"bike_id":"169d6968-b5c0-4a65-84a7-660d5c5a7612","system_id":"levelo_inurba_marseille","lat":43.24065,"lon":5.37766,"is_reserved":false,"is_disabled":false,"rental_uris":{"android":"levelo://app?vid=169d6968-b5c0-4a65-84a7-660d5c5a7612","ios":"levelo://app?vid=169d6968-b5c0-4a65-84a7-660d5c5a7612"},"vehicle_type_id":"4","last_reported":1773141828,"current_range_meters":28000,"station_id":"ce4bhnp2rcd13ifvqgvg","pricing_plan_id":"cebpf4jnsgd1na2vs0mg"},{"bike_id":"dff627b8-e846-4bdc-9ada-a335ec273009","system_id":"levelo_inurba_marseille","lat":43.30541,"lon":5.36693,"is_reserved":false,"is_disabled":false,"rental_uris":{"android":"levelo://app?vid=dff627b8-e846-4bdc-9ada-a335ec273009","ios":"levelo://app?vid=dff627b8-e846-4bdc-9ada-a335ec273009"},"vehicle_type_id":"4","last_reported":1773141828,"current_range_meters":28000,"station_id":"ce4bgrp2rcd13ifvqc9g","pricing_plan_id":"cebpf4jnsgd1na2vs0mg"},{"bike_id":"95c838b6-559a-4f36-bfca-f3c07c27cd05","system_id":"levelo_inurba_marseille","lat":43.31221,"lon":5.36854,"is_reserved":false,"is_disabled":false,"rental_uris":{"android":"levelo://app?vid=95c838b6-559a-4f36-bfca-f3c07c27cd05","ios":"levelo://app?vid=95c838b6-559a-4f36-bfca-f3c07c27cd05"},"vehicle_type_id":"4","last_reported":1773141828,"current_range_meters":38000,"station_id":"ce4bgl92rcd13ifvqbq0","pricing_plan_id":"cebpf4jnsgd1na2vs0mg"},{"bike_id":"6ed774aa-58ca-468f-a182-875ede51e8eb","system_id":"levelo_inurba_marseille","lat":43.23799,"lon":5.36598,"is_reserved":false,"is_disabled":false,"rental_uris":{"android":"levelo://app?vid=6ed774aa-58ca-468f-a182-875ede51e8eb","ios":"levelo://app?vid=6ed774aa-58ca-468f-a182-875ede51e8eb"},"vehicle_type_id":"4","last_reported":1773141828,"current_range_meters":27600,"station_id":"st_d3nk18o9ro0c73en2l3g","pricing_plan_id":"cebpf4jnsgd1na2vs0mg"},