{"last_updated":1732896723,"ttl":60,"version":"2.2","data":{"bikes":[{"bike_id":"36fc3c20-27e2-4f29-9654-896150ce5513","system_id":"levelo_inurba_marseille","lat":43.30417,"lon":5.41288,"is_reserved":false,"is_disabled":true,"rental_uris":{"android":"levelo://app?vid=36fc3c20-27e2-4f29-9654-896150ce5513","ios":"levelo://app?vid=36fc3c20-27e2-4f29-9654-896150ce5513"},"vehicle_type_id":"4","last_reported":1732896723,"current_range_meters":0,"station_id":"ce4bhop2rcd13ifvqh8g","pricing_plan_id":"cebpf4jnsgd1na2vs0mg"},{"bike_id":"a6938546-9c24-4db5-ab33-e50997791d9c","system_id":"levelo_inurba_marseille","lat":43.28148,"lon":5.42642,"is_reserved":false,"is_disabled":true,"rental_uris":{"android":"levelo://app?vid=a6938546-9c24-4db5-ab33-e50997791d9c","ios":"levelo://app?vid=a6938546-9c24-4db5-ab33-e50997791d9c"},"vehicle_type_id":"4","last_reported":1732896723,"current_range_meters":0,"station_id":"ce4bhnh2rcd13ifvqgug","pricing_plan_id":"cebpf4jnsgd1na2vs0mg"},{"bike_id":"decf6541-acc7-4a7d-b8e3-f14c679fe2c1","system_id":"levelo_inurba_marseille","lat":43.29687,"lon":5.37288,"is_reserved":false,"is_disabled":false,"rental_uris":{"android":"levelo://app?vid=decf6541-acc7-4a7d-b8e3-f14c679fe2c1","ios":"levelo://app?vid=decf6541-acc7-4a7d-b8e3-f14c679fe2c1"},"vehicle_type_id":"4","last_reported":1732896723,"current_range_meters":3600,"station_id":"ce4bgk12rcd13ifvqbj0","pricing_plan_id":"cebpf4jnsgd1na2vs0mg"},{"bike_id":"b856c8b4-412d-4c25-bdd4-e6b29aed04cb","system_id":"levelo_inurba_marseille","lat":43.22932,"lon":5.35378,"is_reserved":false,"is_disabled":false,"rental_uris":{"android":"levelo://app?vid=b856c8b4-412d-4c25-bdd4-e6b29aed04cb","ios":"levelo://app?vid=b856c8b4-412d-4c25-bdd4-e6b29aed04cb"},"vehicle_type_id":"4","last_reported":1732896723,"current_range_meters":38800,"station_id":"cpo3532slgdg3j2ikp40","pricing_plan_id":"cebpf4jnsgd1na2vs0mg"},{"bike_id":"c1a6e06f-96b4-4f75-9512-a7d79e7f8367","system_id":"levelo_inurba_marseille","lat":43.28108,"lon":5.37835,"is_reserved":false,"is_disabled":false,"rental_uris":{"android":"levelo://app?vid=c1a6e06f-96b4-4f75-9512-a7d79e7f8367","ios":"levelo://app?vid=c1a6e06f-96b4-4f75-9512-a7d79e7f8367"},"vehicle_type_id":"4","last_reported":1732896723,"current_range_meters":38800,"station_id":"ce4bha12rcd13ifvqee0","pricing_plan_id":"cebpf4jnsgd1na2vs0mg"},{"bike_id":"40ca90ea-9465-47d2-a08a-277a2591b568","system_id":"levelo_inurba_marseille","lat":43.27908,"lon":5.3959,"is_reserved":false,"is_disabled":true,"rental_uris":{"android":"levelo://app?vid=40ca90ea-9465-47d2-a08a-277a2591b568","ios":"levelo://app?vid=40ca90ea-9465-47d2-a08a-277a2591b568"},"vehicle_type_id":"4","last_reported":1732896723,"current_range_meters":0,"station_id":"ce4bhf92rcd13ifvqf40","pricing_plan_id":"cebpf4jnsgd1na2vs0mg"},{"bike_id":"9e9dcd02-879d-494d-96c6-4e4120f62a9f","system_id":"levelo_inurba_marseille","lat":43.28418,"lon":5.35004,"is_reserved":false,"is_disabled":false,"rental_uris":{"android":"levelo://app?vid=9e9dcd02-879d-494d-96c6-4e4120f62a9f","ios":"levelo://app?vid=9e9dcd02-879d-494d-96c6-4e4120f62a9f"},"vehicle_type_id":"4","last_reported":1732896723,"current_range_meters":23200,"station_id":"ce4bhbh2rcd13ifvqepg","pricing_plan_id":"cebpf4jnsgd1na2vs0mg"},{"bike_id":"bd85a465-cee1-4d3f-aea4-30a06d06011c","system_id":"levelo_inurba_marseille","lat":43.31328,"lon":5.39695,"is_reserved":false,"is_disabled":false,"rental_uris":{"android":"levelo://app?vid=bd85a465-cee1-4d3f-aea4-30a06d06011c","ios":"levelo://app?vid=bd85a465-cee1-4d3f-aea4-30a06d06011c"},"vehicle_type_id":"4","last_reported":1732896723,"current_range_meters":21600,"station_id":"ce4bgvp2rcd13ifvqcu0","pricing_plan_id":"cebpf4jnsgd1na2vs0mg"},{"bike_id":"54a8da3f-3d12-4892-b84a-6818de5421b1","system_id":"levelo_inurba_marseille","lat":43.28927,"lon":5.38394,"is_reserved":false,"is_disabled":false,"rental_uris":{"android":"levelo://app?vid=54a8da3f-3d12-4892-b84a-6818de5421b1","ios":"levelo://app?vid=54a8da3f-3d12-4892-b84a-6818de5421b1"},"vehicle_type_id":"4","last_reported":1732896723,"current_range_meters":38800,"station_id":"ce4bh612rcd13ifvqe6g","pricing_plan_id":"cebpf4jnsgd1na2vs0mg"},{"bike_id":"b5600d7c-c614-4eb1-9670-99158f9d6037","system_id":"levelo_inurba_marseille","lat":43.32659,"lon":5.40992,"is_reserved":false,"is_disabled":false,"rental_uris":{"android":"levelo://app?vid=b5600d7c-c614-4eb1-9670-99158f9d6037","ios":"levelo://app?vid=b5600d7c-c614-4eb1-9670-99158f9d6037"},"vehicle_type_id":"4","last_reported":1732896723,"current_range_meters":38800,"station_id":"ce4bhpp2rcd13ifvqhgg","pricing_plan_id":"cebpf4jnsgd1na2vs0mg"},{"bike_id":"6a609512-d3a8-4df1-b5c7-3355a5b889de","system_id":"levelo_inurba_marseille","lat":43.28284,"lon":5.35077,"is_reserved":false,"is_disabled":true,"rental_uris":{"android":"levelo://app?vid=6a609512-d3a8-4df1-b5c7-3355a5b889de","ios":"levelo://app?vid=6a609512-d3a8-4df1-b5c7-3355a5b889de"},"vehicle_type_id":"4","last_reported":1732896723,"current_range_meters":26000,"station_id":"ce4bhbp2rcd13ifvqerg","pricing_plan_id":"cebpf4jnsgd1na2vs0mg"},{"bike_id":"992bf08a-020a-4c4b-b386-04e4b6026660","system_id":"levelo_inurba_marseille","lat":43.32461,"lon":5.37472,"is_reserved":false,"is_disabled":false,"rental_uris":{"android":"levelo://app?vid=992bf08a-020a-4c4b-b386-04e4b6026660","ios":"levelo://app?vid=992bf08a-020a-4c4b-b386-04e4b6026660"},"vehicle_type_id":"4","last_reported":1732896723,"current_range_meters":12400,"station_id":"","pricing_plan_id":"cebpf4jnsgd1na2vs0mg"},{"bike_id":"00681a86-dde7-4c1f-a87d-0583f30c2291","system_id":"levelo_inurba_marseille","lat":43.28935,"lon":5.36405,"is_reserved":false,"is_disabled":true,"rental_uris":{"android":"levelo://app?vid=00681a86-dde7-4c1f-a87d-0583f30c2291","ios":"levelo://app?vid=00681a86-dde7-4c1f-a87d-0583f30c2291"},"vehicle_type_id":"4","last_reported":1732896723,"current_range_meters":0,"station_id":"ce4bhc92rcd13ifvqetg","pricing_plan_id":"cebpf4jnsgd1na2vs0mg"},{"bike_id":"cb918c46-56a1-4b5d-8e2c-44b9d1140eae","system_id":"levelo_inurba_marseille","lat":43.29872,"lon":5.39749,"is_reserved":false,"is_disabled":false,"rental_uris":{"android":"levelo://app?vid=cb918c46-56a1-4b5d-8e2c-44b9d1140eae","ios":"levelo://app?vid=cb918c46-56a1-4b5d-8e2c-44b9d1140eae"},"vehicle_type_id":"4","last_reported":1732896723,"current_range_meters":26800,"station_id":"ce4bh0h2rcd13ifvqd50","pricing_plan_id":"cebpf4jnsgd1na2vs0mg"},{"bike_id":"9b9b4866-f123-4e9b-bc92-12f1937e5433","system_id":"levelo_inurba_marseille","lat":43.2718,"lon":5.40999,"is_reserved":false,"is_disabled":false,"rental_uris":{"android":"levelo://app?vid=9b9b4866-f123-4e9b-bc92-12f1937e5433","ios":"levelo://app?vid=9b9b4866-f123-4e9b-bc92-12f1937e5433"},"vehicle_type_id":"4","last_reported":1732896723,"current_range_meters":24400,"station_id":"ce4bhl12rcd13ifvqgf0","pricing_plan_id":"cebpf4jnsgd1na2vs0mg"},{"bike_id":"59180aae-b47b-429e-a1b6-cc486fd266c2","system_id":"levelo_inurba_marseille","lat":43.27048,"lon":5.40261,"is_reserved":false,"is_disabled":false,"rental_uris":{"android":"levelo://app?vid=59180aae-b47b-429e-a1b6-cc486fd266c2","ios":"levelo://app?vid=59180aae-b47b-429e-a1b6-cc486fd266c2"},"vehicle_type_id":"4","last_reported":1732896723,"current_range_meters":9200,"station_id":"ce4bhk92rcd13ifvqgc0","pricing_plan_id":"cebpf4jnsgd1na2vs0mg"},{"bike_id":"cb36d33c-a7e6-452d-a9a9-e07eef383057","system_id":"levelo_inurba_marseille","lat":43.29618,"lon":5.37155,"is_reserved":false,"is_disabled":false,"rental_uris":{"android":"levelo://app?vid=cb36d33c-a7e6-452d-a9a9-e07eef383057","ios":"levelo://app?vid=cb36d33c-a7e6-452d-a9a9-e07eef383057"},"vehicle_type_id":"4","last_reported":1732896723,"current_range_meters":10000,"station_id":"ce4bgnh2rcd13ifvqc0g","pricing_plan_id":"cebpf4jnsgd1na2vs0mg"},{"bike_id":"6f7949e1-de87-4a49-8620-fec27e04447f","system_id":"levelo_inurba_marseille","lat":43.3374,"lon":5.39193,"is_reserved":false,"is_disabled":false,"rental_uris":{"android":"levelo://app?vid=6f7949e1-de87-4a49-8620-fec27e04447f","ios":"levelo://app?vid=6f7949e1-de87-4a49-8620-fec27e04447f"},"vehicle_type_id":"4","last_reported":1732896723,"current_range_meters":30400,"station_id":"ce4bhr92rcd13ifvqhsg","pricing_plan_id":"cebpf4jnsgd1na2vs0mg"},{"bike_id":"d6af473c-317d-44a4-ba58-092abf84584f","system_id":"levelo_inurba_marseille","lat":43.22933,"lon":5.3538,"is_reserved":false,"is_disabled":false,"rental_uris":{"android":"levelo://app?vid=d6af473c-317d-44a4-ba58-092abf84584f","ios":"levelo://app?vid=d6af473c-317d-44a4-ba58-092abf84584f"},"vehicle_type_id":"4","last_reported":1732896723,"current_range_meters":38400,"station_id":"cpo3532slgdg3j2ikp40","pricing_plan_id":"cebpf4jnsgd1na2vs0mg"},{"bike_id":"79da6e11-068f-4f85-891a-bf5d6033ae1b","system_id":"levelo_inurba_marseille","lat":43.29188,"lon":5.39321,"is_reserved":false,"is_disabled":true,"rental_uris":{"android":"levelo://app?vid=79da6e11-068f-4f85-891a-bf5d6033ae1b","ios":"levelo://app?vid=79da6e11-068f-4f85-891a-bf5d6033ae1b"},"vehicle_type_id":"4","last_reported":1732896723,"current_range_meters":28000,"station_id":"ce4bh192rcd13ifvqdd0","pricing_plan_id":"cebpf4jnsgd1na2vs0mg"},{"bike_id":"c8e18c54-9b3f-4cd1-ad67-6ca07bf358c8","system_id":"levelo_inurba_marseille","lat":43.33023,"lon":5.39034,"is_reserved":false,"is_disabled":false,"rental_uris":{"android":"levelo://app?vid=c8e18c54-9b3f-4cd1-ad67-6ca07bf358c8","ios":"levelo://app?vid=c8e18c54-9b3f-4cd1-ad67-6ca07bf358c8"},"vehicle_type_id":"4","last_reported":1732896723,"current_range_meters":11600,"station_id":"ce4bhr92rcd13ifvqhrg","pricing_plan_id":"cebpf4jnsgd1na2vs0mg"},{"bike_id":"ea892bfc-250a-4bbc-826d-f378ba2b4d02","system_id":"levelo_inurba_marseille","lat":43.23063,"lon":5.35492,"is_reserved":false,"is_disabled":false,"rental_uris":{"android":"levelo://app?vid=ea892bfc-250a-4bbc-826d-f378ba2b4d02","ios":"levelo://app?vid=ea892bfc-250a-4bbc-826d-f378ba2b4d02"},"vehicle_type_id":"4","last_reported":1732896723,"current_range_meters":19600,"station_id":"cpo3342slgdg3j2ifvpg","pricing_plan_id":"cebpf4jnsgd1na2vs0mg"},{"bike_id":"7b5f11cb-c0c4-485c-b2e8-819c7ab373aa","system_id":"levelo_inurba_marseille","lat":43.32481,"lon":5.36562,"is_reserved":false,"is_disabled":false,"rental_uris":{"android":"levelo://app?vid=7b5f11cb-c0c4-485c-b2e8-819c7ab373aa","ios":"levelo://app?vid=7b5f11cb-c0c4-485c-b2e8-819c7ab373aa"},"vehicle_type_id":"4","last_reported":1732896723,"current_range_meters":18000,"station_id":"ce4bhs12rcd13ifvqhvg","pricing_plan_id":"cebpf4jnsgd1na2vs0mg"},{"bike_id":"b936c6c3-bbbd-4eb4-8c1b-5e3c536b2692","system_id":"levelo_inurba_marseille","lat":43.29191,"lon":5.35804,"is_reserved":false,"is_disabled":false,"rental_uris":{"android":"levelo://app?vid=b936c6c3-bbbd-4eb4-8c1b-5e3c536b2692","ios":"levelo://app?vid=b936c6c3-bbbd-4eb4-8c1b-5e3c536b2692"},"vehicle_type_id":"4","last_reported":1732896723,"current_range_meters":26000,"station_id":"ce4bhb12rcd13ifvqel0","pricing_plan_id":"cebpf4jnsgd1na2vs0mg"},{"bike_id":"4709c438-f4af-415a-a919-d27302b75dca","system_id":"levelo_inurba_marseille","lat":43.23194,"lon":5.35553,"is_reserved":false,"is_disabled":false,"rental_uris":{"android":"levelo://app?vid=4709c438-f4af-415a-a919-d27302b75dca","ios":"levelo://app?vid=4709c438-f4af-415a-a919-d27302b75dca"},"vehicle_type_id":"4","last_reported":1732896723,"current_range_meters":39200,"station_id":"ce4bhu92rcd13ifvqi70","pricing_plan_id":"cebpf4jnsgd1na2vs0mg"},{"bike_id":"19d8d449-a0eb-4c0e-9592-0053e853ceac","system_id":"levelo_inurba_marseille","lat":43.32996,"lon":5.3907,"is_reserved":false,"is_disabled":false,"rental_uris":{"android":"levelo://app?vid=19d8d449-a0eb-4c0e-9592-0053e853ceac","ios":"levelo://app?vid=19d8d449-a0eb-4c0e-9592-0053e853ceac"},"vehicle_type_id":"4","last_reported":1732896723,"current_range_meters":38000,"station_id":"ce4bhr92rcd13ifvqhrg","pricing_plan_id":"cebpf4jnsgd1na2vs0mg"},{"bike_id":"d1486dd5-23d4-40bc-bb61-4a3c8126196a","system_id":"levelo_inurba_marseille","lat":43.27366,"lon":5.36258,"is_reserved":false,"is_disabled":true,"rental_uris":{"android":"levelo://app?vid=d1486dd5-23d4-40bc-bb61-4a3c8126196a","ios":"levelo://app?vid=d1486dd5-23d4-40bc-bb61-4a3c8126196a"},"vehicle_type_id":"4","last_reported":1732896723,"current_range_meters":40000,"station_id":"ce4bhbh2rcd13ifvqeo0","pricing_plan_id":"cebpf4jnsgd1na2vs0mg"},{"bike_id":"c34ed66a-f76b-46d6-b519-b3726d77f086","system_id":"levelo_inurba_marseille","lat":43.268,"lon":5.40271,"is_reserved":false,"is_disabled":false,"rental_uris":{"android":"levelo://app?vid=c34ed66a-f76b-46d6-b519-b3726d77f086","ios":"levelo://app?vid=c34ed66a-f76b-46d6-b519-b3726d77f086"},"vehicle_type_id":"4","last_reported":1732896723,"current_range_meters":38400,"station_id":"ce501612rcd8frsf0b60","pricing_plan_id":"cebpf4jnsgd1na2vs0mg"},{"bike_id":"21d5c762-b8b2-48b8-bc79-51c446f5ad21","system_id":"levelo_inurba_marseille","lat":43.33727,"lon":5.39187,"is_reserved":false,"is_disabled":false,"rental_uris":{"android":"levelo://app?vid=21d5c762-b8b2-48b8-bc79-51c446f5ad21","ios":"levelo://app?vid=21d5c762-b8b2-48b8-bc79-51c446f5ad21"},"vehicle_type_id":"4","last_reported":1732896723,"current_range_meters":27600,"station_id":"ce4bhr92rcd13ifvqhsg","pricing_plan_id":"cebpf4jnsgd1na2vs0mg"},{"bike_id":"470c3da5-33cc-4b16-9f3d-33d39ad4e571","system_id":"levelo_inurba_marseille","lat":43.29912,"lon":5.37472,"is_reserved":false,"is_disabled":false,"rental_uris":{"android":"levelo://app?vid=470c3da5-33cc-4b16-9f3d-33d39ad4e571","ios":"levelo://app?vid=470c3da5-33cc-4b16-9f3d-33d39ad4e571"},"vehicle_type_id":"4","last_reported":1732896723,"current_range_meters":12400,"station_id":"ce4bgjh2rcd13ifvqbg0","pricing_plan_id":"cebpf4jnsgd1na2vs0mg"},{"bike_id":"3586a26e-99aa-41ec-b41d-4a2f1c892145","system_id":"levelo_inurba_marseille","lat":43.27697,"lon":5.38376,"is_reserved":false,"is_disabled":false,"rental_uris":{"android":"levelo://app?vid=3586a26e-99aa-41ec-b41d-4a2f1c892145","ios":"levelo://app?vid=3586a26e-99aa-41ec-b41d-4a2f1c892145"},"vehicle_type_id":"4","last_reported":1732896723,"current_range_meters":30800,"station_id":"ce4bhh92rcd13ifvqfi0","pricing_plan_id":"cebpf4jnsgd1na2vs0mg"},{"bike_id":"3fe13cce-9085-4d62-8af5-3995aabc30c2","system_id":"levelo_inurba_marseille","lat":43.25083,"lon":5.3953,"is_reserved":false,"is_disabled":false,"rental_uris":{"android":"levelo://app?vid=3fe13cce-9085-4d62-8af5-3995aabc30c2","ios":"levelo://app?vid=3fe13cce-9085-4d62-8af5-3995aabc30c2"},"vehicle_type_id":"4","last_reported":1732896723,"current_range_meters":28800,"station_id":"ce4bhm12rcd13ifvqgkg","pricing_plan_id":"cebpf4jnsgd1na2vs0mg"},{"bike_id":"d43bcf0d-16aa-4132-bee9-932c9bcef8f2","system_id":"levelo_inurba_marseille","lat":43.32366,"lon":5.38889,"is_reserved":false,"is_disabled":false,"rental_uris":{"android":"levelo://app?vid=d43bcf0d-16aa-4132-bee9-932c9bcef8f2","ios":"levelo://app?vid=d43bcf0d-16aa-4132-bee9-932c9bcef8f2"},"vehicle_type_id":"4","last_reported":1732896723,"current_range_meters":37600,"station_id":"ce4bhqp2rcd13ifvqhog","pricing_plan_id":"cebpf4jnsgd1na2vs0mg"},{"bike_id":"94ddd20c-e5b2-4c73-a61a-2ac668abc7d2","system_id":"levelo_inurba_marseille","lat":43.32001,"lon":5.38153,"is_reserved":false,"is_disabled":false,"rental_uris":{"android":"levelo://app?vid=94ddd20c-e5b2-4c73-a61a-2ac668abc7d2","ios":"levelo://app?vid=94ddd20c-e5b2-4c73-a61a-2ac668abc7d2"},"vehicle_type_id":"4","last_reported":1732896723,"current_range_meters":27200,"station_id":"ce4bhr12rcd13ifvqhpg","pricing_plan_id":"cebpf4jnsgd1na2vs0mg"},{"bike_id":"fe2c00d6-fab6-472b-887d-35960cae9038","system_id":"levelo_inurba_marseille","lat":43.25933,"lon":5.40907,"is_reserved":false,"is_disabled":true,"rental_uris":{"android":"levelo://app?vid=fe2c00d6-fab6-472b-887d-35960cae9038","ios":"levelo://app?vid=fe2c00d6-fab6-472b-887d-35960cae9038"},"vehicle_type_id":"4","last_reported":1732896723,"current_range_meters":0,"station_id":"ce4bhm92rcd13ifvqglg","pricing_plan_id":"cebpf4jnsgd1na2vs0mg"},{"bike_id":"4035e70a-9b35-49ff-8763-9565717e2e74","system_id":"levelo_inurba_marseille","lat":43.284662,"lon":5.358858,"is_reserved":false,"is_disabled":true,"rental_uris":{"android":"levelo://app?vid=4035e70a-9b35-49ff-8763-9565717e2e74","ios":"levelo://app?vid=4035e70a-9b35-49ff-8763-9565717e2e74"},"vehicle_type_id":"4","last_reported":1732896723,"current_range_meters":9200,"station_id":"ce4bhah2rcd13ifvqei0","pricing_plan_id":"cebpf4jnsgd1na2vs0mg"},{"bike_id":"bc749360-3ce4-4dd6-a0ac-83aa82c323a7","system_id":"levelo_inurba_marseille","lat":43.28148,"lon":5.42643,"is_reserved":false,"is_disabled":true,"rental_uris":{"android":"levelo://app?vid=bc749360-3ce4-4dd6-a0ac-83aa82c323a7","ios":"levelo://app?vid=bc749360-3ce4-4dd6-a0ac-83aa82c323a7"},"vehicle_type_id":"4","last_reported":1732896723,"current_range_meters":38800,"station_id":"ce4bhnh2rcd13ifvqgug","pricing_plan_id":"cebpf4jnsgd1na2vs0mg"},{"bike_id":"1afe294a-2500-4cf3-b6d2-9d2f05df5895","system_id":"levelo_inurba_marseille","lat":43.29307,"lon":5.37186,"is_reserved":false,"is_disabled":false,"rental_uris":{"android":"levelo://app?vid=1afe294a-2500-4cf3-b6d2-9d2f05df5895","ios":"levelo://app?vid=1afe294a-2500-4cf3-b6d2-9d2f05df5895"},"vehicle_type_id":"4","last_reported":1732896723,"current_range_meters":17200,"station_id":"ce4bgh92rcd13ifvqb40","pricing_plan_id":"cebpf4jnsgd1na2vs0mg"},{"bike_id":"4d4c884f-6933-49c0-8899-f9856d90f44d","system_id":"levelo_inurba_marseille","lat":43.29748,"lon":5.37971,"is_reserved":false,"is_disabled":true,"rental_uris":{"android":"levelo://app?vid=4d4c884f-6933-49c0-8899-f9856d90f44d","ios":"levelo://app?vid=4d4c884f-6933-49c0-8899-f9856d90f44d"},"vehicle_type_id":"4","last_reported":1732896723,"current_range_meters":0,"station_id":"","pricing_plan_id":"cebpf4jnsgd1na2vs0mg"},{"bike_id":"0d844b2b-85f3-4728-8dad-399d4d264eb9","system_id":"levelo_inurba_marseille","lat":43.29564,"lon":5.37526,"is_reserved":false,"is_disabled":false,"rental_uris":{"android":"levelo://app?vid=0d844b2b-85f3-4728-8dad-399d4d264eb9","ios":"levelo://app?vid=0d844b2b-85f3-4728-8dad-399d4d264eb9"},"vehicle_type_id":"4","last_reported":1732896723,"current_range_meters":3600,"station_id":"ce4bgh92rcd13ifvqb50","pricing_plan_id":"cebpf4jnsgd1na2vs0mg"},{"bike_id":"90cdb74b-3f4e-40a7-9294-f4fc3e7b124e","system_id":"levelo_inurba_marseille","lat":43.28662,"lon":5.36355,"is_reserved":false,"is_disabled":true,"rental_uris":{"android":"levelo://app?vid=90cdb74b-3f4e-40a7-9294-f4fc3e7b124e","ios":"levelo://app?vid=90cdb74b-3f4e-40a7-9294-f4fc3e7b124e"},"vehicle_type_id":"4","last_reported":1732896723,"current_range_meters":0,"station_id":"","pricing_plan_id":"cebpf4jnsgd1na2vs0mg"},{"bike_id":"02895370-c40c-4c5d-869e-dbb8ac908e5c","system_id":"levelo_inurba_marseille","lat":43.27139,"lon":5.40961,"is_reserved":false,"is_disabled":false,"rental_uris":{"android":"levelo://app?vid=02895370-c40c-4c5d-869e-dbb8ac908e5c","ios":"levelo://app?vid=02895370-c40c-4c5d-869e-dbb8ac908e5c"},"vehicle_type_id":"4","last_reported":1732896723,"current_range_meters":39200,"station_id":"ce4bhl12rcd13ifvqgf0","pricing_plan_id":"cebpf4jnsgd1na2vs0mg"},{"bike_id":"9009be37-c6b1-406b-b0a8-fbab355f715e","system_id":"levelo_inurba_marseille","lat":43.33767,"lon":5.37492,"is_reserved":false,"is_disabled":false,"rental_uris":{"android":"levelo://app?vid=9009be37-c6b1-406b-b0a8-fbab355f715e","ios":"levelo://app?vid=9009be37-c6b1-406b-b0a8-fbab355f715e"},"vehicle_type_id":"4","last_reported":1732896723,"current_range_meters":36000,"station_id":"","pricing_plan_id":"cebpf4jnsgd1na2vs0mg"},{"bike_id":"bb9bb3d8-e7f2-41a1-99f2-47eb7dabe2be","system_id":"levelo_inurba_marseille","lat":43.2706,"lon":5.40256,"is_reserved":false,"is_disabled":true,"rental_uris":{"android":"levelo://app?vid=bb9bb3d8-e7f2-41a1-99f2-47eb7dabe2be","ios":"levelo://app?vid=bb9bb3d8-e7f2-41a1-99f2-47eb7dabe2be"},"vehicle_type_id":"4","last_reported":1732896723,"current_range_meters":0,"station_id":"ce4bhk92rcd13ifvqgc0","pricing_plan_id":"cebpf4jnsgd1na2vs0mg"},{"bike_id":"d391f25a-f996-40c6-b39b-d2d255475ddf","system_id":"levelo_inurba_marseille","lat":43.31367,"lon":5.38494,"is_reserved":false,"is_disabled":false,"rental_uris":{"android":"levelo://app?vid=d391f25a-f996-40c6-b39b-d2d255475ddf","ios":"levelo://app?vid=d391f25a-f996-40c6-b39b-d2d255475ddf"},"vehicle_type_id":"4","last_reported":1732896723,"current_range_meters":19600,"station_id":"ce4bgt92rcd13ifvqcf0","pricing_plan_id":"cebpf4jnsgd1na2vs0mg"},{"bike_id":"d2807836-6000-47ca-b96b-95836404774c","system_id":"levelo_inurba_marseille","lat":43.30215,"lon":5.39399,"is_reserved":false,"is_disabled":true,"rental_uris":{"android":"levelo://app?vid=d2807836-6000-47ca-b96b-95836404774c","ios":"levelo://app?vid=d2807836-6000-47ca-b96b-95836404774c"},"vehicle_type_id":"4","last_reported":1732896723,"current_range_meters":11600,"station_id":"","pricing_plan_id":"cebpf4jnsgd1na2vs0mg"},{"bike_id":"be1ea8ae-bb6c-4cc9-9878-4dd6e7c328d6","system_id":"levelo_inurba_marseille","lat":43.32105,"lon":5.36781,"is_reserved":false,"is_disabled":false,"rental_uris":{"android":"levelo://app?vid=be1ea8ae-bb6c-4cc9-9878-4dd6e7c328d6","ios":"levelo://app?vid=be1ea8ae-bb6c-4cc9-9878-4dd6e7c328d6"},"vehicle_type_id":"4","last_reported":1732896723,"current_range_meters":35600,"station_id":"ce4bhrh2rcd13ifvqhug","pricing_plan_id":"cebpf4jnsgd1na2vs0mg"},{"bike_id":"9589002c-1bab-46c5-9d09-a7efb8d9d194","system_id":"levelo_inurba_marseille","lat":43.28475,"lon":5.34988,"is_reserved":false,"is_disabled":false,"rental_uris":{"android":"levelo://app?vid=9589002c-1bab-46c5-9d09-a7efb8d9d194","ios":"levelo://app?vid=9589002c-1bab-46c5-9d09-a7efb8d9d194"},"vehicle_type_id":"4","last_reported":1732896723,"current_range_meters":17600,"station_id":"","pricing_plan_id":"cebpf4jnsgd1na2vs0mg"},{"bike_id":"5cc87b7b-e8e2-4f57-bf4a-d5911689f04d","system_id":"levelo_inurba_marseille","lat":43.29266,"lon":5.40292,"is_reserved":false,"is_disabled":false,"rental_uris":{"android":"levelo://app?vid=5cc87b7b-e8e2-4f57-bf4a-d5911689f04d","ios":"levelo://app?vid=5cc87b7b-e8e2-4f57-bf4a-d5911689f04d"},"vehicle_type_id":"4","last_reported":1732896723,"current_range_meters":30400,"station_id":"","pricing_plan_id":"cebpf4jnsgd1na2vs0mg"},{"bike_id":"77be03dd-3d99-4535-adc0-1c7477c4a3a3","system_id":"levelo_inurba_marseille","lat":43.32288,"lon":5.38276,"is_reserved":false,"is_disabled":false,"rental_uris":{"android":"levelo://app?vid=77be03dd-3d99-4535-adc0-1c7477c4a3a3","ios":"levelo://app?vid=77be03dd-3d99-4535-adc0-1c7477c4a3a3"},"vehicle_type_id":"4","last_reported":1732896723,"current_range_meters":23200,"station_id":"ce4bhr12rcd13ifvqhqg","pricing_plan_id":"cebpf4jnsgd1na2vs0mg"},{"bike_id":"f74d8be5-3cef-4e99-9520-4670cab78b16","system_id":"levelo_inurba_marseille","lat":43.29513,"lon":5.39408,"is_reserved":false,"is_disabled":false,"rental_uris":{"android":"levelo://app?vid=f74d8be5-3cef-4e99-9520-4670cab78b16","ios":"levelo://app?vid=f74d8be5-3cef-4e99-9520-4670cab78b16"},"vehicle_type_id":"4","last_reported":1732896723,"current_range_meters":10800,"station_id":"ce4bh292rcd13ifvqdf0","pricing_plan_id":"cebpf4jnsgd1na2vs0mg"},{"bike_id":"351bb96c-ee39-4a3d-a772-3ac6a74e49f4","system_id":"levelo_inurba_marseille","lat":43.29692,"lon":5.37295,"is_reserved":false,"is_disabled":false,"rental_uris":{"android":"levelo://app?vid=351bb96c-ee39-4a3d-a772-3ac6a74e49f4","ios":"levelo://app?vid=351bb96c-ee39-4a3d-a772-3ac6a74e49f4"},"vehicle_type_id":"4","last_reported":1732896723,"current_range_meters":36800,"station_id":"ce4bgk12rcd13ifvqbj0","pricing_plan_id":"cebpf4jnsgd1na2vs0mg"},{"bike_id":"01c2ede9-78b5-4b48-b997-6259690d4c7f","system_id":"levelo_inurba_marseille","lat":43.26563,"lon":5.39005,"is_reserved":false,"is_disabled":false,"rental_uris":{"android":"levelo://app?vid=01c2ede9-78b5-4b48-b997-6259690d4c7f","ios":"levelo://app?vid=01c2ede9-78b5-4b48-b997-6259690d4c7f"},"vehicle_type_id":"4","last_reported":1732896723,"current_range_meters":14800,"station_id":"ce4bhe12rcd13ifvqf30","pricing_plan_id":"cebpf4jnsgd1na2vs0mg"},{"bike_id":"eff0c490-709f-461f-9c6b-01b59382de3d","system_id":"levelo_inurba_marseille","lat":43.30332,"lon":5.40432,"is_reserved":false,"is_disabled":false,"rental_uris":{"android":"levelo://app?vid=eff0c490-709f-461f-9c6b-01b59382de3d","ios":"levelo://app?vid=eff0c490-709f-461f-9c6b-01b59382de3d"},"vehicle_type_id":"4","last_reported":1732896723,"current_range_meters":37600,"station_id":"ce4bh012rcd13ifvqd10","pricing_plan_id":"cebpf4jnsgd1na2vs0mg"},{"bike_id":"e8fa7be1-2407-41a7-b843-e7c70f1917ef","system_id":"levelo_inurba_marseille","lat":43.2761,"lon":5.36109,"is_reserved":false,"is_disabled":true,"rental_uris":{"android":"levelo://app?vid=e8fa7be1-2407-41a7-b843-e7c70f1917ef","ios":"levelo://app?vid=e8fa7be1-2407-41a7-b843-e7c70f1917ef"},"vehicle_type_id":"4","last_reported":1732896723,"current_range_meters":0,"station_id":"ce4bgj92rcd13ifvqbe0","pricing_plan_id":"cebpf4jnsgd1na2vs0mg"},{"bike_id":"45cf952c-be8d-4943-9a8c-c944db7055fe","system_id":"levelo_inurba_marseille","lat":43.2318,"lon":5.39993,"is_reserved":false,"is_disabled":false,"rental_uris":{"android":"levelo://app?vid=45cf952c-be8d-4943-9a8c-c944db7055fe","ios":"levelo://app?vid=45cf952c-be8d-4943-9a8c-c944db7055fe"},"vehicle_type_id":"4","last_reported":1732896723,"current_range_meters":14400,"station_id":"ce4bhn12rcd13ifvqgqg","pricing_plan_id":"cebpf4jnsgd1na2vs0mg"},{"bike_id":"df0dfc86-7540-4a0c-8976-9af5497d0a2c","system_id":"levelo_inurba_marseille","lat":43.337444,"lon":5.374475,"is_reserved":false,"is_disabled":false,"rental_uris":{"android":"levelo://app?vid=df0dfc86-7540-4a0c-8976-9af5497d0a2c","ios":"levelo://app?vid=df0dfc86-7540-4a0c-8976-9af5497d0a2c"},"vehicle_type_id":"4","last_reported":1732896723,"current_range_meters":25200,"station_id":"","pricing_plan_id":"cebpf4jnsgd1na2vs0mg"},{"bike_id":"59d023b0-7d60-4a93-b66e-0068ab74c9fe","system_id":"levelo_inurba_marseille","lat":43.31221,"lon":5.36872,"is_reserved":false,"is_disabled":false,"rental_uris":{"android":"levelo://app?vid=59d023b0-7d60-4a93-b66e-0068ab74c9fe","ios":"levelo://app?vid=59d023b0-7d60-4a93-b66e-0068ab74c9fe"},"vehicle_type_id":"4","last_reported":1732896723,"current_range_meters":27200,"station_id":"ce4bgl92rcd13ifvqbq0","pricing_plan_id":"cebpf4jnsgd1na2vs0mg"},{"bike_id":"d6a0ff66-87dd-49de-a09b-bea530d1c972","system_id":"levelo_inurba_marseille","lat":43.25572,"lon":5.38237,"is_reserved":false,"is_disabled":true,"rental_uris":{"android":"levelo://app?vid=d6a0ff66-87dd-49de-a09b-bea530d1c972","ios":"levelo://app?vid=d6a0ff66-87dd-49de-a09b-bea530d1c972"},"vehicle_type_id":"4","last_reported":1732896723,"current_range_meters":32000,"station_id":"ce4bhih2rcd13ifvqfs0","pricing_plan_id":"cebpf4jnsgd1na2vs0mg"},{"bike_id":"d24b3204-9bff-42af-8312-0e15d00df99f","system_id":"levelo_inurba_marseille","lat":43.29629,"lon":5.40596,"is_reserved":false,"is_disabled":true,"rental_uris":{"android":"levelo://app?vid=d24b3204-9bff-42af-8312-0e15d00df99f","ios":"levelo://app?vid=d24b3204-9bff-42af-8312-0e15d00df99f"},"vehicle_type_id":"4","last_reported":1732896723,"current_range_meters":2000,"station_id":"ce4bh0h2rcd13ifvqd60","pricing_plan_id":"cebpf4jnsgd1na2vs0mg"},{"bike_id":"6a643b38-1545-4270-9676-8a5616c6fd17","system_id":"levelo_inurba_marseille","lat":43.31369,"lon":5.38369,"is_reserved":false,"is_disabled":false,"rental_uris":{"android":"levelo://app?vid=6a643b38-1545-4270-9676-8a5616c6fd17","ios":"levelo://app?vid=6a643b38-1545-4270-9676-8a5616c6fd17"},"vehicle_type_id":"4","last_reported":1732896723,"current_range_meters":28000,"station_id":"","pricing_plan_id":"cebpf4jnsgd1na2vs0mg"},{"bike_id":"8e940a19-189a-4a2b-9a2a-6923ab2a6164","system_id":"levelo_inurba_marseille","lat":43.30326,"lon":5.40434,"is_reserved":false,"is_disabled":false,"rental_uris":{"android":"levelo://app?vid=8e940a19-189a-4a2b-9a2a-6923ab2a6164","ios":"levelo://app?vid=8e940a19-189a-4a2b-9a2a-6923ab2a6164"},"vehicle_type_id":"4","last_reported":1732896723,"current_range_meters":37600,"station_id":"ce4bh012rcd13ifvqd10","pricing_plan_id":"cebpf4jnsgd1na2vs0mg"},{"bike_id":"8bb928e1-2325-4dc0-9124-252ce9f22c11","system_id":"levelo_inurba_marseille","lat":43.28617,"lon":5.35102,"is_reserved":false,"is_disabled":false,"rental_uris":{"android":"levelo://app?vid=8bb928e1-2325-4dc0-9124-252ce9f22c11","ios":"levelo://app?vid=8bb928e1-2325-4dc0-9124-252ce9f22c11"},"vehicle_type_id":"4","last_reported":1732896723,"current_range_meters":20000,"station_id":"ce4bhch2rcd13ifvqeug","pricing_plan_id":"cebpf4jnsgd1na2vs0mg"},{"bike_id":"3ca8d527-6c31-4160-8bc9-0dbae13780f9","system_id":"levelo_inurba_marseille","lat":43.28465,"lon":5.35885,"is_reserved":false,"is_disabled":true,"rental_uris":{"android":"levelo://app?vid=3ca8d527-6c31-4160-8bc9-0dbae13780f9","ios":"levelo://app?vid=3ca8d527-6c31-4160-8bc9-0dbae13780f9"},"vehicle_type_id":"4","last_reported":1732896723,"current_range_meters":22800,"station_id":"ce4bhah2rcd13ifvqei0","pricing_plan_id":"cebpf4jnsgd1na2vs0mg"},{"bike_id":"a985c880-13b0-471f-be68-7059b51df585","system_id":"levelo_inurba_marseille","lat":43.267951,"lon":5.402736,"is_reserved":false,"is_disabled":true,"rental_uris":{"android":"levelo://app?vid=a985c880-13b0-471f-be68-7059b51df585","ios":"levelo://app?vid=a985c880-13b0-471f-be68-7059b51df585"},"vehicle_type_id":"4","last_reported":1732896723,"current_range_meters":400,"station_id":"ce501612rcd8frsf0b60","pricing_plan_id":"cebpf4jnsgd1na2vs0mg"},{"bike_id":"14bc0bec-05e4-4dd2-822f-e4dd1fdac057","system_id":"levelo_inurba_marseille","lat":43.28156,"lon":5.42645,"is_reserved":false,"is_disabled":true,"rental_uris":{"android":"levelo://app?vid=14bc0bec-05e4-4dd2-822f-e4dd1fdac057","ios":"levelo://app?vid=14bc0bec-05e4-4dd2-822f-e4dd1fdac057"},"vehicle_type_id":"4","last_reported":1732896723,"current_range_meters":0,"station_id":"ce4bhnh2rcd13ifvqgug","pricing_plan_id":"cebpf4jnsgd1na2vs0mg"},{"bike_id":"4a2be555-d056-454c-bed3-fe781ba86f8e","system_id":"levelo_inurba_marseille","lat":43.25889,"lon":5.39954,"is_reserved":false,"is_disabled":true,"rental_uris":{"android":"levelo://app?vid=4a2be555-d056-454c-bed3-fe781ba86f8e","ios":"levelo://app?vid=4a2be555-d056-454c-bed3-fe781ba86f8e"},"vehicle_type_id":"4","last_reported":1732896723,"current_range_meters":8000,"station_id":"","pricing_plan_id":"cebpf4jnsgd1na2vs0mg"},{"bike_id":"2752093b-0fad-49e6-bd7d-2cd12aa7097a","system_id":"levelo_inurba_marseille","lat":43.296118,"lon":5.375471,"is_reserved":false,"is_disabled":false,"rental_uris":{"android":"levelo://app?vid=2752093b-0fad-49e6-bd7d-2cd12aa7097a","ios":"levelo://app?vid=2752093b-0fad-49e6-bd7d-2cd12aa7097a"},"vehicle_type_id":"4","last_reported":1732896723,"current_range_meters":35600,"station_id":"ce4bgh92rcd13ifvqb50","pricing_plan_id":"cebpf4jnsgd1na2vs0mg"},{"bike_id":"74f23ffc-9be2-4ce9-b233-6490342bcf82","system_id":"levelo_inurba_marseille","lat":43.24166,"lon":5.36395,"is_reserved":false,"is_disabled":false,"rental_uris":{"android":"levelo://app?vid=74f23ffc-9be2-4ce9-b233-6490342bcf82","ios":"levelo://app?vid=74f23ffc-9be2-4ce9-b233-6490342bcf82"},"vehicle_type_id":"4","last_reported":1732896723,"current_range_meters":9200,"station_id":"cpo36qri1sfpv3e86is0","pricing_plan_id":"cebpf4jnsgd1na2vs0mg"},{"bike_id":"3d372dcc-7200-48b7-a83f-f2996a8f60a5","system_id":"levelo_inurba_marseille","lat":43.27948,"lon":5.41049,"is_reserved":false,"is_disabled":true,"rental_uris":{"android":"levelo://app?vid=3d372dcc-7200-48b7-a83f-f2996a8f60a5","ios":"levelo://app?vid=3d372dcc-7200-48b7-a83f-f2996a8f60a5"},"vehicle_type_id":"4","last_reported":1732896723,"current_range_meters":0,"station_id":"ce4bhnp2rcd13ifvqh0g","pricing_plan_id":"cebpf4jnsgd1na2vs0mg"},{"bike_id":"0bbf28fd-1f4b-44c9-8607-cbae19b1b9ef","system_id":"levelo_inurba_marseille","lat":43.28432,"lon":5.34996,"is_reserved":false,"is_disabled":false,"rental_uris":{"android":"levelo://app?vid=0bbf28fd-1f4b-44c9-8607-cbae19b1b9ef","ios":"levelo://app?vid=0bbf28fd-1f4b-44c9-8607-cbae19b1b9ef"},"vehicle_type_id":"4","last_reported":1732896723,"current_range_meters":22000,"station_id":"ce4bhbh2rcd13ifvqepg","pricing_plan_id":"cebpf4jnsgd1na2vs0mg"},{"bike_id":"80ee5806-271f-4b24-a602-2dc27d804313","system_id":"levelo_inurba_marseille","lat":43.32104,"lon":5.36776,"is_reserved":false,"is_disabled":false,"rental_uris":{"android":"levelo://app?vid=80ee5806-271f-4b24-a602-2dc27d804313","ios":"levelo://app?vid=80ee5806-271f-4b24-a602-2dc27d804313"},"vehicle_type_id":"4","last_reported":1732896723,"current_range_meters":14800,"station_id":"ce4bhrh2rcd13ifvqhug","pricing_plan_id":"cebpf4jnsgd1na2vs0mg"},{"bike_id":"a99e441f-fcb3-4edf-8132-a5c34ea369bf","system_id":"levelo_inurba_marseille","lat":43.26945,"lon":5.40251,"is_reserved":false,"is_disabled":true,"rental_uris":{"android":"levelo://app?vid=a99e441f-fcb3-4edf-8132-a5c34ea369bf","ios":"levelo://app?vid=a99e441f-fcb3-4edf-8132-a5c34ea369bf"},"vehicle_type_id":"4","last_reported":1732896723,"current_range_meters":0,"station_id":"cjm6bp8fraef2m0cb0m0","pricing_plan_id":"cebpf4jnsgd1na2vs0mg"},{"bike_id":"d425e597-1d41-4973-9b9e-2cfda59b9249","system_id":"levelo_inurba_marseille","lat":43.29415,"lon":5.38626,"is_reserved":false,"is_disabled":false,"rental_uris":{"android":"levelo://app?vid=d425e597-1d41-4973-9b9e-2cfda59b9249","ios":"levelo://app?vid=d425e597-1d41-4973-9b9e-2cfda59b9249"},"vehicle_type_id":"4","last_reported":1732896723,"current_range_meters":27200,"station_id":"ce4bh2h2rcd13ifvqdh0","pricing_plan_id":"cebpf4jnsgd1na2vs0mg"},{"bike_id":"95552907-0356-43ec-b4f2-2250e59f71c5","system_id":"levelo_inurba_marseille","lat":43.27907,"lon":5.38016,"is_reserved":false,"is_disabled":false,"rental_uris":{"android":"levelo://app?vid=95552907-0356-43ec-b4f2-2250e59f71c5","ios":"levelo://app?vid=95552907-0356-43ec-b4f2-2250e59f71c5"},"vehicle_type_id":"4","last_reported":1732896723,"current_range_meters":7200,"station_id":"ce4bhf92rcd13ifvqf50","pricing_plan_id":"cebpf4jnsgd1na2vs0mg"},{"bike_id":"a0accefe-c99e-4cb9-8f29-6e44170ffa13","system_id":"levelo_inurba_marseille","lat":43.30414,"lon":5.39757,"is_reserved":false,"is_disabled":true,"rental_uris":{"android":"levelo://app?vid=a0accefe-c99e-4cb9-8f29-6e44170ffa13","ios":"levelo://app?vid=a0accefe-c99e-4cb9-8f29-6e44170ffa13"},"vehicle_type_id":"4","last_reported":1732896723,"current_range_meters":36800,"station_id":"ce4bh092rcd13ifvqd20","pricing_plan_id":"cebpf4jnsgd1na2vs0mg"},{"bike_id":"caec5743-9551-49a1-bc6f-66ea9df752cc","system_id":"levelo_inurba_marseille","lat":43.33029,"lon":5.39033,"is_reserved":false,"is_disabled":false,"rental_uris":{"android":"levelo://app?vid=caec5743-9551-49a1-bc6f-66ea9df752cc","ios":"levelo://app?vid=caec5743-9551-49a1-bc6f-66ea9df752cc"},"vehicle_type_id":"4","last_reported":1732896723,"current_range_meters":35200,"station_id":"ce4bhr92rcd13ifvqhrg","pricing_plan_id":"cebpf4jnsgd1na2vs0mg"},{"bike_id":"254e9d35-e7d8-41e5-b9ed-505922830097","system_id":"levelo_inurba_marseille","lat":43.2897,"lon":5.37842,"is_reserved":false,"is_disabled":false,"rental_uris":{"android":"levelo://app?vid=254e9d35-e7d8-41e5-b9ed-505922830097","ios":"levelo://app?vid=254e9d35-e7d8-41e5-b9ed-505922830097"},"vehicle_type_id":"4","last_reported":1732896723,"current_range_meters":4400,"station_id":"ce4bh9p2rcd13ifvqed0","pricing_plan_id":"cebpf4jnsgd1na2vs0mg"},{"bike_id":"1c39b0eb-3745-4d84-a5f1-db44aeb990d2","system_id":"levelo_inurba_marseille","lat":43.28943,"lon":5.36414,"is_reserved":false,"is_disabled":false,"rental_uris":{"android":"levelo://app?vid=1c39b0eb-3745-4d84-a5f1-db44aeb990d2","ios":"levelo://app?vid=1c39b0eb-3745-4d84-a5f1-db44aeb990d2"},"vehicle_type_id":"4","last_reported":1732896723,"current_range_meters":24400,"station_id":"ce4bhc92rcd13ifvqetg","pricing_plan_id":"cebpf4jnsgd1na2vs0mg"},{"bike_id":"81d9f7be-c3c6-4233-bf11-948e6f22debc","system_id":"levelo_inurba_marseille","lat":43.32361,"lon":5.38884,"is_reserved":false,"is_disabled":false,"rental_uris":{"android":"levelo://app?vid=81d9f7be-c3c6-4233-bf11-948e6f22debc","ios":"levelo://app?vid=81d9f7be-c3c6-4233-bf11-948e6f22debc"},"vehicle_type_id":"4","last_reported":1732896723,"current_range_meters":36400,"station_id":"ce4bhqp2rcd13ifvqhog","pricing_plan_id":"cebpf4jnsgd1na2vs0mg"},{"bike_id":"2860b59e-ca9d-40bb-aa92-76539ae1d5f6","system_id":"levelo_inurba_marseille","lat":43.32004,"lon":5.3817,"is_reserved":false,"is_disabled":false,"rental_uris":{"android":"levelo://app?vid=2860b59e-ca9d-40bb-aa92-76539ae1d5f6","ios":"levelo://app?vid=2860b59e-ca9d-40bb-aa92-76539ae1d5f6"},"vehicle_type_id":"4","last_reported":1732896723,"current_range_meters":34800,"station_id":"ce4bhr12rcd13ifvqhpg","pricing_plan_id":"cebpf4jnsgd1na2vs0mg"},{"bike_id":"718da9df-de7f-4f54-97c8-893f1406bb19","system_id":"levelo_inurba_marseille","lat":43.29527,"lon":5.38549,"is_reserved":false,"is_disabled":false,"rental_uris":{"android":"levelo://app?vid=718da9df-de7f-4f54-97c8-893f1406bb19","ios":"levelo://app?vid=718da9df-de7f-4f54-97c8-893f1406bb19"},"vehicle_type_id":"4","last_reported":1732896723,"current_range_meters":5600,"station_id":"ce4bgih2rcd13ifvqba0","pricing_plan_id":"cebpf4jnsgd1na2vs0mg"},{"bike_id":"dd9e204a-eb61-43d7-b97c-28cf52ab8d4e","system_id":"levelo_inurba_marseille","lat":43.30265,"lon":5.37732,"is_reserved":false,"is_disabled":false,"rental_uris":{"android":"levelo://app?vid=dd9e204a-eb61-43d7-b97c-28cf52ab8d4e","ios":"levelo://app?vid=dd9e204a-eb61-43d7-b97c-28cf52ab8d4e"},"vehicle_type_id":"4","last_reported":1732896723,"current_range_meters":24000,"station_id":"ce4bguh2rcd13ifvqcj0","pricing_plan_id":"cebpf4jnsgd1na2vs0mg"},{"bike_id":"29a80c71-9648-4a26-b6c9-5f69092eaa01","system_id":"levelo_inurba_marseille","lat":43.27067,"lon":5.42273,"is_reserved":false,"is_disabled":true,"rental_uris":{"android":"levelo://app?vid=29a80c71-9648-4a26-b6c9-5f69092eaa01","ios":"levelo://app?vid=29a80c71-9648-4a26-b6c9-5f69092eaa01"},"vehicle_type_id":"4","last_reported":1732896723,"current_range_meters":38800,"station_id":"ce4bhk92rcd13ifvqgb0","pricing_plan_id":"cebpf4jnsgd1na2vs0mg"},{"bike_id":"8a1cfcec-41e8-462c-bd1d-f29828e7ae10","system_id":"levelo_inurba_marseille","lat":43.30479,"lon":5.36735,"is_reserved":false,"is_disabled":false,"rental_uris":{"android":"levelo://app?vid=8a1cfcec-41e8-462c-bd1d-f29828e7ae10","ios":"levelo://app?vid=8a1cfcec-41e8-462c-bd1d-f29828e7ae10"},"vehicle_type_id":"4","last_reported":1732896723,"current_range_meters":3600,"station_id":"","pricing_plan_id":"cebpf4jnsgd1na2vs0mg"},{"bike_id":"33fee591-6380-4f3c-b085-e5081ac3f192","system_id":"levelo_inurba_marseille","lat":43.23192,"lon":5.35553,"is_reserved":false,"is_disabled":false,"rental_uris":{"android":"levelo://app?vid=33fee591-6380-4f3c-b085-e5081ac3f192","ios":"levelo://app?vid=33fee591-6380-4f3c-b085-e5081ac3f192"},"vehicle_type_id":"4","last_reported":1732896723,"current_range_meters":18800,"station_id":"ce4bhu92rcd13ifvqi70","pricing_plan_id":"cebpf4jnsgd1na2vs0mg"},{"bike_id":"5b6140a7-7f65-4ca3-a3f2-419ab04c93da","system_id":"levelo_inurba_marseille","lat":43.22929,"lon":5.35377,"is_reserved":false,"is_disabled":false,"rental_uris":{"android":"levelo://app?vid=5b6140a7-7f65-4ca3-a3f2-419ab04c93da","ios":"levelo://app?vid=5b6140a7-7f65-4ca3-a3f2-419ab04c93da"},"vehicle_type_id":"4","last_reported":1732896723,"current_range_meters":27600,"station_id":"cpo3532slgdg3j2ikp40","pricing_plan_id":"cebpf4jnsgd1na2vs0mg"},{"bike_id":"0174841e-8011-4a7b-bd18-480101bee765","system_id":"levelo_inurba_marseille","lat":43.23969,"lon":5.36629,"is_reserved":false,"is_disabled":true,"rental_uris":{"android":"levelo://app?vid=0174841e-8011-4a7b-bd18-480101bee765","ios":"levelo://app?vid=0174841e-8011-4a7b-bd18-480101bee765"},"vehicle_type_id":"4","last_reported":1732896723,"current_range_meters":800,"station_id":"ce4bhi12rcd13ifvqfp0","pricing_plan_id":"cebpf4jnsgd1na2vs0mg"},{"bike_id":"52f63bfd-6e0e-4a3d-8b5a-91529a79fbfa","system_id":"levelo_inurba_marseille","lat":43.28161,"lon":5.42647,"is_reserved":false,"is_disabled":true,"rental_uris":{"android":"levelo://app?vid=52f63bfd-6e0e-4a3d-8b5a-91529a79fbfa","ios":"levelo://app?vid=52f63bfd-6e0e-4a3d-8b5a-91529a79fbfa"},"vehicle_type_id":"4","last_reported":1732896723,"current_range_meters":800,"station_id":"ce4bhnh2rcd13ifvqgug","pricing_plan_id":"cebpf4jnsgd1na2vs0mg"},{"bike_id":"58ca60a4-d1e6-453f-a430-5f01999840d4","system_id":"levelo_inurba_marseille","lat":43.31235,"lon":5.36863,"is_reserved":false,"is_disabled":false,"rental_uris":{"android":"levelo://app?vid=58ca60a4-d1e6-453f-a430-5f01999840d4","ios":"levelo://app?vid=58ca60a4-d1e6-453f-a430-5f01999840d4"},"vehicle_type_id":"4","last_reported":1732896723,"current_range_meters":30800,"station_id":"ce4bgl92rcd13ifvqbq0","pricing_plan_id":"cebpf4jnsgd1na2vs0mg"},{"bike_id":"0e12c8ab-d826-4d5e-aba0-1dca9a03693f","system_id":"levelo_inurba_marseille","lat":43.25939,"lon":5.40903,"is_reserved":false,"is_disabled":false,"rental_uris":{"android":"levelo://app?vid=0e12c8ab-d826-4d5e-aba0-1dca9a03693f","ios":"levelo://app?vid=0e12c8ab-d826-4d5e-aba0-1dca9a03693f"},"vehicle_type_id":"4","last_reported":1732896723,"current_range_meters":3200,"station_id":"ce4bhm92rcd13ifvqglg","pricing_plan_id":"cebpf4jnsgd1na2vs0mg"},{"bike_id":"759518f4-9f32-4b72-97fe-df61c6c7bd05","system_id":"levelo_inurba_marseille","lat":43.31272,"lon":5.40172,"is_reserved":false,"is_disabled":true,"rental_uris":{"android":"levelo://app?vid=759518f4-9f32-4b72-97fe-df61c6c7bd05","ios":"levelo://app?vid=759518f4-9f32-4b72-97fe-df61c6c7bd05"},"vehicle_type_id":"4","last_reported":1732896723,"current_range_meters":6400,"station_id":"ce4bh092rcd13ifvqd30","pricing_plan_id":"cebpf4jnsgd1na2vs0mg"},{"bike_id":"4d8c52a6-898a-483a-af2c-690fbaafb5d1","system_id":"levelo_inurba_marseille","lat":43.24996,"lon":5.38936,"is_reserved":false,"is_disabled":true,"rental_uris":{"android":"levelo://app?vid=4d8c52a6-898a-483a-af2c-690fbaafb5d1","ios":"levelo://app?vid=4d8c52a6-898a-483a-af2c-690fbaafb5d1"},"vehicle_type_id":"4","last_reported":1732896723,"current_range_meters":0,"station_id":"ce4bhgp2rcd13ifvqfd0","pricing_plan_id":"cebpf4jnsgd1na2vs0mg"},{"bike_id":"557ded28-ae76-4da3-a50d-19bba6411c22","system_id":"levelo_inurba_marseille","lat":43.30262,"lon":5.37708,"is_reserved":false,"is_disabled":false,"rental_uris":{"android":"levelo://app?vid=557ded28-ae76-4da3-a50d-19bba6411c22","ios":"levelo://app?vid=557ded28-ae76-4da3-a50d-19bba6411c22"},"vehicle_type_id":"4","last_reported":1732896723,"current_range_meters":24800,"station_id":"ce4bguh2rcd13ifvqcj0","pricing_plan_id":"cebpf4jnsgd1na2vs0mg"},{"bike_id":"226521fb-2ed2-4f7e-9c4a-60ee6ee3ae6c","system_id":"levelo_inurba_marseille","lat":43.31213,"lon":5.36836,"is_reserved":false,"is_disabled":false,"rental_uris":{"android":"levelo://app?vid=226521fb-2ed2-4f7e-9c4a-60ee6ee3ae6c","ios":"levelo://app?vid=226521fb-2ed2-4f7e-9c4a-60ee6ee3ae6c"},"vehicle_type_id":"4","last_reported":1732896723,"current_range_meters":38800,"station_id":"ce4bgl92rcd13ifvqbq0","pricing_plan_id":"cebpf4jnsgd1na2vs0mg"},{"bike_id":"761e9d1f-8f74-441c-b33d-5b3257bd2e4c","system_id":"levelo_inurba_marseille","lat":43.30291,"lon":5.37806,"is_reserved":false,"is_disabled":false,"rental_uris":{"android":"levelo://app?vid=761e9d1f-8f74-441c-b33d-5b3257bd2e4c","ios":"levelo://app?vid=761e9d1f-8f74-441c-b33d-5b3257bd2e4c"},"vehicle_type_id":"4","last_reported":1732896723,"current_range_meters":6000,"station_id":"","pricing_plan_id":"cebpf4jnsgd1na2vs0mg"},{"bike_id":"bdc33f53-6c1b-42d3-918c-cf05df8a2544","system_id":"levelo_inurba_marseille","lat":43.30464,"lon":5.37988,"is_reserved":false,"is_disabled":false,"rental_uris":{"android":"levelo://app?vid=bdc33f53-6c1b-42d3-918c-cf05df8a2544","ios":"levelo://app?vid=bdc33f53-6c1b-42d3-918c-cf05df8a2544"},"vehicle_type_id":"4","last_reported":1732896723,"current_range_meters":28400,"station_id":"","pricing_plan_id":"cebpf4jnsgd1na2vs0mg"},{"bike_id":"90589d3c-c27d-41de-b7ab-7085b76b35f2","system_id":"levelo_inurba_marseille","lat":43.28031,"lon":5.36955,"is_reserved":false,"is_disabled":false,"rental_uris":{"android":"levelo://app?vid=90589d3c-c27d-41de-b7ab-7085b76b35f2","ios":"levelo://app?vid=90589d3c-c27d-41de-b7ab-7085b76b35f2"},"vehicle_type_id":"4","last_reported":1732896723,"current_range_meters":36800,"station_id":"ce4bha12rcd13ifvqef0","pricing_plan_id":"cebpf4jnsgd1na2vs0mg"},{"bike_id":"59fcb076-9260-4bf0-bd73-d983953763f2","system_id":"levelo_inurba_marseille","lat":43.27069,"lon":5.42284,"is_reserved":false,"is_disabled":false,"rental_uris":{"android":"levelo://app?vid=59fcb076-9260-4bf0-bd73-d983953763f2","ios":"levelo://app?vid=59fcb076-9260-4bf0-bd73-d983953763f2"},"vehicle_type_id":"4","last_reported":1732896723,"current_range_meters":8000,"station_id":"ce4bhk92rcd13ifvqgb0","pricing_plan_id":"cebpf4jnsgd1na2vs0mg"},{"bike_id":"b31868b1-3f91-44bf-94fb-e312fe455b3f","system_id":"levelo_inurba_marseille","lat":43.31483,"lon":5.3731,"is_reserved":false,"is_disabled":false,"rental_uris":{"android":"levelo://app?vid=b31868b1-3f91-44bf-94fb-e312fe455b3f","ios":"levelo://app?vid=b31868b1-3f91-44bf-94fb-e312fe455b3f"},"vehicle_type_id":"4","last_reported":1732896723,"current_range_meters":37600,"station_id":"ce4bgt12rcd13ifvqcd0","pricing_plan_id":"cebpf4jnsgd1na2vs0mg"},{"bike_id":"76cf05b8-b737-43a2-a8b0-2a3350d05016","system_id":"levelo_inurba_marseille","lat":43.27054,"lon":5.40258,"is_reserved":false,"is_disabled":true,"rental_uris":{"android":"levelo://app?vid=76cf05b8-b737-43a2-a8b0-2a3350d05016","ios":"levelo://app?vid=76cf05b8-b737-43a2-a8b0-2a3350d05016"},"vehicle_type_id":"4","last_reported":1732896723,"current_range_meters":0,"station_id":"ce4bhk92rcd13ifvqgc0","pricing_plan_id":"cebpf4jnsgd1na2vs0mg"},{"bike_id":"23fcaee7-e88f-4e76-9788-0976313d138e","system_id":"levelo_inurba_marseille","lat":43.27905,"lon":5.38017,"is_reserved":false,"is_disabled":false,"rental_uris":{"android":"levelo://app?vid=23fcaee7-e88f-4e76-9788-0976313d138e","ios":"levelo://app?vid=23fcaee7-e88f-4e76-9788-0976313d138e"},"vehicle_type_id":"4","last_reported":1732896723,"current_range_meters":14400,"station_id":"ce4bhf92rcd13ifvqf50","pricing_plan_id":"cebpf4jnsgd1na2vs0mg"},{"bike_id":"2839c06e-dfc6-4bb4-92dd-cd78c43581f0","system_id":"levelo_inurba_marseille","lat":43.23197,"lon":5.35555,"is_reserved":false,"is_disabled":false,"rental_uris":{"android":"levelo://app?vid=2839c06e-dfc6-4bb4-92dd-cd78c43581f0","ios":"levelo://app?vid=2839c06e-dfc6-4bb4-92dd-cd78c43581f0"},"vehicle_type_id":"4","last_reported":1732896723,"current_range_meters":18800,"station_id":"ce4bhu92rcd13ifvqi70","pricing_plan_id":"cebpf4jnsgd1na2vs0mg"},{"bike_id":"a988f333-257b-45f8-8cfe-8cff82baab39","system_id":"levelo_inurba_marseille","lat":43.30136,"lon":5.39856,"is_reserved":false,"is_disabled":false,"rental_uris":{"android":"levelo://app?vid=a988f333-257b-45f8-8cfe-8cff82baab39","ios":"levelo://app?vid=a988f333-257b-45f8-8cfe-8cff82baab39"},"vehicle_type_id":"4","last_reported":1732896723,"current_range_meters":10800,"station_id":"","pricing_plan_id":"cebpf4jnsgd1na2vs0mg"},{"bike_id":"aa80b9ff-903e-4e95-b087-ff37d449e062","system_id":"levelo_inurba_marseille","lat":43.2512,"lon":5.4032,"is_reserved":false,"is_disabled":false,"rental_uris":{"android":"levelo://app?vid=aa80b9ff-903e-4e95-b087-ff37d449e062","ios":"levelo://app?vid=aa80b9ff-903e-4e95-b087-ff37d449e062"},"vehicle_type_id":"4","last_reported":1732896723,"current_range_meters":28000,"station_id":"ce4bhlh2rcd13ifvqgig","pricing_plan_id":"cebpf4jnsgd1na2vs0mg"},{"bike_id":"fe1c6c60-0f4f-4b5c-a7ea-9f2ff8347245","system_id":"levelo_inurba_marseille","lat":43.27619,"lon":5.36109,"is_reserved":false,"is_disabled":true,"rental_uris":{"android":"levelo://app?vid=fe1c6c60-0f4f-4b5c-a7ea-9f2ff8347245","ios":"levelo://app?vid=fe1c6c60-0f4f-4b5c-a7ea-9f2ff8347245"},"vehicle_type_id":"4","last_reported":1732896723,"current_range_meters":0,"station_id":"ce4bgj92rcd13ifvqbe0","pricing_plan_id":"cebpf4jnsgd1na2vs0mg"},{"bike_id":"95e16b67-0d53-4cca-8aaa-2b831d4e43c6","system_id":"levelo_inurba_marseille","lat":43.33021,"lon":5.39036,"is_reserved":false,"is_disabled":false,"rental_uris":{"android":"levelo://app?vid=95e16b67-0d53-4cca-8aaa-2b831d4e43c6","ios":"levelo://app?vid=95e16b67-0d53-4cca-8aaa-2b831d4e43c6"},"vehicle_type_id":"4","last_reported":1732896723,"current_range_meters":34800,"station_id":"ce4bhr92rcd13ifvqhrg","pricing_plan_id":"cebpf4jnsgd1na2vs0mg"},{"bike_id":"ae46a865-3e71-494a-a3ac-dfa6b73338f6","system_id":"levelo_inurba_marseille","lat":43.28256,"lon":5.35078,"is_reserved":false,"is_disabled":false,"rental_uris":{"android":"levelo://app?vid=ae46a865-3e71-494a-a3ac-dfa6b73338f6","ios":"levelo://app?vid=ae46a865-3e71-494a-a3ac-dfa6b73338f6"},"vehicle_type_id":"4","last_reported":1732896723,"current_range_meters":20000,"station_id":"ce4bhbp2rcd13ifvqerg","pricing_plan_id":"cebpf4jnsgd1na2vs0mg"},{"bike_id":"1529e8b4-88f0-4157-9103-000e126aee74","system_id":"levelo_inurba_marseille","lat":43.2925,"lon":5.40912,"is_reserved":false,"is_disabled":true,"rental_uris":{"android":"levelo://app?vid=1529e8b4-88f0-4157-9103-000e126aee74","ios":"levelo://app?vid=1529e8b4-88f0-4157-9103-000e126aee74"},"vehicle_type_id":"4","last_reported":1732896723,"current_range_meters":1200,"station_id":"ce4bh192rcd13ifvqdc0","pricing_plan_id":"cebpf4jnsgd1na2vs0mg"},{"bike_id":"851df60c-ab96-4e19-a3f3-95fe86e4b8a6","system_id":"levelo_inurba_marseille","lat":43.3033,"lon":5.40434,"is_reserved":false,"is_disabled":false,"rental_uris":{"android":"levelo://app?vid=851df60c-ab96-4e19-a3f3-95fe86e4b8a6","ios":"levelo://app?vid=851df60c-ab96-4e19-a3f3-95fe86e4b8a6"},"vehicle_type_id":"4","last_reported":1732896723,"current_range_meters":27200,"station_id":"ce4bh012rcd13ifvqd10","pricing_plan_id":"cebpf4jnsgd1na2vs0mg"},{"bike_id":"5cbf1539-18e9-4c34-b3ac-bb7a0181213c","system_id":"levelo_inurba_marseille","lat":43.31658,"lon":5.37841,"is_reserved":false,"is_disabled":false,"rental_uris":{"android":"levelo://app?vid=5cbf1539-18e9-4c34-b3ac-bb7a0181213c","ios":"levelo://app?vid=5cbf1539-18e9-4c34-b3ac-bb7a0181213c"},"vehicle_type_id":"4","last_reported":1732896723,"current_range_meters":28400,"station_id":"","pricing_plan_id":"cebpf4jnsgd1na2vs0mg"},{"bike_id":"1e5575f3-ab5b-466c-bf06-26ea07f4dd2a","system_id":"levelo_inurba_marseille","lat":43.29372,"lon":5.37839,"is_reserved":false,"is_disabled":false,"rental_uris":{"android":"levelo://app?vid=1e5575f3-ab5b-466c-bf06-26ea07f4dd2a","ios":"levelo://app?vid=1e5575f3-ab5b-466c-bf06-26ea07f4dd2a"},"vehicle_type_id":"4","last_reported":1732896723,"current_range_meters":27200,"station_id":"ce4bgjh2rcd13ifvqbf0","pricing_plan_id":"cebpf4jnsgd1na2vs0mg"},{"bike_id":"b755f26d-34c2-47de-ae6a-d59e75eefbd2","system_id":"levelo_inurba_marseille","lat":43.30608,"lon":5.37228,"is_reserved":false,"is_disabled":false,"rental_uris":{"android":"levelo://app?vid=b755f26d-34c2-47de-ae6a-d59e75eefbd2","ios":"levelo://app?vid=b755f26d-34c2-47de-ae6a-d59e75eefbd2"},"vehicle_type_id":"4","last_reported":1732896723,"current_range_meters":36800,"station_id":"ce4bgqh2rcd13ifvqc4g","pricing_plan_id":"cebpf4jnsgd1na2vs0mg"},{"bike_id":"ce918f2c-7edb-4e7c-bef1-58c24b5d01e7","system_id":"levelo_inurba_marseille","lat":43.28852,"lon":5.35859,"is_reserved":false,"is_disabled":true,"rental_uris":{"android":"levelo://app?vid=ce918f2c-7edb-4e7c-bef1-58c24b5d01e7","ios":"levelo://app?vid=ce918f2c-7edb-4e7c-bef1-58c24b5d01e7"},"vehicle_type_id":"4","last_reported":1732896723,"current_range_meters":1200,"station_id":"ce4bhb12rcd13ifvqem0","pricing_plan_id":"cebpf4jnsgd1na2vs0mg"},{"bike_id":"d9fa7954-40d7-4415-8419-ba32ef80d4f0","system_id":"levelo_inurba_marseille","lat":43.30155,"lon":5.38089,"is_reserved":false,"is_disabled":false,"rental_uris":{"android":"levelo://app?vid=d9fa7954-40d7-4415-8419-ba32ef80d4f0","ios":"levelo://app?vid=d9fa7954-40d7-4415-8419-ba32ef80d4f0"},"vehicle_type_id":"4","last_reported":1732896723,"current_range_meters":38800,"station_id":"ce4bgjp2rcd13ifvqbh0","pricing_plan_id":"cebpf4jnsgd1na2vs0mg"},{"bike_id":"8adbfe39-e0ec-4be6-9392-2eb88840a9ad","system_id":"levelo_inurba_marseille","lat":43.30926,"lon":5.40365,"is_reserved":false,"is_disabled":false,"rental_uris":{"android":"levelo://app?vid=8adbfe39-e0ec-4be6-9392-2eb88840a9ad","ios":"levelo://app?vid=8adbfe39-e0ec-4be6-9392-2eb88840a9ad"},"vehicle_type_id":"4","last_reported":1732896723,"current_range_meters":36400,"station_id":"ce4bgvp2rcd13ifvqct0","pricing_plan_id":"cebpf4jnsgd1na2vs0mg"},{"bike_id":"a5909545-3e09-4859-9fda-9ffe4e6e4883","system_id":"levelo_inurba_marseille","lat":43.23066,"lon":5.35491,"is_reserved":false,"is_disabled":false,"rental_uris":{"android":"levelo://app?vid=a5909545-3e09-4859-9fda-9ffe4e6e4883","ios":"levelo://app?vid=a5909545-3e09-4859-9fda-9ffe4e6e4883"},"vehicle_type_id":"4","last_reported":1732896723,"current_range_meters":16800,"station_id":"cpo3342slgdg3j2ifvpg","pricing_plan_id":"cebpf4jnsgd1na2vs0mg"},{"bike_id":"c54fa7c9-a127-4d75-ac3d-fe8ea889edd3","system_id":"levelo_inurba_marseille","lat":43.30139,"lon":5.39878,"is_reserved":false,"is_disabled":true,"rental_uris":{"android":"levelo://app?vid=c54fa7c9-a127-4d75-ac3d-fe8ea889edd3","ios":"levelo://app?vid=c54fa7c9-a127-4d75-ac3d-fe8ea889edd3"},"vehicle_type_id":"4","last_reported":1732896723,"current_range_meters":26000,"station_id":"ce4bh0h2rcd13ifvqd40","pricing_plan_id":"cebpf4jnsgd1na2vs0mg"},{"bike_id":"c79e9016-c771-4ca5-97b0-4cb56342be14","system_id":"levelo_inurba_marseille","lat":43.32466,"lon":5.36565,"is_reserved":false,"is_disabled":false,"rental_uris":{"android":"levelo://app?vid=c79e9016-c771-4ca5-97b0-4cb56342be14","ios":"levelo://app?vid=c79e9016-c771-4ca5-97b0-4cb56342be14"},"vehicle_type_id":"4","last_reported":1732896723,"current_range_meters":39200,"station_id":"ce4bhs12rcd13ifvqhvg","pricing_plan_id":"cebpf4jnsgd1na2vs0mg"},{"bike_id":"5ca5f593-707e-418d-860f-77df0cf07d4f","system_id":"levelo_inurba_marseille","lat":43.31079,"lon":5.42432,"is_reserved":false,"is_disabled":false,"rental_uris":{"android":"levelo://app?vid=5ca5f593-707e-418d-860f-77df0cf07d4f","ios":"levelo://app?vid=5ca5f593-707e-418d-860f-77df0cf07d4f"},"vehicle_type_id":"4","last_reported":1732896723,"current_range_meters":9600,"station_id":"ce4bhp92rcd13ifvqhag","pricing_plan_id":"cebpf4jnsgd1na2vs0mg"},{"bike_id":"1f3be82a-39fb-49be-9f70-2df7092d6f3c","system_id":"levelo_inurba_marseille","lat":43.32478,"lon":5.3658,"is_reserved":false,"is_disabled":false,"rental_uris":{"android":"levelo://app?vid=1f3be82a-39fb-49be-9f70-2df7092d6f3c","ios":"levelo://app?vid=1f3be82a-39fb-49be-9f70-2df7092d6f3c"},"vehicle_type_id":"4","last_reported":1732896723,"current_range_meters":11600,"station_id":"ce4bhs12rcd13ifvqhvg","pricing_plan_id":"cebpf4jnsgd1na2vs0mg"},{"bike_id":"cb8fd230-de5e-444b-9d13-ecd852759a64","system_id":"levelo_inurba_marseille","lat":43.29354,"lon":5.37856,"is_reserved":false,"is_disabled":false,"rental_uris":{"android":"levelo://app?vid=cb8fd230-de5e-444b-9d13-ecd852759a64","ios":"levelo://app?vid=cb8fd230-de5e-444b-9d13-ecd852759a64"},"vehicle_type_id":"4","last_reported":1732896723,"current_range_meters":26000,"station_id":"ce4bgjh2rcd13ifvqbf0","pricing_plan_id":"cebpf4jnsgd1na2vs0mg"},{"bike_id":"e5951ee3-4a5a-4ebb-b469-096c5188dfa3","system_id":"levelo_inurba_marseille","lat":43.23187,"lon":5.35561,"is_reserved":false,"is_disabled":false,"rental_uris":{"android":"levelo://app?vid=e5951ee3-4a5a-4ebb-b469-096c5188dfa3","ios":"levelo://app?vid=e5951ee3-4a5a-4ebb-b469-096c5188dfa3"},"vehicle_type_id":"4","last_reported":1732896723,"current_range_meters":24000,"station_id":"ce4bhu92rcd13ifvqi70","pricing_plan_id":"cebpf4jnsgd1na2vs0mg"},{"bike_id":"f9a63393-5401-4f98-ae5a-dfbb8291ab6d","system_id":"levelo_inurba_marseille","lat":43.3004,"lon":5.37551,"is_reserved":false,"is_disabled":true,"rental_uris":{"android":"levelo://app?vid=f9a63393-5401-4f98-ae5a-dfbb8291ab6d","ios":"levelo://app?vid=f9a63393-5401-4f98-ae5a-dfbb8291ab6d"},"vehicle_type_id":"4","last_reported":1732896723,"current_range_meters":0,"station_id":"","pricing_plan_id":"cebpf4jnsgd1na2vs0mg"},{"bike_id":"d2300a67-e59d-4c6d-84e8-89c1777cddcc","system_id":"levelo_inurba_marseille","lat":43.3199,"lon":5.38155,"is_reserved":false,"is_disabled":false,"rental_uris":{"android":"levelo://app?vid=d2300a67-e59d-4c6d-84e8-89c1777cddcc","ios":"levelo://app?vid=d2300a67-e59d-4c6d-84e8-89c1777cddcc"},"vehicle_type_id":"4","last_reported":1732896723,"current_range_meters":32400,"station_id":"ce4bhr12rcd13ifvqhpg","pricing_plan_id":"cebpf4jnsgd1na2vs0mg"},{"bike_id":"4f0c1e85-c49b-4785-bb85-73966461f965","system_id":"levelo_inurba_marseille","lat":43.30505,"lon":5.36553,"is_reserved":false,"is_disabled":false,"rental_uris":{"android":"levelo://app?vid=4f0c1e85-c49b-4785-bb85-73966461f965","ios":"levelo://app?vid=4f0c1e85-c49b-4785-bb85-73966461f965"},"vehicle_type_id":"4","last_reported":1732896723,"current_range_meters":18000,"station_id":"","pricing_plan_id":"cebpf4jnsgd1na2vs0mg"},{"bike_id":"cabac214-97da-4859-bf7e-def1ff90e36b","system_id":"levelo_inurba_marseille","lat":43.29332,"lon":5.37858,"is_reserved":false,"is_disabled":false,"rental_uris":{"android":"levelo://app?vid=cabac214-97da-4859-bf7e-def1ff90e36b","ios":"levelo://app?vid=cabac214-97da-4859-bf7e-def1ff90e36b"},"vehicle_type_id":"4","last_reported":1732896723,"current_range_meters":35600,"station_id":"ce4bgjh2rcd13ifvqbf0","pricing_plan_id":"cebpf4jnsgd1na2vs0mg"},{"bike_id":"e5e34561-0c75-4e8c-946c-18fa9869497b","system_id":"levelo_inurba_marseille","lat":43.25813,"lon":5.3944,"is_reserved":false,"is_disabled":false,"rental_uris":{"android":"levelo://app?vid=e5e34561-0c75-4e8c-946c-18fa9869497b","ios":"levelo://app?vid=e5e34561-0c75-4e8c-946c-18fa9869497b"},"vehicle_type_id":"4","last_reported":1732896723,"current_range_meters":19600,"station_id":"ce4bhip2rcd13ifvqft0","pricing_plan_id":"cebpf4jnsgd1na2vs0mg"},{"bike_id":"209edce5-94bd-42b7-894c-233f806592a5","system_id":"levelo_inurba_marseille","lat":43.32368,"lon":5.36782,"is_reserved":false,"is_disabled":false,"rental_uris":{"android":"levelo://app?vid=209edce5-94bd-42b7-894c-233f806592a5","ios":"levelo://app?vid=209edce5-94bd-42b7-894c-233f806592a5"},"vehicle_type_id":"4","last_reported":1732896723,"current_range_meters":33200,"station_id":"ce4bhsh2rcd13ifvqi2g","pricing_plan_id":"cebpf4jnsgd1na2vs0mg"},{"bike_id":"cb90edb8-6b97-4f13-aaf4-7fc553c35336","system_id":"levelo_inurba_marseille","lat":43.31721,"lon":5.37795,"is_reserved":false,"is_disabled":false,"rental_uris":{"android":"levelo://app?vid=cb90edb8-6b97-4f13-aaf4-7fc553c35336","ios":"levelo://app?vid=cb90edb8-6b97-4f13-aaf4-7fc553c35336"},"vehicle_type_id":"4","last_reported":1732896723,"current_range_meters":37600,"station_id":"ce4bgth2rcd13ifvqch0","pricing_plan_id":"cebpf4jnsgd1na2vs0mg"},{"bike_id":"a1de088e-f9bc-437b-86db-027b9d5a0352","system_id":"levelo_inurba_marseille","lat":43.33027,"lon":5.39041,"is_reserved":false,"is_disabled":false,"rental_uris":{"android":"levelo://app?vid=a1de088e-f9bc-437b-86db-027b9d5a0352","ios":"levelo://app?vid=a1de088e-f9bc-437b-86db-027b9d5a0352"},"vehicle_type_id":"4","last_reported":1732896723,"current_range_meters":6800,"station_id":"ce4bhr92rcd13ifvqhrg","pricing_plan_id":"cebpf4jnsgd1na2vs0mg"},{"bike_id":"de8dedfd-c65e-4ce5-b8ec-b5ab34a22a6e","system_id":"levelo_inurba_marseille","lat":43.27068,"lon":5.42282,"is_reserved":false,"is_disabled":true,"rental_uris":{"android":"levelo://app?vid=de8dedfd-c65e-4ce5-b8ec-b5ab34a22a6e","ios":"levelo://app?vid=de8dedfd-c65e-4ce5-b8ec-b5ab34a22a6e"},"vehicle_type_id":"4","last_reported":1732896723,"current_range_meters":39200,"station_id":"ce4bhk92rcd13ifvqgb0","pricing_plan_id":"cebpf4jnsgd1na2vs0mg"},{"bike_id":"c0f4aadd-0594-4032-a62a-639863ccd2f2","system_id":"levelo_inurba_marseille","lat":43.2717,"lon":5.40997,"is_reserved":false,"is_disabled":false,"rental_uris":{"android":"levelo://app?vid=c0f4aadd-0594-4032-a62a-639863ccd2f2","ios":"levelo://app?vid=c0f4aadd-0594-4032-a62a-639863ccd2f2"},"vehicle_type_id":"4","last_reported":1732896723,"current_range_meters":9200,"station_id":"ce4bhl12rcd13ifvqgf0","pricing_plan_id":"cebpf4jnsgd1na2vs0mg"},{"bike_id":"e1fe114b-78f0-4f43-8a06-8bb621515c3f","system_id":"levelo_inurba_marseille","lat":43.30599,"lon":5.37235,"is_reserved":false,"is_disabled":false,"rental_uris":{"android":"levelo://app?vid=e1fe114b-78f0-4f43-8a06-8bb621515c3f","ios":"levelo://app?vid=e1fe114b-78f0-4f43-8a06-8bb621515c3f"},"vehicle_type_id":"4","last_reported":1732896723,"current_range_meters":24000,"station_id":"ce4bgqh2rcd13ifvqc4g","pricing_plan_id":"cebpf4jnsgd1na2vs0mg"},{"bike_id":"f0378b60-1b41-4cbc-8342-fb3172b1e60f","system_id":"levelo_inurba_marseille","lat":43.24127,"lon":5.36682,"is_reserved":false,"is_disabled":false,"rental_uris":{"android":"levelo://app?vid=f0378b60-1b41-4cbc-8342-fb3172b1e60f","ios":"levelo://app?vid=f0378b60-1b41-4cbc-8342-fb3172b1e60f"},"vehicle_type_id":"4","last_reported":1732896723,"current_range_meters":12800,"station_id":"","pricing_plan_id":"cebpf4jnsgd1na2vs0mg"},{"bike_id":"650ebe34-19f1-4337-8178-fe8a76954ab7","system_id":"levelo_inurba_marseille","lat":43.31334,"lon":5.39697,"is_reserved":false,"is_disabled":false,"rental_uris":{"android":"levelo://app?vid=650ebe34-19f1-4337-8178-fe8a76954ab7","ios":"levelo://app?vid=650ebe34-19f1-4337-8178-fe8a76954ab7"},"vehicle_type_id":"4","last_reported":1732896723,"current_range_meters":38400,"station_id":"ce4bgvp2rcd13ifvqcu0","pricing_plan_id":"cebpf4jnsgd1na2vs0mg"},{"bike_id":"47a43e08-c0ab-48e4-8264-39798859023a","system_id":"levelo_inurba_marseille","lat":43.29236,"lon":5.3609,"is_reserved":false,"is_disabled":false,"rental_uris":{"android":"levelo://app?vid=47a43e08-c0ab-48e4-8264-39798859023a","ios":"levelo://app?vid=47a43e08-c0ab-48e4-8264-39798859023a"},"vehicle_type_id":"4","last_reported":1732896723,"current_range_meters":27200,"station_id":"ce4bhbh2rcd13ifvqeqg","pricing_plan_id":"cebpf4jnsgd1na2vs0mg"},{"bike_id":"d1fd7c18-081f-4165-90f6-fbb5157ea749","system_id":"levelo_inurba_marseille","lat":43.27975,"lon":5.38757,"is_reserved":false,"is_disabled":true,"rental_uris":{"android":"levelo://app?vid=d1fd7c18-081f-4165-90f6-fbb5157ea749","ios":"levelo://app?vid=d1fd7c18-081f-4165-90f6-fbb5157ea749"},"vehicle_type_id":"4","last_reported":1732896723,"current_range_meters":0,"station_id":"ce4bhg12rcd13ifvqf80","pricing_plan_id":"cebpf4jnsgd1na2vs0mg"},{"bike_id":"cf002d38-17c9-44fd-9354-c7910c4bd3ff","system_id":"levelo_inurba_marseille","lat":43.33019,"lon":5.39043,"is_reserved":false,"is_disabled":false,"rental_uris":{"android":"levelo://app?vid=cf002d38-17c9-44fd-9354-c7910c4bd3ff","ios":"levelo://app?vid=cf002d38-17c9-44fd-9354-c7910c4bd3ff"},"vehicle_type_id":"4","last_reported":1732896723,"current_range_meters":38400,"station_id":"ce4bhr92rcd13ifvqhrg","pricing_plan_id":"cebpf4jnsgd1na2vs0mg"},{"bike_id":"4c6c1e60-f491-4cde-98bd-cdfe9692b3a0","system_id":"levelo_inurba_marseille","lat":43.299651,"lon":5.371916,"is_reserved":false,"is_disabled":false,"rental_uris":{"android":"levelo://app?vid=4c6c1e60-f491-4cde-98bd-cdfe9692b3a0","ios":"levelo://app?vid=4c6c1e60-f491-4cde-98bd-cdfe9692b3a0"},"vehicle_type_id":"4","last_reported":1732896723,"current_range_meters":8800,"station_id":"ce4bgr92rcd13ifvqc7g","pricing_plan_id":"cebpf4jnsgd1na2vs0mg"},{"bike_id":"43746d86-8a13-4845-9faf-ae69b548d714","system_id":"levelo_inurba_marseille","lat":43.29459,"lon":5.37917,"is_reserved":false,"is_disabled":true,"rental_uris":{"android":"levelo://app?vid=43746d86-8a13-4845-9faf-ae69b548d714","ios":"levelo://app?vid=43746d86-8a13-4845-9faf-ae69b548d714"},"vehicle_type_id":"4","last_reported":1732896723,"current_range_meters":0,"station_id":"","pricing_plan_id":"cebpf4jnsgd1na2vs0mg"},{"bike_id":"b1c2fad3-0769-4c79-84d4-90fac1bef3fe","system_id":"levelo_inurba_marseille","lat":43.28722,"lon":5.36088,"is_reserved":false,"is_disabled":true,"rental_uris":{"android":"levelo://app?vid=b1c2fad3-0769-4c79-84d4-90fac1bef3fe","ios":"levelo://app?vid=b1c2fad3-0769-4c79-84d4-90fac1bef3fe"},"vehicle_type_id":"4","last_reported":1732896723,"current_range_meters":1600,"station_id":"cki0cbj6b192h4jlfktg","pricing_plan_id":"cebpf4jnsgd1na2vs0mg"},{"bike_id":"b625b5ed-e429-4c2c-862b-f3c5e8a5223a","system_id":"levelo_inurba_marseille","lat":43.298052,"lon":5.381164,"is_reserved":false,"is_disabled":false,"rental_uris":{"android":"levelo://app?vid=b625b5ed-e429-4c2c-862b-f3c5e8a5223a","ios":"levelo://app?vid=b625b5ed-e429-4c2c-862b-f3c5e8a5223a"},"vehicle_type_id":"4","last_reported":1732896723,"current_range_meters":28400,"station_id":"ce4bgip2rcd13ifvqbb0","pricing_plan_id":"cebpf4jnsgd1na2vs0mg"},{"bike_id":"81187a9b-b1fc-4dfa-b4a8-c296d7338008","system_id":"levelo_inurba_marseille","lat":43.30328,"lon":5.40435,"is_reserved":false,"is_disabled":false,"rental_uris":{"android":"levelo://app?vid=81187a9b-b1fc-4dfa-b4a8-c296d7338008","ios":"levelo://app?vid=81187a9b-b1fc-4dfa-b4a8-c296d7338008"},"vehicle_type_id":"4","last_reported":1732896723,"current_range_meters":32000,"station_id":"ce4bh012rcd13ifvqd10","pricing_plan_id":"cebpf4jnsgd1na2vs0mg"},{"bike_id":"4c146e36-a287-4387-922e-409f6a850f03","system_id":"levelo_inurba_marseille","lat":43.298767,"lon":5.389095,"is_reserved":false,"is_disabled":false,"rental_uris":{"android":"levelo://app?vid=4c146e36-a287-4387-922e-409f6a850f03","ios":"levelo://app?vid=4c146e36-a287-4387-922e-409f6a850f03"},"vehicle_type_id":"4","last_reported":1732896723,"current_range_meters":8800,"station_id":"ce4bh392rcd13ifvqdl0","pricing_plan_id":"cebpf4jnsgd1na2vs0mg"},{"bike_id":"c41e9656-284b-4495-ac9b-461982f10d89","system_id":"levelo_inurba_marseille","lat":43.267999,"lon":5.40265,"is_reserved":false,"is_disabled":false,"rental_uris":{"android":"levelo://app?vid=c41e9656-284b-4495-ac9b-461982f10d89","ios":"levelo://app?vid=c41e9656-284b-4495-ac9b-461982f10d89"},"vehicle_type_id":"4","last_reported":1732896723,"current_range_meters":35200,"station_id":"ce501612rcd8frsf0b60","pricing_plan_id":"cebpf4jnsgd1na2vs0mg"},{"bike_id":"365137ae-4eab-4c30-8c6b-166049741e73","system_id":"levelo_inurba_marseille","lat":43.28854,"lon":5.3585,"is_reserved":false,"is_disabled":false,"rental_uris":{"android":"levelo://app?vid=365137ae-4eab-4c30-8c6b-166049741e73","ios":"levelo://app?vid=365137ae-4eab-4c30-8c6b-166049741e73"},"vehicle_type_id":"4","last_reported":1732896723,"current_range_meters":21600,"station_id":"ce4bhb12rcd13ifvqem0","pricing_plan_id":"cebpf4jnsgd1na2vs0mg"},{"bike_id":"15e24c31-4292-4084-bcd3-e24f0a31685e","system_id":"levelo_inurba_marseille","lat":43.2843,"lon":5.34996,"is_reserved":false,"is_disabled":true,"rental_uris":{"android":"levelo://app?vid=15e24c31-4292-4084-bcd3-e24f0a31685e","ios":"levelo://app?vid=15e24c31-4292-4084-bcd3-e24f0a31685e"},"vehicle_type_id":"4","last_reported":1732896723,"current_range_meters":38400,"station_id":"ce4bhbh2rcd13ifvqepg","pricing_plan_id":"cebpf4jnsgd1na2vs0mg"},{"bike_id":"60bcfd83-20b5-46ea-b55f-3d3dab37186e","system_id":"levelo_inurba_marseille","lat":43.30437,"lon":5.39747,"is_reserved":false,"is_disabled":true,"rental_uris":{"android":"levelo://app?vid=60bcfd83-20b5-46ea-b55f-3d3dab37186e","ios":"levelo://app?vid=60bcfd83-20b5-46ea-b55f-3d3dab37186e"},"vehicle_type_id":"4","last_reported":1732896723,"current_range_meters":400,"station_id":"ce4bh092rcd13ifvqd20","pricing_plan_id":"cebpf4jnsgd1na2vs0mg"},{"bike_id":"a1b54730-508a-47b9-8cac-9f81c25de5ad","system_id":"levelo_inurba_marseille","lat":43.24547,"lon":5.39526,"is_reserved":false,"is_disabled":false,"rental_uris":{"android":"levelo://app?vid=a1b54730-508a-47b9-8cac-9f81c25de5ad","ios":"levelo://app?vid=a1b54730-508a-47b9-8cac-9f81c25de5ad"},"vehicle_type_id":"4","last_reported":1732896723,"current_range_meters":28000,"station_id":"ce4bhlp2rcd13ifvqgjg","pricing_plan_id":"cebpf4jnsgd1na2vs0mg"},{"bike_id":"b1d67b54-d598-4463-b99d-ab7f17240da0","system_id":"levelo_inurba_marseille","lat":43.2942,"lon":5.38622,"is_reserved":false,"is_disabled":false,"rental_uris":{"android":"levelo://app?vid=b1d67b54-d598-4463-b99d-ab7f17240da0","ios":"levelo://app?vid=b1d67b54-d598-4463-b99d-ab7f17240da0"},"vehicle_type_id":"4","last_reported":1732896723,"current_range_meters":32000,"station_id":"ce4bh2h2rcd13ifvqdh0","pricing_plan_id":"cebpf4jnsgd1na2vs0mg"},{"bike_id":"f538c276-c4de-48d9-ac4e-dc187648a6d3","system_id":"levelo_inurba_marseille","lat":43.29599,"lon":5.38109,"is_reserved":false,"is_disabled":false,"rental_uris":{"android":"levelo://app?vid=f538c276-c4de-48d9-ac4e-dc187648a6d3","ios":"levelo://app?vid=f538c276-c4de-48d9-ac4e-dc187648a6d3"},"vehicle_type_id":"4","last_reported":1732896723,"current_range_meters":32400,"station_id":"ce4bgl12rcd13ifvqbo0","pricing_plan_id":"cebpf4jnsgd1na2vs0mg"},{"bike_id":"9244d9fe-8890-4efa-bf2a-6d9fc44453ad","system_id":"levelo_inurba_marseille","lat":43.26783,"lon":5.39371,"is_reserved":false,"is_disabled":true,"rental_uris":{"android":"levelo://app?vid=9244d9fe-8890-4efa-bf2a-6d9fc44453ad","ios":"levelo://app?vid=9244d9fe-8890-4efa-bf2a-6d9fc44453ad"},"vehicle_type_id":"4","last_reported":1732896723,"current_range_meters":0,"station_id":"ce4bhh12rcd13ifvqfg0","pricing_plan_id":"cebpf4jnsgd1na2vs0mg"},{"bike_id":"9038db11-53c2-4343-8e10-283da25dae7c","system_id":"levelo_inurba_marseille","lat":43.2396,"lon":5.3663,"is_reserved":false,"is_disabled":false,"rental_uris":{"android":"levelo://app?vid=9038db11-53c2-4343-8e10-283da25dae7c","ios":"levelo://app?vid=9038db11-53c2-4343-8e10-283da25dae7c"},"vehicle_type_id":"4","last_reported":1732896723,"current_range_meters":10800,"station_id":"ce4bhi12rcd13ifvqfp0","pricing_plan_id":"cebpf4jnsgd1na2vs0mg"},{"bike_id":"7ae0bcde-090e-48cc-a70f-924651b6bbcc","system_id":"levelo_inurba_marseille","lat":43.25115,"lon":5.40327,"is_reserved":false,"is_disabled":false,"rental_uris":{"android":"levelo://app?vid=7ae0bcde-090e-48cc-a70f-924651b6bbcc","ios":"levelo://app?vid=7ae0bcde-090e-48cc-a70f-924651b6bbcc"},"vehicle_type_id":"4","last_reported":1732896723,"current_range_meters":31200,"station_id":"ce4bhlh2rcd13ifvqgig","pricing_plan_id":"cebpf4jnsgd1na2vs0mg"},{"bike_id":"fc4d15f5-6256-45a3-90d6-77bb4c676955","system_id":"levelo_inurba_marseille","lat":43.296284,"lon":5.377877,"is_reserved":false,"is_disabled":true,"rental_uris":{"android":"levelo://app?vid=fc4d15f5-6256-45a3-90d6-77bb4c676955","ios":"levelo://app?vid=fc4d15f5-6256-45a3-90d6-77bb4c676955"},"vehicle_type_id":"4","last_reported":1732896723,"current_range_meters":28400,"station_id":"","pricing_plan_id":"cebpf4jnsgd1na2vs0mg"},{"bike_id":"5dd87bbb-1650-4282-b368-2d40774ddd04","system_id":"levelo_inurba_marseille","lat":43.27816,"lon":5.40719,"is_reserved":false,"is_disabled":true,"rental_uris":{"android":"levelo://app?vid=5dd87bbb-1650-4282-b368-2d40774ddd04","ios":"levelo://app?vid=5dd87bbb-1650-4282-b368-2d40774ddd04"},"vehicle_type_id":"4","last_reported":1732896723,"current_range_meters":1200,"station_id":"ce4bhnh2rcd13ifvqgtg","pricing_plan_id":"cebpf4jnsgd1na2vs0mg"},{"bike_id":"c88f8730-1176-4717-97e2-17c27b15274f","system_id":"levelo_inurba_marseille","lat":43.23198,"lon":5.35547,"is_reserved":false,"is_disabled":false,"rental_uris":{"android":"levelo://app?vid=c88f8730-1176-4717-97e2-17c27b15274f","ios":"levelo://app?vid=c88f8730-1176-4717-97e2-17c27b15274f"},"vehicle_type_id":"4","last_reported":1732896723,"current_range_meters":40000,"station_id":"ce4bhu92rcd13ifvqi70","pricing_plan_id":"cebpf4jnsgd1na2vs0mg"},{"bike_id":"b73cc118-d242-433a-a7aa-9e1c8230a8e5","system_id":"levelo_inurba_marseille","lat":43.30499,"lon":5.38432,"is_reserved":false,"is_disabled":false,"rental_uris":{"android":"levelo://app?vid=b73cc118-d242-433a-a7aa-9e1c8230a8e5","ios":"levelo://app?vid=b73cc118-d242-433a-a7aa-9e1c8230a8e5"},"vehicle_type_id":"4","last_reported":1732896723,"current_range_meters":10800,"station_id":"ce4bgg92rcd13ifvqb30","pricing_plan_id":"cebpf4jnsgd1na2vs0mg"},{"bike_id":"3e3dcad6-00a3-4d1c-9e27-9a882431d1d9","system_id":"levelo_inurba_marseille","lat":43.29955,"lon":5.371862,"is_reserved":false,"is_disabled":false,"rental_uris":{"android":"levelo://app?vid=3e3dcad6-00a3-4d1c-9e27-9a882431d1d9","ios":"levelo://app?vid=3e3dcad6-00a3-4d1c-9e27-9a882431d1d9"},"vehicle_type_id":"4","last_reported":1732896723,"current_range_meters":22800,"station_id":"ce4bgr92rcd13ifvqc7g","pricing_plan_id":"cebpf4jnsgd1na2vs0mg"},{"bike_id":"5547a441-9653-482c-905c-97a54076438b","system_id":"levelo_inurba_marseille","lat":43.32364,"lon":5.3677,"is_reserved":false,"is_disabled":false,"rental_uris":{"android":"levelo://app?vid=5547a441-9653-482c-905c-97a54076438b","ios":"levelo://app?vid=5547a441-9653-482c-905c-97a54076438b"},"vehicle_type_id":"4","last_reported":1732896723,"current_range_meters":20400,"station_id":"ce4bhsh2rcd13ifvqi2g","pricing_plan_id":"cebpf4jnsgd1na2vs0mg"},{"bike_id":"3bf43d80-312c-4fb0-91e4-b6594ab7fcd8","system_id":"levelo_inurba_marseille","lat":43.29035,"lon":5.38646,"is_reserved":false,"is_disabled":false,"rental_uris":{"android":"levelo://app?vid=3bf43d80-312c-4fb0-91e4-b6594ab7fcd8","ios":"levelo://app?vid=3bf43d80-312c-4fb0-91e4-b6594ab7fcd8"},"vehicle_type_id":"4","last_reported":1732896723,"current_range_meters":9600,"station_id":"ce4bh4p2rcd13ifvqe0g","pricing_plan_id":"cebpf4jnsgd1na2vs0mg"},{"bike_id":"732c0c77-f425-496d-a7a0-a63b3508f5f9","system_id":"levelo_inurba_marseille","lat":43.23958,"lon":5.36634,"is_reserved":false,"is_disabled":true,"rental_uris":{"android":"levelo://app?vid=732c0c77-f425-496d-a7a0-a63b3508f5f9","ios":"levelo://app?vid=732c0c77-f425-496d-a7a0-a63b3508f5f9"},"vehicle_type_id":"4","last_reported":1732896723,"current_range_meters":1600,"station_id":"ce4bhi12rcd13ifvqfp0","pricing_plan_id":"cebpf4jnsgd1na2vs0mg"},{"bike_id":"2545b486-f597-4ecd-8508-05df785b0c49","system_id":"levelo_inurba_marseille","lat":43.33022,"lon":5.39042,"is_reserved":false,"is_disabled":false,"rental_uris":{"android":"levelo://app?vid=2545b486-f597-4ecd-8508-05df785b0c49","ios":"levelo://app?vid=2545b486-f597-4ecd-8508-05df785b0c49"},"vehicle_type_id":"4","last_reported":1732896723,"current_range_meters":39200,"station_id":"ce4bhr92rcd13ifvqhrg","pricing_plan_id":"cebpf4jnsgd1na2vs0mg"},{"bike_id":"53832248-7ea6-4cc6-856c-2b60c3f17998","system_id":"levelo_inurba_marseille","lat":43.29554,"lon":5.42265,"is_reserved":false,"is_disabled":true,"rental_uris":{"android":"levelo://app?vid=53832248-7ea6-4cc6-856c-2b60c3f17998","ios":"levelo://app?vid=53832248-7ea6-4cc6-856c-2b60c3f17998"},"vehicle_type_id":"4","last_reported":1732896723,"current_range_meters":38800,"station_id":"ce4bhph2rcd13ifvqhdg","pricing_plan_id":"cebpf4jnsgd1na2vs0mg"},{"bike_id":"a5f3b64f-3067-4794-bc41-8a200d4da757","system_id":"levelo_inurba_marseille","lat":43.28,"lon":5.40016,"is_reserved":false,"is_disabled":false,"rental_uris":{"android":"levelo://app?vid=a5f3b64f-3067-4794-bc41-8a200d4da757","ios":"levelo://app?vid=a5f3b64f-3067-4794-bc41-8a200d4da757"},"vehicle_type_id":"4","last_reported":1732896723,"current_range_meters":18000,"station_id":"ce4bho92rcd13ifvqh4g","pricing_plan_id":"cebpf4jnsgd1na2vs0mg"},{"bike_id":"dee75da6-e699-469b-8cd8-4cc476678306","system_id":"levelo_inurba_marseille","lat":43.28847,"lon":5.39307,"is_reserved":false,"is_disabled":false,"rental_uris":{"android":"levelo://app?vid=dee75da6-e699-469b-8cd8-4cc476678306","ios":"levelo://app?vid=dee75da6-e699-469b-8cd8-4cc476678306"},"vehicle_type_id":"4","last_reported":1732896723,"current_range_meters":22000,"station_id":"ce4bh2p2rcd13ifvqdi0","pricing_plan_id":"cebpf4jnsgd1na2vs0mg"},{"bike_id":"db3c0f13-7dbe-4ebe-85b5-217dee7a7c71","system_id":"levelo_inurba_marseille","lat":43.26556,"lon":5.37328,"is_reserved":false,"is_disabled":false,"rental_uris":{"android":"levelo://app?vid=db3c0f13-7dbe-4ebe-85b5-217dee7a7c71","ios":"levelo://app?vid=db3c0f13-7dbe-4ebe-85b5-217dee7a7c71"},"vehicle_type_id":"4","last_reported":1732896723,"current_range_meters":38800,"station_id":"ce4bhg12rcd13ifvqf70","pricing_plan_id":"cebpf4jnsgd1na2vs0mg"},{"bike_id":"c88dc827-dab0-4afa-a50a-868d6626e02f","system_id":"levelo_inurba_marseille","lat":43.29587,"lon":5.38094,"is_reserved":false,"is_disabled":true,"rental_uris":{"android":"levelo://app?vid=c88dc827-dab0-4afa-a50a-868d6626e02f","ios":"levelo://app?vid=c88dc827-dab0-4afa-a50a-868d6626e02f"},"vehicle_type_id":"4","last_reported":1732896723,"current_range_meters":2000,"station_id":"ce4bgl12rcd13ifvqbo0","pricing_plan_id":"cebpf4jnsgd1na2vs0mg"},{"bike_id":"ac90dcb9-1da8-4ffe-b21d-c0e55802a8cc","system_id":"levelo_inurba_marseille","lat":43.28424,"lon":5.34988,"is_reserved":false,"is_disabled":false,"rental_uris":{"android":"levelo://app?vid=ac90dcb9-1da8-4ffe-b21d-c0e55802a8cc","ios":"levelo://app?vid=ac90dcb9-1da8-4ffe-b21d-c0e55802a8cc"},"vehicle_type_id":"4","last_reported":1732896723,"current_range_meters":3200,"station_id":"ce4bhbh2rcd13ifvqepg","pricing_plan_id":"cebpf4jnsgd1na2vs0mg"},{"bike_id":"5561d8d2-5b80-45be-85e3-5900dadb75d8","system_id":"levelo_inurba_marseille","lat":43.28416,"lon":5.34995,"is_reserved":false,"is_disabled":false,"rental_uris":{"android":"levelo://app?vid=5561d8d2-5b80-45be-85e3-5900dadb75d8","ios":"levelo://app?vid=5561d8d2-5b80-45be-85e3-5900dadb75d8"},"vehicle_type_id":"4","last_reported":1732896723,"current_range_meters":37600,"station_id":"ce4bhbh2rcd13ifvqepg","pricing_plan_id":"cebpf4jnsgd1na2vs0mg"},{"bike_id":"3737c6cd-3a0a-48ec-9094-b2e0caf11430","system_id":"levelo_inurba_marseille","lat":43.32655,"lon":5.40996,"is_reserved":false,"is_disabled":false,"rental_uris":{"android":"levelo://app?vid=3737c6cd-3a0a-48ec-9094-b2e0caf11430","ios":"levelo://app?vid=3737c6cd-3a0a-48ec-9094-b2e0caf11430"},"vehicle_type_id":"4","last_reported":1732896723,"current_range_meters":18000,"station_id":"ce4bhpp2rcd13ifvqhgg","pricing_plan_id":"cebpf4jnsgd1na2vs0mg"},{"bike_id":"84ed9bc6-597c-4bc6-bb52-93dca41ee6fb","system_id":"levelo_inurba_marseille","lat":43.27184,"lon":5.41004,"is_reserved":false,"is_disabled":false,"rental_uris":{"android":"levelo://app?vid=84ed9bc6-597c-4bc6-bb52-93dca41ee6fb","ios":"levelo://app?vid=84ed9bc6-597c-4bc6-bb52-93dca41ee6fb"},"vehicle_type_id":"4","last_reported":1732896723,"current_range_meters":18800,"station_id":"ce4bhl12rcd13ifvqgf0","pricing_plan_id":"cebpf4jnsgd1na2vs0mg"},{"bike_id":"2853f29b-4ad9-4fc6-a0af-2419821afe19","system_id":"levelo_inurba_marseille","lat":43.3303,"lon":5.39035,"is_reserved":false,"is_disabled":true,"rental_uris":{"android":"levelo://app?vid=2853f29b-4ad9-4fc6-a0af-2419821afe19","ios":"levelo://app?vid=2853f29b-4ad9-4fc6-a0af-2419821afe19"},"vehicle_type_id":"4","last_reported":1732896723,"current_range_meters":1600,"station_id":"ce4bhr92rcd13ifvqhrg","pricing_plan_id":"cebpf4jnsgd1na2vs0mg"},{"bike_id":"bd41a058-9723-4857-bf5f-5b70e3b5b9f4","system_id":"levelo_inurba_marseille","lat":43.313082,"lon":5.39664,"is_reserved":false,"is_disabled":true,"rental_uris":{"android":"levelo://app?vid=bd41a058-9723-4857-bf5f-5b70e3b5b9f4","ios":"levelo://app?vid=bd41a058-9723-4857-bf5f-5b70e3b5b9f4"},"vehicle_type_id":"4","last_reported":1732896723,"current_range_meters":0,"station_id":"ce4bgvp2rcd13ifvqcu0","pricing_plan_id":"cebpf4jnsgd1na2vs0mg"},{"bike_id":"650a69d6-3098-4750-b096-cf88b1eea8db","system_id":"levelo_inurba_marseille","lat":43.31493,"lon":5.37313,"is_reserved":false,"is_disabled":false,"rental_uris":{"android":"levelo://app?vid=650a69d6-3098-4750-b096-cf88b1eea8db","ios":"levelo://app?vid=650a69d6-3098-4750-b096-cf88b1eea8db"},"vehicle_type_id":"4","last_reported":1732896723,"current_range_meters":38000,"station_id":"ce4bgt12rcd13ifvqcd0","pricing_plan_id":"cebpf4jnsgd1na2vs0mg"},{"bike_id":"5207ea01-e0a6-490e-925f-d9b9db97cb38","system_id":"levelo_inurba_marseille","lat":43.2762,"lon":5.36112,"is_reserved":false,"is_disabled":false,"rental_uris":{"android":"levelo://app?vid=5207ea01-e0a6-490e-925f-d9b9db97cb38","ios":"levelo://app?vid=5207ea01-e0a6-490e-925f-d9b9db97cb38"},"vehicle_type_id":"4","last_reported":1732896723,"current_range_meters":27600,"station_id":"ce4bgj92rcd13ifvqbe0","pricing_plan_id":"cebpf4jnsgd1na2vs0mg"},{"bike_id":"fbb69a76-9f06-4ea3-954f-7f4b2f1d4bea","system_id":"levelo_inurba_marseille","lat":43.22926,"lon":5.35376,"is_reserved":false,"is_disabled":false,"rental_uris":{"android":"levelo://app?vid=fbb69a76-9f06-4ea3-954f-7f4b2f1d4bea","ios":"levelo://app?vid=fbb69a76-9f06-4ea3-954f-7f4b2f1d4bea"},"vehicle_type_id":"4","last_reported":1732896723,"current_range_meters":37600,"station_id":"cpo3532slgdg3j2ikp40","pricing_plan_id":"cebpf4jnsgd1na2vs0mg"},{"bike_id":"9e944db9-d48e-4848-b5fa-4af701aee80b","system_id":"levelo_inurba_marseille","lat":48.80797,"lon":2.40127,"is_reserved":false,"is_disabled":true,"rental_uris":{"android":"levelo://app?vid=9e944db9-d48e-4848-b5fa-4af701aee80b","ios":"levelo://app?vid=9e944db9-d48e-4848-b5fa-4af701aee80b"},"vehicle_type_id":"4","last_reported":1732896723,"current_range_meters":18800,"station_id":"","pricing_plan_id":"cebpf4jnsgd1na2vs0mg"},{"bike_id":"6bf96a6a-b60c-41dc-ae1c-b743b2dcb44f","system_id":"levelo_inurba_marseille","lat":43.26207,"lon":5.37443,"is_reserved":false,"is_disabled":false,"rental_uris":{"android":"levelo://app?vid=6bf96a6a-b60c-41dc-ae1c-b743b2dcb44f","ios":"levelo://app?vid=6bf96a6a-b60c-41dc-ae1c-b743b2dcb44f"},"vehicle_type_id":"4","last_reported":1732896723,"current_range_meters":29600,"station_id":"ce4bhgp2rcd13ifvqfc0","pricing_plan_id":"cebpf4jnsgd1na2vs0mg"},{"bike_id":"e5a949e4-26a7-4b0d-85ed-9548d0681b63","system_id":"levelo_inurba_marseille","lat":43.27904,"lon":5.3801,"is_reserved":false,"is_disabled":false,"rental_uris":{"android":"levelo://app?vid=e5a949e4-26a7-4b0d-85ed-9548d0681b63","ios":"levelo://app?vid=e5a949e4-26a7-4b0d-85ed-9548d0681b63"},"vehicle_type_id":"4","last_reported":1732896723,"current_range_meters":4400,"station_id":"ce4bhf92rcd13ifvqf50","pricing_plan_id":"cebpf4jnsgd1na2vs0mg"},{"bike_id":"bbb70a9c-3e6f-47ad-8588-efd51d0cc498","system_id":"levelo_inurba_marseille","lat":43.2717,"lon":5.40999,"is_reserved":false,"is_disabled":false,"rental_uris":{"android":"levelo://app?vid=bbb70a9c-3e6f-47ad-8588-efd51d0cc498","ios":"levelo://app?vid=bbb70a9c-3e6f-47ad-8588-efd51d0cc498"},"vehicle_type_id":"4","last_reported":1732896723,"current_range_meters":6800,"station_id":"ce4bhl12rcd13ifvqgf0","pricing_plan_id":"cebpf4jnsgd1na2vs0mg"},{"bike_id":"ccf857a0-7418-40b6-8054-ce1d82bddd90","system_id":"levelo_inurba_marseille","lat":43.23962,"lon":5.36637,"is_reserved":false,"is_disabled":true,"rental_uris":{"android":"levelo://app?vid=ccf857a0-7418-40b6-8054-ce1d82bddd90","ios":"levelo://app?vid=ccf857a0-7418-40b6-8054-ce1d82bddd90"},"vehicle_type_id":"4","last_reported":1732896723,"current_range_meters":0,"station_id":"ce4bhi12rcd13ifvqfp0","pricing_plan_id":"cebpf4jnsgd1na2vs0mg"},{"bike_id":"f91a3e61-d759-42cf-9118-ed0b5af17d3d","system_id":"levelo_inurba_marseille","lat":43.29861,"lon":5.36309,"is_reserved":false,"is_disabled":false,"rental_uris":{"android":"levelo://app?vid=f91a3e61-d759-42cf-9118-ed0b5af17d3d","ios":"levelo://app?vid=f91a3e61-d759-42cf-9118-ed0b5af17d3d"},"vehicle_type_id":"4","last_reported":1732896723,"current_range_meters":36400,"station_id":"ce4bgpp2rcd13ifvqc3g","pricing_plan_id":"cebpf4jnsgd1na2vs0mg"},{"bike_id":"47a86dfb-e754-4a84-a1a0-3e57b0fd15ea","system_id":"levelo_inurba_marseille","lat":43.28072,"lon":5.39661,"is_reserved":false,"is_disabled":false,"rental_uris":{"android":"levelo://app?vid=47a86dfb-e754-4a84-a1a0-3e57b0fd15ea","ios":"levelo://app?vid=47a86dfb-e754-4a84-a1a0-3e57b0fd15ea"},"vehicle_type_id":"4","last_reported":1732896723,"current_range_meters":38800,"station_id":"ce4bho12rcd13ifvqh2g","pricing_plan_id":"cebpf4jnsgd1na2vs0mg"},{"bike_id":"751555f6-d0ae-4f9c-af75-edcce904256b","system_id":"levelo_inurba_marseille","lat":43.22927,"lon":5.35381,"is_reserved":false,"is_disabled":true,"rental_uris":{"android":"levelo://app?vid=751555f6-d0ae-4f9c-af75-edcce904256b","ios":"levelo://app?vid=751555f6-d0ae-4f9c-af75-edcce904256b"},"vehicle_type_id":"4","last_reported":1732896723,"current_range_meters":0,"station_id":"cpo3532slgdg3j2ikp40","pricing_plan_id":"cebpf4jnsgd1na2vs0mg"},{"bike_id":"0548af83-85ef-4eeb-b08f-d7fdca289994","system_id":"levelo_inurba_marseille","lat":43.28936,"lon":5.36641,"is_reserved":false,"is_disabled":false,"rental_uris":{"android":"levelo://app?vid=0548af83-85ef-4eeb-b08f-d7fdca289994","ios":"levelo://app?vid=0548af83-85ef-4eeb-b08f-d7fdca289994"},"vehicle_type_id":"4","last_reported":1732896723,"current_range_meters":26000,"station_id":"ce4bhap2rcd13ifvqek0","pricing_plan_id":"cebpf4jnsgd1na2vs0mg"},{"bike_id":"440854f0-f678-4624-a0c7-a9d8ff9dfe2f","system_id":"levelo_inurba_marseille","lat":43.29261,"lon":5.3845,"is_reserved":false,"is_disabled":false,"rental_uris":{"android":"levelo://app?vid=440854f0-f678-4624-a0c7-a9d8ff9dfe2f","ios":"levelo://app?vid=440854f0-f678-4624-a0c7-a9d8ff9dfe2f"},"vehicle_type_id":"4","last_reported":1732896723,"current_range_meters":34000,"station_id":"ce4bh692rcd13ifvqea0","pricing_plan_id":"cebpf4jnsgd1na2vs0mg"},{"bike_id":"8e59ea41-f374-4bee-a3ca-2a3ca75a8016","system_id":"levelo_inurba_marseille","lat":43.30927,"lon":5.40152,"is_reserved":false,"is_disabled":false,"rental_uris":{"android":"levelo://app?vid=8e59ea41-f374-4bee-a3ca-2a3ca75a8016","ios":"levelo://app?vid=8e59ea41-f374-4bee-a3ca-2a3ca75a8016"},"vehicle_type_id":"4","last_reported":1732896723,"current_range_meters":13600,"station_id":"ce4bgvp2rcd13ifvqct0","pricing_plan_id":"cebpf4jnsgd1na2vs0mg"},{"bike_id":"95b6949e-6792-4d4c-80df-9deba064da37","system_id":"levelo_inurba_marseille","lat":43.30168,"lon":5.3809,"is_reserved":false,"is_disabled":false,"rental_uris":{"android":"levelo://app?vid=95b6949e-6792-4d4c-80df-9deba064da37","ios":"levelo://app?vid=95b6949e-6792-4d4c-80df-9deba064da37"},"vehicle_type_id":"4","last_reported":1732896723,"current_range_meters":38800,"station_id":"ce4bgjp2rcd13ifvqbh0","pricing_plan_id":"cebpf4jnsgd1na2vs0mg"},{"bike_id":"33ff3bff-4e95-4cdb-b570-ee7c3de1f586","system_id":"levelo_inurba_marseille","lat":43.28103,"lon":5.37837,"is_reserved":false,"is_disabled":false,"rental_uris":{"android":"levelo://app?vid=33ff3bff-4e95-4cdb-b570-ee7c3de1f586","ios":"levelo://app?vid=33ff3bff-4e95-4cdb-b570-ee7c3de1f586"},"vehicle_type_id":"4","last_reported":1732896723,"current_range_meters":28400,"station_id":"ce4bha12rcd13ifvqee0","pricing_plan_id":"cebpf4jnsgd1na2vs0mg"},{"bike_id":"1054ccf0-b78f-43e5-b035-af988f16a9e1","system_id":"levelo_inurba_marseille","lat":43.27371,"lon":5.36265,"is_reserved":false,"is_disabled":false,"rental_uris":{"android":"levelo://app?vid=1054ccf0-b78f-43e5-b035-af988f16a9e1","ios":"levelo://app?vid=1054ccf0-b78f-43e5-b035-af988f16a9e1"},"vehicle_type_id":"4","last_reported":1732896723,"current_range_meters":29600,"station_id":"ce4bhbh2rcd13ifvqeo0","pricing_plan_id":"cebpf4jnsgd1na2vs0mg"},{"bike_id":"a81fe2e9-188b-4b50-b2db-bbda51577084","system_id":"levelo_inurba_marseille","lat":43.26803,"lon":5.40261,"is_reserved":false,"is_disabled":false,"rental_uris":{"android":"levelo://app?vid=a81fe2e9-188b-4b50-b2db-bbda51577084","ios":"levelo://app?vid=a81fe2e9-188b-4b50-b2db-bbda51577084"},"vehicle_type_id":"4","last_reported":1732896723,"current_range_meters":25200,"station_id":"ce501612rcd8frsf0b60","pricing_plan_id":"cebpf4jnsgd1na2vs0mg"},{"bike_id":"a2445bc5-b258-4127-b78f-245d94ca38b2","system_id":"levelo_inurba_marseille","lat":43.28105,"lon":5.37845,"is_reserved":false,"is_disabled":false,"rental_uris":{"android":"levelo://app?vid=a2445bc5-b258-4127-b78f-245d94ca38b2","ios":"levelo://app?vid=a2445bc5-b258-4127-b78f-245d94ca38b2"},"vehicle_type_id":"4","last_reported":1732896723,"current_range_meters":30000,"station_id":"ce4bha12rcd13ifvqee0","pricing_plan_id":"cebpf4jnsgd1na2vs0mg"},{"bike_id":"3462f0a3-2d96-41b3-a0f9-9681443898cd","system_id":"levelo_inurba_marseille","lat":43.29363,"lon":5.37857,"is_reserved":false,"is_disabled":false,"rental_uris":{"android":"levelo://app?vid=3462f0a3-2d96-41b3-a0f9-9681443898cd","ios":"levelo://app?vid=3462f0a3-2d96-41b3-a0f9-9681443898cd"},"vehicle_type_id":"4","last_reported":1732896723,"current_range_meters":12400,"station_id":"ce4bgjh2rcd13ifvqbf0","pricing_plan_id":"cebpf4jnsgd1na2vs0mg"},{"bike_id":"155f9dfd-372f-46b0-bea0-a3a937ac2886","system_id":"levelo_inurba_marseille","lat":43.30142,"lon":5.37419,"is_reserved":false,"is_disabled":true,"rental_uris":{"android":"levelo://app?vid=155f9dfd-372f-46b0-bea0-a3a937ac2886","ios":"levelo://app?vid=155f9dfd-372f-46b0-bea0-a3a937ac2886"},"vehicle_type_id":"4","last_reported":1732896723,"current_range_meters":26000,"station_id":"ce4bgs92rcd13ifvqcc0","pricing_plan_id":"cebpf4jnsgd1na2vs0mg"},{"bike_id":"e59a0b78-bf9c-4d71-a2d6-86f1f1fcb577","system_id":"levelo_inurba_marseille","lat":43.28708,"lon":5.37387,"is_reserved":false,"is_disabled":false,"rental_uris":{"android":"levelo://app?vid=e59a0b78-bf9c-4d71-a2d6-86f1f1fcb577","ios":"levelo://app?vid=e59a0b78-bf9c-4d71-a2d6-86f1f1fcb577"},"vehicle_type_id":"4","last_reported":1732896723,"current_range_meters":5600,"station_id":"ce4bh3p2rcd13ifvqdq0","pricing_plan_id":"cebpf4jnsgd1na2vs0mg"},{"bike_id":"6ad196df-b312-45be-8e7c-92f58bfbbf1d","system_id":"levelo_inurba_marseille","lat":43.231521,"lon":5.437226,"is_reserved":false,"is_disabled":true,"rental_uris":{"android":"levelo://app?vid=6ad196df-b312-45be-8e7c-92f58bfbbf1d","ios":"levelo://app?vid=6ad196df-b312-45be-8e7c-92f58bfbbf1d"},"vehicle_type_id":"4","last_reported":1732896723,"current_range_meters":2000,"station_id":"ce4bhmp2rcd13ifvqgog","pricing_plan_id":"cebpf4jnsgd1na2vs0mg"},{"bike_id":"202ceef9-7259-48a9-aa1e-d8da8494241e","system_id":"levelo_inurba_marseille","lat":43.283388,"lon":5.381222,"is_reserved":false,"is_disabled":true,"rental_uris":{"android":"levelo://app?vid=202ceef9-7259-48a9-aa1e-d8da8494241e","ios":"levelo://app?vid=202ceef9-7259-48a9-aa1e-d8da8494241e"},"vehicle_type_id":"4","last_reported":1732896723,"current_range_meters":1200,"station_id":"ce4bh412rcd13ifvqdr0","pricing_plan_id":"cebpf4jnsgd1na2vs0mg"},{"bike_id":"8140fe6b-2f53-4159-a1b4-d5af330c98e5","system_id":"levelo_inurba_marseille","lat":43.28729,"lon":5.36091,"is_reserved":false,"is_disabled":false,"rental_uris":{"android":"levelo://app?vid=8140fe6b-2f53-4159-a1b4-d5af330c98e5","ios":"levelo://app?vid=8140fe6b-2f53-4159-a1b4-d5af330c98e5"},"vehicle_type_id":"4","last_reported":1732896723,"current_range_meters":40000,"station_id":"cki0cbj6b192h4jlfktg","pricing_plan_id":"cebpf4jnsgd1na2vs0mg"},{"bike_id":"0dea9ac8-793e-4386-8ad8-bf0c3d9446f1","system_id":"levelo_inurba_marseille","lat":43.337444,"lon":5.374475,"is_reserved":false,"is_disabled":false,"rental_uris":{"android":"levelo://app?vid=0dea9ac8-793e-4386-8ad8-bf0c3d9446f1","ios":"levelo://app?vid=0dea9ac8-793e-4386-8ad8-bf0c3d9446f1"},"vehicle_type_id":"4","last_reported":1732896723,"current_range_meters":22400,"station_id":"","pricing_plan_id":"cebpf4jnsgd1na2vs0mg"},{"bike_id":"8dcebc0e-78ce-415a-b5fd-3bb6311cfc11","system_id":"levelo_inurba_marseille","lat":43.23154,"lon":5.43702,"is_reserved":false,"is_disabled":true,"rental_uris":{"android":"levelo://app?vid=8dcebc0e-78ce-415a-b5fd-3bb6311cfc11","ios":"levelo://app?vid=8dcebc0e-78ce-415a-b5fd-3bb6311cfc11"},"vehicle_type_id":"4","last_reported":1732896723,"current_range_meters":0,"station_id":"ce4bhmp2rcd13ifvqgog","pricing_plan_id":"cebpf4jnsgd1na2vs0mg"},{"bike_id":"f6fe6791-4f90-4d59-8b96-7449568620cd","system_id":"levelo_inurba_marseille","lat":43.29197,"lon":5.39316,"is_reserved":false,"is_disabled":false,"rental_uris":{"android":"levelo://app?vid=f6fe6791-4f90-4d59-8b96-7449568620cd","ios":"levelo://app?vid=f6fe6791-4f90-4d59-8b96-7449568620cd"},"vehicle_type_id":"4","last_reported":1732896723,"current_range_meters":8000,"station_id":"ce4bh192rcd13ifvqdd0","pricing_plan_id":"cebpf4jnsgd1na2vs0mg"},{"bike_id":"294fe10b-9567-461d-a6d8-84306d8aeaae","system_id":"levelo_inurba_marseille","lat":43.27378,"lon":5.36254,"is_reserved":false,"is_disabled":false,"rental_uris":{"android":"levelo://app?vid=294fe10b-9567-461d-a6d8-84306d8aeaae","ios":"levelo://app?vid=294fe10b-9567-461d-a6d8-84306d8aeaae"},"vehicle_type_id":"4","last_reported":1732896723,"current_range_meters":27200,"station_id":"ce4bhbh2rcd13ifvqeo0","pricing_plan_id":"cebpf4jnsgd1na2vs0mg"},{"bike_id":"d6243759-86c3-4d56-b7b2-94ae05488e0b","system_id":"levelo_inurba_marseille","lat":43.31682,"lon":5.40483,"is_reserved":false,"is_disabled":false,"rental_uris":{"android":"levelo://app?vid=d6243759-86c3-4d56-b7b2-94ae05488e0b","ios":"levelo://app?vid=d6243759-86c3-4d56-b7b2-94ae05488e0b"},"vehicle_type_id":"4","last_reported":1732896723,"current_range_meters":4800,"station_id":"ce4bh012rcd13ifvqd00","pricing_plan_id":"cebpf4jnsgd1na2vs0mg"},{"bike_id":"fb1d45e3-c1c5-406b-95b9-935bf31c1725","system_id":"levelo_inurba_marseille","lat":43.29685,"lon":5.37697,"is_reserved":false,"is_disabled":false,"rental_uris":{"android":"levelo://app?vid=fb1d45e3-c1c5-406b-95b9-935bf31c1725","ios":"levelo://app?vid=fb1d45e3-c1c5-406b-95b9-935bf31c1725"},"vehicle_type_id":"4","last_reported":1732896723,"current_range_meters":13600,"station_id":"ce4bgkh2rcd13ifvqbl0","pricing_plan_id":"cebpf4jnsgd1na2vs0mg"},{"bike_id":"683e820c-b06b-4f8f-9aca-374ea4e9b563","system_id":"levelo_inurba_marseille","lat":43.29965,"lon":5.385,"is_reserved":false,"is_disabled":true,"rental_uris":{"android":"levelo://app?vid=683e820c-b06b-4f8f-9aca-374ea4e9b563","ios":"levelo://app?vid=683e820c-b06b-4f8f-9aca-374ea4e9b563"},"vehicle_type_id":"4","last_reported":1732896723,"current_range_meters":0,"station_id":"ce4bgj92rcd13ifvqbd0","pricing_plan_id":"cebpf4jnsgd1na2vs0mg"},{"bike_id":"034f4887-bf8a-4dde-96f4-56bbf629fe25","system_id":"levelo_inurba_marseille","lat":43.28659,"lon":5.38657,"is_reserved":false,"is_disabled":false,"rental_uris":{"android":"levelo://app?vid=034f4887-bf8a-4dde-96f4-56bbf629fe25","ios":"levelo://app?vid=034f4887-bf8a-4dde-96f4-56bbf629fe25"},"vehicle_type_id":"4","last_reported":1732896723,"current_range_meters":15200,"station_id":"ce4bh492rcd13ifvqdug","pricing_plan_id":"cebpf4jnsgd1na2vs0mg"},{"bike_id":"88ded992-0c63-4339-83ef-5d942fdb98bf","system_id":"levelo_inurba_marseille","lat":43.27615,"lon":5.36117,"is_reserved":false,"is_disabled":false,"rental_uris":{"android":"levelo://app?vid=88ded992-0c63-4339-83ef-5d942fdb98bf","ios":"levelo://app?vid=88ded992-0c63-4339-83ef-5d942fdb98bf"},"vehicle_type_id":"4","last_reported":1732896723,"current_range_meters":11200,"station_id":"ce4bgj92rcd13ifvqbe0","pricing_plan_id":"cebpf4jnsgd1na2vs0mg"},{"bike_id":"dcd7a8b1-0284-4592-a72a-4b5cf1dc08d7","system_id":"levelo_inurba_marseille","lat":43.28417,"lon":5.34976,"is_reserved":false,"is_disabled":true,"rental_uris":{"android":"levelo://app?vid=dcd7a8b1-0284-4592-a72a-4b5cf1dc08d7","ios":"levelo://app?vid=dcd7a8b1-0284-4592-a72a-4b5cf1dc08d7"},"vehicle_type_id":"4","last_reported":1732896723,"current_range_meters":3200,"station_id":"ce4bhbh2rcd13ifvqepg","pricing_plan_id":"cebpf4jnsgd1na2vs0mg"},{"bike_id":"922d3805-e8cd-479e-88f9-8b626647465b","system_id":"levelo_inurba_marseille","lat":43.28686,"lon":5.37408,"is_reserved":false,"is_disabled":false,"rental_uris":{"android":"levelo://app?vid=922d3805-e8cd-479e-88f9-8b626647465b","ios":"levelo://app?vid=922d3805-e8cd-479e-88f9-8b626647465b"},"vehicle_type_id":"4","last_reported":1732896723,"current_range_meters":4800,"station_id":"ce4bh3p2rcd13ifvqdq0","pricing_plan_id":"cebpf4jnsgd1na2vs0mg"},{"bike_id":"cffe9a99-ab22-497f-bc0c-f4895677e91d","system_id":"levelo_inurba_marseille","lat":43.29892,"lon":5.43676,"is_reserved":false,"is_disabled":true,"rental_uris":{"android":"levelo://app?vid=cffe9a99-ab22-497f-bc0c-f4895677e91d","ios":"levelo://app?vid=cffe9a99-ab22-497f-bc0c-f4895677e91d"},"vehicle_type_id":"4","last_reported":1732896723,"current_range_meters":1200,"station_id":"ce4bhpp2rcd13ifvqhfg","pricing_plan_id":"cebpf4jnsgd1na2vs0mg"},{"bike_id":"21e71642-d48e-483c-aabb-d194b252d252","system_id":"levelo_inurba_marseille","lat":43.28149,"lon":5.42636,"is_reserved":false,"is_disabled":false,"rental_uris":{"android":"levelo://app?vid=21e71642-d48e-483c-aabb-d194b252d252","ios":"levelo://app?vid=21e71642-d48e-483c-aabb-d194b252d252"},"vehicle_type_id":"4","last_reported":1732896723,"current_range_meters":10000,"station_id":"ce4bhnh2rcd13ifvqgug","pricing_plan_id":"cebpf4jnsgd1na2vs0mg"},{"bike_id":"1d87ed66-25fe-46b6-b3d6-5a4293a76e33","system_id":"levelo_inurba_marseille","lat":43.29208,"lon":5.36063,"is_reserved":false,"is_disabled":true,"rental_uris":{"android":"levelo://app?vid=1d87ed66-25fe-46b6-b3d6-5a4293a76e33","ios":"levelo://app?vid=1d87ed66-25fe-46b6-b3d6-5a4293a76e33"},"vehicle_type_id":"4","last_reported":1732896723,"current_range_meters":29600,"station_id":"ce4bhbh2rcd13ifvqeqg","pricing_plan_id":"cebpf4jnsgd1na2vs0mg"},{"bike_id":"605068fe-3412-4238-8a60-a8b1cfc871d0","system_id":"levelo_inurba_marseille","lat":43.31119,"lon":5.37778,"is_reserved":false,"is_disabled":false,"rental_uris":{"android":"levelo://app?vid=605068fe-3412-4238-8a60-a8b1cfc871d0","ios":"levelo://app?vid=605068fe-3412-4238-8a60-a8b1cfc871d0"},"vehicle_type_id":"4","last_reported":1732896723,"current_range_meters":10800,"station_id":"ce4bgt92rcd13ifvqcg0","pricing_plan_id":"cebpf4jnsgd1na2vs0mg"},{"bike_id":"37c13e1d-4478-4499-be04-f29562f0d26f","system_id":"levelo_inurba_marseille","lat":43.31717,"lon":5.42392,"is_reserved":false,"is_disabled":false,"rental_uris":{"android":"levelo://app?vid=37c13e1d-4478-4499-be04-f29562f0d26f","ios":"levelo://app?vid=37c13e1d-4478-4499-be04-f29562f0d26f"},"vehicle_type_id":"4","last_reported":1732896723,"current_range_meters":38800,"station_id":"ce4bhp92rcd13ifvqhbg","pricing_plan_id":"cebpf4jnsgd1na2vs0mg"},{"bike_id":"ce2d92ea-acce-41dd-8f25-92a618e2478f","system_id":"levelo_inurba_marseille","lat":43.28423,"lon":5.34985,"is_reserved":false,"is_disabled":false,"rental_uris":{"android":"levelo://app?vid=ce2d92ea-acce-41dd-8f25-92a618e2478f","ios":"levelo://app?vid=ce2d92ea-acce-41dd-8f25-92a618e2478f"},"vehicle_type_id":"4","last_reported":1732896723,"current_range_meters":8800,"station_id":"ce4bhbh2rcd13ifvqepg","pricing_plan_id":"cebpf4jnsgd1na2vs0mg"},{"bike_id":"9c1e2daf-9522-4cae-a972-f08f216f9f15","system_id":"levelo_inurba_marseille","lat":43.26935,"lon":5.38928,"is_reserved":false,"is_disabled":false,"rental_uris":{"android":"levelo://app?vid=9c1e2daf-9522-4cae-a972-f08f216f9f15","ios":"levelo://app?vid=9c1e2daf-9522-4cae-a972-f08f216f9f15"},"vehicle_type_id":"4","last_reported":1732896723,"current_range_meters":25600,"station_id":"ce4bhhh2rcd13ifvqfl0","pricing_plan_id":"cebpf4jnsgd1na2vs0mg"},{"bike_id":"682e7419-c067-46ad-995b-aec74a0a3619","system_id":"levelo_inurba_marseille","lat":43.28441,"lon":5.39206,"is_reserved":false,"is_disabled":false,"rental_uris":{"android":"levelo://app?vid=682e7419-c067-46ad-995b-aec74a0a3619","ios":"levelo://app?vid=682e7419-c067-46ad-995b-aec74a0a3619"},"vehicle_type_id":"4","last_reported":1732896723,"current_range_meters":6400,"station_id":"ce4bhoh2rcd13ifvqh5g","pricing_plan_id":"cebpf4jnsgd1na2vs0mg"},{"bike_id":"5e29acae-7be9-4cd0-a698-f53c00428a8d","system_id":"levelo_inurba_marseille","lat":43.32367,"lon":5.38888,"is_reserved":false,"is_disabled":false,"rental_uris":{"android":"levelo://app?vid=5e29acae-7be9-4cd0-a698-f53c00428a8d","ios":"levelo://app?vid=5e29acae-7be9-4cd0-a698-f53c00428a8d"},"vehicle_type_id":"4","last_reported":1732896723,"current_range_meters":38400,"station_id":"ce4bhqp2rcd13ifvqhog","pricing_plan_id":"cebpf4jnsgd1na2vs0mg"},