{"last_updated":1735992976,"ttl":60,"version":"2.2","data":{"bikes":[{"bike_id":"7e37bb78-6df8-4065-a33a-785e0d2acb31","system_id":"levelo_inurba_marseille","lat":43.29199,"lon":5.35799,"is_reserved":false,"is_disabled":false,"rental_uris":{"android":"levelo://app?vid=7e37bb78-6df8-4065-a33a-785e0d2acb31","ios":"levelo://app?vid=7e37bb78-6df8-4065-a33a-785e0d2acb31"},"vehicle_type_id":"4","last_reported":1735992976,"current_range_meters":38800,"station_id":"ce4bhb12rcd13ifvqel0","pricing_plan_id":"cebpf4jnsgd1na2vs0mg"},{"bike_id":"e31c27df-6f3a-4b2c-b023-4e9240962a67","system_id":"levelo_inurba_marseille","lat":43.27308,"lon":5.3908,"is_reserved":false,"is_disabled":false,"rental_uris":{"android":"levelo://app?vid=e31c27df-6f3a-4b2c-b023-4e9240962a67","ios":"levelo://app?vid=e31c27df-6f3a-4b2c-b023-4e9240962a67"},"vehicle_type_id":"4","last_reported":1735992976,"current_range_meters":39200,"station_id":"ce4bhgp2rcd13ifvqfe0","pricing_plan_id":"cebpf4jnsgd1na2vs0mg"},{"bike_id":"2b141e44-f3fd-481d-a7a8-b0531fe87447","system_id":"levelo_inurba_marseille","lat":43.29025,"lon":5.37583,"is_reserved":false,"is_disabled":false,"rental_uris":{"android":"levelo://app?vid=2b141e44-f3fd-481d-a7a8-b0531fe87447","ios":"levelo://app?vid=2b141e44-f3fd-481d-a7a8-b0531fe87447"},"vehicle_type_id":"4","last_reported":1735992976,"current_range_meters":26000,"station_id":"ce4bh692rcd13ifvqe90","pricing_plan_id":"cebpf4jnsgd1na2vs0mg"},{"bike_id":"8a1c8515-1ea6-4df4-8053-9c02da774842","system_id":"levelo_inurba_marseille","lat":43.30676,"lon":5.40092,"is_reserved":false,"is_disabled":false,"rental_uris":{"android":"levelo://app?vid=8a1c8515-1ea6-4df4-8053-9c02da774842","ios":"levelo://app?vid=8a1c8515-1ea6-4df4-8053-9c02da774842"},"vehicle_type_id":"4","last_reported":1735992976,"current_range_meters":38800,"station_id":"ce4bh112rcd13ifvqda0","pricing_plan_id":"cebpf4jnsgd1na2vs0mg"},{"bike_id":"f6e2be4b-fa77-4b38-bd45-618bcfa7f100","system_id":"levelo_inurba_marseille","lat":43.30301,"lon":5.36889,"is_reserved":false,"is_disabled":false,"rental_uris":{"android":"levelo://app?vid=f6e2be4b-fa77-4b38-bd45-618bcfa7f100","ios":"levelo://app?vid=f6e2be4b-fa77-4b38-bd45-618bcfa7f100"},"vehicle_type_id":"4","last_reported":1735992976,"current_range_meters":11200,"station_id":"ce4bgqh2rcd13ifvqc5g","pricing_plan_id":"cebpf4jnsgd1na2vs0mg"},{"bike_id":"25bc056f-6168-4a4c-8539-4f5b06414dad","system_id":"levelo_inurba_marseille","lat":43.26811,"lon":5.39406,"is_reserved":false,"is_disabled":false,"rental_uris":{"android":"levelo://app?vid=25bc056f-6168-4a4c-8539-4f5b06414dad","ios":"levelo://app?vid=25bc056f-6168-4a4c-8539-4f5b06414dad"},"vehicle_type_id":"4","last_reported":1735992976,"current_range_meters":27600,"station_id":"ce4bhh12rcd13ifvqfg0","pricing_plan_id":"cebpf4jnsgd1na2vs0mg"},{"bike_id":"482a7293-22d4-4b2b-b2bb-8899c2510e29","system_id":"levelo_inurba_marseille","lat":43.27314,"lon":5.39113,"is_reserved":false,"is_disabled":false,"rental_uris":{"android":"levelo://app?vid=482a7293-22d4-4b2b-b2bb-8899c2510e29","ios":"levelo://app?vid=482a7293-22d4-4b2b-b2bb-8899c2510e29"},"vehicle_type_id":"4","last_reported":1735992976,"current_range_meters":20000,"station_id":"ce4bhgp2rcd13ifvqfe0","pricing_plan_id":"cebpf4jnsgd1na2vs0mg"},{"bike_id":"e1dfcdee-18af-407f-9a6c-807a8fefbf81","system_id":"levelo_inurba_marseille","lat":43.29246,"lon":5.38466,"is_reserved":false,"is_disabled":false,"rental_uris":{"android":"levelo://app?vid=e1dfcdee-18af-407f-9a6c-807a8fefbf81","ios":"levelo://app?vid=e1dfcdee-18af-407f-9a6c-807a8fefbf81"},"vehicle_type_id":"4","last_reported":1735992976,"current_range_meters":38800,"station_id":"ce4bh692rcd13ifvqea0","pricing_plan_id":"cebpf4jnsgd1na2vs0mg"},{"bike_id":"c7dffe3a-48e8-4e12-bcea-8436a53751f3","system_id":"levelo_inurba_marseille","lat":43.24795,"lon":5.37453,"is_reserved":false,"is_disabled":false,"rental_uris":{"android":"levelo://app?vid=c7dffe3a-48e8-4e12-bcea-8436a53751f3","ios":"levelo://app?vid=c7dffe3a-48e8-4e12-bcea-8436a53751f3"},"vehicle_type_id":"4","last_reported":1735992976,"current_range_meters":36800,"station_id":"ce4bhgh2rcd13ifvqfb0","pricing_plan_id":"cebpf4jnsgd1na2vs0mg"},{"bike_id":"36d0910b-d540-4d75-b065-f044cb5b6555","system_id":"levelo_inurba_marseille","lat":43.29607,"lon":5.36744,"is_reserved":false,"is_disabled":false,"rental_uris":{"android":"levelo://app?vid=36d0910b-d540-4d75-b065-f044cb5b6555","ios":"levelo://app?vid=36d0910b-d540-4d75-b065-f044cb5b6555"},"vehicle_type_id":"4","last_reported":1735992976,"current_range_meters":38800,"station_id":"ce4bgph2rcd13ifvqc2g","pricing_plan_id":"cebpf4jnsgd1na2vs0mg"},{"bike_id":"f7a3215a-be68-4dc5-8ac2-1c3e9caadab1","system_id":"levelo_inurba_marseille","lat":43.26887,"lon":5.3934,"is_reserved":false,"is_disabled":false,"rental_uris":{"android":"levelo://app?vid=f7a3215a-be68-4dc5-8ac2-1c3e9caadab1","ios":"levelo://app?vid=f7a3215a-be68-4dc5-8ac2-1c3e9caadab1"},"vehicle_type_id":"4","last_reported":1735992976,"current_range_meters":30000,"station_id":"","pricing_plan_id":"cebpf4jnsgd1na2vs0mg"},{"bike_id":"21c9cfe7-c4d1-4420-8702-1da7ed3c9257","system_id":"levelo_inurba_marseille","lat":43.29815,"lon":5.38089,"is_reserved":false,"is_disabled":false,"rental_uris":{"android":"levelo://app?vid=21c9cfe7-c4d1-4420-8702-1da7ed3c9257","ios":"levelo://app?vid=21c9cfe7-c4d1-4420-8702-1da7ed3c9257"},"vehicle_type_id":"4","last_reported":1735992976,"current_range_meters":37600,"station_id":"ce4bgip2rcd13ifvqbb0","pricing_plan_id":"cebpf4jnsgd1na2vs0mg"},{"bike_id":"fe3aafb8-a6b4-4a18-a86a-13b013e22a76","system_id":"levelo_inurba_marseille","lat":43.31406,"lon":5.37373,"is_reserved":false,"is_disabled":false,"rental_uris":{"android":"levelo://app?vid=fe3aafb8-a6b4-4a18-a86a-13b013e22a76","ios":"levelo://app?vid=fe3aafb8-a6b4-4a18-a86a-13b013e22a76"},"vehicle_type_id":"4","last_reported":1735992976,"current_range_meters":36400,"station_id":"","pricing_plan_id":"cebpf4jnsgd1na2vs0mg"},{"bike_id":"116f92ae-65b4-4f7c-a23b-1117c0a69b33","system_id":"levelo_inurba_marseille","lat":43.28605,"lon":5.35125,"is_reserved":false,"is_disabled":false,"rental_uris":{"android":"levelo://app?vid=116f92ae-65b4-4f7c-a23b-1117c0a69b33","ios":"levelo://app?vid=116f92ae-65b4-4f7c-a23b-1117c0a69b33"},"vehicle_type_id":"4","last_reported":1735992976,"current_range_meters":23200,"station_id":"ce4bhch2rcd13ifvqeug","pricing_plan_id":"cebpf4jnsgd1na2vs0mg"},{"bike_id":"efe82dc4-c15f-4046-9226-91dca361e6bd","system_id":"levelo_inurba_marseille","lat":43.2555,"lon":5.38238,"is_reserved":false,"is_disabled":false,"rental_uris":{"android":"levelo://app?vid=efe82dc4-c15f-4046-9226-91dca361e6bd","ios":"levelo://app?vid=efe82dc4-c15f-4046-9226-91dca361e6bd"},"vehicle_type_id":"4","last_reported":1735992976,"current_range_meters":38800,"station_id":"ce4bhih2rcd13ifvqfs0","pricing_plan_id":"cebpf4jnsgd1na2vs0mg"},{"bike_id":"0a72fabb-c385-470f-8026-c60effe2f3f0","system_id":"levelo_inurba_marseille","lat":43.29689,"lon":5.35977,"is_reserved":false,"is_disabled":false,"rental_uris":{"android":"levelo://app?vid=0a72fabb-c385-470f-8026-c60effe2f3f0","ios":"levelo://app?vid=0a72fabb-c385-470f-8026-c60effe2f3f0"},"vehicle_type_id":"4","last_reported":1735992976,"current_range_meters":20800,"station_id":"","pricing_plan_id":"cebpf4jnsgd1na2vs0mg"},{"bike_id":"f1d3c182-1315-41a3-b17a-d3cf349d4bfd","system_id":"levelo_inurba_marseille","lat":43.29722,"lon":5.3773,"is_reserved":false,"is_disabled":false,"rental_uris":{"android":"levelo://app?vid=f1d3c182-1315-41a3-b17a-d3cf349d4bfd","ios":"levelo://app?vid=f1d3c182-1315-41a3-b17a-d3cf349d4bfd"},"vehicle_type_id":"4","last_reported":1735992976,"current_range_meters":28800,"station_id":"ce4bgkh2rcd13ifvqbl0","pricing_plan_id":"cebpf4jnsgd1na2vs0mg"},{"bike_id":"76d392c8-6dd4-4fbf-b626-27c2990c047b","system_id":"levelo_inurba_marseille","lat":43.2818,"lon":5.4282,"is_reserved":false,"is_disabled":false,"rental_uris":{"android":"levelo://app?vid=76d392c8-6dd4-4fbf-b626-27c2990c047b","ios":"levelo://app?vid=76d392c8-6dd4-4fbf-b626-27c2990c047b"},"vehicle_type_id":"4","last_reported":1735992976,"current_range_meters":11600,"station_id":"","pricing_plan_id":"cebpf4jnsgd1na2vs0mg"},{"bike_id":"f8f4f70e-bd63-4d69-af5a-346b9f9f1df1","system_id":"levelo_inurba_marseille","lat":43.2987,"lon":5.38916,"is_reserved":false,"is_disabled":false,"rental_uris":{"android":"levelo://app?vid=f8f4f70e-bd63-4d69-af5a-346b9f9f1df1","ios":"levelo://app?vid=f8f4f70e-bd63-4d69-af5a-346b9f9f1df1"},"vehicle_type_id":"4","last_reported":1735992976,"current_range_meters":38800,"station_id":"ce4bh392rcd13ifvqdl0","pricing_plan_id":"cebpf4jnsgd1na2vs0mg"},{"bike_id":"8d3c0f78-e962-4e13-b73d-d1069bc6cb91","system_id":"levelo_inurba_marseille","lat":43.27304,"lon":5.3907,"is_reserved":false,"is_disabled":true,"rental_uris":{"android":"levelo://app?vid=8d3c0f78-e962-4e13-b73d-d1069bc6cb91","ios":"levelo://app?vid=8d3c0f78-e962-4e13-b73d-d1069bc6cb91"},"vehicle_type_id":"4","last_reported":1735992976,"current_range_meters":0,"station_id":"ce4bhgp2rcd13ifvqfe0","pricing_plan_id":"cebpf4jnsgd1na2vs0mg"},{"bike_id":"46681a0e-77c7-4e8c-9bb0-8038ae70f7ff","system_id":"levelo_inurba_marseille","lat":43.303016,"lon":5.368967,"is_reserved":false,"is_disabled":false,"rental_uris":{"android":"levelo://app?vid=46681a0e-77c7-4e8c-9bb0-8038ae70f7ff","ios":"levelo://app?vid=46681a0e-77c7-4e8c-9bb0-8038ae70f7ff"},"vehicle_type_id":"4","last_reported":1735992976,"current_range_meters":39200,"station_id":"ce4bgqh2rcd13ifvqc5g","pricing_plan_id":"cebpf4jnsgd1na2vs0mg"},{"bike_id":"593d8424-f565-422e-8480-e0f50e2c043e","system_id":"levelo_inurba_marseille","lat":43.27997,"lon":5.38596,"is_reserved":false,"is_disabled":true,"rental_uris":{"android":"levelo://app?vid=593d8424-f565-422e-8480-e0f50e2c043e","ios":"levelo://app?vid=593d8424-f565-422e-8480-e0f50e2c043e"},"vehicle_type_id":"4","last_reported":1735992976,"current_range_meters":37600,"station_id":"","pricing_plan_id":"cebpf4jnsgd1na2vs0mg"},{"bike_id":"a944f865-f260-4d6e-8bfb-34b22d4c0ecd","system_id":"levelo_inurba_marseille","lat":43.30194,"lon":5.36632,"is_reserved":false,"is_disabled":true,"rental_uris":{"android":"levelo://app?vid=a944f865-f260-4d6e-8bfb-34b22d4c0ecd","ios":"levelo://app?vid=a944f865-f260-4d6e-8bfb-34b22d4c0ecd"},"vehicle_type_id":"4","last_reported":1735992976,"current_range_meters":32800,"station_id":"ce4bgrh2rcd13ifvqc8g","pricing_plan_id":"cebpf4jnsgd1na2vs0mg"},{"bike_id":"b2aa002a-204a-4b80-9d0b-d9f09c9d5fa1","system_id":"levelo_inurba_marseille","lat":43.33637,"lon":5.41003,"is_reserved":false,"is_disabled":false,"rental_uris":{"android":"levelo://app?vid=b2aa002a-204a-4b80-9d0b-d9f09c9d5fa1","ios":"levelo://app?vid=b2aa002a-204a-4b80-9d0b-d9f09c9d5fa1"},"vehicle_type_id":"4","last_reported":1735992976,"current_range_meters":24800,"station_id":"ce4bhqh2rcd13ifvqhmg","pricing_plan_id":"cebpf4jnsgd1na2vs0mg"},{"bike_id":"a17521d3-3700-462d-8e7e-4b04c3d5441a","system_id":"levelo_inurba_marseille","lat":43.3189,"lon":5.40742,"is_reserved":false,"is_disabled":false,"rental_uris":{"android":"levelo://app?vid=a17521d3-3700-462d-8e7e-4b04c3d5441a","ios":"levelo://app?vid=a17521d3-3700-462d-8e7e-4b04c3d5441a"},"vehicle_type_id":"4","last_reported":1735992976,"current_range_meters":27600,"station_id":"ce4bhq12rcd13ifvqhig","pricing_plan_id":"cebpf4jnsgd1na2vs0mg"},{"bike_id":"b323dbc6-a3b4-4535-9e08-f10cde71a0f5","system_id":"levelo_inurba_marseille","lat":43.272034,"lon":5.39183,"is_reserved":false,"is_disabled":false,"rental_uris":{"android":"levelo://app?vid=b323dbc6-a3b4-4535-9e08-f10cde71a0f5","ios":"levelo://app?vid=b323dbc6-a3b4-4535-9e08-f10cde71a0f5"},"vehicle_type_id":"4","last_reported":1735992976,"current_range_meters":35200,"station_id":"ce4bhhp2rcd13ifvqfm0","pricing_plan_id":"cebpf4jnsgd1na2vs0mg"},{"bike_id":"9d281a53-6992-4392-9438-72ec394ec5a5","system_id":"levelo_inurba_marseille","lat":43.243967,"lon":5.370588,"is_reserved":false,"is_disabled":false,"rental_uris":{"android":"levelo://app?vid=9d281a53-6992-4392-9438-72ec394ec5a5","ios":"levelo://app?vid=9d281a53-6992-4392-9438-72ec394ec5a5"},"vehicle_type_id":"4","last_reported":1735992976,"current_range_meters":6400,"station_id":"ce4bhhh2rcd13ifvqfk0","pricing_plan_id":"cebpf4jnsgd1na2vs0mg"},{"bike_id":"f2d3f7f8-e094-44ef-93a8-20330cb628ea","system_id":"levelo_inurba_marseille","lat":43.2804,"lon":5.3694,"is_reserved":false,"is_disabled":true,"rental_uris":{"android":"levelo://app?vid=f2d3f7f8-e094-44ef-93a8-20330cb628ea","ios":"levelo://app?vid=f2d3f7f8-e094-44ef-93a8-20330cb628ea"},"vehicle_type_id":"4","last_reported":1735992976,"current_range_meters":0,"station_id":"ce4bha12rcd13ifvqef0","pricing_plan_id":"cebpf4jnsgd1na2vs0mg"},{"bike_id":"6c92faae-448f-4fcd-b837-c7db2ff4caee","system_id":"levelo_inurba_marseille","lat":43.30647,"lon":5.40104,"is_reserved":false,"is_disabled":false,"rental_uris":{"android":"levelo://app?vid=6c92faae-448f-4fcd-b837-c7db2ff4caee","ios":"levelo://app?vid=6c92faae-448f-4fcd-b837-c7db2ff4caee"},"vehicle_type_id":"4","last_reported":1735992976,"current_range_meters":37600,"station_id":"ce4bh112rcd13ifvqda0","pricing_plan_id":"cebpf4jnsgd1na2vs0mg"},{"bike_id":"11bab6b1-8f19-4376-9cab-a89cad5be186","system_id":"levelo_inurba_marseille","lat":43.3247,"lon":5.3659,"is_reserved":false,"is_disabled":false,"rental_uris":{"android":"levelo://app?vid=11bab6b1-8f19-4376-9cab-a89cad5be186","ios":"levelo://app?vid=11bab6b1-8f19-4376-9cab-a89cad5be186"},"vehicle_type_id":"4","last_reported":1735992976,"current_range_meters":38400,"station_id":"ce4bhs12rcd13ifvqhvg","pricing_plan_id":"cebpf4jnsgd1na2vs0mg"},{"bike_id":"cbe9daa8-e97f-46a3-b355-e73504f71d00","system_id":"levelo_inurba_marseille","lat":43.27376,"lon":5.36248,"is_reserved":false,"is_disabled":false,"rental_uris":{"android":"levelo://app?vid=cbe9daa8-e97f-46a3-b355-e73504f71d00","ios":"levelo://app?vid=cbe9daa8-e97f-46a3-b355-e73504f71d00"},"vehicle_type_id":"4","last_reported":1735992976,"current_range_meters":38400,"station_id":"ce4bhbh2rcd13ifvqeo0","pricing_plan_id":"cebpf4jnsgd1na2vs0mg"},{"bike_id":"25e6c0ba-b9d4-413d-a94c-aecd80c684a6","system_id":"levelo_inurba_marseille","lat":43.254979,"lon":5.376487,"is_reserved":false,"is_disabled":false,"rental_uris":{"android":"levelo://app?vid=25e6c0ba-b9d4-413d-a94c-aecd80c684a6","ios":"levelo://app?vid=25e6c0ba-b9d4-413d-a94c-aecd80c684a6"},"vehicle_type_id":"4","last_reported":1735992976,"current_range_meters":30400,"station_id":"ce4bhh12rcd13ifvqff0","pricing_plan_id":"cebpf4jnsgd1na2vs0mg"},{"bike_id":"db175aad-77d1-437e-a62b-ce2288e7de60","system_id":"levelo_inurba_marseille","lat":43.28332,"lon":5.381,"is_reserved":false,"is_disabled":false,"rental_uris":{"android":"levelo://app?vid=db175aad-77d1-437e-a62b-ce2288e7de60","ios":"levelo://app?vid=db175aad-77d1-437e-a62b-ce2288e7de60"},"vehicle_type_id":"4","last_reported":1735992976,"current_range_meters":24400,"station_id":"ce4bh412rcd13ifvqdr0","pricing_plan_id":"cebpf4jnsgd1na2vs0mg"},{"bike_id":"bd90978f-5d76-4d25-a795-b0e7724e8045","system_id":"levelo_inurba_marseille","lat":43.27205,"lon":5.39195,"is_reserved":false,"is_disabled":false,"rental_uris":{"android":"levelo://app?vid=bd90978f-5d76-4d25-a795-b0e7724e8045","ios":"levelo://app?vid=bd90978f-5d76-4d25-a795-b0e7724e8045"},"vehicle_type_id":"4","last_reported":1735992976,"current_range_meters":38400,"station_id":"ce4bhhp2rcd13ifvqfm0","pricing_plan_id":"cebpf4jnsgd1na2vs0mg"},{"bike_id":"9f697b48-7c91-4567-b24d-c0ddf692b71f","system_id":"levelo_inurba_marseille","lat":43.33023,"lon":5.39045,"is_reserved":false,"is_disabled":false,"rental_uris":{"android":"levelo://app?vid=9f697b48-7c91-4567-b24d-c0ddf692b71f","ios":"levelo://app?vid=9f697b48-7c91-4567-b24d-c0ddf692b71f"},"vehicle_type_id":"4","last_reported":1735992976,"current_range_meters":29600,"station_id":"ce4bhr92rcd13ifvqhrg","pricing_plan_id":"cebpf4jnsgd1na2vs0mg"},{"bike_id":"fcf78adb-ae59-4441-a1a0-6c1a3a866f3e","system_id":"levelo_inurba_marseille","lat":43.30409,"lon":5.39765,"is_reserved":false,"is_disabled":false,"rental_uris":{"android":"levelo://app?vid=fcf78adb-ae59-4441-a1a0-6c1a3a866f3e","ios":"levelo://app?vid=fcf78adb-ae59-4441-a1a0-6c1a3a866f3e"},"vehicle_type_id":"4","last_reported":1735992976,"current_range_meters":36800,"station_id":"ce4bh092rcd13ifvqd20","pricing_plan_id":"cebpf4jnsgd1na2vs0mg"},{"bike_id":"fb0d5d50-2cba-4668-8a68-53b559a0ffc7","system_id":"levelo_inurba_marseille","lat":43.246663,"lon":5.381687,"is_reserved":false,"is_disabled":false,"rental_uris":{"android":"levelo://app?vid=fb0d5d50-2cba-4668-8a68-53b559a0ffc7","ios":"levelo://app?vid=fb0d5d50-2cba-4668-8a68-53b559a0ffc7"},"vehicle_type_id":"4","last_reported":1735992976,"current_range_meters":30400,"station_id":"ce4bhih2rcd13ifvqfr0","pricing_plan_id":"cebpf4jnsgd1na2vs0mg"},{"bike_id":"0c3b96ff-9de9-4b06-a81b-acb466115de3","system_id":"levelo_inurba_marseille","lat":43.255,"lon":5.37658,"is_reserved":false,"is_disabled":false,"rental_uris":{"android":"levelo://app?vid=0c3b96ff-9de9-4b06-a81b-acb466115de3","ios":"levelo://app?vid=0c3b96ff-9de9-4b06-a81b-acb466115de3"},"vehicle_type_id":"4","last_reported":1735992976,"current_range_meters":38000,"station_id":"ce4bhh12rcd13ifvqff0","pricing_plan_id":"cebpf4jnsgd1na2vs0mg"},{"bike_id":"7f19a19c-d1b3-49ca-8538-1dc8022ef981","system_id":"levelo_inurba_marseille","lat":43.32115,"lon":5.36774,"is_reserved":false,"is_disabled":false,"rental_uris":{"android":"levelo://app?vid=7f19a19c-d1b3-49ca-8538-1dc8022ef981","ios":"levelo://app?vid=7f19a19c-d1b3-49ca-8538-1dc8022ef981"},"vehicle_type_id":"4","last_reported":1735992976,"current_range_meters":20400,"station_id":"ce4bhrh2rcd13ifvqhug","pricing_plan_id":"cebpf4jnsgd1na2vs0mg"},{"bike_id":"0560a89b-60c9-41a1-8088-dfe3b6fd7149","system_id":"levelo_inurba_marseille","lat":43.29575,"lon":5.37499,"is_reserved":false,"is_disabled":false,"rental_uris":{"android":"levelo://app?vid=0560a89b-60c9-41a1-8088-dfe3b6fd7149","ios":"levelo://app?vid=0560a89b-60c9-41a1-8088-dfe3b6fd7149"},"vehicle_type_id":"4","last_reported":1735992976,"current_range_meters":36400,"station_id":"ce4bgh92rcd13ifvqb50","pricing_plan_id":"cebpf4jnsgd1na2vs0mg"},{"bike_id":"7b8829d7-1e14-4eeb-a440-279490140959","system_id":"levelo_inurba_marseille","lat":43.30423,"lon":5.39763,"is_reserved":false,"is_disabled":false,"rental_uris":{"android":"levelo://app?vid=7b8829d7-1e14-4eeb-a440-279490140959","ios":"levelo://app?vid=7b8829d7-1e14-4eeb-a440-279490140959"},"vehicle_type_id":"4","last_reported":1735992976,"current_range_meters":38800,"station_id":"ce4bh092rcd13ifvqd20","pricing_plan_id":"cebpf4jnsgd1na2vs0mg"},{"bike_id":"c3c61bf7-9299-4ebb-88ea-a1e3d8f16e15","system_id":"levelo_inurba_marseille","lat":43.29801,"lon":5.40402,"is_reserved":false,"is_disabled":false,"rental_uris":{"android":"levelo://app?vid=c3c61bf7-9299-4ebb-88ea-a1e3d8f16e15","ios":"levelo://app?vid=c3c61bf7-9299-4ebb-88ea-a1e3d8f16e15"},"vehicle_type_id":"4","last_reported":1735992976,"current_range_meters":38800,"station_id":"ce4bh112rcd13ifvqd90","pricing_plan_id":"cebpf4jnsgd1na2vs0mg"},{"bike_id":"41f0370b-48e6-4a77-a325-2678817e8db3","system_id":"levelo_inurba_marseille","lat":43.30534,"lon":5.365367,"is_reserved":false,"is_disabled":false,"rental_uris":{"android":"levelo://app?vid=41f0370b-48e6-4a77-a325-2678817e8db3","ios":"levelo://app?vid=41f0370b-48e6-4a77-a325-2678817e8db3"},"vehicle_type_id":"4","last_reported":1735992976,"current_range_meters":29600,"station_id":"ce4bgs12rcd13ifvqcag","pricing_plan_id":"cebpf4jnsgd1na2vs0mg"},{"bike_id":"30b3b5b5-0e21-47d4-8b6a-303cb84c90ef","system_id":"levelo_inurba_marseille","lat":43.30948,"lon":5.39047,"is_reserved":false,"is_disabled":false,"rental_uris":{"android":"levelo://app?vid=30b3b5b5-0e21-47d4-8b6a-303cb84c90ef","ios":"levelo://app?vid=30b3b5b5-0e21-47d4-8b6a-303cb84c90ef"},"vehicle_type_id":"4","last_reported":1735992976,"current_range_meters":34000,"station_id":"ce4bgup2rcd13ifvqco0","pricing_plan_id":"cebpf4jnsgd1na2vs0mg"},{"bike_id":"deb30913-8ad1-42f3-bb47-9fa6b5c5b0c9","system_id":"levelo_inurba_marseille","lat":43.29723,"lon":5.377,"is_reserved":false,"is_disabled":false,"rental_uris":{"android":"levelo://app?vid=deb30913-8ad1-42f3-bb47-9fa6b5c5b0c9","ios":"levelo://app?vid=deb30913-8ad1-42f3-bb47-9fa6b5c5b0c9"},"vehicle_type_id":"4","last_reported":1735992976,"current_range_meters":26000,"station_id":"ce4bgkh2rcd13ifvqbl0","pricing_plan_id":"cebpf4jnsgd1na2vs0mg"},{"bike_id":"3c7472a4-a45c-4f46-a692-aa44ebf92f21","system_id":"levelo_inurba_marseille","lat":43.27404,"lon":5.39399,"is_reserved":false,"is_disabled":false,"rental_uris":{"android":"levelo://app?vid=3c7472a4-a45c-4f46-a692-aa44ebf92f21","ios":"levelo://app?vid=3c7472a4-a45c-4f46-a692-aa44ebf92f21"},"vehicle_type_id":"4","last_reported":1735992976,"current_range_meters":27600,"station_id":"ce4bhdp2rcd13ifvqf20","pricing_plan_id":"cebpf4jnsgd1na2vs0mg"},{"bike_id":"b94b5e47-90bf-4b30-9b74-d43dcd27455c","system_id":"levelo_inurba_marseille","lat":43.30097,"lon":5.39082,"is_reserved":false,"is_disabled":false,"rental_uris":{"android":"levelo://app?vid=b94b5e47-90bf-4b30-9b74-d43dcd27455c","ios":"levelo://app?vid=b94b5e47-90bf-4b30-9b74-d43dcd27455c"},"vehicle_type_id":"4","last_reported":1735992976,"current_range_meters":38000,"station_id":"ce4bh192rcd13ifvqdb0","pricing_plan_id":"cebpf4jnsgd1na2vs0mg"},{"bike_id":"f0ead5dd-c086-40ba-b637-5a58405b88b0","system_id":"levelo_inurba_marseille","lat":43.2513,"lon":5.4031,"is_reserved":false,"is_disabled":true,"rental_uris":{"android":"levelo://app?vid=f0ead5dd-c086-40ba-b637-5a58405b88b0","ios":"levelo://app?vid=f0ead5dd-c086-40ba-b637-5a58405b88b0"},"vehicle_type_id":"4","last_reported":1735992976,"current_range_meters":1200,"station_id":"ce4bhlh2rcd13ifvqgig","pricing_plan_id":"cebpf4jnsgd1na2vs0mg"},{"bike_id":"1ea369b9-72ed-4a40-b86b-1b67b0817215","system_id":"levelo_inurba_marseille","lat":43.31494,"lon":5.37301,"is_reserved":false,"is_disabled":false,"rental_uris":{"android":"levelo://app?vid=1ea369b9-72ed-4a40-b86b-1b67b0817215","ios":"levelo://app?vid=1ea369b9-72ed-4a40-b86b-1b67b0817215"},"vehicle_type_id":"4","last_reported":1735992976,"current_range_meters":39200,"station_id":"ce4bgt12rcd13ifvqcd0","pricing_plan_id":"cebpf4jnsgd1na2vs0mg"},{"bike_id":"ea7050ff-7aa9-43ba-b203-b876f0962480","system_id":"levelo_inurba_marseille","lat":43.2801,"lon":5.40014,"is_reserved":false,"is_disabled":true,"rental_uris":{"android":"levelo://app?vid=ea7050ff-7aa9-43ba-b203-b876f0962480","ios":"levelo://app?vid=ea7050ff-7aa9-43ba-b203-b876f0962480"},"vehicle_type_id":"4","last_reported":1735992976,"current_range_meters":0,"station_id":"ce4bho92rcd13ifvqh4g","pricing_plan_id":"cebpf4jnsgd1na2vs0mg"},{"bike_id":"f47cc448-ea28-46af-9678-e45bee2064c5","system_id":"levelo_inurba_marseille","lat":43.29703,"lon":5.36614,"is_reserved":false,"is_disabled":false,"rental_uris":{"android":"levelo://app?vid=f47cc448-ea28-46af-9678-e45bee2064c5","ios":"levelo://app?vid=f47cc448-ea28-46af-9678-e45bee2064c5"},"vehicle_type_id":"4","last_reported":1735992976,"current_range_meters":26000,"station_id":"ce4bgn12rcd13ifvqbt0","pricing_plan_id":"cebpf4jnsgd1na2vs0mg"},{"bike_id":"3b7e94f6-cbd6-4674-8821-2e30ba11b095","system_id":"levelo_inurba_marseille","lat":43.29787,"lon":5.38102,"is_reserved":false,"is_disabled":false,"rental_uris":{"android":"levelo://app?vid=3b7e94f6-cbd6-4674-8821-2e30ba11b095","ios":"levelo://app?vid=3b7e94f6-cbd6-4674-8821-2e30ba11b095"},"vehicle_type_id":"4","last_reported":1735992976,"current_range_meters":35600,"station_id":"ce4bgip2rcd13ifvqbb0","pricing_plan_id":"cebpf4jnsgd1na2vs0mg"},{"bike_id":"013a03d3-efe2-4f14-ab94-9d9f117fe332","system_id":"levelo_inurba_marseille","lat":43.26557,"lon":5.37298,"is_reserved":false,"is_disabled":true,"rental_uris":{"android":"levelo://app?vid=013a03d3-efe2-4f14-ab94-9d9f117fe332","ios":"levelo://app?vid=013a03d3-efe2-4f14-ab94-9d9f117fe332"},"vehicle_type_id":"4","last_reported":1735992976,"current_range_meters":0,"station_id":"ce4bhg12rcd13ifvqf70","pricing_plan_id":"cebpf4jnsgd1na2vs0mg"},{"bike_id":"2332862a-3884-4317-af82-ee9793e9b62c","system_id":"levelo_inurba_marseille","lat":43.24079,"lon":5.37745,"is_reserved":false,"is_disabled":false,"rental_uris":{"android":"levelo://app?vid=2332862a-3884-4317-af82-ee9793e9b62c","ios":"levelo://app?vid=2332862a-3884-4317-af82-ee9793e9b62c"},"vehicle_type_id":"4","last_reported":1735992976,"current_range_meters":16800,"station_id":"ce4bhnp2rcd13ifvqgvg","pricing_plan_id":"cebpf4jnsgd1na2vs0mg"},{"bike_id":"55178cb5-083e-468d-9649-938b464578d9","system_id":"levelo_inurba_marseille","lat":43.28411,"lon":5.37529,"is_reserved":false,"is_disabled":false,"rental_uris":{"android":"levelo://app?vid=55178cb5-083e-468d-9649-938b464578d9","ios":"levelo://app?vid=55178cb5-083e-468d-9649-938b464578d9"},"vehicle_type_id":"4","last_reported":1735992976,"current_range_meters":38800,"station_id":"ce4bh412rcd13ifvqds0","pricing_plan_id":"cebpf4jnsgd1na2vs0mg"},{"bike_id":"2a583d9b-e42e-4633-b002-dbbb4f9b26aa","system_id":"levelo_inurba_marseille","lat":43.299437,"lon":5.365529,"is_reserved":false,"is_disabled":false,"rental_uris":{"android":"levelo://app?vid=2a583d9b-e42e-4633-b002-dbbb4f9b26aa","ios":"levelo://app?vid=2a583d9b-e42e-4633-b002-dbbb4f9b26aa"},"vehicle_type_id":"4","last_reported":1735992976,"current_range_meters":20800,"station_id":"ce4bgm92rcd13ifvqbr0","pricing_plan_id":"cebpf4jnsgd1na2vs0mg"},{"bike_id":"9f003ca2-15ee-4e83-8275-3ea9eb768442","system_id":"levelo_inurba_marseille","lat":43.23187,"lon":5.39974,"is_reserved":false,"is_disabled":false,"rental_uris":{"android":"levelo://app?vid=9f003ca2-15ee-4e83-8275-3ea9eb768442","ios":"levelo://app?vid=9f003ca2-15ee-4e83-8275-3ea9eb768442"},"vehicle_type_id":"4","last_reported":1735992976,"current_range_meters":14000,"station_id":"ce4bhn12rcd13ifvqgqg","pricing_plan_id":"cebpf4jnsgd1na2vs0mg"},{"bike_id":"065e15fa-7fcf-47e7-bf49-de94cdc8d7c4","system_id":"levelo_inurba_marseille","lat":43.2841,"lon":5.37558,"is_reserved":false,"is_disabled":false,"rental_uris":{"android":"levelo://app?vid=065e15fa-7fcf-47e7-bf49-de94cdc8d7c4","ios":"levelo://app?vid=065e15fa-7fcf-47e7-bf49-de94cdc8d7c4"},"vehicle_type_id":"4","last_reported":1735992976,"current_range_meters":14000,"station_id":"ce4bh412rcd13ifvqds0","pricing_plan_id":"cebpf4jnsgd1na2vs0mg"},{"bike_id":"988e5514-5dae-459d-a3c0-310e7eb2e911","system_id":"levelo_inurba_marseille","lat":43.26491,"lon":5.39548,"is_reserved":false,"is_disabled":false,"rental_uris":{"android":"levelo://app?vid=988e5514-5dae-459d-a3c0-310e7eb2e911","ios":"levelo://app?vid=988e5514-5dae-459d-a3c0-310e7eb2e911"},"vehicle_type_id":"4","last_reported":1735992976,"current_range_meters":20400,"station_id":"ce4bhi12rcd13ifvqfq0","pricing_plan_id":"cebpf4jnsgd1na2vs0mg"},{"bike_id":"3a269826-99f7-4419-932c-0eb0bed13f31","system_id":"levelo_inurba_marseille","lat":43.23957,"lon":5.36633,"is_reserved":false,"is_disabled":false,"rental_uris":{"android":"levelo://app?vid=3a269826-99f7-4419-932c-0eb0bed13f31","ios":"levelo://app?vid=3a269826-99f7-4419-932c-0eb0bed13f31"},"vehicle_type_id":"4","last_reported":1735992976,"current_range_meters":25200,"station_id":"ce4bhi12rcd13ifvqfp0","pricing_plan_id":"cebpf4jnsgd1na2vs0mg"},{"bike_id":"a7973b12-e414-4ed9-be14-85978b8636dd","system_id":"levelo_inurba_marseille","lat":43.25858,"lon":5.39906,"is_reserved":false,"is_disabled":false,"rental_uris":{"android":"levelo://app?vid=a7973b12-e414-4ed9-be14-85978b8636dd","ios":"levelo://app?vid=a7973b12-e414-4ed9-be14-85978b8636dd"},"vehicle_type_id":"4","last_reported":1735992976,"current_range_meters":26000,"station_id":"ce4bhl92rcd13ifvqghg","pricing_plan_id":"cebpf4jnsgd1na2vs0mg"},{"bike_id":"3e69d140-cc67-483a-b50a-20ffb7c5a600","system_id":"levelo_inurba_marseille","lat":43.30144,"lon":5.39866,"is_reserved":false,"is_disabled":false,"rental_uris":{"android":"levelo://app?vid=3e69d140-cc67-483a-b50a-20ffb7c5a600","ios":"levelo://app?vid=3e69d140-cc67-483a-b50a-20ffb7c5a600"},"vehicle_type_id":"4","last_reported":1735992976,"current_range_meters":32000,"station_id":"ce4bh0h2rcd13ifvqd40","pricing_plan_id":"cebpf4jnsgd1na2vs0mg"},{"bike_id":"d50e2bae-0dcf-4591-b1a3-440e56293c39","system_id":"levelo_inurba_marseille","lat":43.28704,"lon":5.39989,"is_reserved":false,"is_disabled":false,"rental_uris":{"android":"levelo://app?vid=d50e2bae-0dcf-4591-b1a3-440e56293c39","ios":"levelo://app?vid=d50e2bae-0dcf-4591-b1a3-440e56293c39"},"vehicle_type_id":"4","last_reported":1735992976,"current_range_meters":27200,"station_id":"ce4bho92rcd13ifvqh3g","pricing_plan_id":"cebpf4jnsgd1na2vs0mg"},{"bike_id":"9a483109-5bce-4e89-a527-a3ced035742c","system_id":"levelo_inurba_marseille","lat":43.232,"lon":5.35554,"is_reserved":false,"is_disabled":false,"rental_uris":{"android":"levelo://app?vid=9a483109-5bce-4e89-a527-a3ced035742c","ios":"levelo://app?vid=9a483109-5bce-4e89-a527-a3ced035742c"},"vehicle_type_id":"4","last_reported":1735992976,"current_range_meters":16800,"station_id":"ce4bhu92rcd13ifvqi70","pricing_plan_id":"cebpf4jnsgd1na2vs0mg"},{"bike_id":"51c5751c-ae9d-41d8-ad5d-541a7df56882","system_id":"levelo_inurba_marseille","lat":43.29436,"lon":5.39736,"is_reserved":false,"is_disabled":false,"rental_uris":{"android":"levelo://app?vid=51c5751c-ae9d-41d8-ad5d-541a7df56882","ios":"levelo://app?vid=51c5751c-ae9d-41d8-ad5d-541a7df56882"},"vehicle_type_id":"4","last_reported":1735992976,"current_range_meters":5600,"station_id":"ce4bh3h2rcd13ifvqdo0","pricing_plan_id":"cebpf4jnsgd1na2vs0mg"},{"bike_id":"5053f1b9-d4ec-4bba-bcd6-7ca89a19f1b4","system_id":"levelo_inurba_marseille","lat":43.29871,"lon":5.38912,"is_reserved":false,"is_disabled":false,"rental_uris":{"android":"levelo://app?vid=5053f1b9-d4ec-4bba-bcd6-7ca89a19f1b4","ios":"levelo://app?vid=5053f1b9-d4ec-4bba-bcd6-7ca89a19f1b4"},"vehicle_type_id":"4","last_reported":1735992976,"current_range_meters":29600,"station_id":"ce4bh392rcd13ifvqdl0","pricing_plan_id":"cebpf4jnsgd1na2vs0mg"},{"bike_id":"435c2fef-ce1e-45cf-a3f2-3fdc486bf392","system_id":"levelo_inurba_marseille","lat":43.28264,"lon":5.35056,"is_reserved":false,"is_disabled":false,"rental_uris":{"android":"levelo://app?vid=435c2fef-ce1e-45cf-a3f2-3fdc486bf392","ios":"levelo://app?vid=435c2fef-ce1e-45cf-a3f2-3fdc486bf392"},"vehicle_type_id":"4","last_reported":1735992976,"current_range_meters":22000,"station_id":"ce4bhbp2rcd13ifvqerg","pricing_plan_id":"cebpf4jnsgd1na2vs0mg"},{"bike_id":"c38119df-a0cc-4d53-851b-aebce98309d3","system_id":"levelo_inurba_marseille","lat":43.24999,"lon":5.38927,"is_reserved":false,"is_disabled":false,"rental_uris":{"android":"levelo://app?vid=c38119df-a0cc-4d53-851b-aebce98309d3","ios":"levelo://app?vid=c38119df-a0cc-4d53-851b-aebce98309d3"},"vehicle_type_id":"4","last_reported":1735992976,"current_range_meters":4400,"station_id":"ce4bhgp2rcd13ifvqfd0","pricing_plan_id":"cebpf4jnsgd1na2vs0mg"},{"bike_id":"969c8a84-cf60-4395-8c81-a1d2e7dc81af","system_id":"levelo_inurba_marseille","lat":43.25852,"lon":5.39902,"is_reserved":false,"is_disabled":false,"rental_uris":{"android":"levelo://app?vid=969c8a84-cf60-4395-8c81-a1d2e7dc81af","ios":"levelo://app?vid=969c8a84-cf60-4395-8c81-a1d2e7dc81af"},"vehicle_type_id":"4","last_reported":1735992976,"current_range_meters":21600,"station_id":"ce4bhl92rcd13ifvqghg","pricing_plan_id":"cebpf4jnsgd1na2vs0mg"},{"bike_id":"83d8f140-e8bc-40d0-a354-52db760307d2","system_id":"levelo_inurba_marseille","lat":43.29577,"lon":5.37506,"is_reserved":false,"is_disabled":false,"rental_uris":{"android":"levelo://app?vid=83d8f140-e8bc-40d0-a354-52db760307d2","ios":"levelo://app?vid=83d8f140-e8bc-40d0-a354-52db760307d2"},"vehicle_type_id":"4","last_reported":1735992976,"current_range_meters":37600,"station_id":"ce4bgh92rcd13ifvqb50","pricing_plan_id":"cebpf4jnsgd1na2vs0mg"},{"bike_id":"9d2065c5-e801-47c6-a32c-5834d37e9dab","system_id":"levelo_inurba_marseille","lat":43.323658,"lon":5.38892,"is_reserved":false,"is_disabled":false,"rental_uris":{"android":"levelo://app?vid=9d2065c5-e801-47c6-a32c-5834d37e9dab","ios":"levelo://app?vid=9d2065c5-e801-47c6-a32c-5834d37e9dab"},"vehicle_type_id":"4","last_reported":1735992976,"current_range_meters":38800,"station_id":"ce4bhqp2rcd13ifvqhog","pricing_plan_id":"cebpf4jnsgd1na2vs0mg"},{"bike_id":"e62a9961-12fa-4314-af24-7ed97deb9ffe","system_id":"levelo_inurba_marseille","lat":43.31349,"lon":5.38468,"is_reserved":false,"is_disabled":false,"rental_uris":{"android":"levelo://app?vid=e62a9961-12fa-4314-af24-7ed97deb9ffe","ios":"levelo://app?vid=e62a9961-12fa-4314-af24-7ed97deb9ffe"},"vehicle_type_id":"4","last_reported":1735992976,"current_range_meters":12800,"station_id":"ce4bgt92rcd13ifvqcf0","pricing_plan_id":"cebpf4jnsgd1na2vs0mg"},{"bike_id":"f3d41f41-839d-41a5-aa6d-f2ba87ff18f0","system_id":"levelo_inurba_marseille","lat":43.24063,"lon":5.37727,"is_reserved":false,"is_disabled":true,"rental_uris":{"android":"levelo://app?vid=f3d41f41-839d-41a5-aa6d-f2ba87ff18f0","ios":"levelo://app?vid=f3d41f41-839d-41a5-aa6d-f2ba87ff18f0"},"vehicle_type_id":"4","last_reported":1735992976,"current_range_meters":0,"station_id":"ce4bhnp2rcd13ifvqgvg","pricing_plan_id":"cebpf4jnsgd1na2vs0mg"},{"bike_id":"6d14468d-d4fe-4fb2-b1d6-ebb52c384fb6","system_id":"levelo_inurba_marseille","lat":43.31996,"lon":5.38139,"is_reserved":false,"is_disabled":false,"rental_uris":{"android":"levelo://app?vid=6d14468d-d4fe-4fb2-b1d6-ebb52c384fb6","ios":"levelo://app?vid=6d14468d-d4fe-4fb2-b1d6-ebb52c384fb6"},"vehicle_type_id":"4","last_reported":1735992976,"current_range_meters":37600,"station_id":"ce4bhr12rcd13ifvqhpg","pricing_plan_id":"cebpf4jnsgd1na2vs0mg"},{"bike_id":"b53a20b9-08da-4184-99ce-cb0b1e239faa","system_id":"levelo_inurba_marseille","lat":43.29691,"lon":5.37708,"is_reserved":false,"is_disabled":false,"rental_uris":{"android":"levelo://app?vid=b53a20b9-08da-4184-99ce-cb0b1e239faa","ios":"levelo://app?vid=b53a20b9-08da-4184-99ce-cb0b1e239faa"},"vehicle_type_id":"4","last_reported":1735992976,"current_range_meters":36800,"station_id":"ce4bgkh2rcd13ifvqbl0","pricing_plan_id":"cebpf4jnsgd1na2vs0mg"},{"bike_id":"2f857458-45ae-4306-9ffb-5d94252d59a5","system_id":"levelo_inurba_marseille","lat":43.246485,"lon":5.388962,"is_reserved":false,"is_disabled":false,"rental_uris":{"android":"levelo://app?vid=2f857458-45ae-4306-9ffb-5d94252d59a5","ios":"levelo://app?vid=2f857458-45ae-4306-9ffb-5d94252d59a5"},"vehicle_type_id":"4","last_reported":1735992976,"current_range_meters":38400,"station_id":"ce4bhg12rcd13ifvqf60","pricing_plan_id":"cebpf4jnsgd1na2vs0mg"},{"bike_id":"1bc3f17f-3a03-40ea-93bc-69b7882c5876","system_id":"levelo_inurba_marseille","lat":43.33724,"lon":5.39179,"is_reserved":false,"is_disabled":false,"rental_uris":{"android":"levelo://app?vid=1bc3f17f-3a03-40ea-93bc-69b7882c5876","ios":"levelo://app?vid=1bc3f17f-3a03-40ea-93bc-69b7882c5876"},"vehicle_type_id":"4","last_reported":1735992976,"current_range_meters":38800,"station_id":"ce4bhr92rcd13ifvqhsg","pricing_plan_id":"cebpf4jnsgd1na2vs0mg"},{"bike_id":"7b78d5e2-5142-402d-a4f8-0f3037a6c533","system_id":"levelo_inurba_marseille","lat":43.26938,"lon":5.38639,"is_reserved":false,"is_disabled":true,"rental_uris":{"android":"levelo://app?vid=7b78d5e2-5142-402d-a4f8-0f3037a6c533","ios":"levelo://app?vid=7b78d5e2-5142-402d-a4f8-0f3037a6c533"},"vehicle_type_id":"4","last_reported":1735992976,"current_range_meters":12400,"station_id":"ce4bhh92rcd13ifvqfh0","pricing_plan_id":"cebpf4jnsgd1na2vs0mg"},{"bike_id":"00b0c897-4e8f-453d-8e9d-6135317dff3d","system_id":"levelo_inurba_marseille","lat":43.29544,"lon":5.42309,"is_reserved":false,"is_disabled":false,"rental_uris":{"android":"levelo://app?vid=00b0c897-4e8f-453d-8e9d-6135317dff3d","ios":"levelo://app?vid=00b0c897-4e8f-453d-8e9d-6135317dff3d"},"vehicle_type_id":"4","last_reported":1735992976,"current_range_meters":37600,"station_id":"ce4bhph2rcd13ifvqhdg","pricing_plan_id":"cebpf4jnsgd1na2vs0mg"},{"bike_id":"d0d21930-fe1d-478b-8251-bcf89564599d","system_id":"levelo_inurba_marseille","lat":43.295462,"lon":5.422769,"is_reserved":false,"is_disabled":false,"rental_uris":{"android":"levelo://app?vid=d0d21930-fe1d-478b-8251-bcf89564599d","ios":"levelo://app?vid=d0d21930-fe1d-478b-8251-bcf89564599d"},"vehicle_type_id":"4","last_reported":1735992976,"current_range_meters":29600,"station_id":"ce4bhph2rcd13ifvqhdg","pricing_plan_id":"cebpf4jnsgd1na2vs0mg"},{"bike_id":"08c4a974-c0c2-43d8-97a4-37f1bb19340f","system_id":"levelo_inurba_marseille","lat":43.29968,"lon":5.37197,"is_reserved":false,"is_disabled":false,"rental_uris":{"android":"levelo://app?vid=08c4a974-c0c2-43d8-97a4-37f1bb19340f","ios":"levelo://app?vid=08c4a974-c0c2-43d8-97a4-37f1bb19340f"},"vehicle_type_id":"4","last_reported":1735992976,"current_range_meters":38800,"station_id":"ce4bgr92rcd13ifvqc7g","pricing_plan_id":"cebpf4jnsgd1na2vs0mg"},{"bike_id":"e28f337e-a1f2-494e-bb6e-6f641c7550e7","system_id":"levelo_inurba_marseille","lat":43.28733,"lon":5.39975,"is_reserved":false,"is_disabled":false,"rental_uris":{"android":"levelo://app?vid=e28f337e-a1f2-494e-bb6e-6f641c7550e7","ios":"levelo://app?vid=e28f337e-a1f2-494e-bb6e-6f641c7550e7"},"vehicle_type_id":"4","last_reported":1735992976,"current_range_meters":27600,"station_id":"ce4bho92rcd13ifvqh3g","pricing_plan_id":"cebpf4jnsgd1na2vs0mg"},{"bike_id":"fa4eafc5-f041-4c4f-b394-d9b4910e49f8","system_id":"levelo_inurba_marseille","lat":43.28489,"lon":5.38412,"is_reserved":false,"is_disabled":false,"rental_uris":{"android":"levelo://app?vid=fa4eafc5-f041-4c4f-b394-d9b4910e49f8","ios":"levelo://app?vid=fa4eafc5-f041-4c4f-b394-d9b4910e49f8"},"vehicle_type_id":"4","last_reported":1735992976,"current_range_meters":27600,"station_id":"ce4bh512rcd13ifvqe3g","pricing_plan_id":"cebpf4jnsgd1na2vs0mg"},{"bike_id":"1237c156-cfa6-45ec-9298-949dcdbd11b6","system_id":"levelo_inurba_marseille","lat":43.27373,"lon":5.36243,"is_reserved":false,"is_disabled":false,"rental_uris":{"android":"levelo://app?vid=1237c156-cfa6-45ec-9298-949dcdbd11b6","ios":"levelo://app?vid=1237c156-cfa6-45ec-9298-949dcdbd11b6"},"vehicle_type_id":"4","last_reported":1735992976,"current_range_meters":36400,"station_id":"ce4bhbh2rcd13ifvqeo0","pricing_plan_id":"cebpf4jnsgd1na2vs0mg"},{"bike_id":"cb9ddef6-e3ca-4d83-8257-6a73eb8266c6","system_id":"levelo_inurba_marseille","lat":43.30209,"lon":5.39489,"is_reserved":false,"is_disabled":false,"rental_uris":{"android":"levelo://app?vid=cb9ddef6-e3ca-4d83-8257-6a73eb8266c6","ios":"levelo://app?vid=cb9ddef6-e3ca-4d83-8257-6a73eb8266c6"},"vehicle_type_id":"4","last_reported":1735992976,"current_range_meters":38800,"station_id":"ce4bh0p2rcd13ifvqd70","pricing_plan_id":"cebpf4jnsgd1na2vs0mg"},{"bike_id":"7b9e134f-1d5b-46f5-87f8-6cc312c5778f","system_id":"levelo_inurba_marseille","lat":43.229378,"lon":5.353735,"is_reserved":false,"is_disabled":false,"rental_uris":{"android":"levelo://app?vid=7b9e134f-1d5b-46f5-87f8-6cc312c5778f","ios":"levelo://app?vid=7b9e134f-1d5b-46f5-87f8-6cc312c5778f"},"vehicle_type_id":"4","last_reported":1735992976,"current_range_meters":37600,"station_id":"cpo3532slgdg3j2ikp40","pricing_plan_id":"cebpf4jnsgd1na2vs0mg"},{"bike_id":"0e41de93-d353-48b1-b083-22e6dba6e300","system_id":"levelo_inurba_marseille","lat":43.29276,"lon":5.40118,"is_reserved":false,"is_disabled":false,"rental_uris":{"android":"levelo://app?vid=0e41de93-d353-48b1-b083-22e6dba6e300","ios":"levelo://app?vid=0e41de93-d353-48b1-b083-22e6dba6e300"},"vehicle_type_id":"4","last_reported":1735992976,"current_range_meters":32000,"station_id":"ce4bh312rcd13ifvqdk0","pricing_plan_id":"cebpf4jnsgd1na2vs0mg"},{"bike_id":"7d2e0d05-7ab3-455c-a664-00e17370d396","system_id":"levelo_inurba_marseille","lat":43.29208,"lon":5.36071,"is_reserved":false,"is_disabled":false,"rental_uris":{"android":"levelo://app?vid=7d2e0d05-7ab3-455c-a664-00e17370d396","ios":"levelo://app?vid=7d2e0d05-7ab3-455c-a664-00e17370d396"},"vehicle_type_id":"4","last_reported":1735992976,"current_range_meters":38400,"station_id":"ce4bhbh2rcd13ifvqeqg","pricing_plan_id":"cebpf4jnsgd1na2vs0mg"},{"bike_id":"142c8682-4cf8-47dc-8cc7-c6ba1ff92a91","system_id":"levelo_inurba_marseille","lat":43.28929,"lon":5.36397,"is_reserved":false,"is_disabled":false,"rental_uris":{"android":"levelo://app?vid=142c8682-4cf8-47dc-8cc7-c6ba1ff92a91","ios":"levelo://app?vid=142c8682-4cf8-47dc-8cc7-c6ba1ff92a91"},"vehicle_type_id":"4","last_reported":1735992976,"current_range_meters":8000,"station_id":"ce4bhc92rcd13ifvqetg","pricing_plan_id":"cebpf4jnsgd1na2vs0mg"},{"bike_id":"b6bb9f04-4321-49e9-99be-1ec01f122623","system_id":"levelo_inurba_marseille","lat":43.27509,"lon":5.39401,"is_reserved":false,"is_disabled":false,"rental_uris":{"android":"levelo://app?vid=b6bb9f04-4321-49e9-99be-1ec01f122623","ios":"levelo://app?vid=b6bb9f04-4321-49e9-99be-1ec01f122623"},"vehicle_type_id":"4","last_reported":1735992976,"current_range_meters":38800,"station_id":"ce4bhdp2rcd13ifvqf20","pricing_plan_id":"cebpf4jnsgd1na2vs0mg"},{"bike_id":"9e672540-1648-484f-a5c2-4de8ec2c3161","system_id":"levelo_inurba_marseille","lat":43.29041,"lon":5.3997,"is_reserved":false,"is_disabled":false,"rental_uris":{"android":"levelo://app?vid=9e672540-1648-484f-a5c2-4de8ec2c3161","ios":"levelo://app?vid=9e672540-1648-484f-a5c2-4de8ec2c3161"},"vehicle_type_id":"4","last_reported":1735992976,"current_range_meters":37600,"station_id":"ce4bh392rcd13ifvqdm0","pricing_plan_id":"cebpf4jnsgd1na2vs0mg"},{"bike_id":"18be2513-45c3-4e27-86c0-fdebaa975a7a","system_id":"levelo_inurba_marseille","lat":43.29038,"lon":5.35922,"is_reserved":false,"is_disabled":false,"rental_uris":{"android":"levelo://app?vid=18be2513-45c3-4e27-86c0-fdebaa975a7a","ios":"levelo://app?vid=18be2513-45c3-4e27-86c0-fdebaa975a7a"},"vehicle_type_id":"4","last_reported":1735992976,"current_range_meters":28000,"station_id":"ce4bha92rcd13ifvqeg0","pricing_plan_id":"cebpf4jnsgd1na2vs0mg"},{"bike_id":"9085f317-eea3-445b-8bdd-28ff00ca8048","system_id":"levelo_inurba_marseille","lat":43.26696,"lon":5.38253,"is_reserved":false,"is_disabled":false,"rental_uris":{"android":"levelo://app?vid=9085f317-eea3-445b-8bdd-28ff00ca8048","ios":"levelo://app?vid=9085f317-eea3-445b-8bdd-28ff00ca8048"},"vehicle_type_id":"4","last_reported":1735992976,"current_range_meters":31200,"station_id":"ce4bhg92rcd13ifvqf90","pricing_plan_id":"cebpf4jnsgd1na2vs0mg"},{"bike_id":"a6f828f1-5f97-4da7-bf33-7d48a155db3e","system_id":"levelo_inurba_marseille","lat":43.27855,"lon":5.39205,"is_reserved":false,"is_disabled":false,"rental_uris":{"android":"levelo://app?vid=a6f828f1-5f97-4da7-bf33-7d48a155db3e","ios":"levelo://app?vid=a6f828f1-5f97-4da7-bf33-7d48a155db3e"},"vehicle_type_id":"4","last_reported":1735992976,"current_range_meters":27200,"station_id":"ce4bhjp2rcd13ifvqga0","pricing_plan_id":"cebpf4jnsgd1na2vs0mg"},{"bike_id":"a98b8f35-5f2b-432c-a0d3-987ee77cd202","system_id":"levelo_inurba_marseille","lat":43.29515,"lon":5.39045,"is_reserved":false,"is_disabled":false,"rental_uris":{"android":"levelo://app?vid=a98b8f35-5f2b-432c-a0d3-987ee77cd202","ios":"levelo://app?vid=a98b8f35-5f2b-432c-a0d3-987ee77cd202"},"vehicle_type_id":"4","last_reported":1735992976,"current_range_meters":11200,"station_id":"ce4bh3p2rcd13ifvqdp0","pricing_plan_id":"cebpf4jnsgd1na2vs0mg"},{"bike_id":"eb10e00d-fcb8-4bd9-a535-87ae22048a5d","system_id":"levelo_inurba_marseille","lat":43.24981,"lon":5.38953,"is_reserved":false,"is_disabled":false,"rental_uris":{"android":"levelo://app?vid=eb10e00d-fcb8-4bd9-a535-87ae22048a5d","ios":"levelo://app?vid=eb10e00d-fcb8-4bd9-a535-87ae22048a5d"},"vehicle_type_id":"4","last_reported":1735992976,"current_range_meters":5600,"station_id":"ce4bhgp2rcd13ifvqfd0","pricing_plan_id":"cebpf4jnsgd1na2vs0mg"},{"bike_id":"39eac7e1-1c2f-4c76-a68b-92a617572430","system_id":"levelo_inurba_marseille","lat":43.26209,"lon":5.37447,"is_reserved":false,"is_disabled":false,"rental_uris":{"android":"levelo://app?vid=39eac7e1-1c2f-4c76-a68b-92a617572430","ios":"levelo://app?vid=39eac7e1-1c2f-4c76-a68b-92a617572430"},"vehicle_type_id":"4","last_reported":1735992976,"current_range_meters":6000,"station_id":"ce4bhgp2rcd13ifvqfc0","pricing_plan_id":"cebpf4jnsgd1na2vs0mg"},{"bike_id":"2bb365b9-b0ab-4842-8b8c-e8de6374870a","system_id":"levelo_inurba_marseille","lat":43.24649,"lon":5.389,"is_reserved":false,"is_disabled":false,"rental_uris":{"android":"levelo://app?vid=2bb365b9-b0ab-4842-8b8c-e8de6374870a","ios":"levelo://app?vid=2bb365b9-b0ab-4842-8b8c-e8de6374870a"},"vehicle_type_id":"4","last_reported":1735992976,"current_range_meters":14000,"station_id":"ce4bhg12rcd13ifvqf60","pricing_plan_id":"cebpf4jnsgd1na2vs0mg"},{"bike_id":"4ba9ba25-ec3a-45d1-8892-9412ccb7839a","system_id":"levelo_inurba_marseille","lat":43.29437,"lon":5.39761,"is_reserved":false,"is_disabled":false,"rental_uris":{"android":"levelo://app?vid=4ba9ba25-ec3a-45d1-8892-9412ccb7839a","ios":"levelo://app?vid=4ba9ba25-ec3a-45d1-8892-9412ccb7839a"},"vehicle_type_id":"4","last_reported":1735992976,"current_range_meters":33600,"station_id":"ce4bh3h2rcd13ifvqdo0","pricing_plan_id":"cebpf4jnsgd1na2vs0mg"},{"bike_id":"accc800c-b134-4d76-a4ce-1dbdd8eb6265","system_id":"levelo_inurba_marseille","lat":43.32331,"lon":5.38899,"is_reserved":false,"is_disabled":false,"rental_uris":{"android":"levelo://app?vid=accc800c-b134-4d76-a4ce-1dbdd8eb6265","ios":"levelo://app?vid=accc800c-b134-4d76-a4ce-1dbdd8eb6265"},"vehicle_type_id":"4","last_reported":1735992976,"current_range_meters":38800,"station_id":"ce4bhqp2rcd13ifvqhog","pricing_plan_id":"cebpf4jnsgd1na2vs0mg"},{"bike_id":"37b7d8de-7cec-49cf-8527-82e8b4cc4c67","system_id":"levelo_inurba_marseille","lat":43.27091,"lon":5.41524,"is_reserved":false,"is_disabled":false,"rental_uris":{"android":"levelo://app?vid=37b7d8de-7cec-49cf-8527-82e8b4cc4c67","ios":"levelo://app?vid=37b7d8de-7cec-49cf-8527-82e8b4cc4c67"},"vehicle_type_id":"4","last_reported":1735992976,"current_range_meters":28000,"station_id":"","pricing_plan_id":"cebpf4jnsgd1na2vs0mg"},{"bike_id":"6c0950ff-ad32-4545-a3b0-d009b8de7beb","system_id":"levelo_inurba_marseille","lat":43.264895,"lon":5.395555,"is_reserved":false,"is_disabled":false,"rental_uris":{"android":"levelo://app?vid=6c0950ff-ad32-4545-a3b0-d009b8de7beb","ios":"levelo://app?vid=6c0950ff-ad32-4545-a3b0-d009b8de7beb"},"vehicle_type_id":"4","last_reported":1735992976,"current_range_meters":38800,"station_id":"ce4bhi12rcd13ifvqfq0","pricing_plan_id":"cebpf4jnsgd1na2vs0mg"},{"bike_id":"641d8acc-50b2-4173-ab23-c70f2a11d28e","system_id":"levelo_inurba_marseille","lat":43.28151,"lon":5.42653,"is_reserved":false,"is_disabled":true,"rental_uris":{"android":"levelo://app?vid=641d8acc-50b2-4173-ab23-c70f2a11d28e","ios":"levelo://app?vid=641d8acc-50b2-4173-ab23-c70f2a11d28e"},"vehicle_type_id":"4","last_reported":1735992976,"current_range_meters":36800,"station_id":"ce4bhnh2rcd13ifvqgug","pricing_plan_id":"cebpf4jnsgd1na2vs0mg"},{"bike_id":"0a903dd4-aa5a-4030-b502-395f71036d16","system_id":"levelo_inurba_marseille","lat":43.24666,"lon":5.38158,"is_reserved":false,"is_disabled":false,"rental_uris":{"android":"levelo://app?vid=0a903dd4-aa5a-4030-b502-395f71036d16","ios":"levelo://app?vid=0a903dd4-aa5a-4030-b502-395f71036d16"},"vehicle_type_id":"4","last_reported":1735992976,"current_range_meters":27600,"station_id":"ce4bhih2rcd13ifvqfr0","pricing_plan_id":"cebpf4jnsgd1na2vs0mg"},{"bike_id":"8e936699-fb94-4c05-a18e-6a31521ab968","system_id":"levelo_inurba_marseille","lat":43.2846,"lon":5.35898,"is_reserved":false,"is_disabled":false,"rental_uris":{"android":"levelo://app?vid=8e936699-fb94-4c05-a18e-6a31521ab968","ios":"levelo://app?vid=8e936699-fb94-4c05-a18e-6a31521ab968"},"vehicle_type_id":"4","last_reported":1735992976,"current_range_meters":30800,"station_id":"ce4bhah2rcd13ifvqei0","pricing_plan_id":"cebpf4jnsgd1na2vs0mg"},{"bike_id":"be9e1d18-8727-4f8c-9eed-b793cba74353","system_id":"levelo_inurba_marseille","lat":43.29513,"lon":5.3855,"is_reserved":false,"is_disabled":false,"rental_uris":{"android":"levelo://app?vid=be9e1d18-8727-4f8c-9eed-b793cba74353","ios":"levelo://app?vid=be9e1d18-8727-4f8c-9eed-b793cba74353"},"vehicle_type_id":"4","last_reported":1735992976,"current_range_meters":16800,"station_id":"ce4bgih2rcd13ifvqba0","pricing_plan_id":"cebpf4jnsgd1na2vs0mg"},{"bike_id":"ff50585c-8814-445e-8839-ad23299bdb4b","system_id":"levelo_inurba_marseille","lat":43.24671,"lon":5.38168,"is_reserved":false,"is_disabled":false,"rental_uris":{"android":"levelo://app?vid=ff50585c-8814-445e-8839-ad23299bdb4b","ios":"levelo://app?vid=ff50585c-8814-445e-8839-ad23299bdb4b"},"vehicle_type_id":"4","last_reported":1735992976,"current_range_meters":20000,"station_id":"ce4bhih2rcd13ifvqfr0","pricing_plan_id":"cebpf4jnsgd1na2vs0mg"},{"bike_id":"bd609247-c05b-4bfd-8224-3974e4956916","system_id":"levelo_inurba_marseille","lat":43.308007,"lon":5.37002,"is_reserved":false,"is_disabled":true,"rental_uris":{"android":"levelo://app?vid=bd609247-c05b-4bfd-8224-3974e4956916","ios":"levelo://app?vid=bd609247-c05b-4bfd-8224-3974e4956916"},"vehicle_type_id":"4","last_reported":1735992976,"current_range_meters":36800,"station_id":"ce4bgn92rcd13ifvqbvg","pricing_plan_id":"cebpf4jnsgd1na2vs0mg"},{"bike_id":"ff32ef5e-983a-4994-b2e1-7d8331ebbaf3","system_id":"levelo_inurba_marseille","lat":43.29275,"lon":5.40112,"is_reserved":false,"is_disabled":false,"rental_uris":{"android":"levelo://app?vid=ff32ef5e-983a-4994-b2e1-7d8331ebbaf3","ios":"levelo://app?vid=ff32ef5e-983a-4994-b2e1-7d8331ebbaf3"},"vehicle_type_id":"4","last_reported":1735992976,"current_range_meters":27200,"station_id":"ce4bh312rcd13ifvqdk0","pricing_plan_id":"cebpf4jnsgd1na2vs0mg"},{"bike_id":"1595e294-9733-45f9-a349-ecb14d4eee41","system_id":"levelo_inurba_marseille","lat":43.262,"lon":5.37923,"is_reserved":false,"is_disabled":false,"rental_uris":{"android":"levelo://app?vid=1595e294-9733-45f9-a349-ecb14d4eee41","ios":"levelo://app?vid=1595e294-9733-45f9-a349-ecb14d4eee41"},"vehicle_type_id":"4","last_reported":1735992976,"current_range_meters":38400,"station_id":"ce4bhjp2rcd13ifvqg90","pricing_plan_id":"cebpf4jnsgd1na2vs0mg"},{"bike_id":"0a3ae262-e4e9-456e-b2b6-83dd5ef5dc3a","system_id":"levelo_inurba_marseille","lat":43.30551,"lon":5.36538,"is_reserved":false,"is_disabled":false,"rental_uris":{"android":"levelo://app?vid=0a3ae262-e4e9-456e-b2b6-83dd5ef5dc3a","ios":"levelo://app?vid=0a3ae262-e4e9-456e-b2b6-83dd5ef5dc3a"},"vehicle_type_id":"4","last_reported":1735992976,"current_range_meters":39200,"station_id":"ce4bgs12rcd13ifvqcag","pricing_plan_id":"cebpf4jnsgd1na2vs0mg"},{"bike_id":"b50c1e04-9c20-4daa-ad06-7d854e9beedd","system_id":"levelo_inurba_marseille","lat":43.26193,"lon":5.37462,"is_reserved":false,"is_disabled":false,"rental_uris":{"android":"levelo://app?vid=b50c1e04-9c20-4daa-ad06-7d854e9beedd","ios":"levelo://app?vid=b50c1e04-9c20-4daa-ad06-7d854e9beedd"},"vehicle_type_id":"4","last_reported":1735992976,"current_range_meters":33200,"station_id":"ce4bhgp2rcd13ifvqfc0","pricing_plan_id":"cebpf4jnsgd1na2vs0mg"},{"bike_id":"6072a47d-013b-4750-94cc-06b5f4e2ad66","system_id":"levelo_inurba_marseille","lat":43.29551,"lon":5.42291,"is_reserved":false,"is_disabled":false,"rental_uris":{"android":"levelo://app?vid=6072a47d-013b-4750-94cc-06b5f4e2ad66","ios":"levelo://app?vid=6072a47d-013b-4750-94cc-06b5f4e2ad66"},"vehicle_type_id":"4","last_reported":1735992976,"current_range_meters":20800,"station_id":"ce4bhph2rcd13ifvqhdg","pricing_plan_id":"cebpf4jnsgd1na2vs0mg"},{"bike_id":"02c5321a-33d7-4994-b32b-80be0689d735","system_id":"levelo_inurba_marseille","lat":43.29531,"lon":5.38552,"is_reserved":false,"is_disabled":false,"rental_uris":{"android":"levelo://app?vid=02c5321a-33d7-4994-b32b-80be0689d735","ios":"levelo://app?vid=02c5321a-33d7-4994-b32b-80be0689d735"},"vehicle_type_id":"4","last_reported":1735992976,"current_range_meters":22800,"station_id":"ce4bgih2rcd13ifvqba0","pricing_plan_id":"cebpf4jnsgd1na2vs0mg"},{"bike_id":"1d0ee6fa-7e84-4bad-a513-32569bfb99a6","system_id":"levelo_inurba_marseille","lat":43.27414,"lon":5.394126,"is_reserved":false,"is_disabled":false,"rental_uris":{"android":"levelo://app?vid=1d0ee6fa-7e84-4bad-a513-32569bfb99a6","ios":"levelo://app?vid=1d0ee6fa-7e84-4bad-a513-32569bfb99a6"},"vehicle_type_id":"4","last_reported":1735992976,"current_range_meters":38800,"station_id":"ce4bhdp2rcd13ifvqf20","pricing_plan_id":"cebpf4jnsgd1na2vs0mg"},{"bike_id":"d1bd4f0e-c325-415d-9d63-e6cf1bffab21","system_id":"levelo_inurba_marseille","lat":43.32008,"lon":5.41547,"is_reserved":false,"is_disabled":false,"rental_uris":{"android":"levelo://app?vid=d1bd4f0e-c325-415d-9d63-e6cf1bffab21","ios":"levelo://app?vid=d1bd4f0e-c325-415d-9d63-e6cf1bffab21"},"vehicle_type_id":"4","last_reported":1735992976,"current_range_meters":38800,"station_id":"ce4bhq92rcd13ifvqhkg","pricing_plan_id":"cebpf4jnsgd1na2vs0mg"},{"bike_id":"983a939f-0c90-4b41-8e07-1ba37a328643","system_id":"levelo_inurba_marseille","lat":43.2417,"lon":5.36402,"is_reserved":false,"is_disabled":false,"rental_uris":{"android":"levelo://app?vid=983a939f-0c90-4b41-8e07-1ba37a328643","ios":"levelo://app?vid=983a939f-0c90-4b41-8e07-1ba37a328643"},"vehicle_type_id":"4","last_reported":1735992976,"current_range_meters":25200,"station_id":"cpo36qri1sfpv3e86is0","pricing_plan_id":"cebpf4jnsgd1na2vs0mg"},{"bike_id":"0d36baca-b4e4-4eb6-85e9-d02c7038df15","system_id":"levelo_inurba_marseille","lat":43.30548,"lon":5.36551,"is_reserved":false,"is_disabled":true,"rental_uris":{"android":"levelo://app?vid=0d36baca-b4e4-4eb6-85e9-d02c7038df15","ios":"levelo://app?vid=0d36baca-b4e4-4eb6-85e9-d02c7038df15"},"vehicle_type_id":"4","last_reported":1735992976,"current_range_meters":27600,"station_id":"ce4bgs12rcd13ifvqcag","pricing_plan_id":"cebpf4jnsgd1na2vs0mg"},{"bike_id":"376c5e24-8c99-4a45-b448-d5554cb31c99","system_id":"levelo_inurba_marseille","lat":43.28668,"lon":5.40036,"is_reserved":false,"is_disabled":true,"rental_uris":{"android":"levelo://app?vid=376c5e24-8c99-4a45-b448-d5554cb31c99","ios":"levelo://app?vid=376c5e24-8c99-4a45-b448-d5554cb31c99"},"vehicle_type_id":"4","last_reported":1735992976,"current_range_meters":36400,"station_id":"","pricing_plan_id":"cebpf4jnsgd1na2vs0mg"},{"bike_id":"ff7a9622-1da0-4e49-b6f5-81182770c92a","system_id":"levelo_inurba_marseille","lat":43.323628,"lon":5.388878,"is_reserved":false,"is_disabled":false,"rental_uris":{"android":"levelo://app?vid=ff7a9622-1da0-4e49-b6f5-81182770c92a","ios":"levelo://app?vid=ff7a9622-1da0-4e49-b6f5-81182770c92a"},"vehicle_type_id":"4","last_reported":1735992976,"current_range_meters":36800,"station_id":"ce4bhqp2rcd13ifvqhog","pricing_plan_id":"cebpf4jnsgd1na2vs0mg"},{"bike_id":"349a4ab8-6f13-4948-be71-abaadb9466ee","system_id":"levelo_inurba_marseille","lat":43.240725,"lon":5.377465,"is_reserved":false,"is_disabled":false,"rental_uris":{"android":"levelo://app?vid=349a4ab8-6f13-4948-be71-abaadb9466ee","ios":"levelo://app?vid=349a4ab8-6f13-4948-be71-abaadb9466ee"},"vehicle_type_id":"4","last_reported":1735992976,"current_range_meters":38000,"station_id":"ce4bhnp2rcd13ifvqgvg","pricing_plan_id":"cebpf4jnsgd1na2vs0mg"},{"bike_id":"65ac3048-33e1-41aa-81f5-a58ffe909868","system_id":"levelo_inurba_marseille","lat":43.27999,"lon":5.40023,"is_reserved":false,"is_disabled":false,"rental_uris":{"android":"levelo://app?vid=65ac3048-33e1-41aa-81f5-a58ffe909868","ios":"levelo://app?vid=65ac3048-33e1-41aa-81f5-a58ffe909868"},"vehicle_type_id":"4","last_reported":1735992976,"current_range_meters":38000,"station_id":"ce4bho92rcd13ifvqh4g","pricing_plan_id":"cebpf4jnsgd1na2vs0mg"},{"bike_id":"a5857756-0478-41f2-bfa4-405eeda359bc","system_id":"levelo_inurba_marseille","lat":43.26697,"lon":5.38272,"is_reserved":false,"is_disabled":false,"rental_uris":{"android":"levelo://app?vid=a5857756-0478-41f2-bfa4-405eeda359bc","ios":"levelo://app?vid=a5857756-0478-41f2-bfa4-405eeda359bc"},"vehicle_type_id":"4","last_reported":1735992976,"current_range_meters":39200,"station_id":"ce4bhg92rcd13ifvqf90","pricing_plan_id":"cebpf4jnsgd1na2vs0mg"},{"bike_id":"e9c9ac99-6db0-4a19-9854-52585a709e6e","system_id":"levelo_inurba_marseille","lat":43.29602,"lon":5.3673,"is_reserved":false,"is_disabled":false,"rental_uris":{"android":"levelo://app?vid=e9c9ac99-6db0-4a19-9854-52585a709e6e","ios":"levelo://app?vid=e9c9ac99-6db0-4a19-9854-52585a709e6e"},"vehicle_type_id":"4","last_reported":1735992976,"current_range_meters":34800,"station_id":"ce4bgph2rcd13ifvqc2g","pricing_plan_id":"cebpf4jnsgd1na2vs0mg"},{"bike_id":"cd7e8ac3-1dc5-42c5-81f3-d095d2efc35c","system_id":"levelo_inurba_marseille","lat":43.23198,"lon":5.35559,"is_reserved":false,"is_disabled":false,"rental_uris":{"android":"levelo://app?vid=cd7e8ac3-1dc5-42c5-81f3-d095d2efc35c","ios":"levelo://app?vid=cd7e8ac3-1dc5-42c5-81f3-d095d2efc35c"},"vehicle_type_id":"4","last_reported":1735992976,"current_range_meters":22800,"station_id":"ce4bhu92rcd13ifvqi70","pricing_plan_id":"cebpf4jnsgd1na2vs0mg"},{"bike_id":"f3998a04-3b93-4948-8eb7-aa16047370fd","system_id":"levelo_inurba_marseille","lat":43.279506,"lon":5.410491,"is_reserved":false,"is_disabled":false,"rental_uris":{"android":"levelo://app?vid=f3998a04-3b93-4948-8eb7-aa16047370fd","ios":"levelo://app?vid=f3998a04-3b93-4948-8eb7-aa16047370fd"},"vehicle_type_id":"4","last_reported":1735992976,"current_range_meters":13600,"station_id":"ce4bhnp2rcd13ifvqh0g","pricing_plan_id":"cebpf4jnsgd1na2vs0mg"},{"bike_id":"a7bb63bd-2236-4c9a-b3ab-757ddfd808f2","system_id":"levelo_inurba_marseille","lat":43.29618,"lon":5.37183,"is_reserved":false,"is_disabled":false,"rental_uris":{"android":"levelo://app?vid=a7bb63bd-2236-4c9a-b3ab-757ddfd808f2","ios":"levelo://app?vid=a7bb63bd-2236-4c9a-b3ab-757ddfd808f2"},"vehicle_type_id":"4","last_reported":1735992976,"current_range_meters":38800,"station_id":"ce4bgnh2rcd13ifvqc0g","pricing_plan_id":"cebpf4jnsgd1na2vs0mg"},{"bike_id":"f3435332-11c4-4ce2-9f7e-083072d5319f","system_id":"levelo_inurba_marseille","lat":43.25497,"lon":5.3766,"is_reserved":false,"is_disabled":false,"rental_uris":{"android":"levelo://app?vid=f3435332-11c4-4ce2-9f7e-083072d5319f","ios":"levelo://app?vid=f3435332-11c4-4ce2-9f7e-083072d5319f"},"vehicle_type_id":"4","last_reported":1735992976,"current_range_meters":18000,"station_id":"ce4bhh12rcd13ifvqff0","pricing_plan_id":"cebpf4jnsgd1na2vs0mg"},{"bike_id":"ae269516-63cb-416b-964a-217904f9d7b3","system_id":"levelo_inurba_marseille","lat":43.23187,"lon":5.39996,"is_reserved":false,"is_disabled":false,"rental_uris":{"android":"levelo://app?vid=ae269516-63cb-416b-964a-217904f9d7b3","ios":"levelo://app?vid=ae269516-63cb-416b-964a-217904f9d7b3"},"vehicle_type_id":"4","last_reported":1735992976,"current_range_meters":9200,"station_id":"ce4bhn12rcd13ifvqgqg","pricing_plan_id":"cebpf4jnsgd1na2vs0mg"},{"bike_id":"8eaddbb8-2f97-4567-9dec-1039feb1c239","system_id":"levelo_inurba_marseille","lat":43.28074,"lon":5.39668,"is_reserved":false,"is_disabled":false,"rental_uris":{"android":"levelo://app?vid=8eaddbb8-2f97-4567-9dec-1039feb1c239","ios":"levelo://app?vid=8eaddbb8-2f97-4567-9dec-1039feb1c239"},"vehicle_type_id":"4","last_reported":1735992976,"current_range_meters":33600,"station_id":"ce4bho12rcd13ifvqh2g","pricing_plan_id":"cebpf4jnsgd1na2vs0mg"},{"bike_id":"566e5b0c-ede0-4489-a438-97080b33db37","system_id":"levelo_inurba_marseille","lat":43.28398,"lon":5.37517,"is_reserved":false,"is_disabled":false,"rental_uris":{"android":"levelo://app?vid=566e5b0c-ede0-4489-a438-97080b33db37","ios":"levelo://app?vid=566e5b0c-ede0-4489-a438-97080b33db37"},"vehicle_type_id":"4","last_reported":1735992976,"current_range_meters":19600,"station_id":"ce4bh412rcd13ifvqds0","pricing_plan_id":"cebpf4jnsgd1na2vs0mg"},{"bike_id":"80015150-ed7a-4567-92b6-885b195b502e","system_id":"levelo_inurba_marseille","lat":43.30152,"lon":5.38059,"is_reserved":false,"is_disabled":false,"rental_uris":{"android":"levelo://app?vid=80015150-ed7a-4567-92b6-885b195b502e","ios":"levelo://app?vid=80015150-ed7a-4567-92b6-885b195b502e"},"vehicle_type_id":"4","last_reported":1735992976,"current_range_meters":38000,"station_id":"ce4bgjp2rcd13ifvqbh0","pricing_plan_id":"cebpf4jnsgd1na2vs0mg"},{"bike_id":"eaecfcca-aa89-4e9a-8d17-c5be1539665b","system_id":"levelo_inurba_marseille","lat":43.282866,"lon":5.350671,"is_reserved":false,"is_disabled":true,"rental_uris":{"android":"levelo://app?vid=eaecfcca-aa89-4e9a-8d17-c5be1539665b","ios":"levelo://app?vid=eaecfcca-aa89-4e9a-8d17-c5be1539665b"},"vehicle_type_id":"4","last_reported":1735992976,"current_range_meters":6800,"station_id":"ce4bhbp2rcd13ifvqerg","pricing_plan_id":"cebpf4jnsgd1na2vs0mg"},{"bike_id":"896797d5-e48c-435a-a4ff-c7d0b4682116","system_id":"levelo_inurba_marseille","lat":43.27823,"lon":5.40742,"is_reserved":false,"is_disabled":false,"rental_uris":{"android":"levelo://app?vid=896797d5-e48c-435a-a4ff-c7d0b4682116","ios":"levelo://app?vid=896797d5-e48c-435a-a4ff-c7d0b4682116"},"vehicle_type_id":"4","last_reported":1735992976,"current_range_meters":27600,"station_id":"ce4bhnh2rcd13ifvqgtg","pricing_plan_id":"cebpf4jnsgd1na2vs0mg"},{"bike_id":"13ef7d4c-1aac-463f-b78f-283376e4de16","system_id":"levelo_inurba_marseille","lat":43.229239,"lon":5.353785,"is_reserved":false,"is_disabled":false,"rental_uris":{"android":"levelo://app?vid=13ef7d4c-1aac-463f-b78f-283376e4de16","ios":"levelo://app?vid=13ef7d4c-1aac-463f-b78f-283376e4de16"},"vehicle_type_id":"4","last_reported":1735992976,"current_range_meters":37600,"station_id":"cpo3532slgdg3j2ikp40","pricing_plan_id":"cebpf4jnsgd1na2vs0mg"},{"bike_id":"182d15fd-7cce-4c69-b6e4-796119d4e789","system_id":"levelo_inurba_marseille","lat":43.2997,"lon":5.38502,"is_reserved":false,"is_disabled":false,"rental_uris":{"android":"levelo://app?vid=182d15fd-7cce-4c69-b6e4-796119d4e789","ios":"levelo://app?vid=182d15fd-7cce-4c69-b6e4-796119d4e789"},"vehicle_type_id":"4","last_reported":1735992976,"current_range_meters":39200,"station_id":"ce4bgj92rcd13ifvqbd0","pricing_plan_id":"cebpf4jnsgd1na2vs0mg"},{"bike_id":"0d707ffc-f707-4ef1-b382-12ca6e4a0156","system_id":"levelo_inurba_marseille","lat":43.26794,"lon":5.39461,"is_reserved":false,"is_disabled":false,"rental_uris":{"android":"levelo://app?vid=0d707ffc-f707-4ef1-b382-12ca6e4a0156","ios":"levelo://app?vid=0d707ffc-f707-4ef1-b382-12ca6e4a0156"},"vehicle_type_id":"4","last_reported":1735992976,"current_range_meters":37600,"station_id":"ce4bhh12rcd13ifvqfg0","pricing_plan_id":"cebpf4jnsgd1na2vs0mg"},{"bike_id":"737c4a13-df3a-40ac-97ca-cd5025dd7708","system_id":"levelo_inurba_marseille","lat":43.30543,"lon":5.36526,"is_reserved":false,"is_disabled":false,"rental_uris":{"android":"levelo://app?vid=737c4a13-df3a-40ac-97ca-cd5025dd7708","ios":"levelo://app?vid=737c4a13-df3a-40ac-97ca-cd5025dd7708"},"vehicle_type_id":"4","last_reported":1735992976,"current_range_meters":36000,"station_id":"ce4bgs12rcd13ifvqcag","pricing_plan_id":"cebpf4jnsgd1na2vs0mg"},{"bike_id":"48a2aeaf-61cf-442f-b778-87582b49d3f9","system_id":"levelo_inurba_marseille","lat":43.28476,"lon":5.38427,"is_reserved":false,"is_disabled":false,"rental_uris":{"android":"levelo://app?vid=48a2aeaf-61cf-442f-b778-87582b49d3f9","ios":"levelo://app?vid=48a2aeaf-61cf-442f-b778-87582b49d3f9"},"vehicle_type_id":"4","last_reported":1735992976,"current_range_meters":36400,"station_id":"ce4bh512rcd13ifvqe3g","pricing_plan_id":"cebpf4jnsgd1na2vs0mg"},{"bike_id":"7dc7f90c-9b5a-4156-bb8c-6b3569b701da","system_id":"levelo_inurba_marseille","lat":43.25114,"lon":5.40323,"is_reserved":false,"is_disabled":false,"rental_uris":{"android":"levelo://app?vid=7dc7f90c-9b5a-4156-bb8c-6b3569b701da","ios":"levelo://app?vid=7dc7f90c-9b5a-4156-bb8c-6b3569b701da"},"vehicle_type_id":"4","last_reported":1735992976,"current_range_meters":33200,"station_id":"ce4bhlh2rcd13ifvqgig","pricing_plan_id":"cebpf4jnsgd1na2vs0mg"},{"bike_id":"d6ffb7e5-f3ee-45fd-86b7-d7642d09152c","system_id":"levelo_inurba_marseille","lat":43.24999,"lon":5.38942,"is_reserved":false,"is_disabled":false,"rental_uris":{"android":"levelo://app?vid=d6ffb7e5-f3ee-45fd-86b7-d7642d09152c","ios":"levelo://app?vid=d6ffb7e5-f3ee-45fd-86b7-d7642d09152c"},"vehicle_type_id":"4","last_reported":1735992976,"current_range_meters":27600,"station_id":"ce4bhgp2rcd13ifvqfd0","pricing_plan_id":"cebpf4jnsgd1na2vs0mg"},{"bike_id":"c023bde9-ffda-4fe0-b15d-b0ad0e628af2","system_id":"levelo_inurba_marseille","lat":43.254986,"lon":5.376612,"is_reserved":false,"is_disabled":false,"rental_uris":{"android":"levelo://app?vid=c023bde9-ffda-4fe0-b15d-b0ad0e628af2","ios":"levelo://app?vid=c023bde9-ffda-4fe0-b15d-b0ad0e628af2"},"vehicle_type_id":"4","last_reported":1735992976,"current_range_meters":35200,"station_id":"ce4bhh12rcd13ifvqff0","pricing_plan_id":"cebpf4jnsgd1na2vs0mg"},{"bike_id":"68ef66f0-dd96-424a-ba29-3c004929578e","system_id":"levelo_inurba_marseille","lat":43.23193,"lon":5.3999,"is_reserved":false,"is_disabled":false,"rental_uris":{"android":"levelo://app?vid=68ef66f0-dd96-424a-ba29-3c004929578e","ios":"levelo://app?vid=68ef66f0-dd96-424a-ba29-3c004929578e"},"vehicle_type_id":"4","last_reported":1735992976,"current_range_meters":39200,"station_id":"ce4bhn12rcd13ifvqgqg","pricing_plan_id":"cebpf4jnsgd1na2vs0mg"},{"bike_id":"97c4f5f6-17ea-4acf-ba14-514df5ec3483","system_id":"levelo_inurba_marseille","lat":43.29007,"lon":5.35611,"is_reserved":false,"is_disabled":false,"rental_uris":{"android":"levelo://app?vid=97c4f5f6-17ea-4acf-ba14-514df5ec3483","ios":"levelo://app?vid=97c4f5f6-17ea-4acf-ba14-514df5ec3483"},"vehicle_type_id":"4","last_reported":1735992976,"current_range_meters":35600,"station_id":"ce4bhb92rcd13ifvqen0","pricing_plan_id":"cebpf4jnsgd1na2vs0mg"},{"bike_id":"eae11c21-0e68-4841-b456-38f5bd6f851c","system_id":"levelo_inurba_marseille","lat":43.26784,"lon":5.39426,"is_reserved":false,"is_disabled":false,"rental_uris":{"android":"levelo://app?vid=eae11c21-0e68-4841-b456-38f5bd6f851c","ios":"levelo://app?vid=eae11c21-0e68-4841-b456-38f5bd6f851c"},"vehicle_type_id":"4","last_reported":1735992976,"current_range_meters":14400,"station_id":"ce4bhh12rcd13ifvqfg0","pricing_plan_id":"cebpf4jnsgd1na2vs0mg"},{"bike_id":"270f72ca-6ff0-4006-b955-8701cfe72efd","system_id":"levelo_inurba_marseille","lat":43.29207,"lon":5.40103,"is_reserved":false,"is_disabled":true,"rental_uris":{"android":"levelo://app?vid=270f72ca-6ff0-4006-b955-8701cfe72efd","ios":"levelo://app?vid=270f72ca-6ff0-4006-b955-8701cfe72efd"},"vehicle_type_id":"4","last_reported":1735992976,"current_range_meters":6800,"station_id":"ce4bh312rcd13ifvqdk0","pricing_plan_id":"cebpf4jnsgd1na2vs0mg"},{"bike_id":"535b2540-3dc2-442a-9887-78cf9d2b5654","system_id":"levelo_inurba_marseille","lat":43.301487,"lon":5.380853,"is_reserved":false,"is_disabled":false,"rental_uris":{"android":"levelo://app?vid=535b2540-3dc2-442a-9887-78cf9d2b5654","ios":"levelo://app?vid=535b2540-3dc2-442a-9887-78cf9d2b5654"},"vehicle_type_id":"4","last_reported":1735992976,"current_range_meters":38400,"station_id":"ce4bgjp2rcd13ifvqbh0","pricing_plan_id":"cebpf4jnsgd1na2vs0mg"},{"bike_id":"16ef519c-c129-4a25-869c-377cd2829023","system_id":"levelo_inurba_marseille","lat":43.32006,"lon":5.38154,"is_reserved":false,"is_disabled":false,"rental_uris":{"android":"levelo://app?vid=16ef519c-c129-4a25-869c-377cd2829023","ios":"levelo://app?vid=16ef519c-c129-4a25-869c-377cd2829023"},"vehicle_type_id":"4","last_reported":1735992976,"current_range_meters":24400,"station_id":"ce4bhr12rcd13ifvqhpg","pricing_plan_id":"cebpf4jnsgd1na2vs0mg"},{"bike_id":"40585e89-8480-4511-a157-1e8766e5bf28","system_id":"levelo_inurba_marseille","lat":43.26196,"lon":5.37452,"is_reserved":false,"is_disabled":false,"rental_uris":{"android":"levelo://app?vid=40585e89-8480-4511-a157-1e8766e5bf28","ios":"levelo://app?vid=40585e89-8480-4511-a157-1e8766e5bf28"},"vehicle_type_id":"4","last_reported":1735992976,"current_range_meters":29600,"station_id":"ce4bhgp2rcd13ifvqfc0","pricing_plan_id":"cebpf4jnsgd1na2vs0mg"},{"bike_id":"dcbbbac4-6615-48d1-aecd-87a0c7ad19b6","system_id":"levelo_inurba_marseille","lat":43.32478,"lon":5.36574,"is_reserved":false,"is_disabled":false,"rental_uris":{"android":"levelo://app?vid=dcbbbac4-6615-48d1-aecd-87a0c7ad19b6","ios":"levelo://app?vid=dcbbbac4-6615-48d1-aecd-87a0c7ad19b6"},"vehicle_type_id":"4","last_reported":1735992976,"current_range_meters":39200,"station_id":"ce4bhs12rcd13ifvqhvg","pricing_plan_id":"cebpf4jnsgd1na2vs0mg"},{"bike_id":"b5de95e0-8f34-41aa-a5fc-c4e76e03a994","system_id":"levelo_inurba_marseille","lat":43.28048,"lon":5.39682,"is_reserved":false,"is_disabled":true,"rental_uris":{"android":"levelo://app?vid=b5de95e0-8f34-41aa-a5fc-c4e76e03a994","ios":"levelo://app?vid=b5de95e0-8f34-41aa-a5fc-c4e76e03a994"},"vehicle_type_id":"4","last_reported":1735992976,"current_range_meters":36400,"station_id":"ce4bho12rcd13ifvqh2g","pricing_plan_id":"cebpf4jnsgd1na2vs0mg"},{"bike_id":"aa33a53e-f806-43a8-ad7e-8e2bd9644426","system_id":"levelo_inurba_marseille","lat":43.32354,"lon":5.40637,"is_reserved":false,"is_disabled":true,"rental_uris":{"android":"levelo://app?vid=aa33a53e-f806-43a8-ad7e-8e2bd9644426","ios":"levelo://app?vid=aa33a53e-f806-43a8-ad7e-8e2bd9644426"},"vehicle_type_id":"4","last_reported":1735992976,"current_range_meters":800,"station_id":"ce4bhq92rcd13ifvqhjg","pricing_plan_id":"cebpf4jnsgd1na2vs0mg"},{"bike_id":"b9dc4ae5-8ee5-4a0e-8a96-a2e835ae7769","system_id":"levelo_inurba_marseille","lat":43.24385,"lon":5.370682,"is_reserved":false,"is_disabled":false,"rental_uris":{"android":"levelo://app?vid=b9dc4ae5-8ee5-4a0e-8a96-a2e835ae7769","ios":"levelo://app?vid=b9dc4ae5-8ee5-4a0e-8a96-a2e835ae7769"},"vehicle_type_id":"4","last_reported":1735992976,"current_range_meters":17600,"station_id":"ce4bhhh2rcd13ifvqfk0","pricing_plan_id":"cebpf4jnsgd1na2vs0mg"},{"bike_id":"2bd213f6-7c3b-4206-a8d7-1b059cfadb7f","system_id":"levelo_inurba_marseille","lat":43.33752,"lon":5.39199,"is_reserved":false,"is_disabled":false,"rental_uris":{"android":"levelo://app?vid=2bd213f6-7c3b-4206-a8d7-1b059cfadb7f","ios":"levelo://app?vid=2bd213f6-7c3b-4206-a8d7-1b059cfadb7f"},"vehicle_type_id":"4","last_reported":1735992976,"current_range_meters":38800,"station_id":"ce4bhr92rcd13ifvqhsg","pricing_plan_id":"cebpf4jnsgd1na2vs0mg"},{"bike_id":"4e2e926a-cc62-4529-8b24-3abbcf0f0be2","system_id":"levelo_inurba_marseille","lat":43.2319,"lon":5.35559,"is_reserved":false,"is_disabled":false,"rental_uris":{"android":"levelo://app?vid=4e2e926a-cc62-4529-8b24-3abbcf0f0be2","ios":"levelo://app?vid=4e2e926a-cc62-4529-8b24-3abbcf0f0be2"},"vehicle_type_id":"4","last_reported":1735992976,"current_range_meters":28400,"station_id":"ce4bhu92rcd13ifvqi70","pricing_plan_id":"cebpf4jnsgd1na2vs0mg"},{"bike_id":"40c1f18a-180c-42d5-90e4-20e794fe8c43","system_id":"levelo_inurba_marseille","lat":43.24166,"lon":5.36394,"is_reserved":false,"is_disabled":false,"rental_uris":{"android":"levelo://app?vid=40c1f18a-180c-42d5-90e4-20e794fe8c43","ios":"levelo://app?vid=40c1f18a-180c-42d5-90e4-20e794fe8c43"},"vehicle_type_id":"4","last_reported":1735992976,"current_range_meters":34000,"station_id":"cpo36qri1sfpv3e86is0","pricing_plan_id":"cebpf4jnsgd1na2vs0mg"},{"bike_id":"850b95e6-12d0-4732-b733-07be326ac3bd","system_id":"levelo_inurba_marseille","lat":43.29629,"lon":5.40606,"is_reserved":false,"is_disabled":false,"rental_uris":{"android":"levelo://app?vid=850b95e6-12d0-4732-b733-07be326ac3bd","ios":"levelo://app?vid=850b95e6-12d0-4732-b733-07be326ac3bd"},"vehicle_type_id":"4","last_reported":1735992976,"current_range_meters":38800,"station_id":"ce4bh0h2rcd13ifvqd60","pricing_plan_id":"cebpf4jnsgd1na2vs0mg"},{"bike_id":"d11ca31e-c281-4593-8b6a-dc5bb245bb07","system_id":"levelo_inurba_marseille","lat":43.27921,"lon":5.39582,"is_reserved":false,"is_disabled":false,"rental_uris":{"android":"levelo://app?vid=d11ca31e-c281-4593-8b6a-dc5bb245bb07","ios":"levelo://app?vid=d11ca31e-c281-4593-8b6a-dc5bb245bb07"},"vehicle_type_id":"4","last_reported":1735992976,"current_range_meters":36800,"station_id":"ce4bhf92rcd13ifvqf40","pricing_plan_id":"cebpf4jnsgd1na2vs0mg"},{"bike_id":"a5e75efe-b721-47e3-9066-a4728b10322a","system_id":"levelo_inurba_marseille","lat":43.29924,"lon":5.36535,"is_reserved":false,"is_disabled":false,"rental_uris":{"android":"levelo://app?vid=a5e75efe-b721-47e3-9066-a4728b10322a","ios":"levelo://app?vid=a5e75efe-b721-47e3-9066-a4728b10322a"},"vehicle_type_id":"4","last_reported":1735992976,"current_range_meters":36400,"station_id":"ce4bgm92rcd13ifvqbr0","pricing_plan_id":"cebpf4jnsgd1na2vs0mg"},{"bike_id":"5e584ae4-fb04-4605-b8fd-532b0218e039","system_id":"levelo_inurba_marseille","lat":43.33612,"lon":5.40979,"is_reserved":false,"is_disabled":false,"rental_uris":{"android":"levelo://app?vid=5e584ae4-fb04-4605-b8fd-532b0218e039","ios":"levelo://app?vid=5e584ae4-fb04-4605-b8fd-532b0218e039"},"vehicle_type_id":"4","last_reported":1735992976,"current_range_meters":14800,"station_id":"ce4bhqh2rcd13ifvqhmg","pricing_plan_id":"cebpf4jnsgd1na2vs0mg"},{"bike_id":"e14fc727-e110-4847-a3c5-e82ea6a6fcb8","system_id":"levelo_inurba_marseille","lat":43.28948,"lon":5.39643,"is_reserved":false,"is_disabled":true,"rental_uris":{"android":"levelo://app?vid=e14fc727-e110-4847-a3c5-e82ea6a6fcb8","ios":"levelo://app?vid=e14fc727-e110-4847-a3c5-e82ea6a6fcb8"},"vehicle_type_id":"4","last_reported":1735992976,"current_range_meters":38800,"station_id":"ce4bh3h2rcd13ifvqdn0","pricing_plan_id":"cebpf4jnsgd1na2vs0mg"},{"bike_id":"15522665-131b-4da3-b344-2c01d1e40adb","system_id":"levelo_inurba_marseille","lat":43.26202,"lon":5.37932,"is_reserved":false,"is_disabled":false,"rental_uris":{"android":"levelo://app?vid=15522665-131b-4da3-b344-2c01d1e40adb","ios":"levelo://app?vid=15522665-131b-4da3-b344-2c01d1e40adb"},"vehicle_type_id":"4","last_reported":1735992976,"current_range_meters":20400,"station_id":"ce4bhjp2rcd13ifvqg90","pricing_plan_id":"cebpf4jnsgd1na2vs0mg"},{"bike_id":"77cf10df-8d3e-4740-bb0d-cc701d5ed79f","system_id":"levelo_inurba_marseille","lat":43.30536,"lon":5.36538,"is_reserved":false,"is_disabled":false,"rental_uris":{"android":"levelo://app?vid=77cf10df-8d3e-4740-bb0d-cc701d5ed79f","ios":"levelo://app?vid=77cf10df-8d3e-4740-bb0d-cc701d5ed79f"},"vehicle_type_id":"4","last_reported":1735992976,"current_range_meters":39200,"station_id":"ce4bgs12rcd13ifvqcag","pricing_plan_id":"cebpf4jnsgd1na2vs0mg"},{"bike_id":"f4ba9850-ad59-4e64-85be-faa1e88890c0","system_id":"levelo_inurba_marseille","lat":43.298,"lon":5.38087,"is_reserved":false,"is_disabled":false,"rental_uris":{"android":"levelo://app?vid=f4ba9850-ad59-4e64-85be-faa1e88890c0","ios":"levelo://app?vid=f4ba9850-ad59-4e64-85be-faa1e88890c0"},"vehicle_type_id":"4","last_reported":1735992976,"current_range_meters":38800,"station_id":"ce4bgip2rcd13ifvqbb0","pricing_plan_id":"cebpf4jnsgd1na2vs0mg"},{"bike_id":"34617586-430d-4b7a-9eab-a1013b7c582e","system_id":"levelo_inurba_marseille","lat":43.28968,"lon":5.37842,"is_reserved":false,"is_disabled":true,"rental_uris":{"android":"levelo://app?vid=34617586-430d-4b7a-9eab-a1013b7c582e","ios":"levelo://app?vid=34617586-430d-4b7a-9eab-a1013b7c582e"},"vehicle_type_id":"4","last_reported":1735992976,"current_range_meters":28000,"station_id":"ce4bh9p2rcd13ifvqed0","pricing_plan_id":"cebpf4jnsgd1na2vs0mg"},{"bike_id":"db0f1604-3dbf-4dcd-97ad-17dd0e34765d","system_id":"levelo_inurba_marseille","lat":43.24651,"lon":5.38133,"is_reserved":false,"is_disabled":false,"rental_uris":{"android":"levelo://app?vid=db0f1604-3dbf-4dcd-97ad-17dd0e34765d","ios":"levelo://app?vid=db0f1604-3dbf-4dcd-97ad-17dd0e34765d"},"vehicle_type_id":"4","last_reported":1735992976,"current_range_meters":24400,"station_id":"ce4bhih2rcd13ifvqfr0","pricing_plan_id":"cebpf4jnsgd1na2vs0mg"},{"bike_id":"d9676b1a-df49-429f-b317-1de61bb96597","system_id":"levelo_inurba_marseille","lat":43.28621,"lon":5.35109,"is_reserved":false,"is_disabled":false,"rental_uris":{"android":"levelo://app?vid=d9676b1a-df49-429f-b317-1de61bb96597","ios":"levelo://app?vid=d9676b1a-df49-429f-b317-1de61bb96597"},"vehicle_type_id":"4","last_reported":1735992976,"current_range_meters":30400,"station_id":"ce4bhch2rcd13ifvqeug","pricing_plan_id":"cebpf4jnsgd1na2vs0mg"},{"bike_id":"e40b8873-a7cf-4e56-b106-d515344f64c4","system_id":"levelo_inurba_marseille","lat":43.23184,"lon":5.35557,"is_reserved":false,"is_disabled":false,"rental_uris":{"android":"levelo://app?vid=e40b8873-a7cf-4e56-b106-d515344f64c4","ios":"levelo://app?vid=e40b8873-a7cf-4e56-b106-d515344f64c4"},"vehicle_type_id":"4","last_reported":1735992976,"current_range_meters":39200,"station_id":"ce4bhu92rcd13ifvqi70","pricing_plan_id":"cebpf4jnsgd1na2vs0mg"},{"bike_id":"bbf998ea-d252-4590-8711-16d78ff4b07c","system_id":"levelo_inurba_marseille","lat":43.24642,"lon":5.38898,"is_reserved":false,"is_disabled":false,"rental_uris":{"android":"levelo://app?vid=bbf998ea-d252-4590-8711-16d78ff4b07c","ios":"levelo://app?vid=bbf998ea-d252-4590-8711-16d78ff4b07c"},"vehicle_type_id":"4","last_reported":1735992976,"current_range_meters":38000,"station_id":"ce4bhg12rcd13ifvqf60","pricing_plan_id":"cebpf4jnsgd1na2vs0mg"},{"bike_id":"389bdb1e-ea49-4895-badb-508b5f5844e3","system_id":"levelo_inurba_marseille","lat":43.30121,"lon":5.38097,"is_reserved":false,"is_disabled":false,"rental_uris":{"android":"levelo://app?vid=389bdb1e-ea49-4895-badb-508b5f5844e3","ios":"levelo://app?vid=389bdb1e-ea49-4895-badb-508b5f5844e3"},"vehicle_type_id":"4","last_reported":1735992976,"current_range_meters":34000,"station_id":"ce4bgjp2rcd13ifvqbh0","pricing_plan_id":"cebpf4jnsgd1na2vs0mg"},{"bike_id":"9fff683c-62f1-4d60-a373-ba01b5e2be30","system_id":"levelo_inurba_marseille","lat":43.29837,"lon":5.38986,"is_reserved":false,"is_disabled":false,"rental_uris":{"android":"levelo://app?vid=9fff683c-62f1-4d60-a373-ba01b5e2be30","ios":"levelo://app?vid=9fff683c-62f1-4d60-a373-ba01b5e2be30"},"vehicle_type_id":"4","last_reported":1735992976,"current_range_meters":37600,"station_id":"ce4bh392rcd13ifvqdl0","pricing_plan_id":"cebpf4jnsgd1na2vs0mg"},{"bike_id":"c76f010e-8b23-4840-a7a5-a9a5d3648fa3","system_id":"levelo_inurba_marseille","lat":43.308774,"lon":5.371991,"is_reserved":false,"is_disabled":true,"rental_uris":{"android":"levelo://app?vid=c76f010e-8b23-4840-a7a5-a9a5d3648fa3","ios":"levelo://app?vid=c76f010e-8b23-4840-a7a5-a9a5d3648fa3"},"vehicle_type_id":"4","last_reported":1735992976,"current_range_meters":8400,"station_id":"ce4bguh2rcd13ifvqckg","pricing_plan_id":"cebpf4jnsgd1na2vs0mg"},{"bike_id":"6f21fba1-6f8e-47c4-a476-286cca5f9cc6","system_id":"levelo_inurba_marseille","lat":43.28261,"lon":5.35074,"is_reserved":false,"is_disabled":true,"rental_uris":{"android":"levelo://app?vid=6f21fba1-6f8e-47c4-a476-286cca5f9cc6","ios":"levelo://app?vid=6f21fba1-6f8e-47c4-a476-286cca5f9cc6"},"vehicle_type_id":"4","last_reported":1735992976,"current_range_meters":3200,"station_id":"ce4bhbp2rcd13ifvqerg","pricing_plan_id":"cebpf4jnsgd1na2vs0mg"},{"bike_id":"09e64385-2ecb-4bb9-b546-a98347585cb3","system_id":"levelo_inurba_marseille","lat":43.30586,"lon":5.37202,"is_reserved":false,"is_disabled":false,"rental_uris":{"android":"levelo://app?vid=09e64385-2ecb-4bb9-b546-a98347585cb3","ios":"levelo://app?vid=09e64385-2ecb-4bb9-b546-a98347585cb3"},"vehicle_type_id":"4","last_reported":1735992976,"current_range_meters":38800,"station_id":"ce4bgqh2rcd13ifvqc4g","pricing_plan_id":"cebpf4jnsgd1na2vs0mg"},{"bike_id":"398ea51c-11c1-49f2-8208-2f4a5ef2f255","system_id":"levelo_inurba_marseille","lat":43.29294,"lon":5.37451,"is_reserved":false,"is_disabled":false,"rental_uris":{"android":"levelo://app?vid=398ea51c-11c1-49f2-8208-2f4a5ef2f255","ios":"levelo://app?vid=398ea51c-11c1-49f2-8208-2f4a5ef2f255"},"vehicle_type_id":"4","last_reported":1735992976,"current_range_meters":38800,"station_id":"ce4bgi12rcd13ifvqb70","pricing_plan_id":"cebpf4jnsgd1na2vs0mg"},{"bike_id":"8a2871f5-9447-484d-9926-098aa750c257","system_id":"levelo_inurba_marseille","lat":43.28377,"lon":5.37535,"is_reserved":false,"is_disabled":false,"rental_uris":{"android":"levelo://app?vid=8a2871f5-9447-484d-9926-098aa750c257","ios":"levelo://app?vid=8a2871f5-9447-484d-9926-098aa750c257"},"vehicle_type_id":"4","last_reported":1735992976,"current_range_meters":20800,"station_id":"ce4bh412rcd13ifvqds0","pricing_plan_id":"cebpf4jnsgd1na2vs0mg"},{"bike_id":"f39c9c3b-6208-4c53-a3f9-5f5878f563be","system_id":"levelo_inurba_marseille","lat":43.28474,"lon":5.35893,"is_reserved":false,"is_disabled":false,"rental_uris":{"android":"levelo://app?vid=f39c9c3b-6208-4c53-a3f9-5f5878f563be","ios":"levelo://app?vid=f39c9c3b-6208-4c53-a3f9-5f5878f563be"},"vehicle_type_id":"4","last_reported":1735992976,"current_range_meters":22400,"station_id":"ce4bhah2rcd13ifvqei0","pricing_plan_id":"cebpf4jnsgd1na2vs0mg"},{"bike_id":"1c02ae40-e43c-4632-b75b-2df9308dc3fe","system_id":"levelo_inurba_marseille","lat":43.337653,"lon":5.374397,"is_reserved":false,"is_disabled":false,"rental_uris":{"android":"levelo://app?vid=1c02ae40-e43c-4632-b75b-2df9308dc3fe","ios":"levelo://app?vid=1c02ae40-e43c-4632-b75b-2df9308dc3fe"},"vehicle_type_id":"4","last_reported":1735992976,"current_range_meters":15200,"station_id":"","pricing_plan_id":"cebpf4jnsgd1na2vs0mg"},{"bike_id":"a6b7101f-e04b-40af-9e04-99a5baa621ab","system_id":"levelo_inurba_marseille","lat":43.29813,"lon":5.38097,"is_reserved":false,"is_disabled":false,"rental_uris":{"android":"levelo://app?vid=a6b7101f-e04b-40af-9e04-99a5baa621ab","ios":"levelo://app?vid=a6b7101f-e04b-40af-9e04-99a5baa621ab"},"vehicle_type_id":"4","last_reported":1735992976,"current_range_meters":38800,"station_id":"ce4bgip2rcd13ifvqbb0","pricing_plan_id":"cebpf4jnsgd1na2vs0mg"},{"bike_id":"19a8127c-166c-4b0a-8d6f-c5c694f63fe0","system_id":"levelo_inurba_marseille","lat":43.27832,"lon":5.39217,"is_reserved":false,"is_disabled":false,"rental_uris":{"android":"levelo://app?vid=19a8127c-166c-4b0a-8d6f-c5c694f63fe0","ios":"levelo://app?vid=19a8127c-166c-4b0a-8d6f-c5c694f63fe0"},"vehicle_type_id":"4","last_reported":1735992976,"current_range_meters":38800,"station_id":"ce4bhjp2rcd13ifvqga0","pricing_plan_id":"cebpf4jnsgd1na2vs0mg"},{"bike_id":"262b0d7a-b83b-40f1-bc54-810a9a289441","system_id":"levelo_inurba_marseille","lat":43.2918,"lon":5.35835,"is_reserved":false,"is_disabled":false,"rental_uris":{"android":"levelo://app?vid=262b0d7a-b83b-40f1-bc54-810a9a289441","ios":"levelo://app?vid=262b0d7a-b83b-40f1-bc54-810a9a289441"},"vehicle_type_id":"4","last_reported":1735992976,"current_range_meters":38800,"station_id":"ce4bhb12rcd13ifvqel0","pricing_plan_id":"cebpf4jnsgd1na2vs0mg"},{"bike_id":"85cba0a3-d6ec-4723-83bf-95316674cece","system_id":"levelo_inurba_marseille","lat":43.2756,"lon":5.384289,"is_reserved":false,"is_disabled":true,"rental_uris":{"android":"levelo://app?vid=85cba0a3-d6ec-4723-83bf-95316674cece","ios":"levelo://app?vid=85cba0a3-d6ec-4723-83bf-95316674cece"},"vehicle_type_id":"4","last_reported":1735992976,"current_range_meters":6800,"station_id":"ce4bhh92rcd13ifvqfi0","pricing_plan_id":"cebpf4jnsgd1na2vs0mg"},{"bike_id":"d5355d3d-6620-4d8e-801e-d620f116c682","system_id":"levelo_inurba_marseille","lat":43.23054,"lon":5.35496,"is_reserved":false,"is_disabled":false,"rental_uris":{"android":"levelo://app?vid=d5355d3d-6620-4d8e-801e-d620f116c682","ios":"levelo://app?vid=d5355d3d-6620-4d8e-801e-d620f116c682"},"vehicle_type_id":"4","last_reported":1735992976,"current_range_meters":19600,"station_id":"cpo3342slgdg3j2ifvpg","pricing_plan_id":"cebpf4jnsgd1na2vs0mg"},{"bike_id":"266d97a0-8b6a-4815-8e1e-a29e516886ab","system_id":"levelo_inurba_marseille","lat":43.32363,"lon":5.36765,"is_reserved":false,"is_disabled":false,"rental_uris":{"android":"levelo://app?vid=266d97a0-8b6a-4815-8e1e-a29e516886ab","ios":"levelo://app?vid=266d97a0-8b6a-4815-8e1e-a29e516886ab"},"vehicle_type_id":"4","last_reported":1735992976,"current_range_meters":36800,"station_id":"ce4bhsh2rcd13ifvqi2g","pricing_plan_id":"cebpf4jnsgd1na2vs0mg"},{"bike_id":"c0b78921-4f27-4b02-94ac-84aeb68ca5f0","system_id":"levelo_inurba_marseille","lat":43.26213,"lon":5.37458,"is_reserved":false,"is_disabled":false,"rental_uris":{"android":"levelo://app?vid=c0b78921-4f27-4b02-94ac-84aeb68ca5f0","ios":"levelo://app?vid=c0b78921-4f27-4b02-94ac-84aeb68ca5f0"},"vehicle_type_id":"4","last_reported":1735992976,"current_range_meters":32000,"station_id":"ce4bhgp2rcd13ifvqfc0","pricing_plan_id":"cebpf4jnsgd1na2vs0mg"},{"bike_id":"3025723b-6de3-4182-9ff2-e80088b60fc6","system_id":"levelo_inurba_marseille","lat":43.29258,"lon":5.40913,"is_reserved":false,"is_disabled":false,"rental_uris":{"android":"levelo://app?vid=3025723b-6de3-4182-9ff2-e80088b60fc6","ios":"levelo://app?vid=3025723b-6de3-4182-9ff2-e80088b60fc6"},"vehicle_type_id":"4","last_reported":1735992976,"current_range_meters":26800,"station_id":"ce4bh192rcd13ifvqdc0","pricing_plan_id":"cebpf4jnsgd1na2vs0mg"},{"bike_id":"9106d3ff-fc86-4d68-9c8d-6412f9d842de","system_id":"levelo_inurba_marseille","lat":43.2548,"lon":5.37672,"is_reserved":false,"is_disabled":false,"rental_uris":{"android":"levelo://app?vid=9106d3ff-fc86-4d68-9c8d-6412f9d842de","ios":"levelo://app?vid=9106d3ff-fc86-4d68-9c8d-6412f9d842de"},"vehicle_type_id":"4","last_reported":1735992976,"current_range_meters":38800,"station_id":"ce4bhh12rcd13ifvqff0","pricing_plan_id":"cebpf4jnsgd1na2vs0mg"},{"bike_id":"63f0a3a1-eb88-45b1-a23a-b8808f049994","system_id":"levelo_inurba_marseille","lat":43.30144,"lon":5.38086,"is_reserved":false,"is_disabled":false,"rental_uris":{"android":"levelo://app?vid=63f0a3a1-eb88-45b1-a23a-b8808f049994","ios":"levelo://app?vid=63f0a3a1-eb88-45b1-a23a-b8808f049994"},"vehicle_type_id":"4","last_reported":1735992976,"current_range_meters":13600,"station_id":"ce4bgjp2rcd13ifvqbh0","pricing_plan_id":"cebpf4jnsgd1na2vs0mg"},{"bike_id":"ca8e58db-b6e8-4692-b85e-375da7a32dc2","system_id":"levelo_inurba_marseille","lat":43.29561,"lon":5.37494,"is_reserved":false,"is_disabled":false,"rental_uris":{"android":"levelo://app?vid=ca8e58db-b6e8-4692-b85e-375da7a32dc2","ios":"levelo://app?vid=ca8e58db-b6e8-4692-b85e-375da7a32dc2"},"vehicle_type_id":"4","last_reported":1735992976,"current_range_meters":38000,"station_id":"ce4bgh92rcd13ifvqb50","pricing_plan_id":"cebpf4jnsgd1na2vs0mg"},{"bike_id":"b4964721-27e8-4bed-95f3-5caa9102436e","system_id":"levelo_inurba_marseille","lat":43.29873,"lon":5.43676,"is_reserved":false,"is_disabled":false,"rental_uris":{"android":"levelo://app?vid=b4964721-27e8-4bed-95f3-5caa9102436e","ios":"levelo://app?vid=b4964721-27e8-4bed-95f3-5caa9102436e"},"vehicle_type_id":"4","last_reported":1735992976,"current_range_meters":33600,"station_id":"ce4bhpp2rcd13ifvqhfg","pricing_plan_id":"cebpf4jnsgd1na2vs0mg"},{"bike_id":"ebd980d5-1c46-4437-8d53-e77aaca60142","system_id":"levelo_inurba_marseille","lat":43.27811,"lon":5.40732,"is_reserved":false,"is_disabled":false,"rental_uris":{"android":"levelo://app?vid=ebd980d5-1c46-4437-8d53-e77aaca60142","ios":"levelo://app?vid=ebd980d5-1c46-4437-8d53-e77aaca60142"},"vehicle_type_id":"4","last_reported":1735992976,"current_range_meters":4000,"station_id":"ce4bhnh2rcd13ifvqgtg","pricing_plan_id":"cebpf4jnsgd1na2vs0mg"},{"bike_id":"48dab017-3f42-472f-871a-513ce2bb3aac","system_id":"levelo_inurba_marseille","lat":43.23154,"lon":5.43698,"is_reserved":false,"is_disabled":false,"rental_uris":{"android":"levelo://app?vid=48dab017-3f42-472f-871a-513ce2bb3aac","ios":"levelo://app?vid=48dab017-3f42-472f-871a-513ce2bb3aac"},"vehicle_type_id":"4","last_reported":1735992976,"current_range_meters":39200,"station_id":"ce4bhmp2rcd13ifvqgog","pricing_plan_id":"cebpf4jnsgd1na2vs0mg"},{"bike_id":"4933aa85-174f-4619-b884-90d047cff55f","system_id":"levelo_inurba_marseille","lat":43.28005,"lon":5.4002,"is_reserved":false,"is_disabled":false,"rental_uris":{"android":"levelo://app?vid=4933aa85-174f-4619-b884-90d047cff55f","ios":"levelo://app?vid=4933aa85-174f-4619-b884-90d047cff55f"},"vehicle_type_id":"4","last_reported":1735992976,"current_range_meters":28800,"station_id":"ce4bho92rcd13ifvqh4g","pricing_plan_id":"cebpf4jnsgd1na2vs0mg"},{"bike_id":"c419512d-089a-4e3a-8724-1b15f68ece37","system_id":"levelo_inurba_marseille","lat":43.2978,"lon":5.37109,"is_reserved":false,"is_disabled":false,"rental_uris":{"android":"levelo://app?vid=c419512d-089a-4e3a-8724-1b15f68ece37","ios":"levelo://app?vid=c419512d-089a-4e3a-8724-1b15f68ece37"},"vehicle_type_id":"4","last_reported":1735992976,"current_range_meters":38800,"station_id":"ce4bgop2rcd13ifvqc1g","pricing_plan_id":"cebpf4jnsgd1na2vs0mg"},{"bike_id":"d014f699-d84d-436b-b3bf-8c059d18ea89","system_id":"levelo_inurba_marseille","lat":43.22942,"lon":5.35396,"is_reserved":false,"is_disabled":false,"rental_uris":{"android":"levelo://app?vid=d014f699-d84d-436b-b3bf-8c059d18ea89","ios":"levelo://app?vid=d014f699-d84d-436b-b3bf-8c059d18ea89"},"vehicle_type_id":"4","last_reported":1735992976,"current_range_meters":22800,"station_id":"cpo3532slgdg3j2ikp40","pricing_plan_id":"cebpf4jnsgd1na2vs0mg"},{"bike_id":"f4400503-e667-4894-b784-5761d82d1342","system_id":"levelo_inurba_marseille","lat":43.29741,"lon":5.37677,"is_reserved":false,"is_disabled":false,"rental_uris":{"android":"levelo://app?vid=f4400503-e667-4894-b784-5761d82d1342","ios":"levelo://app?vid=f4400503-e667-4894-b784-5761d82d1342"},"vehicle_type_id":"4","last_reported":1735992976,"current_range_meters":38800,"station_id":"ce4bgkh2rcd13ifvqbl0","pricing_plan_id":"cebpf4jnsgd1na2vs0mg"},{"bike_id":"7b35b2a8-3878-4ec8-b9c2-66dde2137aeb","system_id":"levelo_inurba_marseille","lat":43.25098,"lon":5.40386,"is_reserved":false,"is_disabled":false,"rental_uris":{"android":"levelo://app?vid=7b35b2a8-3878-4ec8-b9c2-66dde2137aeb","ios":"levelo://app?vid=7b35b2a8-3878-4ec8-b9c2-66dde2137aeb"},"vehicle_type_id":"4","last_reported":1735992976,"current_range_meters":10800,"station_id":"ce4bhlh2rcd13ifvqgig","pricing_plan_id":"cebpf4jnsgd1na2vs0mg"},{"bike_id":"d72457d5-d8d6-463b-a960-d6f9848ff5d4","system_id":"levelo_inurba_marseille","lat":43.296,"lon":5.37708,"is_reserved":false,"is_disabled":false,"rental_uris":{"android":"levelo://app?vid=d72457d5-d8d6-463b-a960-d6f9848ff5d4","ios":"levelo://app?vid=d72457d5-d8d6-463b-a960-d6f9848ff5d4"},"vehicle_type_id":"4","last_reported":1735992976,"current_range_meters":38000,"station_id":"ce4bgi92rcd13ifvqb90","pricing_plan_id":"cebpf4jnsgd1na2vs0mg"},{"bike_id":"c14d1989-a72f-4241-a582-39661d0bcfcf","system_id":"levelo_inurba_marseille","lat":43.23187,"lon":5.35557,"is_reserved":false,"is_disabled":false,"rental_uris":{"android":"levelo://app?vid=c14d1989-a72f-4241-a582-39661d0bcfcf","ios":"levelo://app?vid=c14d1989-a72f-4241-a582-39661d0bcfcf"},"vehicle_type_id":"4","last_reported":1735992976,"current_range_meters":39200,"station_id":"ce4bhu92rcd13ifvqi70","pricing_plan_id":"cebpf4jnsgd1na2vs0mg"},{"bike_id":"ef72cdb4-465d-4178-b952-49906f159c48","system_id":"levelo_inurba_marseille","lat":43.28141,"lon":5.42639,"is_reserved":false,"is_disabled":false,"rental_uris":{"android":"levelo://app?vid=ef72cdb4-465d-4178-b952-49906f159c48","ios":"levelo://app?vid=ef72cdb4-465d-4178-b952-49906f159c48"},"vehicle_type_id":"4","last_reported":1735992976,"current_range_meters":18000,"station_id":"ce4bhnh2rcd13ifvqgug","pricing_plan_id":"cebpf4jnsgd1na2vs0mg"},{"bike_id":"f47efffa-34db-4147-96c1-c128ed546e16","system_id":"levelo_inurba_marseille","lat":43.29048,"lon":5.39951,"is_reserved":false,"is_disabled":false,"rental_uris":{"android":"levelo://app?vid=f47efffa-34db-4147-96c1-c128ed546e16","ios":"levelo://app?vid=f47efffa-34db-4147-96c1-c128ed546e16"},"vehicle_type_id":"4","last_reported":1735992976,"current_range_meters":36400,"station_id":"ce4bh392rcd13ifvqdm0","pricing_plan_id":"cebpf4jnsgd1na2vs0mg"},{"bike_id":"140e5586-d5e1-42aa-ae6a-327044094fda","system_id":"levelo_inurba_marseille","lat":43.33712,"lon":5.39223,"is_reserved":false,"is_disabled":false,"rental_uris":{"android":"levelo://app?vid=140e5586-d5e1-42aa-ae6a-327044094fda","ios":"levelo://app?vid=140e5586-d5e1-42aa-ae6a-327044094fda"},"vehicle_type_id":"4","last_reported":1735992976,"current_range_meters":38800,"station_id":"ce4bhr92rcd13ifvqhsg","pricing_plan_id":"cebpf4jnsgd1na2vs0mg"},{"bike_id":"a2fd8310-05b2-4353-a822-b449cc0178c4","system_id":"levelo_inurba_marseille","lat":43.25491,"lon":5.3765,"is_reserved":false,"is_disabled":false,"rental_uris":{"android":"levelo://app?vid=a2fd8310-05b2-4353-a822-b449cc0178c4","ios":"levelo://app?vid=a2fd8310-05b2-4353-a822-b449cc0178c4"},"vehicle_type_id":"4","last_reported":1735992976,"current_range_meters":7200,"station_id":"ce4bhh12rcd13ifvqff0","pricing_plan_id":"cebpf4jnsgd1na2vs0mg"},{"bike_id":"4bc33b47-a63c-4f25-a0fe-24c64b43deee","system_id":"levelo_inurba_marseille","lat":43.30914,"lon":5.36881,"is_reserved":false,"is_disabled":false,"rental_uris":{"android":"levelo://app?vid=4bc33b47-a63c-4f25-a0fe-24c64b43deee","ios":"levelo://app?vid=4bc33b47-a63c-4f25-a0fe-24c64b43deee"},"vehicle_type_id":"4","last_reported":1735992976,"current_range_meters":38800,"station_id":"ce4bgn92rcd13ifvqbvg","pricing_plan_id":"cebpf4jnsgd1na2vs0mg"},{"bike_id":"7bbed7be-28f4-4cc7-81bb-977c0d79552f","system_id":"levelo_inurba_marseille","lat":43.2306,"lon":5.35494,"is_reserved":false,"is_disabled":false,"rental_uris":{"android":"levelo://app?vid=7bbed7be-28f4-4cc7-81bb-977c0d79552f","ios":"levelo://app?vid=7bbed7be-28f4-4cc7-81bb-977c0d79552f"},"vehicle_type_id":"4","last_reported":1735992976,"current_range_meters":18000,"station_id":"cpo3342slgdg3j2ifvpg","pricing_plan_id":"cebpf4jnsgd1na2vs0mg"},{"bike_id":"e2233560-fb3a-4a9b-af59-d8a2e34abf16","system_id":"levelo_inurba_marseille","lat":43.2928,"lon":5.37438,"is_reserved":false,"is_disabled":false,"rental_uris":{"android":"levelo://app?vid=e2233560-fb3a-4a9b-af59-d8a2e34abf16","ios":"levelo://app?vid=e2233560-fb3a-4a9b-af59-d8a2e34abf16"},"vehicle_type_id":"4","last_reported":1735992976,"current_range_meters":39200,"station_id":"ce4bgi12rcd13ifvqb70","pricing_plan_id":"cebpf4jnsgd1na2vs0mg"},{"bike_id":"972d3990-3282-43b3-9300-16e73f61ce7f","system_id":"levelo_inurba_marseille","lat":43.29185,"lon":5.39897,"is_reserved":false,"is_disabled":false,"rental_uris":{"android":"levelo://app?vid=972d3990-3282-43b3-9300-16e73f61ce7f","ios":"levelo://app?vid=972d3990-3282-43b3-9300-16e73f61ce7f"},"vehicle_type_id":"4","last_reported":1735992976,"current_range_meters":36800,"station_id":"ce4bh392rcd13ifvqdm0","pricing_plan_id":"cebpf4jnsgd1na2vs0mg"},{"bike_id":"78e5852e-eb6c-4077-a653-d1c1899f54bd","system_id":"levelo_inurba_marseille","lat":43.27954,"lon":5.38706,"is_reserved":false,"is_disabled":false,"rental_uris":{"android":"levelo://app?vid=78e5852e-eb6c-4077-a653-d1c1899f54bd","ios":"levelo://app?vid=78e5852e-eb6c-4077-a653-d1c1899f54bd"},"vehicle_type_id":"4","last_reported":1735992976,"current_range_meters":37600,"station_id":"ce4bhg12rcd13ifvqf80","pricing_plan_id":"cebpf4jnsgd1na2vs0mg"},{"bike_id":"2bb35dbb-6b8f-4c69-9e3e-b28d7c30ca54","system_id":"levelo_inurba_marseille","lat":43.24392,"lon":5.37075,"is_reserved":false,"is_disabled":false,"rental_uris":{"android":"levelo://app?vid=2bb35dbb-6b8f-4c69-9e3e-b28d7c30ca54","ios":"levelo://app?vid=2bb35dbb-6b8f-4c69-9e3e-b28d7c30ca54"},"vehicle_type_id":"4","last_reported":1735992976,"current_range_meters":26000,"station_id":"ce4bhhh2rcd13ifvqfk0","pricing_plan_id":"cebpf4jnsgd1na2vs0mg"},{"bike_id":"c29f2178-f6c3-449c-a3c8-a6d81051291a","system_id":"levelo_inurba_marseille","lat":43.25007,"lon":5.38931,"is_reserved":false,"is_disabled":false,"rental_uris":{"android":"levelo://app?vid=c29f2178-f6c3-449c-a3c8-a6d81051291a","ios":"levelo://app?vid=c29f2178-f6c3-449c-a3c8-a6d81051291a"},"vehicle_type_id":"4","last_reported":1735992976,"current_range_meters":10800,"station_id":"ce4bhgp2rcd13ifvqfd0","pricing_plan_id":"cebpf4jnsgd1na2vs0mg"},{"bike_id":"266b577f-499a-4885-bfe7-860283dc174b","system_id":"levelo_inurba_marseille","lat":43.29934,"lon":5.36545,"is_reserved":false,"is_disabled":false,"rental_uris":{"android":"levelo://app?vid=266b577f-499a-4885-bfe7-860283dc174b","ios":"levelo://app?vid=266b577f-499a-4885-bfe7-860283dc174b"},"vehicle_type_id":"4","last_reported":1735992976,"current_range_meters":28800,"station_id":"ce4bgm92rcd13ifvqbr0","pricing_plan_id":"cebpf4jnsgd1na2vs0mg"},{"bike_id":"f1d87bf5-3985-43c2-9fde-b818f1e41c2b","system_id":"levelo_inurba_marseille","lat":43.26033,"lon":5.37557,"is_reserved":false,"is_disabled":false,"rental_uris":{"android":"levelo://app?vid=f1d87bf5-3985-43c2-9fde-b818f1e41c2b","ios":"levelo://app?vid=f1d87bf5-3985-43c2-9fde-b818f1e41c2b"},"vehicle_type_id":"4","last_reported":1735992976,"current_range_meters":38800,"station_id":"ce4bhgh2rcd13ifvqfa0","pricing_plan_id":"cebpf4jnsgd1na2vs0mg"},{"bike_id":"6d106cfe-c2de-454b-a6d2-a641d70f473a","system_id":"levelo_inurba_marseille","lat":43.25122,"lon":5.40322,"is_reserved":false,"is_disabled":false,"rental_uris":{"android":"levelo://app?vid=6d106cfe-c2de-454b-a6d2-a641d70f473a","ios":"levelo://app?vid=6d106cfe-c2de-454b-a6d2-a641d70f473a"},"vehicle_type_id":"4","last_reported":1735992976,"current_range_meters":34800,"station_id":"ce4bhlh2rcd13ifvqgig","pricing_plan_id":"cebpf4jnsgd1na2vs0mg"},{"bike_id":"fbc06552-d70e-4904-ac49-0988312c7431","system_id":"levelo_inurba_marseille","lat":43.25572,"lon":5.38241,"is_reserved":false,"is_disabled":false,"rental_uris":{"android":"levelo://app?vid=fbc06552-d70e-4904-ac49-0988312c7431","ios":"levelo://app?vid=fbc06552-d70e-4904-ac49-0988312c7431"},"vehicle_type_id":"4","last_reported":1735992976,"current_range_meters":22400,"station_id":"ce4bhih2rcd13ifvqfs0","pricing_plan_id":"cebpf4jnsgd1na2vs0mg"},{"bike_id":"72fb818d-6104-474f-9ad4-c7c0ee29d3b9","system_id":"levelo_inurba_marseille","lat":43.29559,"lon":5.37511,"is_reserved":false,"is_disabled":false,"rental_uris":{"android":"levelo://app?vid=72fb818d-6104-474f-9ad4-c7c0ee29d3b9","ios":"levelo://app?vid=72fb818d-6104-474f-9ad4-c7c0ee29d3b9"},"vehicle_type_id":"4","last_reported":1735992976,"current_range_meters":22400,"station_id":"ce4bgh92rcd13ifvqb50","pricing_plan_id":"cebpf4jnsgd1na2vs0mg"},{"bike_id":"aa8e5f9d-acf7-48fa-83a1-28e496381ebe","system_id":"levelo_inurba_marseille","lat":43.28414,"lon":5.37523,"is_reserved":false,"is_disabled":false,"rental_uris":{"android":"levelo://app?vid=aa8e5f9d-acf7-48fa-83a1-28e496381ebe","ios":"levelo://app?vid=aa8e5f9d-acf7-48fa-83a1-28e496381ebe"},"vehicle_type_id":"4","last_reported":1735992976,"current_range_meters":32000,"station_id":"ce4bh412rcd13ifvqds0","pricing_plan_id":"cebpf4jnsgd1na2vs0mg"},{"bike_id":"54cdfad9-fb97-4ed4-b18c-ee9c5a689655","system_id":"levelo_inurba_marseille","lat":43.29289,"lon":5.37444,"is_reserved":false,"is_disabled":false,"rental_uris":{"android":"levelo://app?vid=54cdfad9-fb97-4ed4-b18c-ee9c5a689655","ios":"levelo://app?vid=54cdfad9-fb97-4ed4-b18c-ee9c5a689655"},"vehicle_type_id":"4","last_reported":1735992976,"current_range_meters":23200,"station_id":"ce4bgi12rcd13ifvqb70","pricing_plan_id":"cebpf4jnsgd1na2vs0mg"},{"bike_id":"23a64dcd-37ae-4698-ada9-c4150654e98f","system_id":"levelo_inurba_marseille","lat":43.292609,"lon":5.384479,"is_reserved":false,"is_disabled":false,"rental_uris":{"android":"levelo://app?vid=23a64dcd-37ae-4698-ada9-c4150654e98f","ios":"levelo://app?vid=23a64dcd-37ae-4698-ada9-c4150654e98f"},"vehicle_type_id":"4","last_reported":1735992976,"current_range_meters":26800,"station_id":"ce4bh692rcd13ifvqea0","pricing_plan_id":"cebpf4jnsgd1na2vs0mg"},{"bike_id":"0da846be-cff0-45fd-927a-35db178c95b2","system_id":"levelo_inurba_marseille","lat":43.3206,"lon":5.41558,"is_reserved":false,"is_disabled":false,"rental_uris":{"android":"levelo://app?vid=0da846be-cff0-45fd-927a-35db178c95b2","ios":"levelo://app?vid=0da846be-cff0-45fd-927a-35db178c95b2"},"vehicle_type_id":"4","last_reported":1735992976,"current_range_meters":36400,"station_id":"ce4bhq92rcd13ifvqhkg","pricing_plan_id":"cebpf4jnsgd1na2vs0mg"},