{"last_updated":1688051221,"ttl":30,"version":"2.2","data":{"bikes":[{"bike_id":"5afcfe28-c711-4153-b1a0-306765a89ac3","system_id":"levelo_inurba_marseille","lat":43.31341,"lon":5.367098,"is_reserved":false,"is_disabled":false,"rental_uris":{"android":"levelo://app?vid=5afcfe28-c711-4153-b1a0-306765a89ac3","ios":"levelo://app?vid=5afcfe28-c711-4153-b1a0-306765a89ac3"},"vehicle_type_id":"4","last_reported":1688051222,"current_range_meters":26400,"station_id":"ce4bgr92rcd13ifvqc6g","pricing_plan_id":"free"},{"bike_id":"428787b6-a7fd-4f46-9411-58506183424c","system_id":"levelo_inurba_marseille","lat":43.312239,"lon":5.368562,"is_reserved":false,"is_disabled":false,"rental_uris":{"android":"levelo://app?vid=428787b6-a7fd-4f46-9411-58506183424c","ios":"levelo://app?vid=428787b6-a7fd-4f46-9411-58506183424c"},"vehicle_type_id":"4","last_reported":1688051222,"current_range_meters":31600,"station_id":"ce4bgl92rcd13ifvqbq0","pricing_plan_id":"free"},{"bike_id":"ea6d5ae2-5b1d-4de3-82f6-60b1308ca3d9","system_id":"levelo_inurba_marseille","lat":43.312239,"lon":5.368562,"is_reserved":false,"is_disabled":false,"rental_uris":{"android":"levelo://app?vid=ea6d5ae2-5b1d-4de3-82f6-60b1308ca3d9","ios":"levelo://app?vid=ea6d5ae2-5b1d-4de3-82f6-60b1308ca3d9"},"vehicle_type_id":"4","last_reported":1688051222,"current_range_meters":10400,"station_id":"ce4bgl92rcd13ifvqbq0","pricing_plan_id":"free"},{"bike_id":"867db04e-96e6-4d9a-8a4a-585ec207e62b","system_id":"levelo_inurba_marseille","lat":43.312239,"lon":5.368562,"is_reserved":false,"is_disabled":false,"rental_uris":{"android":"levelo://app?vid=867db04e-96e6-4d9a-8a4a-585ec207e62b","ios":"levelo://app?vid=867db04e-96e6-4d9a-8a4a-585ec207e62b"},"vehicle_type_id":"4","last_reported":1688051222,"current_range_meters":28800,"station_id":"ce4bgl92rcd13ifvqbq0","pricing_plan_id":"free"},{"bike_id":"0cdc768b-4b5a-453c-b703-e4760024de73","system_id":"levelo_inurba_marseille","lat":43.312239,"lon":5.368562,"is_reserved":false,"is_disabled":false,"rental_uris":{"android":"levelo://app?vid=0cdc768b-4b5a-453c-b703-e4760024de73","ios":"levelo://app?vid=0cdc768b-4b5a-453c-b703-e4760024de73"},"vehicle_type_id":"4","last_reported":1688051222,"current_range_meters":31600,"station_id":"ce4bgl92rcd13ifvqbq0","pricing_plan_id":"free"},{"bike_id":"af82bd37-388a-4b8f-b0d4-40544834377e","system_id":"levelo_inurba_marseille","lat":43.31226,"lon":5.36855,"is_reserved":false,"is_disabled":false,"rental_uris":{"android":"levelo://app?vid=af82bd37-388a-4b8f-b0d4-40544834377e","ios":"levelo://app?vid=af82bd37-388a-4b8f-b0d4-40544834377e"},"vehicle_type_id":"4","last_reported":1688051222,"current_range_meters":22400,"station_id":"ce4bgl92rcd13ifvqbq0","pricing_plan_id":"free"},{"bike_id":"53042e4f-613c-4fad-b61b-f1112aebd6c2","system_id":"levelo_inurba_marseille","lat":43.31228,"lon":5.36858,"is_reserved":false,"is_disabled":false,"rental_uris":{"android":"levelo://app?vid=53042e4f-613c-4fad-b61b-f1112aebd6c2","ios":"levelo://app?vid=53042e4f-613c-4fad-b61b-f1112aebd6c2"},"vehicle_type_id":"4","last_reported":1688051222,"current_range_meters":30000,"station_id":"ce4bgl92rcd13ifvqbq0","pricing_plan_id":"free"},{"bike_id":"3ec6ea5d-2d24-435e-a2e2-d7a350d8b6cb","system_id":"levelo_inurba_marseille","lat":43.312239,"lon":5.368562,"is_reserved":false,"is_disabled":false,"rental_uris":{"android":"levelo://app?vid=3ec6ea5d-2d24-435e-a2e2-d7a350d8b6cb","ios":"levelo://app?vid=3ec6ea5d-2d24-435e-a2e2-d7a350d8b6cb"},"vehicle_type_id":"4","last_reported":1688051222,"current_range_meters":29200,"station_id":"ce4bgl92rcd13ifvqbq0","pricing_plan_id":"free"},{"bike_id":"8bee18bb-b2ff-4461-ab23-9d7db7411759","system_id":"levelo_inurba_marseille","lat":43.312239,"lon":5.368562,"is_reserved":false,"is_disabled":false,"rental_uris":{"android":"levelo://app?vid=8bee18bb-b2ff-4461-ab23-9d7db7411759","ios":"levelo://app?vid=8bee18bb-b2ff-4461-ab23-9d7db7411759"},"vehicle_type_id":"4","last_reported":1688051222,"current_range_meters":31200,"station_id":"ce4bgl92rcd13ifvqbq0","pricing_plan_id":"free"},{"bike_id":"c404fbd4-4559-46fc-ac61-8aca19490968","system_id":"levelo_inurba_marseille","lat":43.312239,"lon":5.368562,"is_reserved":false,"is_disabled":false,"rental_uris":{"android":"levelo://app?vid=c404fbd4-4559-46fc-ac61-8aca19490968","ios":"levelo://app?vid=c404fbd4-4559-46fc-ac61-8aca19490968"},"vehicle_type_id":"4","last_reported":1688051222,"current_range_meters":27600,"station_id":"ce4bgl92rcd13ifvqbq0","pricing_plan_id":"free"},{"bike_id":"4da31a9e-eeb2-4f89-84f8-4d20f6b2a8ca","system_id":"levelo_inurba_marseille","lat":43.31223,"lon":5.3686,"is_reserved":false,"is_disabled":false,"rental_uris":{"android":"levelo://app?vid=4da31a9e-eeb2-4f89-84f8-4d20f6b2a8ca","ios":"levelo://app?vid=4da31a9e-eeb2-4f89-84f8-4d20f6b2a8ca"},"vehicle_type_id":"4","last_reported":1688051222,"current_range_meters":20400,"station_id":"ce4bgl92rcd13ifvqbq0","pricing_plan_id":"free"},{"bike_id":"9fb89237-1b90-4114-9c52-10f9f9846ac1","system_id":"levelo_inurba_marseille","lat":43.312239,"lon":5.368562,"is_reserved":false,"is_disabled":false,"rental_uris":{"android":"levelo://app?vid=9fb89237-1b90-4114-9c52-10f9f9846ac1","ios":"levelo://app?vid=9fb89237-1b90-4114-9c52-10f9f9846ac1"},"vehicle_type_id":"4","last_reported":1688051222,"current_range_meters":29200,"station_id":"ce4bgl92rcd13ifvqbq0","pricing_plan_id":"free"},{"bike_id":"377e2c8b-aad2-454c-9b8c-c7b77f9ff2e7","system_id":"levelo_inurba_marseille","lat":43.31224,"lon":5.36863,"is_reserved":false,"is_disabled":false,"rental_uris":{"android":"levelo://app?vid=377e2c8b-aad2-454c-9b8c-c7b77f9ff2e7","ios":"levelo://app?vid=377e2c8b-aad2-454c-9b8c-c7b77f9ff2e7"},"vehicle_type_id":"4","last_reported":1688051222,"current_range_meters":12800,"station_id":"ce4bgl92rcd13ifvqbq0","pricing_plan_id":"free"},{"bike_id":"666c1415-28e9-4944-87f5-29a628446c75","system_id":"levelo_inurba_marseille","lat":43.312239,"lon":5.368562,"is_reserved":false,"is_disabled":false,"rental_uris":{"android":"levelo://app?vid=666c1415-28e9-4944-87f5-29a628446c75","ios":"levelo://app?vid=666c1415-28e9-4944-87f5-29a628446c75"},"vehicle_type_id":"4","last_reported":1688051222,"current_range_meters":31200,"station_id":"ce4bgl92rcd13ifvqbq0","pricing_plan_id":"free"},{"bike_id":"528160d1-00d1-4cdc-9ffb-691fe4147f4c","system_id":"levelo_inurba_marseille","lat":43.31218,"lon":5.36866,"is_reserved":false,"is_disabled":false,"rental_uris":{"android":"levelo://app?vid=528160d1-00d1-4cdc-9ffb-691fe4147f4c","ios":"levelo://app?vid=528160d1-00d1-4cdc-9ffb-691fe4147f4c"},"vehicle_type_id":"4","last_reported":1688051222,"current_range_meters":8400,"station_id":"ce4bgl92rcd13ifvqbq0","pricing_plan_id":"free"},{"bike_id":"1d7aca78-15e8-4c1e-a612-62e2bef87136","system_id":"levelo_inurba_marseille","lat":43.312239,"lon":5.368562,"is_reserved":false,"is_disabled":false,"rental_uris":{"android":"levelo://app?vid=1d7aca78-15e8-4c1e-a612-62e2bef87136","ios":"levelo://app?vid=1d7aca78-15e8-4c1e-a612-62e2bef87136"},"vehicle_type_id":"4","last_reported":1688051222,"current_range_meters":29600,"station_id":"ce4bgl92rcd13ifvqbq0","pricing_plan_id":"free"},{"bike_id":"361d6673-f975-4160-b748-0e90fbb2294e","system_id":"levelo_inurba_marseille","lat":43.31489,"lon":5.37296,"is_reserved":false,"is_disabled":false,"rental_uris":{"android":"levelo://app?vid=361d6673-f975-4160-b748-0e90fbb2294e","ios":"levelo://app?vid=361d6673-f975-4160-b748-0e90fbb2294e"},"vehicle_type_id":"4","last_reported":1688051222,"current_range_meters":18000,"station_id":"ce4bgt12rcd13ifvqcd0","pricing_plan_id":"free"},{"bike_id":"0147f931-a517-486c-acf4-795cbd2ebb4b","system_id":"levelo_inurba_marseille","lat":43.314811,"lon":5.373103,"is_reserved":false,"is_disabled":false,"rental_uris":{"android":"levelo://app?vid=0147f931-a517-486c-acf4-795cbd2ebb4b","ios":"levelo://app?vid=0147f931-a517-486c-acf4-795cbd2ebb4b"},"vehicle_type_id":"4","last_reported":1688051222,"current_range_meters":26000,"station_id":"ce4bgt12rcd13ifvqcd0","pricing_plan_id":"free"},{"bike_id":"b0c75ad2-4322-4f12-af8e-9e929e764548","system_id":"levelo_inurba_marseille","lat":43.314811,"lon":5.373103,"is_reserved":false,"is_disabled":false,"rental_uris":{"android":"levelo://app?vid=b0c75ad2-4322-4f12-af8e-9e929e764548","ios":"levelo://app?vid=b0c75ad2-4322-4f12-af8e-9e929e764548"},"vehicle_type_id":"4","last_reported":1688051222,"current_range_meters":28000,"station_id":"ce4bgt12rcd13ifvqcd0","pricing_plan_id":"free"},{"bike_id":"88d76b50-9080-4e58-bcd8-ff786b9a24b7","system_id":"levelo_inurba_marseille","lat":43.314811,"lon":5.373104,"is_reserved":false,"is_disabled":false,"rental_uris":{"android":"levelo://app?vid=88d76b50-9080-4e58-bcd8-ff786b9a24b7","ios":"levelo://app?vid=88d76b50-9080-4e58-bcd8-ff786b9a24b7"},"vehicle_type_id":"4","last_reported":1688051222,"current_range_meters":11600,"station_id":"ce4bgt12rcd13ifvqcd0","pricing_plan_id":"free"},{"bike_id":"f7b767f0-33b2-4b28-b84b-ec12681d7b56","system_id":"levelo_inurba_marseille","lat":43.308606,"lon":5.372099,"is_reserved":false,"is_disabled":false,"rental_uris":{"android":"levelo://app?vid=f7b767f0-33b2-4b28-b84b-ec12681d7b56","ios":"levelo://app?vid=f7b767f0-33b2-4b28-b84b-ec12681d7b56"},"vehicle_type_id":"4","last_reported":1688051222,"current_range_meters":15600,"station_id":"ce4bguh2rcd13ifvqckg","pricing_plan_id":"free"},{"bike_id":"32097871-819f-4be3-b32c-bdc032d7c0b6","system_id":"levelo_inurba_marseille","lat":43.30556,"lon":5.36531,"is_reserved":false,"is_disabled":false,"rental_uris":{"android":"levelo://app?vid=32097871-819f-4be3-b32c-bdc032d7c0b6","ios":"levelo://app?vid=32097871-819f-4be3-b32c-bdc032d7c0b6"},"vehicle_type_id":"4","last_reported":1688051222,"current_range_meters":31200,"station_id":"","pricing_plan_id":"free"},{"bike_id":"375fd848-3e3f-4e77-b595-3bb2bc604c54","system_id":"levelo_inurba_marseille","lat":43.305989,"lon":5.37225,"is_reserved":false,"is_disabled":false,"rental_uris":{"android":"levelo://app?vid=375fd848-3e3f-4e77-b595-3bb2bc604c54","ios":"levelo://app?vid=375fd848-3e3f-4e77-b595-3bb2bc604c54"},"vehicle_type_id":"4","last_reported":1688051222,"current_range_meters":14400,"station_id":"ce4bgqh2rcd13ifvqc4g","pricing_plan_id":"free"},{"bike_id":"b4cc889e-d4f8-48b5-9e9a-c89e2716a3da","system_id":"levelo_inurba_marseille","lat":43.305989,"lon":5.37225,"is_reserved":false,"is_disabled":false,"rental_uris":{"android":"levelo://app?vid=b4cc889e-d4f8-48b5-9e9a-c89e2716a3da","ios":"levelo://app?vid=b4cc889e-d4f8-48b5-9e9a-c89e2716a3da"},"vehicle_type_id":"4","last_reported":1688051222,"current_range_meters":26400,"station_id":"ce4bgqh2rcd13ifvqc4g","pricing_plan_id":"free"},{"bike_id":"45babb41-05f1-4d54-9491-a41cfd5b2e2f","system_id":"levelo_inurba_marseille","lat":43.311125,"lon":5.377624,"is_reserved":false,"is_disabled":false,"rental_uris":{"android":"levelo://app?vid=45babb41-05f1-4d54-9491-a41cfd5b2e2f","ios":"levelo://app?vid=45babb41-05f1-4d54-9491-a41cfd5b2e2f"},"vehicle_type_id":"4","last_reported":1688051222,"current_range_meters":7200,"station_id":"ce4bgt92rcd13ifvqcg0","pricing_plan_id":"free"},{"bike_id":"9571478c-80e5-4676-bf8f-512e9dbca2c5","system_id":"levelo_inurba_marseille","lat":43.317075,"lon":5.377367,"is_reserved":false,"is_disabled":false,"rental_uris":{"android":"levelo://app?vid=9571478c-80e5-4676-bf8f-512e9dbca2c5","ios":"levelo://app?vid=9571478c-80e5-4676-bf8f-512e9dbca2c5"},"vehicle_type_id":"4","last_reported":1688051222,"current_range_meters":16400,"station_id":"ce4bgth2rcd13ifvqch0","pricing_plan_id":"free"},{"bike_id":"c2c9ccab-a75e-4fac-b479-b3fd039d6f63","system_id":"levelo_inurba_marseille","lat":43.315289,"lon":5.380349,"is_reserved":false,"is_disabled":false,"rental_uris":{"android":"levelo://app?vid=c2c9ccab-a75e-4fac-b479-b3fd039d6f63","ios":"levelo://app?vid=c2c9ccab-a75e-4fac-b479-b3fd039d6f63"},"vehicle_type_id":"4","last_reported":1688051222,"current_range_meters":9600,"station_id":"ce4bhsp2rcd13ifvqi50","pricing_plan_id":"free"},{"bike_id":"7d81891b-3da1-4d43-86b4-0313804f3eb6","system_id":"levelo_inurba_marseille","lat":43.315289,"lon":5.380349,"is_reserved":false,"is_disabled":false,"rental_uris":{"android":"levelo://app?vid=7d81891b-3da1-4d43-86b4-0313804f3eb6","ios":"levelo://app?vid=7d81891b-3da1-4d43-86b4-0313804f3eb6"},"vehicle_type_id":"4","last_reported":1688051222,"current_range_meters":11600,"station_id":"ce4bhsp2rcd13ifvqi50","pricing_plan_id":"free"},{"bike_id":"131780be-38a0-4827-b2c0-cc48a2aa5470","system_id":"levelo_inurba_marseille","lat":43.301939,"lon":5.366286,"is_reserved":false,"is_disabled":false,"rental_uris":{"android":"levelo://app?vid=131780be-38a0-4827-b2c0-cc48a2aa5470","ios":"levelo://app?vid=131780be-38a0-4827-b2c0-cc48a2aa5470"},"vehicle_type_id":"4","last_reported":1688051222,"current_range_meters":20400,"station_id":"ce4bgrh2rcd13ifvqc8g","pricing_plan_id":"free"},{"bike_id":"16c694f2-e948-4939-bbfc-914570940346","system_id":"levelo_inurba_marseille","lat":43.31374,"lon":5.38261,"is_reserved":false,"is_disabled":false,"rental_uris":{"android":"levelo://app?vid=16c694f2-e948-4939-bbfc-914570940346","ios":"levelo://app?vid=16c694f2-e948-4939-bbfc-914570940346"},"vehicle_type_id":"4","last_reported":1688051222,"current_range_meters":24800,"station_id":"","pricing_plan_id":"free"},{"bike_id":"ed221af6-e960-41cb-b741-2d594cebdc42","system_id":"levelo_inurba_marseille","lat":43.308012,"lon":5.381511,"is_reserved":false,"is_disabled":false,"rental_uris":{"android":"levelo://app?vid=ed221af6-e960-41cb-b741-2d594cebdc42","ios":"levelo://app?vid=ed221af6-e960-41cb-b741-2d594cebdc42"},"vehicle_type_id":"4","last_reported":1688051222,"current_range_meters":28400,"station_id":"ce4bgt12rcd13ifvqce0","pricing_plan_id":"free"},{"bike_id":"d96149ff-9a21-4731-ad8e-f3b265af6d70","system_id":"levelo_inurba_marseille","lat":43.30475,"lon":5.37894,"is_reserved":false,"is_disabled":false,"rental_uris":{"android":"levelo://app?vid=d96149ff-9a21-4731-ad8e-f3b265af6d70","ios":"levelo://app?vid=d96149ff-9a21-4731-ad8e-f3b265af6d70"},"vehicle_type_id":"4","last_reported":1688051222,"current_range_meters":27600,"station_id":"ce4bgup2rcd13ifvqcn0","pricing_plan_id":"free"},{"bike_id":"0cfe7bf1-706f-440b-9de5-fdc62e04d13f","system_id":"levelo_inurba_marseille","lat":43.304606,"lon":5.379026,"is_reserved":false,"is_disabled":false,"rental_uris":{"android":"levelo://app?vid=0cfe7bf1-706f-440b-9de5-fdc62e04d13f","ios":"levelo://app?vid=0cfe7bf1-706f-440b-9de5-fdc62e04d13f"},"vehicle_type_id":"4","last_reported":1688051222,"current_range_meters":28000,"station_id":"ce4bgup2rcd13ifvqcn0","pricing_plan_id":"free"},{"bike_id":"b5b4a780-2d3d-4e49-845d-3235bcb0028e","system_id":"levelo_inurba_marseille","lat":43.30145,"lon":5.3742,"is_reserved":false,"is_disabled":false,"rental_uris":{"android":"levelo://app?vid=b5b4a780-2d3d-4e49-845d-3235bcb0028e","ios":"levelo://app?vid=b5b4a780-2d3d-4e49-845d-3235bcb0028e"},"vehicle_type_id":"4","last_reported":1688051222,"current_range_meters":4800,"station_id":"ce4bgs92rcd13ifvqcc0","pricing_plan_id":"free"},{"bike_id":"67da3752-0dfc-4cc4-9eff-2e53ddc997d1","system_id":"levelo_inurba_marseille","lat":43.302784,"lon":5.377158,"is_reserved":false,"is_disabled":false,"rental_uris":{"android":"levelo://app?vid=67da3752-0dfc-4cc4-9eff-2e53ddc997d1","ios":"levelo://app?vid=67da3752-0dfc-4cc4-9eff-2e53ddc997d1"},"vehicle_type_id":"4","last_reported":1688051222,"current_range_meters":0,"station_id":"ce4bguh2rcd13ifvqcj0","pricing_plan_id":"free"},{"bike_id":"34ee49b9-c50b-4a68-a7c0-e16e42a93913","system_id":"levelo_inurba_marseille","lat":43.32534,"lon":5.36873,"is_reserved":false,"is_disabled":false,"rental_uris":{"android":"levelo://app?vid=34ee49b9-c50b-4a68-a7c0-e16e42a93913","ios":"levelo://app?vid=34ee49b9-c50b-4a68-a7c0-e16e42a93913"},"vehicle_type_id":"4","last_reported":1688051222,"current_range_meters":16800,"station_id":"","pricing_plan_id":"free"},{"bike_id":"73385b69-2977-4ba6-858a-b67b8a761931","system_id":"levelo_inurba_marseille","lat":43.3199,"lon":5.38136,"is_reserved":false,"is_disabled":false,"rental_uris":{"android":"levelo://app?vid=73385b69-2977-4ba6-858a-b67b8a761931","ios":"levelo://app?vid=73385b69-2977-4ba6-858a-b67b8a761931"},"vehicle_type_id":"4","last_reported":1688051222,"current_range_meters":4000,"station_id":"","pricing_plan_id":"free"},{"bike_id":"b9ba10c7-58d3-4dd0-a57d-cf8bdf3c0a06","system_id":"levelo_inurba_marseille","lat":43.31996,"lon":5.38143,"is_reserved":false,"is_disabled":false,"rental_uris":{"android":"levelo://app?vid=b9ba10c7-58d3-4dd0-a57d-cf8bdf3c0a06","ios":"levelo://app?vid=b9ba10c7-58d3-4dd0-a57d-cf8bdf3c0a06"},"vehicle_type_id":"4","last_reported":1688051222,"current_range_meters":30000,"station_id":"ce4bhr12rcd13ifvqhpg","pricing_plan_id":"free"},{"bike_id":"41d64167-2260-4409-97ee-42635082e26e","system_id":"levelo_inurba_marseille","lat":43.32001,"lon":5.38145,"is_reserved":false,"is_disabled":false,"rental_uris":{"android":"levelo://app?vid=41d64167-2260-4409-97ee-42635082e26e","ios":"levelo://app?vid=41d64167-2260-4409-97ee-42635082e26e"},"vehicle_type_id":"4","last_reported":1688051222,"current_range_meters":22400,"station_id":"ce4bhr12rcd13ifvqhpg","pricing_plan_id":"free"},{"bike_id":"238416c4-9473-47d0-9766-eefb2a1e9a52","system_id":"levelo_inurba_marseille","lat":43.31997,"lon":5.38164,"is_reserved":false,"is_disabled":false,"rental_uris":{"android":"levelo://app?vid=238416c4-9473-47d0-9766-eefb2a1e9a52","ios":"levelo://app?vid=238416c4-9473-47d0-9766-eefb2a1e9a52"},"vehicle_type_id":"4","last_reported":1688051222,"current_range_meters":18400,"station_id":"","pricing_plan_id":"free"},{"bike_id":"6f2d1d92-35c5-4544-8ee3-9fe303640654","system_id":"levelo_inurba_marseille","lat":43.30405,"lon":5.38117,"is_reserved":false,"is_disabled":false,"rental_uris":{"android":"levelo://app?vid=6f2d1d92-35c5-4544-8ee3-9fe303640654","ios":"levelo://app?vid=6f2d1d92-35c5-4544-8ee3-9fe303640654"},"vehicle_type_id":"4","last_reported":1688051222,"current_range_meters":21600,"station_id":"","pricing_plan_id":"free"},{"bike_id":"45bffa87-3a9e-4bf5-a2b2-98a9dbabde46","system_id":"levelo_inurba_marseille","lat":43.298433,"lon":5.362774,"is_reserved":false,"is_disabled":false,"rental_uris":{"android":"levelo://app?vid=45bffa87-3a9e-4bf5-a2b2-98a9dbabde46","ios":"levelo://app?vid=45bffa87-3a9e-4bf5-a2b2-98a9dbabde46"},"vehicle_type_id":"4","last_reported":1688051222,"current_range_meters":20000,"station_id":"ce4bgpp2rcd13ifvqc3g","pricing_plan_id":"free"},{"bike_id":"44365aea-eee5-42d3-bb2a-0a7bb14dd456","system_id":"levelo_inurba_marseille","lat":43.298433,"lon":5.362774,"is_reserved":false,"is_disabled":false,"rental_uris":{"android":"levelo://app?vid=44365aea-eee5-42d3-bb2a-0a7bb14dd456","ios":"levelo://app?vid=44365aea-eee5-42d3-bb2a-0a7bb14dd456"},"vehicle_type_id":"4","last_reported":1688051222,"current_range_meters":18800,"station_id":"ce4bgpp2rcd13ifvqc3g","pricing_plan_id":"free"},{"bike_id":"38fae979-d25f-4f0a-b589-6c0ce37bdc98","system_id":"levelo_inurba_marseille","lat":43.311722,"lon":5.387247,"is_reserved":false,"is_disabled":false,"rental_uris":{"android":"levelo://app?vid=38fae979-d25f-4f0a-b589-6c0ce37bdc98","ios":"levelo://app?vid=38fae979-d25f-4f0a-b589-6c0ce37bdc98"},"vehicle_type_id":"4","last_reported":1688051222,"current_range_meters":11600,"station_id":"ce4bgv12rcd13ifvqcp0","pricing_plan_id":"free"},{"bike_id":"09a47dd8-c9b5-44e8-abbc-b38ddd8b82c7","system_id":"levelo_inurba_marseille","lat":43.29912,"lon":5.37476,"is_reserved":false,"is_disabled":false,"rental_uris":{"android":"levelo://app?vid=09a47dd8-c9b5-44e8-abbc-b38ddd8b82c7","ios":"levelo://app?vid=09a47dd8-c9b5-44e8-abbc-b38ddd8b82c7"},"vehicle_type_id":"4","last_reported":1688051222,"current_range_meters":15600,"station_id":"ce4bgjh2rcd13ifvqbg0","pricing_plan_id":"free"},{"bike_id":"0bc2239b-b504-40b3-90cc-fa65a6d4d7f1","system_id":"levelo_inurba_marseille","lat":43.311722,"lon":5.387247,"is_reserved":false,"is_disabled":false,"rental_uris":{"android":"levelo://app?vid=0bc2239b-b504-40b3-90cc-fa65a6d4d7f1","ios":"levelo://app?vid=0bc2239b-b504-40b3-90cc-fa65a6d4d7f1"},"vehicle_type_id":"4","last_reported":1688051222,"current_range_meters":7200,"station_id":"ce4bgv12rcd13ifvqcp0","pricing_plan_id":"free"},{"bike_id":"3c9b7c20-8854-4d66-bf77-0c4d58d6c651","system_id":"levelo_inurba_marseille","lat":43.311722,"lon":5.387247,"is_reserved":false,"is_disabled":false,"rental_uris":{"android":"levelo://app?vid=3c9b7c20-8854-4d66-bf77-0c4d58d6c651","ios":"levelo://app?vid=3c9b7c20-8854-4d66-bf77-0c4d58d6c651"},"vehicle_type_id":"4","last_reported":1688051222,"current_range_meters":21200,"station_id":"ce4bgv12rcd13ifvqcp0","pricing_plan_id":"free"},{"bike_id":"8fb549ea-9e4b-4b20-9fd8-02cf187d4d9e","system_id":"levelo_inurba_marseille","lat":43.311722,"lon":5.387247,"is_reserved":false,"is_disabled":false,"rental_uris":{"android":"levelo://app?vid=8fb549ea-9e4b-4b20-9fd8-02cf187d4d9e","ios":"levelo://app?vid=8fb549ea-9e4b-4b20-9fd8-02cf187d4d9e"},"vehicle_type_id":"4","last_reported":1688051222,"current_range_meters":10400,"station_id":"ce4bgv12rcd13ifvqcp0","pricing_plan_id":"free"},{"bike_id":"ef979693-d961-4f98-a16e-19f9f57de33e","system_id":"levelo_inurba_marseille","lat":43.311722,"lon":5.387247,"is_reserved":false,"is_disabled":false,"rental_uris":{"android":"levelo://app?vid=ef979693-d961-4f98-a16e-19f9f57de33e","ios":"levelo://app?vid=ef979693-d961-4f98-a16e-19f9f57de33e"},"vehicle_type_id":"4","last_reported":1688051222,"current_range_meters":22400,"station_id":"ce4bgv12rcd13ifvqcp0","pricing_plan_id":"free"},{"bike_id":"371c101d-dfee-4116-917e-75a0fb3a144f","system_id":"levelo_inurba_marseille","lat":43.328371,"lon":5.366909,"is_reserved":false,"is_disabled":false,"rental_uris":{"android":"levelo://app?vid=371c101d-dfee-4116-917e-75a0fb3a144f","ios":"levelo://app?vid=371c101d-dfee-4116-917e-75a0fb3a144f"},"vehicle_type_id":"4","last_reported":1688051222,"current_range_meters":17200,"station_id":"ce4bhs92rcd13ifvqi0g","pricing_plan_id":"free"},{"bike_id":"98f1d3cf-2b62-47ba-a3e1-60b0ab81f00e","system_id":"levelo_inurba_marseille","lat":43.328371,"lon":5.366909,"is_reserved":false,"is_disabled":false,"rental_uris":{"android":"levelo://app?vid=98f1d3cf-2b62-47ba-a3e1-60b0ab81f00e","ios":"levelo://app?vid=98f1d3cf-2b62-47ba-a3e1-60b0ab81f00e"},"vehicle_type_id":"4","last_reported":1688051222,"current_range_meters":23600,"station_id":"ce4bhs92rcd13ifvqi0g","pricing_plan_id":"free"},{"bike_id":"e87f81c4-e8f6-4eec-a057-fb9708dfce5c","system_id":"levelo_inurba_marseille","lat":43.328371,"lon":5.366909,"is_reserved":false,"is_disabled":false,"rental_uris":{"android":"levelo://app?vid=e87f81c4-e8f6-4eec-a057-fb9708dfce5c","ios":"levelo://app?vid=e87f81c4-e8f6-4eec-a057-fb9708dfce5c"},"vehicle_type_id":"4","last_reported":1688051222,"current_range_meters":17600,"station_id":"ce4bhs92rcd13ifvqi0g","pricing_plan_id":"free"},{"bike_id":"aba24cac-9149-4a7e-be6a-f15d19b76734","system_id":"levelo_inurba_marseille","lat":43.328371,"lon":5.366909,"is_reserved":false,"is_disabled":false,"rental_uris":{"android":"levelo://app?vid=aba24cac-9149-4a7e-be6a-f15d19b76734","ios":"levelo://app?vid=aba24cac-9149-4a7e-be6a-f15d19b76734"},"vehicle_type_id":"4","last_reported":1688051222,"current_range_meters":24000,"station_id":"ce4bhs92rcd13ifvqi0g","pricing_plan_id":"free"},{"bike_id":"4ad0820a-b4f0-4687-9297-85e68595ea74","system_id":"levelo_inurba_marseille","lat":43.328371,"lon":5.366909,"is_reserved":false,"is_disabled":false,"rental_uris":{"android":"levelo://app?vid=4ad0820a-b4f0-4687-9297-85e68595ea74","ios":"levelo://app?vid=4ad0820a-b4f0-4687-9297-85e68595ea74"},"vehicle_type_id":"4","last_reported":1688051222,"current_range_meters":11200,"station_id":"ce4bhs92rcd13ifvqi0g","pricing_plan_id":"free"},{"bike_id":"86b9fb7f-a2c3-4082-9faa-7e3f901f5c30","system_id":"levelo_inurba_marseille","lat":43.328371,"lon":5.366909,"is_reserved":false,"is_disabled":false,"rental_uris":{"android":"levelo://app?vid=86b9fb7f-a2c3-4082-9faa-7e3f901f5c30","ios":"levelo://app?vid=86b9fb7f-a2c3-4082-9faa-7e3f901f5c30"},"vehicle_type_id":"4","last_reported":1688051222,"current_range_meters":15200,"station_id":"ce4bhs92rcd13ifvqi0g","pricing_plan_id":"free"},{"bike_id":"0291cc6f-01b4-4c29-ad5e-4632e4e22c96","system_id":"levelo_inurba_marseille","lat":43.32835,"lon":5.36684,"is_reserved":false,"is_disabled":false,"rental_uris":{"android":"levelo://app?vid=0291cc6f-01b4-4c29-ad5e-4632e4e22c96","ios":"levelo://app?vid=0291cc6f-01b4-4c29-ad5e-4632e4e22c96"},"vehicle_type_id":"4","last_reported":1688051222,"current_range_meters":18000,"station_id":"ce4bhs92rcd13ifvqi0g","pricing_plan_id":"free"},{"bike_id":"52c17931-f235-4280-a010-fb1d15e44b39","system_id":"levelo_inurba_marseille","lat":43.32837,"lon":5.36674,"is_reserved":false,"is_disabled":false,"rental_uris":{"android":"levelo://app?vid=52c17931-f235-4280-a010-fb1d15e44b39","ios":"levelo://app?vid=52c17931-f235-4280-a010-fb1d15e44b39"},"vehicle_type_id":"4","last_reported":1688051222,"current_range_meters":24800,"station_id":"ce4bhs92rcd13ifvqi0g","pricing_plan_id":"free"},{"bike_id":"6ec79c0d-0303-4fd7-bd75-aee07039de1d","system_id":"levelo_inurba_marseille","lat":43.317557,"lon":5.390173,"is_reserved":false,"is_disabled":false,"rental_uris":{"android":"levelo://app?vid=6ec79c0d-0303-4fd7-bd75-aee07039de1d","ios":"levelo://app?vid=6ec79c0d-0303-4fd7-bd75-aee07039de1d"},"vehicle_type_id":"4","last_reported":1688051222,"current_range_meters":25200,"station_id":"ce4bhqp2rcd13ifvqhng","pricing_plan_id":"free"},{"bike_id":"5659cdea-6764-4183-9410-17e474ba4853","system_id":"levelo_inurba_marseille","lat":43.317557,"lon":5.390173,"is_reserved":false,"is_disabled":false,"rental_uris":{"android":"levelo://app?vid=5659cdea-6764-4183-9410-17e474ba4853","ios":"levelo://app?vid=5659cdea-6764-4183-9410-17e474ba4853"},"vehicle_type_id":"4","last_reported":1688051222,"current_range_meters":31200,"station_id":"ce4bhqp2rcd13ifvqhng","pricing_plan_id":"free"},{"bike_id":"472381ff-a968-4691-862a-49ad824eeb0e","system_id":"levelo_inurba_marseille","lat":43.317557,"lon":5.390173,"is_reserved":false,"is_disabled":false,"rental_uris":{"android":"levelo://app?vid=472381ff-a968-4691-862a-49ad824eeb0e","ios":"levelo://app?vid=472381ff-a968-4691-862a-49ad824eeb0e"},"vehicle_type_id":"4","last_reported":1688051222,"current_range_meters":21600,"station_id":"ce4bhqp2rcd13ifvqhng","pricing_plan_id":"free"},{"bike_id":"902f7cd8-06d1-4342-a48c-a89e589a7e1d","system_id":"levelo_inurba_marseille","lat":43.29615,"lon":5.37726,"is_reserved":false,"is_disabled":false,"rental_uris":{"android":"levelo://app?vid=902f7cd8-06d1-4342-a48c-a89e589a7e1d","ios":"levelo://app?vid=902f7cd8-06d1-4342-a48c-a89e589a7e1d"},"vehicle_type_id":"4","last_reported":1688051222,"current_range_meters":7200,"station_id":"ce4bgi92rcd13ifvqb90","pricing_plan_id":"free"},{"bike_id":"15c5b6ce-c6dc-4a29-8058-7518de43d56e","system_id":"levelo_inurba_marseille","lat":43.299717,"lon":5.384845,"is_reserved":false,"is_disabled":false,"rental_uris":{"android":"levelo://app?vid=15c5b6ce-c6dc-4a29-8058-7518de43d56e","ios":"levelo://app?vid=15c5b6ce-c6dc-4a29-8058-7518de43d56e"},"vehicle_type_id":"4","last_reported":1688051222,"current_range_meters":16800,"station_id":"ce4bgj92rcd13ifvqbd0","pricing_plan_id":"free"},{"bike_id":"4a481b4a-0254-44db-9f06-45377e805432","system_id":"levelo_inurba_marseille","lat":43.299783,"lon":5.384812,"is_reserved":false,"is_disabled":false,"rental_uris":{"android":"levelo://app?vid=4a481b4a-0254-44db-9f06-45377e805432","ios":"levelo://app?vid=4a481b4a-0254-44db-9f06-45377e805432"},"vehicle_type_id":"4","last_reported":1688051222,"current_range_meters":16000,"station_id":"ce4bgj92rcd13ifvqbd0","pricing_plan_id":"free"},{"bike_id":"9a58a05e-4d16-4a0b-b4f2-82dfe38fbaf6","system_id":"levelo_inurba_marseille","lat":43.299717,"lon":5.384845,"is_reserved":false,"is_disabled":false,"rental_uris":{"android":"levelo://app?vid=9a58a05e-4d16-4a0b-b4f2-82dfe38fbaf6","ios":"levelo://app?vid=9a58a05e-4d16-4a0b-b4f2-82dfe38fbaf6"},"vehicle_type_id":"4","last_reported":1688051222,"current_range_meters":18800,"station_id":"ce4bgj92rcd13ifvqbd0","pricing_plan_id":"free"},{"bike_id":"b9b44216-011b-4a11-b98d-10bb837e22d4","system_id":"levelo_inurba_marseille","lat":43.3106,"lon":5.3928,"is_reserved":false,"is_disabled":false,"rental_uris":{"android":"levelo://app?vid=b9b44216-011b-4a11-b98d-10bb837e22d4","ios":"levelo://app?vid=b9b44216-011b-4a11-b98d-10bb837e22d4"},"vehicle_type_id":"4","last_reported":1688051222,"current_range_meters":20000,"station_id":"","pricing_plan_id":"free"},{"bike_id":"99d1765e-2ebc-474d-996b-792ff2adb9db","system_id":"levelo_inurba_marseille","lat":43.32367,"lon":5.38858,"is_reserved":false,"is_disabled":false,"rental_uris":{"android":"levelo://app?vid=99d1765e-2ebc-474d-996b-792ff2adb9db","ios":"levelo://app?vid=99d1765e-2ebc-474d-996b-792ff2adb9db"},"vehicle_type_id":"4","last_reported":1688051222,"current_range_meters":25600,"station_id":"ce4bhqp2rcd13ifvqhog","pricing_plan_id":"free"},{"bike_id":"a77c9f55-f10d-4fed-a2f3-ed48021a3bdb","system_id":"levelo_inurba_marseille","lat":43.32369,"lon":5.3888,"is_reserved":false,"is_disabled":false,"rental_uris":{"android":"levelo://app?vid=a77c9f55-f10d-4fed-a2f3-ed48021a3bdb","ios":"levelo://app?vid=a77c9f55-f10d-4fed-a2f3-ed48021a3bdb"},"vehicle_type_id":"4","last_reported":1688051222,"current_range_meters":16000,"station_id":"ce4bhqp2rcd13ifvqhog","pricing_plan_id":"free"},{"bike_id":"6e9fca5d-f0a6-4235-8983-5ea88ce7ce05","system_id":"levelo_inurba_marseille","lat":43.32369,"lon":5.38882,"is_reserved":false,"is_disabled":false,"rental_uris":{"android":"levelo://app?vid=6e9fca5d-f0a6-4235-8983-5ea88ce7ce05","ios":"levelo://app?vid=6e9fca5d-f0a6-4235-8983-5ea88ce7ce05"},"vehicle_type_id":"4","last_reported":1688051222,"current_range_meters":20800,"station_id":"ce4bhqp2rcd13ifvqhog","pricing_plan_id":"free"},{"bike_id":"6a185bdb-0040-44e8-90f9-4dd630f3741d","system_id":"levelo_inurba_marseille","lat":43.32366,"lon":5.38886,"is_reserved":false,"is_disabled":false,"rental_uris":{"android":"levelo://app?vid=6a185bdb-0040-44e8-90f9-4dd630f3741d","ios":"levelo://app?vid=6a185bdb-0040-44e8-90f9-4dd630f3741d"},"vehicle_type_id":"4","last_reported":1688051222,"current_range_meters":10800,"station_id":"ce4bhqp2rcd13ifvqhog","pricing_plan_id":"free"},{"bike_id":"3b460742-8001-4680-8942-abbbe8bfcb64","system_id":"levelo_inurba_marseille","lat":43.32366,"lon":5.38886,"is_reserved":false,"is_disabled":false,"rental_uris":{"android":"levelo://app?vid=3b460742-8001-4680-8942-abbbe8bfcb64","ios":"levelo://app?vid=3b460742-8001-4680-8942-abbbe8bfcb64"},"vehicle_type_id":"4","last_reported":1688051222,"current_range_meters":19600,"station_id":"ce4bhqp2rcd13ifvqhog","pricing_plan_id":"free"},{"bike_id":"abd681d9-c52f-4774-a57c-e904eb472a58","system_id":"levelo_inurba_marseille","lat":43.32365,"lon":5.3889,"is_reserved":false,"is_disabled":false,"rental_uris":{"android":"levelo://app?vid=abd681d9-c52f-4774-a57c-e904eb472a58","ios":"levelo://app?vid=abd681d9-c52f-4774-a57c-e904eb472a58"},"vehicle_type_id":"4","last_reported":1688051222,"current_range_meters":30000,"station_id":"ce4bhqp2rcd13ifvqhog","pricing_plan_id":"free"},{"bike_id":"c737b305-2f9e-411a-b1ca-26b0f745d0f2","system_id":"levelo_inurba_marseille","lat":43.33183,"lon":5.36162,"is_reserved":false,"is_disabled":false,"rental_uris":{"android":"levelo://app?vid=c737b305-2f9e-411a-b1ca-26b0f745d0f2","ios":"levelo://app?vid=c737b305-2f9e-411a-b1ca-26b0f745d0f2"},"vehicle_type_id":"4","last_reported":1688051222,"current_range_meters":5600,"station_id":"","pricing_plan_id":"free"},{"bike_id":"67f9b2bd-9c33-4fed-8ee9-0bab17313905","system_id":"levelo_inurba_marseille","lat":43.29261,"lon":5.36725,"is_reserved":false,"is_disabled":false,"rental_uris":{"android":"levelo://app?vid=67f9b2bd-9c33-4fed-8ee9-0bab17313905","ios":"levelo://app?vid=67f9b2bd-9c33-4fed-8ee9-0bab17313905"},"vehicle_type_id":"4","last_reported":1688051222,"current_range_meters":22400,"station_id":"","pricing_plan_id":"free"},{"bike_id":"a9e66b96-7913-410e-9c24-0aea9b1ec251","system_id":"levelo_inurba_marseille","lat":43.29235,"lon":5.36069,"is_reserved":false,"is_disabled":false,"rental_uris":{"android":"levelo://app?vid=a9e66b96-7913-410e-9c24-0aea9b1ec251","ios":"levelo://app?vid=a9e66b96-7913-410e-9c24-0aea9b1ec251"},"vehicle_type_id":"4","last_reported":1688051222,"current_range_meters":5600,"station_id":"","pricing_plan_id":"free"},{"bike_id":"bc5e1e16-1eef-4907-a220-6ef9e002a33e","system_id":"levelo_inurba_marseille","lat":43.29225,"lon":5.36044,"is_reserved":false,"is_disabled":false,"rental_uris":{"android":"levelo://app?vid=bc5e1e16-1eef-4907-a220-6ef9e002a33e","ios":"levelo://app?vid=bc5e1e16-1eef-4907-a220-6ef9e002a33e"},"vehicle_type_id":"4","last_reported":1688051222,"current_range_meters":13200,"station_id":"","pricing_plan_id":"free"},{"bike_id":"0f712b16-44a9-44ed-83ad-321c2ecd102f","system_id":"levelo_inurba_marseille","lat":43.291675,"lon":5.371583,"is_reserved":false,"is_disabled":false,"rental_uris":{"android":"levelo://app?vid=0f712b16-44a9-44ed-83ad-321c2ecd102f","ios":"levelo://app?vid=0f712b16-44a9-44ed-83ad-321c2ecd102f"},"vehicle_type_id":"4","last_reported":1688051222,"current_range_meters":6400,"station_id":"ce4bha92rcd13ifvqeh0","pricing_plan_id":"free"},{"bike_id":"1dda04e3-8dc3-450c-9d8f-50b5bacd67e1","system_id":"levelo_inurba_marseille","lat":43.29195,"lon":5.35792,"is_reserved":false,"is_disabled":false,"rental_uris":{"android":"levelo://app?vid=1dda04e3-8dc3-450c-9d8f-50b5bacd67e1","ios":"levelo://app?vid=1dda04e3-8dc3-450c-9d8f-50b5bacd67e1"},"vehicle_type_id":"4","last_reported":1688051222,"current_range_meters":30400,"station_id":"ce4bhb12rcd13ifvqel0","pricing_plan_id":"free"},{"bike_id":"00342527-af9e-4444-bf4a-7d61a453dcab","system_id":"levelo_inurba_marseille","lat":43.29194,"lon":5.35795,"is_reserved":false,"is_disabled":false,"rental_uris":{"android":"levelo://app?vid=00342527-af9e-4444-bf4a-7d61a453dcab","ios":"levelo://app?vid=00342527-af9e-4444-bf4a-7d61a453dcab"},"vehicle_type_id":"4","last_reported":1688051222,"current_range_meters":9200,"station_id":"ce4bhb12rcd13ifvqel0","pricing_plan_id":"free"},{"bike_id":"e4df9e5d-126b-4464-a5a5-828941e87ee1","system_id":"levelo_inurba_marseille","lat":43.309038,"lon":5.396546,"is_reserved":false,"is_disabled":false,"rental_uris":{"android":"levelo://app?vid=e4df9e5d-126b-4464-a5a5-828941e87ee1","ios":"levelo://app?vid=e4df9e5d-126b-4464-a5a5-828941e87ee1"},"vehicle_type_id":"4","last_reported":1688051222,"current_range_meters":19600,"station_id":"ce4bh012rcd13ifvqcv0","pricing_plan_id":"free"},{"bike_id":"6d3f1e3a-f9e2-4b79-852a-c8ebf7f3bdeb","system_id":"levelo_inurba_marseille","lat":43.29192,"lon":5.35801,"is_reserved":false,"is_disabled":false,"rental_uris":{"android":"levelo://app?vid=6d3f1e3a-f9e2-4b79-852a-c8ebf7f3bdeb","ios":"levelo://app?vid=6d3f1e3a-f9e2-4b79-852a-c8ebf7f3bdeb"},"vehicle_type_id":"4","last_reported":1688051222,"current_range_meters":0,"station_id":"ce4bhb12rcd13ifvqel0","pricing_plan_id":"free"},{"bike_id":"3488bca4-9c87-4b3e-8597-fc289ad66beb","system_id":"levelo_inurba_marseille","lat":43.31328,"lon":5.39689,"is_reserved":false,"is_disabled":false,"rental_uris":{"android":"levelo://app?vid=3488bca4-9c87-4b3e-8597-fc289ad66beb","ios":"levelo://app?vid=3488bca4-9c87-4b3e-8597-fc289ad66beb"},"vehicle_type_id":"4","last_reported":1688051222,"current_range_meters":31200,"station_id":"ce4bgvp2rcd13ifvqcu0","pricing_plan_id":"free"},{"bike_id":"89497310-d38d-4018-9041-40af1a6cc3fd","system_id":"levelo_inurba_marseille","lat":43.31329,"lon":5.39691,"is_reserved":false,"is_disabled":false,"rental_uris":{"android":"levelo://app?vid=89497310-d38d-4018-9041-40af1a6cc3fd","ios":"levelo://app?vid=89497310-d38d-4018-9041-40af1a6cc3fd"},"vehicle_type_id":"4","last_reported":1688051222,"current_range_meters":6400,"station_id":"ce4bgvp2rcd13ifvqcu0","pricing_plan_id":"free"},{"bike_id":"ee7f2cd2-32f1-4c47-ac6a-c72bbf1b9d02","system_id":"levelo_inurba_marseille","lat":43.31331,"lon":5.39691,"is_reserved":false,"is_disabled":false,"rental_uris":{"android":"levelo://app?vid=ee7f2cd2-32f1-4c47-ac6a-c72bbf1b9d02","ios":"levelo://app?vid=ee7f2cd2-32f1-4c47-ac6a-c72bbf1b9d02"},"vehicle_type_id":"4","last_reported":1688051222,"current_range_meters":5200,"station_id":"ce4bgvp2rcd13ifvqcu0","pricing_plan_id":"free"},{"bike_id":"3409c85d-425e-4e52-8c0a-4ea062bbc0f3","system_id":"levelo_inurba_marseille","lat":43.309038,"lon":5.396546,"is_reserved":false,"is_disabled":false,"rental_uris":{"android":"levelo://app?vid=3409c85d-425e-4e52-8c0a-4ea062bbc0f3","ios":"levelo://app?vid=3409c85d-425e-4e52-8c0a-4ea062bbc0f3"},"vehicle_type_id":"4","last_reported":1688051222,"current_range_meters":800,"station_id":"ce4bh012rcd13ifvqcv0","pricing_plan_id":"free"},{"bike_id":"d19c48bc-f8ce-4b69-b3e3-a93d5cc502c9","system_id":"levelo_inurba_marseille","lat":43.313284,"lon":5.396938,"is_reserved":false,"is_disabled":false,"rental_uris":{"android":"levelo://app?vid=d19c48bc-f8ce-4b69-b3e3-a93d5cc502c9","ios":"levelo://app?vid=d19c48bc-f8ce-4b69-b3e3-a93d5cc502c9"},"vehicle_type_id":"4","last_reported":1688051222,"current_range_meters":3600,"station_id":"","pricing_plan_id":"free"},{"bike_id":"5c3263e4-3dec-4f6c-a80c-083f02626e3b","system_id":"levelo_inurba_marseille","lat":43.309038,"lon":5.396546,"is_reserved":false,"is_disabled":false,"rental_uris":{"android":"levelo://app?vid=5c3263e4-3dec-4f6c-a80c-083f02626e3b","ios":"levelo://app?vid=5c3263e4-3dec-4f6c-a80c-083f02626e3b"},"vehicle_type_id":"4","last_reported":1688051222,"current_range_meters":5600,"station_id":"ce4bh012rcd13ifvqcv0","pricing_plan_id":"free"},{"bike_id":"90225eb5-2132-4b9e-b5df-3b60ed4d5b64","system_id":"levelo_inurba_marseille","lat":43.309038,"lon":5.396546,"is_reserved":false,"is_disabled":false,"rental_uris":{"android":"levelo://app?vid=90225eb5-2132-4b9e-b5df-3b60ed4d5b64","ios":"levelo://app?vid=90225eb5-2132-4b9e-b5df-3b60ed4d5b64"},"vehicle_type_id":"4","last_reported":1688051222,"current_range_meters":22000,"station_id":"ce4bh012rcd13ifvqcv0","pricing_plan_id":"free"},{"bike_id":"f5e16067-026d-43de-adfd-380433cf049a","system_id":"levelo_inurba_marseille","lat":43.29529,"lon":5.385581,"is_reserved":false,"is_disabled":false,"rental_uris":{"android":"levelo://app?vid=f5e16067-026d-43de-adfd-380433cf049a","ios":"levelo://app?vid=f5e16067-026d-43de-adfd-380433cf049a"},"vehicle_type_id":"4","last_reported":1688051222,"current_range_meters":7600,"station_id":"ce4bgih2rcd13ifvqba0","pricing_plan_id":"free"},{"bike_id":"b69b7dc4-0d1b-43df-98d9-7786d37ec11c","system_id":"levelo_inurba_marseille","lat":43.294153,"lon":5.386305,"is_reserved":false,"is_disabled":false,"rental_uris":{"android":"levelo://app?vid=b69b7dc4-0d1b-43df-98d9-7786d37ec11c","ios":"levelo://app?vid=b69b7dc4-0d1b-43df-98d9-7786d37ec11c"},"vehicle_type_id":"4","last_reported":1688051222,"current_range_meters":3600,"station_id":"ce4bh2h2rcd13ifvqdh0","pricing_plan_id":"free"},{"bike_id":"421f55cd-b7c1-450c-b14e-38d9d6d75389","system_id":"levelo_inurba_marseille","lat":43.294174,"lon":5.386231,"is_reserved":false,"is_disabled":false,"rental_uris":{"android":"levelo://app?vid=421f55cd-b7c1-450c-b14e-38d9d6d75389","ios":"levelo://app?vid=421f55cd-b7c1-450c-b14e-38d9d6d75389"},"vehicle_type_id":"4","last_reported":1688051222,"current_range_meters":6800,"station_id":"","pricing_plan_id":"free"},{"bike_id":"399ef6b6-bd49-40a3-a085-0dfa050cfb9f","system_id":"levelo_inurba_marseille","lat":43.29411,"lon":5.38614,"is_reserved":false,"is_disabled":false,"rental_uris":{"android":"levelo://app?vid=399ef6b6-bd49-40a3-a085-0dfa050cfb9f","ios":"levelo://app?vid=399ef6b6-bd49-40a3-a085-0dfa050cfb9f"},"vehicle_type_id":"4","last_reported":1688051222,"current_range_meters":0,"station_id":"","pricing_plan_id":"free"},{"bike_id":"62c4381a-7648-445d-ac1c-a18bd4f8ba5e","system_id":"levelo_inurba_marseille","lat":43.289184,"lon":5.366408,"is_reserved":false,"is_disabled":false,"rental_uris":{"android":"levelo://app?vid=62c4381a-7648-445d-ac1c-a18bd4f8ba5e","ios":"levelo://app?vid=62c4381a-7648-445d-ac1c-a18bd4f8ba5e"},"vehicle_type_id":"4","last_reported":1688051222,"current_range_meters":31200,"station_id":"ce4bhap2rcd13ifvqek0","pricing_plan_id":"free"},{"bike_id":"7abb5861-7b8e-4d09-883c-f3faca23562d","system_id":"levelo_inurba_marseille","lat":43.290103,"lon":5.356114,"is_reserved":false,"is_disabled":false,"rental_uris":{"android":"levelo://app?vid=7abb5861-7b8e-4d09-883c-f3faca23562d","ios":"levelo://app?vid=7abb5861-7b8e-4d09-883c-f3faca23562d"},"vehicle_type_id":"4","last_reported":1688051222,"current_range_meters":29600,"station_id":"ce4bhb92rcd13ifvqen0","pricing_plan_id":"free"},{"bike_id":"527d3f20-8c19-409e-aae1-85e7cd5a603d","system_id":"levelo_inurba_marseille","lat":43.33044,"lon":5.38915,"is_reserved":false,"is_disabled":false,"rental_uris":{"android":"levelo://app?vid=527d3f20-8c19-409e-aae1-85e7cd5a603d","ios":"levelo://app?vid=527d3f20-8c19-409e-aae1-85e7cd5a603d"},"vehicle_type_id":"4","last_reported":1688051222,"current_range_meters":23200,"station_id":"ce4bhr92rcd13ifvqhrg","pricing_plan_id":"free"},{"bike_id":"eb9114c8-2731-40a9-8130-f98cf8f1c92b","system_id":"levelo_inurba_marseille","lat":43.33045,"lon":5.38917,"is_reserved":false,"is_disabled":false,"rental_uris":{"android":"levelo://app?vid=eb9114c8-2731-40a9-8130-f98cf8f1c92b","ios":"levelo://app?vid=eb9114c8-2731-40a9-8130-f98cf8f1c92b"},"vehicle_type_id":"4","last_reported":1688051222,"current_range_meters":20800,"station_id":"ce4bhr92rcd13ifvqhrg","pricing_plan_id":"free"},{"bike_id":"ff883f6d-0a11-4dc2-9753-0d98ba8d29ce","system_id":"levelo_inurba_marseille","lat":43.33049,"lon":5.38912,"is_reserved":false,"is_disabled":false,"rental_uris":{"android":"levelo://app?vid=ff883f6d-0a11-4dc2-9753-0d98ba8d29ce","ios":"levelo://app?vid=ff883f6d-0a11-4dc2-9753-0d98ba8d29ce"},"vehicle_type_id":"4","last_reported":1688051222,"current_range_meters":31200,"station_id":"ce4bhr92rcd13ifvqhrg","pricing_plan_id":"free"},{"bike_id":"7c85fe2e-eba7-496a-9ec3-e8ae8dfd6b48","system_id":"levelo_inurba_marseille","lat":43.290103,"lon":5.356114,"is_reserved":false,"is_disabled":false,"rental_uris":{"android":"levelo://app?vid=7c85fe2e-eba7-496a-9ec3-e8ae8dfd6b48","ios":"levelo://app?vid=7c85fe2e-eba7-496a-9ec3-e8ae8dfd6b48"},"vehicle_type_id":"4","last_reported":1688051222,"current_range_meters":31200,"station_id":"ce4bhb92rcd13ifvqen0","pricing_plan_id":"free"},{"bike_id":"44f58e64-b7be-471f-8138-0619d6b90e22","system_id":"levelo_inurba_marseille","lat":43.33046,"lon":5.3892,"is_reserved":false,"is_disabled":false,"rental_uris":{"android":"levelo://app?vid=44f58e64-b7be-471f-8138-0619d6b90e22","ios":"levelo://app?vid=44f58e64-b7be-471f-8138-0619d6b90e22"},"vehicle_type_id":"4","last_reported":1688051222,"current_range_meters":12400,"station_id":"ce4bhr92rcd13ifvqhrg","pricing_plan_id":"free"},{"bike_id":"20685ae3-4e7a-4140-8bf5-30723de518bc","system_id":"levelo_inurba_marseille","lat":43.290104,"lon":5.356111,"is_reserved":false,"is_disabled":false,"rental_uris":{"android":"levelo://app?vid=20685ae3-4e7a-4140-8bf5-30723de518bc","ios":"levelo://app?vid=20685ae3-4e7a-4140-8bf5-30723de518bc"},"vehicle_type_id":"4","last_reported":1688051222,"current_range_meters":29200,"station_id":"ce4bhb92rcd13ifvqen0","pricing_plan_id":"free"},{"bike_id":"fe3ef325-25e3-4ac1-8aa1-ccee388bac60","system_id":"levelo_inurba_marseille","lat":43.3305,"lon":5.38917,"is_reserved":false,"is_disabled":false,"rental_uris":{"android":"levelo://app?vid=fe3ef325-25e3-4ac1-8aa1-ccee388bac60","ios":"levelo://app?vid=fe3ef325-25e3-4ac1-8aa1-ccee388bac60"},"vehicle_type_id":"4","last_reported":1688051222,"current_range_meters":5600,"station_id":"ce4bhr92rcd13ifvqhrg","pricing_plan_id":"free"},{"bike_id":"44bb0959-0d90-4d5f-9198-ecd362c04eb8","system_id":"levelo_inurba_marseille","lat":43.297815,"lon":5.393548,"is_reserved":false,"is_disabled":false,"rental_uris":{"android":"levelo://app?vid=44bb0959-0d90-4d5f-9198-ecd362c04eb8","ios":"levelo://app?vid=44bb0959-0d90-4d5f-9198-ecd362c04eb8"},"vehicle_type_id":"4","last_reported":1688051222,"current_range_meters":19200,"station_id":"chh1huq6cuj3fo74tm60","pricing_plan_id":"free"},{"bike_id":"50addb93-59ca-464f-9bd3-af34b1190966","system_id":"levelo_inurba_marseille","lat":43.33732,"lon":5.37399,"is_reserved":false,"is_disabled":false,"rental_uris":{"android":"levelo://app?vid=50addb93-59ca-464f-9bd3-af34b1190966","ios":"levelo://app?vid=50addb93-59ca-464f-9bd3-af34b1190966"},"vehicle_type_id":"4","last_reported":1688051222,"current_range_meters":29600,"station_id":"","pricing_plan_id":"free"},{"bike_id":"b152602a-aaa7-4eed-93ba-89050d9c58ba","system_id":"levelo_inurba_marseille","lat":43.3067,"lon":5.40078,"is_reserved":false,"is_disabled":false,"rental_uris":{"android":"levelo://app?vid=b152602a-aaa7-4eed-93ba-89050d9c58ba","ios":"levelo://app?vid=b152602a-aaa7-4eed-93ba-89050d9c58ba"},"vehicle_type_id":"4","last_reported":1688051222,"current_range_meters":19200,"station_id":"","pricing_plan_id":"free"},{"bike_id":"b8bf73c4-9484-46f1-97b5-8575db35b481","system_id":"levelo_inurba_marseille","lat":43.33746,"lon":5.37476,"is_reserved":false,"is_disabled":false,"rental_uris":{"android":"levelo://app?vid=b8bf73c4-9484-46f1-97b5-8575db35b481","ios":"levelo://app?vid=b8bf73c4-9484-46f1-97b5-8575db35b481"},"vehicle_type_id":"4","last_reported":1688051222,"current_range_meters":28800,"station_id":"","pricing_plan_id":"free"},{"bike_id":"476cd57c-2e9c-4f0d-a086-f93a7e3396f6","system_id":"levelo_inurba_marseille","lat":43.337516,"lon":5.374747,"is_reserved":false,"is_disabled":false,"rental_uris":{"android":"levelo://app?vid=476cd57c-2e9c-4f0d-a086-f93a7e3396f6","ios":"levelo://app?vid=476cd57c-2e9c-4f0d-a086-f93a7e3396f6"},"vehicle_type_id":"4","last_reported":1688051222,"current_range_meters":24400,"station_id":"","pricing_plan_id":"free"},{"bike_id":"0b349626-a072-4553-95f3-f1b1d5f64498","system_id":"levelo_inurba_marseille","lat":43.33759,"lon":5.37433,"is_reserved":false,"is_disabled":false,"rental_uris":{"android":"levelo://app?vid=0b349626-a072-4553-95f3-f1b1d5f64498","ios":"levelo://app?vid=0b349626-a072-4553-95f3-f1b1d5f64498"},"vehicle_type_id":"4","last_reported":1688051222,"current_range_meters":22400,"station_id":"","pricing_plan_id":"free"},{"bike_id":"f796ceca-8118-41db-81d1-d52f0ceee4b1","system_id":"levelo_inurba_marseille","lat":43.286591,"lon":5.363346,"is_reserved":false,"is_disabled":false,"rental_uris":{"android":"levelo://app?vid=f796ceca-8118-41db-81d1-d52f0ceee4b1","ios":"levelo://app?vid=f796ceca-8118-41db-81d1-d52f0ceee4b1"},"vehicle_type_id":"4","last_reported":1688051222,"current_range_meters":27200,"station_id":"ce4bhah2rcd13ifvqej0","pricing_plan_id":"free"},{"bike_id":"39469fdc-db35-4e5d-99c3-f42ea297529b","system_id":"levelo_inurba_marseille","lat":43.298681,"lon":5.397225,"is_reserved":false,"is_disabled":false,"rental_uris":{"android":"levelo://app?vid=39469fdc-db35-4e5d-99c3-f42ea297529b","ios":"levelo://app?vid=39469fdc-db35-4e5d-99c3-f42ea297529b"},"vehicle_type_id":"4","last_reported":1688051222,"current_range_meters":15600,"station_id":"ce4bh0h2rcd13ifvqd50","pricing_plan_id":"free"},{"bike_id":"e1fee130-03c7-4c9e-990f-0afb3a4180f0","system_id":"levelo_inurba_marseille","lat":43.30383,"lon":5.40087,"is_reserved":false,"is_disabled":false,"rental_uris":{"android":"levelo://app?vid=e1fee130-03c7-4c9e-990f-0afb3a4180f0","ios":"levelo://app?vid=e1fee130-03c7-4c9e-990f-0afb3a4180f0"},"vehicle_type_id":"4","last_reported":1688051222,"current_range_meters":6800,"station_id":"","pricing_plan_id":"free"},{"bike_id":"a61bc779-da20-4a9d-8a0c-af621f1f6625","system_id":"levelo_inurba_marseille","lat":43.286961,"lon":5.373785,"is_reserved":false,"is_disabled":false,"rental_uris":{"android":"levelo://app?vid=a61bc779-da20-4a9d-8a0c-af621f1f6625","ios":"levelo://app?vid=a61bc779-da20-4a9d-8a0c-af621f1f6625"},"vehicle_type_id":"4","last_reported":1688051222,"current_range_meters":30400,"station_id":"ce4bh3p2rcd13ifvqdq0","pricing_plan_id":"free"},{"bike_id":"ffcef28e-ce38-46b6-9716-1963cf8e573b","system_id":"levelo_inurba_marseille","lat":43.286961,"lon":5.373785,"is_reserved":false,"is_disabled":false,"rental_uris":{"android":"levelo://app?vid=ffcef28e-ce38-46b6-9716-1963cf8e573b","ios":"levelo://app?vid=ffcef28e-ce38-46b6-9716-1963cf8e573b"},"vehicle_type_id":"4","last_reported":1688051222,"current_range_meters":10000,"station_id":"ce4bh3p2rcd13ifvqdq0","pricing_plan_id":"free"},{"bike_id":"fae027b4-0db8-48dd-ac6a-d1b1d2d46270","system_id":"levelo_inurba_marseille","lat":43.290345,"lon":5.38646,"is_reserved":false,"is_disabled":false,"rental_uris":{"android":"levelo://app?vid=fae027b4-0db8-48dd-ac6a-d1b1d2d46270","ios":"levelo://app?vid=fae027b4-0db8-48dd-ac6a-d1b1d2d46270"},"vehicle_type_id":"4","last_reported":1688051222,"current_range_meters":25200,"station_id":"ce4bh4p2rcd13ifvqe0g","pricing_plan_id":"free"},{"bike_id":"ce5c6360-b803-425a-b255-c82cd5d63454","system_id":"levelo_inurba_marseille","lat":43.290336,"lon":5.386425,"is_reserved":false,"is_disabled":false,"rental_uris":{"android":"levelo://app?vid=ce5c6360-b803-425a-b255-c82cd5d63454","ios":"levelo://app?vid=ce5c6360-b803-425a-b255-c82cd5d63454"},"vehicle_type_id":"4","last_reported":1688051222,"current_range_meters":2400,"station_id":"ce4bh4p2rcd13ifvqe0g","pricing_plan_id":"free"},{"bike_id":"1eb879d3-3d6a-4c33-bc5b-328bbe1bd074","system_id":"levelo_inurba_marseille","lat":43.290345,"lon":5.38646,"is_reserved":false,"is_disabled":false,"rental_uris":{"android":"levelo://app?vid=1eb879d3-3d6a-4c33-bc5b-328bbe1bd074","ios":"levelo://app?vid=1eb879d3-3d6a-4c33-bc5b-328bbe1bd074"},"vehicle_type_id":"4","last_reported":1688051222,"current_range_meters":8400,"station_id":"ce4bh4p2rcd13ifvqe0g","pricing_plan_id":"free"},{"bike_id":"0a43d23d-b1a9-43b8-a56a-868946bdfd72","system_id":"levelo_inurba_marseille","lat":43.302759,"lon":5.400793,"is_reserved":false,"is_disabled":false,"rental_uris":{"android":"levelo://app?vid=0a43d23d-b1a9-43b8-a56a-868946bdfd72","ios":"levelo://app?vid=0a43d23d-b1a9-43b8-a56a-868946bdfd72"},"vehicle_type_id":"4","last_reported":1688051222,"current_range_meters":6000,"station_id":"ce4bgvh2rcd13ifvqcs0","pricing_plan_id":"free"},{"bike_id":"0d84fb7c-4ce3-4080-af77-5621ccf24f91","system_id":"levelo_inurba_marseille","lat":43.287185,"lon":5.379373,"is_reserved":false,"is_disabled":false,"rental_uris":{"android":"levelo://app?vid=0d84fb7c-4ce3-4080-af77-5621ccf24f91","ios":"levelo://app?vid=0d84fb7c-4ce3-4080-af77-5621ccf24f91"},"vehicle_type_id":"4","last_reported":1688051222,"current_range_meters":14000,"station_id":"ce4bh9p2rcd13ifvqec0","pricing_plan_id":"free"},{"bike_id":"d69fed3a-efe9-46fb-b1dc-1240b8978d3e","system_id":"levelo_inurba_marseille","lat":43.316517,"lon":5.404375,"is_reserved":false,"is_disabled":false,"rental_uris":{"android":"levelo://app?vid=d69fed3a-efe9-46fb-b1dc-1240b8978d3e","ios":"levelo://app?vid=d69fed3a-efe9-46fb-b1dc-1240b8978d3e"},"vehicle_type_id":"4","last_reported":1688051222,"current_range_meters":21200,"station_id":"ce4bh012rcd13ifvqd00","pricing_plan_id":"free"},{"bike_id":"20bfa1bf-9f94-4d03-b746-3a39dae8ea58","system_id":"levelo_inurba_marseille","lat":43.30336,"lon":5.40359,"is_reserved":false,"is_disabled":false,"rental_uris":{"android":"levelo://app?vid=20bfa1bf-9f94-4d03-b746-3a39dae8ea58","ios":"levelo://app?vid=20bfa1bf-9f94-4d03-b746-3a39dae8ea58"},"vehicle_type_id":"4","last_reported":1688051222,"current_range_meters":19600,"station_id":"","pricing_plan_id":"free"},{"bike_id":"f1773133-abd1-4866-8bc7-2d6b430cddbf","system_id":"levelo_inurba_marseille","lat":43.284534,"lon":5.358662,"is_reserved":false,"is_disabled":false,"rental_uris":{"android":"levelo://app?vid=f1773133-abd1-4866-8bc7-2d6b430cddbf","ios":"levelo://app?vid=f1773133-abd1-4866-8bc7-2d6b430cddbf"},"vehicle_type_id":"4","last_reported":1688051222,"current_range_meters":1600,"station_id":"ce4bhah2rcd13ifvqei0","pricing_plan_id":"free"},{"bike_id":"1a7e2d51-5b3e-4d2c-8fa1-a022f326d17f","system_id":"levelo_inurba_marseille","lat":43.284534,"lon":5.358662,"is_reserved":false,"is_disabled":false,"rental_uris":{"android":"levelo://app?vid=1a7e2d51-5b3e-4d2c-8fa1-a022f326d17f","ios":"levelo://app?vid=1a7e2d51-5b3e-4d2c-8fa1-a022f326d17f"},"vehicle_type_id":"4","last_reported":1688051222,"current_range_meters":24000,"station_id":"ce4bhah2rcd13ifvqei0","pricing_plan_id":"free"},{"bike_id":"71d0e1c2-0fcd-45d1-9c07-fe3a281b0f97","system_id":"levelo_inurba_marseille","lat":43.284538,"lon":5.358657,"is_reserved":false,"is_disabled":false,"rental_uris":{"android":"levelo://app?vid=71d0e1c2-0fcd-45d1-9c07-fe3a281b0f97","ios":"levelo://app?vid=71d0e1c2-0fcd-45d1-9c07-fe3a281b0f97"},"vehicle_type_id":"4","last_reported":1688051222,"current_range_meters":28800,"station_id":"ce4bhah2rcd13ifvqei0","pricing_plan_id":"free"},{"bike_id":"4a963485-7c06-448e-97e3-7e429e7e055f","system_id":"levelo_inurba_marseille","lat":43.284534,"lon":5.358662,"is_reserved":false,"is_disabled":false,"rental_uris":{"android":"levelo://app?vid=4a963485-7c06-448e-97e3-7e429e7e055f","ios":"levelo://app?vid=4a963485-7c06-448e-97e3-7e429e7e055f"},"vehicle_type_id":"4","last_reported":1688051222,"current_range_meters":22400,"station_id":"ce4bhah2rcd13ifvqei0","pricing_plan_id":"free"},{"bike_id":"a7f0c684-3e1c-4768-bca8-24d45c258949","system_id":"levelo_inurba_marseille","lat":43.284534,"lon":5.358662,"is_reserved":false,"is_disabled":false,"rental_uris":{"android":"levelo://app?vid=a7f0c684-3e1c-4768-bca8-24d45c258949","ios":"levelo://app?vid=a7f0c684-3e1c-4768-bca8-24d45c258949"},"vehicle_type_id":"4","last_reported":1688051222,"current_range_meters":800,"station_id":"ce4bhah2rcd13ifvqei0","pricing_plan_id":"free"},{"bike_id":"27e5ceba-156f-4420-82d8-4d07820d9303","system_id":"levelo_inurba_marseille","lat":43.284538,"lon":5.358657,"is_reserved":false,"is_disabled":false,"rental_uris":{"android":"levelo://app?vid=27e5ceba-156f-4420-82d8-4d07820d9303","ios":"levelo://app?vid=27e5ceba-156f-4420-82d8-4d07820d9303"},"vehicle_type_id":"4","last_reported":1688051222,"current_range_meters":2400,"station_id":"ce4bhah2rcd13ifvqei0","pricing_plan_id":"free"},{"bike_id":"94672721-226d-4005-8022-061b100b4a8e","system_id":"levelo_inurba_marseille","lat":43.283998,"lon":5.375062,"is_reserved":false,"is_disabled":false,"rental_uris":{"android":"levelo://app?vid=94672721-226d-4005-8022-061b100b4a8e","ios":"levelo://app?vid=94672721-226d-4005-8022-061b100b4a8e"},"vehicle_type_id":"4","last_reported":1688051222,"current_range_meters":16400,"station_id":"ce4bh412rcd13ifvqds0","pricing_plan_id":"free"},{"bike_id":"887a762d-5602-4f5b-9780-30757d16d4c6","system_id":"levelo_inurba_marseille","lat":43.28624,"lon":5.35101,"is_reserved":false,"is_disabled":false,"rental_uris":{"android":"levelo://app?vid=887a762d-5602-4f5b-9780-30757d16d4c6","ios":"levelo://app?vid=887a762d-5602-4f5b-9780-30757d16d4c6"},"vehicle_type_id":"4","last_reported":1688051222,"current_range_meters":17200,"station_id":"ce4bhch2rcd13ifvqeug","pricing_plan_id":"free"},{"bike_id":"0cb2655c-3fe5-432c-9d73-7364b6470fc3","system_id":"levelo_inurba_marseille","lat":43.28622,"lon":5.351,"is_reserved":false,"is_disabled":false,"rental_uris":{"android":"levelo://app?vid=0cb2655c-3fe5-432c-9d73-7364b6470fc3","ios":"levelo://app?vid=0cb2655c-3fe5-432c-9d73-7364b6470fc3"},"vehicle_type_id":"4","last_reported":1688051222,"current_range_meters":23600,"station_id":"ce4bhch2rcd13ifvqeug","pricing_plan_id":"free"},{"bike_id":"58564080-1645-45df-b950-730cbb06de70","system_id":"levelo_inurba_marseille","lat":43.2862,"lon":5.35105,"is_reserved":false,"is_disabled":false,"rental_uris":{"android":"levelo://app?vid=58564080-1645-45df-b950-730cbb06de70","ios":"levelo://app?vid=58564080-1645-45df-b950-730cbb06de70"},"vehicle_type_id":"4","last_reported":1688051222,"current_range_meters":31600,"station_id":"ce4bhch2rcd13ifvqeug","pricing_plan_id":"free"},{"bike_id":"b73173cc-5826-4859-a3a4-773f7fd5984b","system_id":"levelo_inurba_marseille","lat":43.2862,"lon":5.35099,"is_reserved":false,"is_disabled":false,"rental_uris":{"android":"levelo://app?vid=b73173cc-5826-4859-a3a4-773f7fd5984b","ios":"levelo://app?vid=b73173cc-5826-4859-a3a4-773f7fd5984b"},"vehicle_type_id":"4","last_reported":1688051222,"current_range_meters":31600,"station_id":"ce4bhch2rcd13ifvqeug","pricing_plan_id":"free"},{"bike_id":"1bce87fa-ca37-4e3b-add0-6b140f5a0191","system_id":"levelo_inurba_marseille","lat":43.28618,"lon":5.35105,"is_reserved":false,"is_disabled":false,"rental_uris":{"android":"levelo://app?vid=1bce87fa-ca37-4e3b-add0-6b140f5a0191","ios":"levelo://app?vid=1bce87fa-ca37-4e3b-add0-6b140f5a0191"},"vehicle_type_id":"4","last_reported":1688051222,"current_range_meters":22800,"station_id":"ce4bhch2rcd13ifvqeug","pricing_plan_id":"free"},{"bike_id":"98923cfb-f44f-40f2-acbc-bd5fccb12666","system_id":"levelo_inurba_marseille","lat":43.2862,"lon":5.35098,"is_reserved":false,"is_disabled":false,"rental_uris":{"android":"levelo://app?vid=98923cfb-f44f-40f2-acbc-bd5fccb12666","ios":"levelo://app?vid=98923cfb-f44f-40f2-acbc-bd5fccb12666"},"vehicle_type_id":"4","last_reported":1688051222,"current_range_meters":26400,"station_id":"ce4bhch2rcd13ifvqeug","pricing_plan_id":"free"},{"bike_id":"5e0a7745-23b4-42ab-92ce-54829dec5f69","system_id":"levelo_inurba_marseille","lat":43.28618,"lon":5.35104,"is_reserved":false,"is_disabled":false,"rental_uris":{"android":"levelo://app?vid=5e0a7745-23b4-42ab-92ce-54829dec5f69","ios":"levelo://app?vid=5e0a7745-23b4-42ab-92ce-54829dec5f69"},"vehicle_type_id":"4","last_reported":1688051222,"current_range_meters":19600,"station_id":"ce4bhch2rcd13ifvqeug","pricing_plan_id":"free"},{"bike_id":"ec87af22-89b3-4fde-a4f2-c51d52cc68f4","system_id":"levelo_inurba_marseille","lat":43.28617,"lon":5.35104,"is_reserved":false,"is_disabled":false,"rental_uris":{"android":"levelo://app?vid=ec87af22-89b3-4fde-a4f2-c51d52cc68f4","ios":"levelo://app?vid=ec87af22-89b3-4fde-a4f2-c51d52cc68f4"},"vehicle_type_id":"4","last_reported":1688051222,"current_range_meters":31200,"station_id":"ce4bhch2rcd13ifvqeug","pricing_plan_id":"free"},{"bike_id":"85ed1915-8c5e-4e0e-a350-f1856e531981","system_id":"levelo_inurba_marseille","lat":43.298037,"lon":5.381066,"is_reserved":false,"is_disabled":false,"rental_uris":{"android":"levelo://app?vid=85ed1915-8c5e-4e0e-a350-f1856e531981","ios":"levelo://app?vid=85ed1915-8c5e-4e0e-a350-f1856e531981"},"vehicle_type_id":"4","last_reported":1688051222,"current_range_meters":18800,"station_id":"ce4bgip2rcd13ifvqbb0","pricing_plan_id":"free"},{"bike_id":"4ebe24e9-4072-4f99-9cad-41dfaa62462c","system_id":"levelo_inurba_marseille","lat":43.286139,"lon":5.351111,"is_reserved":false,"is_disabled":false,"rental_uris":{"android":"levelo://app?vid=4ebe24e9-4072-4f99-9cad-41dfaa62462c","ios":"levelo://app?vid=4ebe24e9-4072-4f99-9cad-41dfaa62462c"},"vehicle_type_id":"4","last_reported":1688051222,"current_range_meters":18800,"station_id":"ce4bhch2rcd13ifvqeug","pricing_plan_id":"free"},{"bike_id":"89fda800-f64c-496d-aacf-9c14c9ecd2ce","system_id":"levelo_inurba_marseille","lat":43.28618,"lon":5.35098,"is_reserved":false,"is_disabled":false,"rental_uris":{"android":"levelo://app?vid=89fda800-f64c-496d-aacf-9c14c9ecd2ce","ios":"levelo://app?vid=89fda800-f64c-496d-aacf-9c14c9ecd2ce"},"vehicle_type_id":"4","last_reported":1688051222,"current_range_meters":17600,"station_id":"ce4bhch2rcd13ifvqeug","pricing_plan_id":"free"},{"bike_id":"2d3e74e2-d5fa-477a-aac3-5c768c08da25","system_id":"levelo_inurba_marseille","lat":43.28615,"lon":5.35107,"is_reserved":false,"is_disabled":false,"rental_uris":{"android":"levelo://app?vid=2d3e74e2-d5fa-477a-aac3-5c768c08da25","ios":"levelo://app?vid=2d3e74e2-d5fa-477a-aac3-5c768c08da25"},"vehicle_type_id":"4","last_reported":1688051222,"current_range_meters":29600,"station_id":"ce4bhch2rcd13ifvqeug","pricing_plan_id":"free"},{"bike_id":"d4eda86c-a348-4987-a944-d3958bf7d9fe","system_id":"levelo_inurba_marseille","lat":43.28615,"lon":5.35105,"is_reserved":false,"is_disabled":false,"rental_uris":{"android":"levelo://app?vid=d4eda86c-a348-4987-a944-d3958bf7d9fe","ios":"levelo://app?vid=d4eda86c-a348-4987-a944-d3958bf7d9fe"},"vehicle_type_id":"4","last_reported":1688051222,"current_range_meters":26800,"station_id":"ce4bhch2rcd13ifvqeug","pricing_plan_id":"free"},{"bike_id":"81304731-6ef0-47a7-ab2b-38993d7ab7a8","system_id":"levelo_inurba_marseille","lat":43.28617,"lon":5.35097,"is_reserved":false,"is_disabled":false,"rental_uris":{"android":"levelo://app?vid=81304731-6ef0-47a7-ab2b-38993d7ab7a8","ios":"levelo://app?vid=81304731-6ef0-47a7-ab2b-38993d7ab7a8"},"vehicle_type_id":"4","last_reported":1688051222,"current_range_meters":20000,"station_id":"ce4bhch2rcd13ifvqeug","pricing_plan_id":"free"},{"bike_id":"a06c4015-00d4-4cfc-8182-e52f066aea1e","system_id":"levelo_inurba_marseille","lat":43.28616,"lon":5.35096,"is_reserved":false,"is_disabled":false,"rental_uris":{"android":"levelo://app?vid=a06c4015-00d4-4cfc-8182-e52f066aea1e","ios":"levelo://app?vid=a06c4015-00d4-4cfc-8182-e52f066aea1e"},"vehicle_type_id":"4","last_reported":1688051222,"current_range_meters":20400,"station_id":"ce4bhch2rcd13ifvqeug","pricing_plan_id":"free"},{"bike_id":"1fdf6384-17fb-4e78-84c2-2ef00d19d1bb","system_id":"levelo_inurba_marseille","lat":43.286101,"lon":5.351127,"is_reserved":false,"is_disabled":false,"rental_uris":{"android":"levelo://app?vid=1fdf6384-17fb-4e78-84c2-2ef00d19d1bb","ios":"levelo://app?vid=1fdf6384-17fb-4e78-84c2-2ef00d19d1bb"},"vehicle_type_id":"4","last_reported":1688051222,"current_range_meters":12400,"station_id":"ce4bhch2rcd13ifvqeug","pricing_plan_id":"free"},{"bike_id":"985df86a-f653-40d6-8ab8-8281ae374c41","system_id":"levelo_inurba_marseille","lat":43.2861,"lon":5.35095,"is_reserved":false,"is_disabled":false,"rental_uris":{"android":"levelo://app?vid=985df86a-f653-40d6-8ab8-8281ae374c41","ios":"levelo://app?vid=985df86a-f653-40d6-8ab8-8281ae374c41"},"vehicle_type_id":"4","last_reported":1688051222,"current_range_meters":31200,"station_id":"ce4bhch2rcd13ifvqeug","pricing_plan_id":"free"},{"bike_id":"7d1d925a-404b-4fa4-85f3-fbe40c9384e1","system_id":"levelo_inurba_marseille","lat":43.28607,"lon":5.35103,"is_reserved":false,"is_disabled":false,"rental_uris":{"android":"levelo://app?vid=7d1d925a-404b-4fa4-85f3-fbe40c9384e1","ios":"levelo://app?vid=7d1d925a-404b-4fa4-85f3-fbe40c9384e1"},"vehicle_type_id":"4","last_reported":1688051222,"current_range_meters":30400,"station_id":"ce4bhch2rcd13ifvqeug","pricing_plan_id":"free"},{"bike_id":"5e36c0b3-4008-4492-a748-37a72fdc3531","system_id":"levelo_inurba_marseille","lat":43.286028,"lon":5.351106,"is_reserved":false,"is_disabled":false,"rental_uris":{"android":"levelo://app?vid=5e36c0b3-4008-4492-a748-37a72fdc3531","ios":"levelo://app?vid=5e36c0b3-4008-4492-a748-37a72fdc3531"},"vehicle_type_id":"4","last_reported":1688051222,"current_range_meters":22400,"station_id":"ce4bhch2rcd13ifvqeug","pricing_plan_id":"free"},{"bike_id":"a1c48db6-fdb1-4ae6-b0ed-0a8481be3668","system_id":"levelo_inurba_marseille","lat":43.28681,"lon":5.38655,"is_reserved":false,"is_disabled":false,"rental_uris":{"android":"levelo://app?vid=a1c48db6-fdb1-4ae6-b0ed-0a8481be3668","ios":"levelo://app?vid=a1c48db6-fdb1-4ae6-b0ed-0a8481be3668"},"vehicle_type_id":"4","last_reported":1688051222,"current_range_meters":0,"station_id":"","pricing_plan_id":"free"},{"bike_id":"7709cdfb-6e24-47b5-bb28-c4b965132dc5","system_id":"levelo_inurba_marseille","lat":43.323464,"lon":5.406297,"is_reserved":false,"is_disabled":false,"rental_uris":{"android":"levelo://app?vid=7709cdfb-6e24-47b5-bb28-c4b965132dc5","ios":"levelo://app?vid=7709cdfb-6e24-47b5-bb28-c4b965132dc5"},"vehicle_type_id":"4","last_reported":1688051222,"current_range_meters":18800,"station_id":"ce4bhq92rcd13ifvqhjg","pricing_plan_id":"free"},{"bike_id":"b4c950db-352f-4a1a-8e3c-c05101a6dad0","system_id":"levelo_inurba_marseille","lat":43.28797,"lon":5.39133,"is_reserved":false,"is_disabled":false,"rental_uris":{"android":"levelo://app?vid=b4c950db-352f-4a1a-8e3c-c05101a6dad0","ios":"levelo://app?vid=b4c950db-352f-4a1a-8e3c-c05101a6dad0"},"vehicle_type_id":"4","last_reported":1688051222,"current_range_meters":29600,"station_id":"","pricing_plan_id":"free"},{"bike_id":"361ee7c3-2120-4180-815c-83ad374b18d2","system_id":"levelo_inurba_marseille","lat":43.323464,"lon":5.406297,"is_reserved":false,"is_disabled":false,"rental_uris":{"android":"levelo://app?vid=361ee7c3-2120-4180-815c-83ad374b18d2","ios":"levelo://app?vid=361ee7c3-2120-4180-815c-83ad374b18d2"},"vehicle_type_id":"4","last_reported":1688051222,"current_range_meters":31600,"station_id":"ce4bhq92rcd13ifvqhjg","pricing_plan_id":"free"},{"bike_id":"8525491f-3db0-400c-9669-dc39652966d2","system_id":"levelo_inurba_marseille","lat":43.32339,"lon":5.4062,"is_reserved":false,"is_disabled":false,"rental_uris":{"android":"levelo://app?vid=8525491f-3db0-400c-9669-dc39652966d2","ios":"levelo://app?vid=8525491f-3db0-400c-9669-dc39652966d2"},"vehicle_type_id":"4","last_reported":1688051222,"current_range_meters":2800,"station_id":"ce4bhq92rcd13ifvqhjg","pricing_plan_id":"free"},{"bike_id":"409a9c18-578b-42b4-8cae-b3a0fe6a1b05","system_id":"levelo_inurba_marseille","lat":43.323464,"lon":5.406297,"is_reserved":false,"is_disabled":false,"rental_uris":{"android":"levelo://app?vid=409a9c18-578b-42b4-8cae-b3a0fe6a1b05","ios":"levelo://app?vid=409a9c18-578b-42b4-8cae-b3a0fe6a1b05"},"vehicle_type_id":"4","last_reported":1688051222,"current_range_meters":0,"station_id":"ce4bhq92rcd13ifvqhjg","pricing_plan_id":"free"},{"bike_id":"1b7b0fd6-7a16-4583-98c9-b1921e383d7f","system_id":"levelo_inurba_marseille","lat":43.3234,"lon":5.40623,"is_reserved":false,"is_disabled":false,"rental_uris":{"android":"levelo://app?vid=1b7b0fd6-7a16-4583-98c9-b1921e383d7f","ios":"levelo://app?vid=1b7b0fd6-7a16-4583-98c9-b1921e383d7f"},"vehicle_type_id":"4","last_reported":1688051222,"current_range_meters":3200,"station_id":"ce4bhq92rcd13ifvqhjg","pricing_plan_id":"free"},{"bike_id":"59f15e90-5cd9-49fe-8827-1b1fd2c3daff","system_id":"levelo_inurba_marseille","lat":43.28483,"lon":5.38407,"is_reserved":false,"is_disabled":false,"rental_uris":{"android":"levelo://app?vid=59f15e90-5cd9-49fe-8827-1b1fd2c3daff","ios":"levelo://app?vid=59f15e90-5cd9-49fe-8827-1b1fd2c3daff"},"vehicle_type_id":"4","last_reported":1688051222,"current_range_meters":8400,"station_id":"ce4bh512rcd13ifvqe3g","pricing_plan_id":"free"},{"bike_id":"63e2cbbc-6cb0-4ac9-ab5f-87f64be6121a","system_id":"levelo_inurba_marseille","lat":43.284793,"lon":5.384113,"is_reserved":false,"is_disabled":false,"rental_uris":{"android":"levelo://app?vid=63e2cbbc-6cb0-4ac9-ab5f-87f64be6121a","ios":"levelo://app?vid=63e2cbbc-6cb0-4ac9-ab5f-87f64be6121a"},"vehicle_type_id":"4","last_reported":1688051222,"current_range_meters":4800,"station_id":"ce4bh512rcd13ifvqe3g","pricing_plan_id":"free"},{"bike_id":"acae50a6-07b6-4612-aff5-be03daff54d0","system_id":"levelo_inurba_marseille","lat":43.284793,"lon":5.384113,"is_reserved":false,"is_disabled":false,"rental_uris":{"android":"levelo://app?vid=acae50a6-07b6-4612-aff5-be03daff54d0","ios":"levelo://app?vid=acae50a6-07b6-4612-aff5-be03daff54d0"},"vehicle_type_id":"4","last_reported":1688051222,"current_range_meters":5200,"station_id":"ce4bh512rcd13ifvqe3g","pricing_plan_id":"free"},{"bike_id":"990800d6-8fdc-4504-bff8-ac81d0cb62e4","system_id":"levelo_inurba_marseille","lat":43.288497,"lon":5.393089,"is_reserved":false,"is_disabled":false,"rental_uris":{"android":"levelo://app?vid=990800d6-8fdc-4504-bff8-ac81d0cb62e4","ios":"levelo://app?vid=990800d6-8fdc-4504-bff8-ac81d0cb62e4"},"vehicle_type_id":"4","last_reported":1688051222,"current_range_meters":8000,"station_id":"ce4bh2p2rcd13ifvqdi0","pricing_plan_id":"free"},{"bike_id":"6bcaaffb-7131-4a9e-be2a-d42735b662ce","system_id":"levelo_inurba_marseille","lat":43.323464,"lon":5.406297,"is_reserved":false,"is_disabled":false,"rental_uris":{"android":"levelo://app?vid=6bcaaffb-7131-4a9e-be2a-d42735b662ce","ios":"levelo://app?vid=6bcaaffb-7131-4a9e-be2a-d42735b662ce"},"vehicle_type_id":"4","last_reported":1688051222,"current_range_meters":20000,"station_id":"ce4bhq92rcd13ifvqhjg","pricing_plan_id":"free"},{"bike_id":"c7436c32-0148-4848-9fd6-78b62309a0c4","system_id":"levelo_inurba_marseille","lat":43.28354,"lon":5.38105,"is_reserved":false,"is_disabled":false,"rental_uris":{"android":"levelo://app?vid=c7436c32-0148-4848-9fd6-78b62309a0c4","ios":"levelo://app?vid=c7436c32-0148-4848-9fd6-78b62309a0c4"},"vehicle_type_id":"4","last_reported":1688051222,"current_range_meters":0,"station_id":"ce4bh412rcd13ifvqdr0","pricing_plan_id":"free"},{"bike_id":"58f74936-68fd-4d90-a83b-560ca9f41485","system_id":"levelo_inurba_marseille","lat":43.2843,"lon":5.35001,"is_reserved":false,"is_disabled":false,"rental_uris":{"android":"levelo://app?vid=58f74936-68fd-4d90-a83b-560ca9f41485","ios":"levelo://app?vid=58f74936-68fd-4d90-a83b-560ca9f41485"},"vehicle_type_id":"4","last_reported":1688051222,"current_range_meters":31200,"station_id":"ce4bhbh2rcd13ifvqepg","pricing_plan_id":"free"},{"bike_id":"59f9cdfe-a4d6-43f1-8588-8f4cf1b71398","system_id":"levelo_inurba_marseille","lat":43.28428,"lon":5.34996,"is_reserved":false,"is_disabled":false,"rental_uris":{"android":"levelo://app?vid=59f9cdfe-a4d6-43f1-8588-8f4cf1b71398","ios":"levelo://app?vid=59f9cdfe-a4d6-43f1-8588-8f4cf1b71398"},"vehicle_type_id":"4","last_reported":1688051222,"current_range_meters":27600,"station_id":"ce4bhbh2rcd13ifvqepg","pricing_plan_id":"free"},{"bike_id":"bcae8ba8-41f8-4520-b2ec-43830d1d1a3f","system_id":"levelo_inurba_marseille","lat":43.28427,"lon":5.349863,"is_reserved":false,"is_disabled":false,"rental_uris":{"android":"levelo://app?vid=bcae8ba8-41f8-4520-b2ec-43830d1d1a3f","ios":"levelo://app?vid=bcae8ba8-41f8-4520-b2ec-43830d1d1a3f"},"vehicle_type_id":"4","last_reported":1688051222,"current_range_meters":31200,"station_id":"ce4bhbh2rcd13ifvqepg","pricing_plan_id":"free"},{"bike_id":"79204a01-d1fa-4462-9c2f-eea66c3f00cc","system_id":"levelo_inurba_marseille","lat":43.28424,"lon":5.34993,"is_reserved":false,"is_disabled":false,"rental_uris":{"android":"levelo://app?vid=79204a01-d1fa-4462-9c2f-eea66c3f00cc","ios":"levelo://app?vid=79204a01-d1fa-4462-9c2f-eea66c3f00cc"},"vehicle_type_id":"4","last_reported":1688051222,"current_range_meters":31200,"station_id":"ce4bhbh2rcd13ifvqepg","pricing_plan_id":"free"},{"bike_id":"3222f5db-8d44-4681-9348-9a5be9b07edc","system_id":"levelo_inurba_marseille","lat":43.28421,"lon":5.35001,"is_reserved":false,"is_disabled":false,"rental_uris":{"android":"levelo://app?vid=3222f5db-8d44-4681-9348-9a5be9b07edc","ios":"levelo://app?vid=3222f5db-8d44-4681-9348-9a5be9b07edc"},"vehicle_type_id":"4","last_reported":1688051222,"current_range_meters":22000,"station_id":"ce4bhbh2rcd13ifvqepg","pricing_plan_id":"free"},{"bike_id":"9ac75698-0981-44c3-9ce0-f15f90971433","system_id":"levelo_inurba_marseille","lat":43.284246,"lon":5.349893,"is_reserved":false,"is_disabled":false,"rental_uris":{"android":"levelo://app?vid=9ac75698-0981-44c3-9ce0-f15f90971433","ios":"levelo://app?vid=9ac75698-0981-44c3-9ce0-f15f90971433"},"vehicle_type_id":"4","last_reported":1688051222,"current_range_meters":31200,"station_id":"ce4bhbh2rcd13ifvqepg","pricing_plan_id":"free"},{"bike_id":"0a00316a-8f1c-402b-a18c-c42e82842c08","system_id":"levelo_inurba_marseille","lat":43.284201,"lon":5.349841,"is_reserved":false,"is_disabled":false,"rental_uris":{"android":"levelo://app?vid=0a00316a-8f1c-402b-a18c-c42e82842c08","ios":"levelo://app?vid=0a00316a-8f1c-402b-a18c-c42e82842c08"},"vehicle_type_id":"4","last_reported":1688051222,"current_range_meters":31200,"station_id":"ce4bhbh2rcd13ifvqepg","pricing_plan_id":"free"},{"bike_id":"c96b872d-9d09-4ece-a51b-c0b481e5c436","system_id":"levelo_inurba_marseille","lat":43.284194,"lon":5.349863,"is_reserved":false,"is_disabled":false,"rental_uris":{"android":"levelo://app?vid=c96b872d-9d09-4ece-a51b-c0b481e5c436","ios":"levelo://app?vid=c96b872d-9d09-4ece-a51b-c0b481e5c436"},"vehicle_type_id":"4","last_reported":1688051222,"current_range_meters":31200,"station_id":"ce4bhbh2rcd13ifvqepg","pricing_plan_id":"free"},{"bike_id":"cc75bc98-4a56-4dab-8268-02f254812584","system_id":"levelo_inurba_marseille","lat":43.284193,"lon":5.349833,"is_reserved":false,"is_disabled":false,"rental_uris":{"android":"levelo://app?vid=cc75bc98-4a56-4dab-8268-02f254812584","ios":"levelo://app?vid=cc75bc98-4a56-4dab-8268-02f254812584"},"vehicle_type_id":"4","last_reported":1688051222,"current_range_meters":20800,"station_id":"ce4bhbh2rcd13ifvqepg","pricing_plan_id":"free"},{"bike_id":"2b79bf6b-e78c-46d7-95da-22cd71435376","system_id":"levelo_inurba_marseille","lat":43.28419,"lon":5.34981,"is_reserved":false,"is_disabled":false,"rental_uris":{"android":"levelo://app?vid=2b79bf6b-e78c-46d7-95da-22cd71435376","ios":"levelo://app?vid=2b79bf6b-e78c-46d7-95da-22cd71435376"},"vehicle_type_id":"4","last_reported":1688051222,"current_range_meters":22000,"station_id":"ce4bhbh2rcd13ifvqepg","pricing_plan_id":"free"},{"bike_id":"e6f189f3-3546-4d55-9247-e2f7eea37fdf","system_id":"levelo_inurba_marseille","lat":43.284185,"lon":5.349821,"is_reserved":false,"is_disabled":false,"rental_uris":{"android":"levelo://app?vid=e6f189f3-3546-4d55-9247-e2f7eea37fdf","ios":"levelo://app?vid=e6f189f3-3546-4d55-9247-e2f7eea37fdf"},"vehicle_type_id":"4","last_reported":1688051222,"current_range_meters":20000,"station_id":"ce4bhbh2rcd13ifvqepg","pricing_plan_id":"free"},{"bike_id":"a4c13897-3992-48d1-a84b-a95c41e907ba","system_id":"levelo_inurba_marseille","lat":43.284172,"lon":5.349838,"is_reserved":false,"is_disabled":false,"rental_uris":{"android":"levelo://app?vid=a4c13897-3992-48d1-a84b-a95c41e907ba","ios":"levelo://app?vid=a4c13897-3992-48d1-a84b-a95c41e907ba"},"vehicle_type_id":"4","last_reported":1688051222,"current_range_meters":31200,"station_id":"ce4bhbh2rcd13ifvqepg","pricing_plan_id":"free"},{"bike_id":"aadb64c0-4c5a-4f9e-af8a-65c88a6cd117","system_id":"levelo_inurba_marseille","lat":43.284174,"lon":5.349831,"is_reserved":false,"is_disabled":false,"rental_uris":{"android":"levelo://app?vid=aadb64c0-4c5a-4f9e-af8a-65c88a6cd117","ios":"levelo://app?vid=aadb64c0-4c5a-4f9e-af8a-65c88a6cd117"},"vehicle_type_id":"4","last_reported":1688051222,"current_range_meters":20400,"station_id":"ce4bhbh2rcd13ifvqepg","pricing_plan_id":"free"},{"bike_id":"a31a35a5-e61f-4317-9391-7f19d8fcfbcd","system_id":"levelo_inurba_marseille","lat":43.28418,"lon":5.3498,"is_reserved":false,"is_disabled":false,"rental_uris":{"android":"levelo://app?vid=a31a35a5-e61f-4317-9391-7f19d8fcfbcd","ios":"levelo://app?vid=a31a35a5-e61f-4317-9391-7f19d8fcfbcd"},"vehicle_type_id":"4","last_reported":1688051222,"current_range_meters":0,"station_id":"","pricing_plan_id":"free"},{"bike_id":"280f7874-9a87-4367-801f-7efcd8e45f0e","system_id":"levelo_inurba_marseille","lat":43.28414,"lon":5.34982,"is_reserved":false,"is_disabled":false,"rental_uris":{"android":"levelo://app?vid=280f7874-9a87-4367-801f-7efcd8e45f0e","ios":"levelo://app?vid=280f7874-9a87-4367-801f-7efcd8e45f0e"},"vehicle_type_id":"4","last_reported":1688051222,"current_range_meters":15200,"station_id":"","pricing_plan_id":"free"},{"bike_id":"0704bc60-8d78-4a13-a025-a299145e34e7","system_id":"levelo_inurba_marseille","lat":43.28413,"lon":5.34985,"is_reserved":false,"is_disabled":false,"rental_uris":{"android":"levelo://app?vid=0704bc60-8d78-4a13-a025-a299145e34e7","ios":"levelo://app?vid=0704bc60-8d78-4a13-a025-a299145e34e7"},"vehicle_type_id":"4","last_reported":1688051222,"current_range_meters":20400,"station_id":"ce4bhbh2rcd13ifvqepg","pricing_plan_id":"free"},{"bike_id":"3424a2b5-bed4-4a7b-8a68-76ef597accbc","system_id":"levelo_inurba_marseille","lat":43.28412,"lon":5.34987,"is_reserved":false,"is_disabled":false,"rental_uris":{"android":"levelo://app?vid=3424a2b5-bed4-4a7b-8a68-76ef597accbc","ios":"levelo://app?vid=3424a2b5-bed4-4a7b-8a68-76ef597accbc"},"vehicle_type_id":"4","last_reported":1688051222,"current_range_meters":11600,"station_id":"ce4bhbh2rcd13ifvqepg","pricing_plan_id":"free"},{"bike_id":"fd2dc641-d175-4ce4-af3d-e561052bd345","system_id":"levelo_inurba_marseille","lat":43.28411,"lon":5.3499,"is_reserved":false,"is_disabled":false,"rental_uris":{"android":"levelo://app?vid=fd2dc641-d175-4ce4-af3d-e561052bd345","ios":"levelo://app?vid=fd2dc641-d175-4ce4-af3d-e561052bd345"},"vehicle_type_id":"4","last_reported":1688051222,"current_range_meters":18400,"station_id":"ce4bhbh2rcd13ifvqepg","pricing_plan_id":"free"},{"bike_id":"e4be5bde-9f19-4531-9c3f-ec56c83a7f12","system_id":"levelo_inurba_marseille","lat":43.28407,"lon":5.3499,"is_reserved":false,"is_disabled":false,"rental_uris":{"android":"levelo://app?vid=e4be5bde-9f19-4531-9c3f-ec56c83a7f12","ios":"levelo://app?vid=e4be5bde-9f19-4531-9c3f-ec56c83a7f12"},"vehicle_type_id":"4","last_reported":1688051222,"current_range_meters":31200,"station_id":"ce4bhbh2rcd13ifvqepg","pricing_plan_id":"free"},{"bike_id":"c1d6c3fc-6bcd-4632-be78-92b02ad335f2","system_id":"levelo_inurba_marseille","lat":43.28412,"lon":5.34974,"is_reserved":false,"is_disabled":false,"rental_uris":{"android":"levelo://app?vid=c1d6c3fc-6bcd-4632-be78-92b02ad335f2","ios":"levelo://app?vid=c1d6c3fc-6bcd-4632-be78-92b02ad335f2"},"vehicle_type_id":"4","last_reported":1688051222,"current_range_meters":13200,"station_id":"ce4bhbh2rcd13ifvqepg","pricing_plan_id":"free"},{"bike_id":"86f6fbc5-566c-4de3-83ae-a947fca4a2a4","system_id":"levelo_inurba_marseille","lat":43.28409,"lon":5.34982,"is_reserved":false,"is_disabled":false,"rental_uris":{"android":"levelo://app?vid=86f6fbc5-566c-4de3-83ae-a947fca4a2a4","ios":"levelo://app?vid=86f6fbc5-566c-4de3-83ae-a947fca4a2a4"},"vehicle_type_id":"4","last_reported":1688051222,"current_range_meters":31200,"station_id":"ce4bhbh2rcd13ifvqepg","pricing_plan_id":"free"},{"bike_id":"59d0ab2d-8739-429a-8115-22eb0467fd6a","system_id":"levelo_inurba_marseille","lat":43.28407,"lon":5.34988,"is_reserved":false,"is_disabled":false,"rental_uris":{"android":"levelo://app?vid=59d0ab2d-8739-429a-8115-22eb0467fd6a","ios":"levelo://app?vid=59d0ab2d-8739-429a-8115-22eb0467fd6a"},"vehicle_type_id":"4","last_reported":1688051222,"current_range_meters":31200,"station_id":"ce4bhbh2rcd13ifvqepg","pricing_plan_id":"free"},{"bike_id":"6023d8b3-ef7b-489a-9460-7cb7e9e54bbf","system_id":"levelo_inurba_marseille","lat":43.28408,"lon":5.34983,"is_reserved":false,"is_disabled":false,"rental_uris":{"android":"levelo://app?vid=6023d8b3-ef7b-489a-9460-7cb7e9e54bbf","ios":"levelo://app?vid=6023d8b3-ef7b-489a-9460-7cb7e9e54bbf"},"vehicle_type_id":"4","last_reported":1688051222,"current_range_meters":22800,"station_id":"ce4bhbh2rcd13ifvqepg","pricing_plan_id":"free"},{"bike_id":"9d649c34-5aa2-4edc-b138-c3f648a679dd","system_id":"levelo_inurba_marseille","lat":43.28407,"lon":5.34976,"is_reserved":false,"is_disabled":false,"rental_uris":{"android":"levelo://app?vid=9d649c34-5aa2-4edc-b138-c3f648a679dd","ios":"levelo://app?vid=9d649c34-5aa2-4edc-b138-c3f648a679dd"},"vehicle_type_id":"4","last_reported":1688051222,"current_range_meters":13600,"station_id":"ce4bhbh2rcd13ifvqepg","pricing_plan_id":"free"},{"bike_id":"cc749b12-968a-4293-899a-7eef00055646","system_id":"levelo_inurba_marseille","lat":43.284217,"lon":5.349697,"is_reserved":false,"is_disabled":false,"rental_uris":{"android":"levelo://app?vid=cc749b12-968a-4293-899a-7eef00055646","ios":"levelo://app?vid=cc749b12-968a-4293-899a-7eef00055646"},"vehicle_type_id":"4","last_reported":1688051222,"current_range_meters":31200,"station_id":"ce4bhbh2rcd13ifvqepg","pricing_plan_id":"free"},{"bike_id":"3a1084b1-f763-418a-98b3-5c9bfe2f800a","system_id":"levelo_inurba_marseille","lat":43.28405,"lon":5.34977,"is_reserved":false,"is_disabled":false,"rental_uris":{"android":"levelo://app?vid=3a1084b1-f763-418a-98b3-5c9bfe2f800a","ios":"levelo://app?vid=3a1084b1-f763-418a-98b3-5c9bfe2f800a"},"vehicle_type_id":"4","last_reported":1688051222,"current_range_meters":15600,"station_id":"ce4bhbh2rcd13ifvqepg","pricing_plan_id":"free"},{"bike_id":"6d51b7cb-2d1a-4936-ad21-a3d4580f2c03","system_id":"levelo_inurba_marseille","lat":43.28402,"lon":5.34979,"is_reserved":false,"is_disabled":false,"rental_uris":{"android":"levelo://app?vid=6d51b7cb-2d1a-4936-ad21-a3d4580f2c03","ios":"levelo://app?vid=6d51b7cb-2d1a-4936-ad21-a3d4580f2c03"},"vehicle_type_id":"4","last_reported":1688051222,"current_range_meters":31200,"station_id":"ce4bhbh2rcd13ifvqepg","pricing_plan_id":"free"},{"bike_id":"16b37eb6-3fbd-4b98-b22b-950316121ca7","system_id":"levelo_inurba_marseille","lat":43.284793,"lon":5.384113,"is_reserved":false,"is_disabled":false,"rental_uris":{"android":"levelo://app?vid=16b37eb6-3fbd-4b98-b22b-950316121ca7","ios":"levelo://app?vid=16b37eb6-3fbd-4b98-b22b-950316121ca7"},"vehicle_type_id":"4","last_reported":1688051222,"current_range_meters":9200,"station_id":"ce4bh512rcd13ifvqe3g","pricing_plan_id":"free"},{"bike_id":"61f0b33c-7b81-49c7-92ed-c3fbca3d3e25","system_id":"levelo_inurba_marseille","lat":43.292724,"lon":5.401131,"is_reserved":false,"is_disabled":false,"rental_uris":{"android":"levelo://app?vid=61f0b33c-7b81-49c7-92ed-c3fbca3d3e25","ios":"levelo://app?vid=61f0b33c-7b81-49c7-92ed-c3fbca3d3e25"},"vehicle_type_id":"4","last_reported":1688051222,"current_range_meters":2800,"station_id":"ce4bh312rcd13ifvqdk0","pricing_plan_id":"free"},{"bike_id":"29ea71e0-f847-49b9-ac09-7f208c085358","system_id":"levelo_inurba_marseille","lat":43.292724,"lon":5.401131,"is_reserved":false,"is_disabled":false,"rental_uris":{"android":"levelo://app?vid=29ea71e0-f847-49b9-ac09-7f208c085358","ios":"levelo://app?vid=29ea71e0-f847-49b9-ac09-7f208c085358"},"vehicle_type_id":"4","last_reported":1688051222,"current_range_meters":0,"station_id":"ce4bh312rcd13ifvqdk0","pricing_plan_id":"free"},{"bike_id":"182b804e-2fd0-4d87-912c-b3bd6b84dc3c","system_id":"levelo_inurba_marseille","lat":43.28273,"lon":5.35078,"is_reserved":false,"is_disabled":false,"rental_uris":{"android":"levelo://app?vid=182b804e-2fd0-4d87-912c-b3bd6b84dc3c","ios":"levelo://app?vid=182b804e-2fd0-4d87-912c-b3bd6b84dc3c"},"vehicle_type_id":"4","last_reported":1688051222,"current_range_meters":30400,"station_id":"ce4bhbp2rcd13ifvqerg","pricing_plan_id":"free"},{"bike_id":"e0aa1d12-8d1e-40b3-b9d6-60b904992966","system_id":"levelo_inurba_marseille","lat":43.282744,"lon":5.350533,"is_reserved":false,"is_disabled":false,"rental_uris":{"android":"levelo://app?vid=e0aa1d12-8d1e-40b3-b9d6-60b904992966","ios":"levelo://app?vid=e0aa1d12-8d1e-40b3-b9d6-60b904992966"},"vehicle_type_id":"4","last_reported":1688051222,"current_range_meters":30000,"station_id":"ce4bhbp2rcd13ifvqerg","pricing_plan_id":"free"},{"bike_id":"600067d1-9a1c-4fe4-8226-11980b082745","system_id":"levelo_inurba_marseille","lat":43.28268,"lon":5.35083,"is_reserved":false,"is_disabled":false,"rental_uris":{"android":"levelo://app?vid=600067d1-9a1c-4fe4-8226-11980b082745","ios":"levelo://app?vid=600067d1-9a1c-4fe4-8226-11980b082745"},"vehicle_type_id":"4","last_reported":1688051222,"current_range_meters":25200,"station_id":"ce4bhbp2rcd13ifvqerg","pricing_plan_id":"free"},{"bike_id":"a3b578c6-7b28-411c-9229-edf5a0121ce9","system_id":"levelo_inurba_marseille","lat":43.282717,"lon":5.350561,"is_reserved":false,"is_disabled":false,"rental_uris":{"android":"levelo://app?vid=a3b578c6-7b28-411c-9229-edf5a0121ce9","ios":"levelo://app?vid=a3b578c6-7b28-411c-9229-edf5a0121ce9"},"vehicle_type_id":"4","last_reported":1688051222,"current_range_meters":24800,"station_id":"ce4bhbp2rcd13ifvqerg","pricing_plan_id":"free"},{"bike_id":"ab361b5c-0ca3-4c62-bb05-663714877aac","system_id":"levelo_inurba_marseille","lat":43.28265,"lon":5.35078,"is_reserved":false,"is_disabled":false,"rental_uris":{"android":"levelo://app?vid=ab361b5c-0ca3-4c62-bb05-663714877aac","ios":"levelo://app?vid=ab361b5c-0ca3-4c62-bb05-663714877aac"},"vehicle_type_id":"4","last_reported":1688051222,"current_range_meters":3200,"station_id":"ce4bhbp2rcd13ifvqerg","pricing_plan_id":"free"},{"bike_id":"87453924-a1c7-4dd1-8e3e-3654070dc957","system_id":"levelo_inurba_marseille","lat":43.282708,"lon":5.35053,"is_reserved":false,"is_disabled":false,"rental_uris":{"android":"levelo://app?vid=87453924-a1c7-4dd1-8e3e-3654070dc957","ios":"levelo://app?vid=87453924-a1c7-4dd1-8e3e-3654070dc957"},"vehicle_type_id":"4","last_reported":1688051222,"current_range_meters":31200,"station_id":"","pricing_plan_id":"free"},{"bike_id":"1e4ccbe9-e1b8-40b0-acbd-987345fa51e9","system_id":"levelo_inurba_marseille","lat":43.282715,"lon":5.350494,"is_reserved":false,"is_disabled":false,"rental_uris":{"android":"levelo://app?vid=1e4ccbe9-e1b8-40b0-acbd-987345fa51e9","ios":"levelo://app?vid=1e4ccbe9-e1b8-40b0-acbd-987345fa51e9"},"vehicle_type_id":"4","last_reported":1688051222,"current_range_meters":31200,"station_id":"ce4bhbp2rcd13ifvqerg","pricing_plan_id":"free"},{"bike_id":"74a01cec-f43e-4869-bc09-97f05a7c5ab8","system_id":"levelo_inurba_marseille","lat":43.282696,"lon":5.35054,"is_reserved":false,"is_disabled":false,"rental_uris":{"android":"levelo://app?vid=74a01cec-f43e-4869-bc09-97f05a7c5ab8","ios":"levelo://app?vid=74a01cec-f43e-4869-bc09-97f05a7c5ab8"},"vehicle_type_id":"4","last_reported":1688051222,"current_range_meters":8000,"station_id":"ce4bhbp2rcd13ifvqerg","pricing_plan_id":"free"},{"bike_id":"11c21e25-2c64-4be2-8f31-e719da474d65","system_id":"levelo_inurba_marseille","lat":43.282692,"lon":5.350548,"is_reserved":false,"is_disabled":false,"rental_uris":{"android":"levelo://app?vid=11c21e25-2c64-4be2-8f31-e719da474d65","ios":"levelo://app?vid=11c21e25-2c64-4be2-8f31-e719da474d65"},"vehicle_type_id":"4","last_reported":1688051222,"current_range_meters":31200,"station_id":"ce4bhbp2rcd13ifvqerg","pricing_plan_id":"free"},{"bike_id":"f10b7b03-79a1-4ab5-9db5-5e7614955221","system_id":"levelo_inurba_marseille","lat":43.282695,"lon":5.350535,"is_reserved":false,"is_disabled":false,"rental_uris":{"android":"levelo://app?vid=f10b7b03-79a1-4ab5-9db5-5e7614955221","ios":"levelo://app?vid=f10b7b03-79a1-4ab5-9db5-5e7614955221"},"vehicle_type_id":"4","last_reported":1688051222,"current_range_meters":10000,"station_id":"ce4bhbp2rcd13ifvqerg","pricing_plan_id":"free"},{"bike_id":"fed2b40e-e6e3-485d-bd8f-755c780a8374","system_id":"levelo_inurba_marseille","lat":43.282693,"lon":5.35052,"is_reserved":false,"is_disabled":false,"rental_uris":{"android":"levelo://app?vid=fed2b40e-e6e3-485d-bd8f-755c780a8374","ios":"levelo://app?vid=fed2b40e-e6e3-485d-bd8f-755c780a8374"},"vehicle_type_id":"4","last_reported":1688051222,"current_range_meters":31200,"station_id":"ce4bhbp2rcd13ifvqerg","pricing_plan_id":"free"},{"bike_id":"efab674c-a848-448b-abaa-a0fabce930da","system_id":"levelo_inurba_marseille","lat":43.282682,"lon":5.350517,"is_reserved":false,"is_disabled":false,"rental_uris":{"android":"levelo://app?vid=efab674c-a848-448b-abaa-a0fabce930da","ios":"levelo://app?vid=efab674c-a848-448b-abaa-a0fabce930da"},"vehicle_type_id":"4","last_reported":1688051222,"current_range_meters":31200,"station_id":"ce4bhbp2rcd13ifvqerg","pricing_plan_id":"free"},{"bike_id":"712da182-b28b-48ca-b228-aacfd357808a","system_id":"levelo_inurba_marseille","lat":43.282744,"lon":5.350533,"is_reserved":false,"is_disabled":false,"rental_uris":{"android":"levelo://app?vid=712da182-b28b-48ca-b228-aacfd357808a","ios":"levelo://app?vid=712da182-b28b-48ca-b228-aacfd357808a"},"vehicle_type_id":"4","last_reported":1688051222,"current_range_meters":30800,"station_id":"ce4bhbp2rcd13ifvqerg","pricing_plan_id":"free"},{"bike_id":"b6aedbb4-085f-445c-b669-1feba8a0b85f","system_id":"levelo_inurba_marseille","lat":43.28262,"lon":5.35071,"is_reserved":false,"is_disabled":false,"rental_uris":{"android":"levelo://app?vid=b6aedbb4-085f-445c-b669-1feba8a0b85f","ios":"levelo://app?vid=b6aedbb4-085f-445c-b669-1feba8a0b85f"},"vehicle_type_id":"4","last_reported":1688051222,"current_range_meters":4000,"station_id":"ce4bhbp2rcd13ifvqerg","pricing_plan_id":"free"},{"bike_id":"4dfbdd1a-76d9-4e78-97b9-82c124bd2d86","system_id":"levelo_inurba_marseille","lat":43.282664,"lon":5.350555,"is_reserved":false,"is_disabled":false,"rental_uris":{"android":"levelo://app?vid=4dfbdd1a-76d9-4e78-97b9-82c124bd2d86","ios":"levelo://app?vid=4dfbdd1a-76d9-4e78-97b9-82c124bd2d86"},"vehicle_type_id":"4","last_reported":1688051222,"current_range_meters":30400,"station_id":"ce4bhbp2rcd13ifvqerg","pricing_plan_id":"free"},{"bike_id":"d9c3c606-ee17-4f7a-9fca-b115071218f5","system_id":"levelo_inurba_marseille","lat":43.28266,"lon":5.35056,"is_reserved":false,"is_disabled":false,"rental_uris":{"android":"levelo://app?vid=d9c3c606-ee17-4f7a-9fca-b115071218f5","ios":"levelo://app?vid=d9c3c606-ee17-4f7a-9fca-b115071218f5"},"vehicle_type_id":"4","last_reported":1688051222,"current_range_meters":9200,"station_id":"ce4bhbp2rcd13ifvqerg","pricing_plan_id":"free"},{"bike_id":"7b610fdc-04f5-4ce0-a67a-c0f9531cf7b2","system_id":"levelo_inurba_marseille","lat":43.282754,"lon":5.350519,"is_reserved":false,"is_disabled":false,"rental_uris":{"android":"levelo://app?vid=7b610fdc-04f5-4ce0-a67a-c0f9531cf7b2","ios":"levelo://app?vid=7b610fdc-04f5-4ce0-a67a-c0f9531cf7b2"},"vehicle_type_id":"4","last_reported":1688051222,"current_range_meters":30400,"station_id":"ce4bhbp2rcd13ifvqerg","pricing_plan_id":"free"},{"bike_id":"74a0473c-8256-487a-929e-9ebd5178125a","system_id":"levelo_inurba_marseille","lat":43.282637,"lon":5.350626,"is_reserved":false,"is_disabled":false,"rental_uris":{"android":"levelo://app?vid=74a0473c-8256-487a-929e-9ebd5178125a","ios":"levelo://app?vid=74a0473c-8256-487a-929e-9ebd5178125a"},"vehicle_type_id":"4","last_reported":1688051222,"current_range_meters":31200,"station_id":"","pricing_plan_id":"free"},{"bike_id":"4f2aeca9-0661-44dc-9382-4fa315db2cdc","system_id":"levelo_inurba_marseille","lat":43.28265,"lon":5.35058,"is_reserved":false,"is_disabled":false,"rental_uris":{"android":"levelo://app?vid=4f2aeca9-0661-44dc-9382-4fa315db2cdc","ios":"levelo://app?vid=4f2aeca9-0661-44dc-9382-4fa315db2cdc"},"vehicle_type_id":"4","last_reported":1688051222,"current_range_meters":2800,"station_id":"ce4bhbp2rcd13ifvqerg","pricing_plan_id":"free"},{"bike_id":"d08cd4ba-a1cc-4b19-8339-fa55d76579ad","system_id":"levelo_inurba_marseille","lat":43.282638,"lon":5.350616,"is_reserved":false,"is_disabled":false,"rental_uris":{"android":"levelo://app?vid=d08cd4ba-a1cc-4b19-8339-fa55d76579ad","ios":"levelo://app?vid=d08cd4ba-a1cc-4b19-8339-fa55d76579ad"},"vehicle_type_id":"4","last_reported":1688051222,"current_range_meters":26400,"station_id":"ce4bhbp2rcd13ifvqerg","pricing_plan_id":"free"},{"bike_id":"6e30f483-5629-404e-9b61-b66a422d4fa0","system_id":"levelo_inurba_marseille","lat":43.28264,"lon":5.3506,"is_reserved":false,"is_disabled":false,"rental_uris":{"android":"levelo://app?vid=6e30f483-5629-404e-9b61-b66a422d4fa0","ios":"levelo://app?vid=6e30f483-5629-404e-9b61-b66a422d4fa0"},"vehicle_type_id":"4","last_reported":1688051222,"current_range_meters":22000,"station_id":"ce4bhbp2rcd13ifvqerg","pricing_plan_id":"free"},{"bike_id":"ae5d8ea4-83cc-4bdd-b74a-b599f2f0dc6a","system_id":"levelo_inurba_marseille","lat":43.282636,"lon":5.350612,"is_reserved":false,"is_disabled":false,"rental_uris":{"android":"levelo://app?vid=ae5d8ea4-83cc-4bdd-b74a-b599f2f0dc6a","ios":"levelo://app?vid=ae5d8ea4-83cc-4bdd-b74a-b599f2f0dc6a"},"vehicle_type_id":"4","last_reported":1688051222,"current_range_meters":28000,"station_id":"","pricing_plan_id":"free"},{"bike_id":"79225242-1d31-4b36-a52f-11f6862f1a13","system_id":"levelo_inurba_marseille","lat":43.282658,"lon":5.350534,"is_reserved":false,"is_disabled":false,"rental_uris":{"android":"levelo://app?vid=79225242-1d31-4b36-a52f-11f6862f1a13","ios":"levelo://app?vid=79225242-1d31-4b36-a52f-11f6862f1a13"},"vehicle_type_id":"4","last_reported":1688051222,"current_range_meters":25200,"station_id":"ce4bhbp2rcd13ifvqerg","pricing_plan_id":"free"},{"bike_id":"752385e5-f52e-4cf8-806d-7971cb4242e0","system_id":"levelo_inurba_marseille","lat":43.282658,"lon":5.350528,"is_reserved":false,"is_disabled":false,"rental_uris":{"android":"levelo://app?vid=752385e5-f52e-4cf8-806d-7971cb4242e0","ios":"levelo://app?vid=752385e5-f52e-4cf8-806d-7971cb4242e0"},"vehicle_type_id":"4","last_reported":1688051222,"current_range_meters":31200,"station_id":"ce4bhbp2rcd13ifvqerg","pricing_plan_id":"free"},{"bike_id":"e4749bfb-efb5-41fa-a5a2-e13388e40d0c","system_id":"levelo_inurba_marseille","lat":43.282654,"lon":5.350539,"is_reserved":false,"is_disabled":false,"rental_uris":{"android":"levelo://app?vid=e4749bfb-efb5-41fa-a5a2-e13388e40d0c","ios":"levelo://app?vid=e4749bfb-efb5-41fa-a5a2-e13388e40d0c"},"vehicle_type_id":"4","last_reported":1688051222,"current_range_meters":11600,"station_id":"ce4bhbp2rcd13ifvqerg","pricing_plan_id":"free"},{"bike_id":"21d8dc3e-c856-41ed-93a7-c4bff3290494","system_id":"levelo_inurba_marseille","lat":43.28043,"lon":5.36951,"is_reserved":false,"is_disabled":false,"rental_uris":{"android":"levelo://app?vid=21d8dc3e-c856-41ed-93a7-c4bff3290494","ios":"levelo://app?vid=21d8dc3e-c856-41ed-93a7-c4bff3290494"},"vehicle_type_id":"4","last_reported":1688051222,"current_range_meters":19200,"station_id":"ce4bha12rcd13ifvqef0","pricing_plan_id":"free"},{"bike_id":"39f10813-81ea-4cf6-ae7e-bbf84064250a","system_id":"levelo_inurba_marseille","lat":43.2826,"lon":5.3507,"is_reserved":false,"is_disabled":false,"rental_uris":{"android":"levelo://app?vid=39f10813-81ea-4cf6-ae7e-bbf84064250a","ios":"levelo://app?vid=39f10813-81ea-4cf6-ae7e-bbf84064250a"},"vehicle_type_id":"4","last_reported":1688051222,"current_range_meters":10000,"station_id":"ce4bhbp2rcd13ifvqerg","pricing_plan_id":"free"},{"bike_id":"1a1fe319-aa4f-49e0-82e5-f709f121f5ad","system_id":"levelo_inurba_marseille","lat":43.28264,"lon":5.35055,"is_reserved":false,"is_disabled":false,"rental_uris":{"android":"levelo://app?vid=1a1fe319-aa4f-49e0-82e5-f709f121f5ad","ios":"levelo://app?vid=1a1fe319-aa4f-49e0-82e5-f709f121f5ad"},"vehicle_type_id":"4","last_reported":1688051222,"current_range_meters":12400,"station_id":"ce4bhbp2rcd13ifvqerg","pricing_plan_id":"free"},{"bike_id":"400e770e-d1f3-42d8-9548-689e91fa5f39","system_id":"levelo_inurba_marseille","lat":43.282622,"lon":5.350597,"is_reserved":false,"is_disabled":false,"rental_uris":{"android":"levelo://app?vid=400e770e-d1f3-42d8-9548-689e91fa5f39","ios":"levelo://app?vid=400e770e-d1f3-42d8-9548-689e91fa5f39"},"vehicle_type_id":"4","last_reported":1688051222,"current_range_meters":31200,"station_id":"","pricing_plan_id":"free"},{"bike_id":"a92c3881-e3ea-4c68-8365-af808e16f281","system_id":"levelo_inurba_marseille","lat":43.282614,"lon":5.350617,"is_reserved":false,"is_disabled":false,"rental_uris":{"android":"levelo://app?vid=a92c3881-e3ea-4c68-8365-af808e16f281","ios":"levelo://app?vid=a92c3881-e3ea-4c68-8365-af808e16f281"},"vehicle_type_id":"4","last_reported":1688051222,"current_range_meters":31200,"station_id":"","pricing_plan_id":"free"},{"bike_id":"6a41ccd7-c732-4ef2-ab21-3f59ceba5d25","system_id":"levelo_inurba_marseille","lat":43.282633,"lon":5.350551,"is_reserved":false,"is_disabled":false,"rental_uris":{"android":"levelo://app?vid=6a41ccd7-c732-4ef2-ab21-3f59ceba5d25","ios":"levelo://app?vid=6a41ccd7-c732-4ef2-ab21-3f59ceba5d25"},"vehicle_type_id":"4","last_reported":1688051222,"current_range_meters":30800,"station_id":"ce4bhbp2rcd13ifvqerg","pricing_plan_id":"free"},{"bike_id":"099da850-afe7-4c2f-8ab9-4b9ab58031e1","system_id":"levelo_inurba_marseille","lat":43.282606,"lon":5.350634,"is_reserved":false,"is_disabled":false,"rental_uris":{"android":"levelo://app?vid=099da850-afe7-4c2f-8ab9-4b9ab58031e1","ios":"levelo://app?vid=099da850-afe7-4c2f-8ab9-4b9ab58031e1"},"vehicle_type_id":"4","last_reported":1688051222,"current_range_meters":17200,"station_id":"ce4bhbp2rcd13ifvqerg","pricing_plan_id":"free"},{"bike_id":"185ddca2-69fb-424c-90f0-24f5c1885c34","system_id":"levelo_inurba_marseille","lat":43.282588,"lon":5.350661,"is_reserved":false,"is_disabled":false,"rental_uris":{"android":"levelo://app?vid=185ddca2-69fb-424c-90f0-24f5c1885c34","ios":"levelo://app?vid=185ddca2-69fb-424c-90f0-24f5c1885c34"},"vehicle_type_id":"4","last_reported":1688051222,"current_range_meters":31200,"station_id":"","pricing_plan_id":"free"},{"bike_id":"63e042b3-3671-4bb0-a42f-6dbeb0a146be","system_id":"levelo_inurba_marseille","lat":43.282744,"lon":5.350533,"is_reserved":false,"is_disabled":false,"rental_uris":{"android":"levelo://app?vid=63e042b3-3671-4bb0-a42f-6dbeb0a146be","ios":"levelo://app?vid=63e042b3-3671-4bb0-a42f-6dbeb0a146be"},"vehicle_type_id":"4","last_reported":1688051222,"current_range_meters":30400,"station_id":"ce4bhbp2rcd13ifvqerg","pricing_plan_id":"free"},{"bike_id":"ff35a99c-ebb2-4d29-8276-2222e8a64260","system_id":"levelo_inurba_marseille","lat":43.282581,"lon":5.350664,"is_reserved":false,"is_disabled":false,"rental_uris":{"android":"levelo://app?vid=ff35a99c-ebb2-4d29-8276-2222e8a64260","ios":"levelo://app?vid=ff35a99c-ebb2-4d29-8276-2222e8a64260"},"vehicle_type_id":"4","last_reported":1688051222,"current_range_meters":13600,"station_id":"ce4bhbp2rcd13ifvqerg","pricing_plan_id":"free"},{"bike_id":"e32ec433-24b6-4995-bca1-895d3cb4d63a","system_id":"levelo_inurba_marseille","lat":43.28258,"lon":5.350662,"is_reserved":false,"is_disabled":false,"rental_uris":{"android":"levelo://app?vid=e32ec433-24b6-4995-bca1-895d3cb4d63a","ios":"levelo://app?vid=e32ec433-24b6-4995-bca1-895d3cb4d63a"},"vehicle_type_id":"4","last_reported":1688051222,"current_range_meters":19600,"station_id":"ce4bhbp2rcd13ifvqerg","pricing_plan_id":"free"},{"bike_id":"66a5e92a-7376-4957-9d91-08bcbf3155bc","system_id":"levelo_inurba_marseille","lat":43.28256,"lon":5.35068,"is_reserved":false,"is_disabled":false,"rental_uris":{"android":"levelo://app?vid=66a5e92a-7376-4957-9d91-08bcbf3155bc","ios":"levelo://app?vid=66a5e92a-7376-4957-9d91-08bcbf3155bc"},"vehicle_type_id":"4","last_reported":1688051222,"current_range_meters":18400,"station_id":"ce4bhbp2rcd13ifvqerg","pricing_plan_id":"free"},{"bike_id":"af628022-6180-4864-88ba-3a6beac7f9d2","system_id":"levelo_inurba_marseille","lat":43.282584,"lon":5.350571,"is_reserved":false,"is_disabled":false,"rental_uris":{"android":"levelo://app?vid=af628022-6180-4864-88ba-3a6beac7f9d2","ios":"levelo://app?vid=af628022-6180-4864-88ba-3a6beac7f9d2"},"vehicle_type_id":"4","last_reported":1688051222,"current_range_meters":31200,"station_id":"","pricing_plan_id":"free"},{"bike_id":"8b09485a-aa41-4a87-98f6-d9bcc89e1f36","system_id":"levelo_inurba_marseille","lat":43.280382,"lon":5.369291,"is_reserved":false,"is_disabled":false,"rental_uris":{"android":"levelo://app?vid=8b09485a-aa41-4a87-98f6-d9bcc89e1f36","ios":"levelo://app?vid=8b09485a-aa41-4a87-98f6-d9bcc89e1f36"},"vehicle_type_id":"4","last_reported":1688051222,"current_range_meters":7200,"station_id":"ce4bha12rcd13ifvqef0","pricing_plan_id":"free"},{"bike_id":"f705663b-e9cd-4316-8980-1a9c49497b5d","system_id":"levelo_inurba_marseille","lat":43.2835,"lon":5.38637,"is_reserved":false,"is_disabled":false,"rental_uris":{"android":"levelo://app?vid=f705663b-e9cd-4316-8980-1a9c49497b5d","ios":"levelo://app?vid=f705663b-e9cd-4316-8980-1a9c49497b5d"},"vehicle_type_id":"4","last_reported":1688051222,"current_range_meters":28000,"station_id":"ce4bh492rcd13ifvqdvg","pricing_plan_id":"free"},{"bike_id":"0112d926-4226-489b-9ce5-fe2ace0e37ae","system_id":"levelo_inurba_marseille","lat":43.290412,"lon":5.399633,"is_reserved":false,"is_disabled":false,"rental_uris":{"android":"levelo://app?vid=0112d926-4226-489b-9ce5-fe2ace0e37ae","ios":"levelo://app?vid=0112d926-4226-489b-9ce5-fe2ace0e37ae"},