{"last_updated":1705219731,"ttl":30,"version":"2.2","data":{"bikes":[{"bike_id":"3df21422-423b-41c0-9fb9-9b2c18a53dda","system_id":"levelo_inurba_marseille","lat":43.31233,"lon":5.368567,"is_reserved":false,"is_disabled":false,"rental_uris":{"android":"levelo://app?vid=3df21422-423b-41c0-9fb9-9b2c18a53dda","ios":"levelo://app?vid=3df21422-423b-41c0-9fb9-9b2c18a53dda"},"vehicle_type_id":"4","last_reported":1705219731,"current_range_meters":0,"station_id":"ce4bgl92rcd13ifvqbq0","pricing_plan_id":"free"},{"bike_id":"5f65e35c-e901-4df6-8550-179d4b295e0b","system_id":"levelo_inurba_marseille","lat":43.309076,"lon":5.368465,"is_reserved":false,"is_disabled":false,"rental_uris":{"android":"levelo://app?vid=5f65e35c-e901-4df6-8550-179d4b295e0b","ios":"levelo://app?vid=5f65e35c-e901-4df6-8550-179d4b295e0b"},"vehicle_type_id":"4","last_reported":1705219731,"current_range_meters":29200,"station_id":"ce4bgn92rcd13ifvqbvg","pricing_plan_id":"free"},{"bike_id":"e63d5272-3556-4994-a099-fbe9a283da73","system_id":"levelo_inurba_marseille","lat":43.31503,"lon":5.37288,"is_reserved":false,"is_disabled":false,"rental_uris":{"android":"levelo://app?vid=e63d5272-3556-4994-a099-fbe9a283da73","ios":"levelo://app?vid=e63d5272-3556-4994-a099-fbe9a283da73"},"vehicle_type_id":"4","last_reported":1705219731,"current_range_meters":10000,"station_id":"ce4bgt12rcd13ifvqcd0","pricing_plan_id":"free"},{"bike_id":"127798e7-327b-4808-aab5-8835489e83da","system_id":"levelo_inurba_marseille","lat":43.314811,"lon":5.373103,"is_reserved":false,"is_disabled":false,"rental_uris":{"android":"levelo://app?vid=127798e7-327b-4808-aab5-8835489e83da","ios":"levelo://app?vid=127798e7-327b-4808-aab5-8835489e83da"},"vehicle_type_id":"4","last_reported":1705219731,"current_range_meters":26000,"station_id":"ce4bgt12rcd13ifvqcd0","pricing_plan_id":"free"},{"bike_id":"7b8b8e49-15a6-4c82-b904-86403bf28253","system_id":"levelo_inurba_marseille","lat":43.314811,"lon":5.373104,"is_reserved":false,"is_disabled":false,"rental_uris":{"android":"levelo://app?vid=7b8b8e49-15a6-4c82-b904-86403bf28253","ios":"levelo://app?vid=7b8b8e49-15a6-4c82-b904-86403bf28253"},"vehicle_type_id":"4","last_reported":1705219731,"current_range_meters":24000,"station_id":"ce4bgt12rcd13ifvqcd0","pricing_plan_id":"free"},{"bike_id":"2751fe63-7b8e-4a23-aa70-8680c00ee2b6","system_id":"levelo_inurba_marseille","lat":43.31022,"lon":5.373233,"is_reserved":false,"is_disabled":false,"rental_uris":{"android":"levelo://app?vid=2751fe63-7b8e-4a23-aa70-8680c00ee2b6","ios":"levelo://app?vid=2751fe63-7b8e-4a23-aa70-8680c00ee2b6"},"vehicle_type_id":"4","last_reported":1705219731,"current_range_meters":13200,"station_id":"","pricing_plan_id":"free"},{"bike_id":"78a0b2f2-5f04-4d38-b29c-fc399ce7541b","system_id":"levelo_inurba_marseille","lat":43.305368,"lon":5.367343,"is_reserved":false,"is_disabled":false,"rental_uris":{"android":"levelo://app?vid=78a0b2f2-5f04-4d38-b29c-fc399ce7541b","ios":"levelo://app?vid=78a0b2f2-5f04-4d38-b29c-fc399ce7541b"},"vehicle_type_id":"4","last_reported":1705219731,"current_range_meters":0,"station_id":"ce4bgrp2rcd13ifvqc9g","pricing_plan_id":"free"},{"bike_id":"2c6e7e3d-4322-4627-8aac-882b56984ddb","system_id":"levelo_inurba_marseille","lat":43.305368,"lon":5.367343,"is_reserved":false,"is_disabled":false,"rental_uris":{"android":"levelo://app?vid=2c6e7e3d-4322-4627-8aac-882b56984ddb","ios":"levelo://app?vid=2c6e7e3d-4322-4627-8aac-882b56984ddb"},"vehicle_type_id":"4","last_reported":1705219731,"current_range_meters":5200,"station_id":"ce4bgrp2rcd13ifvqc9g","pricing_plan_id":"free"},{"bike_id":"103f5cf0-a2d1-4add-b041-b94ae35c28a5","system_id":"levelo_inurba_marseille","lat":43.305706,"lon":5.365654,"is_reserved":false,"is_disabled":false,"rental_uris":{"android":"levelo://app?vid=103f5cf0-a2d1-4add-b041-b94ae35c28a5","ios":"levelo://app?vid=103f5cf0-a2d1-4add-b041-b94ae35c28a5"},"vehicle_type_id":"4","last_reported":1705219731,"current_range_meters":28000,"station_id":"ce4bgs12rcd13ifvqcag","pricing_plan_id":"free"},{"bike_id":"91320bd0-677b-493b-8379-d20941b00442","system_id":"levelo_inurba_marseille","lat":43.305989,"lon":5.37225,"is_reserved":false,"is_disabled":false,"rental_uris":{"android":"levelo://app?vid=91320bd0-677b-493b-8379-d20941b00442","ios":"levelo://app?vid=91320bd0-677b-493b-8379-d20941b00442"},"vehicle_type_id":"4","last_reported":1705219731,"current_range_meters":23600,"station_id":"ce4bgqh2rcd13ifvqc4g","pricing_plan_id":"free"},{"bike_id":"e54522b9-0689-40f2-a8c0-339a49c43823","system_id":"levelo_inurba_marseille","lat":43.305989,"lon":5.37225,"is_reserved":false,"is_disabled":false,"rental_uris":{"android":"levelo://app?vid=e54522b9-0689-40f2-a8c0-339a49c43823","ios":"levelo://app?vid=e54522b9-0689-40f2-a8c0-339a49c43823"},"vehicle_type_id":"4","last_reported":1705219731,"current_range_meters":27600,"station_id":"ce4bgqh2rcd13ifvqc4g","pricing_plan_id":"free"},{"bike_id":"3aafbc2c-5e37-422b-969c-5581fcfe5910","system_id":"levelo_inurba_marseille","lat":43.311125,"lon":5.377624,"is_reserved":false,"is_disabled":false,"rental_uris":{"android":"levelo://app?vid=3aafbc2c-5e37-422b-969c-5581fcfe5910","ios":"levelo://app?vid=3aafbc2c-5e37-422b-969c-5581fcfe5910"},"vehicle_type_id":"4","last_reported":1705219731,"current_range_meters":27600,"station_id":"ce4bgt92rcd13ifvqcg0","pricing_plan_id":"free"},{"bike_id":"cdd7afca-6010-4fc7-a707-8091953d0a6c","system_id":"levelo_inurba_marseille","lat":43.311169,"lon":5.377587,"is_reserved":false,"is_disabled":false,"rental_uris":{"android":"levelo://app?vid=cdd7afca-6010-4fc7-a707-8091953d0a6c","ios":"levelo://app?vid=cdd7afca-6010-4fc7-a707-8091953d0a6c"},"vehicle_type_id":"4","last_reported":1705219731,"current_range_meters":31200,"station_id":"ce4bgt92rcd13ifvqcg0","pricing_plan_id":"free"},{"bike_id":"e92e0c86-54d2-4029-be4f-dd5fa7792bbb","system_id":"levelo_inurba_marseille","lat":43.311127,"lon":5.377617,"is_reserved":false,"is_disabled":false,"rental_uris":{"android":"levelo://app?vid=e92e0c86-54d2-4029-be4f-dd5fa7792bbb","ios":"levelo://app?vid=e92e0c86-54d2-4029-be4f-dd5fa7792bbb"},"vehicle_type_id":"4","last_reported":1705219731,"current_range_meters":25600,"station_id":"ce4bgt92rcd13ifvqcg0","pricing_plan_id":"free"},{"bike_id":"ff69e8d0-2939-46b6-a638-d9cd4ad70131","system_id":"levelo_inurba_marseille","lat":43.311125,"lon":5.377624,"is_reserved":false,"is_disabled":false,"rental_uris":{"android":"levelo://app?vid=ff69e8d0-2939-46b6-a638-d9cd4ad70131","ios":"levelo://app?vid=ff69e8d0-2939-46b6-a638-d9cd4ad70131"},"vehicle_type_id":"4","last_reported":1705219731,"current_range_meters":28400,"station_id":"ce4bgt92rcd13ifvqcg0","pricing_plan_id":"free"},{"bike_id":"849ed82e-16c3-4590-a1b1-42c7f46fc22e","system_id":"levelo_inurba_marseille","lat":43.307945,"lon":5.376487,"is_reserved":false,"is_disabled":false,"rental_uris":{"android":"levelo://app?vid=849ed82e-16c3-4590-a1b1-42c7f46fc22e","ios":"levelo://app?vid=849ed82e-16c3-4590-a1b1-42c7f46fc22e"},"vehicle_type_id":"4","last_reported":1705219731,"current_range_meters":25200,"station_id":"ce4bgv92rcd13ifvqcq0","pricing_plan_id":"free"},{"bike_id":"9ffd1320-cc83-4f60-bcdd-2746306488d3","system_id":"levelo_inurba_marseille","lat":43.307945,"lon":5.376487,"is_reserved":false,"is_disabled":false,"rental_uris":{"android":"levelo://app?vid=9ffd1320-cc83-4f60-bcdd-2746306488d3","ios":"levelo://app?vid=9ffd1320-cc83-4f60-bcdd-2746306488d3"},"vehicle_type_id":"4","last_reported":1705219731,"current_range_meters":31200,"station_id":"ce4bgv92rcd13ifvqcq0","pricing_plan_id":"free"},{"bike_id":"4c1d1fa2-2dd4-4d42-8b9b-577e16dbecb3","system_id":"levelo_inurba_marseille","lat":43.307945,"lon":5.376487,"is_reserved":false,"is_disabled":false,"rental_uris":{"android":"levelo://app?vid=4c1d1fa2-2dd4-4d42-8b9b-577e16dbecb3","ios":"levelo://app?vid=4c1d1fa2-2dd4-4d42-8b9b-577e16dbecb3"},"vehicle_type_id":"4","last_reported":1705219731,"current_range_meters":31200,"station_id":"ce4bgv92rcd13ifvqcq0","pricing_plan_id":"free"},{"bike_id":"32fb92c3-d3a0-4842-9bdf-cdbc7d99efef","system_id":"levelo_inurba_marseille","lat":43.307945,"lon":5.376487,"is_reserved":false,"is_disabled":false,"rental_uris":{"android":"levelo://app?vid=32fb92c3-d3a0-4842-9bdf-cdbc7d99efef","ios":"levelo://app?vid=32fb92c3-d3a0-4842-9bdf-cdbc7d99efef"},"vehicle_type_id":"4","last_reported":1705219731,"current_range_meters":31200,"station_id":"ce4bgv92rcd13ifvqcq0","pricing_plan_id":"free"},{"bike_id":"562920bb-b653-4608-ac5f-df82f597db71","system_id":"levelo_inurba_marseille","lat":43.317075,"lon":5.377367,"is_reserved":false,"is_disabled":false,"rental_uris":{"android":"levelo://app?vid=562920bb-b653-4608-ac5f-df82f597db71","ios":"levelo://app?vid=562920bb-b653-4608-ac5f-df82f597db71"},"vehicle_type_id":"4","last_reported":1705219731,"current_range_meters":15200,"station_id":"ce4bgth2rcd13ifvqch0","pricing_plan_id":"free"},{"bike_id":"97bd7398-771c-4173-9b6b-be098144f709","system_id":"levelo_inurba_marseille","lat":43.317075,"lon":5.377367,"is_reserved":false,"is_disabled":false,"rental_uris":{"android":"levelo://app?vid=97bd7398-771c-4173-9b6b-be098144f709","ios":"levelo://app?vid=97bd7398-771c-4173-9b6b-be098144f709"},"vehicle_type_id":"4","last_reported":1705219731,"current_range_meters":29600,"station_id":"ce4bgth2rcd13ifvqch0","pricing_plan_id":"free"},{"bike_id":"fbbf339d-267d-4d2f-96dc-9fbf35cb5b47","system_id":"levelo_inurba_marseille","lat":43.317075,"lon":5.377367,"is_reserved":false,"is_disabled":false,"rental_uris":{"android":"levelo://app?vid=fbbf339d-267d-4d2f-96dc-9fbf35cb5b47","ios":"levelo://app?vid=fbbf339d-267d-4d2f-96dc-9fbf35cb5b47"},"vehicle_type_id":"4","last_reported":1705219731,"current_range_meters":24000,"station_id":"ce4bgth2rcd13ifvqch0","pricing_plan_id":"free"},{"bike_id":"bce7b487-55ba-46f5-b195-dcb8542c530c","system_id":"levelo_inurba_marseille","lat":43.317075,"lon":5.377367,"is_reserved":false,"is_disabled":false,"rental_uris":{"android":"levelo://app?vid=bce7b487-55ba-46f5-b195-dcb8542c530c","ios":"levelo://app?vid=bce7b487-55ba-46f5-b195-dcb8542c530c"},"vehicle_type_id":"4","last_reported":1705219731,"current_range_meters":24000,"station_id":"ce4bgth2rcd13ifvqch0","pricing_plan_id":"free"},{"bike_id":"91c21cf4-a5c3-4ef0-a2b2-4cc452c3c652","system_id":"levelo_inurba_marseille","lat":43.317075,"lon":5.377367,"is_reserved":false,"is_disabled":false,"rental_uris":{"android":"levelo://app?vid=91c21cf4-a5c3-4ef0-a2b2-4cc452c3c652","ios":"levelo://app?vid=91c21cf4-a5c3-4ef0-a2b2-4cc452c3c652"},"vehicle_type_id":"4","last_reported":1705219731,"current_range_meters":24800,"station_id":"ce4bgth2rcd13ifvqch0","pricing_plan_id":"free"},{"bike_id":"7952ed5c-eb27-43ef-91f0-7c8377791ff0","system_id":"levelo_inurba_marseille","lat":43.312629,"lon":5.379628,"is_reserved":false,"is_disabled":false,"rental_uris":{"android":"levelo://app?vid=7952ed5c-eb27-43ef-91f0-7c8377791ff0","ios":"levelo://app?vid=7952ed5c-eb27-43ef-91f0-7c8377791ff0"},"vehicle_type_id":"4","last_reported":1705219731,"current_range_meters":15600,"station_id":"","pricing_plan_id":"free"},{"bike_id":"5a94a242-3d66-41a5-98df-6ff31d677021","system_id":"levelo_inurba_marseille","lat":43.302971,"lon":5.367494,"is_reserved":false,"is_disabled":false,"rental_uris":{"android":"levelo://app?vid=5a94a242-3d66-41a5-98df-6ff31d677021","ios":"levelo://app?vid=5a94a242-3d66-41a5-98df-6ff31d677021"},"vehicle_type_id":"4","last_reported":1705219731,"current_range_meters":25600,"station_id":"","pricing_plan_id":"free"},{"bike_id":"948b120f-d76d-414d-89a2-49cd56791fa0","system_id":"levelo_inurba_marseille","lat":43.31536,"lon":5.38032,"is_reserved":false,"is_disabled":false,"rental_uris":{"android":"levelo://app?vid=948b120f-d76d-414d-89a2-49cd56791fa0","ios":"levelo://app?vid=948b120f-d76d-414d-89a2-49cd56791fa0"},"vehicle_type_id":"4","last_reported":1705219731,"current_range_meters":1200,"station_id":"ce4bhsp2rcd13ifvqi50","pricing_plan_id":"free"},{"bike_id":"345a627b-5c6c-40cb-a82a-3b877a91e2a7","system_id":"levelo_inurba_marseille","lat":43.30808,"lon":5.381405,"is_reserved":false,"is_disabled":false,"rental_uris":{"android":"levelo://app?vid=345a627b-5c6c-40cb-a82a-3b877a91e2a7","ios":"levelo://app?vid=345a627b-5c6c-40cb-a82a-3b877a91e2a7"},"vehicle_type_id":"4","last_reported":1705219731,"current_range_meters":26400,"station_id":"ce4bgt12rcd13ifvqce0","pricing_plan_id":"free"},{"bike_id":"440da0b1-e0c0-44a3-94e6-4049db5e924e","system_id":"levelo_inurba_marseille","lat":43.308012,"lon":5.381511,"is_reserved":false,"is_disabled":false,"rental_uris":{"android":"levelo://app?vid=440da0b1-e0c0-44a3-94e6-4049db5e924e","ios":"levelo://app?vid=440da0b1-e0c0-44a3-94e6-4049db5e924e"},"vehicle_type_id":"4","last_reported":1705219731,"current_range_meters":31200,"station_id":"ce4bgt12rcd13ifvqce0","pricing_plan_id":"free"},{"bike_id":"293e37d9-e404-4e5a-a785-a7be075c00c0","system_id":"levelo_inurba_marseille","lat":43.308012,"lon":5.381511,"is_reserved":false,"is_disabled":false,"rental_uris":{"android":"levelo://app?vid=293e37d9-e404-4e5a-a785-a7be075c00c0","ios":"levelo://app?vid=293e37d9-e404-4e5a-a785-a7be075c00c0"},"vehicle_type_id":"4","last_reported":1705219731,"current_range_meters":29200,"station_id":"ce4bgt12rcd13ifvqce0","pricing_plan_id":"free"},{"bike_id":"dccf6c13-567e-4a61-8e6d-699cdfe573dd","system_id":"levelo_inurba_marseille","lat":43.308012,"lon":5.381511,"is_reserved":false,"is_disabled":false,"rental_uris":{"android":"levelo://app?vid=dccf6c13-567e-4a61-8e6d-699cdfe573dd","ios":"levelo://app?vid=dccf6c13-567e-4a61-8e6d-699cdfe573dd"},"vehicle_type_id":"4","last_reported":1705219731,"current_range_meters":29600,"station_id":"ce4bgt12rcd13ifvqce0","pricing_plan_id":"free"},{"bike_id":"c725c374-ba25-4fb0-b9f0-a79d5b5fde0f","system_id":"levelo_inurba_marseille","lat":43.308012,"lon":5.381511,"is_reserved":false,"is_disabled":false,"rental_uris":{"android":"levelo://app?vid=c725c374-ba25-4fb0-b9f0-a79d5b5fde0f","ios":"levelo://app?vid=c725c374-ba25-4fb0-b9f0-a79d5b5fde0f"},"vehicle_type_id":"4","last_reported":1705219731,"current_range_meters":24800,"station_id":"ce4bgt12rcd13ifvqce0","pricing_plan_id":"free"},{"bike_id":"3794cf0e-2a38-4cd3-87af-8d5e351ab54d","system_id":"levelo_inurba_marseille","lat":43.304606,"lon":5.379026,"is_reserved":false,"is_disabled":false,"rental_uris":{"android":"levelo://app?vid=3794cf0e-2a38-4cd3-87af-8d5e351ab54d","ios":"levelo://app?vid=3794cf0e-2a38-4cd3-87af-8d5e351ab54d"},"vehicle_type_id":"4","last_reported":1705219731,"current_range_meters":25200,"station_id":"ce4bgup2rcd13ifvqcn0","pricing_plan_id":"free"},{"bike_id":"950af946-0c30-472d-a18a-ac6e9eaa0ab9","system_id":"levelo_inurba_marseille","lat":43.300827,"lon":5.365856,"is_reserved":false,"is_disabled":false,"rental_uris":{"android":"levelo://app?vid=950af946-0c30-472d-a18a-ac6e9eaa0ab9","ios":"levelo://app?vid=950af946-0c30-472d-a18a-ac6e9eaa0ab9"},"vehicle_type_id":"4","last_reported":1705219731,"current_range_meters":0,"station_id":"","pricing_plan_id":"free"},{"bike_id":"4a558d10-f601-4c1f-a726-82832843189d","system_id":"levelo_inurba_marseille","lat":43.304606,"lon":5.379026,"is_reserved":false,"is_disabled":false,"rental_uris":{"android":"levelo://app?vid=4a558d10-f601-4c1f-a726-82832843189d","ios":"levelo://app?vid=4a558d10-f601-4c1f-a726-82832843189d"},"vehicle_type_id":"4","last_reported":1705219731,"current_range_meters":21200,"station_id":"ce4bgup2rcd13ifvqcn0","pricing_plan_id":"free"},{"bike_id":"390a6a11-5e14-4ba9-a6b1-055887c7ee17","system_id":"levelo_inurba_marseille","lat":43.3046,"lon":5.37896,"is_reserved":false,"is_disabled":false,"rental_uris":{"android":"levelo://app?vid=390a6a11-5e14-4ba9-a6b1-055887c7ee17","ios":"levelo://app?vid=390a6a11-5e14-4ba9-a6b1-055887c7ee17"},"vehicle_type_id":"4","last_reported":1705219731,"current_range_meters":1200,"station_id":"ce4bgup2rcd13ifvqcn0","pricing_plan_id":"free"},{"bike_id":"1cf86c4e-2598-4ec1-9cc3-03d5eaf6ca24","system_id":"levelo_inurba_marseille","lat":43.304606,"lon":5.379026,"is_reserved":false,"is_disabled":false,"rental_uris":{"android":"levelo://app?vid=1cf86c4e-2598-4ec1-9cc3-03d5eaf6ca24","ios":"levelo://app?vid=1cf86c4e-2598-4ec1-9cc3-03d5eaf6ca24"},"vehicle_type_id":"4","last_reported":1705219731,"current_range_meters":4800,"station_id":"ce4bgup2rcd13ifvqcn0","pricing_plan_id":"free"},{"bike_id":"27980591-f41a-48c8-a25e-b658f421053d","system_id":"levelo_inurba_marseille","lat":43.304606,"lon":5.379026,"is_reserved":false,"is_disabled":false,"rental_uris":{"android":"levelo://app?vid=27980591-f41a-48c8-a25e-b658f421053d","ios":"levelo://app?vid=27980591-f41a-48c8-a25e-b658f421053d"},"vehicle_type_id":"4","last_reported":1705219731,"current_range_meters":18000,"station_id":"ce4bgup2rcd13ifvqcn0","pricing_plan_id":"free"},{"bike_id":"0db49e50-de55-4a1c-bac0-3439f2102ec5","system_id":"levelo_inurba_marseille","lat":43.30461,"lon":5.37899,"is_reserved":false,"is_disabled":false,"rental_uris":{"android":"levelo://app?vid=0db49e50-de55-4a1c-bac0-3439f2102ec5","ios":"levelo://app?vid=0db49e50-de55-4a1c-bac0-3439f2102ec5"},"vehicle_type_id":"4","last_reported":1705219731,"current_range_meters":10000,"station_id":"ce4bgup2rcd13ifvqcn0","pricing_plan_id":"free"},{"bike_id":"e74db136-8f07-4273-9cd2-5fe375396289","system_id":"levelo_inurba_marseille","lat":43.304606,"lon":5.379026,"is_reserved":false,"is_disabled":false,"rental_uris":{"android":"levelo://app?vid=e74db136-8f07-4273-9cd2-5fe375396289","ios":"levelo://app?vid=e74db136-8f07-4273-9cd2-5fe375396289"},"vehicle_type_id":"4","last_reported":1705219731,"current_range_meters":30400,"station_id":"ce4bgup2rcd13ifvqcn0","pricing_plan_id":"free"},{"bike_id":"f409d9ad-4ed6-43a2-a5e9-5e6bcce3f1da","system_id":"levelo_inurba_marseille","lat":43.304606,"lon":5.379026,"is_reserved":false,"is_disabled":false,"rental_uris":{"android":"levelo://app?vid=f409d9ad-4ed6-43a2-a5e9-5e6bcce3f1da","ios":"levelo://app?vid=f409d9ad-4ed6-43a2-a5e9-5e6bcce3f1da"},"vehicle_type_id":"4","last_reported":1705219731,"current_range_meters":20000,"station_id":"ce4bgup2rcd13ifvqcn0","pricing_plan_id":"free"},{"bike_id":"0bbe5a65-d2d8-4186-a205-dcf06b248c1c","system_id":"levelo_inurba_marseille","lat":43.324771,"lon":5.36557,"is_reserved":false,"is_disabled":false,"rental_uris":{"android":"levelo://app?vid=0bbe5a65-d2d8-4186-a205-dcf06b248c1c","ios":"levelo://app?vid=0bbe5a65-d2d8-4186-a205-dcf06b248c1c"},"vehicle_type_id":"4","last_reported":1705219731,"current_range_meters":27600,"station_id":"ce4bhs12rcd13ifvqhvg","pricing_plan_id":"free"},{"bike_id":"f84f59aa-9755-4cff-b94f-3aaeb709a4a2","system_id":"levelo_inurba_marseille","lat":43.324771,"lon":5.36557,"is_reserved":false,"is_disabled":false,"rental_uris":{"android":"levelo://app?vid=f84f59aa-9755-4cff-b94f-3aaeb709a4a2","ios":"levelo://app?vid=f84f59aa-9755-4cff-b94f-3aaeb709a4a2"},"vehicle_type_id":"4","last_reported":1705219731,"current_range_meters":20400,"station_id":"ce4bhs12rcd13ifvqhvg","pricing_plan_id":"free"},{"bike_id":"5432b0d4-9490-47df-bc5a-207229ed7fce","system_id":"levelo_inurba_marseille","lat":43.30143,"lon":5.37413,"is_reserved":false,"is_disabled":false,"rental_uris":{"android":"levelo://app?vid=5432b0d4-9490-47df-bc5a-207229ed7fce","ios":"levelo://app?vid=5432b0d4-9490-47df-bc5a-207229ed7fce"},"vehicle_type_id":"4","last_reported":1705219731,"current_range_meters":25200,"station_id":"ce4bgs92rcd13ifvqcc0","pricing_plan_id":"free"},{"bike_id":"6cb3a9a5-bcd2-4ac7-a150-0ade7e80ada7","system_id":"levelo_inurba_marseille","lat":43.319935,"lon":5.381699,"is_reserved":false,"is_disabled":false,"rental_uris":{"android":"levelo://app?vid=6cb3a9a5-bcd2-4ac7-a150-0ade7e80ada7","ios":"levelo://app?vid=6cb3a9a5-bcd2-4ac7-a150-0ade7e80ada7"},"vehicle_type_id":"4","last_reported":1705219731,"current_range_meters":19600,"station_id":"ce4bhr12rcd13ifvqhpg","pricing_plan_id":"free"},{"bike_id":"41764f75-bafe-4d75-9fff-4b8ac1b89701","system_id":"levelo_inurba_marseille","lat":43.319954,"lon":5.381488,"is_reserved":false,"is_disabled":false,"rental_uris":{"android":"levelo://app?vid=41764f75-bafe-4d75-9fff-4b8ac1b89701","ios":"levelo://app?vid=41764f75-bafe-4d75-9fff-4b8ac1b89701"},"vehicle_type_id":"4","last_reported":1705219731,"current_range_meters":22800,"station_id":"ce4bhr12rcd13ifvqhpg","pricing_plan_id":"free"},{"bike_id":"a7159044-a4cb-48d1-8c7f-253d76e99afe","system_id":"levelo_inurba_marseille","lat":43.319935,"lon":5.381699,"is_reserved":false,"is_disabled":false,"rental_uris":{"android":"levelo://app?vid=a7159044-a4cb-48d1-8c7f-253d76e99afe","ios":"levelo://app?vid=a7159044-a4cb-48d1-8c7f-253d76e99afe"},"vehicle_type_id":"4","last_reported":1705219731,"current_range_meters":2400,"station_id":"ce4bhr12rcd13ifvqhpg","pricing_plan_id":"free"},{"bike_id":"1e311065-c770-4425-9c92-faa2bbf668e0","system_id":"levelo_inurba_marseille","lat":43.320061,"lon":5.381594,"is_reserved":false,"is_disabled":false,"rental_uris":{"android":"levelo://app?vid=1e311065-c770-4425-9c92-faa2bbf668e0","ios":"levelo://app?vid=1e311065-c770-4425-9c92-faa2bbf668e0"},"vehicle_type_id":"4","last_reported":1705219731,"current_range_meters":25200,"station_id":"ce4bhr12rcd13ifvqhpg","pricing_plan_id":"free"},{"bike_id":"5bad7b16-b8a8-4605-bf6c-a9f207551c1d","system_id":"levelo_inurba_marseille","lat":43.313571,"lon":5.384829,"is_reserved":false,"is_disabled":false,"rental_uris":{"android":"levelo://app?vid=5bad7b16-b8a8-4605-bf6c-a9f207551c1d","ios":"levelo://app?vid=5bad7b16-b8a8-4605-bf6c-a9f207551c1d"},"vehicle_type_id":"4","last_reported":1705219731,"current_range_meters":30400,"station_id":"ce4bgt92rcd13ifvqcf0","pricing_plan_id":"free"},{"bike_id":"af193faf-7b04-4832-a412-340240dac991","system_id":"levelo_inurba_marseille","lat":43.313571,"lon":5.384829,"is_reserved":false,"is_disabled":false,"rental_uris":{"android":"levelo://app?vid=af193faf-7b04-4832-a412-340240dac991","ios":"levelo://app?vid=af193faf-7b04-4832-a412-340240dac991"},"vehicle_type_id":"4","last_reported":1705219731,"current_range_meters":26800,"station_id":"ce4bgt92rcd13ifvqcf0","pricing_plan_id":"free"},{"bike_id":"46ac3942-adce-4331-aa00-6a725ada31a9","system_id":"levelo_inurba_marseille","lat":43.300325,"lon":5.374405,"is_reserved":false,"is_disabled":false,"rental_uris":{"android":"levelo://app?vid=46ac3942-adce-4331-aa00-6a725ada31a9","ios":"levelo://app?vid=46ac3942-adce-4331-aa00-6a725ada31a9"},"vehicle_type_id":"4","last_reported":1705219731,"current_range_meters":22800,"station_id":"","pricing_plan_id":"free"},{"bike_id":"7568b06e-55ca-45b4-b8ac-c39d771126dd","system_id":"levelo_inurba_marseille","lat":43.30022,"lon":5.37444,"is_reserved":false,"is_disabled":false,"rental_uris":{"android":"levelo://app?vid=7568b06e-55ca-45b4-b8ac-c39d771126dd","ios":"levelo://app?vid=7568b06e-55ca-45b4-b8ac-c39d771126dd"},"vehicle_type_id":"4","last_reported":1705219731,"current_range_meters":12000,"station_id":"","pricing_plan_id":"free"},{"bike_id":"d15532df-aa44-4ecf-bc54-d540069d9949","system_id":"levelo_inurba_marseille","lat":43.305364,"lon":5.384119,"is_reserved":false,"is_disabled":false,"rental_uris":{"android":"levelo://app?vid=d15532df-aa44-4ecf-bc54-d540069d9949","ios":"levelo://app?vid=d15532df-aa44-4ecf-bc54-d540069d9949"},"vehicle_type_id":"4","last_reported":1705219731,"current_range_meters":26000,"station_id":"ce4bgg92rcd13ifvqb30","pricing_plan_id":"free"},{"bike_id":"9e19db93-2173-49e0-9767-ecb5bec505b7","system_id":"levelo_inurba_marseille","lat":43.298433,"lon":5.362774,"is_reserved":false,"is_disabled":false,"rental_uris":{"android":"levelo://app?vid=9e19db93-2173-49e0-9767-ecb5bec505b7","ios":"levelo://app?vid=9e19db93-2173-49e0-9767-ecb5bec505b7"},"vehicle_type_id":"4","last_reported":1705219731,"current_range_meters":21200,"station_id":"ce4bgpp2rcd13ifvqc3g","pricing_plan_id":"free"},{"bike_id":"c350471a-1f48-483c-91d0-ff575385583d","system_id":"levelo_inurba_marseille","lat":43.311722,"lon":5.387247,"is_reserved":false,"is_disabled":false,"rental_uris":{"android":"levelo://app?vid=c350471a-1f48-483c-91d0-ff575385583d","ios":"levelo://app?vid=c350471a-1f48-483c-91d0-ff575385583d"},"vehicle_type_id":"4","last_reported":1705219731,"current_range_meters":13200,"station_id":"ce4bgv12rcd13ifvqcp0","pricing_plan_id":"free"},{"bike_id":"f16afff4-bf0e-43fc-8b8f-c10d381caa6c","system_id":"levelo_inurba_marseille","lat":43.322872,"lon":5.382756,"is_reserved":false,"is_disabled":false,"rental_uris":{"android":"levelo://app?vid=f16afff4-bf0e-43fc-8b8f-c10d381caa6c","ios":"levelo://app?vid=f16afff4-bf0e-43fc-8b8f-c10d381caa6c"},"vehicle_type_id":"4","last_reported":1705219731,"current_range_meters":31200,"station_id":"ce4bhr12rcd13ifvqhqg","pricing_plan_id":"free"},{"bike_id":"e4cad359-bf16-42a6-b7ad-19b9dba9592b","system_id":"levelo_inurba_marseille","lat":43.322902,"lon":5.382577,"is_reserved":false,"is_disabled":false,"rental_uris":{"android":"levelo://app?vid=e4cad359-bf16-42a6-b7ad-19b9dba9592b","ios":"levelo://app?vid=e4cad359-bf16-42a6-b7ad-19b9dba9592b"},"vehicle_type_id":"4","last_reported":1705219731,"current_range_meters":21200,"station_id":"ce4bhr12rcd13ifvqhqg","pricing_plan_id":"free"},{"bike_id":"3a46592c-9142-46ce-8556-a80e672a6412","system_id":"levelo_inurba_marseille","lat":43.322853,"lon":5.382657,"is_reserved":false,"is_disabled":false,"rental_uris":{"android":"levelo://app?vid=3a46592c-9142-46ce-8556-a80e672a6412","ios":"levelo://app?vid=3a46592c-9142-46ce-8556-a80e672a6412"},"vehicle_type_id":"4","last_reported":1705219731,"current_range_meters":10000,"station_id":"ce4bhr12rcd13ifvqhqg","pricing_plan_id":"free"},{"bike_id":"34c8b400-5074-46e3-aa02-f5d274dfaa4f","system_id":"levelo_inurba_marseille","lat":43.322868,"lon":5.382648,"is_reserved":false,"is_disabled":false,"rental_uris":{"android":"levelo://app?vid=34c8b400-5074-46e3-aa02-f5d274dfaa4f","ios":"levelo://app?vid=34c8b400-5074-46e3-aa02-f5d274dfaa4f"},"vehicle_type_id":"4","last_reported":1705219731,"current_range_meters":29600,"station_id":"ce4bhr12rcd13ifvqhqg","pricing_plan_id":"free"},{"bike_id":"8601e953-0fde-4f75-9a24-efb2d2e6234f","system_id":"levelo_inurba_marseille","lat":43.322872,"lon":5.382756,"is_reserved":false,"is_disabled":false,"rental_uris":{"android":"levelo://app?vid=8601e953-0fde-4f75-9a24-efb2d2e6234f","ios":"levelo://app?vid=8601e953-0fde-4f75-9a24-efb2d2e6234f"},"vehicle_type_id":"4","last_reported":1705219731,"current_range_meters":30000,"station_id":"ce4bhr12rcd13ifvqhqg","pricing_plan_id":"free"},{"bike_id":"bcb437fd-6cf8-43ec-94d7-f712e0948c37","system_id":"levelo_inurba_marseille","lat":43.322872,"lon":5.382756,"is_reserved":false,"is_disabled":false,"rental_uris":{"android":"levelo://app?vid=bcb437fd-6cf8-43ec-94d7-f712e0948c37","ios":"levelo://app?vid=bcb437fd-6cf8-43ec-94d7-f712e0948c37"},"vehicle_type_id":"4","last_reported":1705219731,"current_range_meters":16400,"station_id":"ce4bhr12rcd13ifvqhqg","pricing_plan_id":"free"},{"bike_id":"19cd95f7-dff2-4b5a-a245-aededa24213f","system_id":"levelo_inurba_marseille","lat":43.32821,"lon":5.3668,"is_reserved":false,"is_disabled":false,"rental_uris":{"android":"levelo://app?vid=19cd95f7-dff2-4b5a-a245-aededa24213f","ios":"levelo://app?vid=19cd95f7-dff2-4b5a-a245-aededa24213f"},"vehicle_type_id":"4","last_reported":1705219731,"current_range_meters":2400,"station_id":"ce4bhs92rcd13ifvqi0g","pricing_plan_id":"free"},{"bike_id":"320d6f85-ed2d-49a4-ade9-2a197a78cec0","system_id":"levelo_inurba_marseille","lat":43.32822,"lon":5.36691,"is_reserved":false,"is_disabled":false,"rental_uris":{"android":"levelo://app?vid=320d6f85-ed2d-49a4-ade9-2a197a78cec0","ios":"levelo://app?vid=320d6f85-ed2d-49a4-ade9-2a197a78cec0"},"vehicle_type_id":"4","last_reported":1705219731,"current_range_meters":28000,"station_id":"ce4bhs92rcd13ifvqi0g","pricing_plan_id":"free"},{"bike_id":"be5c14c2-d069-4824-b2b4-323fba6ab1b5","system_id":"levelo_inurba_marseille","lat":43.328236,"lon":5.366769,"is_reserved":false,"is_disabled":false,"rental_uris":{"android":"levelo://app?vid=be5c14c2-d069-4824-b2b4-323fba6ab1b5","ios":"levelo://app?vid=be5c14c2-d069-4824-b2b4-323fba6ab1b5"},"vehicle_type_id":"4","last_reported":1705219731,"current_range_meters":19600,"station_id":"ce4bhs92rcd13ifvqi0g","pricing_plan_id":"free"},{"bike_id":"b7f19553-caf3-42e9-85f2-de3629dabc8e","system_id":"levelo_inurba_marseille","lat":43.32824,"lon":5.36679,"is_reserved":false,"is_disabled":false,"rental_uris":{"android":"levelo://app?vid=b7f19553-caf3-42e9-85f2-de3629dabc8e","ios":"levelo://app?vid=b7f19553-caf3-42e9-85f2-de3629dabc8e"},"vehicle_type_id":"4","last_reported":1705219731,"current_range_meters":14800,"station_id":"ce4bhs92rcd13ifvqi0g","pricing_plan_id":"free"},{"bike_id":"eb82efee-7e46-4cef-a643-d731882b95f4","system_id":"levelo_inurba_marseille","lat":43.32824,"lon":5.36675,"is_reserved":false,"is_disabled":false,"rental_uris":{"android":"levelo://app?vid=eb82efee-7e46-4cef-a643-d731882b95f4","ios":"levelo://app?vid=eb82efee-7e46-4cef-a643-d731882b95f4"},"vehicle_type_id":"4","last_reported":1705219731,"current_range_meters":24800,"station_id":"ce4bhs92rcd13ifvqi0g","pricing_plan_id":"free"},{"bike_id":"546834d2-cf77-404f-94a2-ca0cd6e77634","system_id":"levelo_inurba_marseille","lat":43.32824,"lon":5.36674,"is_reserved":false,"is_disabled":false,"rental_uris":{"android":"levelo://app?vid=546834d2-cf77-404f-94a2-ca0cd6e77634","ios":"levelo://app?vid=546834d2-cf77-404f-94a2-ca0cd6e77634"},"vehicle_type_id":"4","last_reported":1705219731,"current_range_meters":8400,"station_id":"ce4bhs92rcd13ifvqi0g","pricing_plan_id":"free"},{"bike_id":"947a5c0b-0299-4cd2-aecd-5f351114aaf8","system_id":"levelo_inurba_marseille","lat":43.32825,"lon":5.36679,"is_reserved":false,"is_disabled":false,"rental_uris":{"android":"levelo://app?vid=947a5c0b-0299-4cd2-aecd-5f351114aaf8","ios":"levelo://app?vid=947a5c0b-0299-4cd2-aecd-5f351114aaf8"},"vehicle_type_id":"4","last_reported":1705219731,"current_range_meters":11200,"station_id":"ce4bhs92rcd13ifvqi0g","pricing_plan_id":"free"},{"bike_id":"679c367b-d108-4790-b497-4d8cd060fe27","system_id":"levelo_inurba_marseille","lat":43.32826,"lon":5.36679,"is_reserved":false,"is_disabled":false,"rental_uris":{"android":"levelo://app?vid=679c367b-d108-4790-b497-4d8cd060fe27","ios":"levelo://app?vid=679c367b-d108-4790-b497-4d8cd060fe27"},"vehicle_type_id":"4","last_reported":1705219731,"current_range_meters":14800,"station_id":"ce4bhs92rcd13ifvqi0g","pricing_plan_id":"free"},{"bike_id":"09621f87-561a-4138-9bcf-5568c59432a9","system_id":"levelo_inurba_marseille","lat":43.328268,"lon":5.366823,"is_reserved":false,"is_disabled":false,"rental_uris":{"android":"levelo://app?vid=09621f87-561a-4138-9bcf-5568c59432a9","ios":"levelo://app?vid=09621f87-561a-4138-9bcf-5568c59432a9"},"vehicle_type_id":"4","last_reported":1705219731,"current_range_meters":16000,"station_id":"ce4bhs92rcd13ifvqi0g","pricing_plan_id":"free"},{"bike_id":"50f4fc00-cc4b-496c-bc89-2f47ec063b56","system_id":"levelo_inurba_marseille","lat":43.32827,"lon":5.3668,"is_reserved":false,"is_disabled":false,"rental_uris":{"android":"levelo://app?vid=50f4fc00-cc4b-496c-bc89-2f47ec063b56","ios":"levelo://app?vid=50f4fc00-cc4b-496c-bc89-2f47ec063b56"},"vehicle_type_id":"4","last_reported":1705219731,"current_range_meters":24000,"station_id":"ce4bhs92rcd13ifvqi0g","pricing_plan_id":"free"},{"bike_id":"ebd1c3ae-d840-4cf1-b3ce-5dbd8e760142","system_id":"levelo_inurba_marseille","lat":43.32827,"lon":5.36675,"is_reserved":false,"is_disabled":false,"rental_uris":{"android":"levelo://app?vid=ebd1c3ae-d840-4cf1-b3ce-5dbd8e760142","ios":"levelo://app?vid=ebd1c3ae-d840-4cf1-b3ce-5dbd8e760142"},"vehicle_type_id":"4","last_reported":1705219731,"current_range_meters":5200,"station_id":"ce4bhs92rcd13ifvqi0g","pricing_plan_id":"free"},{"bike_id":"85cedcff-9e9a-415d-8415-195178ea3cb7","system_id":"levelo_inurba_marseille","lat":43.328271,"lon":5.366809,"is_reserved":false,"is_disabled":false,"rental_uris":{"android":"levelo://app?vid=85cedcff-9e9a-415d-8415-195178ea3cb7","ios":"levelo://app?vid=85cedcff-9e9a-415d-8415-195178ea3cb7"},"vehicle_type_id":"4","last_reported":1705219731,"current_range_meters":12800,"station_id":"ce4bhs92rcd13ifvqi0g","pricing_plan_id":"free"},{"bike_id":"9949c318-cd33-4e7f-93e5-9b978c57ddec","system_id":"levelo_inurba_marseille","lat":43.32828,"lon":5.36678,"is_reserved":false,"is_disabled":false,"rental_uris":{"android":"levelo://app?vid=9949c318-cd33-4e7f-93e5-9b978c57ddec","ios":"levelo://app?vid=9949c318-cd33-4e7f-93e5-9b978c57ddec"},"vehicle_type_id":"4","last_reported":1705219731,"current_range_meters":6800,"station_id":"ce4bhs92rcd13ifvqi0g","pricing_plan_id":"free"},{"bike_id":"00240506-f51a-4e5e-8e4b-da47fbef48ec","system_id":"levelo_inurba_marseille","lat":43.328285,"lon":5.366749,"is_reserved":false,"is_disabled":false,"rental_uris":{"android":"levelo://app?vid=00240506-f51a-4e5e-8e4b-da47fbef48ec","ios":"levelo://app?vid=00240506-f51a-4e5e-8e4b-da47fbef48ec"},"vehicle_type_id":"4","last_reported":1705219731,"current_range_meters":13600,"station_id":"ce4bhs92rcd13ifvqi0g","pricing_plan_id":"free"},{"bike_id":"d6e71fc0-c662-46a4-9ce2-a4da97cef68b","system_id":"levelo_inurba_marseille","lat":43.32829,"lon":5.36677,"is_reserved":false,"is_disabled":false,"rental_uris":{"android":"levelo://app?vid=d6e71fc0-c662-46a4-9ce2-a4da97cef68b","ios":"levelo://app?vid=d6e71fc0-c662-46a4-9ce2-a4da97cef68b"},"vehicle_type_id":"4","last_reported":1705219731,"current_range_meters":15600,"station_id":"ce4bhs92rcd13ifvqi0g","pricing_plan_id":"free"},{"bike_id":"51785b53-971f-47ea-99d3-e82178b1bd11","system_id":"levelo_inurba_marseille","lat":43.328293,"lon":5.366739,"is_reserved":false,"is_disabled":false,"rental_uris":{"android":"levelo://app?vid=51785b53-971f-47ea-99d3-e82178b1bd11","ios":"levelo://app?vid=51785b53-971f-47ea-99d3-e82178b1bd11"},"vehicle_type_id":"4","last_reported":1705219731,"current_range_meters":28800,"station_id":"ce4bhs92rcd13ifvqi0g","pricing_plan_id":"free"},{"bike_id":"3f1fe0f6-c408-40f5-9355-cdaa7a69ae2d","system_id":"levelo_inurba_marseille","lat":43.328298,"lon":5.366717,"is_reserved":false,"is_disabled":false,"rental_uris":{"android":"levelo://app?vid=3f1fe0f6-c408-40f5-9355-cdaa7a69ae2d","ios":"levelo://app?vid=3f1fe0f6-c408-40f5-9355-cdaa7a69ae2d"},"vehicle_type_id":"4","last_reported":1705219731,"current_range_meters":18400,"station_id":"ce4bhs92rcd13ifvqi0g","pricing_plan_id":"free"},{"bike_id":"ea0178f3-2c6b-4af6-b062-91b0b8dde1df","system_id":"levelo_inurba_marseille","lat":43.3283,"lon":5.36686,"is_reserved":false,"is_disabled":false,"rental_uris":{"android":"levelo://app?vid=ea0178f3-2c6b-4af6-b062-91b0b8dde1df","ios":"levelo://app?vid=ea0178f3-2c6b-4af6-b062-91b0b8dde1df"},"vehicle_type_id":"4","last_reported":1705219731,"current_range_meters":21600,"station_id":"ce4bhs92rcd13ifvqi0g","pricing_plan_id":"free"},{"bike_id":"e38d20ff-3711-42f9-8598-8b7af98ee7b5","system_id":"levelo_inurba_marseille","lat":43.328301,"lon":5.366747,"is_reserved":false,"is_disabled":false,"rental_uris":{"android":"levelo://app?vid=e38d20ff-3711-42f9-8598-8b7af98ee7b5","ios":"levelo://app?vid=e38d20ff-3711-42f9-8598-8b7af98ee7b5"},"vehicle_type_id":"4","last_reported":1705219731,"current_range_meters":16400,"station_id":"ce4bhs92rcd13ifvqi0g","pricing_plan_id":"free"},{"bike_id":"7fe7c15b-8d92-4599-97ec-55a5b88246d4","system_id":"levelo_inurba_marseille","lat":43.328312,"lon":5.366761,"is_reserved":false,"is_disabled":false,"rental_uris":{"android":"levelo://app?vid=7fe7c15b-8d92-4599-97ec-55a5b88246d4","ios":"levelo://app?vid=7fe7c15b-8d92-4599-97ec-55a5b88246d4"},"vehicle_type_id":"4","last_reported":1705219731,"current_range_meters":18400,"station_id":"ce4bhs92rcd13ifvqi0g","pricing_plan_id":"free"},{"bike_id":"9fbabc07-7e3e-4dc7-aad6-5f93ddb8699a","system_id":"levelo_inurba_marseille","lat":43.328332,"lon":5.366807,"is_reserved":false,"is_disabled":false,"rental_uris":{"android":"levelo://app?vid=9fbabc07-7e3e-4dc7-aad6-5f93ddb8699a","ios":"levelo://app?vid=9fbabc07-7e3e-4dc7-aad6-5f93ddb8699a"},"vehicle_type_id":"4","last_reported":1705219731,"current_range_meters":20800,"station_id":"ce4bhs92rcd13ifvqi0g","pricing_plan_id":"free"},{"bike_id":"38082c03-fac1-44d3-a79f-5142b4a113a9","system_id":"levelo_inurba_marseille","lat":43.328373,"lon":5.366902,"is_reserved":false,"is_disabled":false,"rental_uris":{"android":"levelo://app?vid=38082c03-fac1-44d3-a79f-5142b4a113a9","ios":"levelo://app?vid=38082c03-fac1-44d3-a79f-5142b4a113a9"},"vehicle_type_id":"4","last_reported":1705219731,"current_range_meters":10400,"station_id":"ce4bhs92rcd13ifvqi0g","pricing_plan_id":"free"},{"bike_id":"8040a867-5cbb-4bb1-afd7-6decd4ac1ac7","system_id":"levelo_inurba_marseille","lat":43.297103,"lon":5.366122,"is_reserved":false,"is_disabled":false,"rental_uris":{"android":"levelo://app?vid=8040a867-5cbb-4bb1-afd7-6decd4ac1ac7","ios":"levelo://app?vid=8040a867-5cbb-4bb1-afd7-6decd4ac1ac7"},"vehicle_type_id":"4","last_reported":1705219731,"current_range_meters":0,"station_id":"ce4bgn12rcd13ifvqbt0","pricing_plan_id":"free"},{"bike_id":"9b90f176-493f-433d-8ddb-cc3df2727c0d","system_id":"levelo_inurba_marseille","lat":43.297163,"lon":5.365866,"is_reserved":false,"is_disabled":false,"rental_uris":{"android":"levelo://app?vid=9b90f176-493f-433d-8ddb-cc3df2727c0d","ios":"levelo://app?vid=9b90f176-493f-433d-8ddb-cc3df2727c0d"},"vehicle_type_id":"4","last_reported":1705219731,"current_range_meters":22800,"station_id":"ce4bgn12rcd13ifvqbt0","pricing_plan_id":"free"},{"bike_id":"2ca0136f-4010-4477-9ca7-2ffb6e7a20a1","system_id":"levelo_inurba_marseille","lat":43.296131,"lon":5.370773,"is_reserved":false,"is_disabled":false,"rental_uris":{"android":"levelo://app?vid=2ca0136f-4010-4477-9ca7-2ffb6e7a20a1","ios":"levelo://app?vid=2ca0136f-4010-4477-9ca7-2ffb6e7a20a1"},"vehicle_type_id":"4","last_reported":1705219731,"current_range_meters":4800,"station_id":"ce4bgnh2rcd13ifvqc0g","pricing_plan_id":"free"},{"bike_id":"829a73ce-bcf5-451f-9e1b-9213bfbbf873","system_id":"levelo_inurba_marseille","lat":43.296131,"lon":5.370773,"is_reserved":false,"is_disabled":false,"rental_uris":{"android":"levelo://app?vid=829a73ce-bcf5-451f-9e1b-9213bfbbf873","ios":"levelo://app?vid=829a73ce-bcf5-451f-9e1b-9213bfbbf873"},"vehicle_type_id":"4","last_reported":1705219731,"current_range_meters":7200,"station_id":"ce4bgnh2rcd13ifvqc0g","pricing_plan_id":"free"},{"bike_id":"ac490859-02b7-4b03-9f67-e3eea17c60df","system_id":"levelo_inurba_marseille","lat":43.296935,"lon":5.376544,"is_reserved":false,"is_disabled":false,"rental_uris":{"android":"levelo://app?vid=ac490859-02b7-4b03-9f67-e3eea17c60df","ios":"levelo://app?vid=ac490859-02b7-4b03-9f67-e3eea17c60df"},"vehicle_type_id":"4","last_reported":1705219731,"current_range_meters":31200,"station_id":"ce4bgkh2rcd13ifvqbl0","pricing_plan_id":"free"},{"bike_id":"a41faf70-d3c4-4f1e-8c2f-78b816d5b904","system_id":"levelo_inurba_marseille","lat":43.296921,"lon":5.376579,"is_reserved":false,"is_disabled":false,"rental_uris":{"android":"levelo://app?vid=a41faf70-d3c4-4f1e-8c2f-78b816d5b904","ios":"levelo://app?vid=a41faf70-d3c4-4f1e-8c2f-78b816d5b904"},"vehicle_type_id":"4","last_reported":1705219731,"current_range_meters":26800,"station_id":"ce4bgkh2rcd13ifvqbl0","pricing_plan_id":"free"},{"bike_id":"859a5532-ea33-4616-8e59-d62993ea35cf","system_id":"levelo_inurba_marseille","lat":43.296935,"lon":5.376544,"is_reserved":false,"is_disabled":false,"rental_uris":{"android":"levelo://app?vid=859a5532-ea33-4616-8e59-d62993ea35cf","ios":"levelo://app?vid=859a5532-ea33-4616-8e59-d62993ea35cf"},"vehicle_type_id":"4","last_reported":1705219731,"current_range_meters":28800,"station_id":"ce4bgkh2rcd13ifvqbl0","pricing_plan_id":"free"},{"bike_id":"cb4bbf2d-1efc-4895-b774-b7dd69d08521","system_id":"levelo_inurba_marseille","lat":43.299202,"lon":5.381513,"is_reserved":false,"is_disabled":false,"rental_uris":{"android":"levelo://app?vid=cb4bbf2d-1efc-4895-b774-b7dd69d08521","ios":"levelo://app?vid=cb4bbf2d-1efc-4895-b774-b7dd69d08521"},"vehicle_type_id":"4","last_reported":1705219731,"current_range_meters":0,"station_id":"","pricing_plan_id":"free"},{"bike_id":"b3a2b819-e660-40cf-be37-2930a92ed61b","system_id":"levelo_inurba_marseille","lat":43.299028,"lon":5.381509,"is_reserved":false,"is_disabled":false,"rental_uris":{"android":"levelo://app?vid=b3a2b819-e660-40cf-be37-2930a92ed61b","ios":"levelo://app?vid=b3a2b819-e660-40cf-be37-2930a92ed61b"},"vehicle_type_id":"4","last_reported":1705219731,"current_range_meters":23200,"station_id":"ce4bgj12rcd13ifvqbc0","pricing_plan_id":"free"},{"bike_id":"0c291a0a-c3f9-4026-a286-4b07d70d9500","system_id":"levelo_inurba_marseille","lat":43.309589,"lon":5.390258,"is_reserved":false,"is_disabled":false,"rental_uris":{"android":"levelo://app?vid=0c291a0a-c3f9-4026-a286-4b07d70d9500","ios":"levelo://app?vid=0c291a0a-c3f9-4026-a286-4b07d70d9500"},"vehicle_type_id":"4","last_reported":1705219731,"current_range_meters":28000,"station_id":"ce4bgup2rcd13ifvqco0","pricing_plan_id":"free"},{"bike_id":"b85e10cc-9222-4aed-a7f7-fa54ddee2633","system_id":"levelo_inurba_marseille","lat":43.299028,"lon":5.381509,"is_reserved":false,"is_disabled":false,"rental_uris":{"android":"levelo://app?vid=b85e10cc-9222-4aed-a7f7-fa54ddee2633","ios":"levelo://app?vid=b85e10cc-9222-4aed-a7f7-fa54ddee2633"},"vehicle_type_id":"4","last_reported":1705219731,"current_range_meters":30000,"station_id":"ce4bgj12rcd13ifvqbc0","pricing_plan_id":"free"},{"bike_id":"b8e0b136-0dd1-4bae-8aa2-8a62c10c3dbe","system_id":"levelo_inurba_marseille","lat":43.317557,"lon":5.390173,"is_reserved":false,"is_disabled":false,"rental_uris":{"android":"levelo://app?vid=b8e0b136-0dd1-4bae-8aa2-8a62c10c3dbe","ios":"levelo://app?vid=b8e0b136-0dd1-4bae-8aa2-8a62c10c3dbe"},"vehicle_type_id":"4","last_reported":1705219731,"current_range_meters":16800,"station_id":"ce4bhqp2rcd13ifvqhng","pricing_plan_id":"free"},{"bike_id":"e46a1dd7-60d2-4c8a-946e-1345ad0d3496","system_id":"levelo_inurba_marseille","lat":43.317557,"lon":5.390173,"is_reserved":false,"is_disabled":false,"rental_uris":{"android":"levelo://app?vid=e46a1dd7-60d2-4c8a-946e-1345ad0d3496","ios":"levelo://app?vid=e46a1dd7-60d2-4c8a-946e-1345ad0d3496"},"vehicle_type_id":"4","last_reported":1705219731,"current_range_meters":15200,"station_id":"ce4bhqp2rcd13ifvqhng","pricing_plan_id":"free"},{"bike_id":"c2d0e25a-0b1c-47ac-8e3e-cfb4f272824b","system_id":"levelo_inurba_marseille","lat":43.317557,"lon":5.390173,"is_reserved":false,"is_disabled":false,"rental_uris":{"android":"levelo://app?vid=c2d0e25a-0b1c-47ac-8e3e-cfb4f272824b","ios":"levelo://app?vid=c2d0e25a-0b1c-47ac-8e3e-cfb4f272824b"},"vehicle_type_id":"4","last_reported":1705219731,"current_range_meters":3600,"station_id":"ce4bhqp2rcd13ifvqhng","pricing_plan_id":"free"},{"bike_id":"23b40fd2-7366-4c01-8ee8-6ee58ebc81ac","system_id":"levelo_inurba_marseille","lat":43.317557,"lon":5.390173,"is_reserved":false,"is_disabled":false,"rental_uris":{"android":"levelo://app?vid=23b40fd2-7366-4c01-8ee8-6ee58ebc81ac","ios":"levelo://app?vid=23b40fd2-7366-4c01-8ee8-6ee58ebc81ac"},"vehicle_type_id":"4","last_reported":1705219731,"current_range_meters":31200,"station_id":"ce4bhqp2rcd13ifvqhng","pricing_plan_id":"free"},{"bike_id":"92f88198-9cf3-4bc6-a008-aa2a99af1ea5","system_id":"levelo_inurba_marseille","lat":43.317557,"lon":5.390173,"is_reserved":false,"is_disabled":false,"rental_uris":{"android":"levelo://app?vid=92f88198-9cf3-4bc6-a008-aa2a99af1ea5","ios":"levelo://app?vid=92f88198-9cf3-4bc6-a008-aa2a99af1ea5"},"vehicle_type_id":"4","last_reported":1705219731,"current_range_meters":3600,"station_id":"ce4bhqp2rcd13ifvqhng","pricing_plan_id":"free"},{"bike_id":"5f020c32-3e84-4065-b9ba-a4a4b563c7ae","system_id":"levelo_inurba_marseille","lat":43.317557,"lon":5.390173,"is_reserved":false,"is_disabled":false,"rental_uris":{"android":"levelo://app?vid=5f020c32-3e84-4065-b9ba-a4a4b563c7ae","ios":"levelo://app?vid=5f020c32-3e84-4065-b9ba-a4a4b563c7ae"},"vehicle_type_id":"4","last_reported":1705219731,"current_range_meters":29600,"station_id":"ce4bhqp2rcd13ifvqhng","pricing_plan_id":"free"},{"bike_id":"cd2404be-a0de-4b3a-bd07-0c54dd03792e","system_id":"levelo_inurba_marseille","lat":43.295748,"lon":5.37522,"is_reserved":false,"is_disabled":false,"rental_uris":{"android":"levelo://app?vid=cd2404be-a0de-4b3a-bd07-0c54dd03792e","ios":"levelo://app?vid=cd2404be-a0de-4b3a-bd07-0c54dd03792e"},"vehicle_type_id":"4","last_reported":1705219731,"current_range_meters":23600,"station_id":"ce4bgh92rcd13ifvqb50","pricing_plan_id":"free"},{"bike_id":"e1e830d2-b100-4c4b-9a94-ed8a7be74a68","system_id":"levelo_inurba_marseille","lat":43.295748,"lon":5.37522,"is_reserved":false,"is_disabled":false,"rental_uris":{"android":"levelo://app?vid=e1e830d2-b100-4c4b-9a94-ed8a7be74a68","ios":"levelo://app?vid=e1e830d2-b100-4c4b-9a94-ed8a7be74a68"},"vehicle_type_id":"4","last_reported":1705219731,"current_range_meters":28000,"station_id":"ce4bgh92rcd13ifvqb50","pricing_plan_id":"free"},{"bike_id":"d655e3eb-c1d4-447e-93bf-538fff9739df","system_id":"levelo_inurba_marseille","lat":43.298037,"lon":5.381066,"is_reserved":false,"is_disabled":false,"rental_uris":{"android":"levelo://app?vid=d655e3eb-c1d4-447e-93bf-538fff9739df","ios":"levelo://app?vid=d655e3eb-c1d4-447e-93bf-538fff9739df"},"vehicle_type_id":"4","last_reported":1705219731,"current_range_meters":28000,"station_id":"ce4bgip2rcd13ifvqbb0","pricing_plan_id":"free"},{"bike_id":"8132a110-4cfb-4cf5-8042-f2b05e45c7e8","system_id":"levelo_inurba_marseille","lat":43.295748,"lon":5.37522,"is_reserved":false,"is_disabled":false,"rental_uris":{"android":"levelo://app?vid=8132a110-4cfb-4cf5-8042-f2b05e45c7e8","ios":"levelo://app?vid=8132a110-4cfb-4cf5-8042-f2b05e45c7e8"},"vehicle_type_id":"4","last_reported":1705219731,"current_range_meters":25600,"station_id":"ce4bgh92rcd13ifvqb50","pricing_plan_id":"free"},{"bike_id":"b72561b9-a3f7-4034-a3bf-9d68984f1712","system_id":"levelo_inurba_marseille","lat":43.295748,"lon":5.37522,"is_reserved":false,"is_disabled":false,"rental_uris":{"android":"levelo://app?vid=b72561b9-a3f7-4034-a3bf-9d68984f1712","ios":"levelo://app?vid=b72561b9-a3f7-4034-a3bf-9d68984f1712"},"vehicle_type_id":"4","last_reported":1705219731,"current_range_meters":31600,"station_id":"ce4bgh92rcd13ifvqb50","pricing_plan_id":"free"},{"bike_id":"56c3c067-0acc-485a-ac8c-fd9aa47cbccb","system_id":"levelo_inurba_marseille","lat":43.304448,"lon":5.388884,"is_reserved":false,"is_disabled":false,"rental_uris":{"android":"levelo://app?vid=56c3c067-0acc-485a-ac8c-fd9aa47cbccb","ios":"levelo://app?vid=56c3c067-0acc-485a-ac8c-fd9aa47cbccb"},"vehicle_type_id":"4","last_reported":1705219731,"current_range_meters":19200,"station_id":"ce4bgk12rcd13ifvqbi0","pricing_plan_id":"free"},{"bike_id":"30898ba3-30c4-4cdd-9a3b-50a346b8d56c","system_id":"levelo_inurba_marseille","lat":43.304274,"lon":5.388873,"is_reserved":false,"is_disabled":false,"rental_uris":{"android":"levelo://app?vid=30898ba3-30c4-4cdd-9a3b-50a346b8d56c","ios":"levelo://app?vid=30898ba3-30c4-4cdd-9a3b-50a346b8d56c"},"vehicle_type_id":"4","last_reported":1705219731,"current_range_meters":16800,"station_id":"ce4bgk12rcd13ifvqbi0","pricing_plan_id":"free"},{"bike_id":"219e96b6-cf07-4245-809b-dc3faabd4c95","system_id":"levelo_inurba_marseille","lat":43.298037,"lon":5.381066,"is_reserved":false,"is_disabled":false,"rental_uris":{"android":"levelo://app?vid=219e96b6-cf07-4245-809b-dc3faabd4c95","ios":"levelo://app?vid=219e96b6-cf07-4245-809b-dc3faabd4c95"},"vehicle_type_id":"4","last_reported":1705219731,"current_range_meters":28000,"station_id":"ce4bgip2rcd13ifvqbb0","pricing_plan_id":"free"},{"bike_id":"ad57a0cc-bba1-4c76-955c-31d7ad8c4760","system_id":"levelo_inurba_marseille","lat":43.295748,"lon":5.37522,"is_reserved":false,"is_disabled":false,"rental_uris":{"android":"levelo://app?vid=ad57a0cc-bba1-4c76-955c-31d7ad8c4760","ios":"levelo://app?vid=ad57a0cc-bba1-4c76-955c-31d7ad8c4760"},"vehicle_type_id":"4","last_reported":1705219731,"current_range_meters":6400,"station_id":"ce4bgh92rcd13ifvqb50","pricing_plan_id":"free"},{"bike_id":"896b200e-00fa-4588-8a61-45cf2c584c0c","system_id":"levelo_inurba_marseille","lat":43.295748,"lon":5.37522,"is_reserved":false,"is_disabled":false,"rental_uris":{"android":"levelo://app?vid=896b200e-00fa-4588-8a61-45cf2c584c0c","ios":"levelo://app?vid=896b200e-00fa-4588-8a61-45cf2c584c0c"},"vehicle_type_id":"4","last_reported":1705219731,"current_range_meters":30800,"station_id":"ce4bgh92rcd13ifvqb50","pricing_plan_id":"free"},{"bike_id":"01a834ba-2f03-443e-b881-dc76826e7419","system_id":"levelo_inurba_marseille","lat":43.296263,"lon":5.377094,"is_reserved":false,"is_disabled":false,"rental_uris":{"android":"levelo://app?vid=01a834ba-2f03-443e-b881-dc76826e7419","ios":"levelo://app?vid=01a834ba-2f03-443e-b881-dc76826e7419"},"vehicle_type_id":"4","last_reported":1705219731,"current_range_meters":27600,"station_id":"ce4bgi92rcd13ifvqb90","pricing_plan_id":"free"},{"bike_id":"9759908a-81bc-4298-be2a-3a8013fdd32e","system_id":"levelo_inurba_marseille","lat":43.296263,"lon":5.377094,"is_reserved":false,"is_disabled":false,"rental_uris":{"android":"levelo://app?vid=9759908a-81bc-4298-be2a-3a8013fdd32e","ios":"levelo://app?vid=9759908a-81bc-4298-be2a-3a8013fdd32e"},"vehicle_type_id":"4","last_reported":1705219731,"current_range_meters":31200,"station_id":"ce4bgi92rcd13ifvqb90","pricing_plan_id":"free"},{"bike_id":"30c32a3e-b73b-4dda-9754-e483a773f84d","system_id":"levelo_inurba_marseille","lat":43.296263,"lon":5.377094,"is_reserved":false,"is_disabled":false,"rental_uris":{"android":"levelo://app?vid=30c32a3e-b73b-4dda-9754-e483a773f84d","ios":"levelo://app?vid=30c32a3e-b73b-4dda-9754-e483a773f84d"},"vehicle_type_id":"4","last_reported":1705219731,"current_range_meters":24000,"station_id":"ce4bgi92rcd13ifvqb90","pricing_plan_id":"free"},{"bike_id":"b8ac6992-476f-4677-b56e-8df35b446cb7","system_id":"levelo_inurba_marseille","lat":43.296263,"lon":5.377094,"is_reserved":false,"is_disabled":false,"rental_uris":{"android":"levelo://app?vid=b8ac6992-476f-4677-b56e-8df35b446cb7","ios":"levelo://app?vid=b8ac6992-476f-4677-b56e-8df35b446cb7"},"vehicle_type_id":"4","last_reported":1705219731,"current_range_meters":31200,"station_id":"ce4bgi92rcd13ifvqb90","pricing_plan_id":"free"},{"bike_id":"750f9c7f-b5de-429b-b8c4-cb40b2ea0a16","system_id":"levelo_inurba_marseille","lat":43.28727,"lon":5.36078,"is_reserved":false,"is_disabled":false,"rental_uris":{"android":"levelo://app?vid=750f9c7f-b5de-429b-b8c4-cb40b2ea0a16","ios":"levelo://app?vid=750f9c7f-b5de-429b-b8c4-cb40b2ea0a16"},"vehicle_type_id":"4","last_reported":1705219731,"current_range_meters":25200,"station_id":"cki0cbj6b192h4jlfktg","pricing_plan_id":"free"},{"bike_id":"a90a7427-8db0-433c-81f9-11a31b1edf13","system_id":"levelo_inurba_marseille","lat":43.295279,"lon":5.375048,"is_reserved":false,"is_disabled":false,"rental_uris":{"android":"levelo://app?vid=a90a7427-8db0-433c-81f9-11a31b1edf13","ios":"levelo://app?vid=a90a7427-8db0-433c-81f9-11a31b1edf13"},"vehicle_type_id":"4","last_reported":1705219731,"current_range_meters":17200,"station_id":"ce4bgkp2rcd13ifvqbmg","pricing_plan_id":"free"},{"bike_id":"9ef34ee9-818b-42f5-90d3-d39261eca725","system_id":"levelo_inurba_marseille","lat":43.299724,"lon":5.384848,"is_reserved":false,"is_disabled":false,"rental_uris":{"android":"levelo://app?vid=9ef34ee9-818b-42f5-90d3-d39261eca725","ios":"levelo://app?vid=9ef34ee9-818b-42f5-90d3-d39261eca725"},"vehicle_type_id":"4","last_reported":1705219731,"current_range_meters":22000,"station_id":"ce4bgj92rcd13ifvqbd0","pricing_plan_id":"free"},{"bike_id":"a81ac0d4-81c8-4427-9961-eaebfed92067","system_id":"levelo_inurba_marseille","lat":43.32367,"lon":5.388836,"is_reserved":false,"is_disabled":false,"rental_uris":{"android":"levelo://app?vid=a81ac0d4-81c8-4427-9961-eaebfed92067","ios":"levelo://app?vid=a81ac0d4-81c8-4427-9961-eaebfed92067"},"vehicle_type_id":"4","last_reported":1705219731,"current_range_meters":10400,"station_id":"ce4bhqp2rcd13ifvqhog","pricing_plan_id":"free"},{"bike_id":"e95985b1-3cc4-478a-8235-ff14dbdc702c","system_id":"levelo_inurba_marseille","lat":43.32367,"lon":5.388836,"is_reserved":false,"is_disabled":false,"rental_uris":{"android":"levelo://app?vid=e95985b1-3cc4-478a-8235-ff14dbdc702c","ios":"levelo://app?vid=e95985b1-3cc4-478a-8235-ff14dbdc702c"},"vehicle_type_id":"4","last_reported":1705219731,"current_range_meters":14800,"station_id":"ce4bhqp2rcd13ifvqhog","pricing_plan_id":"free"},{"bike_id":"770e4ada-e84e-492c-abc8-cd2fc57f2334","system_id":"levelo_inurba_marseille","lat":43.32367,"lon":5.388836,"is_reserved":false,"is_disabled":false,"rental_uris":{"android":"levelo://app?vid=770e4ada-e84e-492c-abc8-cd2fc57f2334","ios":"levelo://app?vid=770e4ada-e84e-492c-abc8-cd2fc57f2334"},"vehicle_type_id":"4","last_reported":1705219731,"current_range_meters":11200,"station_id":"ce4bhqp2rcd13ifvqhog","pricing_plan_id":"free"},{"bike_id":"35bbf111-e320-4deb-b98f-a53b2f65b4c7","system_id":"levelo_inurba_marseille","lat":43.29602,"lon":5.381084,"is_reserved":false,"is_disabled":false,"rental_uris":{"android":"levelo://app?vid=35bbf111-e320-4deb-b98f-a53b2f65b4c7","ios":"levelo://app?vid=35bbf111-e320-4deb-b98f-a53b2f65b4c7"},"vehicle_type_id":"4","last_reported":1705219731,"current_range_meters":15200,"station_id":"ce4bgl12rcd13ifvqbo0","pricing_plan_id":"free"},{"bike_id":"5c5b33b9-65f2-4a5f-8ba9-ccbffca08f84","system_id":"levelo_inurba_marseille","lat":43.29601,"lon":5.381084,"is_reserved":false,"is_disabled":false,"rental_uris":{"android":"levelo://app?vid=5c5b33b9-65f2-4a5f-8ba9-ccbffca08f84","ios":"levelo://app?vid=5c5b33b9-65f2-4a5f-8ba9-ccbffca08f84"},"vehicle_type_id":"4","last_reported":1705219731,"current_range_meters":28000,"station_id":"ce4bgl12rcd13ifvqbo0","pricing_plan_id":"free"},{"bike_id":"c336ef6c-ea36-423a-b798-296d3f28e6b1","system_id":"levelo_inurba_marseille","lat":43.293259,"lon":5.371586,"is_reserved":false,"is_disabled":false,"rental_uris":{"android":"levelo://app?vid=c336ef6c-ea36-423a-b798-296d3f28e6b1","ios":"levelo://app?vid=c336ef6c-ea36-423a-b798-296d3f28e6b1"},"vehicle_type_id":"4","last_reported":1705219731,"current_range_meters":24000,"station_id":"ce4bgh92rcd13ifvqb40","pricing_plan_id":"free"},{"bike_id":"9ad5d4c1-413c-4637-baa7-b7de48facf0e","system_id":"levelo_inurba_marseille","lat":43.293259,"lon":5.371586,"is_reserved":false,"is_disabled":false,"rental_uris":{"android":"levelo://app?vid=9ad5d4c1-413c-4637-baa7-b7de48facf0e","ios":"levelo://app?vid=9ad5d4c1-413c-4637-baa7-b7de48facf0e"},"vehicle_type_id":"4","last_reported":1705219731,"current_range_meters":22800,"station_id":"ce4bgh92rcd13ifvqb40","pricing_plan_id":"free"},{"bike_id":"8dad98ee-8107-468d-8947-78436d45146b","system_id":"levelo_inurba_marseille","lat":43.292749,"lon":5.368402,"is_reserved":false,"is_disabled":false,"rental_uris":{"android":"levelo://app?vid=8dad98ee-8107-468d-8947-78436d45146b","ios":"levelo://app?vid=8dad98ee-8107-468d-8947-78436d45146b"},"vehicle_type_id":"4","last_reported":1705219731,"current_range_meters":0,"station_id":"ce4bhbp2rcd13ifvqesg","pricing_plan_id":"free"},{"bike_id":"204905c2-9bda-4293-bc78-6aa29b668f20","system_id":"levelo_inurba_marseille","lat":43.29275,"lon":5.36845,"is_reserved":false,"is_disabled":false,"rental_uris":{"android":"levelo://app?vid=204905c2-9bda-4293-bc78-6aa29b668f20","ios":"levelo://app?vid=204905c2-9bda-4293-bc78-6aa29b668f20"},"vehicle_type_id":"4","last_reported":1705219731,"current_range_meters":28000,"station_id":"","pricing_plan_id":"free"},{"bike_id":"296f2fc0-0e22-442f-8117-71583bce82a7","system_id":"levelo_inurba_marseille","lat":43.29295,"lon":5.37457,"is_reserved":false,"is_disabled":false,"rental_uris":{"android":"levelo://app?vid=296f2fc0-0e22-442f-8117-71583bce82a7","ios":"levelo://app?vid=296f2fc0-0e22-442f-8117-71583bce82a7"},"vehicle_type_id":"4","last_reported":1705219731,"current_range_meters":26000,"station_id":"ce4bgi12rcd13ifvqb70","pricing_plan_id":"free"},{"bike_id":"d75bc006-d28e-4e27-b660-9f738472c04e","system_id":"levelo_inurba_marseille","lat":43.303002,"lon":5.392142,"is_reserved":false,"is_disabled":false,"rental_uris":{"android":"levelo://app?vid=d75bc006-d28e-4e27-b660-9f738472c04e","ios":"levelo://app?vid=d75bc006-d28e-4e27-b660-9f738472c04e"},"vehicle_type_id":"4","last_reported":1705219731,"current_range_meters":13200,"station_id":"ce4bgkh2rcd13ifvqbk0","pricing_plan_id":"free"},{"bike_id":"f5b8179a-6dd4-465b-8298-2ce0d90f3cd2","system_id":"levelo_inurba_marseille","lat":43.292311,"lon":5.360731,"is_reserved":false,"is_disabled":false,"rental_uris":{"android":"levelo://app?vid=f5b8179a-6dd4-465b-8298-2ce0d90f3cd2","ios":"levelo://app?vid=f5b8179a-6dd4-465b-8298-2ce0d90f3cd2"},"vehicle_type_id":"4","last_reported":1705219731,"current_range_meters":23200,"station_id":"ce4bhbh2rcd13ifvqeqg","pricing_plan_id":"free"},{"bike_id":"20be856e-725f-46e3-8c88-e16b25b04a50","system_id":"levelo_inurba_marseille","lat":43.292311,"lon":5.360731,"is_reserved":false,"is_disabled":false,"rental_uris":{"android":"levelo://app?vid=20be856e-725f-46e3-8c88-e16b25b04a50","ios":"levelo://app?vid=20be856e-725f-46e3-8c88-e16b25b04a50"},"vehicle_type_id":"4","last_reported":1705219731,"current_range_meters":29200,"station_id":"ce4bhbh2rcd13ifvqeqg","pricing_plan_id":"free"},{"bike_id":"52d888a2-d586-4300-829b-b13c6865ed2a","system_id":"levelo_inurba_marseille","lat":43.291675,"lon":5.371583,"is_reserved":false,"is_disabled":false,"rental_uris":{"android":"levelo://app?vid=52d888a2-d586-4300-829b-b13c6865ed2a","ios":"levelo://app?vid=52d888a2-d586-4300-829b-b13c6865ed2a"},"vehicle_type_id":"4","last_reported":1705219731,"current_range_meters":28400,"station_id":"ce4bha92rcd13ifvqeh0","pricing_plan_id":"free"},{"bike_id":"18727f9a-a8e6-4872-a12f-890692424096","system_id":"levelo_inurba_marseille","lat":43.29864,"lon":5.389089,"is_reserved":false,"is_disabled":false,"rental_uris":{"android":"levelo://app?vid=18727f9a-a8e6-4872-a12f-890692424096","ios":"levelo://app?vid=18727f9a-a8e6-4872-a12f-890692424096"},"vehicle_type_id":"4","last_reported":1705219731,"current_range_meters":23600,"station_id":"","pricing_plan_id":"free"},{"bike_id":"311b1b4c-8fe8-4bdf-b72c-041c5a74208e","system_id":"levelo_inurba_marseille","lat":43.291994,"lon":5.357886,"is_reserved":false,"is_disabled":false,"rental_uris":{"android":"levelo://app?vid=311b1b4c-8fe8-4bdf-b72c-041c5a74208e","ios":"levelo://app?vid=311b1b4c-8fe8-4bdf-b72c-041c5a74208e"},"vehicle_type_id":"4","last_reported":1705219731,"current_range_meters":10800,"station_id":"ce4bhb12rcd13ifvqel0","pricing_plan_id":"free"},{"bike_id":"05211583-c467-417e-b96e-47530792ebbc","system_id":"levelo_inurba_marseille","lat":43.31328,"lon":5.39687,"is_reserved":false,"is_disabled":false,"rental_uris":{"android":"levelo://app?vid=05211583-c467-417e-b96e-47530792ebbc","ios":"levelo://app?vid=05211583-c467-417e-b96e-47530792ebbc"},"vehicle_type_id":"4","last_reported":1705219731,"current_range_meters":800,"station_id":"ce4bgvp2rcd13ifvqcu0","pricing_plan_id":"free"},{"bike_id":"88cbc6ab-9434-49a1-8f3b-be03df76aa1f","system_id":"levelo_inurba_marseille","lat":43.313291,"lon":5.396838,"is_reserved":false,"is_disabled":false,"rental_uris":{"android":"levelo://app?vid=88cbc6ab-9434-49a1-8f3b-be03df76aa1f","ios":"levelo://app?vid=88cbc6ab-9434-49a1-8f3b-be03df76aa1f"},"vehicle_type_id":"4","last_reported":1705219731,"current_range_meters":23200,"station_id":"ce4bgvp2rcd13ifvqcu0","pricing_plan_id":"free"},{"bike_id":"d3d8feda-1762-4ae3-84b7-7eae388b54b2","system_id":"levelo_inurba_marseille","lat":43.313291,"lon":5.396838,"is_reserved":false,"is_disabled":false,"rental_uris":{"android":"levelo://app?vid=d3d8feda-1762-4ae3-84b7-7eae388b54b2","ios":"levelo://app?vid=d3d8feda-1762-4ae3-84b7-7eae388b54b2"},"vehicle_type_id":"4","last_reported":1705219731,"current_range_meters":27200,"station_id":"ce4bgvp2rcd13ifvqcu0","pricing_plan_id":"free"},{"bike_id":"3426b325-a9ef-4f94-8f0d-a1be0d5c049e","system_id":"levelo_inurba_marseille","lat":43.291994,"lon":5.357886,"is_reserved":false,"is_disabled":false,"rental_uris":{"android":"levelo://app?vid=3426b325-a9ef-4f94-8f0d-a1be0d5c049e","ios":"levelo://app?vid=3426b325-a9ef-4f94-8f0d-a1be0d5c049e"},"vehicle_type_id":"4","last_reported":1705219731,"current_range_meters":800,"station_id":"ce4bhb12rcd13ifvqel0","pricing_plan_id":"free"},{"bike_id":"72839dbf-858e-4652-91b6-648c6a72c6a6","system_id":"levelo_inurba_marseille","lat":43.313291,"lon":5.396838,"is_reserved":false,"is_disabled":false,"rental_uris":{"android":"levelo://app?vid=72839dbf-858e-4652-91b6-648c6a72c6a6","ios":"levelo://app?vid=72839dbf-858e-4652-91b6-648c6a72c6a6"},"vehicle_type_id":"4","last_reported":1705219731,"current_range_meters":24400,"station_id":"ce4bgvp2rcd13ifvqcu0","pricing_plan_id":"free"},{"bike_id":"efd90755-d563-4478-878c-5b561098bccb","system_id":"levelo_inurba_marseille","lat":43.31327,"lon":5.39693,"is_reserved":false,"is_disabled":false,"rental_uris":{"android":"levelo://app?vid=efd90755-d563-4478-878c-5b561098bccb","ios":"levelo://app?vid=efd90755-d563-4478-878c-5b561098bccb"},"vehicle_type_id":"4","last_reported":1705219731,"current_range_meters":7200,"station_id":"ce4bgvp2rcd13ifvqcu0","pricing_plan_id":"free"},{"bike_id":"7bb49666-0f57-4a02-9f13-59efe1dced31","system_id":"levelo_inurba_marseille","lat":43.313291,"lon":5.396838,"is_reserved":false,"is_disabled":false,"rental_uris":{"android":"levelo://app?vid=7bb49666-0f57-4a02-9f13-59efe1dced31","ios":"levelo://app?vid=7bb49666-0f57-4a02-9f13-59efe1dced31"},"vehicle_type_id":"4","last_reported":1705219731,"current_range_meters":27200,"station_id":"ce4bgvp2rcd13ifvqcu0","pricing_plan_id":"free"},{"bike_id":"ea7385af-3127-4f8d-82d2-b1a9b59b1eb4","system_id":"levelo_inurba_marseille","lat":43.313291,"lon":5.396838,"is_reserved":false,"is_disabled":false,"rental_uris":{"android":"levelo://app?vid=ea7385af-3127-4f8d-82d2-b1a9b59b1eb4","ios":"levelo://app?vid=ea7385af-3127-4f8d-82d2-b1a9b59b1eb4"},"vehicle_type_id":"4","last_reported":1705219731,"current_range_meters":29600,"station_id":"ce4bgvp2rcd13ifvqcu0","pricing_plan_id":"free"},{"bike_id":"4ea78319-9206-48bc-b62c-29f98552a891","system_id":"levelo_inurba_marseille","lat":43.313291,"lon":5.396838,"is_reserved":false,"is_disabled":false,"rental_uris":{"android":"levelo://app?vid=4ea78319-9206-48bc-b62c-29f98552a891","ios":"levelo://app?vid=4ea78319-9206-48bc-b62c-29f98552a891"},"vehicle_type_id":"4","last_reported":1705219731,"current_range_meters":28800,"station_id":"ce4bgvp2rcd13ifvqcu0","pricing_plan_id":"free"},{"bike_id":"fb3c827d-8819-445b-949a-0598c4625828","system_id":"levelo_inurba_marseille","lat":43.2607,"lon":5.393983,"is_reserved":false,"is_disabled":false,"rental_uris":{"android":"levelo://app?vid=fb3c827d-8819-445b-949a-0598c4625828","ios":"levelo://app?vid=fb3c827d-8819-445b-949a-0598c4625828"},"vehicle_type_id":"4","last_reported":1705219731,"current_range_meters":26000,"station_id":"ce4bhh92rcd13ifvqfj0","pricing_plan_id":"free"},{"bike_id":"df611aca-2a2d-408f-aef6-8ff7a1ba1ff8","system_id":"levelo_inurba_marseille","lat":43.290779,"lon":5.371482,"is_reserved":false,"is_disabled":false,"rental_uris":{"android":"levelo://app?vid=df611aca-2a2d-408f-aef6-8ff7a1ba1ff8","ios":"levelo://app?vid=df611aca-2a2d-408f-aef6-8ff7a1ba1ff8"},"vehicle_type_id":"4","last_reported":1705219731,"current_range_meters":24400,"station_id":"ce4bh5p2rcd13ifvqe4g","pricing_plan_id":"free"},{"bike_id":"b89a3ab6-b20e-4fb9-8e5a-745e637ac49e","system_id":"levelo_inurba_marseille","lat":43.30203,"lon":5.39461,"is_reserved":false,"is_disabled":false,"rental_uris":{"android":"levelo://app?vid=b89a3ab6-b20e-4fb9-8e5a-745e637ac49e","ios":"levelo://app?vid=b89a3ab6-b20e-4fb9-8e5a-745e637ac49e"},"vehicle_type_id":"4","last_reported":1705219731,"current_range_meters":8800,"station_id":"ce4bh0p2rcd13ifvqd70","pricing_plan_id":"free"},{"bike_id":"5ea1d7bd-6261-46e4-a4ce-9dccdf934888","system_id":"levelo_inurba_marseille","lat":43.30205,"lon":5.39463,"is_reserved":false,"is_disabled":false,"rental_uris":{"android":"levelo://app?vid=5ea1d7bd-6261-46e4-a4ce-9dccdf934888","ios":"levelo://app?vid=5ea1d7bd-6261-46e4-a4ce-9dccdf934888"},"vehicle_type_id":"4","last_reported":1705219731,"current_range_meters":2400,"station_id":"ce4bh0p2rcd13ifvqd70","pricing_plan_id":"free"},{"bike_id":"c23f9543-b483-4cf1-b002-1eb3fc8cea45","system_id":"levelo_inurba_marseille","lat":43.290624,"lon":5.359245,"is_reserved":false,"is_disabled":false,"rental_uris":{"android":"levelo://app?vid=c23f9543-b483-4cf1-b002-1eb3fc8cea45","ios":"levelo://app?vid=c23f9543-b483-4cf1-b002-1eb3fc8cea45"},"vehicle_type_id":"4","last_reported":1705219731,"current_range_meters":22400,"station_id":"ce4bha92rcd13ifvqeg0","pricing_plan_id":"free"},{"bike_id":"5eba145f-54fa-4764-a9ab-80785504c531","system_id":"levelo_inurba_marseille","lat":43.290624,"lon":5.359245,"is_reserved":false,"is_disabled":false,"rental_uris":{"android":"levelo://app?vid=5eba145f-54fa-4764-a9ab-80785504c531","ios":"levelo://app?vid=5eba145f-54fa-4764-a9ab-80785504c531"},"vehicle_type_id":"4","last_reported":1705219731,"current_range_meters":30000,"station_id":"ce4bha92rcd13ifvqeg0","pricing_plan_id":"free"},{"bike_id":"aaff8155-bfe0-4259-b766-27aa8d1466c5","system_id":"levelo_inurba_marseille","lat":43.290631,"lon":5.359244,"is_reserved":false,"is_disabled":false,"rental_uris":{"android":"levelo://app?vid=aaff8155-bfe0-4259-b766-27aa8d1466c5","ios":"levelo://app?vid=aaff8155-bfe0-4259-b766-27aa8d1466c5"},"vehicle_type_id":"4","last_reported":1705219731,"current_range_meters":31200,"station_id":"ce4bha92rcd13ifvqeg0","pricing_plan_id":"free"},{"bike_id":"2b400133-2a66-4a8a-a389-afb572f987dc","system_id":"levelo_inurba_marseille","lat":43.2905,"lon":5.3757,"is_reserved":false,"is_disabled":false,"rental_uris":{"android":"levelo://app?vid=2b400133-2a66-4a8a-a389-afb572f987dc","ios":"levelo://app?vid=2b400133-2a66-4a8a-a389-afb572f987dc"},"vehicle_type_id":"4","last_reported":1705219731,"current_range_meters":13200,"station_id":"ce4bh692rcd13ifvqe90","pricing_plan_id":"free"},{"bike_id":"3c95968e-8330-427d-9f73-8b8a437a136f","system_id":"levelo_inurba_marseille","lat":43.289184,"lon":5.366408,"is_reserved":false,"is_disabled":false,"rental_uris":{"android":"levelo://app?vid=3c95968e-8330-427d-9f73-8b8a437a136f","ios":"levelo://app?vid=3c95968e-8330-427d-9f73-8b8a437a136f"},"vehicle_type_id":"4","last_reported":1705219731,"current_range_meters":22800,"station_id":"ce4bhap2rcd13ifvqek0","pricing_plan_id":"free"},{"bike_id":"c8c23737-8721-4bab-ba86-e598ce27b9ab","system_id":"levelo_inurba_marseille","lat":43.290327,"lon":5.375711,"is_reserved":false,"is_disabled":false,"rental_uris":{"android":"levelo://app?vid=c8c23737-8721-4bab-ba86-e598ce27b9ab","ios":"levelo://app?vid=c8c23737-8721-4bab-ba86-e598ce27b9ab"},"vehicle_type_id":"4","last_reported":1705219731,"current_range_meters":24400,"station_id":"ce4bh692rcd13ifvqe90","pricing_plan_id":"free"},{"bike_id":"c560dd59-b548-4982-8324-bb724980d7bc","system_id":"levelo_inurba_marseille","lat":43.294162,"lon":5.386292,"is_reserved":false,"is_disabled":false,"rental_uris":{"android":"levelo://app?vid=c560dd59-b548-4982-8324-bb724980d7bc","ios":"levelo://app?vid=c560dd59-b548-4982-8324-bb724980d7bc"},"vehicle_type_id":"4","last_reported":1705219731,"current_range_meters":10400,"station_id":"ce4bh2h2rcd13ifvqdh0","pricing_plan_id":"free"},{"bike_id":"b5be94fa-a22b-4fb0-8e5a-a90728139821","system_id":"levelo_inurba_marseille","lat":43.294162,"lon":5.386292,"is_reserved":false,"is_disabled":false,"rental_uris":{"android":"levelo://app?vid=b5be94fa-a22b-4fb0-8e5a-a90728139821","ios":"levelo://app?vid=b5be94fa-a22b-4fb0-8e5a-a90728139821"},"vehicle_type_id":"4","last_reported":1705219731,"current_range_meters":15200,"station_id":"ce4bh2h2rcd13ifvqdh0","pricing_plan_id":"free"},{"bike_id":"32f05ba0-c38b-458b-847f-996b31f09176","system_id":"levelo_inurba_marseille","lat":43.294153,"lon":5.386305,"is_reserved":false,"is_disabled":false,"rental_uris":{"android":"levelo://app?vid=32f05ba0-c38b-458b-847f-996b31f09176","ios":"levelo://app?vid=32f05ba0-c38b-458b-847f-996b31f09176"},"vehicle_type_id":"4","last_reported":1705219731,"current_range_meters":25600,"station_id":"ce4bh2h2rcd13ifvqdh0","pricing_plan_id":"free"},{"bike_id":"08b887ef-3a3a-449d-a522-3ec64cc353c8","system_id":"levelo_inurba_marseille","lat":43.289184,"lon":5.366408,"is_reserved":false,"is_disabled":false,"rental_uris":{"android":"levelo://app?vid=08b887ef-3a3a-449d-a522-3ec64cc353c8","ios":"levelo://app?vid=08b887ef-3a3a-449d-a522-3ec64cc353c8"},"vehicle_type_id":"4","last_reported":1705219731,"current_range_meters":19600,"station_id":"ce4bhap2rcd13ifvqek0","pricing_plan_id":"free"},{"bike_id":"9198ecd0-4cc8-4419-9674-297001728dbd","system_id":"levelo_inurba_marseille","lat":43.294153,"lon":5.386305,"is_reserved":false,"is_disabled":false,"rental_uris":{"android":"levelo://app?vid=9198ecd0-4cc8-4419-9674-297001728dbd","ios":"levelo://app?vid=9198ecd0-4cc8-4419-9674-297001728dbd"},"vehicle_type_id":"4","last_reported":1705219731,"current_range_meters":26000,"station_id":"ce4bh2h2rcd13ifvqdh0","pricing_plan_id":"free"},{"bike_id":"d969f87d-c56e-4f53-bc98-94afbd30cbca","system_id":"levelo_inurba_marseille","lat":43.289468,"lon":5.363719,"is_reserved":false,"is_disabled":false,"rental_uris":{"android":"levelo://app?vid=d969f87d-c56e-4f53-bc98-94afbd30cbca","ios":"levelo://app?vid=d969f87d-c56e-4f53-bc98-94afbd30cbca"},"vehicle_type_id":"4","last_reported":1705219731,"current_range_meters":9200,"station_id":"ce4bhc92rcd13ifvqetg","pricing_plan_id":"free"},{"bike_id":"3f74a4c1-1cc7-434f-87c7-7efb7abdc581","system_id":"levelo_inurba_marseille","lat":43.304274,"lon":5.397513,"is_reserved":false,"is_disabled":false,"rental_uris":{"android":"levelo://app?vid=3f74a4c1-1cc7-434f-87c7-7efb7abdc581","ios":"levelo://app?vid=3f74a4c1-1cc7-434f-87c7-7efb7abdc581"},"vehicle_type_id":"4","last_reported":1705219731,"current_range_meters":23200,"station_id":"ce4bh092rcd13ifvqd20","pricing_plan_id":"free"},{"bike_id":"cf755893-d687-4fd7-ac38-9dd622c52a43","system_id":"levelo_inurba_marseille","lat":43.292644,"lon":5.384257,"is_reserved":false,"is_disabled":false,"rental_uris":{"android":"levelo://app?vid=cf755893-d687-4fd7-ac38-9dd622c52a43","ios":"levelo://app?vid=cf755893-d687-4fd7-ac38-9dd622c52a43"},"vehicle_type_id":"4","last_reported":1705219731,"current_range_meters":23600,"station_id":"ce4bh692rcd13ifvqea0","pricing_plan_id":"free"},{"bike_id":"7dda0a65-d360-44d1-989b-cf753c2e3e17","system_id":"levelo_inurba_marseille","lat":43.292644,"lon":5.384257,"is_reserved":false,"is_disabled":false,"rental_uris":{"android":"levelo://app?vid=7dda0a65-d360-44d1-989b-cf753c2e3e17","ios":"levelo://app?vid=7dda0a65-d360-44d1-989b-cf753c2e3e17"},"vehicle_type_id":"4","last_reported":1705219731,"current_range_meters":23600,"station_id":"ce4bh692rcd13ifvqea0","pricing_plan_id":"free"},{"bike_id":"5263a678-691c-49db-8cc1-bfd875a5b451","system_id":"levelo_inurba_marseille","lat":43.292642,"lon":5.384254,"is_reserved":false,"is_disabled":false,"rental_uris":{"android":"levelo://app?vid=5263a678-691c-49db-8cc1-bfd875a5b451","ios":"levelo://app?vid=5263a678-691c-49db-8cc1-bfd875a5b451"},"vehicle_type_id":"4","last_reported":1705219731,"current_range_meters":27600,"station_id":"ce4bh692rcd13ifvqea0","pricing_plan_id":"free"},{"bike_id":"82480ff5-97b9-4b97-9013-52bfbdbd1a46","system_id":"levelo_inurba_marseille","lat":43.2896,"lon":5.35912,"is_reserved":false,"is_disabled":false,"rental_uris":{"android":"levelo://app?vid=82480ff5-97b9-4b97-9013-52bfbdbd1a46","ios":"levelo://app?vid=82480ff5-97b9-4b97-9013-52bfbdbd1a46"},"vehicle_type_id":"4","last_reported":1705219731,"current_range_meters":14800,"station_id":"","pricing_plan_id":"free"},{"bike_id":"145370d0-53c2-42a1-ba3a-82248eb59ad4","system_id":"levelo_inurba_marseille","lat":43.304296,"lon":5.397513,"is_reserved":false,"is_disabled":false,"rental_uris":{"android":"levelo://app?vid=145370d0-53c2-42a1-ba3a-82248eb59ad4","ios":"levelo://app?vid=145370d0-53c2-42a1-ba3a-82248eb59ad4"},"vehicle_type_id":"4","last_reported":1705219731,"current_range_meters":21200,"station_id":"ce4bh092rcd13ifvqd20","pricing_plan_id":"free"},{"bike_id":"26f2da44-848c-4ea0-b4b1-a8e51dc3f2bc","system_id":"levelo_inurba_marseille","lat":43.290103,"lon":5.356114,"is_reserved":false,"is_disabled":false,"rental_uris":{"android":"levelo://app?vid=26f2da44-848c-4ea0-b4b1-a8e51dc3f2bc","ios":"levelo://app?vid=26f2da44-848c-4ea0-b4b1-a8e51dc3f2bc"},"vehicle_type_id":"4","last_reported":1705219731,"current_range_meters":16000,"station_id":"ce4bhb92rcd13ifvqen0","pricing_plan_id":"free"},{"bike_id":"7b73652b-cd36-4b39-94a0-d1ec421830a6","system_id":"levelo_inurba_marseille","lat":43.290995,"lon":5.381361,"is_reserved":false,"is_disabled":false,"rental_uris":{"android":"levelo://app?vid=7b73652b-cd36-4b39-94a0-d1ec421830a6","ios":"levelo://app?vid=7b73652b-cd36-4b39-94a0-d1ec421830a6"},"vehicle_type_id":"4","last_reported":1705219731,"current_range_meters":30000,"station_id":"ce4bh512rcd13ifvqe2g","pricing_plan_id":"free"},{"bike_id":"be513479-28f3-449d-805d-5f10875f4b0c","system_id":"levelo_inurba_marseille","lat":43.290995,"lon":5.381361,"is_reserved":false,"is_disabled":false,"rental_uris":{"android":"levelo://app?vid=be513479-28f3-449d-805d-5f10875f4b0c","ios":"levelo://app?vid=be513479-28f3-449d-805d-5f10875f4b0c"},"vehicle_type_id":"4","last_reported":1705219731,"current_range_meters":22000,"station_id":"ce4bh512rcd13ifvqe2g","pricing_plan_id":"free"},{"bike_id":"c28bf7d9-a577-46aa-bf40-4728418d5606","system_id":"levelo_inurba_marseille","lat":43.330175,"lon":5.39031,"is_reserved":false,"is_disabled":false,"rental_uris":{"android":"levelo://app?vid=c28bf7d9-a577-46aa-bf40-4728418d5606","ios":"levelo://app?vid=c28bf7d9-a577-46aa-bf40-4728418d5606"},"vehicle_type_id":"4","last_reported":1705219731,"current_range_meters":28000,"station_id":"ce4bhr92rcd13ifvqhrg","pricing_plan_id":"free"},{"bike_id":"09ab6abf-eb39-458e-99af-dc9032b14763","system_id":"levelo_inurba_marseille","lat":43.3302,"lon":5.39028,"is_reserved":false,"is_disabled":false,"rental_uris":{"android":"levelo://app?vid=09ab6abf-eb39-458e-99af-dc9032b14763","ios":"levelo://app?vid=09ab6abf-eb39-458e-99af-dc9032b14763"},"vehicle_type_id":"4","last_reported":1705219731,"current_range_meters":13600,"station_id":"ce4bhr92rcd13ifvqhrg","pricing_plan_id":"free"},{"bike_id":"5d81c8e1-bfb5-4836-933e-0c9429394d0b","system_id":"levelo_inurba_marseille","lat":43.330442,"lon":5.389148,"is_reserved":false,"is_disabled":false,"rental_uris":{"android":"levelo://app?vid=5d81c8e1-bfb5-4836-933e-0c9429394d0b","ios":"levelo://app?vid=5d81c8e1-bfb5-4836-933e-0c9429394d0b"},"vehicle_type_id":"4","last_reported":1705219731,"current_range_meters":15200,"station_id":"ce4bhr92rcd13ifvqhrg","pricing_plan_id":"free"},{"bike_id":"b2885ac7-47de-4d1b-aa83-2dbba3f434a6","system_id":"levelo_inurba_marseille","lat":43.330442,"lon":5.389148,"is_reserved":false,"is_disabled":false,"rental_uris":{"android":"levelo://app?vid=b2885ac7-47de-4d1b-aa83-2dbba3f434a6","ios":"levelo://app?vid=b2885ac7-47de-4d1b-aa83-2dbba3f434a6"},"vehicle_type_id":"4","last_reported":1705219731,"current_range_meters":0,"station_id":"ce4bhr92rcd13ifvqhrg","pricing_plan_id":"free"},{"bike_id":"4ff1afb2-1ced-48a7-9737-516454b16974","system_id":"levelo_inurba_marseille","lat":43.330182,"lon":5.3904,"is_reserved":false,"is_disabled":false,"rental_uris":{"android":"levelo://app?vid=4ff1afb2-1ced-48a7-9737-516454b16974","ios":"levelo://app?vid=4ff1afb2-1ced-48a7-9737-516454b16974"},"vehicle_type_id":"4","last_reported":1705219731,"current_range_meters":16000,"station_id":"ce4bhr92rcd13ifvqhrg","pricing_plan_id":"free"},{"bike_id":"c3e044cb-b151-474d-ac04-adbbe6ef019d","system_id":"levelo_inurba_marseille","lat":43.330216,"lon":5.390365,"is_reserved":false,"is_disabled":false,"rental_uris":{"android":"levelo://app?vid=c3e044cb-b151-474d-ac04-adbbe6ef019d","ios":"levelo://app?vid=c3e044cb-b151-474d-ac04-adbbe6ef019d"},"vehicle_type_id":"4","last_reported":1705219731,"current_range_meters":2400,"station_id":"ce4bhr92rcd13ifvqhrg","pricing_plan_id":"free"},{"bike_id":"68c15ded-119e-4aad-aa0b-6e9d4b7149fd","system_id":"levelo_inurba_marseille","lat":43.330442,"lon":5.389148,"is_reserved":false,"is_disabled":false,"rental_uris":{"android":"levelo://app?vid=68c15ded-119e-4aad-aa0b-6e9d4b7149fd","ios":"levelo://app?vid=68c15ded-119e-4aad-aa0b-6e9d4b7149fd"},"vehicle_type_id":"4","last_reported":1705219731,"current_range_meters":18000,"station_id":"ce4bhr92rcd13ifvqhrg","pricing_plan_id":"free"},{"bike_id":"86f27bbe-5ff5-45cd-948b-e0833f04d576","system_id":"levelo_inurba_marseille","lat":43.330442,"lon":5.389148,"is_reserved":false,"is_disabled":false,"rental_uris":{"android":"levelo://app?vid=86f27bbe-5ff5-45cd-948b-e0833f04d576","ios":"levelo://app?vid=86f27bbe-5ff5-45cd-948b-e0833f04d576"},"vehicle_type_id":"4","last_reported":1705219731,"current_range_meters":18000,"station_id":"ce4bhr92rcd13ifvqhrg","pricing_plan_id":"free"},{"bike_id":"64e1dbd0-9da5-42ca-ac38-6ffb8073af2b","system_id":"levelo_inurba_marseille","lat":43.330442,"lon":5.389148,"is_reserved":false,"is_disabled":false,"rental_uris":{"android":"levelo://app?vid=64e1dbd0-9da5-42ca-ac38-6ffb8073af2b","ios":"levelo://app?vid=64e1dbd0-9da5-42ca-ac38-6ffb8073af2b"},"vehicle_type_id":"4","last_reported":1705219731,"current_range_meters":19200,"station_id":"ce4bhr92rcd13ifvqhrg","pricing_plan_id":"free"},{"bike_id":"5e21ea74-79fb-445f-a1fd-0d2b8da69ae3","system_id":"levelo_inurba_marseille","lat":43.330442,"lon":5.389148,"is_reserved":false,"is_disabled":false,"rental_uris":{"android":"levelo://app?vid=5e21ea74-79fb-445f-a1fd-0d2b8da69ae3","ios":"levelo://app?vid=5e21ea74-79fb-445f-a1fd-0d2b8da69ae3"},"vehicle_type_id":"4","last_reported":1705219731,"current_range_meters":8400,"station_id":"ce4bhr92rcd13ifvqhrg","pricing_plan_id":"free"},{"bike_id":"f7ff301f-4bfe-4aba-8d36-fa2819f428ac","system_id":"levelo_inurba_marseille","lat":43.330442,"lon":5.389148,"is_reserved":false,"is_disabled":false,"rental_uris":{"android":"levelo://app?vid=f7ff301f-4bfe-4aba-8d36-fa2819f428ac","ios":"levelo://app?vid=f7ff301f-4bfe-4aba-8d36-fa2819f428ac"},"vehicle_type_id":"4","last_reported":1705219731,"current_range_meters":26000,"station_id":"ce4bhr92rcd13ifvqhrg","pricing_plan_id":"free"},{"bike_id":"0f030f3c-7ed7-4d58-8e61-47b1c5097760","system_id":"levelo_inurba_marseille","lat":43.289741,"lon":5.378306,"is_reserved":false,"is_disabled":false,"rental_uris":{"android":"levelo://app?vid=0f030f3c-7ed7-4d58-8e61-47b1c5097760","ios":"levelo://app?vid=0f030f3c-7ed7-4d58-8e61-47b1c5097760"},"vehicle_type_id":"4","last_reported":1705219731,"current_range_meters":26000,"station_id":"ce4bh9p2rcd13ifvqed0","pricing_plan_id":"free"},{"bike_id":"793e5094-9972-4acc-816a-b84d10af395b","system_id":"levelo_inurba_marseille","lat":43.295169,"lon":5.390426,"is_reserved":false,"is_disabled":false,"rental_uris":{"android":"levelo://app?vid=793e5094-9972-4acc-816a-b84d10af395b","ios":"levelo://app?vid=793e5094-9972-4acc-816a-b84d10af395b"},"vehicle_type_id":"4","last_reported":1705219731,"current_range_meters":23600,"station_id":"ce4bh3p2rcd13ifvqdp0","pricing_plan_id":"free"},{"bike_id":"9fa28e51-97cd-4aff-bc10-430a264f0acf","system_id":"levelo_inurba_marseille","lat":43.33029,"lon":5.39039,"is_reserved":false,"is_disabled":false,"rental_uris":{"android":"levelo://app?vid=9fa28e51-97cd-4aff-bc10-430a264f0acf","ios":"levelo://app?vid=9fa28e51-97cd-4aff-bc10-430a264f0acf"},"vehicle_type_id":"4","last_reported":1705219731,"current_range_meters":20000,"station_id":"ce4bhr92rcd13ifvqhrg","pricing_plan_id":"free"},{"bike_id":"e7c7ab44-a592-4c1c-bae8-d02cbe9394ee","system_id":"levelo_inurba_marseille","lat":43.29019,"lon":5.38129,"is_reserved":false,"is_disabled":false,"rental_uris":{"android":"levelo://app?vid=e7c7ab44-a592-4c1c-bae8-d02cbe9394ee","ios":"levelo://app?vid=e7c7ab44-a592-4c1c-bae8-d02cbe9394ee"},"vehicle_type_id":"4","last_reported":1705219731,"current_range_meters":21200,"station_id":"ce4bh4p2rcd13ifvqe1g","pricing_plan_id":"free"},{"bike_id":"3ae5d770-7546-4fe8-a118-c65abf457e8b","system_id":"levelo_inurba_marseille","lat":43.312609,"lon":5.401662,"is_reserved":false,"is_disabled":false,"rental_uris":{"android":"levelo://app?vid=3ae5d770-7546-4fe8-a118-c65abf457e8b","ios":"levelo://app?vid=3ae5d770-7546-4fe8-a118-c65abf457e8b"},"vehicle_type_id":"4","last_reported":1705219731,"current_range_meters":20800,"station_id":"ce4bh092rcd13ifvqd30","pricing_plan_id":"free"},{"bike_id":"509214b2-3a48-478a-bb1c-c74559713191","system_id":"levelo_inurba_marseille","lat":43.312609,"lon":5.401662,"is_reserved":false,"is_disabled":false,"rental_uris":{"android":"levelo://app?vid=509214b2-3a48-478a-bb1c-c74559713191","ios":"levelo://app?vid=509214b2-3a48-478a-bb1c-c74559713191"},"vehicle_type_id":"4","last_reported":1705219731,"current_range_meters":17200,"station_id":"ce4bh092rcd13ifvqd30","pricing_plan_id":"free"},{"bike_id":"63222075-c284-4588-90b6-310e41c98a66","system_id":"levelo_inurba_marseille","lat":43.30937,"lon":5.40142,"is_reserved":false,"is_disabled":false,"rental_uris":{"android":"levelo://app?vid=63222075-c284-4588-90b6-310e41c98a66","ios":"levelo://app?vid=63222075-c284-4588-90b6-310e41c98a66"},"vehicle_type_id":"4","last_reported":1705219731,"current_range_meters":22800,"station_id":"ce4bgvp2rcd13ifvqct0","pricing_plan_id":"free"},{"bike_id":"fa542f6c-56b9-444a-b2d6-4ae451b524d1","system_id":"levelo_inurba_marseille","lat":43.309371,"lon":5.401449,"is_reserved":false,"is_disabled":false,"rental_uris":{"android":"levelo://app?vid=fa542f6c-56b9-444a-b2d6-4ae451b524d1","ios":"levelo://app?vid=fa542f6c-56b9-444a-b2d6-4ae451b524d1"},"vehicle_type_id":"4","last_reported":1705219731,"current_range_meters":17600,"station_id":"ce4bgvp2rcd13ifvqct0","pricing_plan_id":"free"},{"bike_id":"a797f8d2-7efd-4cb9-a916-c395e3c1d358","system_id":"levelo_inurba_marseille","lat":43.309371,"lon":5.401449,"is_reserved":false,"is_disabled":false,"rental_uris":{"android":"levelo://app?vid=a797f8d2-7efd-4cb9-a916-c395e3c1d358","ios":"levelo://app?vid=a797f8d2-7efd-4cb9-a916-c395e3c1d358"},"vehicle_type_id":"4","last_reported":1705219731,"current_range_meters":4800,"station_id":"ce4bgvp2rcd13ifvqct0","pricing_plan_id":"free"},{"bike_id":"20f61a80-f2b4-4c45-83b4-778156604dff","system_id":"levelo_inurba_marseille","lat":43.30642,"lon":5.401031,"is_reserved":false,"is_disabled":false,"rental_uris":{"android":"levelo://app?vid=20f61a80-f2b4-4c45-83b4-778156604dff","ios":"levelo://app?vid=20f61a80-f2b4-4c45-83b4-778156604dff"},"vehicle_type_id":"4","last_reported":1705219731,"current_range_meters":31200,"station_id":"ce4bh112rcd13ifvqda0","pricing_plan_id":"free"},{"bike_id":"fcef677f-14d6-42a4-bd7f-7e9648db2bd1","system_id":"levelo_inurba_marseille","lat":43.306458,"lon":5.400783,"is_reserved":false,"is_disabled":false,"rental_uris":{"android":"levelo://app?vid=fcef677f-14d6-42a4-bd7f-7e9648db2bd1","ios":"levelo://app?vid=fcef677f-14d6-42a4-bd7f-7e9648db2bd1"},"vehicle_type_id":"4","last_reported":1705219731,"current_range_meters":26400,"station_id":"ce4bh112rcd13ifvqda0","pricing_plan_id":"free"},{"bike_id":"bb2cfc4d-367e-40d9-8e6e-77d59d4489af","system_id":"levelo_inurba_marseille","lat":43.309371,"lon":5.401449,"is_reserved":false,"is_disabled":false,"rental_uris":{"android":"levelo://app?vid=bb2cfc4d-367e-40d9-8e6e-77d59d4489af","ios":"levelo://app?vid=bb2cfc4d-367e-40d9-8e6e-77d59d4489af"},"vehicle_type_id":"4","last_reported":1705219731,"current_range_meters":11200,"station_id":"ce4bgvp2rcd13ifvqct0","pricing_plan_id":"free"},{"bike_id":"11e4e863-4e5d-48e1-85e6-c49d492c10e9","system_id":"levelo_inurba_marseille","lat":43.301117,"lon":5.398795,"is_reserved":false,"is_disabled":false,"rental_uris":{"android":"levelo://app?vid=11e4e863-4e5d-48e1-85e6-c49d492c10e9","ios":"levelo://app?vid=11e4e863-4e5d-48e1-85e6-c49d492c10e9"},"vehicle_type_id":"4","last_reported":1705219731,"current_range_meters":26000,"station_id":"ce4bh0h2rcd13ifvqd40","pricing_plan_id":"free"},{"bike_id":"832f1195-f6ae-40da-a043-c96fc84ae65b","system_id":"levelo_inurba_marseille","lat":43.28727,"lon":5.36078,"is_reserved":false,"is_disabled":false,"rental_uris":{"android":"levelo://app?vid=832f1195-f6ae-40da-a043-c96fc84ae65b","ios":"levelo://app?vid=832f1195-f6ae-40da-a043-c96fc84ae65b"},"vehicle_type_id":"4","last_reported":1705219731,"current_range_meters":12800,"station_id":"cki0cbj6b192h4jlfktg","pricing_plan_id":"free"},{"bike_id":"1b725958-43af-407b-88ac-1de80713dd7d","system_id":"levelo_inurba_marseille","lat":43.28727,"lon":5.36078,"is_reserved":false,"is_disabled":false,"rental_uris":{"android":"levelo://app?vid=1b725958-43af-407b-88ac-1de80713dd7d","ios":"levelo://app?vid=1b725958-43af-407b-88ac-1de80713dd7d"},"vehicle_type_id":"4","last_reported":1705219731,"current_range_meters":4400,"station_id":"cki0cbj6b192h4jlfktg","pricing_plan_id":"free"},{"bike_id":"ba1832ac-6dd2-4045-8ea2-ada67292ca32","system_id":"levelo_inurba_marseille","lat":43.28727,"lon":5.36078,"is_reserved":false,"is_disabled":false,"rental_uris":{"android":"levelo://app?vid=ba1832ac-6dd2-4045-8ea2-ada67292ca32","ios":"levelo://app?vid=ba1832ac-6dd2-4045-8ea2-ada67292ca32"},"vehicle_type_id":"4","last_reported":1705219731,"current_range_meters":28400,"station_id":"cki0cbj6b192h4jlfktg","pricing_plan_id":"free"},{"bike_id":"f5a788d5-7dd3-47ca-a64a-c2e24814e58e","system_id":"levelo_inurba_marseille","lat":43.286961,"lon":5.373785,"is_reserved":false,"is_disabled":false,"rental_uris":{"android":"levelo://app?vid=f5a788d5-7dd3-47ca-a64a-c2e24814e58e","ios":"levelo://app?vid=f5a788d5-7dd3-47ca-a64a-c2e24814e58e"},"vehicle_type_id":"4","last_reported":1705219731,"current_range_meters":21600,"station_id":"ce4bh3p2rcd13ifvqdq0","pricing_plan_id":"free"},{"bike_id":"0bd01e42-41c1-4341-91ea-de997eb962a4","system_id":"levelo_inurba_marseille","lat":43.286961,"lon":5.373785,"is_reserved":false,"is_disabled":false,"rental_uris":{"android":"levelo://app?vid=0bd01e42-41c1-4341-91ea-de997eb962a4","ios":"levelo://app?vid=0bd01e42-41c1-4341-91ea-de997eb962a4"},"vehicle_type_id":"4","last_reported":1705219731,"current_range_meters":28800,"station_id":"ce4bh3p2rcd13ifvqdq0","pricing_plan_id":"free"},{"bike_id":"70d08d2a-cb30-47a2-b709-2a13cda61b1e","system_id":"levelo_inurba_marseille","lat":43.298681,"lon":5.397225,"is_reserved":false,"is_disabled":false,"rental_uris":{"android":"levelo://app?vid=70d08d2a-cb30-47a2-b709-2a13cda61b1e","ios":"levelo://app?vid=70d08d2a-cb30-47a2-b709-2a13cda61b1e"},"vehicle_type_id":"4","last_reported":1705219731,"current_range_meters":20000,"station_id":"ce4bh0h2rcd13ifvqd50","pricing_plan_id":"free"},{"bike_id":"d4500231-0ded-495a-9d37-506d8478401a","system_id":"levelo_inurba_marseille","lat":43.286961,"lon":5.373785,"is_reserved":false,"is_disabled":false,"rental_uris":{"android":"levelo://app?vid=d4500231-0ded-495a-9d37-506d8478401a","ios":"levelo://app?vid=d4500231-0ded-495a-9d37-506d8478401a"},"vehicle_type_id":"4","last_reported":1705219731,"current_range_meters":31600,"station_id":"ce4bh3p2rcd13ifvqdq0","pricing_plan_id":"free"},{"bike_id":"99c1f9b9-b887-4c07-9f80-d9d37a4b4da6","system_id":"levelo_inurba_marseille","lat":43.290336,"lon":5.386425,"is_reserved":false,"is_disabled":false,"rental_uris":{"android":"levelo://app?vid=99c1f9b9-b887-4c07-9f80-d9d37a4b4da6","ios":"levelo://app?vid=99c1f9b9-b887-4c07-9f80-d9d37a4b4da6"},"vehicle_type_id":"4","last_reported":1705219731,"current_range_meters":23200,"station_id":"ce4bh4p2rcd13ifvqe0g","pricing_plan_id":"free"},{"bike_id":"57ca8693-42d4-4fe6-bb90-93b9e80d683d","system_id":"levelo_inurba_marseille","lat":43.286039,"lon":5.370679,"is_reserved":false,"is_disabled":false,"rental_uris":{"android":"levelo://app?vid=57ca8693-42d4-4fe6-bb90-93b9e80d683d","ios":"levelo://app?vid=57ca8693-42d4-4fe6-bb90-93b9e80d683d"},"vehicle_type_id":"4","last_reported":1705219731,"current_range_meters":12000,"station_id":"ce4bht12rcd13ifvqi60","pricing_plan_id":"free"},{"bike_id":"d5ff2230-bfc7-4acf-b875-34732d500efc","system_id":"levelo_inurba_marseille","lat":43.286039,"lon":5.370681,"is_reserved":false,"is_disabled":false,"rental_uris":{"android":"levelo://app?vid=d5ff2230-bfc7-4acf-b875-34732d500efc","ios":"levelo://app?vid=d5ff2230-bfc7-4acf-b875-34732d500efc"},"vehicle_type_id":"4","last_reported":1705219731,"current_range_meters":0,"station_id":"ce4bht12rcd13ifvqi60","pricing_plan_id":"free"},{"bike_id":"f0464f29-0cd2-44b4-9022-5e7f266a6a9c","system_id":"levelo_inurba_marseille","lat":43.287185,"lon":5.379373,"is_reserved":false,"is_disabled":false,"rental_uris":{"android":"levelo://app?vid=f0464f29-0cd2-44b4-9022-5e7f266a6a9c","ios":"levelo://app?vid=f0464f29-0cd2-44b4-9022-5e7f266a6a9c"},"vehicle_type_id":"4","last_reported":1705219731,"current_range_meters":31200,"station_id":"ce4bh9p2rcd13ifvqec0","pricing_plan_id":"free"},{"bike_id":"53b9c2f3-eab3-43ce-9487-c3af00533bab","system_id":"levelo_inurba_marseille","lat":43.291671,"lon":5.371575,"is_reserved":false,"is_disabled":false,"rental_uris":{"android":"levelo://app?vid=53b9c2f3-eab3-43ce-9487-c3af00533bab","ios":"levelo://app?vid=53b9c2f3-eab3-43ce-9487-c3af00533bab"},"vehicle_type_id":"4","last_reported":1705219731,"current_range_meters":5600,"station_id":"ce4bha92rcd13ifvqeh0","pricing_plan_id":"free"},{"bike_id":"b7076b39-4218-4e1e-863b-3309acb3de33","system_id":"levelo_inurba_marseille","lat":43.316828,"lon":5.404723,"is_reserved":false,"is_disabled":false,"rental_uris":{"android":"levelo://app?vid=b7076b39-4218-4e1e-863b-3309acb3de33","ios":"levelo://app?vid=b7076b39-4218-4e1e-863b-3309acb3de33"},"vehicle_type_id":"4","last_reported":1705219731,"current_range_meters":1600,"station_id":"ce4bh012rcd13ifvqd00","pricing_plan_id":"free"},{"bike_id":"c7ecaf50-589c-4754-a771-478ddbdc68d0","system_id":"levelo_inurba_marseille","lat":43.31695,"lon":5.404733,"is_reserved":false,"is_disabled":false,"rental_uris":{"android":"levelo://app?vid=c7ecaf50-589c-4754-a771-478ddbdc68d0","ios":"levelo://app?vid=c7ecaf50-589c-4754-a771-478ddbdc68d0"},"vehicle_type_id":"4","last_reported":1705219731,"current_range_meters":24400,"station_id":"ce4bh012rcd13ifvqd00","pricing_plan_id":"free"},{"bike_id":"614a282a-8c40-4e94-b2b1-794862aca4d2","system_id":"levelo_inurba_marseille","lat":43.291984,"lon":5.393567,"is_reserved":false,"is_disabled":false,"rental_uris":{"android":"levelo://app?vid=614a282a-8c40-4e94-b2b1-794862aca4d2","ios":"levelo://app?vid=614a282a-8c40-4e94-b2b1-794862aca4d2"},"vehicle_type_id":"4","last_reported":1705219731,"current_range_meters":14400,"station_id":"ce4bh192rcd13ifvqdd0","pricing_plan_id":"free"},{"bike_id":"49b7bdd4-5388-4917-a8d8-3285202f4798","system_id":"levelo_inurba_marseille","lat":43.284534,"lon":5.358662,"is_reserved":false,"is_disabled":false,"rental_uris":{"android":"levelo://app?vid=49b7bdd4-5388-4917-a8d8-3285202f4798","ios":"levelo://app?vid=49b7bdd4-5388-4917-a8d8-3285202f4798"},"vehicle_type_id":"4","last_reported":1705219731,"current_range_meters":28800,"station_id":"ce4bhah2rcd13ifvqei0","pricing_plan_id":"free"},{"bike_id":"e42fe9b1-c6de-4907-8fd1-97ac3010d5b5","system_id":"levelo_inurba_marseille","lat":43.284538,"lon":5.358657,"is_reserved":false,"is_disabled":false,"rental_uris":{"android":"levelo://app?vid=e42fe9b1-c6de-4907-8fd1-97ac3010d5b5","ios":"levelo://app?vid=e42fe9b1-c6de-4907-8fd1-97ac3010d5b5"},"vehicle_type_id":"4","last_reported":1705219731,"current_range_meters":22800,"station_id":"ce4bhah2rcd13ifvqei0","pricing_plan_id":"free"},{"bike_id":"42a1cd32-16e5-4eed-8d0a-c6db455c7aad","system_id":"levelo_inurba_marseille","lat":43.294314,"lon":5.397498,"is_reserved":false,"is_disabled":false,"rental_uris":{"android":"levelo://app?vid=42a1cd32-16e5-4eed-8d0a-c6db455c7aad","ios":"levelo://app?vid=42a1cd32-16e5-4eed-8d0a-c6db455c7aad"},"vehicle_type_id":"4","last_reported":1705219731,"current_range_meters":31600,"station_id":"ce4bh3h2rcd13ifvqdo0","pricing_plan_id":"free"},{"bike_id":"4f4f85b6-8d73-4e5c-a3c5-f792ef5bf18c","system_id":"levelo_inurba_marseille","lat":43.284534,"lon":5.358662,"is_reserved":false,"is_disabled":false,"rental_uris":{"android":"levelo://app?vid=4f4f85b6-8d73-4e5c-a3c5-f792ef5bf18c","ios":"levelo://app?vid=4f4f85b6-8d73-4e5c-a3c5-f792ef5bf18c"},"vehicle_type_id":"4","last_reported":1705219731,"current_range_meters":18000,"station_id":"ce4bhah2rcd13ifvqei0","pricing_plan_id":"free"},{"bike_id":"dea2e7d2-2cf2-4a1a-896e-2ca6f3adffa0","system_id":"levelo_inurba_marseille","lat":43.284534,"lon":5.358662,"is_reserved":false,"is_disabled":false,"rental_uris":{"android":"levelo://app?vid=dea2e7d2-2cf2-4a1a-896e-2ca6f3adffa0","ios":"levelo://app?vid=dea2e7d2-2cf2-4a1a-896e-2ca6f3adffa0"},"vehicle_type_id":"4","last_reported":1705219731,"current_range_meters":29600,"station_id":"ce4bhah2rcd13ifvqei0","pricing_plan_id":"free"},{"bike_id":"61fa3c04-f366-4acb-95b6-26147e863c76","system_id":"levelo_inurba_marseille","lat":43.28457,"lon":5.35892,"is_reserved":false,"is_disabled":false,"rental_uris":{"android":"levelo://app?vid=61fa3c04-f366-4acb-95b6-26147e863c76","ios":"levelo://app?vid=61fa3c04-f366-4acb-95b6-26147e863c76"},"vehicle_type_id":"4","last_reported":1705219731,"current_range_meters":30400,"station_id":"ce4bhah2rcd13ifvqei0","pricing_plan_id":"free"},{"bike_id":"d293410a-f78d-4f58-ac67-a6e5ae15678e","system_id":"levelo_inurba_marseille","lat":43.284538,"lon":5.358657,"is_reserved":false,"is_disabled":false,"rental_uris":{"android":"levelo://app?vid=d293410a-f78d-4f58-ac67-a6e5ae15678e","ios":"levelo://app?vid=d293410a-f78d-4f58-ac67-a6e5ae15678e"},"vehicle_type_id":"4","last_reported":1705219731,"current_range_meters":31600,"station_id":"ce4bhah2rcd13ifvqei0","pricing_plan_id":"free"},{"bike_id":"3c8d4f61-8e69-4299-8a64-45f0f193d151","system_id":"levelo_inurba_marseille","lat":43.284567,"lon":5.358925,"is_reserved":false,"is_disabled":false,"rental_uris":{"android":"levelo://app?vid=3c8d4f61-8e69-4299-8a64-45f0f193d151","ios":"levelo://app?vid=3c8d4f61-8e69-4299-8a64-45f0f193d151"},"vehicle_type_id":"4","last_reported":1705219731,"current_range_meters":23200,"station_id":"ce4bhah2rcd13ifvqei0","pricing_plan_id":"free"},{"bike_id":"cd37f0ee-4409-4ea9-8d46-82e2e973df84","system_id":"levelo_inurba_marseille","lat":43.284534,"lon":5.358662,"is_reserved":false,"is_disabled":false,"rental_uris":{"android":"levelo://app?vid=cd37f0ee-4409-4ea9-8d46-82e2e973df84","ios":"levelo://app?vid=cd37f0ee-4409-4ea9-8d46-82e2e973df84"},"vehicle_type_id":"4","last_reported":1705219731,"current_range_meters":29200,"station_id":"ce4bhah2rcd13ifvqei0","pricing_plan_id":"free"},{"bike_id":"47a12f31-b511-48f7-bd6a-fb4d5e1c09e7","system_id":"levelo_inurba_marseille","lat":43.284534,"lon":5.358662,"is_reserved":false,"is_disabled":false,"rental_uris":{"android":"levelo://app?vid=47a12f31-b511-48f7-bd6a-fb4d5e1c09e7","ios":"levelo://app?vid=47a12f31-b511-48f7-bd6a-fb4d5e1c09e7"},"vehicle_type_id":"4","last_reported":1705219731,"current_range_meters":31600,"station_id":"ce4bhah2rcd13ifvqei0","pricing_plan_id":"free"},{"bike_id":"a55ba6b8-89d3-4d14-afd6-5947a02a313f","system_id":"levelo_inurba_marseille","lat":43.294314,"lon":5.397498,"is_reserved":false,"is_disabled":false,"rental_uris":{"android":"levelo://app?vid=a55ba6b8-89d3-4d14-afd6-5947a02a313f","ios":"levelo://app?vid=a55ba6b8-89d3-4d14-afd6-5947a02a313f"},"vehicle_type_id":"4","last_reported":1705219731,"current_range_meters":14000,"station_id":"ce4bh3h2rcd13ifvqdo0","pricing_plan_id":"free"},{"bike_id":"e144f044-7d7e-4eff-941a-a5e14896da5d","system_id":"levelo_inurba_marseille","lat":43.284534,"lon":5.358662,"is_reserved":false,"is_disabled":false,"rental_uris":{"android":"levelo://app?vid=e144f044-7d7e-4eff-941a-a5e14896da5d","ios":"levelo://app?vid=e144f044-7d7e-4eff-941a-a5e14896da5d"},"vehicle_type_id":"4","last_reported":1705219731,"current_range_meters":26400,"station_id":"ce4bhah2rcd13ifvqei0","pricing_plan_id":"free"},{"bike_id":"0e24d271-86d7-4c14-9770-3b26c1e19f8d","system_id":"levelo_inurba_marseille","lat":43.284534,"lon":5.358662,"is_reserved":false,"is_disabled":false,"rental_uris":{"android":"levelo://app?vid=0e24d271-86d7-4c14-9770-3b26c1e19f8d","ios":"levelo://app?vid=0e24d271-86d7-4c14-9770-3b26c1e19f8d"},"vehicle_type_id":"4","last_reported":1705219731,"current_range_meters":16400,"station_id":"ce4bhah2rcd13ifvqei0","pricing_plan_id":"free"},{"bike_id":"05a72ed4-b44d-4e17-b312-b6a33c79cedf","system_id":"levelo_inurba_marseille","lat":43.29447,"lon":5.39759,"is_reserved":false,"is_disabled":false,"rental_uris":{"android":"levelo://app?vid=05a72ed4-b44d-4e17-b312-b6a33c79cedf","ios":"levelo://app?vid=05a72ed4-b44d-4e17-b312-b6a33c79cedf"},"vehicle_type_id":"4","last_reported":1705219731,"current_range_meters":5200,"station_id":"ce4bh3h2rcd13ifvqdo0","pricing_plan_id":"free"},{"bike_id":"dc363fe5-5891-49a5-bb57-2841bf1d4169","system_id":"levelo_inurba_marseille","lat":43.285856,"lon":5.350771,"is_reserved":false,"is_disabled":false,"rental_uris":{"android":"levelo://app?vid=dc363fe5-5891-49a5-bb57-2841bf1d4169","ios":"levelo://app?vid=dc363fe5-5891-49a5-bb57-2841bf1d4169"},"vehicle_type_id":"4","last_reported":1705219731,"current_range_meters":28400,"station_id":"ce4bhch2rcd13ifvqeug","pricing_plan_id":"free"},{"bike_id":"7a1057ef-845e-48e9-bec1-3d0172a49832","system_id":"levelo_inurba_marseille","lat":43.28616,"lon":5.35103,"is_reserved":false,"is_disabled":false,"rental_uris":{"android":"levelo://app?vid=7a1057ef-845e-48e9-bec1-3d0172a49832","ios":"levelo://app?vid=7a1057ef-845e-48e9-bec1-3d0172a49832"},"vehicle_type_id":"4","last_reported":1705219731,"current_range_meters":23600,"station_id":"ce4bhch2rcd13ifvqeug","pricing_plan_id":"free"},{"bike_id":"831d0161-98d9-481a-a661-ff6ebab5f3cf","system_id":"levelo_inurba_marseille","lat":43.331985,"lon":5.397003,"is_reserved":false,"is_disabled":false,"rental_uris":{"android":"levelo://app?vid=831d0161-98d9-481a-a661-ff6ebab5f3cf","ios":"levelo://app?vid=831d0161-98d9-481a-a661-ff6ebab5f3cf"},"vehicle_type_id":"4","last_reported":1705219731,"current_range_meters":12000,"station_id":"","pricing_plan_id":"free"},{"bike_id":"7c041e4f-f075-4292-bd4d-040cdc87001f","system_id":"levelo_inurba_marseille","lat":43.284124,"lon":5.375068,"is_reserved":false,"is_disabled":false,"rental_uris":{"android":"levelo://app?vid=7c041e4f-f075-4292-bd4d-040cdc87001f","ios":"levelo://app?vid=7c041e4f-f075-4292-bd4d-040cdc87001f"},"vehicle_type_id":"4","last_reported":1705219731,"current_range_meters":24000,"station_id":"ce4bh412rcd13ifvqds0","pricing_plan_id":"free"},{"bike_id":"bb9f21b4-cb98-4181-9109-1e9c63dbb8e0","system_id":"levelo_inurba_marseille","lat":43.284108,"lon":5.375155,"is_reserved":false,"is_disabled":false,"rental_uris":{"android":"levelo://app?vid=bb9f21b4-cb98-4181-9109-1e9c63dbb8e0","ios":"levelo://app?vid=bb9f21b4-cb98-4181-9109-1e9c63dbb8e0"},"vehicle_type_id":"4","last_reported":1705219731,"current_range_meters":30400,"station_id":"ce4bh412rcd13ifvqds0","pricing_plan_id":"free"},{"bike_id":"674bf51d-ed78-474c-bd7c-c87b37a9402d","system_id":"levelo_inurba_marseille","lat":43.2841,"lon":5.37516,"is_reserved":false,"is_disabled":false,"rental_uris":{"android":"levelo://app?vid=674bf51d-ed78-474c-bd7c-c87b37a9402d","ios":"levelo://app?vid=674bf51d-ed78-474c-bd7c-c87b37a9402d"},"vehicle_type_id":"4","last_reported":1705219731,"current_range_meters":30000,"station_id":"ce4bh412rcd13ifvqds0","pricing_plan_id":"free"},