{"last_updated":1742973038,"ttl":60,"version":"2.2","data":{"bikes":[{"bike_id":"5b9797a2-bda3-4021-8e6d-a146c6aa57fd","system_id":"levelo_inurba_marseille","lat":43.28445,"lon":5.39191,"is_reserved":false,"is_disabled":false,"rental_uris":{"android":"levelo://app?vid=5b9797a2-bda3-4021-8e6d-a146c6aa57fd","ios":"levelo://app?vid=5b9797a2-bda3-4021-8e6d-a146c6aa57fd"},"vehicle_type_id":"4","last_reported":1742973038,"current_range_meters":2800,"station_id":"ce4bhoh2rcd13ifvqh5g","pricing_plan_id":"cebpf4jnsgd1na2vs0mg"},{"bike_id":"45530ab5-8589-4806-bb6c-254bb714fa42","system_id":"levelo_inurba_marseille","lat":43.29553,"lon":5.39518,"is_reserved":false,"is_disabled":true,"rental_uris":{"android":"levelo://app?vid=45530ab5-8589-4806-bb6c-254bb714fa42","ios":"levelo://app?vid=45530ab5-8589-4806-bb6c-254bb714fa42"},"vehicle_type_id":"4","last_reported":1742973038,"current_range_meters":2800,"station_id":"ce4bh292rcd13ifvqdf0","pricing_plan_id":"cebpf4jnsgd1na2vs0mg"},{"bike_id":"69cae312-ca8c-4ddf-a945-cb9acdf08ab6","system_id":"levelo_inurba_marseille","lat":43.28451,"lon":5.39194,"is_reserved":false,"is_disabled":false,"rental_uris":{"android":"levelo://app?vid=69cae312-ca8c-4ddf-a945-cb9acdf08ab6","ios":"levelo://app?vid=69cae312-ca8c-4ddf-a945-cb9acdf08ab6"},"vehicle_type_id":"4","last_reported":1742973038,"current_range_meters":2800,"station_id":"ce4bhoh2rcd13ifvqh5g","pricing_plan_id":"cebpf4jnsgd1na2vs0mg"},{"bike_id":"beb22cd1-647a-432e-84ba-d80dd23ff4f7","system_id":"levelo_inurba_marseille","lat":43.3361,"lon":5.41032,"is_reserved":false,"is_disabled":false,"rental_uris":{"android":"levelo://app?vid=beb22cd1-647a-432e-84ba-d80dd23ff4f7","ios":"levelo://app?vid=beb22cd1-647a-432e-84ba-d80dd23ff4f7"},"vehicle_type_id":"4","last_reported":1742973038,"current_range_meters":3200,"station_id":"ce4bhqh2rcd13ifvqhmg","pricing_plan_id":"cebpf4jnsgd1na2vs0mg"},{"bike_id":"6cfefdbe-5a71-4357-a802-1f278b92dc60","system_id":"levelo_inurba_marseille","lat":43.28944,"lon":5.36636,"is_reserved":false,"is_disabled":false,"rental_uris":{"android":"levelo://app?vid=6cfefdbe-5a71-4357-a802-1f278b92dc60","ios":"levelo://app?vid=6cfefdbe-5a71-4357-a802-1f278b92dc60"},"vehicle_type_id":"4","last_reported":1742973038,"current_range_meters":3200,"station_id":"ce4bhap2rcd13ifvqek0","pricing_plan_id":"cebpf4jnsgd1na2vs0mg"},{"bike_id":"290f60db-9789-4f34-86d7-5a3174ffcb55","system_id":"levelo_inurba_marseille","lat":43.28726,"lon":5.37936,"is_reserved":false,"is_disabled":false,"rental_uris":{"android":"levelo://app?vid=290f60db-9789-4f34-86d7-5a3174ffcb55","ios":"levelo://app?vid=290f60db-9789-4f34-86d7-5a3174ffcb55"},"vehicle_type_id":"4","last_reported":1742973038,"current_range_meters":2800,"station_id":"ce4bh9p2rcd13ifvqec0","pricing_plan_id":"cebpf4jnsgd1na2vs0mg"},{"bike_id":"e3b71eec-a3d0-4b61-8d59-4c56fb14f990","system_id":"levelo_inurba_marseille","lat":43.27495,"lon":5.42451,"is_reserved":false,"is_disabled":false,"rental_uris":{"android":"levelo://app?vid=e3b71eec-a3d0-4b61-8d59-4c56fb14f990","ios":"levelo://app?vid=e3b71eec-a3d0-4b61-8d59-4c56fb14f990"},"vehicle_type_id":"4","last_reported":1742973038,"current_range_meters":3200,"station_id":"ce4bhn92rcd13ifvqgrg","pricing_plan_id":"cebpf4jnsgd1na2vs0mg"},{"bike_id":"707edfa3-0a9a-4f1f-b2f3-c24e2f031881","system_id":"levelo_inurba_marseille","lat":43.29585,"lon":5.375201,"is_reserved":false,"is_disabled":true,"rental_uris":{"android":"levelo://app?vid=707edfa3-0a9a-4f1f-b2f3-c24e2f031881","ios":"levelo://app?vid=707edfa3-0a9a-4f1f-b2f3-c24e2f031881"},"vehicle_type_id":"4","last_reported":1742973038,"current_range_meters":3200,"station_id":"ce4bh4p2rcd13ifvqe1g","pricing_plan_id":"cebpf4jnsgd1na2vs0mg"},{"bike_id":"a46a86f1-b03f-4cbb-a389-342822ed2d2a","system_id":"levelo_inurba_marseille","lat":43.28493,"lon":5.38427,"is_reserved":false,"is_disabled":false,"rental_uris":{"android":"levelo://app?vid=a46a86f1-b03f-4cbb-a389-342822ed2d2a","ios":"levelo://app?vid=a46a86f1-b03f-4cbb-a389-342822ed2d2a"},"vehicle_type_id":"4","last_reported":1742973038,"current_range_meters":3200,"station_id":"ce4bh512rcd13ifvqe3g","pricing_plan_id":"cebpf4jnsgd1na2vs0mg"},{"bike_id":"b0aae1c5-d212-4c4c-b664-4a3e6d7a5d5a","system_id":"levelo_inurba_marseille","lat":43.28677,"lon":5.3866,"is_reserved":false,"is_disabled":false,"rental_uris":{"android":"levelo://app?vid=b0aae1c5-d212-4c4c-b664-4a3e6d7a5d5a","ios":"levelo://app?vid=b0aae1c5-d212-4c4c-b664-4a3e6d7a5d5a"},"vehicle_type_id":"4","last_reported":1742973038,"current_range_meters":3200,"station_id":"ce4bh492rcd13ifvqdug","pricing_plan_id":"cebpf4jnsgd1na2vs0mg"},{"bike_id":"1f141791-dda8-4fbe-9484-f656d0bbf7b4","system_id":"levelo_inurba_marseille","lat":43.28846,"lon":5.39314,"is_reserved":false,"is_disabled":false,"rental_uris":{"android":"levelo://app?vid=1f141791-dda8-4fbe-9484-f656d0bbf7b4","ios":"levelo://app?vid=1f141791-dda8-4fbe-9484-f656d0bbf7b4"},"vehicle_type_id":"4","last_reported":1742973038,"current_range_meters":6000,"station_id":"ce4bh2p2rcd13ifvqdi0","pricing_plan_id":"cebpf4jnsgd1na2vs0mg"},{"bike_id":"ecb42ffe-a31e-4210-9fcc-a29d223e03d4","system_id":"levelo_inurba_marseille","lat":43.231953,"lon":5.355469,"is_reserved":false,"is_disabled":false,"rental_uris":{"android":"levelo://app?vid=ecb42ffe-a31e-4210-9fcc-a29d223e03d4","ios":"levelo://app?vid=ecb42ffe-a31e-4210-9fcc-a29d223e03d4"},"vehicle_type_id":"4","last_reported":1742973038,"current_range_meters":3600,"station_id":"ce4bhu92rcd13ifvqi70","pricing_plan_id":"cebpf4jnsgd1na2vs0mg"},{"bike_id":"af080495-49bd-4a51-a1e9-ef24c4020ac9","system_id":"levelo_inurba_marseille","lat":43.30535,"lon":5.36726,"is_reserved":false,"is_disabled":false,"rental_uris":{"android":"levelo://app?vid=af080495-49bd-4a51-a1e9-ef24c4020ac9","ios":"levelo://app?vid=af080495-49bd-4a51-a1e9-ef24c4020ac9"},"vehicle_type_id":"4","last_reported":1742973038,"current_range_meters":3600,"station_id":"ce4bgrp2rcd13ifvqc9g","pricing_plan_id":"cebpf4jnsgd1na2vs0mg"},{"bike_id":"df3bffb1-161e-4a9e-91d2-7bda420dcb87","system_id":"levelo_inurba_marseille","lat":43.27951,"lon":5.38731,"is_reserved":false,"is_disabled":false,"rental_uris":{"android":"levelo://app?vid=df3bffb1-161e-4a9e-91d2-7bda420dcb87","ios":"levelo://app?vid=df3bffb1-161e-4a9e-91d2-7bda420dcb87"},"vehicle_type_id":"4","last_reported":1742973038,"current_range_meters":3600,"station_id":"ce4bhg12rcd13ifvqf80","pricing_plan_id":"cebpf4jnsgd1na2vs0mg"},{"bike_id":"3513a6f0-dbc9-4f37-8b52-79603521c288","system_id":"levelo_inurba_marseille","lat":43.230652,"lon":5.355031,"is_reserved":false,"is_disabled":false,"rental_uris":{"android":"levelo://app?vid=3513a6f0-dbc9-4f37-8b52-79603521c288","ios":"levelo://app?vid=3513a6f0-dbc9-4f37-8b52-79603521c288"},"vehicle_type_id":"4","last_reported":1742973038,"current_range_meters":3600,"station_id":"cpo3342slgdg3j2ifvpg","pricing_plan_id":"cebpf4jnsgd1na2vs0mg"},{"bike_id":"1c3d40d0-56c1-4ee4-9cd3-457905169a04","system_id":"levelo_inurba_marseille","lat":43.26566,"lon":5.39024,"is_reserved":false,"is_disabled":false,"rental_uris":{"android":"levelo://app?vid=1c3d40d0-56c1-4ee4-9cd3-457905169a04","ios":"levelo://app?vid=1c3d40d0-56c1-4ee4-9cd3-457905169a04"},"vehicle_type_id":"4","last_reported":1742973038,"current_range_meters":3600,"station_id":"ce4bhe12rcd13ifvqf30","pricing_plan_id":"cebpf4jnsgd1na2vs0mg"},{"bike_id":"eb32deb3-eb4f-4902-b681-ffae9f35a3ca","system_id":"levelo_inurba_marseille","lat":43.32044,"lon":5.41545,"is_reserved":false,"is_disabled":false,"rental_uris":{"android":"levelo://app?vid=eb32deb3-eb4f-4902-b681-ffae9f35a3ca","ios":"levelo://app?vid=eb32deb3-eb4f-4902-b681-ffae9f35a3ca"},"vehicle_type_id":"4","last_reported":1742973038,"current_range_meters":4000,"station_id":"ce4bhq92rcd13ifvqhkg","pricing_plan_id":"cebpf4jnsgd1na2vs0mg"},{"bike_id":"c2826a42-9611-4d76-9da5-0170521c0d18","system_id":"levelo_inurba_marseille","lat":43.24072,"lon":5.37764,"is_reserved":false,"is_disabled":false,"rental_uris":{"android":"levelo://app?vid=c2826a42-9611-4d76-9da5-0170521c0d18","ios":"levelo://app?vid=c2826a42-9611-4d76-9da5-0170521c0d18"},"vehicle_type_id":"4","last_reported":1742973038,"current_range_meters":4000,"station_id":"ce4bhnp2rcd13ifvqgvg","pricing_plan_id":"cebpf4jnsgd1na2vs0mg"},{"bike_id":"5d34a88f-e60d-4821-a85a-378298906811","system_id":"levelo_inurba_marseille","lat":43.335881,"lon":5.410128,"is_reserved":false,"is_disabled":false,"rental_uris":{"android":"levelo://app?vid=5d34a88f-e60d-4821-a85a-378298906811","ios":"levelo://app?vid=5d34a88f-e60d-4821-a85a-378298906811"},"vehicle_type_id":"4","last_reported":1742973038,"current_range_meters":4400,"station_id":"ce4bhqh2rcd13ifvqhmg","pricing_plan_id":"cebpf4jnsgd1na2vs0mg"},{"bike_id":"32f54dc6-3413-47f1-9b2d-810e06f763c7","system_id":"levelo_inurba_marseille","lat":43.292524,"lon":5.409094,"is_reserved":false,"is_disabled":false,"rental_uris":{"android":"levelo://app?vid=32f54dc6-3413-47f1-9b2d-810e06f763c7","ios":"levelo://app?vid=32f54dc6-3413-47f1-9b2d-810e06f763c7"},"vehicle_type_id":"4","last_reported":1742973038,"current_range_meters":4400,"station_id":"ce4bh192rcd13ifvqdc0","pricing_plan_id":"cebpf4jnsgd1na2vs0mg"},{"bike_id":"02c642d0-bab7-4205-b1fb-4419adeb4af1","system_id":"levelo_inurba_marseille","lat":43.29042,"lon":5.356,"is_reserved":false,"is_disabled":true,"rental_uris":{"android":"levelo://app?vid=02c642d0-bab7-4205-b1fb-4419adeb4af1","ios":"levelo://app?vid=02c642d0-bab7-4205-b1fb-4419adeb4af1"},"vehicle_type_id":"4","last_reported":1742973038,"current_range_meters":4400,"station_id":"","pricing_plan_id":"cebpf4jnsgd1na2vs0mg"},{"bike_id":"3bb7b5ba-a331-4337-b90c-f11f975f21b9","system_id":"levelo_inurba_marseille","lat":43.28342,"lon":5.3811,"is_reserved":false,"is_disabled":false,"rental_uris":{"android":"levelo://app?vid=3bb7b5ba-a331-4337-b90c-f11f975f21b9","ios":"levelo://app?vid=3bb7b5ba-a331-4337-b90c-f11f975f21b9"},"vehicle_type_id":"4","last_reported":1742973038,"current_range_meters":4400,"station_id":"ce4bh412rcd13ifvqdr0","pricing_plan_id":"cebpf4jnsgd1na2vs0mg"},{"bike_id":"63e8dafc-3749-4a42-ab44-2e79325ba0f1","system_id":"levelo_inurba_marseille","lat":43.25084,"lon":5.39509,"is_reserved":false,"is_disabled":false,"rental_uris":{"android":"levelo://app?vid=63e8dafc-3749-4a42-ab44-2e79325ba0f1","ios":"levelo://app?vid=63e8dafc-3749-4a42-ab44-2e79325ba0f1"},"vehicle_type_id":"4","last_reported":1742973038,"current_range_meters":4400,"station_id":"ce4bhm12rcd13ifvqgkg","pricing_plan_id":"cebpf4jnsgd1na2vs0mg"},{"bike_id":"692301a2-f37e-4c2c-a758-417287f5432c","system_id":"levelo_inurba_marseille","lat":43.29454,"lon":5.40126,"is_reserved":false,"is_disabled":false,"rental_uris":{"android":"levelo://app?vid=692301a2-f37e-4c2c-a758-417287f5432c","ios":"levelo://app?vid=692301a2-f37e-4c2c-a758-417287f5432c"},"vehicle_type_id":"4","last_reported":1742973038,"current_range_meters":4400,"station_id":"ce4bh0h2rcd13ifvqd60","pricing_plan_id":"cebpf4jnsgd1na2vs0mg"},{"bike_id":"77afe1d4-9f6e-4693-81c4-531c77c3748e","system_id":"levelo_inurba_marseille","lat":43.274989,"lon":5.424607,"is_reserved":false,"is_disabled":false,"rental_uris":{"android":"levelo://app?vid=77afe1d4-9f6e-4693-81c4-531c77c3748e","ios":"levelo://app?vid=77afe1d4-9f6e-4693-81c4-531c77c3748e"},"vehicle_type_id":"4","last_reported":1742973038,"current_range_meters":4400,"station_id":"","pricing_plan_id":"cebpf4jnsgd1na2vs0mg"},{"bike_id":"ab3885e5-48b8-4545-bd27-28094bc5e2e1","system_id":"levelo_inurba_marseille","lat":43.30148,"lon":5.37431,"is_reserved":false,"is_disabled":false,"rental_uris":{"android":"levelo://app?vid=ab3885e5-48b8-4545-bd27-28094bc5e2e1","ios":"levelo://app?vid=ab3885e5-48b8-4545-bd27-28094bc5e2e1"},"vehicle_type_id":"4","last_reported":1742973038,"current_range_meters":4400,"station_id":"ce4bgs92rcd13ifvqcc0","pricing_plan_id":"cebpf4jnsgd1na2vs0mg"},{"bike_id":"1f75d39f-3254-4957-8263-7ddcf160c912","system_id":"levelo_inurba_marseille","lat":43.245722,"lon":5.373432,"is_reserved":false,"is_disabled":false,"rental_uris":{"android":"levelo://app?vid=1f75d39f-3254-4957-8263-7ddcf160c912","ios":"levelo://app?vid=1f75d39f-3254-4957-8263-7ddcf160c912"},"vehicle_type_id":"4","last_reported":1742973038,"current_range_meters":4800,"station_id":"ce4bhgp2rcd13ifvqfd0","pricing_plan_id":"cebpf4jnsgd1na2vs0mg"},{"bike_id":"b1173105-f529-480e-aef5-59db0e46514d","system_id":"levelo_inurba_marseille","lat":43.3032,"lon":5.39209,"is_reserved":false,"is_disabled":false,"rental_uris":{"android":"levelo://app?vid=b1173105-f529-480e-aef5-59db0e46514d","ios":"levelo://app?vid=b1173105-f529-480e-aef5-59db0e46514d"},"vehicle_type_id":"4","last_reported":1742973038,"current_range_meters":4800,"station_id":"ce4bgkh2rcd13ifvqbk0","pricing_plan_id":"cebpf4jnsgd1na2vs0mg"},{"bike_id":"ec389884-2041-4e8a-add4-e84cc1827378","system_id":"levelo_inurba_marseille","lat":43.296029,"lon":5.381287,"is_reserved":false,"is_disabled":false,"rental_uris":{"android":"levelo://app?vid=ec389884-2041-4e8a-add4-e84cc1827378","ios":"levelo://app?vid=ec389884-2041-4e8a-add4-e84cc1827378"},"vehicle_type_id":"4","last_reported":1742973038,"current_range_meters":4800,"station_id":"ce4bgl12rcd13ifvqbo0","pricing_plan_id":"cebpf4jnsgd1na2vs0mg"},{"bike_id":"0c6943e4-b7cc-41bd-83a4-f83fe92160da","system_id":"levelo_inurba_marseille","lat":43.2895,"lon":5.36652,"is_reserved":false,"is_disabled":false,"rental_uris":{"android":"levelo://app?vid=0c6943e4-b7cc-41bd-83a4-f83fe92160da","ios":"levelo://app?vid=0c6943e4-b7cc-41bd-83a4-f83fe92160da"},"vehicle_type_id":"4","last_reported":1742973038,"current_range_meters":4800,"station_id":"ce4bhap2rcd13ifvqek0","pricing_plan_id":"cebpf4jnsgd1na2vs0mg"},{"bike_id":"5eb00e60-b5d9-4a65-9bba-344db36c1e04","system_id":"levelo_inurba_marseille","lat":43.25832,"lon":5.39429,"is_reserved":false,"is_disabled":false,"rental_uris":{"android":"levelo://app?vid=5eb00e60-b5d9-4a65-9bba-344db36c1e04","ios":"levelo://app?vid=5eb00e60-b5d9-4a65-9bba-344db36c1e04"},"vehicle_type_id":"4","last_reported":1742973038,"current_range_meters":4800,"station_id":"ce4bhip2rcd13ifvqft0","pricing_plan_id":"cebpf4jnsgd1na2vs0mg"},{"bike_id":"b21195e5-e4c3-4373-887d-f1eda29a9a23","system_id":"levelo_inurba_marseille","lat":43.29231,"lon":5.40916,"is_reserved":false,"is_disabled":false,"rental_uris":{"android":"levelo://app?vid=b21195e5-e4c3-4373-887d-f1eda29a9a23","ios":"levelo://app?vid=b21195e5-e4c3-4373-887d-f1eda29a9a23"},"vehicle_type_id":"4","last_reported":1742973038,"current_range_meters":4800,"station_id":"ce4bh192rcd13ifvqdc0","pricing_plan_id":"cebpf4jnsgd1na2vs0mg"},{"bike_id":"cbf69bd3-6ffd-4f8f-a144-78a906f74efe","system_id":"levelo_inurba_marseille","lat":43.23153,"lon":5.43721,"is_reserved":false,"is_disabled":false,"rental_uris":{"android":"levelo://app?vid=cbf69bd3-6ffd-4f8f-a144-78a906f74efe","ios":"levelo://app?vid=cbf69bd3-6ffd-4f8f-a144-78a906f74efe"},"vehicle_type_id":"4","last_reported":1742973038,"current_range_meters":4800,"station_id":"ce4bhmp2rcd13ifvqgog","pricing_plan_id":"cebpf4jnsgd1na2vs0mg"},{"bike_id":"e3e58b7d-a745-42d7-bf54-3a94925681f1","system_id":"levelo_inurba_marseille","lat":43.23195,"lon":5.3555,"is_reserved":false,"is_disabled":false,"rental_uris":{"android":"levelo://app?vid=e3e58b7d-a745-42d7-bf54-3a94925681f1","ios":"levelo://app?vid=e3e58b7d-a745-42d7-bf54-3a94925681f1"},"vehicle_type_id":"4","last_reported":1742973038,"current_range_meters":4800,"station_id":"ce4bhu92rcd13ifvqi70","pricing_plan_id":"cebpf4jnsgd1na2vs0mg"},{"bike_id":"bc9e59da-24a5-43b2-9344-e686036c5b53","system_id":"levelo_inurba_marseille","lat":43.26066,"lon":5.39397,"is_reserved":false,"is_disabled":false,"rental_uris":{"android":"levelo://app?vid=bc9e59da-24a5-43b2-9344-e686036c5b53","ios":"levelo://app?vid=bc9e59da-24a5-43b2-9344-e686036c5b53"},"vehicle_type_id":"4","last_reported":1742973038,"current_range_meters":4800,"station_id":"ce4bhh92rcd13ifvqfj0","pricing_plan_id":"cebpf4jnsgd1na2vs0mg"},{"bike_id":"954aae59-936e-434a-8098-b80f265b104a","system_id":"levelo_inurba_marseille","lat":43.26942,"lon":5.40257,"is_reserved":false,"is_disabled":false,"rental_uris":{"android":"levelo://app?vid=954aae59-936e-434a-8098-b80f265b104a","ios":"levelo://app?vid=954aae59-936e-434a-8098-b80f265b104a"},"vehicle_type_id":"4","last_reported":1742973038,"current_range_meters":4800,"station_id":"cjm6bp8fraef2m0cb0m0","pricing_plan_id":"cebpf4jnsgd1na2vs0mg"},{"bike_id":"6998abca-5316-4de7-9281-f1119ffbd138","system_id":"levelo_inurba_marseille","lat":43.30534,"lon":5.36542,"is_reserved":false,"is_disabled":false,"rental_uris":{"android":"levelo://app?vid=6998abca-5316-4de7-9281-f1119ffbd138","ios":"levelo://app?vid=6998abca-5316-4de7-9281-f1119ffbd138"},"vehicle_type_id":"4","last_reported":1742973038,"current_range_meters":4800,"station_id":"ce4bgs12rcd13ifvqcag","pricing_plan_id":"cebpf4jnsgd1na2vs0mg"},{"bike_id":"388d359d-6603-4f0a-a7fd-a5a518f7fe1e","system_id":"levelo_inurba_marseille","lat":43.27962,"lon":5.38707,"is_reserved":false,"is_disabled":false,"rental_uris":{"android":"levelo://app?vid=388d359d-6603-4f0a-a7fd-a5a518f7fe1e","ios":"levelo://app?vid=388d359d-6603-4f0a-a7fd-a5a518f7fe1e"},"vehicle_type_id":"4","last_reported":1742973038,"current_range_meters":5600,"station_id":"ce4bhg12rcd13ifvqf80","pricing_plan_id":"cebpf4jnsgd1na2vs0mg"},{"bike_id":"66f69882-9bc0-4f69-af42-1e4faa3ed134","system_id":"levelo_inurba_marseille","lat":43.29898,"lon":5.43661,"is_reserved":false,"is_disabled":false,"rental_uris":{"android":"levelo://app?vid=66f69882-9bc0-4f69-af42-1e4faa3ed134","ios":"levelo://app?vid=66f69882-9bc0-4f69-af42-1e4faa3ed134"},"vehicle_type_id":"4","last_reported":1742973038,"current_range_meters":5600,"station_id":"ce4bhpp2rcd13ifvqhfg","pricing_plan_id":"cebpf4jnsgd1na2vs0mg"},{"bike_id":"9e1900ad-e046-4f32-a94e-e5e6f986be4d","system_id":"levelo_inurba_marseille","lat":43.248137,"lon":5.374456,"is_reserved":false,"is_disabled":false,"rental_uris":{"android":"levelo://app?vid=9e1900ad-e046-4f32-a94e-e5e6f986be4d","ios":"levelo://app?vid=9e1900ad-e046-4f32-a94e-e5e6f986be4d"},"vehicle_type_id":"4","last_reported":1742973038,"current_range_meters":5600,"station_id":"ce4bhgh2rcd13ifvqfb0","pricing_plan_id":"cebpf4jnsgd1na2vs0mg"},{"bike_id":"e06fd3a0-02a6-413f-81de-817b7da619bd","system_id":"levelo_inurba_marseille","lat":43.31266,"lon":5.40184,"is_reserved":false,"is_disabled":false,"rental_uris":{"android":"levelo://app?vid=e06fd3a0-02a6-413f-81de-817b7da619bd","ios":"levelo://app?vid=e06fd3a0-02a6-413f-81de-817b7da619bd"},"vehicle_type_id":"4","last_reported":1742973038,"current_range_meters":5600,"station_id":"ce4bh092rcd13ifvqd30","pricing_plan_id":"cebpf4jnsgd1na2vs0mg"},{"bike_id":"3e3833c1-1af5-4c99-83bc-e5850a5c8043","system_id":"levelo_inurba_marseille","lat":43.26239,"lon":5.38769,"is_reserved":false,"is_disabled":false,"rental_uris":{"android":"levelo://app?vid=3e3833c1-1af5-4c99-83bc-e5850a5c8043","ios":"levelo://app?vid=3e3833c1-1af5-4c99-83bc-e5850a5c8043"},"vehicle_type_id":"4","last_reported":1742973038,"current_range_meters":5600,"station_id":"","pricing_plan_id":"cebpf4jnsgd1na2vs0mg"},{"bike_id":"38e476a3-7fa7-42ff-bc10-2fcb40220abd","system_id":"levelo_inurba_marseille","lat":43.231948,"lon":5.355483,"is_reserved":false,"is_disabled":false,"rental_uris":{"android":"levelo://app?vid=38e476a3-7fa7-42ff-bc10-2fcb40220abd","ios":"levelo://app?vid=38e476a3-7fa7-42ff-bc10-2fcb40220abd"},"vehicle_type_id":"4","last_reported":1742973038,"current_range_meters":5600,"station_id":"ce4bhu92rcd13ifvqi70","pricing_plan_id":"cebpf4jnsgd1na2vs0mg"},{"bike_id":"a9a3120c-266c-4ff8-96d4-6267c57b4b5a","system_id":"levelo_inurba_marseille","lat":43.30203,"lon":5.38756,"is_reserved":false,"is_disabled":false,"rental_uris":{"android":"levelo://app?vid=a9a3120c-266c-4ff8-96d4-6267c57b4b5a","ios":"levelo://app?vid=a9a3120c-266c-4ff8-96d4-6267c57b4b5a"},"vehicle_type_id":"4","last_reported":1742973038,"current_range_meters":5600,"station_id":"ce4bghh2rcd13ifvqb60","pricing_plan_id":"cebpf4jnsgd1na2vs0mg"},{"bike_id":"338ef5ef-6ed0-4719-a7ea-82be458e61b4","system_id":"levelo_inurba_marseille","lat":43.24079,"lon":5.37759,"is_reserved":false,"is_disabled":false,"rental_uris":{"android":"levelo://app?vid=338ef5ef-6ed0-4719-a7ea-82be458e61b4","ios":"levelo://app?vid=338ef5ef-6ed0-4719-a7ea-82be458e61b4"},"vehicle_type_id":"4","last_reported":1742973038,"current_range_meters":6000,"station_id":"ce4bhnp2rcd13ifvqgvg","pricing_plan_id":"cebpf4jnsgd1na2vs0mg"},{"bike_id":"2a00e69f-e8f0-4293-a71f-9f6c011d4f23","system_id":"levelo_inurba_marseille","lat":43.24965,"lon":5.38927,"is_reserved":false,"is_disabled":false,"rental_uris":{"android":"levelo://app?vid=2a00e69f-e8f0-4293-a71f-9f6c011d4f23","ios":"levelo://app?vid=2a00e69f-e8f0-4293-a71f-9f6c011d4f23"},"vehicle_type_id":"4","last_reported":1742973038,"current_range_meters":6000,"station_id":"ce4bhgp2rcd13ifvqfd0","pricing_plan_id":"cebpf4jnsgd1na2vs0mg"},{"bike_id":"ddf6cb6f-e318-4ef7-9a4d-5581365f4cae","system_id":"levelo_inurba_marseille","lat":43.28027,"lon":5.36952,"is_reserved":false,"is_disabled":false,"rental_uris":{"android":"levelo://app?vid=ddf6cb6f-e318-4ef7-9a4d-5581365f4cae","ios":"levelo://app?vid=ddf6cb6f-e318-4ef7-9a4d-5581365f4cae"},"vehicle_type_id":"4","last_reported":1742973038,"current_range_meters":6000,"station_id":"ce4bha12rcd13ifvqef0","pricing_plan_id":"cebpf4jnsgd1na2vs0mg"},{"bike_id":"a0d4632a-7a87-4031-aeeb-061ca0feaca6","system_id":"levelo_inurba_marseille","lat":43.239606,"lon":5.366231,"is_reserved":false,"is_disabled":false,"rental_uris":{"android":"levelo://app?vid=a0d4632a-7a87-4031-aeeb-061ca0feaca6","ios":"levelo://app?vid=a0d4632a-7a87-4031-aeeb-061ca0feaca6"},"vehicle_type_id":"4","last_reported":1742973038,"current_range_meters":6000,"station_id":"ce4bhi12rcd13ifvqfp0","pricing_plan_id":"cebpf4jnsgd1na2vs0mg"},{"bike_id":"ef43d9bd-e531-4a59-b8a9-fdc80b41fa34","system_id":"levelo_inurba_marseille","lat":43.312853,"lon":5.401692,"is_reserved":false,"is_disabled":true,"rental_uris":{"android":"levelo://app?vid=ef43d9bd-e531-4a59-b8a9-fdc80b41fa34","ios":"levelo://app?vid=ef43d9bd-e531-4a59-b8a9-fdc80b41fa34"},"vehicle_type_id":"4","last_reported":1742973038,"current_range_meters":6000,"station_id":"ce4bh092rcd13ifvqd30","pricing_plan_id":"cebpf4jnsgd1na2vs0mg"},{"bike_id":"52d363fe-5316-4f57-b127-d18678d2192d","system_id":"levelo_inurba_marseille","lat":43.30295,"lon":5.36918,"is_reserved":false,"is_disabled":false,"rental_uris":{"android":"levelo://app?vid=52d363fe-5316-4f57-b127-d18678d2192d","ios":"levelo://app?vid=52d363fe-5316-4f57-b127-d18678d2192d"},"vehicle_type_id":"4","last_reported":1742973038,"current_range_meters":6000,"station_id":"ce4bgqh2rcd13ifvqc5g","pricing_plan_id":"cebpf4jnsgd1na2vs0mg"},{"bike_id":"5a38931b-2d7b-4bf3-8299-4a90c2fd7d7b","system_id":"levelo_inurba_marseille","lat":43.24075,"lon":5.37755,"is_reserved":false,"is_disabled":false,"rental_uris":{"android":"levelo://app?vid=5a38931b-2d7b-4bf3-8299-4a90c2fd7d7b","ios":"levelo://app?vid=5a38931b-2d7b-4bf3-8299-4a90c2fd7d7b"},"vehicle_type_id":"4","last_reported":1742973038,"current_range_meters":6000,"station_id":"ce4bhnp2rcd13ifvqgvg","pricing_plan_id":"cebpf4jnsgd1na2vs0mg"},{"bike_id":"497957ac-f634-47bb-825f-bbffb781347d","system_id":"levelo_inurba_marseille","lat":43.308815,"lon":5.396404,"is_reserved":false,"is_disabled":false,"rental_uris":{"android":"levelo://app?vid=497957ac-f634-47bb-825f-bbffb781347d","ios":"levelo://app?vid=497957ac-f634-47bb-825f-bbffb781347d"},"vehicle_type_id":"4","last_reported":1742973038,"current_range_meters":6400,"station_id":"ce4bh012rcd13ifvqcv0","pricing_plan_id":"cebpf4jnsgd1na2vs0mg"},{"bike_id":"c19444f2-40df-441c-a440-0e4c0b3b47cb","system_id":"levelo_inurba_marseille","lat":43.30459,"lon":5.37927,"is_reserved":false,"is_disabled":false,"rental_uris":{"android":"levelo://app?vid=c19444f2-40df-441c-a440-0e4c0b3b47cb","ios":"levelo://app?vid=c19444f2-40df-441c-a440-0e4c0b3b47cb"},"vehicle_type_id":"4","last_reported":1742973038,"current_range_meters":6400,"station_id":"ce4bgup2rcd13ifvqcn0","pricing_plan_id":"cebpf4jnsgd1na2vs0mg"},{"bike_id":"123e9ae9-b7e2-45ea-bb43-6dbdcbc5dfc7","system_id":"levelo_inurba_marseille","lat":43.26952,"lon":5.38642,"is_reserved":false,"is_disabled":false,"rental_uris":{"android":"levelo://app?vid=123e9ae9-b7e2-45ea-bb43-6dbdcbc5dfc7","ios":"levelo://app?vid=123e9ae9-b7e2-45ea-bb43-6dbdcbc5dfc7"},"vehicle_type_id":"4","last_reported":1742973038,"current_range_meters":6400,"station_id":"ce4bhh92rcd13ifvqfh0","pricing_plan_id":"cebpf4jnsgd1na2vs0mg"},{"bike_id":"f0dc1799-be0b-41f2-87a2-bbe5c38b40e1","system_id":"levelo_inurba_marseille","lat":43.30621,"lon":5.39366,"is_reserved":false,"is_disabled":true,"rental_uris":{"android":"levelo://app?vid=f0dc1799-be0b-41f2-87a2-bbe5c38b40e1","ios":"levelo://app?vid=f0dc1799-be0b-41f2-87a2-bbe5c38b40e1"},"vehicle_type_id":"4","last_reported":1742973038,"current_range_meters":6400,"station_id":"ce4bh0p2rcd13ifvqd80","pricing_plan_id":"cebpf4jnsgd1na2vs0mg"},{"bike_id":"f79c72f1-af32-47df-99ec-857a9987b79c","system_id":"levelo_inurba_marseille","lat":43.285724,"lon":5.394994,"is_reserved":false,"is_disabled":false,"rental_uris":{"android":"levelo://app?vid=f79c72f1-af32-47df-99ec-857a9987b79c","ios":"levelo://app?vid=f79c72f1-af32-47df-99ec-857a9987b79c"},"vehicle_type_id":"4","last_reported":1742973038,"current_range_meters":6400,"station_id":"ce4bh292rcd13ifvqdg0","pricing_plan_id":"cebpf4jnsgd1na2vs0mg"},{"bike_id":"db811f57-dede-4d44-82c0-cb4acc83a7f0","system_id":"levelo_inurba_marseille","lat":43.28485,"lon":5.38417,"is_reserved":false,"is_disabled":false,"rental_uris":{"android":"levelo://app?vid=db811f57-dede-4d44-82c0-cb4acc83a7f0","ios":"levelo://app?vid=db811f57-dede-4d44-82c0-cb4acc83a7f0"},"vehicle_type_id":"4","last_reported":1742973038,"current_range_meters":6400,"station_id":"ce4bh512rcd13ifvqe3g","pricing_plan_id":"cebpf4jnsgd1na2vs0mg"},{"bike_id":"bbe912d0-9523-48a8-9e9e-535309c5eaa6","system_id":"levelo_inurba_marseille","lat":43.29297,"lon":5.37434,"is_reserved":false,"is_disabled":true,"rental_uris":{"android":"levelo://app?vid=bbe912d0-9523-48a8-9e9e-535309c5eaa6","ios":"levelo://app?vid=bbe912d0-9523-48a8-9e9e-535309c5eaa6"},"vehicle_type_id":"4","last_reported":1742973038,"current_range_meters":6400,"station_id":"ce4bgi12rcd13ifvqb70","pricing_plan_id":"cebpf4jnsgd1na2vs0mg"},{"bike_id":"2a99ecb7-4bf0-4c00-89bb-11ff019b8a6d","system_id":"levelo_inurba_marseille","lat":43.22937,"lon":5.35352,"is_reserved":false,"is_disabled":false,"rental_uris":{"android":"levelo://app?vid=2a99ecb7-4bf0-4c00-89bb-11ff019b8a6d","ios":"levelo://app?vid=2a99ecb7-4bf0-4c00-89bb-11ff019b8a6d"},"vehicle_type_id":"4","last_reported":1742973038,"current_range_meters":6800,"station_id":"cpo3532slgdg3j2ikp40","pricing_plan_id":"cebpf4jnsgd1na2vs0mg"},{"bike_id":"e3f76d45-4904-44a7-aac2-e04832e991bb","system_id":"levelo_inurba_marseille","lat":43.29967,"lon":5.41327,"is_reserved":false,"is_disabled":true,"rental_uris":{"android":"levelo://app?vid=e3f76d45-4904-44a7-aac2-e04832e991bb","ios":"levelo://app?vid=e3f76d45-4904-44a7-aac2-e04832e991bb"},"vehicle_type_id":"4","last_reported":1742973038,"current_range_meters":6800,"station_id":"ce4bhp12rcd13ifvqh9g","pricing_plan_id":"cebpf4jnsgd1na2vs0mg"},{"bike_id":"75d35072-16b2-426e-8812-4140a8282191","system_id":"levelo_inurba_marseille","lat":43.24816,"lon":5.37465,"is_reserved":false,"is_disabled":false,"rental_uris":{"android":"levelo://app?vid=75d35072-16b2-426e-8812-4140a8282191","ios":"levelo://app?vid=75d35072-16b2-426e-8812-4140a8282191"},"vehicle_type_id":"4","last_reported":1742973038,"current_range_meters":6800,"station_id":"ce4bhgh2rcd13ifvqfb0","pricing_plan_id":"cebpf4jnsgd1na2vs0mg"},{"bike_id":"d0ce6a4c-8c1a-4117-b620-bb8816808dbc","system_id":"levelo_inurba_marseille","lat":43.23978,"lon":5.36659,"is_reserved":false,"is_disabled":false,"rental_uris":{"android":"levelo://app?vid=d0ce6a4c-8c1a-4117-b620-bb8816808dbc","ios":"levelo://app?vid=d0ce6a4c-8c1a-4117-b620-bb8816808dbc"},"vehicle_type_id":"4","last_reported":1742973038,"current_range_meters":6800,"station_id":"ce4bhi12rcd13ifvqfp0","pricing_plan_id":"cebpf4jnsgd1na2vs0mg"},{"bike_id":"b6fd1ec3-47b2-486f-8b84-f71e2b87ecef","system_id":"levelo_inurba_marseille","lat":43.31086,"lon":5.42419,"is_reserved":false,"is_disabled":true,"rental_uris":{"android":"levelo://app?vid=b6fd1ec3-47b2-486f-8b84-f71e2b87ecef","ios":"levelo://app?vid=b6fd1ec3-47b2-486f-8b84-f71e2b87ecef"},"vehicle_type_id":"4","last_reported":1742973038,"current_range_meters":6800,"station_id":"ce4bhp92rcd13ifvqhag","pricing_plan_id":"cebpf4jnsgd1na2vs0mg"},{"bike_id":"6c40bd81-af13-42e4-8827-fa8af6ebc8cc","system_id":"levelo_inurba_marseille","lat":43.24823,"lon":5.37433,"is_reserved":false,"is_disabled":false,"rental_uris":{"android":"levelo://app?vid=6c40bd81-af13-42e4-8827-fa8af6ebc8cc","ios":"levelo://app?vid=6c40bd81-af13-42e4-8827-fa8af6ebc8cc"},"vehicle_type_id":"4","last_reported":1742973038,"current_range_meters":6800,"station_id":"ce4bhgh2rcd13ifvqfb0","pricing_plan_id":"cebpf4jnsgd1na2vs0mg"},{"bike_id":"f63f5481-a6f7-4d46-af84-60ed21e786f8","system_id":"levelo_inurba_marseille","lat":43.28432,"lon":5.37529,"is_reserved":false,"is_disabled":true,"rental_uris":{"android":"levelo://app?vid=f63f5481-a6f7-4d46-af84-60ed21e786f8","ios":"levelo://app?vid=f63f5481-a6f7-4d46-af84-60ed21e786f8"},"vehicle_type_id":"4","last_reported":1742973038,"current_range_meters":6800,"station_id":"ce4bh412rcd13ifvqds0","pricing_plan_id":"cebpf4jnsgd1na2vs0mg"},{"bike_id":"81a7d908-ebf6-46b7-badc-36cb295f7a9d","system_id":"levelo_inurba_marseille","lat":43.30152,"lon":5.38073,"is_reserved":false,"is_disabled":false,"rental_uris":{"android":"levelo://app?vid=81a7d908-ebf6-46b7-badc-36cb295f7a9d","ios":"levelo://app?vid=81a7d908-ebf6-46b7-badc-36cb295f7a9d"},"vehicle_type_id":"4","last_reported":1742973038,"current_range_meters":6800,"station_id":"ce4bgjp2rcd13ifvqbh0","pricing_plan_id":"cebpf4jnsgd1na2vs0mg"},{"bike_id":"22a21f30-f926-4b55-9440-4d8cdfed855e","system_id":"levelo_inurba_marseille","lat":43.25934,"lon":5.40909,"is_reserved":false,"is_disabled":false,"rental_uris":{"android":"levelo://app?vid=22a21f30-f926-4b55-9440-4d8cdfed855e","ios":"levelo://app?vid=22a21f30-f926-4b55-9440-4d8cdfed855e"},"vehicle_type_id":"4","last_reported":1742973038,"current_range_meters":7200,"station_id":"ce4bhm92rcd13ifvqglg","pricing_plan_id":"cebpf4jnsgd1na2vs0mg"},{"bike_id":"c9578b47-9857-4396-852d-050cd99a85f0","system_id":"levelo_inurba_marseille","lat":43.24658,"lon":5.382,"is_reserved":false,"is_disabled":false,"rental_uris":{"android":"levelo://app?vid=c9578b47-9857-4396-852d-050cd99a85f0","ios":"levelo://app?vid=c9578b47-9857-4396-852d-050cd99a85f0"},"vehicle_type_id":"4","last_reported":1742973038,"current_range_meters":7200,"station_id":"ce4bhih2rcd13ifvqfr0","pricing_plan_id":"cebpf4jnsgd1na2vs0mg"},{"bike_id":"2f3e2a92-1301-4a27-8eaa-7b0ea525530e","system_id":"levelo_inurba_marseille","lat":43.317126,"lon":5.437053,"is_reserved":false,"is_disabled":false,"rental_uris":{"android":"levelo://app?vid=2f3e2a92-1301-4a27-8eaa-7b0ea525530e","ios":"levelo://app?vid=2f3e2a92-1301-4a27-8eaa-7b0ea525530e"},"vehicle_type_id":"4","last_reported":1742973038,"current_range_meters":7200,"station_id":"ce4bhp92rcd13ifvqhcg","pricing_plan_id":"cebpf4jnsgd1na2vs0mg"},{"bike_id":"ada4ba7b-2dc8-47ef-a5a8-9dc4e4bd1916","system_id":"levelo_inurba_marseille","lat":43.30714,"lon":5.36818,"is_reserved":false,"is_disabled":false,"rental_uris":{"android":"levelo://app?vid=ada4ba7b-2dc8-47ef-a5a8-9dc4e4bd1916","ios":"levelo://app?vid=ada4ba7b-2dc8-47ef-a5a8-9dc4e4bd1916"},"vehicle_type_id":"4","last_reported":1742973038,"current_range_meters":7200,"station_id":"","pricing_plan_id":"cebpf4jnsgd1na2vs0mg"},{"bike_id":"896d5863-1ac5-46eb-b4be-2c9a5b236c8f","system_id":"levelo_inurba_marseille","lat":43.2843,"lon":5.39196,"is_reserved":false,"is_disabled":false,"rental_uris":{"android":"levelo://app?vid=896d5863-1ac5-46eb-b4be-2c9a5b236c8f","ios":"levelo://app?vid=896d5863-1ac5-46eb-b4be-2c9a5b236c8f"},"vehicle_type_id":"4","last_reported":1742973038,"current_range_meters":7200,"station_id":"ce4bhoh2rcd13ifvqh5g","pricing_plan_id":"cebpf4jnsgd1na2vs0mg"},{"bike_id":"95a49566-2e63-40b4-8bd4-792742c35873","system_id":"levelo_inurba_marseille","lat":43.29042,"lon":5.39961,"is_reserved":false,"is_disabled":false,"rental_uris":{"android":"levelo://app?vid=95a49566-2e63-40b4-8bd4-792742c35873","ios":"levelo://app?vid=95a49566-2e63-40b4-8bd4-792742c35873"},"vehicle_type_id":"4","last_reported":1742973038,"current_range_meters":7200,"station_id":"ce4bh392rcd13ifvqdm0","pricing_plan_id":"cebpf4jnsgd1na2vs0mg"},{"bike_id":"93078507-e1dd-4563-a3f1-b80fe792968f","system_id":"levelo_inurba_marseille","lat":43.29642,"lon":5.40623,"is_reserved":false,"is_disabled":false,"rental_uris":{"android":"levelo://app?vid=93078507-e1dd-4563-a3f1-b80fe792968f","ios":"levelo://app?vid=93078507-e1dd-4563-a3f1-b80fe792968f"},"vehicle_type_id":"4","last_reported":1742973038,"current_range_meters":7200,"station_id":"ce4bh0h2rcd13ifvqd60","pricing_plan_id":"cebpf4jnsgd1na2vs0mg"},{"bike_id":"f294d69a-8637-46e9-95b8-3d82151d6376","system_id":"levelo_inurba_marseille","lat":43.27982,"lon":5.41662,"is_reserved":false,"is_disabled":true,"rental_uris":{"android":"levelo://app?vid=f294d69a-8637-46e9-95b8-3d82151d6376","ios":"levelo://app?vid=f294d69a-8637-46e9-95b8-3d82151d6376"},"vehicle_type_id":"4","last_reported":1742973038,"current_range_meters":8000,"station_id":"ce4bho12rcd13ifvqh1g","pricing_plan_id":"cebpf4jnsgd1na2vs0mg"},{"bike_id":"225cbe9d-4f8e-432e-b5e7-cd7e14da2d62","system_id":"levelo_inurba_marseille","lat":43.28162,"lon":5.42652,"is_reserved":false,"is_disabled":false,"rental_uris":{"android":"levelo://app?vid=225cbe9d-4f8e-432e-b5e7-cd7e14da2d62","ios":"levelo://app?vid=225cbe9d-4f8e-432e-b5e7-cd7e14da2d62"},"vehicle_type_id":"4","last_reported":1742973038,"current_range_meters":8000,"station_id":"ce4bhnh2rcd13ifvqgug","pricing_plan_id":"cebpf4jnsgd1na2vs0mg"},{"bike_id":"0c9cada4-2764-4013-a528-15089818cb84","system_id":"levelo_inurba_marseille","lat":43.27752,"lon":5.41144,"is_reserved":false,"is_disabled":false,"rental_uris":{"android":"levelo://app?vid=0c9cada4-2764-4013-a528-15089818cb84","ios":"levelo://app?vid=0c9cada4-2764-4013-a528-15089818cb84"},"vehicle_type_id":"4","last_reported":1742973038,"current_range_meters":8000,"station_id":"","pricing_plan_id":"cebpf4jnsgd1na2vs0mg"},{"bike_id":"5947461e-f1d9-4b8a-a16b-079c1e611686","system_id":"levelo_inurba_marseille","lat":43.28264,"lon":5.35087,"is_reserved":false,"is_disabled":true,"rental_uris":{"android":"levelo://app?vid=5947461e-f1d9-4b8a-a16b-079c1e611686","ios":"levelo://app?vid=5947461e-f1d9-4b8a-a16b-079c1e611686"},"vehicle_type_id":"4","last_reported":1742973038,"current_range_meters":8000,"station_id":"ce4bhbp2rcd13ifvqerg","pricing_plan_id":"cebpf4jnsgd1na2vs0mg"},{"bike_id":"74406c35-ee35-437d-be26-2d7711378046","system_id":"levelo_inurba_marseille","lat":43.32366,"lon":5.36776,"is_reserved":false,"is_disabled":false,"rental_uris":{"android":"levelo://app?vid=74406c35-ee35-437d-be26-2d7711378046","ios":"levelo://app?vid=74406c35-ee35-437d-be26-2d7711378046"},"vehicle_type_id":"4","last_reported":1742973038,"current_range_meters":8000,"station_id":"ce4bhsh2rcd13ifvqi2g","pricing_plan_id":"cebpf4jnsgd1na2vs0mg"},{"bike_id":"11438d8e-2d0f-46ba-9f5d-f2d8f9f5eadf","system_id":"levelo_inurba_marseille","lat":43.25052,"lon":5.39546,"is_reserved":false,"is_disabled":false,"rental_uris":{"android":"levelo://app?vid=11438d8e-2d0f-46ba-9f5d-f2d8f9f5eadf","ios":"levelo://app?vid=11438d8e-2d0f-46ba-9f5d-f2d8f9f5eadf"},"vehicle_type_id":"4","last_reported":1742973038,"current_range_meters":8000,"station_id":"","pricing_plan_id":"cebpf4jnsgd1na2vs0mg"},{"bike_id":"f3371853-40bf-4a23-bed4-87c9715e98c9","system_id":"levelo_inurba_marseille","lat":43.268015,"lon":5.402569,"is_reserved":false,"is_disabled":false,"rental_uris":{"android":"levelo://app?vid=f3371853-40bf-4a23-bed4-87c9715e98c9","ios":"levelo://app?vid=f3371853-40bf-4a23-bed4-87c9715e98c9"},"vehicle_type_id":"4","last_reported":1742973038,"current_range_meters":8000,"station_id":"ce501612rcd8frsf0b60","pricing_plan_id":"cebpf4jnsgd1na2vs0mg"},{"bike_id":"74ed019f-51e9-4336-8496-4c595e435551","system_id":"levelo_inurba_marseille","lat":43.282749,"lon":5.350628,"is_reserved":false,"is_disabled":false,"rental_uris":{"android":"levelo://app?vid=74ed019f-51e9-4336-8496-4c595e435551","ios":"levelo://app?vid=74ed019f-51e9-4336-8496-4c595e435551"},"vehicle_type_id":"4","last_reported":1742973038,"current_range_meters":8000,"station_id":"ce4bhbp2rcd13ifvqerg","pricing_plan_id":"cebpf4jnsgd1na2vs0mg"},{"bike_id":"8c5e09de-c9ee-4ecd-8bf7-a9da954099c1","system_id":"levelo_inurba_marseille","lat":43.28002,"lon":5.39991,"is_reserved":false,"is_disabled":false,"rental_uris":{"android":"levelo://app?vid=8c5e09de-c9ee-4ecd-8bf7-a9da954099c1","ios":"levelo://app?vid=8c5e09de-c9ee-4ecd-8bf7-a9da954099c1"},"vehicle_type_id":"4","last_reported":1742973038,"current_range_meters":8000,"station_id":"ce4bho92rcd13ifvqh4g","pricing_plan_id":"cebpf4jnsgd1na2vs0mg"},{"bike_id":"30d2fbca-239f-49cd-b89b-17b0ba382ee0","system_id":"levelo_inurba_marseille","lat":43.24075,"lon":5.37764,"is_reserved":false,"is_disabled":false,"rental_uris":{"android":"levelo://app?vid=30d2fbca-239f-49cd-b89b-17b0ba382ee0","ios":"levelo://app?vid=30d2fbca-239f-49cd-b89b-17b0ba382ee0"},"vehicle_type_id":"4","last_reported":1742973038,"current_range_meters":8000,"station_id":"ce4bhnp2rcd13ifvqgvg","pricing_plan_id":"cebpf4jnsgd1na2vs0mg"},{"bike_id":"82efc435-7eec-4dea-b095-375df48a06d3","system_id":"levelo_inurba_marseille","lat":43.251143,"lon":5.403013,"is_reserved":false,"is_disabled":false,"rental_uris":{"android":"levelo://app?vid=82efc435-7eec-4dea-b095-375df48a06d3","ios":"levelo://app?vid=82efc435-7eec-4dea-b095-375df48a06d3"},"vehicle_type_id":"4","last_reported":1742973038,"current_range_meters":8000,"station_id":"ce4bhlh2rcd13ifvqgig","pricing_plan_id":"cebpf4jnsgd1na2vs0mg"},{"bike_id":"342f19f0-681f-4097-b14f-f905cbb3bfb3","system_id":"levelo_inurba_marseille","lat":43.27382,"lon":5.36275,"is_reserved":false,"is_disabled":false,"rental_uris":{"android":"levelo://app?vid=342f19f0-681f-4097-b14f-f905cbb3bfb3","ios":"levelo://app?vid=342f19f0-681f-4097-b14f-f905cbb3bfb3"},"vehicle_type_id":"4","last_reported":1742973038,"current_range_meters":8000,"station_id":"ce4bhbh2rcd13ifvqeo0","pricing_plan_id":"cebpf4jnsgd1na2vs0mg"},{"bike_id":"89e75ed9-7f20-48f7-ad37-e0033e47c633","system_id":"levelo_inurba_marseille","lat":43.24639,"lon":5.38908,"is_reserved":false,"is_disabled":false,"rental_uris":{"android":"levelo://app?vid=89e75ed9-7f20-48f7-ad37-e0033e47c633","ios":"levelo://app?vid=89e75ed9-7f20-48f7-ad37-e0033e47c633"},"vehicle_type_id":"4","last_reported":1742973038,"current_range_meters":8000,"station_id":"ce4bhg12rcd13ifvqf60","pricing_plan_id":"cebpf4jnsgd1na2vs0mg"},{"bike_id":"5eb0e2f0-8111-4362-8b3d-f072323b11aa","system_id":"levelo_inurba_marseille","lat":43.28615,"lon":5.37064,"is_reserved":false,"is_disabled":false,"rental_uris":{"android":"levelo://app?vid=5eb0e2f0-8111-4362-8b3d-f072323b11aa","ios":"levelo://app?vid=5eb0e2f0-8111-4362-8b3d-f072323b11aa"},"vehicle_type_id":"4","last_reported":1742973038,"current_range_meters":8400,"station_id":"ce4bht12rcd13ifvqi60","pricing_plan_id":"cebpf4jnsgd1na2vs0mg"},{"bike_id":"c5a53012-3ad4-48af-9734-3592df1799d5","system_id":"levelo_inurba_marseille","lat":43.231974,"lon":5.355509,"is_reserved":false,"is_disabled":false,"rental_uris":{"android":"levelo://app?vid=c5a53012-3ad4-48af-9734-3592df1799d5","ios":"levelo://app?vid=c5a53012-3ad4-48af-9734-3592df1799d5"},"vehicle_type_id":"4","last_reported":1742973038,"current_range_meters":8400,"station_id":"ce4bhu92rcd13ifvqi70","pricing_plan_id":"cebpf4jnsgd1na2vs0mg"},{"bike_id":"6633349b-54ae-41b8-88d5-61ec5d012302","system_id":"levelo_inurba_marseille","lat":43.321087,"lon":5.367695,"is_reserved":false,"is_disabled":false,"rental_uris":{"android":"levelo://app?vid=6633349b-54ae-41b8-88d5-61ec5d012302","ios":"levelo://app?vid=6633349b-54ae-41b8-88d5-61ec5d012302"},"vehicle_type_id":"4","last_reported":1742973038,"current_range_meters":8400,"station_id":"ce4bhrh2rcd13ifvqhug","pricing_plan_id":"cebpf4jnsgd1na2vs0mg"},{"bike_id":"34a65679-9fb1-4403-90b3-341e4c2e2050","system_id":"levelo_inurba_marseille","lat":43.28394,"lon":5.37515,"is_reserved":false,"is_disabled":false,"rental_uris":{"android":"levelo://app?vid=34a65679-9fb1-4403-90b3-341e4c2e2050","ios":"levelo://app?vid=34a65679-9fb1-4403-90b3-341e4c2e2050"},"vehicle_type_id":"4","last_reported":1742973038,"current_range_meters":8400,"station_id":"ce4bh412rcd13ifvqds0","pricing_plan_id":"cebpf4jnsgd1na2vs0mg"},{"bike_id":"79511999-36a4-40b7-932f-a8d34fad90ac","system_id":"levelo_inurba_marseille","lat":43.30883,"lon":5.39624,"is_reserved":false,"is_disabled":false,"rental_uris":{"android":"levelo://app?vid=79511999-36a4-40b7-932f-a8d34fad90ac","ios":"levelo://app?vid=79511999-36a4-40b7-932f-a8d34fad90ac"},"vehicle_type_id":"4","last_reported":1742973038,"current_range_meters":8400,"station_id":"ce4bh012rcd13ifvqcv0","pricing_plan_id":"cebpf4jnsgd1na2vs0mg"},{"bike_id":"16e3790f-41b6-400e-8d88-6751ca433300","system_id":"levelo_inurba_marseille","lat":43.24993,"lon":5.38949,"is_reserved":false,"is_disabled":false,"rental_uris":{"android":"levelo://app?vid=16e3790f-41b6-400e-8d88-6751ca433300","ios":"levelo://app?vid=16e3790f-41b6-400e-8d88-6751ca433300"},"vehicle_type_id":"4","last_reported":1742973038,"current_range_meters":8400,"station_id":"ce4bhgp2rcd13ifvqfd0","pricing_plan_id":"cebpf4jnsgd1na2vs0mg"},{"bike_id":"5886c7c0-83f6-49c8-97fc-39bfee4db6df","system_id":"levelo_inurba_marseille","lat":43.27975,"lon":5.387343,"is_reserved":false,"is_disabled":false,"rental_uris":{"android":"levelo://app?vid=5886c7c0-83f6-49c8-97fc-39bfee4db6df","ios":"levelo://app?vid=5886c7c0-83f6-49c8-97fc-39bfee4db6df"},"vehicle_type_id":"4","last_reported":1742973038,"current_range_meters":8400,"station_id":"ce4bhg12rcd13ifvqf80","pricing_plan_id":"cebpf4jnsgd1na2vs0mg"},{"bike_id":"8046ef72-cb0a-400d-b1d8-b0250c67a0d7","system_id":"levelo_inurba_marseille","lat":43.24699,"lon":5.38141,"is_reserved":false,"is_disabled":false,"rental_uris":{"android":"levelo://app?vid=8046ef72-cb0a-400d-b1d8-b0250c67a0d7","ios":"levelo://app?vid=8046ef72-cb0a-400d-b1d8-b0250c67a0d7"},"vehicle_type_id":"4","last_reported":1742973038,"current_range_meters":8400,"station_id":"ce4bhih2rcd13ifvqfr0","pricing_plan_id":"cebpf4jnsgd1na2vs0mg"},{"bike_id":"68254b2f-a8ae-4baa-bc07-7b79f85032f3","system_id":"levelo_inurba_marseille","lat":43.24083,"lon":5.37749,"is_reserved":false,"is_disabled":false,"rental_uris":{"android":"levelo://app?vid=68254b2f-a8ae-4baa-bc07-7b79f85032f3","ios":"levelo://app?vid=68254b2f-a8ae-4baa-bc07-7b79f85032f3"},"vehicle_type_id":"4","last_reported":1742973038,"current_range_meters":8400,"station_id":"ce4bhnp2rcd13ifvqgvg","pricing_plan_id":"cebpf4jnsgd1na2vs0mg"},{"bike_id":"8583bcae-e817-4db7-ab92-448c595780ea","system_id":"levelo_inurba_marseille","lat":43.33049,"lon":5.39029,"is_reserved":false,"is_disabled":false,"rental_uris":{"android":"levelo://app?vid=8583bcae-e817-4db7-ab92-448c595780ea","ios":"levelo://app?vid=8583bcae-e817-4db7-ab92-448c595780ea"},"vehicle_type_id":"4","last_reported":1742973038,"current_range_meters":8400,"station_id":"ce4bhr92rcd13ifvqhrg","pricing_plan_id":"cebpf4jnsgd1na2vs0mg"},{"bike_id":"059c9c4c-3e3b-49b7-a193-d6a49b2ab23f","system_id":"levelo_inurba_marseille","lat":43.270151,"lon":5.431418,"is_reserved":false,"is_disabled":false,"rental_uris":{"android":"levelo://app?vid=059c9c4c-3e3b-49b7-a193-d6a49b2ab23f","ios":"levelo://app?vid=059c9c4c-3e3b-49b7-a193-d6a49b2ab23f"},"vehicle_type_id":"4","last_reported":1742973038,"current_range_meters":8800,"station_id":"","pricing_plan_id":"cebpf4jnsgd1na2vs0mg"},{"bike_id":"38351309-2dec-417c-a558-74c8bc991036","system_id":"levelo_inurba_marseille","lat":43.3079,"lon":5.40653,"is_reserved":false,"is_disabled":true,"rental_uris":{"android":"levelo://app?vid=38351309-2dec-417c-a558-74c8bc991036","ios":"levelo://app?vid=38351309-2dec-417c-a558-74c8bc991036"},"vehicle_type_id":"4","last_reported":1742973038,"current_range_meters":8800,"station_id":"","pricing_plan_id":"cebpf4jnsgd1na2vs0mg"},{"bike_id":"5afadd01-05af-47f2-b106-8c57133c5065","system_id":"levelo_inurba_marseille","lat":43.29976,"lon":5.38505,"is_reserved":false,"is_disabled":true,"rental_uris":{"android":"levelo://app?vid=5afadd01-05af-47f2-b106-8c57133c5065","ios":"levelo://app?vid=5afadd01-05af-47f2-b106-8c57133c5065"},"vehicle_type_id":"4","last_reported":1742973038,"current_range_meters":8800,"station_id":"ce4bgj92rcd13ifvqbd0","pricing_plan_id":"cebpf4jnsgd1na2vs0mg"},{"bike_id":"e7fb0541-4ec4-4639-9364-0dcd87fd24a7","system_id":"levelo_inurba_marseille","lat":43.28358,"lon":5.38103,"is_reserved":false,"is_disabled":false,"rental_uris":{"android":"levelo://app?vid=e7fb0541-4ec4-4639-9364-0dcd87fd24a7","ios":"levelo://app?vid=e7fb0541-4ec4-4639-9364-0dcd87fd24a7"},"vehicle_type_id":"4","last_reported":1742973038,"current_range_meters":8800,"station_id":"ce4bh412rcd13ifvqdr0","pricing_plan_id":"cebpf4jnsgd1na2vs0mg"},{"bike_id":"41a3dd54-69c8-4a8c-8cb4-82f3648e8acc","system_id":"levelo_inurba_marseille","lat":43.24082,"lon":5.37753,"is_reserved":false,"is_disabled":false,"rental_uris":{"android":"levelo://app?vid=41a3dd54-69c8-4a8c-8cb4-82f3648e8acc","ios":"levelo://app?vid=41a3dd54-69c8-4a8c-8cb4-82f3648e8acc"},"vehicle_type_id":"4","last_reported":1742973038,"current_range_meters":8800,"station_id":"ce4bhnp2rcd13ifvqgvg","pricing_plan_id":"cebpf4jnsgd1na2vs0mg"},{"bike_id":"16f70cab-d4cb-4a7a-b797-1a0e46b62d6d","system_id":"levelo_inurba_marseille","lat":43.30201,"lon":5.39474,"is_reserved":false,"is_disabled":false,"rental_uris":{"android":"levelo://app?vid=16f70cab-d4cb-4a7a-b797-1a0e46b62d6d","ios":"levelo://app?vid=16f70cab-d4cb-4a7a-b797-1a0e46b62d6d"},"vehicle_type_id":"4","last_reported":1742973038,"current_range_meters":8800,"station_id":"ce4bh0p2rcd13ifvqd70","pricing_plan_id":"cebpf4jnsgd1na2vs0mg"},{"bike_id":"718f24c0-a774-44c3-a06c-278dd7ec8e2a","system_id":"levelo_inurba_marseille","lat":43.2952,"lon":5.39404,"is_reserved":false,"is_disabled":false,"rental_uris":{"android":"levelo://app?vid=718f24c0-a774-44c3-a06c-278dd7ec8e2a","ios":"levelo://app?vid=718f24c0-a774-44c3-a06c-278dd7ec8e2a"},"vehicle_type_id":"4","last_reported":1742973038,"current_range_meters":14800,"station_id":"ce4bh292rcd13ifvqdf0","pricing_plan_id":"cebpf4jnsgd1na2vs0mg"},{"bike_id":"0212deb9-29f3-4a07-9e8b-5135c180a147","system_id":"levelo_inurba_marseille","lat":43.30186,"lon":5.38078,"is_reserved":false,"is_disabled":false,"rental_uris":{"android":"levelo://app?vid=0212deb9-29f3-4a07-9e8b-5135c180a147","ios":"levelo://app?vid=0212deb9-29f3-4a07-9e8b-5135c180a147"},"vehicle_type_id":"4","last_reported":1742973038,"current_range_meters":9200,"station_id":"","pricing_plan_id":"cebpf4jnsgd1na2vs0mg"},{"bike_id":"9bda5d76-0bca-4fb6-afc3-532f7e4049f4","system_id":"levelo_inurba_marseille","lat":43.31882,"lon":5.40737,"is_reserved":false,"is_disabled":false,"rental_uris":{"android":"levelo://app?vid=9bda5d76-0bca-4fb6-afc3-532f7e4049f4","ios":"levelo://app?vid=9bda5d76-0bca-4fb6-afc3-532f7e4049f4"},"vehicle_type_id":"4","last_reported":1742973038,"current_range_meters":9200,"station_id":"ce4bhq12rcd13ifvqhig","pricing_plan_id":"cebpf4jnsgd1na2vs0mg"},{"bike_id":"cfd70ccb-b343-4093-a477-33526fc0e94f","system_id":"levelo_inurba_marseille","lat":43.30134,"lon":5.3812,"is_reserved":false,"is_disabled":false,"rental_uris":{"android":"levelo://app?vid=cfd70ccb-b343-4093-a477-33526fc0e94f","ios":"levelo://app?vid=cfd70ccb-b343-4093-a477-33526fc0e94f"},"vehicle_type_id":"4","last_reported":1742973038,"current_range_meters":9200,"station_id":"ce4bgjp2rcd13ifvqbh0","pricing_plan_id":"cebpf4jnsgd1na2vs0mg"},{"bike_id":"3082883e-716b-4940-977a-23703e6964ed","system_id":"levelo_inurba_marseille","lat":43.31328,"lon":5.39705,"is_reserved":false,"is_disabled":true,"rental_uris":{"android":"levelo://app?vid=3082883e-716b-4940-977a-23703e6964ed","ios":"levelo://app?vid=3082883e-716b-4940-977a-23703e6964ed"},"vehicle_type_id":"4","last_reported":1742973038,"current_range_meters":9200,"station_id":"ce4bgvp2rcd13ifvqcu0","pricing_plan_id":"cebpf4jnsgd1na2vs0mg"},{"bike_id":"9f0995d2-191f-46af-9637-5898cf5c4319","system_id":"levelo_inurba_marseille","lat":43.32475,"lon":5.36565,"is_reserved":false,"is_disabled":false,"rental_uris":{"android":"levelo://app?vid=9f0995d2-191f-46af-9637-5898cf5c4319","ios":"levelo://app?vid=9f0995d2-191f-46af-9637-5898cf5c4319"},"vehicle_type_id":"4","last_reported":1742973038,"current_range_meters":9200,"station_id":"ce4bhs12rcd13ifvqhvg","pricing_plan_id":"cebpf4jnsgd1na2vs0mg"},{"bike_id":"6bd82c37-6406-4469-9def-05b97b777f5e","system_id":"levelo_inurba_marseille","lat":43.21873,"lon":5.42021,"is_reserved":false,"is_disabled":false,"rental_uris":{"android":"levelo://app?vid=6bd82c37-6406-4469-9def-05b97b777f5e","ios":"levelo://app?vid=6bd82c37-6406-4469-9def-05b97b777f5e"},"vehicle_type_id":"4","last_reported":1742973038,"current_range_meters":9200,"station_id":"","pricing_plan_id":"cebpf4jnsgd1na2vs0mg"},{"bike_id":"8e10d1b9-f227-4b61-a593-c5b8521e7750","system_id":"levelo_inurba_marseille","lat":43.28702,"lon":5.40003,"is_reserved":false,"is_disabled":false,"rental_uris":{"android":"levelo://app?vid=8e10d1b9-f227-4b61-a593-c5b8521e7750","ios":"levelo://app?vid=8e10d1b9-f227-4b61-a593-c5b8521e7750"},"vehicle_type_id":"4","last_reported":1742973038,"current_range_meters":9200,"station_id":"ce4bho92rcd13ifvqh3g","pricing_plan_id":"cebpf4jnsgd1na2vs0mg"},{"bike_id":"46c9a6ca-4985-4a5d-b86f-da0b52df583d","system_id":"levelo_inurba_marseille","lat":43.29039,"lon":5.39966,"is_reserved":false,"is_disabled":false,"rental_uris":{"android":"levelo://app?vid=46c9a6ca-4985-4a5d-b86f-da0b52df583d","ios":"levelo://app?vid=46c9a6ca-4985-4a5d-b86f-da0b52df583d"},"vehicle_type_id":"4","last_reported":1742973038,"current_range_meters":9200,"station_id":"ce4bh392rcd13ifvqdm0","pricing_plan_id":"cebpf4jnsgd1na2vs0mg"},{"bike_id":"59c94358-02c7-4347-8e5f-e8af632beba8","system_id":"levelo_inurba_marseille","lat":43.27495,"lon":5.42453,"is_reserved":false,"is_disabled":false,"rental_uris":{"android":"levelo://app?vid=59c94358-02c7-4347-8e5f-e8af632beba8","ios":"levelo://app?vid=59c94358-02c7-4347-8e5f-e8af632beba8"},"vehicle_type_id":"4","last_reported":1742973038,"current_range_meters":9600,"station_id":"ce4bhn92rcd13ifvqgrg","pricing_plan_id":"cebpf4jnsgd1na2vs0mg"},{"bike_id":"cabd0633-1966-48f3-81ba-331f58095cfd","system_id":"levelo_inurba_marseille","lat":43.27963,"lon":5.38706,"is_reserved":false,"is_disabled":false,"rental_uris":{"android":"levelo://app?vid=cabd0633-1966-48f3-81ba-331f58095cfd","ios":"levelo://app?vid=cabd0633-1966-48f3-81ba-331f58095cfd"},"vehicle_type_id":"4","last_reported":1742973038,"current_range_meters":9600,"station_id":"ce4bhg12rcd13ifvqf80","pricing_plan_id":"cebpf4jnsgd1na2vs0mg"},{"bike_id":"1c058c5f-2dec-42f5-9437-366d59841df3","system_id":"levelo_inurba_marseille","lat":43.309105,"lon":5.368428,"is_reserved":false,"is_disabled":false,"rental_uris":{"android":"levelo://app?vid=1c058c5f-2dec-42f5-9437-366d59841df3","ios":"levelo://app?vid=1c058c5f-2dec-42f5-9437-366d59841df3"},"vehicle_type_id":"4","last_reported":1742973038,"current_range_meters":9600,"station_id":"ce4bgn92rcd13ifvqbvg","pricing_plan_id":"cebpf4jnsgd1na2vs0mg"},{"bike_id":"bd518952-6d41-4e80-b474-f72c5dfa6ad8","system_id":"levelo_inurba_marseille","lat":43.2693,"lon":5.40297,"is_reserved":false,"is_disabled":false,"rental_uris":{"android":"levelo://app?vid=bd518952-6d41-4e80-b474-f72c5dfa6ad8","ios":"levelo://app?vid=bd518952-6d41-4e80-b474-f72c5dfa6ad8"},"vehicle_type_id":"4","last_reported":1742973038,"current_range_meters":9600,"station_id":"cjm6bp8fraef2m0cb0m0","pricing_plan_id":"cebpf4jnsgd1na2vs0mg"},{"bike_id":"f204f5c3-279f-4a48-b597-ec996e78a497","system_id":"levelo_inurba_marseille","lat":43.30957,"lon":5.39044,"is_reserved":false,"is_disabled":false,"rental_uris":{"android":"levelo://app?vid=f204f5c3-279f-4a48-b597-ec996e78a497","ios":"levelo://app?vid=f204f5c3-279f-4a48-b597-ec996e78a497"},"vehicle_type_id":"4","last_reported":1742973038,"current_range_meters":9600,"station_id":"ce4bgup2rcd13ifvqco0","pricing_plan_id":"cebpf4jnsgd1na2vs0mg"},{"bike_id":"ae7ecd2d-53a9-410e-8845-089cecc7b3c1","system_id":"levelo_inurba_marseille","lat":43.26949,"lon":5.38631,"is_reserved":false,"is_disabled":false,"rental_uris":{"android":"levelo://app?vid=ae7ecd2d-53a9-410e-8845-089cecc7b3c1","ios":"levelo://app?vid=ae7ecd2d-53a9-410e-8845-089cecc7b3c1"},"vehicle_type_id":"4","last_reported":1742973038,"current_range_meters":9600,"station_id":"ce4bhh92rcd13ifvqfh0","pricing_plan_id":"cebpf4jnsgd1na2vs0mg"},{"bike_id":"54eba66e-0dc9-4fab-a9e6-e33c09196d8d","system_id":"levelo_inurba_marseille","lat":43.28164,"lon":5.42649,"is_reserved":false,"is_disabled":false,"rental_uris":{"android":"levelo://app?vid=54eba66e-0dc9-4fab-a9e6-e33c09196d8d","ios":"levelo://app?vid=54eba66e-0dc9-4fab-a9e6-e33c09196d8d"},"vehicle_type_id":"4","last_reported":1742973038,"current_range_meters":9600,"station_id":"ce4bhnh2rcd13ifvqgug","pricing_plan_id":"cebpf4jnsgd1na2vs0mg"},{"bike_id":"ee28380f-2566-499f-8ab8-5a75cb1ed72f","system_id":"levelo_inurba_marseille","lat":43.288329,"lon":5.393258,"is_reserved":false,"is_disabled":true,"rental_uris":{"android":"levelo://app?vid=ee28380f-2566-499f-8ab8-5a75cb1ed72f","ios":"levelo://app?vid=ee28380f-2566-499f-8ab8-5a75cb1ed72f"},"vehicle_type_id":"4","last_reported":1742973038,"current_range_meters":9600,"station_id":"","pricing_plan_id":"cebpf4jnsgd1na2vs0mg"},{"bike_id":"19b89665-83f2-4ac2-84ba-195b9ac8bcd1","system_id":"levelo_inurba_marseille","lat":43.27926,"lon":5.39574,"is_reserved":false,"is_disabled":false,"rental_uris":{"android":"levelo://app?vid=19b89665-83f2-4ac2-84ba-195b9ac8bcd1","ios":"levelo://app?vid=19b89665-83f2-4ac2-84ba-195b9ac8bcd1"},"vehicle_type_id":"4","last_reported":1742973038,"current_range_meters":9600,"station_id":"ce4bhf92rcd13ifvqf40","pricing_plan_id":"cebpf4jnsgd1na2vs0mg"},{"bike_id":"c4b88c2e-98e3-4499-8e1f-4f4d33a56e5a","system_id":"levelo_inurba_marseille","lat":43.284234,"lon":5.349872,"is_reserved":false,"is_disabled":true,"rental_uris":{"android":"levelo://app?vid=c4b88c2e-98e3-4499-8e1f-4f4d33a56e5a","ios":"levelo://app?vid=c4b88c2e-98e3-4499-8e1f-4f4d33a56e5a"},"vehicle_type_id":"4","last_reported":1742973038,"current_range_meters":9600,"station_id":"ce4bhbh2rcd13ifvqepg","pricing_plan_id":"cebpf4jnsgd1na2vs0mg"},{"bike_id":"a131070a-e779-4800-86bd-eec8ea7cf525","system_id":"levelo_inurba_marseille","lat":43.28102,"lon":5.37857,"is_reserved":false,"is_disabled":false,"rental_uris":{"android":"levelo://app?vid=a131070a-e779-4800-86bd-eec8ea7cf525","ios":"levelo://app?vid=a131070a-e779-4800-86bd-eec8ea7cf525"},"vehicle_type_id":"4","last_reported":1742973038,"current_range_meters":10000,"station_id":"ce4bha12rcd13ifvqee0","pricing_plan_id":"cebpf4jnsgd1na2vs0mg"},{"bike_id":"b4c9d7f3-37bd-4810-8d39-935a9af8e1a8","system_id":"levelo_inurba_marseille","lat":43.27494,"lon":5.42457,"is_reserved":false,"is_disabled":false,"rental_uris":{"android":"levelo://app?vid=b4c9d7f3-37bd-4810-8d39-935a9af8e1a8","ios":"levelo://app?vid=b4c9d7f3-37bd-4810-8d39-935a9af8e1a8"},"vehicle_type_id":"4","last_reported":1742973038,"current_range_meters":10000,"station_id":"ce4bhn92rcd13ifvqgrg","pricing_plan_id":"cebpf4jnsgd1na2vs0mg"},{"bike_id":"0eedf9a7-c32c-4bae-a37f-32439201ac09","system_id":"levelo_inurba_marseille","lat":43.288584,"lon":5.393274,"is_reserved":false,"is_disabled":true,"rental_uris":{"android":"levelo://app?vid=0eedf9a7-c32c-4bae-a37f-32439201ac09","ios":"levelo://app?vid=0eedf9a7-c32c-4bae-a37f-32439201ac09"},"vehicle_type_id":"4","last_reported":1742973038,"current_range_meters":10000,"station_id":"ce4bh2p2rcd13ifvqdi0","pricing_plan_id":"cebpf4jnsgd1na2vs0mg"},{"bike_id":"01cbffb0-3fb0-4769-96f8-4c2dd20b8277","system_id":"levelo_inurba_marseille","lat":43.28554,"lon":5.40615,"is_reserved":false,"is_disabled":true,"rental_uris":{"android":"levelo://app?vid=01cbffb0-3fb0-4769-96f8-4c2dd20b8277","ios":"levelo://app?vid=01cbffb0-3fb0-4769-96f8-4c2dd20b8277"},"vehicle_type_id":"4","last_reported":1742973038,"current_range_meters":10000,"station_id":"","pricing_plan_id":"cebpf4jnsgd1na2vs0mg"},{"bike_id":"68a58c58-1d21-4816-87f8-62f18507cf20","system_id":"levelo_inurba_marseille","lat":43.24699,"lon":5.3811,"is_reserved":false,"is_disabled":false,"rental_uris":{"android":"levelo://app?vid=68a58c58-1d21-4816-87f8-62f18507cf20","ios":"levelo://app?vid=68a58c58-1d21-4816-87f8-62f18507cf20"},"vehicle_type_id":"4","last_reported":1742973038,"current_range_meters":10000,"station_id":"","pricing_plan_id":"cebpf4jnsgd1na2vs0mg"},{"bike_id":"da43d894-069e-486e-a738-14255c3635ad","system_id":"levelo_inurba_marseille","lat":43.260574,"lon":5.393948,"is_reserved":false,"is_disabled":false,"rental_uris":{"android":"levelo://app?vid=da43d894-069e-486e-a738-14255c3635ad","ios":"levelo://app?vid=da43d894-069e-486e-a738-14255c3635ad"},"vehicle_type_id":"4","last_reported":1742973038,"current_range_meters":10000,"station_id":"ce4bhh92rcd13ifvqfj0","pricing_plan_id":"cebpf4jnsgd1na2vs0mg"},{"bike_id":"7fdecdeb-36cb-4cf4-9c98-d803f5809435","system_id":"levelo_inurba_marseille","lat":43.26111,"lon":5.39804,"is_reserved":false,"is_disabled":false,"rental_uris":{"android":"levelo://app?vid=7fdecdeb-36cb-4cf4-9c98-d803f5809435","ios":"levelo://app?vid=7fdecdeb-36cb-4cf4-9c98-d803f5809435"},"vehicle_type_id":"4","last_reported":1742973038,"current_range_meters":10000,"station_id":"","pricing_plan_id":"cebpf4jnsgd1na2vs0mg"},{"bike_id":"59da3f73-6c5b-4ec5-89cf-ba3673e6eddd","system_id":"levelo_inurba_marseille","lat":43.293827,"lon":5.374319,"is_reserved":false,"is_disabled":false,"rental_uris":{"android":"levelo://app?vid=59da3f73-6c5b-4ec5-89cf-ba3673e6eddd","ios":"levelo://app?vid=59da3f73-6c5b-4ec5-89cf-ba3673e6eddd"},"vehicle_type_id":"4","last_reported":1742973038,"current_range_meters":10000,"station_id":"ce4bgi12rcd13ifvqb70","pricing_plan_id":"cebpf4jnsgd1na2vs0mg"},{"bike_id":"fa14eb3a-1fdb-4bc8-8092-af468e8ded60","system_id":"levelo_inurba_marseille","lat":43.28019,"lon":5.40054,"is_reserved":false,"is_disabled":false,"rental_uris":{"android":"levelo://app?vid=fa14eb3a-1fdb-4bc8-8092-af468e8ded60","ios":"levelo://app?vid=fa14eb3a-1fdb-4bc8-8092-af468e8ded60"},"vehicle_type_id":"4","last_reported":1742973038,"current_range_meters":10000,"station_id":"ce4bho92rcd13ifvqh4g","pricing_plan_id":"cebpf4jnsgd1na2vs0mg"},{"bike_id":"6f7b7d36-e730-45db-9635-0f6452cc5c96","system_id":"levelo_inurba_marseille","lat":43.26876,"lon":5.39479,"is_reserved":false,"is_disabled":false,"rental_uris":{"android":"levelo://app?vid=6f7b7d36-e730-45db-9635-0f6452cc5c96","ios":"levelo://app?vid=6f7b7d36-e730-45db-9635-0f6452cc5c96"},"vehicle_type_id":"4","last_reported":1742973038,"current_range_meters":10000,"station_id":"","pricing_plan_id":"cebpf4jnsgd1na2vs0mg"},{"bike_id":"1d8a3249-9200-4972-bc96-75314e87b237","system_id":"levelo_inurba_marseille","lat":43.306079,"lon":5.367195,"is_reserved":false,"is_disabled":false,"rental_uris":{"android":"levelo://app?vid=1d8a3249-9200-4972-bc96-75314e87b237","ios":"levelo://app?vid=1d8a3249-9200-4972-bc96-75314e87b237"},"vehicle_type_id":"4","last_reported":1742973038,"current_range_meters":10000,"station_id":"","pricing_plan_id":"cebpf4jnsgd1na2vs0mg"},{"bike_id":"1cbcda32-77d4-444a-a60a-b7e8ed92ba8a","system_id":"levelo_inurba_marseille","lat":43.305936,"lon":5.393554,"is_reserved":false,"is_disabled":false,"rental_uris":{"android":"levelo://app?vid=1cbcda32-77d4-444a-a60a-b7e8ed92ba8a","ios":"levelo://app?vid=1cbcda32-77d4-444a-a60a-b7e8ed92ba8a"},"vehicle_type_id":"4","last_reported":1742973038,"current_range_meters":10000,"station_id":"ce4bh0p2rcd13ifvqd80","pricing_plan_id":"cebpf4jnsgd1na2vs0mg"},{"bike_id":"e6b358bc-66d8-486b-9231-191979873c00","system_id":"levelo_inurba_marseille","lat":43.29595,"lon":5.36745,"is_reserved":false,"is_disabled":false,"rental_uris":{"android":"levelo://app?vid=e6b358bc-66d8-486b-9231-191979873c00","ios":"levelo://app?vid=e6b358bc-66d8-486b-9231-191979873c00"},"vehicle_type_id":"4","last_reported":1742973038,"current_range_meters":10000,"station_id":"ce4bgph2rcd13ifvqc2g","pricing_plan_id":"cebpf4jnsgd1na2vs0mg"},{"bike_id":"cd1d962e-0e5b-4d8e-a25c-31e8b32abf79","system_id":"levelo_inurba_marseille","lat":43.2801,"lon":5.40023,"is_reserved":false,"is_disabled":false,"rental_uris":{"android":"levelo://app?vid=cd1d962e-0e5b-4d8e-a25c-31e8b32abf79","ios":"levelo://app?vid=cd1d962e-0e5b-4d8e-a25c-31e8b32abf79"},"vehicle_type_id":"4","last_reported":1742973038,"current_range_meters":10800,"station_id":"ce4bho92rcd13ifvqh4g","pricing_plan_id":"cebpf4jnsgd1na2vs0mg"},{"bike_id":"4ba6ebfa-6d64-4932-ae68-a1875df26d31","system_id":"levelo_inurba_marseille","lat":43.28445,"lon":5.35917,"is_reserved":false,"is_disabled":true,"rental_uris":{"android":"levelo://app?vid=4ba6ebfa-6d64-4932-ae68-a1875df26d31","ios":"levelo://app?vid=4ba6ebfa-6d64-4932-ae68-a1875df26d31"},"vehicle_type_id":"4","last_reported":1742973038,"current_range_meters":10800,"station_id":"ce4bhah2rcd13ifvqei0","pricing_plan_id":"cebpf4jnsgd1na2vs0mg"},{"bike_id":"886eaae8-64a4-4d12-8e64-f3f19f2c820d","system_id":"levelo_inurba_marseille","lat":43.3016,"lon":5.38086,"is_reserved":false,"is_disabled":false,"rental_uris":{"android":"levelo://app?vid=886eaae8-64a4-4d12-8e64-f3f19f2c820d","ios":"levelo://app?vid=886eaae8-64a4-4d12-8e64-f3f19f2c820d"},"vehicle_type_id":"4","last_reported":1742973038,"current_range_meters":10800,"station_id":"ce4bgjp2rcd13ifvqbh0","pricing_plan_id":"cebpf4jnsgd1na2vs0mg"},{"bike_id":"8a9602e7-e6f2-4dac-845f-cea224e49dd5","system_id":"levelo_inurba_marseille","lat":43.230671,"lon":5.354933,"is_reserved":false,"is_disabled":false,"rental_uris":{"android":"levelo://app?vid=8a9602e7-e6f2-4dac-845f-cea224e49dd5","ios":"levelo://app?vid=8a9602e7-e6f2-4dac-845f-cea224e49dd5"},"vehicle_type_id":"4","last_reported":1742973038,"current_range_meters":10800,"station_id":"cpo3342slgdg3j2ifvpg","pricing_plan_id":"cebpf4jnsgd1na2vs0mg"},{"bike_id":"34ff9dfa-f521-4b06-a88c-c4e4d9d74f39","system_id":"levelo_inurba_marseille","lat":43.27804,"lon":5.4073,"is_reserved":false,"is_disabled":true,"rental_uris":{"android":"levelo://app?vid=34ff9dfa-f521-4b06-a88c-c4e4d9d74f39","ios":"levelo://app?vid=34ff9dfa-f521-4b06-a88c-c4e4d9d74f39"},"vehicle_type_id":"4","last_reported":1742973038,"current_range_meters":10800,"station_id":"ce4bhnh2rcd13ifvqgtg","pricing_plan_id":"cebpf4jnsgd1na2vs0mg"},{"bike_id":"fc976bac-bfba-4117-a59a-6ec82a46de08","system_id":"levelo_inurba_marseille","lat":43.28348,"lon":5.38103,"is_reserved":false,"is_disabled":true,"rental_uris":{"android":"levelo://app?vid=fc976bac-bfba-4117-a59a-6ec82a46de08","ios":"levelo://app?vid=fc976bac-bfba-4117-a59a-6ec82a46de08"},"vehicle_type_id":"4","last_reported":1742973038,"current_range_meters":10800,"station_id":"ce4bh412rcd13ifvqdr0","pricing_plan_id":"cebpf4jnsgd1na2vs0mg"},{"bike_id":"974f5876-effd-44d0-911c-76ea7a107a8c","system_id":"levelo_inurba_marseille","lat":43.3336,"lon":5.35975,"is_reserved":false,"is_disabled":false,"rental_uris":{"android":"levelo://app?vid=974f5876-effd-44d0-911c-76ea7a107a8c","ios":"levelo://app?vid=974f5876-effd-44d0-911c-76ea7a107a8c"},"vehicle_type_id":"4","last_reported":1742973038,"current_range_meters":10800,"station_id":"","pricing_plan_id":"cebpf4jnsgd1na2vs0mg"},{"bike_id":"d353aeb8-2ec1-44c3-9d44-62b3a3370736","system_id":"levelo_inurba_marseille","lat":43.26951,"lon":5.38625,"is_reserved":false,"is_disabled":false,"rental_uris":{"android":"levelo://app?vid=d353aeb8-2ec1-44c3-9d44-62b3a3370736","ios":"levelo://app?vid=d353aeb8-2ec1-44c3-9d44-62b3a3370736"},"vehicle_type_id":"4","last_reported":1742973038,"current_range_meters":10000,"station_id":"ce4bhh92rcd13ifvqfh0","pricing_plan_id":"cebpf4jnsgd1na2vs0mg"},{"bike_id":"52ae8383-f7cd-4b1f-83e8-4830d91ba85b","system_id":"levelo_inurba_marseille","lat":43.29563,"lon":5.42292,"is_reserved":false,"is_disabled":false,"rental_uris":{"android":"levelo://app?vid=52ae8383-f7cd-4b1f-83e8-4830d91ba85b","ios":"levelo://app?vid=52ae8383-f7cd-4b1f-83e8-4830d91ba85b"},"vehicle_type_id":"4","last_reported":1742973038,"current_range_meters":10000,"station_id":"ce4bhph2rcd13ifvqhdg","pricing_plan_id":"cebpf4jnsgd1na2vs0mg"},{"bike_id":"8e1b69fe-38a9-404e-9145-427fd10d244c","system_id":"levelo_inurba_marseille","lat":43.28431,"lon":5.34987,"is_reserved":false,"is_disabled":true,"rental_uris":{"android":"levelo://app?vid=8e1b69fe-38a9-404e-9145-427fd10d244c","ios":"levelo://app?vid=8e1b69fe-38a9-404e-9145-427fd10d244c"},"vehicle_type_id":"4","last_reported":1742973038,"current_range_meters":11200,"station_id":"ce4bhbh2rcd13ifvqepg","pricing_plan_id":"cebpf4jnsgd1na2vs0mg"},{"bike_id":"d45a2f6c-957b-46cd-bd89-ee8e58d1536e","system_id":"levelo_inurba_marseille","lat":43.27708,"lon":5.40798,"is_reserved":false,"is_disabled":false,"rental_uris":{"android":"levelo://app?vid=d45a2f6c-957b-46cd-bd89-ee8e58d1536e","ios":"levelo://app?vid=d45a2f6c-957b-46cd-bd89-ee8e58d1536e"},"vehicle_type_id":"4","last_reported":1742973038,"current_range_meters":11200,"station_id":"","pricing_plan_id":"cebpf4jnsgd1na2vs0mg"},{"bike_id":"84a7a785-5392-42bc-8088-fb903bcc7f5c","system_id":"levelo_inurba_marseille","lat":43.23093,"lon":5.35535,"is_reserved":false,"is_disabled":false,"rental_uris":{"android":"levelo://app?vid=84a7a785-5392-42bc-8088-fb903bcc7f5c","ios":"levelo://app?vid=84a7a785-5392-42bc-8088-fb903bcc7f5c"},"vehicle_type_id":"4","last_reported":1742973038,"current_range_meters":11200,"station_id":"cpo3342slgdg3j2ifvpg","pricing_plan_id":"cebpf4jnsgd1na2vs0mg"},{"bike_id":"638022dd-4547-48d2-bf6b-3ac63c13562c","system_id":"levelo_inurba_marseille","lat":43.30913,"lon":5.36841,"is_reserved":false,"is_disabled":false,"rental_uris":{"android":"levelo://app?vid=638022dd-4547-48d2-bf6b-3ac63c13562c","ios":"levelo://app?vid=638022dd-4547-48d2-bf6b-3ac63c13562c"},"vehicle_type_id":"4","last_reported":1742973038,"current_range_meters":11200,"station_id":"ce4bgn92rcd13ifvqbvg","pricing_plan_id":"cebpf4jnsgd1na2vs0mg"},{"bike_id":"47af688f-a9e6-499f-8b7c-80cf6383c7da","system_id":"levelo_inurba_marseille","lat":43.30469,"lon":5.3792,"is_reserved":false,"is_disabled":false,"rental_uris":{"android":"levelo://app?vid=47af688f-a9e6-499f-8b7c-80cf6383c7da","ios":"levelo://app?vid=47af688f-a9e6-499f-8b7c-80cf6383c7da"},"vehicle_type_id":"4","last_reported":1742973038,"current_range_meters":11200,"station_id":"ce4bgup2rcd13ifvqcn0","pricing_plan_id":"cebpf4jnsgd1na2vs0mg"},{"bike_id":"82219511-549c-4b63-baf5-ff8405cca9d7","system_id":"levelo_inurba_marseille","lat":43.31699,"lon":5.4369,"is_reserved":false,"is_disabled":false,"rental_uris":{"android":"levelo://app?vid=82219511-549c-4b63-baf5-ff8405cca9d7","ios":"levelo://app?vid=82219511-549c-4b63-baf5-ff8405cca9d7"},"vehicle_type_id":"4","last_reported":1742973038,"current_range_meters":11200,"station_id":"ce4bhp92rcd13ifvqhcg","pricing_plan_id":"cebpf4jnsgd1na2vs0mg"},{"bike_id":"9c7b67ef-a80b-4d76-beff-aa96c2a3469a","system_id":"levelo_inurba_marseille","lat":43.27971,"lon":5.4004,"is_reserved":false,"is_disabled":false,"rental_uris":{"android":"levelo://app?vid=9c7b67ef-a80b-4d76-beff-aa96c2a3469a","ios":"levelo://app?vid=9c7b67ef-a80b-4d76-beff-aa96c2a3469a"},"vehicle_type_id":"4","last_reported":1742973038,"current_range_meters":11200,"station_id":"ce4bho92rcd13ifvqh4g","pricing_plan_id":"cebpf4jnsgd1na2vs0mg"},{"bike_id":"6f6e0ffd-e4c9-42b1-bc45-e9ebc551d612","system_id":"levelo_inurba_marseille","lat":43.33036,"lon":5.391,"is_reserved":false,"is_disabled":false,"rental_uris":{"android":"levelo://app?vid=6f6e0ffd-e4c9-42b1-bc45-e9ebc551d612","ios":"levelo://app?vid=6f6e0ffd-e4c9-42b1-bc45-e9ebc551d612"},"vehicle_type_id":"4","last_reported":1742973038,"current_range_meters":11200,"station_id":"","pricing_plan_id":"cebpf4jnsgd1na2vs0mg"},{"bike_id":"1c1ad96d-e9d0-4a3e-81cb-8df9d351e98c","system_id":"levelo_inurba_marseille","lat":43.240631,"lon":5.37736,"is_reserved":false,"is_disabled":false,"rental_uris":{"android":"levelo://app?vid=1c1ad96d-e9d0-4a3e-81cb-8df9d351e98c","ios":"levelo://app?vid=1c1ad96d-e9d0-4a3e-81cb-8df9d351e98c"},"vehicle_type_id":"4","last_reported":1742973038,"current_range_meters":10800,"station_id":"ce4bhnp2rcd13ifvqgvg","pricing_plan_id":"cebpf4jnsgd1na2vs0mg"},{"bike_id":"52793577-8d59-4388-bc9a-d81f8bc1b0fa","system_id":"levelo_inurba_marseille","lat":43.32451,"lon":5.36582,"is_reserved":false,"is_disabled":true,"rental_uris":{"android":"levelo://app?vid=52793577-8d59-4388-bc9a-d81f8bc1b0fa","ios":"levelo://app?vid=52793577-8d59-4388-bc9a-d81f8bc1b0fa"},"vehicle_type_id":"4","last_reported":1742973038,"current_range_meters":11200,"station_id":"ce4bhs12rcd13ifvqhvg","pricing_plan_id":"cebpf4jnsgd1na2vs0mg"},{"bike_id":"75d89ffb-0e98-4900-bbef-b5d8ed9bccc0","system_id":"levelo_inurba_marseille","lat":43.30891,"lon":5.39665,"is_reserved":false,"is_disabled":false,"rental_uris":{"android":"levelo://app?vid=75d89ffb-0e98-4900-bbef-b5d8ed9bccc0","ios":"levelo://app?vid=75d89ffb-0e98-4900-bbef-b5d8ed9bccc0"},"vehicle_type_id":"4","last_reported":1742973038,"current_range_meters":11600,"station_id":"ce4bh012rcd13ifvqcv0","pricing_plan_id":"cebpf4jnsgd1na2vs0mg"},{"bike_id":"243ce36a-fa41-4588-acbd-9d46234eb79f","system_id":"levelo_inurba_marseille","lat":43.25,"lon":5.38946,"is_reserved":false,"is_disabled":false,"rental_uris":{"android":"levelo://app?vid=243ce36a-fa41-4588-acbd-9d46234eb79f","ios":"levelo://app?vid=243ce36a-fa41-4588-acbd-9d46234eb79f"},"vehicle_type_id":"4","last_reported":1742973038,"current_range_meters":11200,"station_id":"ce4bhgp2rcd13ifvqfd0","pricing_plan_id":"cebpf4jnsgd1na2vs0mg"},{"bike_id":"8a3d879d-511e-4acb-8c51-331acb4ad7fa","system_id":"levelo_inurba_marseille","lat":43.28402,"lon":5.35017,"is_reserved":false,"is_disabled":true,"rental_uris":{"android":"levelo://app?vid=8a3d879d-511e-4acb-8c51-331acb4ad7fa","ios":"levelo://app?vid=8a3d879d-511e-4acb-8c51-331acb4ad7fa"},"vehicle_type_id":"4","last_reported":1742973038,"current_range_meters":11600,"station_id":"ce4bhbh2rcd13ifvqepg","pricing_plan_id":"cebpf4jnsgd1na2vs0mg"},{"bike_id":"2349ea78-e5ff-44c1-8a9d-5755df83b4b0","system_id":"levelo_inurba_marseille","lat":43.28145,"lon":5.42681,"is_reserved":false,"is_disabled":false,"rental_uris":{"android":"levelo://app?vid=2349ea78-e5ff-44c1-8a9d-5755df83b4b0","ios":"levelo://app?vid=2349ea78-e5ff-44c1-8a9d-5755df83b4b0"},"vehicle_type_id":"4","last_reported":1742973038,"current_range_meters":11600,"station_id":"ce4bhnh2rcd13ifvqgug","pricing_plan_id":"cebpf4jnsgd1na2vs0mg"},{"bike_id":"a93111f7-41f7-4c74-b8fe-0bb4ba97e331","system_id":"levelo_inurba_marseille","lat":43.30159,"lon":5.38086,"is_reserved":false,"is_disabled":false,"rental_uris":{"android":"levelo://app?vid=a93111f7-41f7-4c74-b8fe-0bb4ba97e331","ios":"levelo://app?vid=a93111f7-41f7-4c74-b8fe-0bb4ba97e331"},"vehicle_type_id":"4","last_reported":1742973038,"current_range_meters":11600,"station_id":"ce4bgjp2rcd13ifvqbh0","pricing_plan_id":"cebpf4jnsgd1na2vs0mg"},{"bike_id":"9c23b3c2-c990-4dbf-aa18-6e694601de23","system_id":"levelo_inurba_marseille","lat":43.304124,"lon":5.412841,"is_reserved":false,"is_disabled":true,"rental_uris":{"android":"levelo://app?vid=9c23b3c2-c990-4dbf-aa18-6e694601de23","ios":"levelo://app?vid=9c23b3c2-c990-4dbf-aa18-6e694601de23"},"vehicle_type_id":"4","last_reported":1742973038,"current_range_meters":12000,"station_id":"ce4bhop2rcd13ifvqh8g","pricing_plan_id":"cebpf4jnsgd1na2vs0mg"},{"bike_id":"d1f0bfd4-c951-4e4e-b8ea-91fef0511b94","system_id":"levelo_inurba_marseille","lat":43.323594,"lon":5.367686,"is_reserved":false,"is_disabled":false,"rental_uris":{"android":"levelo://app?vid=d1f0bfd4-c951-4e4e-b8ea-91fef0511b94","ios":"levelo://app?vid=d1f0bfd4-c951-4e4e-b8ea-91fef0511b94"},"vehicle_type_id":"4","last_reported":1742973038,"current_range_meters":12000,"station_id":"ce4bhsh2rcd13ifvqi2g","pricing_plan_id":"cebpf4jnsgd1na2vs0mg"},{"bike_id":"0d43dce8-283a-4441-a9c5-98b093f164f8","system_id":"levelo_inurba_marseille","lat":43.31264,"lon":5.40179,"is_reserved":false,"is_disabled":false,"rental_uris":{"android":"levelo://app?vid=0d43dce8-283a-4441-a9c5-98b093f164f8","ios":"levelo://app?vid=0d43dce8-283a-4441-a9c5-98b093f164f8"},"vehicle_type_id":"4","last_reported":1742973038,"current_range_meters":12000,"station_id":"ce4bh092rcd13ifvqd30","pricing_plan_id":"cebpf4jnsgd1na2vs0mg"},{"bike_id":"87807891-619d-45ef-9bc3-f89425f9a8a8","system_id":"levelo_inurba_marseille","lat":43.27966,"lon":5.41682,"is_reserved":false,"is_disabled":true,"rental_uris":{"android":"levelo://app?vid=87807891-619d-45ef-9bc3-f89425f9a8a8","ios":"levelo://app?vid=87807891-619d-45ef-9bc3-f89425f9a8a8"},"vehicle_type_id":"4","last_reported":1742973038,"current_range_meters":12000,"station_id":"ce4bho12rcd13ifvqh1g","pricing_plan_id":"cebpf4jnsgd1na2vs0mg"},{"bike_id":"65beb5e7-e393-44de-9daa-55b73a66cf64","system_id":"levelo_inurba_marseille","lat":43.30593,"lon":5.39361,"is_reserved":false,"is_disabled":false,"rental_uris":{"android":"levelo://app?vid=65beb5e7-e393-44de-9daa-55b73a66cf64","ios":"levelo://app?vid=65beb5e7-e393-44de-9daa-55b73a66cf64"},"vehicle_type_id":"4","last_reported":1742973038,"current_range_meters":12000,"station_id":"ce4bh0p2rcd13ifvqd80","pricing_plan_id":"cebpf4jnsgd1na2vs0mg"},{"bike_id":"fd12788a-f8ee-4455-bd50-5028c242d55d","system_id":"levelo_inurba_marseille","lat":43.31486,"lon":5.37307,"is_reserved":false,"is_disabled":false,"rental_uris":{"android":"levelo://app?vid=fd12788a-f8ee-4455-bd50-5028c242d55d","ios":"levelo://app?vid=fd12788a-f8ee-4455-bd50-5028c242d55d"},"vehicle_type_id":"4","last_reported":1742973038,"current_range_meters":12000,"station_id":"ce4bgt12rcd13ifvqcd0","pricing_plan_id":"cebpf4jnsgd1na2vs0mg"},{"bike_id":"4cdd5237-30fd-4b8c-86e9-ebadec42d07b","system_id":"levelo_inurba_marseille","lat":43.30912,"lon":5.40151,"is_reserved":false,"is_disabled":false,"rental_uris":{"android":"levelo://app?vid=4cdd5237-30fd-4b8c-86e9-ebadec42d07b","ios":"levelo://app?vid=4cdd5237-30fd-4b8c-86e9-ebadec42d07b"},"vehicle_type_id":"4","last_reported":1742973038,"current_range_meters":12400,"station_id":"ce4bgvp2rcd13ifvqct0","pricing_plan_id":"cebpf4jnsgd1na2vs0mg"},{"bike_id":"1dba6abe-c53a-49f9-b856-7067ac5ce46a","system_id":"levelo_inurba_marseille","lat":43.26799,"lon":5.40255,"is_reserved":false,"is_disabled":false,"rental_uris":{"android":"levelo://app?vid=1dba6abe-c53a-49f9-b856-7067ac5ce46a","ios":"levelo://app?vid=1dba6abe-c53a-49f9-b856-7067ac5ce46a"},"vehicle_type_id":"4","last_reported":1742973038,"current_range_meters":12400,"station_id":"ce501612rcd8frsf0b60","pricing_plan_id":"cebpf4jnsgd1na2vs0mg"},{"bike_id":"8f2e6dc9-8320-4476-a1d5-470bfaa72169","system_id":"levelo_inurba_marseille","lat":43.262061,"lon":5.375107,"is_reserved":false,"is_disabled":false,"rental_uris":{"android":"levelo://app?vid=8f2e6dc9-8320-4476-a1d5-470bfaa72169","ios":"levelo://app?vid=8f2e6dc9-8320-4476-a1d5-470bfaa72169"},"vehicle_type_id":"4","last_reported":1742973038,"current_range_meters":12400,"station_id":"ce4bhgp2rcd13ifvqfc0","pricing_plan_id":"cebpf4jnsgd1na2vs0mg"},{"bike_id":"659be5e0-eeef-44bd-8ac1-256d4a3cadd4","system_id":"levelo_inurba_marseille","lat":43.24804,"lon":5.37467,"is_reserved":false,"is_disabled":false,"rental_uris":{"android":"levelo://app?vid=659be5e0-eeef-44bd-8ac1-256d4a3cadd4","ios":"levelo://app?vid=659be5e0-eeef-44bd-8ac1-256d4a3cadd4"},"vehicle_type_id":"4","last_reported":1742973038,"current_range_meters":12400,"station_id":"ce4bhgh2rcd13ifvqfb0","pricing_plan_id":"cebpf4jnsgd1na2vs0mg"},{"bike_id":"c00b0217-094a-464f-aff7-2563e8d2b451","system_id":"levelo_inurba_marseille","lat":43.31886,"lon":5.40736,"is_reserved":false,"is_disabled":false,"rental_uris":{"android":"levelo://app?vid=c00b0217-094a-464f-aff7-2563e8d2b451","ios":"levelo://app?vid=c00b0217-094a-464f-aff7-2563e8d2b451"},"vehicle_type_id":"4","last_reported":1742973038,"current_range_meters":12000,"station_id":"ce4bgvp2rcd13ifvqcu0","pricing_plan_id":"cebpf4jnsgd1na2vs0mg"},{"bike_id":"ed34c53e-e794-4aee-a80a-fe705ed87913","system_id":"levelo_inurba_marseille","lat":43.307764,"lon":5.376589,"is_reserved":false,"is_disabled":false,"rental_uris":{"android":"levelo://app?vid=ed34c53e-e794-4aee-a80a-fe705ed87913","ios":"levelo://app?vid=ed34c53e-e794-4aee-a80a-fe705ed87913"},"vehicle_type_id":"4","last_reported":1742973038,"current_range_meters":12400,"station_id":"ce4bgv92rcd13ifvqcq0","pricing_plan_id":"cebpf4jnsgd1na2vs0mg"},{"bike_id":"c2558eac-9c83-4e5b-ae66-7f9519e3d933","system_id":"levelo_inurba_marseille","lat":43.2898,"lon":5.37838,"is_reserved":false,"is_disabled":true,"rental_uris":{"android":"levelo://app?vid=c2558eac-9c83-4e5b-ae66-7f9519e3d933","ios":"levelo://app?vid=c2558eac-9c83-4e5b-ae66-7f9519e3d933"},"vehicle_type_id":"4","last_reported":1742973038,"current_range_meters":12400,"station_id":"ce4bh9p2rcd13ifvqed0","pricing_plan_id":"cebpf4jnsgd1na2vs0mg"},{"bike_id":"7e7a371c-b9b4-41ba-9c03-4ba1bef7f880","system_id":"levelo_inurba_marseille","lat":43.23159,"lon":5.43713,"is_reserved":false,"is_disabled":false,"rental_uris":{"android":"levelo://app?vid=7e7a371c-b9b4-41ba-9c03-4ba1bef7f880","ios":"levelo://app?vid=7e7a371c-b9b4-41ba-9c03-4ba1bef7f880"},"vehicle_type_id":"4","last_reported":1742973038,"current_range_meters":12400,"station_id":"ce4bhmp2rcd13ifvqgog","pricing_plan_id":"cebpf4jnsgd1na2vs0mg"},{"bike_id":"1d46fd36-4e2b-40c6-af95-ef199044414d","system_id":"levelo_inurba_marseille","lat":43.30597,"lon":5.39381,"is_reserved":false,"is_disabled":false,"rental_uris":{"android":"levelo://app?vid=1d46fd36-4e2b-40c6-af95-ef199044414d","ios":"levelo://app?vid=1d46fd36-4e2b-40c6-af95-ef199044414d"},"vehicle_type_id":"4","last_reported":1742973038,"current_range_meters":12400,"station_id":"ce4bh0p2rcd13ifvqd80","pricing_plan_id":"cebpf4jnsgd1na2vs0mg"},{"bike_id":"ca7180aa-ee78-4ce3-a729-eb0f8fbcbb70","system_id":"levelo_inurba_marseille","lat":43.29044,"lon":5.39965,"is_reserved":false,"is_disabled":false,"rental_uris":{"android":"levelo://app?vid=ca7180aa-ee78-4ce3-a729-eb0f8fbcbb70","ios":"levelo://app?vid=ca7180aa-ee78-4ce3-a729-eb0f8fbcbb70"},"vehicle_type_id":"4","last_reported":1742973038,"current_range_meters":12400,"station_id":"ce4bh392rcd13ifvqdm0","pricing_plan_id":"cebpf4jnsgd1na2vs0mg"},{"bike_id":"63f6b197-29cc-4f34-a2f7-4e5dd03e6d97","system_id":"levelo_inurba_marseille","lat":43.28624,"lon":5.35141,"is_reserved":false,"is_disabled":false,"rental_uris":{"android":"levelo://app?vid=63f6b197-29cc-4f34-a2f7-4e5dd03e6d97","ios":"levelo://app?vid=63f6b197-29cc-4f34-a2f7-4e5dd03e6d97"},"vehicle_type_id":"4","last_reported":1742973038,"current_range_meters":12800,"station_id":"ce4bhch2rcd13ifvqeug","pricing_plan_id":"cebpf4jnsgd1na2vs0mg"},{"bike_id":"fef0ac2c-b230-4fc3-ab75-e0de87831c6b","system_id":"levelo_inurba_marseille","lat":43.301543,"lon":5.380859,"is_reserved":false,"is_disabled":false,"rental_uris":{"android":"levelo://app?vid=fef0ac2c-b230-4fc3-ab75-e0de87831c6b","ios":"levelo://app?vid=fef0ac2c-b230-4fc3-ab75-e0de87831c6b"},"vehicle_type_id":"4","last_reported":1742973038,"current_range_meters":12800,"station_id":"ce4bgjp2rcd13ifvqbh0","pricing_plan_id":"cebpf4jnsgd1na2vs0mg"},{"bike_id":"484928c8-8c60-48c3-a758-e3e274268153","system_id":"levelo_inurba_marseille","lat":43.24187,"lon":5.36368,"is_reserved":false,"is_disabled":false,"rental_uris":{"android":"levelo://app?vid=484928c8-8c60-48c3-a758-e3e274268153","ios":"levelo://app?vid=484928c8-8c60-48c3-a758-e3e274268153"},"vehicle_type_id":"4","last_reported":1742973038,"current_range_meters":12800,"station_id":"cpo36qri1sfpv3e86is0","pricing_plan_id":"cebpf4jnsgd1na2vs0mg"},{"bike_id":"316f4072-82c4-40ef-8d82-6240f4641413","system_id":"levelo_inurba_marseille","lat":43.27896,"lon":5.38001,"is_reserved":false,"is_disabled":false,"rental_uris":{"android":"levelo://app?vid=316f4072-82c4-40ef-8d82-6240f4641413","ios":"levelo://app?vid=316f4072-82c4-40ef-8d82-6240f4641413"},"vehicle_type_id":"4","last_reported":1742973038,"current_range_meters":12800,"station_id":"ce4bhf92rcd13ifvqf50","pricing_plan_id":"cebpf4jnsgd1na2vs0mg"},{"bike_id":"ccdfac36-22da-4f2d-bd50-7bf147cc0fff","system_id":"levelo_inurba_marseille","lat":43.299078,"lon":5.436551,"is_reserved":false,"is_disabled":false,"rental_uris":{"android":"levelo://app?vid=ccdfac36-22da-4f2d-bd50-7bf147cc0fff","ios":"levelo://app?vid=ccdfac36-22da-4f2d-bd50-7bf147cc0fff"},"vehicle_type_id":"4","last_reported":1742973038,"current_range_meters":13600,"station_id":"ce4bhpp2rcd13ifvqhfg","pricing_plan_id":"cebpf4jnsgd1na2vs0mg"},{"bike_id":"ad63199a-a686-4e70-a63e-7bd998b7413d","system_id":"levelo_inurba_marseille","lat":43.30007,"lon":5.38501,"is_reserved":false,"is_disabled":true,"rental_uris":{"android":"levelo://app?vid=ad63199a-a686-4e70-a63e-7bd998b7413d","ios":"levelo://app?vid=ad63199a-a686-4e70-a63e-7bd998b7413d"},"vehicle_type_id":"4","last_reported":1742973038,"current_range_meters":13600,"station_id":"ce4bgj92rcd13ifvqbd0","pricing_plan_id":"cebpf4jnsgd1na2vs0mg"},{"bike_id":"6f747356-5aea-448c-8bea-d9c78b44cb23","system_id":"levelo_inurba_marseille","lat":43.30222,"lon":5.39472,"is_reserved":false,"is_disabled":false,"rental_uris":{"android":"levelo://app?vid=6f747356-5aea-448c-8bea-d9c78b44cb23","ios":"levelo://app?vid=6f747356-5aea-448c-8bea-d9c78b44cb23"},"vehicle_type_id":"4","last_reported":1742973038,"current_range_meters":13600,"station_id":"ce4bh0p2rcd13ifvqd70","pricing_plan_id":"cebpf4jnsgd1na2vs0mg"},{"bike_id":"96a844e6-7cf7-406d-a6fc-e1deb7790c64","system_id":"levelo_inurba_marseille","lat":43.28332,"lon":5.38114,"is_reserved":false,"is_disabled":true,"rental_uris":{"android":"levelo://app?vid=96a844e6-7cf7-406d-a6fc-e1deb7790c64","ios":"levelo://app?vid=96a844e6-7cf7-406d-a6fc-e1deb7790c64"},"vehicle_type_id":"4","last_reported":1742973038,"current_range_meters":13600,"station_id":"ce4bh412rcd13ifvqdr0","pricing_plan_id":"cebpf4jnsgd1na2vs0mg"},{"bike_id":"8ee06270-6e68-4f36-943c-c6853abcfcb7","system_id":"levelo_inurba_marseille","lat":43.309555,"lon":5.39047,"is_reserved":false,"is_disabled":false,"rental_uris":{"android":"levelo://app?vid=8ee06270-6e68-4f36-943c-c6853abcfcb7","ios":"levelo://app?vid=8ee06270-6e68-4f36-943c-c6853abcfcb7"},"vehicle_type_id":"4","last_reported":1742973038,"current_range_meters":13600,"station_id":"ce4bgup2rcd13ifvqco0","pricing_plan_id":"cebpf4jnsgd1na2vs0mg"},{"bike_id":"813c045e-de83-46e7-9f36-30d7514cee93","system_id":"levelo_inurba_marseille","lat":43.24115,"lon":5.37754,"is_reserved":false,"is_disabled":false,"rental_uris":{"android":"levelo://app?vid=813c045e-de83-46e7-9f36-30d7514cee93","ios":"levelo://app?vid=813c045e-de83-46e7-9f36-30d7514cee93"},"vehicle_type_id":"4","last_reported":1742973038,"current_range_meters":13600,"station_id":"ce4bhnp2rcd13ifvqgvg","pricing_plan_id":"cebpf4jnsgd1na2vs0mg"},{"bike_id":"d6baeb9a-bc7f-4186-a9e1-1d7817188fa1","system_id":"levelo_inurba_marseille","lat":43.29254,"lon":5.40148,"is_reserved":false,"is_disabled":false,"rental_uris":{"android":"levelo://app?vid=d6baeb9a-bc7f-4186-a9e1-1d7817188fa1","ios":"levelo://app?vid=d6baeb9a-bc7f-4186-a9e1-1d7817188fa1"},"vehicle_type_id":"4","last_reported":1742973038,"current_range_meters":13600,"station_id":"ce4bh312rcd13ifvqdk0","pricing_plan_id":"cebpf4jnsgd1na2vs0mg"},{"bike_id":"589f1146-20bc-4a88-9ab7-60ee275b3000","system_id":"levelo_inurba_marseille","lat":43.2971,"lon":5.38007,"is_reserved":false,"is_disabled":false,"rental_uris":{"android":"levelo://app?vid=589f1146-20bc-4a88-9ab7-60ee275b3000","ios":"levelo://app?vid=589f1146-20bc-4a88-9ab7-60ee275b3000"},"vehicle_type_id":"4","last_reported":1742973038,"current_range_meters":14000,"station_id":"","pricing_plan_id":"cebpf4jnsgd1na2vs0mg"},{"bike_id":"92130de3-0d6b-4462-b082-0f3c764426e1","system_id":"levelo_inurba_marseille","lat":43.27958,"lon":5.38751,"is_reserved":false,"is_disabled":false,"rental_uris":{"android":"levelo://app?vid=92130de3-0d6b-4462-b082-0f3c764426e1","ios":"levelo://app?vid=92130de3-0d6b-4462-b082-0f3c764426e1"},"vehicle_type_id":"4","last_reported":1742973038,"current_range_meters":14000,"station_id":"ce4bhg12rcd13ifvqf80","pricing_plan_id":"cebpf4jnsgd1na2vs0mg"},{"bike_id":"0482f126-dcd4-4c55-95ad-5f37e13539d5","system_id":"levelo_inurba_marseille","lat":43.300797,"lon":5.378415,"is_reserved":false,"is_disabled":false,"rental_uris":{"android":"levelo://app?vid=0482f126-dcd4-4c55-95ad-5f37e13539d5","ios":"levelo://app?vid=0482f126-dcd4-4c55-95ad-5f37e13539d5"},"vehicle_type_id":"4","last_reported":1742973038,"current_range_meters":14000,"station_id":"ce4bgjp2rcd13ifvqbh0","pricing_plan_id":"cebpf4jnsgd1na2vs0mg"},{"bike_id":"6fcfdccf-9044-49ee-acde-501b32f49492","system_id":"levelo_inurba_marseille","lat":43.27498,"lon":5.42452,"is_reserved":false,"is_disabled":false,"rental_uris":{"android":"levelo://app?vid=6fcfdccf-9044-49ee-acde-501b32f49492","ios":"levelo://app?vid=6fcfdccf-9044-49ee-acde-501b32f49492"},"vehicle_type_id":"4","last_reported":1742973038,"current_range_meters":14000,"station_id":"ce4bhn92rcd13ifvqgrg","pricing_plan_id":"cebpf4jnsgd1na2vs0mg"},{"bike_id":"47638d21-0639-4611-a600-6a9a380e4d0f","system_id":"levelo_inurba_marseille","lat":43.28704,"lon":5.39984,"is_reserved":false,"is_disabled":false,"rental_uris":{"android":"levelo://app?vid=47638d21-0639-4611-a600-6a9a380e4d0f","ios":"levelo://app?vid=47638d21-0639-4611-a600-6a9a380e4d0f"},"vehicle_type_id":"4","last_reported":1742973038,"current_range_meters":14000,"station_id":"ce4bho92rcd13ifvqh3g","pricing_plan_id":"cebpf4jnsgd1na2vs0mg"},{"bike_id":"222e01eb-5419-4c3d-8346-1d1410ec7b1d","system_id":"levelo_inurba_marseille","lat":43.30003,"lon":5.38516,"is_reserved":false,"is_disabled":true,"rental_uris":{"android":"levelo://app?vid=222e01eb-5419-4c3d-8346-1d1410ec7b1d","ios":"levelo://app?vid=222e01eb-5419-4c3d-8346-1d1410ec7b1d"},"vehicle_type_id":"4","last_reported":1742973038,"current_range_meters":14000,"station_id":"ce4bgj92rcd13ifvqbd0","pricing_plan_id":"cebpf4jnsgd1na2vs0mg"},{"bike_id":"0885fa0b-2450-4c61-80b9-2c07179ad966","system_id":"levelo_inurba_marseille","lat":43.2835,"lon":5.38101,"is_reserved":false,"is_disabled":false,"rental_uris":{"android":"levelo://app?vid=0885fa0b-2450-4c61-80b9-2c07179ad966","ios":"levelo://app?vid=0885fa0b-2450-4c61-80b9-2c07179ad966"},"vehicle_type_id":"4","last_reported":1742973038,"current_range_meters":14400,"station_id":"ce4bh412rcd13ifvqdr0","pricing_plan_id":"cebpf4jnsgd1na2vs0mg"},{"bike_id":"5b830359-30b8-45d9-a902-126192112277","system_id":"levelo_inurba_marseille","lat":43.23187,"lon":5.35541,"is_reserved":false,"is_disabled":false,"rental_uris":{"android":"levelo://app?vid=5b830359-30b8-45d9-a902-126192112277","ios":"levelo://app?vid=5b830359-30b8-45d9-a902-126192112277"},"vehicle_type_id":"4","last_reported":1742973038,"current_range_meters":14400,"station_id":"ce4bhu92rcd13ifvqi70","pricing_plan_id":"cebpf4jnsgd1na2vs0mg"},{"bike_id":"68d42813-4eb5-41fe-a58d-c64b32f2b935","system_id":"levelo_inurba_marseille","lat":43.3236,"lon":5.36758,"is_reserved":false,"is_disabled":false,"rental_uris":{"android":"levelo://app?vid=68d42813-4eb5-41fe-a58d-c64b32f2b935","ios":"levelo://app?vid=68d42813-4eb5-41fe-a58d-c64b32f2b935"},"vehicle_type_id":"4","last_reported":1742973038,"current_range_meters":14400,"station_id":"ce4bhsh2rcd13ifvqi2g","pricing_plan_id":"cebpf4jnsgd1na2vs0mg"},{"bike_id":"b6007c91-4e8a-420a-a5d7-87fe25bf4dc6","system_id":"levelo_inurba_marseille","lat":43.27828,"lon":5.39206,"is_reserved":false,"is_disabled":false,"rental_uris":{"android":"levelo://app?vid=b6007c91-4e8a-420a-a5d7-87fe25bf4dc6","ios":"levelo://app?vid=b6007c91-4e8a-420a-a5d7-87fe25bf4dc6"},"vehicle_type_id":"4","last_reported":1742973038,"current_range_meters":14400,"station_id":"ce4bhjp2rcd13ifvqga0","pricing_plan_id":"cebpf4jnsgd1na2vs0mg"},{"bike_id":"b03c4d57-4bd3-439f-9acf-d3fb3c09c8c1","system_id":"levelo_inurba_marseille","lat":43.30592,"lon":5.39357,"is_reserved":false,"is_disabled":false,"rental_uris":{"android":"levelo://app?vid=b03c4d57-4bd3-439f-9acf-d3fb3c09c8c1","ios":"levelo://app?vid=b03c4d57-4bd3-439f-9acf-d3fb3c09c8c1"},"vehicle_type_id":"4","last_reported":1742973038,"current_range_meters":14400,"station_id":"ce4bh0p2rcd13ifvqd80","pricing_plan_id":"cebpf4jnsgd1na2vs0mg"},{"bike_id":"2623a753-dcde-4ffa-9bf1-3275e6037e7a","system_id":"levelo_inurba_marseille","lat":43.32531,"lon":5.36571,"is_reserved":false,"is_disabled":false,"rental_uris":{"android":"levelo://app?vid=2623a753-dcde-4ffa-9bf1-3275e6037e7a","ios":"levelo://app?vid=2623a753-dcde-4ffa-9bf1-3275e6037e7a"},"vehicle_type_id":"4","last_reported":1742973038,"current_range_meters":14400,"station_id":"ce4bhs12rcd13ifvqhvg","pricing_plan_id":"cebpf4jnsgd1na2vs0mg"},{"bike_id":"2bb1639c-3d1e-42da-973c-aa124251e63d","system_id":"levelo_inurba_marseille","lat":43.28349,"lon":5.3811,"is_reserved":false,"is_disabled":false,"rental_uris":{"android":"levelo://app?vid=2bb1639c-3d1e-42da-973c-aa124251e63d","ios":"levelo://app?vid=2bb1639c-3d1e-42da-973c-aa124251e63d"},"vehicle_type_id":"4","last_reported":1742973038,"current_range_meters":14800,"station_id":"ce4bh412rcd13ifvqdr0","pricing_plan_id":"cebpf4jnsgd1na2vs0mg"},{"bike_id":"590fbdd5-2a2a-49d4-b7a7-1dbd21f3853f","system_id":"levelo_inurba_marseille","lat":43.2408,"lon":5.37754,"is_reserved":false,"is_disabled":false,"rental_uris":{"android":"levelo://app?vid=590fbdd5-2a2a-49d4-b7a7-1dbd21f3853f","ios":"levelo://app?vid=590fbdd5-2a2a-49d4-b7a7-1dbd21f3853f"},"vehicle_type_id":"4","last_reported":1742973038,"current_range_meters":14800,"station_id":"ce4bhnp2rcd13ifvqgvg","pricing_plan_id":"cebpf4jnsgd1na2vs0mg"},{"bike_id":"d00f9495-9593-4460-875a-d3841f1a62eb","system_id":"levelo_inurba_marseille","lat":43.28563,"lon":5.39536,"is_reserved":false,"is_disabled":false,"rental_uris":{"android":"levelo://app?vid=d00f9495-9593-4460-875a-d3841f1a62eb","ios":"levelo://app?vid=d00f9495-9593-4460-875a-d3841f1a62eb"},"vehicle_type_id":"4","last_reported":1742973038,"current_range_meters":14800,"station_id":"ce4bh292rcd13ifvqdg0","pricing_plan_id":"cebpf4jnsgd1na2vs0mg"},{"bike_id":"9490ab3f-b563-4312-b2ed-009944c7886e","system_id":"levelo_inurba_marseille","lat":43.32487,"lon":5.36585,"is_reserved":false,"is_disabled":false,"rental_uris":{"android":"levelo://app?vid=9490ab3f-b563-4312-b2ed-009944c7886e","ios":"levelo://app?vid=9490ab3f-b563-4312-b2ed-009944c7886e"},"vehicle_type_id":"4","last_reported":1742973038,"current_range_meters":14800,"station_id":"ce4bhs12rcd13ifvqhvg","pricing_plan_id":"cebpf4jnsgd1na2vs0mg"},{"bike_id":"46bc7627-5963-437b-83ed-b3f9497370e8","system_id":"levelo_inurba_marseille","lat":43.29908,"lon":5.43675,"is_reserved":false,"is_disabled":false,"rental_uris":{"android":"levelo://app?vid=46bc7627-5963-437b-83ed-b3f9497370e8","ios":"levelo://app?vid=46bc7627-5963-437b-83ed-b3f9497370e8"},"vehicle_type_id":"4","last_reported":1742973038,"current_range_meters":14800,"station_id":"ce4bhpp2rcd13ifvqhfg","pricing_plan_id":"cebpf4jnsgd1na2vs0mg"},{"bike_id":"32587236-5e22-47d2-9fe2-6ecdcf34d69f","system_id":"levelo_inurba_marseille","lat":43.31723,"lon":5.43692,"is_reserved":false,"is_disabled":false,"rental_uris":{"android":"levelo://app?vid=32587236-5e22-47d2-9fe2-6ecdcf34d69f","ios":"levelo://app?vid=32587236-5e22-47d2-9fe2-6ecdcf34d69f"},"vehicle_type_id":"4","last_reported":1742973038,"current_range_meters":14800,"station_id":"ce4bhp92rcd13ifvqhcg","pricing_plan_id":"cebpf4jnsgd1na2vs0mg"},{"bike_id":"6a4df5d5-734b-4e13-b963-2f5f45fb15ce","system_id":"levelo_inurba_marseille","lat":43.29911,"lon":5.38142,"is_reserved":false,"is_disabled":false,"rental_uris":{"android":"levelo://app?vid=6a4df5d5-734b-4e13-b963-2f5f45fb15ce","ios":"levelo://app?vid=6a4df5d5-734b-4e13-b963-2f5f45fb15ce"},"vehicle_type_id":"4","last_reported":1742973038,"current_range_meters":14800,"station_id":"ce4bgj12rcd13ifvqbc0","pricing_plan_id":"cebpf4jnsgd1na2vs0mg"},{"bike_id":"4bace101-355b-47ea-90c4-fee35c62c20e","system_id":"levelo_inurba_marseille","lat":43.32551,"lon":5.41427,"is_reserved":false,"is_disabled":false,"rental_uris":{"android":"levelo://app?vid=4bace101-355b-47ea-90c4-fee35c62c20e","ios":"levelo://app?vid=4bace101-355b-47ea-90c4-fee35c62c20e"},"vehicle_type_id":"4","last_reported":1742973038,"current_range_meters":15200,"station_id":"ce4bhq12rcd13ifvqhhg","pricing_plan_id":"cebpf4jnsgd1na2vs0mg"},{"bike_id":"fc84607b-9b41-4f40-965f-2f6dfcf0044d","system_id":"levelo_inurba_marseille","lat":43.28382,"lon":5.3751,"is_reserved":false,"is_disabled":false,"rental_uris":{"android":"levelo://app?vid=fc84607b-9b41-4f40-965f-2f6dfcf0044d","ios":"levelo://app?vid=fc84607b-9b41-4f40-965f-2f6dfcf0044d"},"vehicle_type_id":"4","last_reported":1742973038,"current_range_meters":15200,"station_id":"ce4bh412rcd13ifvqds0","pricing_plan_id":"cebpf4jnsgd1na2vs0mg"},{"bike_id":"42eb771f-e895-4346-a84b-4f2330cd7da8","system_id":"levelo_inurba_marseille","lat":43.27811,"lon":5.40713,"is_reserved":false,"is_disabled":false,"rental_uris":{"android":"levelo://app?vid=42eb771f-e895-4346-a84b-4f2330cd7da8","ios":"levelo://app?vid=42eb771f-e895-4346-a84b-4f2330cd7da8"},"vehicle_type_id":"4","last_reported":1742973038,"current_range_meters":15200,"station_id":"ce4bhnh2rcd13ifvqgtg","pricing_plan_id":"cebpf4jnsgd1na2vs0mg"},{"bike_id":"52c9e55e-35f1-42a7-9dce-7a01d53ff0be","system_id":"levelo_inurba_marseille","lat":43.279223,"lon":5.411669,"is_reserved":false,"is_disabled":false,"rental_uris":{"android":"levelo://app?vid=52c9e55e-35f1-42a7-9dce-7a01d53ff0be","ios":"levelo://app?vid=52c9e55e-35f1-42a7-9dce-7a01d53ff0be"},"vehicle_type_id":"4","last_reported":1742973038,"current_range_meters":16000,"station_id":"","pricing_plan_id":"cebpf4jnsgd1na2vs0mg"},{"bike_id":"ab255577-419b-4b2c-b48f-5c6fb00afdfd","system_id":"levelo_inurba_marseille","lat":43.32407,"lon":5.36701,"is_reserved":false,"is_disabled":false,"rental_uris":{"android":"levelo://app?vid=ab255577-419b-4b2c-b48f-5c6fb00afdfd","ios":"levelo://app?vid=ab255577-419b-4b2c-b48f-5c6fb00afdfd"},"vehicle_type_id":"4","last_reported":1742973038,"current_range_meters":16000,"station_id":"ce4bhsh2rcd13ifvqi2g","pricing_plan_id":"cebpf4jnsgd1na2vs0mg"},{"bike_id":"94e79fc7-9367-4952-8689-794a28fc3d39","system_id":"levelo_inurba_marseille","lat":43.29899,"lon":5.43669,"is_reserved":false,"is_disabled":false,"rental_uris":{"android":"levelo://app?vid=94e79fc7-9367-4952-8689-794a28fc3d39","ios":"levelo://app?vid=94e79fc7-9367-4952-8689-794a28fc3d39"},"vehicle_type_id":"4","last_reported":1742973038,"current_range_meters":16000,"station_id":"ce4bhpp2rcd13ifvqhfg","pricing_plan_id":"cebpf4jnsgd1na2vs0mg"},{"bike_id":"1e109408-f1b1-4c72-a0d1-add820f3cd12","system_id":"levelo_inurba_marseille","lat":43.29606,"lon":5.381,"is_reserved":false,"is_disabled":false,"rental_uris":{"android":"levelo://app?vid=1e109408-f1b1-4c72-a0d1-add820f3cd12","ios":"levelo://app?vid=1e109408-f1b1-4c72-a0d1-add820f3cd12"},"vehicle_type_id":"4","last_reported":1742973038,"current_range_meters":16000,"station_id":"ce4bgl12rcd13ifvqbo0","pricing_plan_id":"cebpf4jnsgd1na2vs0mg"},{"bike_id":"9d25e385-fe0d-415f-89cc-3bb054787113","system_id":"levelo_inurba_marseille","lat":43.28356,"lon":5.38108,"is_reserved":false,"is_disabled":false,"rental_uris":{"android":"levelo://app?vid=9d25e385-fe0d-415f-89cc-3bb054787113","ios":"levelo://app?vid=9d25e385-fe0d-415f-89cc-3bb054787113"},"vehicle_type_id":"4","last_reported":1742973038,"current_range_meters":16000,"station_id":"ce4bh412rcd13ifvqdr0","pricing_plan_id":"cebpf4jnsgd1na2vs0mg"},{"bike_id":"3627bf54-0f63-4bbb-8798-fb76287f1100","system_id":"levelo_inurba_marseille","lat":43.30303,"lon":5.36899,"is_reserved":false,"is_disabled":true,"rental_uris":{"android":"levelo://app?vid=3627bf54-0f63-4bbb-8798-fb76287f1100","ios":"levelo://app?vid=3627bf54-0f63-4bbb-8798-fb76287f1100"},"vehicle_type_id":"4","last_reported":1742973038,"current_range_meters":16000,"station_id":"ce4bgqh2rcd13ifvqc5g","pricing_plan_id":"cebpf4jnsgd1na2vs0mg"},{"bike_id":"0ffce532-bd4c-4cc8-8ac4-3f07fbf840b2","system_id":"levelo_inurba_marseille","lat":43.28824,"lon":5.35865,"is_reserved":false,"is_disabled":false,"rental_uris":{"android":"levelo://app?vid=0ffce532-bd4c-4cc8-8ac4-3f07fbf840b2","ios":"levelo://app?vid=0ffce532-bd4c-4cc8-8ac4-3f07fbf840b2"},"vehicle_type_id":"4","last_reported":1742973038,"current_range_meters":16400,"station_id":"ce4bhb12rcd13ifvqem0","pricing_plan_id":"cebpf4jnsgd1na2vs0mg"},{"bike_id":"d10f6683-8fec-4e96-8cbd-91ec33ad8ab4","system_id":"levelo_inurba_marseille","lat":43.297,"lon":5.36636,"is_reserved":false,"is_disabled":false,"rental_uris":{"android":"levelo://app?vid=d10f6683-8fec-4e96-8cbd-91ec33ad8ab4","ios":"levelo://app?vid=d10f6683-8fec-4e96-8cbd-91ec33ad8ab4"},"vehicle_type_id":"4","last_reported":1742973038,"current_range_meters":16400,"station_id":"ce4bgn12rcd13ifvqbt0","pricing_plan_id":"cebpf4jnsgd1na2vs0mg"},{"bike_id":"ad476bba-3afb-4987-9e59-dbe46ee2f250","system_id":"levelo_inurba_marseille","lat":43.28367,"lon":5.38632,"is_reserved":false,"is_disabled":false,"rental_uris":{"android":"levelo://app?vid=ad476bba-3afb-4987-9e59-dbe46ee2f250","ios":"levelo://app?vid=ad476bba-3afb-4987-9e59-dbe46ee2f250"},"vehicle_type_id":"4","last_reported":1742973038,"current_range_meters":16400,"station_id":"ce4bh492rcd13ifvqdvg","pricing_plan_id":"cebpf4jnsgd1na2vs0mg"},{"bike_id":"e3a2742d-a4cc-44a5-9149-a7514d1a8534","system_id":"levelo_inurba_marseille","lat":43.30421,"lon":5.39749,"is_reserved":false,"is_disabled":false,"rental_uris":{"android":"levelo://app?vid=e3a2742d-a4cc-44a5-9149-a7514d1a8534","ios":"levelo://app?vid=e3a2742d-a4cc-44a5-9149-a7514d1a8534"},"vehicle_type_id":"4","last_reported":1742973038,"current_range_meters":16400,"station_id":"ce4bh092rcd13ifvqd20","pricing_plan_id":"cebpf4jnsgd1na2vs0mg"},{"bike_id":"826c8394-7b57-4dc2-83a0-4e73cef8c5c8","system_id":"levelo_inurba_marseille","lat":43.30155,"lon":5.38088,"is_reserved":false,"is_disabled":false,"rental_uris":{"android":"levelo://app?vid=826c8394-7b57-4dc2-83a0-4e73cef8c5c8","ios":"levelo://app?vid=826c8394-7b57-4dc2-83a0-4e73cef8c5c8"},"vehicle_type_id":"4","last_reported":1742973038,"current_range_meters":16400,"station_id":"ce4bgjp2rcd13ifvqbh0","pricing_plan_id":"cebpf4jnsgd1na2vs0mg"},{"bike_id":"5f8af9ea-41e5-44e3-adae-97b82312793f","system_id":"levelo_inurba_marseille","lat":43.23152,"lon":5.43718,"is_reserved":false,"is_disabled":false,"rental_uris":{"android":"levelo://app?vid=5f8af9ea-41e5-44e3-adae-97b82312793f","ios":"levelo://app?vid=5f8af9ea-41e5-44e3-adae-97b82312793f"},"vehicle_type_id":"4","last_reported":1742973038,"current_range_meters":16400,"station_id":"ce4bhmp2rcd13ifvqgog","pricing_plan_id":"cebpf4jnsgd1na2vs0mg"},{"bike_id":"75c7187b-7cb5-4136-b180-795a32bcbe1d","system_id":"levelo_inurba_marseille","lat":43.27974,"lon":5.38589,"is_reserved":false,"is_disabled":true,"rental_uris":{"android":"levelo://app?vid=75c7187b-7cb5-4136-b180-795a32bcbe1d","ios":"levelo://app?vid=75c7187b-7cb5-4136-b180-795a32bcbe1d"},