{"last_updated":1727881751,"ttl":60,"version":"2.2","data":{"bikes":[{"bike_id":"a0deca93-135f-43de-b713-e41506b6b078","system_id":"levelo_inurba_marseille","lat":43.29787,"lon":5.39348,"is_reserved":false,"is_disabled":false,"rental_uris":{"android":"levelo://app?vid=a0deca93-135f-43de-b713-e41506b6b078","ios":"levelo://app?vid=a0deca93-135f-43de-b713-e41506b6b078"},"vehicle_type_id":"4","last_reported":1727881751,"current_range_meters":38800,"station_id":"chh1huq6cuj3fo74tm60","pricing_plan_id":"cebpf4jnsgd1na2vs0mg"},{"bike_id":"77c1dea2-9b7d-474c-a0b6-823e5d1fcc16","system_id":"levelo_inurba_marseille","lat":43.2603,"lon":5.37549,"is_reserved":false,"is_disabled":false,"rental_uris":{"android":"levelo://app?vid=77c1dea2-9b7d-474c-a0b6-823e5d1fcc16","ios":"levelo://app?vid=77c1dea2-9b7d-474c-a0b6-823e5d1fcc16"},"vehicle_type_id":"4","last_reported":1727881751,"current_range_meters":28400,"station_id":"ce4bhgh2rcd13ifvqfa0","pricing_plan_id":"cebpf4jnsgd1na2vs0mg"},{"bike_id":"7117bc00-d9d0-427c-ad70-b9eb8649a547","system_id":"levelo_inurba_marseille","lat":43.2942,"lon":5.38621,"is_reserved":false,"is_disabled":false,"rental_uris":{"android":"levelo://app?vid=7117bc00-d9d0-427c-ad70-b9eb8649a547","ios":"levelo://app?vid=7117bc00-d9d0-427c-ad70-b9eb8649a547"},"vehicle_type_id":"4","last_reported":1727881751,"current_range_meters":17200,"station_id":"ce4bh2h2rcd13ifvqdh0","pricing_plan_id":"cebpf4jnsgd1na2vs0mg"},{"bike_id":"c9d21d93-4991-4925-bdde-e80d62e3a069","system_id":"levelo_inurba_marseille","lat":43.24179,"lon":5.39724,"is_reserved":false,"is_disabled":false,"rental_uris":{"android":"levelo://app?vid=c9d21d93-4991-4925-bdde-e80d62e3a069","ios":"levelo://app?vid=c9d21d93-4991-4925-bdde-e80d62e3a069"},"vehicle_type_id":"4","last_reported":1727881751,"current_range_meters":22000,"station_id":"ce4bhn12rcd13ifvqgpg","pricing_plan_id":"cebpf4jnsgd1na2vs0mg"},{"bike_id":"6a451bb5-2bc0-4918-bfd2-5a56f4f5e520","system_id":"levelo_inurba_marseille","lat":43.29036,"lon":5.39963,"is_reserved":false,"is_disabled":false,"rental_uris":{"android":"levelo://app?vid=6a451bb5-2bc0-4918-bfd2-5a56f4f5e520","ios":"levelo://app?vid=6a451bb5-2bc0-4918-bfd2-5a56f4f5e520"},"vehicle_type_id":"4","last_reported":1727881751,"current_range_meters":36400,"station_id":"ce4bh392rcd13ifvqdm0","pricing_plan_id":"cebpf4jnsgd1na2vs0mg"},{"bike_id":"f2a52a03-ce58-4c37-b055-7122fd508af1","system_id":"levelo_inurba_marseille","lat":43.32337,"lon":5.40617,"is_reserved":false,"is_disabled":false,"rental_uris":{"android":"levelo://app?vid=f2a52a03-ce58-4c37-b055-7122fd508af1","ios":"levelo://app?vid=f2a52a03-ce58-4c37-b055-7122fd508af1"},"vehicle_type_id":"4","last_reported":1727881751,"current_range_meters":4400,"station_id":"ce4bhq92rcd13ifvqhjg","pricing_plan_id":"cebpf4jnsgd1na2vs0mg"},{"bike_id":"3cb979fe-2bc5-42a5-895e-050cda7c0889","system_id":"levelo_inurba_marseille","lat":43.26573,"lon":5.38992,"is_reserved":false,"is_disabled":false,"rental_uris":{"android":"levelo://app?vid=3cb979fe-2bc5-42a5-895e-050cda7c0889","ios":"levelo://app?vid=3cb979fe-2bc5-42a5-895e-050cda7c0889"},"vehicle_type_id":"4","last_reported":1727881751,"current_range_meters":28400,"station_id":"ce4bhe12rcd13ifvqf30","pricing_plan_id":"cebpf4jnsgd1na2vs0mg"},{"bike_id":"35f988e1-bb7f-42ee-a027-e71d9ebce6e0","system_id":"levelo_inurba_marseille","lat":43.30553,"lon":5.36697,"is_reserved":false,"is_disabled":false,"rental_uris":{"android":"levelo://app?vid=35f988e1-bb7f-42ee-a027-e71d9ebce6e0","ios":"levelo://app?vid=35f988e1-bb7f-42ee-a027-e71d9ebce6e0"},"vehicle_type_id":"4","last_reported":1727881751,"current_range_meters":21600,"station_id":"ce4bgrp2rcd13ifvqc9g","pricing_plan_id":"cebpf4jnsgd1na2vs0mg"},{"bike_id":"48e17eff-2b4a-49fc-af5b-dc7cb48ff169","system_id":"levelo_inurba_marseille","lat":43.29427,"lon":5.38628,"is_reserved":false,"is_disabled":false,"rental_uris":{"android":"levelo://app?vid=48e17eff-2b4a-49fc-af5b-dc7cb48ff169","ios":"levelo://app?vid=48e17eff-2b4a-49fc-af5b-dc7cb48ff169"},"vehicle_type_id":"4","last_reported":1727881751,"current_range_meters":32400,"station_id":"ce4bh2h2rcd13ifvqdh0","pricing_plan_id":"cebpf4jnsgd1na2vs0mg"},{"bike_id":"2bb03c07-8adf-4363-82bb-97597b530c17","system_id":"levelo_inurba_marseille","lat":43.2583,"lon":5.39439,"is_reserved":false,"is_disabled":false,"rental_uris":{"android":"levelo://app?vid=2bb03c07-8adf-4363-82bb-97597b530c17","ios":"levelo://app?vid=2bb03c07-8adf-4363-82bb-97597b530c17"},"vehicle_type_id":"4","last_reported":1727881751,"current_range_meters":38800,"station_id":"ce4bhip2rcd13ifvqft0","pricing_plan_id":"cebpf4jnsgd1na2vs0mg"},{"bike_id":"529a23dd-984b-4afb-b813-1494d32d2ddc","system_id":"levelo_inurba_marseille","lat":43.29622,"lon":5.37719,"is_reserved":false,"is_disabled":false,"rental_uris":{"android":"levelo://app?vid=529a23dd-984b-4afb-b813-1494d32d2ddc","ios":"levelo://app?vid=529a23dd-984b-4afb-b813-1494d32d2ddc"},"vehicle_type_id":"4","last_reported":1727881751,"current_range_meters":11200,"station_id":"ce4bgi92rcd13ifvqb90","pricing_plan_id":"cebpf4jnsgd1na2vs0mg"},{"bike_id":"3266d668-2f81-4f3b-ae04-8070b32a0e52","system_id":"levelo_inurba_marseille","lat":43.33023,"lon":5.39045,"is_reserved":false,"is_disabled":false,"rental_uris":{"android":"levelo://app?vid=3266d668-2f81-4f3b-ae04-8070b32a0e52","ios":"levelo://app?vid=3266d668-2f81-4f3b-ae04-8070b32a0e52"},"vehicle_type_id":"4","last_reported":1727881751,"current_range_meters":38800,"station_id":"ce4bhr92rcd13ifvqhrg","pricing_plan_id":"cebpf4jnsgd1na2vs0mg"},{"bike_id":"b5257c19-a7e8-4dba-bdd5-387f08a42a97","system_id":"levelo_inurba_marseille","lat":43.31331,"lon":5.39693,"is_reserved":false,"is_disabled":false,"rental_uris":{"android":"levelo://app?vid=b5257c19-a7e8-4dba-bdd5-387f08a42a97","ios":"levelo://app?vid=b5257c19-a7e8-4dba-bdd5-387f08a42a97"},"vehicle_type_id":"4","last_reported":1727881751,"current_range_meters":16800,"station_id":"ce4bgvp2rcd13ifvqcu0","pricing_plan_id":"cebpf4jnsgd1na2vs0mg"},{"bike_id":"c02eea6c-810f-4d9f-86ab-4b344117c365","system_id":"levelo_inurba_marseille","lat":43.32479,"lon":5.36561,"is_reserved":false,"is_disabled":false,"rental_uris":{"android":"levelo://app?vid=c02eea6c-810f-4d9f-86ab-4b344117c365","ios":"levelo://app?vid=c02eea6c-810f-4d9f-86ab-4b344117c365"},"vehicle_type_id":"4","last_reported":1727881751,"current_range_meters":10800,"station_id":"ce4bhs12rcd13ifvqhvg","pricing_plan_id":"cebpf4jnsgd1na2vs0mg"},{"bike_id":"01039019-5fcf-4bf4-881a-3d31f095b42a","system_id":"levelo_inurba_marseille","lat":43.28849,"lon":5.39323,"is_reserved":false,"is_disabled":false,"rental_uris":{"android":"levelo://app?vid=01039019-5fcf-4bf4-881a-3d31f095b42a","ios":"levelo://app?vid=01039019-5fcf-4bf4-881a-3d31f095b42a"},"vehicle_type_id":"4","last_reported":1727881751,"current_range_meters":38400,"station_id":"ce4bh2p2rcd13ifvqdi0","pricing_plan_id":"cebpf4jnsgd1na2vs0mg"},{"bike_id":"1a717612-b3b2-42c8-91a1-f8fb55b7ef0d","system_id":"levelo_inurba_marseille","lat":43.28472,"lon":5.38413,"is_reserved":false,"is_disabled":false,"rental_uris":{"android":"levelo://app?vid=1a717612-b3b2-42c8-91a1-f8fb55b7ef0d","ios":"levelo://app?vid=1a717612-b3b2-42c8-91a1-f8fb55b7ef0d"},"vehicle_type_id":"4","last_reported":1727881751,"current_range_meters":38800,"station_id":"ce4bh512rcd13ifvqe3g","pricing_plan_id":"cebpf4jnsgd1na2vs0mg"},{"bike_id":"24b8f41a-3ca2-445c-a0ab-f7f3545231d9","system_id":"levelo_inurba_marseille","lat":43.28006,"lon":5.39997,"is_reserved":false,"is_disabled":false,"rental_uris":{"android":"levelo://app?vid=24b8f41a-3ca2-445c-a0ab-f7f3545231d9","ios":"levelo://app?vid=24b8f41a-3ca2-445c-a0ab-f7f3545231d9"},"vehicle_type_id":"4","last_reported":1727881751,"current_range_meters":8000,"station_id":"ce4bho92rcd13ifvqh4g","pricing_plan_id":"cebpf4jnsgd1na2vs0mg"},{"bike_id":"db8cdff0-b42b-4ed4-8f4a-f576cca114e9","system_id":"levelo_inurba_marseille","lat":43.28268,"lon":5.35059,"is_reserved":false,"is_disabled":false,"rental_uris":{"android":"levelo://app?vid=db8cdff0-b42b-4ed4-8f4a-f576cca114e9","ios":"levelo://app?vid=db8cdff0-b42b-4ed4-8f4a-f576cca114e9"},"vehicle_type_id":"4","last_reported":1727881751,"current_range_meters":23200,"station_id":"ce4bhbp2rcd13ifvqerg","pricing_plan_id":"cebpf4jnsgd1na2vs0mg"},{"bike_id":"a49f91a1-da37-4108-907c-b2289f1cb88f","system_id":"levelo_inurba_marseille","lat":43.28843,"lon":5.39314,"is_reserved":false,"is_disabled":false,"rental_uris":{"android":"levelo://app?vid=a49f91a1-da37-4108-907c-b2289f1cb88f","ios":"levelo://app?vid=a49f91a1-da37-4108-907c-b2289f1cb88f"},"vehicle_type_id":"4","last_reported":1727881751,"current_range_meters":25600,"station_id":"ce4bh2p2rcd13ifvqdi0","pricing_plan_id":"cebpf4jnsgd1na2vs0mg"},{"bike_id":"ec1c3e2c-022c-4156-88fa-de4eba1043d2","system_id":"levelo_inurba_marseille","lat":43.25008,"lon":5.38914,"is_reserved":false,"is_disabled":false,"rental_uris":{"android":"levelo://app?vid=ec1c3e2c-022c-4156-88fa-de4eba1043d2","ios":"levelo://app?vid=ec1c3e2c-022c-4156-88fa-de4eba1043d2"},"vehicle_type_id":"4","last_reported":1727881751,"current_range_meters":32800,"station_id":"ce4bhgp2rcd13ifvqfd0","pricing_plan_id":"cebpf4jnsgd1na2vs0mg"},{"bike_id":"b252c646-dd91-46d9-bc14-6c8fdd944977","system_id":"levelo_inurba_marseille","lat":43.30147,"lon":5.38079,"is_reserved":false,"is_disabled":false,"rental_uris":{"android":"levelo://app?vid=b252c646-dd91-46d9-bc14-6c8fdd944977","ios":"levelo://app?vid=b252c646-dd91-46d9-bc14-6c8fdd944977"},"vehicle_type_id":"4","last_reported":1727881751,"current_range_meters":14000,"station_id":"ce4bgjp2rcd13ifvqbh0","pricing_plan_id":"cebpf4jnsgd1na2vs0mg"},{"bike_id":"51128062-104f-4d00-a811-c960a30488eb","system_id":"levelo_inurba_marseille","lat":43.28071,"lon":5.39663,"is_reserved":false,"is_disabled":false,"rental_uris":{"android":"levelo://app?vid=51128062-104f-4d00-a811-c960a30488eb","ios":"levelo://app?vid=51128062-104f-4d00-a811-c960a30488eb"},"vehicle_type_id":"4","last_reported":1727881751,"current_range_meters":32400,"station_id":"ce4bho12rcd13ifvqh2g","pricing_plan_id":"cebpf4jnsgd1na2vs0mg"},{"bike_id":"470a6cd0-9964-4a09-9ef7-ac060fc4c34d","system_id":"levelo_inurba_marseille","lat":43.29419,"lon":5.38625,"is_reserved":false,"is_disabled":false,"rental_uris":{"android":"levelo://app?vid=470a6cd0-9964-4a09-9ef7-ac060fc4c34d","ios":"levelo://app?vid=470a6cd0-9964-4a09-9ef7-ac060fc4c34d"},"vehicle_type_id":"4","last_reported":1727881751,"current_range_meters":8800,"station_id":"ce4bh2h2rcd13ifvqdh0","pricing_plan_id":"cebpf4jnsgd1na2vs0mg"},{"bike_id":"800b1c1f-8a35-4ae7-a533-7cc9de1f4c12","system_id":"levelo_inurba_marseille","lat":43.29876,"lon":5.38916,"is_reserved":false,"is_disabled":false,"rental_uris":{"android":"levelo://app?vid=800b1c1f-8a35-4ae7-a533-7cc9de1f4c12","ios":"levelo://app?vid=800b1c1f-8a35-4ae7-a533-7cc9de1f4c12"},"vehicle_type_id":"4","last_reported":1727881751,"current_range_meters":28000,"station_id":"ce4bh392rcd13ifvqdl0","pricing_plan_id":"cebpf4jnsgd1na2vs0mg"},{"bike_id":"97d8fdd8-6064-407f-b9b4-f5941b09d043","system_id":"levelo_inurba_marseille","lat":43.303101,"lon":5.369105,"is_reserved":false,"is_disabled":false,"rental_uris":{"android":"levelo://app?vid=97d8fdd8-6064-407f-b9b4-f5941b09d043","ios":"levelo://app?vid=97d8fdd8-6064-407f-b9b4-f5941b09d043"},"vehicle_type_id":"4","last_reported":1727881751,"current_range_meters":22800,"station_id":"ce4bgqh2rcd13ifvqc5g","pricing_plan_id":"cebpf4jnsgd1na2vs0mg"},{"bike_id":"078017b4-bcd7-46ce-b4ff-ced7738fedb2","system_id":"levelo_inurba_marseille","lat":43.30199,"lon":5.366212,"is_reserved":false,"is_disabled":false,"rental_uris":{"android":"levelo://app?vid=078017b4-bcd7-46ce-b4ff-ced7738fedb2","ios":"levelo://app?vid=078017b4-bcd7-46ce-b4ff-ced7738fedb2"},"vehicle_type_id":"4","last_reported":1727881751,"current_range_meters":10800,"station_id":"ce4bgrh2rcd13ifvqc8g","pricing_plan_id":"cebpf4jnsgd1na2vs0mg"},{"bike_id":"90b7edda-53c7-47fc-8818-49f222543e81","system_id":"levelo_inurba_marseille","lat":43.31722,"lon":5.42395,"is_reserved":false,"is_disabled":false,"rental_uris":{"android":"levelo://app?vid=90b7edda-53c7-47fc-8818-49f222543e81","ios":"levelo://app?vid=90b7edda-53c7-47fc-8818-49f222543e81"},"vehicle_type_id":"4","last_reported":1727881751,"current_range_meters":38000,"station_id":"ce4bhp92rcd13ifvqhbg","pricing_plan_id":"cebpf4jnsgd1na2vs0mg"},{"bike_id":"b2d306ff-9f58-4d67-b6e1-5402487eab98","system_id":"levelo_inurba_marseille","lat":43.30535,"lon":5.36514,"is_reserved":false,"is_disabled":false,"rental_uris":{"android":"levelo://app?vid=b2d306ff-9f58-4d67-b6e1-5402487eab98","ios":"levelo://app?vid=b2d306ff-9f58-4d67-b6e1-5402487eab98"},"vehicle_type_id":"4","last_reported":1727881751,"current_range_meters":15200,"station_id":"ce4bgs12rcd13ifvqcag","pricing_plan_id":"cebpf4jnsgd1na2vs0mg"},{"bike_id":"723e1939-7b13-4183-8b26-51ad7c8e8a83","system_id":"levelo_inurba_marseille","lat":43.29877,"lon":5.38899,"is_reserved":false,"is_disabled":false,"rental_uris":{"android":"levelo://app?vid=723e1939-7b13-4183-8b26-51ad7c8e8a83","ios":"levelo://app?vid=723e1939-7b13-4183-8b26-51ad7c8e8a83"},"vehicle_type_id":"4","last_reported":1727881751,"current_range_meters":25200,"station_id":"ce4bh392rcd13ifvqdl0","pricing_plan_id":"cebpf4jnsgd1na2vs0mg"},{"bike_id":"45003e85-f878-4bba-8305-7ee341e44b05","system_id":"levelo_inurba_marseille","lat":43.30928,"lon":5.40138,"is_reserved":false,"is_disabled":false,"rental_uris":{"android":"levelo://app?vid=45003e85-f878-4bba-8305-7ee341e44b05","ios":"levelo://app?vid=45003e85-f878-4bba-8305-7ee341e44b05"},"vehicle_type_id":"4","last_reported":1727881751,"current_range_meters":34000,"station_id":"ce4bgvp2rcd13ifvqct0","pricing_plan_id":"cebpf4jnsgd1na2vs0mg"},{"bike_id":"6e84760f-ab81-42ca-b8f9-f660f29d4db8","system_id":"levelo_inurba_marseille","lat":43.29042,"lon":5.37566,"is_reserved":false,"is_disabled":false,"rental_uris":{"android":"levelo://app?vid=6e84760f-ab81-42ca-b8f9-f660f29d4db8","ios":"levelo://app?vid=6e84760f-ab81-42ca-b8f9-f660f29d4db8"},"vehicle_type_id":"4","last_reported":1727881751,"current_range_meters":14800,"station_id":"ce4bh692rcd13ifvqe90","pricing_plan_id":"cebpf4jnsgd1na2vs0mg"},{"bike_id":"d1f0d014-7557-47d8-822b-5e26ceaae108","system_id":"levelo_inurba_marseille","lat":43.23184,"lon":5.39973,"is_reserved":false,"is_disabled":false,"rental_uris":{"android":"levelo://app?vid=d1f0d014-7557-47d8-822b-5e26ceaae108","ios":"levelo://app?vid=d1f0d014-7557-47d8-822b-5e26ceaae108"},"vehicle_type_id":"4","last_reported":1727881751,"current_range_meters":26800,"station_id":"ce4bhn12rcd13ifvqgqg","pricing_plan_id":"cebpf4jnsgd1na2vs0mg"},{"bike_id":"7ab4211c-83ac-484f-9c86-96e1d691f738","system_id":"levelo_inurba_marseille","lat":43.265,"lon":5.39549,"is_reserved":false,"is_disabled":false,"rental_uris":{"android":"levelo://app?vid=7ab4211c-83ac-484f-9c86-96e1d691f738","ios":"levelo://app?vid=7ab4211c-83ac-484f-9c86-96e1d691f738"},"vehicle_type_id":"4","last_reported":1727881751,"current_range_meters":19200,"station_id":"ce4bhi12rcd13ifvqfq0","pricing_plan_id":"cebpf4jnsgd1na2vs0mg"},{"bike_id":"c7a041d2-4096-4cde-bb54-51733a6f937b","system_id":"levelo_inurba_marseille","lat":43.29196,"lon":5.39333,"is_reserved":false,"is_disabled":false,"rental_uris":{"android":"levelo://app?vid=c7a041d2-4096-4cde-bb54-51733a6f937b","ios":"levelo://app?vid=c7a041d2-4096-4cde-bb54-51733a6f937b"},"vehicle_type_id":"4","last_reported":1727881751,"current_range_meters":38800,"station_id":"ce4bh192rcd13ifvqdd0","pricing_plan_id":"cebpf4jnsgd1na2vs0mg"},{"bike_id":"be19b1fe-4ab5-45f0-a575-f506ba21f8b3","system_id":"levelo_inurba_marseille","lat":43.29195,"lon":5.39313,"is_reserved":false,"is_disabled":false,"rental_uris":{"android":"levelo://app?vid=be19b1fe-4ab5-45f0-a575-f506ba21f8b3","ios":"levelo://app?vid=be19b1fe-4ab5-45f0-a575-f506ba21f8b3"},"vehicle_type_id":"4","last_reported":1727881751,"current_range_meters":24800,"station_id":"ce4bh192rcd13ifvqdd0","pricing_plan_id":"cebpf4jnsgd1na2vs0mg"},{"bike_id":"6e956258-0a1f-44e5-bcf1-86d1587fa8f1","system_id":"levelo_inurba_marseille","lat":43.30926,"lon":5.40145,"is_reserved":false,"is_disabled":false,"rental_uris":{"android":"levelo://app?vid=6e956258-0a1f-44e5-bcf1-86d1587fa8f1","ios":"levelo://app?vid=6e956258-0a1f-44e5-bcf1-86d1587fa8f1"},"vehicle_type_id":"4","last_reported":1727881751,"current_range_meters":38800,"station_id":"ce4bgvp2rcd13ifvqct0","pricing_plan_id":"cebpf4jnsgd1na2vs0mg"},{"bike_id":"71b41be5-d499-4f93-ad21-2f0bf0e89131","system_id":"levelo_inurba_marseille","lat":43.30419,"lon":5.41273,"is_reserved":false,"is_disabled":false,"rental_uris":{"android":"levelo://app?vid=71b41be5-d499-4f93-ad21-2f0bf0e89131","ios":"levelo://app?vid=71b41be5-d499-4f93-ad21-2f0bf0e89131"},"vehicle_type_id":"4","last_reported":1727881751,"current_range_meters":27600,"station_id":"ce4bhop2rcd13ifvqh8g","pricing_plan_id":"cebpf4jnsgd1na2vs0mg"},{"bike_id":"fb780d17-3eee-4a4e-8c7c-5a0047881239","system_id":"levelo_inurba_marseille","lat":43.27057,"lon":5.40256,"is_reserved":false,"is_disabled":false,"rental_uris":{"android":"levelo://app?vid=fb780d17-3eee-4a4e-8c7c-5a0047881239","ios":"levelo://app?vid=fb780d17-3eee-4a4e-8c7c-5a0047881239"},"vehicle_type_id":"4","last_reported":1727881751,"current_range_meters":3200,"station_id":"ce4bhk92rcd13ifvqgc0","pricing_plan_id":"cebpf4jnsgd1na2vs0mg"},{"bike_id":"a1ac91c2-e22c-4ece-bfe2-4d5e13ad6026","system_id":"levelo_inurba_marseille","lat":43.34074,"lon":5.42005,"is_reserved":false,"is_disabled":false,"rental_uris":{"android":"levelo://app?vid=a1ac91c2-e22c-4ece-bfe2-4d5e13ad6026","ios":"levelo://app?vid=a1ac91c2-e22c-4ece-bfe2-4d5e13ad6026"},"vehicle_type_id":"4","last_reported":1727881751,"current_range_meters":4000,"station_id":"","pricing_plan_id":"cebpf4jnsgd1na2vs0mg"},{"bike_id":"4d858c9d-5ba3-44d8-968d-acd620f2150e","system_id":"levelo_inurba_marseille","lat":43.296461,"lon":5.377763,"is_reserved":false,"is_disabled":false,"rental_uris":{"android":"levelo://app?vid=4d858c9d-5ba3-44d8-968d-acd620f2150e","ios":"levelo://app?vid=4d858c9d-5ba3-44d8-968d-acd620f2150e"},"vehicle_type_id":"4","last_reported":1727881751,"current_range_meters":24800,"station_id":"ce4bgi92rcd13ifvqb90","pricing_plan_id":"cebpf4jnsgd1na2vs0mg"},{"bike_id":"609844d3-402e-4c83-8b7f-d2093120cb67","system_id":"levelo_inurba_marseille","lat":43.32537,"lon":5.41443,"is_reserved":false,"is_disabled":false,"rental_uris":{"android":"levelo://app?vid=609844d3-402e-4c83-8b7f-d2093120cb67","ios":"levelo://app?vid=609844d3-402e-4c83-8b7f-d2093120cb67"},"vehicle_type_id":"4","last_reported":1727881751,"current_range_meters":35600,"station_id":"ce4bhq12rcd13ifvqhhg","pricing_plan_id":"cebpf4jnsgd1na2vs0mg"},{"bike_id":"74b2297a-7ce9-4b1f-96de-ff107110f98c","system_id":"levelo_inurba_marseille","lat":43.24665,"lon":5.38163,"is_reserved":false,"is_disabled":false,"rental_uris":{"android":"levelo://app?vid=74b2297a-7ce9-4b1f-96de-ff107110f98c","ios":"levelo://app?vid=74b2297a-7ce9-4b1f-96de-ff107110f98c"},"vehicle_type_id":"4","last_reported":1727881751,"current_range_meters":15200,"station_id":"ce4bhih2rcd13ifvqfr0","pricing_plan_id":"cebpf4jnsgd1na2vs0mg"},{"bike_id":"ac31614c-9695-4e6e-b313-d285e0dfe723","system_id":"levelo_inurba_marseille","lat":43.28677,"lon":5.38674,"is_reserved":false,"is_disabled":false,"rental_uris":{"android":"levelo://app?vid=ac31614c-9695-4e6e-b313-d285e0dfe723","ios":"levelo://app?vid=ac31614c-9695-4e6e-b313-d285e0dfe723"},"vehicle_type_id":"4","last_reported":1727881751,"current_range_meters":8800,"station_id":"ce4bh492rcd13ifvqdug","pricing_plan_id":"cebpf4jnsgd1na2vs0mg"},{"bike_id":"ee9e0424-af0c-43d0-9013-eb1ebf9a730d","system_id":"levelo_inurba_marseille","lat":43.30927,"lon":5.40145,"is_reserved":false,"is_disabled":false,"rental_uris":{"android":"levelo://app?vid=ee9e0424-af0c-43d0-9013-eb1ebf9a730d","ios":"levelo://app?vid=ee9e0424-af0c-43d0-9013-eb1ebf9a730d"},"vehicle_type_id":"4","last_reported":1727881751,"current_range_meters":38800,"station_id":"ce4bgvp2rcd13ifvqct0","pricing_plan_id":"cebpf4jnsgd1na2vs0mg"},{"bike_id":"f814fe9b-a794-466e-bd2e-5204599970d6","system_id":"levelo_inurba_marseille","lat":43.23182,"lon":5.39987,"is_reserved":false,"is_disabled":false,"rental_uris":{"android":"levelo://app?vid=f814fe9b-a794-466e-bd2e-5204599970d6","ios":"levelo://app?vid=f814fe9b-a794-466e-bd2e-5204599970d6"},"vehicle_type_id":"4","last_reported":1727881751,"current_range_meters":19600,"station_id":"ce4bhn12rcd13ifvqgqg","pricing_plan_id":"cebpf4jnsgd1na2vs0mg"},{"bike_id":"f0efb834-4499-4f48-914e-91945b25918e","system_id":"levelo_inurba_marseille","lat":43.31382,"lon":5.38512,"is_reserved":false,"is_disabled":false,"rental_uris":{"android":"levelo://app?vid=f0efb834-4499-4f48-914e-91945b25918e","ios":"levelo://app?vid=f0efb834-4499-4f48-914e-91945b25918e"},"vehicle_type_id":"4","last_reported":1727881751,"current_range_meters":32400,"station_id":"ce4bgt92rcd13ifvqcf0","pricing_plan_id":"cebpf4jnsgd1na2vs0mg"},{"bike_id":"154ad93f-5cf5-4412-8ea0-cabadd925941","system_id":"levelo_inurba_marseille","lat":43.24071,"lon":5.37767,"is_reserved":false,"is_disabled":false,"rental_uris":{"android":"levelo://app?vid=154ad93f-5cf5-4412-8ea0-cabadd925941","ios":"levelo://app?vid=154ad93f-5cf5-4412-8ea0-cabadd925941"},"vehicle_type_id":"4","last_reported":1727881751,"current_range_meters":6400,"station_id":"ce4bhnp2rcd13ifvqgvg","pricing_plan_id":"cebpf4jnsgd1na2vs0mg"},{"bike_id":"02e43f96-db7f-40e9-a6bc-edd9864f4f51","system_id":"levelo_inurba_marseille","lat":43.28712,"lon":5.37939,"is_reserved":false,"is_disabled":false,"rental_uris":{"android":"levelo://app?vid=02e43f96-db7f-40e9-a6bc-edd9864f4f51","ios":"levelo://app?vid=02e43f96-db7f-40e9-a6bc-edd9864f4f51"},"vehicle_type_id":"4","last_reported":1727881751,"current_range_meters":35600,"station_id":"ce4bh9p2rcd13ifvqec0","pricing_plan_id":"cebpf4jnsgd1na2vs0mg"},{"bike_id":"5ea02564-cac9-461d-9128-a2fd1b862875","system_id":"levelo_inurba_marseille","lat":43.30534,"lon":5.38437,"is_reserved":false,"is_disabled":false,"rental_uris":{"android":"levelo://app?vid=5ea02564-cac9-461d-9128-a2fd1b862875","ios":"levelo://app?vid=5ea02564-cac9-461d-9128-a2fd1b862875"},"vehicle_type_id":"4","last_reported":1727881751,"current_range_meters":38800,"station_id":"ce4bgg92rcd13ifvqb30","pricing_plan_id":"cebpf4jnsgd1na2vs0mg"},{"bike_id":"f77c1722-4fc0-4587-9e7c-163d954b1ae3","system_id":"levelo_inurba_marseille","lat":43.29899,"lon":5.43658,"is_reserved":false,"is_disabled":false,"rental_uris":{"android":"levelo://app?vid=f77c1722-4fc0-4587-9e7c-163d954b1ae3","ios":"levelo://app?vid=f77c1722-4fc0-4587-9e7c-163d954b1ae3"},"vehicle_type_id":"4","last_reported":1727881751,"current_range_meters":16800,"station_id":"ce4bhpp2rcd13ifvqhfg","pricing_plan_id":"cebpf4jnsgd1na2vs0mg"},{"bike_id":"29da839a-70d3-4f5c-9bc3-97ff70636a0e","system_id":"levelo_inurba_marseille","lat":43.26575,"lon":5.39005,"is_reserved":false,"is_disabled":false,"rental_uris":{"android":"levelo://app?vid=29da839a-70d3-4f5c-9bc3-97ff70636a0e","ios":"levelo://app?vid=29da839a-70d3-4f5c-9bc3-97ff70636a0e"},"vehicle_type_id":"4","last_reported":1727881751,"current_range_meters":38400,"station_id":"ce4bhe12rcd13ifvqf30","pricing_plan_id":"cebpf4jnsgd1na2vs0mg"},{"bike_id":"dc6f2571-a406-4cb6-add0-f7c0922d5986","system_id":"levelo_inurba_marseille","lat":43.28473,"lon":5.35007,"is_reserved":false,"is_disabled":false,"rental_uris":{"android":"levelo://app?vid=dc6f2571-a406-4cb6-add0-f7c0922d5986","ios":"levelo://app?vid=dc6f2571-a406-4cb6-add0-f7c0922d5986"},"vehicle_type_id":"4","last_reported":1727881751,"current_range_meters":38000,"station_id":"ce4bhap2rcd13ifvqek0","pricing_plan_id":"cebpf4jnsgd1na2vs0mg"},{"bike_id":"4e0f2818-84e1-4370-80bb-075a2b49aa36","system_id":"levelo_inurba_marseille","lat":43.25862,"lon":5.39898,"is_reserved":false,"is_disabled":false,"rental_uris":{"android":"levelo://app?vid=4e0f2818-84e1-4370-80bb-075a2b49aa36","ios":"levelo://app?vid=4e0f2818-84e1-4370-80bb-075a2b49aa36"},"vehicle_type_id":"4","last_reported":1727881751,"current_range_meters":21600,"station_id":"ce4bhl92rcd13ifvqghg","pricing_plan_id":"cebpf4jnsgd1na2vs0mg"},{"bike_id":"30077ecd-1d3c-4ffe-bf30-a1a2991e1aca","system_id":"levelo_inurba_marseille","lat":43.23057,"lon":5.35485,"is_reserved":false,"is_disabled":false,"rental_uris":{"android":"levelo://app?vid=30077ecd-1d3c-4ffe-bf30-a1a2991e1aca","ios":"levelo://app?vid=30077ecd-1d3c-4ffe-bf30-a1a2991e1aca"},"vehicle_type_id":"4","last_reported":1727881751,"current_range_meters":37600,"station_id":"cpo3342slgdg3j2ifvpg","pricing_plan_id":"cebpf4jnsgd1na2vs0mg"},{"bike_id":"0499bccf-184f-4251-a5e5-ad4d6c9beef7","system_id":"levelo_inurba_marseille","lat":43.29414,"lon":5.38626,"is_reserved":false,"is_disabled":false,"rental_uris":{"android":"levelo://app?vid=0499bccf-184f-4251-a5e5-ad4d6c9beef7","ios":"levelo://app?vid=0499bccf-184f-4251-a5e5-ad4d6c9beef7"},"vehicle_type_id":"4","last_reported":1727881751,"current_range_meters":22000,"station_id":"ce4bh2h2rcd13ifvqdh0","pricing_plan_id":"cebpf4jnsgd1na2vs0mg"},{"bike_id":"41fa26bc-3f26-4006-8141-92b11adc5af9","system_id":"levelo_inurba_marseille","lat":43.32545,"lon":5.41436,"is_reserved":false,"is_disabled":false,"rental_uris":{"android":"levelo://app?vid=41fa26bc-3f26-4006-8141-92b11adc5af9","ios":"levelo://app?vid=41fa26bc-3f26-4006-8141-92b11adc5af9"},"vehicle_type_id":"4","last_reported":1727881751,"current_range_meters":38800,"station_id":"ce4bhq12rcd13ifvqhhg","pricing_plan_id":"cebpf4jnsgd1na2vs0mg"},{"bike_id":"123ff6ed-4385-4a10-999b-eb298bcab43c","system_id":"levelo_inurba_marseille","lat":43.33025,"lon":5.39038,"is_reserved":false,"is_disabled":false,"rental_uris":{"android":"levelo://app?vid=123ff6ed-4385-4a10-999b-eb298bcab43c","ios":"levelo://app?vid=123ff6ed-4385-4a10-999b-eb298bcab43c"},"vehicle_type_id":"4","last_reported":1727881751,"current_range_meters":39200,"station_id":"ce4bhr92rcd13ifvqhrg","pricing_plan_id":"cebpf4jnsgd1na2vs0mg"},{"bike_id":"789e3afd-a921-4dce-9615-939a2591cb8d","system_id":"levelo_inurba_marseille","lat":43.31271,"lon":5.40157,"is_reserved":false,"is_disabled":false,"rental_uris":{"android":"levelo://app?vid=789e3afd-a921-4dce-9615-939a2591cb8d","ios":"levelo://app?vid=789e3afd-a921-4dce-9615-939a2591cb8d"},"vehicle_type_id":"4","last_reported":1727881751,"current_range_meters":27600,"station_id":"ce4bh092rcd13ifvqd30","pricing_plan_id":"cebpf4jnsgd1na2vs0mg"},{"bike_id":"b9c2aa11-be65-4cca-9a8a-bfe5b12d104f","system_id":"levelo_inurba_marseille","lat":43.29062,"lon":5.37171,"is_reserved":false,"is_disabled":false,"rental_uris":{"android":"levelo://app?vid=b9c2aa11-be65-4cca-9a8a-bfe5b12d104f","ios":"levelo://app?vid=b9c2aa11-be65-4cca-9a8a-bfe5b12d104f"},"vehicle_type_id":"4","last_reported":1727881751,"current_range_meters":12400,"station_id":"ce4bh5p2rcd13ifvqe4g","pricing_plan_id":"cebpf4jnsgd1na2vs0mg"},{"bike_id":"ad9bd38c-6e21-41e8-8513-132c1c15c21b","system_id":"levelo_inurba_marseille","lat":43.29903,"lon":5.43668,"is_reserved":false,"is_disabled":false,"rental_uris":{"android":"levelo://app?vid=ad9bd38c-6e21-41e8-8513-132c1c15c21b","ios":"levelo://app?vid=ad9bd38c-6e21-41e8-8513-132c1c15c21b"},"vehicle_type_id":"4","last_reported":1727881751,"current_range_meters":20000,"station_id":"ce4bhpp2rcd13ifvqhfg","pricing_plan_id":"cebpf4jnsgd1na2vs0mg"},{"bike_id":"fb90fe2d-3cd7-4cce-9dfa-e75d7f7729be","system_id":"levelo_inurba_marseille","lat":43.28079,"lon":5.39657,"is_reserved":false,"is_disabled":false,"rental_uris":{"android":"levelo://app?vid=fb90fe2d-3cd7-4cce-9dfa-e75d7f7729be","ios":"levelo://app?vid=fb90fe2d-3cd7-4cce-9dfa-e75d7f7729be"},"vehicle_type_id":"4","last_reported":1727881751,"current_range_meters":2000,"station_id":"ce4bho12rcd13ifvqh2g","pricing_plan_id":"cebpf4jnsgd1na2vs0mg"},{"bike_id":"f7d28a87-d190-4e02-aa4f-ced522c667bc","system_id":"levelo_inurba_marseille","lat":43.28078,"lon":5.39667,"is_reserved":false,"is_disabled":false,"rental_uris":{"android":"levelo://app?vid=f7d28a87-d190-4e02-aa4f-ced522c667bc","ios":"levelo://app?vid=f7d28a87-d190-4e02-aa4f-ced522c667bc"},"vehicle_type_id":"4","last_reported":1727881751,"current_range_meters":30000,"station_id":"ce4bho12rcd13ifvqh2g","pricing_plan_id":"cebpf4jnsgd1na2vs0mg"},{"bike_id":"439cf77a-866a-4a51-948e-bf6d89754836","system_id":"levelo_inurba_marseille","lat":43.28613,"lon":5.35106,"is_reserved":false,"is_disabled":false,"rental_uris":{"android":"levelo://app?vid=439cf77a-866a-4a51-948e-bf6d89754836","ios":"levelo://app?vid=439cf77a-866a-4a51-948e-bf6d89754836"},"vehicle_type_id":"4","last_reported":1727881751,"current_range_meters":36400,"station_id":"ce4bhch2rcd13ifvqeug","pricing_plan_id":"cebpf4jnsgd1na2vs0mg"},{"bike_id":"3795dfbf-1d31-4448-a8e7-1f7aa93a36b5","system_id":"levelo_inurba_marseille","lat":43.26943,"lon":5.40252,"is_reserved":false,"is_disabled":false,"rental_uris":{"android":"levelo://app?vid=3795dfbf-1d31-4448-a8e7-1f7aa93a36b5","ios":"levelo://app?vid=3795dfbf-1d31-4448-a8e7-1f7aa93a36b5"},"vehicle_type_id":"4","last_reported":1727881751,"current_range_meters":17200,"station_id":"cjm6bp8fraef2m0cb0m0","pricing_plan_id":"cebpf4jnsgd1na2vs0mg"},{"bike_id":"f8f518e3-bd48-40f5-801a-4ead88758ee2","system_id":"levelo_inurba_marseille","lat":43.32114,"lon":5.36773,"is_reserved":false,"is_disabled":false,"rental_uris":{"android":"levelo://app?vid=f8f518e3-bd48-40f5-801a-4ead88758ee2","ios":"levelo://app?vid=f8f518e3-bd48-40f5-801a-4ead88758ee2"},"vehicle_type_id":"4","last_reported":1727881751,"current_range_meters":8800,"station_id":"ce4bhrh2rcd13ifvqhug","pricing_plan_id":"cebpf4jnsgd1na2vs0mg"},{"bike_id":"fba8b9d6-c4a1-4be9-97bc-38b4de7a13fa","system_id":"levelo_inurba_marseille","lat":43.30423,"lon":5.38882,"is_reserved":false,"is_disabled":false,"rental_uris":{"android":"levelo://app?vid=fba8b9d6-c4a1-4be9-97bc-38b4de7a13fa","ios":"levelo://app?vid=fba8b9d6-c4a1-4be9-97bc-38b4de7a13fa"},"vehicle_type_id":"4","last_reported":1727881751,"current_range_meters":19600,"station_id":"ce4bgk12rcd13ifvqbi0","pricing_plan_id":"cebpf4jnsgd1na2vs0mg"},{"bike_id":"c6866912-5555-441f-b13f-d5c19287af4e","system_id":"levelo_inurba_marseille","lat":43.29277,"lon":5.40118,"is_reserved":false,"is_disabled":false,"rental_uris":{"android":"levelo://app?vid=c6866912-5555-441f-b13f-d5c19287af4e","ios":"levelo://app?vid=c6866912-5555-441f-b13f-d5c19287af4e"},"vehicle_type_id":"4","last_reported":1727881751,"current_range_meters":26800,"station_id":"ce4bh312rcd13ifvqdk0","pricing_plan_id":"cebpf4jnsgd1na2vs0mg"},{"bike_id":"eb1c9cc2-76af-46a9-ad79-1d235bb8c82c","system_id":"levelo_inurba_marseille","lat":43.27069,"lon":5.42275,"is_reserved":false,"is_disabled":false,"rental_uris":{"android":"levelo://app?vid=eb1c9cc2-76af-46a9-ad79-1d235bb8c82c","ios":"levelo://app?vid=eb1c9cc2-76af-46a9-ad79-1d235bb8c82c"},"vehicle_type_id":"4","last_reported":1727881751,"current_range_meters":24400,"station_id":"ce4bhk92rcd13ifvqgb0","pricing_plan_id":"cebpf4jnsgd1na2vs0mg"},{"bike_id":"e5ec09a7-1a86-4ae1-8288-76d9b382d929","system_id":"levelo_inurba_marseille","lat":43.29879,"lon":5.38899,"is_reserved":false,"is_disabled":false,"rental_uris":{"android":"levelo://app?vid=e5ec09a7-1a86-4ae1-8288-76d9b382d929","ios":"levelo://app?vid=e5ec09a7-1a86-4ae1-8288-76d9b382d929"},"vehicle_type_id":"4","last_reported":1727881751,"current_range_meters":30400,"station_id":"ce4bh392rcd13ifvqdl0","pricing_plan_id":"cebpf4jnsgd1na2vs0mg"},{"bike_id":"d871a647-44ab-4e6a-a9f8-68c97c570642","system_id":"levelo_inurba_marseille","lat":43.29898,"lon":5.43659,"is_reserved":false,"is_disabled":false,"rental_uris":{"android":"levelo://app?vid=d871a647-44ab-4e6a-a9f8-68c97c570642","ios":"levelo://app?vid=d871a647-44ab-4e6a-a9f8-68c97c570642"},"vehicle_type_id":"4","last_reported":1727881751,"current_range_meters":15200,"station_id":"ce4bhpp2rcd13ifvqhfg","pricing_plan_id":"cebpf4jnsgd1na2vs0mg"},{"bike_id":"f2e721ac-410b-4fc6-9ac5-fb099c82b034","system_id":"levelo_inurba_marseille","lat":43.28703,"lon":5.37384,"is_reserved":false,"is_disabled":false,"rental_uris":{"android":"levelo://app?vid=f2e721ac-410b-4fc6-9ac5-fb099c82b034","ios":"levelo://app?vid=f2e721ac-410b-4fc6-9ac5-fb099c82b034"},"vehicle_type_id":"4","last_reported":1727881751,"current_range_meters":25200,"station_id":"ce4bh3p2rcd13ifvqdq0","pricing_plan_id":"cebpf4jnsgd1na2vs0mg"},{"bike_id":"b6111145-2318-4eb7-8866-cb586ef528c8","system_id":"levelo_inurba_marseille","lat":43.27068,"lon":5.42283,"is_reserved":false,"is_disabled":false,"rental_uris":{"android":"levelo://app?vid=b6111145-2318-4eb7-8866-cb586ef528c8","ios":"levelo://app?vid=b6111145-2318-4eb7-8866-cb586ef528c8"},"vehicle_type_id":"4","last_reported":1727881751,"current_range_meters":16800,"station_id":"ce4bhk92rcd13ifvqgb0","pricing_plan_id":"cebpf4jnsgd1na2vs0mg"},{"bike_id":"5246616d-2438-4f92-abd9-ec2324ff66f6","system_id":"levelo_inurba_marseille","lat":43.2721,"lon":5.39177,"is_reserved":false,"is_disabled":false,"rental_uris":{"android":"levelo://app?vid=5246616d-2438-4f92-abd9-ec2324ff66f6","ios":"levelo://app?vid=5246616d-2438-4f92-abd9-ec2324ff66f6"},"vehicle_type_id":"4","last_reported":1727881751,"current_range_meters":25200,"station_id":"ce4bhhp2rcd13ifvqfm0","pricing_plan_id":"cebpf4jnsgd1na2vs0mg"},{"bike_id":"73911fc3-5eb2-4591-acce-2a509721f5d2","system_id":"levelo_inurba_marseille","lat":43.2815,"lon":5.42653,"is_reserved":false,"is_disabled":false,"rental_uris":{"android":"levelo://app?vid=73911fc3-5eb2-4591-acce-2a509721f5d2","ios":"levelo://app?vid=73911fc3-5eb2-4591-acce-2a509721f5d2"},"vehicle_type_id":"4","last_reported":1727881751,"current_range_meters":25600,"station_id":"ce4bhnh2rcd13ifvqgug","pricing_plan_id":"cebpf4jnsgd1na2vs0mg"},{"bike_id":"01717c12-eaf4-4662-85c7-a9fb2dcda012","system_id":"levelo_inurba_marseille","lat":43.29925,"lon":5.37479,"is_reserved":false,"is_disabled":false,"rental_uris":{"android":"levelo://app?vid=01717c12-eaf4-4662-85c7-a9fb2dcda012","ios":"levelo://app?vid=01717c12-eaf4-4662-85c7-a9fb2dcda012"},"vehicle_type_id":"4","last_reported":1727881751,"current_range_meters":8000,"station_id":"ce4bgjh2rcd13ifvqbg0","pricing_plan_id":"cebpf4jnsgd1na2vs0mg"},{"bike_id":"1e6fe874-80f1-4087-abd0-130201778217","system_id":"levelo_inurba_marseille","lat":43.26205,"lon":5.37924,"is_reserved":false,"is_disabled":false,"rental_uris":{"android":"levelo://app?vid=1e6fe874-80f1-4087-abd0-130201778217","ios":"levelo://app?vid=1e6fe874-80f1-4087-abd0-130201778217"},"vehicle_type_id":"4","last_reported":1727881751,"current_range_meters":30800,"station_id":"ce4bhjp2rcd13ifvqg90","pricing_plan_id":"cebpf4jnsgd1na2vs0mg"},{"bike_id":"c03a7cd2-b0dd-43c7-ac6d-23529bcf0915","system_id":"levelo_inurba_marseille","lat":43.31496,"lon":5.37306,"is_reserved":false,"is_disabled":false,"rental_uris":{"android":"levelo://app?vid=c03a7cd2-b0dd-43c7-ac6d-23529bcf0915","ios":"levelo://app?vid=c03a7cd2-b0dd-43c7-ac6d-23529bcf0915"},"vehicle_type_id":"4","last_reported":1727881751,"current_range_meters":4400,"station_id":"ce4bgt12rcd13ifvqcd0","pricing_plan_id":"cebpf4jnsgd1na2vs0mg"},{"bike_id":"901ba941-b190-438c-b422-2a96deaeb457","system_id":"levelo_inurba_marseille","lat":43.29614,"lon":5.3773,"is_reserved":false,"is_disabled":false,"rental_uris":{"android":"levelo://app?vid=901ba941-b190-438c-b422-2a96deaeb457","ios":"levelo://app?vid=901ba941-b190-438c-b422-2a96deaeb457"},"vehicle_type_id":"4","last_reported":1727881751,"current_range_meters":38000,"station_id":"ce4bgi92rcd13ifvqb90","pricing_plan_id":"cebpf4jnsgd1na2vs0mg"},{"bike_id":"53c6fe7a-c5f0-4c29-bdb6-08c6c7db5c71","system_id":"levelo_inurba_marseille","lat":43.32082,"lon":5.36758,"is_reserved":false,"is_disabled":false,"rental_uris":{"android":"levelo://app?vid=53c6fe7a-c5f0-4c29-bdb6-08c6c7db5c71","ios":"levelo://app?vid=53c6fe7a-c5f0-4c29-bdb6-08c6c7db5c71"},"vehicle_type_id":"4","last_reported":1727881751,"current_range_meters":16000,"station_id":"ce4bhrh2rcd13ifvqhug","pricing_plan_id":"cebpf4jnsgd1na2vs0mg"},{"bike_id":"d4b3e7b1-6133-4edd-8244-abab010f6edd","system_id":"levelo_inurba_marseille","lat":43.286169,"lon":5.351024,"is_reserved":false,"is_disabled":false,"rental_uris":{"android":"levelo://app?vid=d4b3e7b1-6133-4edd-8244-abab010f6edd","ios":"levelo://app?vid=d4b3e7b1-6133-4edd-8244-abab010f6edd"},"vehicle_type_id":"4","last_reported":1727881751,"current_range_meters":33600,"station_id":"ce4bhch2rcd13ifvqeug","pricing_plan_id":"cebpf4jnsgd1na2vs0mg"},{"bike_id":"0035154d-d14d-4d3d-b707-97e962a49b01","system_id":"levelo_inurba_marseille","lat":43.27812,"lon":5.4071,"is_reserved":false,"is_disabled":false,"rental_uris":{"android":"levelo://app?vid=0035154d-d14d-4d3d-b707-97e962a49b01","ios":"levelo://app?vid=0035154d-d14d-4d3d-b707-97e962a49b01"},"vehicle_type_id":"4","last_reported":1727881751,"current_range_meters":38800,"station_id":"ce4bhnh2rcd13ifvqgtg","pricing_plan_id":"cebpf4jnsgd1na2vs0mg"},{"bike_id":"6ce60676-3f86-4aaa-a5df-572436c32ad4","system_id":"levelo_inurba_marseille","lat":43.23192,"lon":5.35551,"is_reserved":false,"is_disabled":false,"rental_uris":{"android":"levelo://app?vid=6ce60676-3f86-4aaa-a5df-572436c32ad4","ios":"levelo://app?vid=6ce60676-3f86-4aaa-a5df-572436c32ad4"},"vehicle_type_id":"4","last_reported":1727881751,"current_range_meters":24800,"station_id":"ce4bhu92rcd13ifvqi70","pricing_plan_id":"cebpf4jnsgd1na2vs0mg"},{"bike_id":"4468b5d4-1685-4490-93ec-e9e63be7cd0e","system_id":"levelo_inurba_marseille","lat":43.31066,"lon":5.40088,"is_reserved":false,"is_disabled":false,"rental_uris":{"android":"levelo://app?vid=4468b5d4-1685-4490-93ec-e9e63be7cd0e","ios":"levelo://app?vid=4468b5d4-1685-4490-93ec-e9e63be7cd0e"},"vehicle_type_id":"4","last_reported":1727881751,"current_range_meters":3200,"station_id":"","pricing_plan_id":"cebpf4jnsgd1na2vs0mg"},{"bike_id":"3ea720e0-4b3f-4929-8dc2-e35b5681af5c","system_id":"levelo_inurba_marseille","lat":43.2985,"lon":5.3629,"is_reserved":false,"is_disabled":false,"rental_uris":{"android":"levelo://app?vid=3ea720e0-4b3f-4929-8dc2-e35b5681af5c","ios":"levelo://app?vid=3ea720e0-4b3f-4929-8dc2-e35b5681af5c"},"vehicle_type_id":"4","last_reported":1727881751,"current_range_meters":33600,"station_id":"ce4bgpp2rcd13ifvqc3g","pricing_plan_id":"cebpf4jnsgd1na2vs0mg"},{"bike_id":"f5931bd5-dfbf-4bd3-8b90-57ecec598cdd","system_id":"levelo_inurba_marseille","lat":43.29419,"lon":5.38622,"is_reserved":false,"is_disabled":false,"rental_uris":{"android":"levelo://app?vid=f5931bd5-dfbf-4bd3-8b90-57ecec598cdd","ios":"levelo://app?vid=f5931bd5-dfbf-4bd3-8b90-57ecec598cdd"},"vehicle_type_id":"4","last_reported":1727881751,"current_range_meters":17200,"station_id":"ce4bh2h2rcd13ifvqdh0","pricing_plan_id":"cebpf4jnsgd1na2vs0mg"},{"bike_id":"522b5ded-3c5e-47d9-bff6-177afb294ea8","system_id":"levelo_inurba_marseille","lat":43.29028,"lon":5.38626,"is_reserved":false,"is_disabled":false,"rental_uris":{"android":"levelo://app?vid=522b5ded-3c5e-47d9-bff6-177afb294ea8","ios":"levelo://app?vid=522b5ded-3c5e-47d9-bff6-177afb294ea8"},"vehicle_type_id":"4","last_reported":1727881751,"current_range_meters":20000,"station_id":"ce4bh4p2rcd13ifvqe0g","pricing_plan_id":"cebpf4jnsgd1na2vs0mg"},{"bike_id":"24e3fd63-8e93-4cb9-b4fb-7af2924abaca","system_id":"levelo_inurba_marseille","lat":43.31087,"lon":5.42433,"is_reserved":false,"is_disabled":false,"rental_uris":{"android":"levelo://app?vid=24e3fd63-8e93-4cb9-b4fb-7af2924abaca","ios":"levelo://app?vid=24e3fd63-8e93-4cb9-b4fb-7af2924abaca"},"vehicle_type_id":"4","last_reported":1727881751,"current_range_meters":8000,"station_id":"ce4bhp92rcd13ifvqhag","pricing_plan_id":"cebpf4jnsgd1na2vs0mg"},{"bike_id":"6a4180fa-3ba4-4d35-979d-ccdd7eb2bebe","system_id":"levelo_inurba_marseille","lat":43.33024,"lon":5.39039,"is_reserved":false,"is_disabled":false,"rental_uris":{"android":"levelo://app?vid=6a4180fa-3ba4-4d35-979d-ccdd7eb2bebe","ios":"levelo://app?vid=6a4180fa-3ba4-4d35-979d-ccdd7eb2bebe"},"vehicle_type_id":"4","last_reported":1727881751,"current_range_meters":3200,"station_id":"ce4bhr92rcd13ifvqhrg","pricing_plan_id":"cebpf4jnsgd1na2vs0mg"},{"bike_id":"7bb41cee-bbf2-4cb9-b053-b4b65ed6d515","system_id":"levelo_inurba_marseille","lat":43.28,"lon":5.40016,"is_reserved":false,"is_disabled":false,"rental_uris":{"android":"levelo://app?vid=7bb41cee-bbf2-4cb9-b053-b4b65ed6d515","ios":"levelo://app?vid=7bb41cee-bbf2-4cb9-b053-b4b65ed6d515"},"vehicle_type_id":"4","last_reported":1727881751,"current_range_meters":17200,"station_id":"ce4bho92rcd13ifvqh4g","pricing_plan_id":"cebpf4jnsgd1na2vs0mg"},{"bike_id":"1e2d92d2-f30f-49bc-b4a5-ff297769a1e4","system_id":"levelo_inurba_marseille","lat":43.27809,"lon":5.40704,"is_reserved":false,"is_disabled":false,"rental_uris":{"android":"levelo://app?vid=1e2d92d2-f30f-49bc-b4a5-ff297769a1e4","ios":"levelo://app?vid=1e2d92d2-f30f-49bc-b4a5-ff297769a1e4"},"vehicle_type_id":"4","last_reported":1727881751,"current_range_meters":38800,"station_id":"ce4bhnh2rcd13ifvqgtg","pricing_plan_id":"cebpf4jnsgd1na2vs0mg"},{"bike_id":"d882c178-db66-4976-adc4-d612f68051db","system_id":"levelo_inurba_marseille","lat":43.25869,"lon":5.39901,"is_reserved":false,"is_disabled":false,"rental_uris":{"android":"levelo://app?vid=d882c178-db66-4976-adc4-d612f68051db","ios":"levelo://app?vid=d882c178-db66-4976-adc4-d612f68051db"},"vehicle_type_id":"4","last_reported":1727881751,"current_range_meters":38800,"station_id":"ce4bhl92rcd13ifvqghg","pricing_plan_id":"cebpf4jnsgd1na2vs0mg"},{"bike_id":"bb18d08c-0734-44fa-a943-ee72d73e9e30","system_id":"levelo_inurba_marseille","lat":43.28607,"lon":5.37066,"is_reserved":false,"is_disabled":false,"rental_uris":{"android":"levelo://app?vid=bb18d08c-0734-44fa-a943-ee72d73e9e30","ios":"levelo://app?vid=bb18d08c-0734-44fa-a943-ee72d73e9e30"},"vehicle_type_id":"4","last_reported":1727881751,"current_range_meters":18000,"station_id":"ce4bht12rcd13ifvqi60","pricing_plan_id":"cebpf4jnsgd1na2vs0mg"},{"bike_id":"d4524214-292a-436c-b277-39cea571a57b","system_id":"levelo_inurba_marseille","lat":43.24067,"lon":5.37741,"is_reserved":false,"is_disabled":false,"rental_uris":{"android":"levelo://app?vid=d4524214-292a-436c-b277-39cea571a57b","ios":"levelo://app?vid=d4524214-292a-436c-b277-39cea571a57b"},"vehicle_type_id":"4","last_reported":1727881751,"current_range_meters":12800,"station_id":"ce4bhnp2rcd13ifvqgvg","pricing_plan_id":"cebpf4jnsgd1na2vs0mg"},{"bike_id":"77d6e8ba-22e0-4ed6-a1ad-35d8a16ed62f","system_id":"levelo_inurba_marseille","lat":43.2928,"lon":5.36849,"is_reserved":false,"is_disabled":false,"rental_uris":{"android":"levelo://app?vid=77d6e8ba-22e0-4ed6-a1ad-35d8a16ed62f","ios":"levelo://app?vid=77d6e8ba-22e0-4ed6-a1ad-35d8a16ed62f"},"vehicle_type_id":"4","last_reported":1727881751,"current_range_meters":2000,"station_id":"ce4bhbp2rcd13ifvqesg","pricing_plan_id":"cebpf4jnsgd1na2vs0mg"},{"bike_id":"389dbe3b-4b02-4d49-9def-1a6fa2f84c9b","system_id":"levelo_inurba_marseille","lat":43.30562,"lon":5.36527,"is_reserved":false,"is_disabled":false,"rental_uris":{"android":"levelo://app?vid=389dbe3b-4b02-4d49-9def-1a6fa2f84c9b","ios":"levelo://app?vid=389dbe3b-4b02-4d49-9def-1a6fa2f84c9b"},"vehicle_type_id":"4","last_reported":1727881751,"current_range_meters":30000,"station_id":"ce4bgs12rcd13ifvqcag","pricing_plan_id":"cebpf4jnsgd1na2vs0mg"},{"bike_id":"33efb312-7ac0-443f-af7e-d1b49299b3f0","system_id":"levelo_inurba_marseille","lat":43.27992,"lon":5.40031,"is_reserved":false,"is_disabled":false,"rental_uris":{"android":"levelo://app?vid=33efb312-7ac0-443f-af7e-d1b49299b3f0","ios":"levelo://app?vid=33efb312-7ac0-443f-af7e-d1b49299b3f0"},"vehicle_type_id":"4","last_reported":1727881751,"current_range_meters":35600,"station_id":"ce4bho92rcd13ifvqh4g","pricing_plan_id":"cebpf4jnsgd1na2vs0mg"},{"bike_id":"1aec18d4-305f-43e4-8c19-9ceacdc40774","system_id":"levelo_inurba_marseille","lat":43.31485,"lon":5.37298,"is_reserved":false,"is_disabled":false,"rental_uris":{"android":"levelo://app?vid=1aec18d4-305f-43e4-8c19-9ceacdc40774","ios":"levelo://app?vid=1aec18d4-305f-43e4-8c19-9ceacdc40774"},"vehicle_type_id":"4","last_reported":1727881751,"current_range_meters":35600,"station_id":"ce4bgt12rcd13ifvqcd0","pricing_plan_id":"cebpf4jnsgd1na2vs0mg"},{"bike_id":"33b9abcc-c1cf-4e84-8384-f2f2d489de55","system_id":"levelo_inurba_marseille","lat":43.307915,"lon":5.376465,"is_reserved":false,"is_disabled":false,"rental_uris":{"android":"levelo://app?vid=33b9abcc-c1cf-4e84-8384-f2f2d489de55","ios":"levelo://app?vid=33b9abcc-c1cf-4e84-8384-f2f2d489de55"},"vehicle_type_id":"4","last_reported":1727881751,"current_range_meters":6000,"station_id":"ce4bgv92rcd13ifvqcq0","pricing_plan_id":"cebpf4jnsgd1na2vs0mg"},{"bike_id":"6f1d957b-8297-40fa-a942-e2792002a275","system_id":"levelo_inurba_marseille","lat":43.30799,"lon":5.43518,"is_reserved":false,"is_disabled":false,"rental_uris":{"android":"levelo://app?vid=6f1d957b-8297-40fa-a942-e2792002a275","ios":"levelo://app?vid=6f1d957b-8297-40fa-a942-e2792002a275"},"vehicle_type_id":"4","last_reported":1727881751,"current_range_meters":9200,"station_id":"ce4bhph2rcd13ifvqheg","pricing_plan_id":"cebpf4jnsgd1na2vs0mg"},{"bike_id":"c8e4ff73-620c-4248-92f7-758d5098242c","system_id":"levelo_inurba_marseille","lat":43.22924,"lon":5.35344,"is_reserved":false,"is_disabled":false,"rental_uris":{"android":"levelo://app?vid=c8e4ff73-620c-4248-92f7-758d5098242c","ios":"levelo://app?vid=c8e4ff73-620c-4248-92f7-758d5098242c"},"vehicle_type_id":"4","last_reported":1727881751,"current_range_meters":32000,"station_id":"cpo3532slgdg3j2ikp40","pricing_plan_id":"cebpf4jnsgd1na2vs0mg"},{"bike_id":"0fc3137f-ea0f-44cc-9da4-8076e542a80e","system_id":"levelo_inurba_marseille","lat":43.25581,"lon":5.38242,"is_reserved":false,"is_disabled":false,"rental_uris":{"android":"levelo://app?vid=0fc3137f-ea0f-44cc-9da4-8076e542a80e","ios":"levelo://app?vid=0fc3137f-ea0f-44cc-9da4-8076e542a80e"},"vehicle_type_id":"4","last_reported":1727881751,"current_range_meters":33200,"station_id":"ce4bhih2rcd13ifvqfs0","pricing_plan_id":"cebpf4jnsgd1na2vs0mg"},{"bike_id":"8d160645-37a6-41b0-91eb-5e9885ebf3c3","system_id":"levelo_inurba_marseille","lat":43.29621,"lon":5.37165,"is_reserved":false,"is_disabled":false,"rental_uris":{"android":"levelo://app?vid=8d160645-37a6-41b0-91eb-5e9885ebf3c3","ios":"levelo://app?vid=8d160645-37a6-41b0-91eb-5e9885ebf3c3"},"vehicle_type_id":"4","last_reported":1727881751,"current_range_meters":28000,"station_id":"ce4bgnh2rcd13ifvqc0g","pricing_plan_id":"cebpf4jnsgd1na2vs0mg"},{"bike_id":"b994fd8f-a4a1-409e-b6c5-cc0f6895b48c","system_id":"levelo_inurba_marseille","lat":43.29657,"lon":5.375362,"is_reserved":false,"is_disabled":false,"rental_uris":{"android":"levelo://app?vid=b994fd8f-a4a1-409e-b6c5-cc0f6895b48c","ios":"levelo://app?vid=b994fd8f-a4a1-409e-b6c5-cc0f6895b48c"},"vehicle_type_id":"4","last_reported":1727881751,"current_range_meters":17200,"station_id":"ce4bgh92rcd13ifvqb50","pricing_plan_id":"cebpf4jnsgd1na2vs0mg"},{"bike_id":"84563bb2-d51c-4ee3-b372-8c623b348c3c","system_id":"levelo_inurba_marseille","lat":43.25727,"lon":5.41109,"is_reserved":false,"is_disabled":false,"rental_uris":{"android":"levelo://app?vid=84563bb2-d51c-4ee3-b372-8c623b348c3c","ios":"levelo://app?vid=84563bb2-d51c-4ee3-b372-8c623b348c3c"},"vehicle_type_id":"4","last_reported":1727881751,"current_range_meters":37600,"station_id":"ce4bhkp2rcd13ifvqgd0","pricing_plan_id":"cebpf4jnsgd1na2vs0mg"},{"bike_id":"99575060-21ca-40ff-80c5-60ae6ee4e6c6","system_id":"levelo_inurba_marseille","lat":43.30553,"lon":5.3653,"is_reserved":false,"is_disabled":false,"rental_uris":{"android":"levelo://app?vid=99575060-21ca-40ff-80c5-60ae6ee4e6c6","ios":"levelo://app?vid=99575060-21ca-40ff-80c5-60ae6ee4e6c6"},"vehicle_type_id":"4","last_reported":1727881751,"current_range_meters":10800,"station_id":"ce4bgs12rcd13ifvqcag","pricing_plan_id":"cebpf4jnsgd1na2vs0mg"},{"bike_id":"628a551e-7611-45cc-bc12-ae71f1f3cf56","system_id":"levelo_inurba_marseille","lat":43.30151,"lon":5.38764,"is_reserved":false,"is_disabled":false,"rental_uris":{"android":"levelo://app?vid=628a551e-7611-45cc-bc12-ae71f1f3cf56","ios":"levelo://app?vid=628a551e-7611-45cc-bc12-ae71f1f3cf56"},"vehicle_type_id":"4","last_reported":1727881751,"current_range_meters":35200,"station_id":"ce4bghh2rcd13ifvqb60","pricing_plan_id":"cebpf4jnsgd1na2vs0mg"},{"bike_id":"1442a758-6c90-4449-b358-248df6339e6f","system_id":"levelo_inurba_marseille","lat":43.286625,"lon":5.386779,"is_reserved":false,"is_disabled":false,"rental_uris":{"android":"levelo://app?vid=1442a758-6c90-4449-b358-248df6339e6f","ios":"levelo://app?vid=1442a758-6c90-4449-b358-248df6339e6f"},"vehicle_type_id":"4","last_reported":1727881751,"current_range_meters":32400,"station_id":"ce4bh492rcd13ifvqdug","pricing_plan_id":"cebpf4jnsgd1na2vs0mg"},{"bike_id":"1361b4e8-161a-4a52-8ad8-3f0f433e205e","system_id":"levelo_inurba_marseille","lat":43.29274,"lon":5.40115,"is_reserved":false,"is_disabled":false,"rental_uris":{"android":"levelo://app?vid=1361b4e8-161a-4a52-8ad8-3f0f433e205e","ios":"levelo://app?vid=1361b4e8-161a-4a52-8ad8-3f0f433e205e"},"vehicle_type_id":"4","last_reported":1727881751,"current_range_meters":30800,"station_id":"ce4bh312rcd13ifvqdk0","pricing_plan_id":"cebpf4jnsgd1na2vs0mg"},{"bike_id":"46928ea4-813f-4cac-a9b4-21b92fcc659f","system_id":"levelo_inurba_marseille","lat":43.23066,"lon":5.35493,"is_reserved":false,"is_disabled":false,"rental_uris":{"android":"levelo://app?vid=46928ea4-813f-4cac-a9b4-21b92fcc659f","ios":"levelo://app?vid=46928ea4-813f-4cac-a9b4-21b92fcc659f"},"vehicle_type_id":"4","last_reported":1727881751,"current_range_meters":36400,"station_id":"cpo3342slgdg3j2ifvpg","pricing_plan_id":"cebpf4jnsgd1na2vs0mg"},{"bike_id":"dee2f83f-341b-4d12-be32-fbb610ba044f","system_id":"levelo_inurba_marseille","lat":43.26573,"lon":5.39012,"is_reserved":false,"is_disabled":false,"rental_uris":{"android":"levelo://app?vid=dee2f83f-341b-4d12-be32-fbb610ba044f","ios":"levelo://app?vid=dee2f83f-341b-4d12-be32-fbb610ba044f"},"vehicle_type_id":"4","last_reported":1727881751,"current_range_meters":37600,"station_id":"ce4bhe12rcd13ifvqf30","pricing_plan_id":"cebpf4jnsgd1na2vs0mg"},{"bike_id":"5447fce0-d112-4741-a610-ba52b41f9e45","system_id":"levelo_inurba_marseille","lat":43.29598,"lon":5.37412,"is_reserved":false,"is_disabled":false,"rental_uris":{"android":"levelo://app?vid=5447fce0-d112-4741-a610-ba52b41f9e45","ios":"levelo://app?vid=5447fce0-d112-4741-a610-ba52b41f9e45"},"vehicle_type_id":"4","last_reported":1727881751,"current_range_meters":2000,"station_id":"ce4bgi12rcd13ifvqb70","pricing_plan_id":"cebpf4jnsgd1na2vs0mg"},{"bike_id":"c7b9d95c-e0a1-459d-b666-50e7dd71d420","system_id":"levelo_inurba_marseille","lat":43.25728,"lon":5.41106,"is_reserved":false,"is_disabled":false,"rental_uris":{"android":"levelo://app?vid=c7b9d95c-e0a1-459d-b666-50e7dd71d420","ios":"levelo://app?vid=c7b9d95c-e0a1-459d-b666-50e7dd71d420"},"vehicle_type_id":"4","last_reported":1727881751,"current_range_meters":6000,"station_id":"ce4bhkp2rcd13ifvqgd0","pricing_plan_id":"cebpf4jnsgd1na2vs0mg"},{"bike_id":"2ce7a7bd-fa8f-4be8-bf66-3a6cd0df14c3","system_id":"levelo_inurba_marseille","lat":43.25584,"lon":5.38227,"is_reserved":false,"is_disabled":false,"rental_uris":{"android":"levelo://app?vid=2ce7a7bd-fa8f-4be8-bf66-3a6cd0df14c3","ios":"levelo://app?vid=2ce7a7bd-fa8f-4be8-bf66-3a6cd0df14c3"},"vehicle_type_id":"4","last_reported":1727881751,"current_range_meters":17600,"station_id":"ce4bhih2rcd13ifvqfs0","pricing_plan_id":"cebpf4jnsgd1na2vs0mg"},{"bike_id":"2a21b954-a05f-4e9f-af9a-4178dde3a2d6","system_id":"levelo_inurba_marseille","lat":43.28106,"lon":5.37831,"is_reserved":false,"is_disabled":false,"rental_uris":{"android":"levelo://app?vid=2a21b954-a05f-4e9f-af9a-4178dde3a2d6","ios":"levelo://app?vid=2a21b954-a05f-4e9f-af9a-4178dde3a2d6"},"vehicle_type_id":"4","last_reported":1727881751,"current_range_meters":6400,"station_id":"ce4bha12rcd13ifvqee0","pricing_plan_id":"cebpf4jnsgd1na2vs0mg"},{"bike_id":"695047c7-52a2-4db8-8a16-7780657ed2cc","system_id":"levelo_inurba_marseille","lat":43.26065,"lon":5.39386,"is_reserved":false,"is_disabled":false,"rental_uris":{"android":"levelo://app?vid=695047c7-52a2-4db8-8a16-7780657ed2cc","ios":"levelo://app?vid=695047c7-52a2-4db8-8a16-7780657ed2cc"},"vehicle_type_id":"4","last_reported":1727881751,"current_range_meters":8400,"station_id":"ce4bhh92rcd13ifvqfj0","pricing_plan_id":"cebpf4jnsgd1na2vs0mg"},{"bike_id":"04d6b2f4-c422-474f-8b08-b0bbfbba1a35","system_id":"levelo_inurba_marseille","lat":43.29557,"lon":5.42288,"is_reserved":false,"is_disabled":false,"rental_uris":{"android":"levelo://app?vid=04d6b2f4-c422-474f-8b08-b0bbfbba1a35","ios":"levelo://app?vid=04d6b2f4-c422-474f-8b08-b0bbfbba1a35"},"vehicle_type_id":"4","last_reported":1727881751,"current_range_meters":9200,"station_id":"ce4bhph2rcd13ifvqhdg","pricing_plan_id":"cebpf4jnsgd1na2vs0mg"},{"bike_id":"86a9d355-6ad5-411b-b440-34e606e36e59","system_id":"levelo_inurba_marseille","lat":43.31068,"lon":5.38352,"is_reserved":false,"is_disabled":false,"rental_uris":{"android":"levelo://app?vid=86a9d355-6ad5-411b-b440-34e606e36e59","ios":"levelo://app?vid=86a9d355-6ad5-411b-b440-34e606e36e59"},"vehicle_type_id":"4","last_reported":1727881751,"current_range_meters":12800,"station_id":"ce4bgv92rcd13ifvqcr0","pricing_plan_id":"cebpf4jnsgd1na2vs0mg"},{"bike_id":"5232706d-f6ed-49c5-82b0-3d08f9db9c69","system_id":"levelo_inurba_marseille","lat":43.29837,"lon":5.36263,"is_reserved":false,"is_disabled":false,"rental_uris":{"android":"levelo://app?vid=5232706d-f6ed-49c5-82b0-3d08f9db9c69","ios":"levelo://app?vid=5232706d-f6ed-49c5-82b0-3d08f9db9c69"},"vehicle_type_id":"4","last_reported":1727881751,"current_range_meters":40000,"station_id":"ce4bgpp2rcd13ifvqc3g","pricing_plan_id":"cebpf4jnsgd1na2vs0mg"},{"bike_id":"23fcd5dc-52e3-40b6-b601-8da82c35b64a","system_id":"levelo_inurba_marseille","lat":43.23199,"lon":5.35548,"is_reserved":false,"is_disabled":false,"rental_uris":{"android":"levelo://app?vid=23fcd5dc-52e3-40b6-b601-8da82c35b64a","ios":"levelo://app?vid=23fcd5dc-52e3-40b6-b601-8da82c35b64a"},"vehicle_type_id":"4","last_reported":1727881751,"current_range_meters":6400,"station_id":"ce4bhu92rcd13ifvqi70","pricing_plan_id":"cebpf4jnsgd1na2vs0mg"},{"bike_id":"6ebf5630-57d2-4275-99dc-f15b4f968fd1","system_id":"levelo_inurba_marseille","lat":43.2318,"lon":5.39986,"is_reserved":false,"is_disabled":false,"rental_uris":{"android":"levelo://app?vid=6ebf5630-57d2-4275-99dc-f15b4f968fd1","ios":"levelo://app?vid=6ebf5630-57d2-4275-99dc-f15b4f968fd1"},"vehicle_type_id":"4","last_reported":1727881751,"current_range_meters":8400,"station_id":"ce4bhn12rcd13ifvqgqg","pricing_plan_id":"cebpf4jnsgd1na2vs0mg"},{"bike_id":"c7dd6abc-150c-440e-896a-5f305ac0a682","system_id":"levelo_inurba_marseille","lat":43.29883,"lon":5.39736,"is_reserved":false,"is_disabled":false,"rental_uris":{"android":"levelo://app?vid=c7dd6abc-150c-440e-896a-5f305ac0a682","ios":"levelo://app?vid=c7dd6abc-150c-440e-896a-5f305ac0a682"},"vehicle_type_id":"4","last_reported":1727881751,"current_range_meters":10000,"station_id":"ce4bh0h2rcd13ifvqd50","pricing_plan_id":"cebpf4jnsgd1na2vs0mg"},{"bike_id":"3eee3b86-9ba0-4a42-acaf-500bd3e4d1b5","system_id":"levelo_inurba_marseille","lat":43.2962,"lon":5.37152,"is_reserved":false,"is_disabled":false,"rental_uris":{"android":"levelo://app?vid=3eee3b86-9ba0-4a42-acaf-500bd3e4d1b5","ios":"levelo://app?vid=3eee3b86-9ba0-4a42-acaf-500bd3e4d1b5"},"vehicle_type_id":"4","last_reported":1727881751,"current_range_meters":32800,"station_id":"ce4bgnh2rcd13ifvqc0g","pricing_plan_id":"cebpf4jnsgd1na2vs0mg"},{"bike_id":"141ef749-99e8-4016-b566-7433b89b5a7b","system_id":"levelo_inurba_marseille","lat":43.23965,"lon":5.36628,"is_reserved":false,"is_disabled":false,"rental_uris":{"android":"levelo://app?vid=141ef749-99e8-4016-b566-7433b89b5a7b","ios":"levelo://app?vid=141ef749-99e8-4016-b566-7433b89b5a7b"},"vehicle_type_id":"4","last_reported":1727881751,"current_range_meters":24400,"station_id":"ce4bhi12rcd13ifvqfp0","pricing_plan_id":"cebpf4jnsgd1na2vs0mg"},{"bike_id":"50595bee-1ffb-4755-b1e4-cfdf7155cd8f","system_id":"levelo_inurba_marseille","lat":43.23193,"lon":5.39988,"is_reserved":false,"is_disabled":false,"rental_uris":{"android":"levelo://app?vid=50595bee-1ffb-4755-b1e4-cfdf7155cd8f","ios":"levelo://app?vid=50595bee-1ffb-4755-b1e4-cfdf7155cd8f"},"vehicle_type_id":"4","last_reported":1727881751,"current_range_meters":8800,"station_id":"ce4bhn12rcd13ifvqgqg","pricing_plan_id":"cebpf4jnsgd1na2vs0mg"},{"bike_id":"d9513a24-3235-43a7-b9a5-1c5cfe37603f","system_id":"levelo_inurba_marseille","lat":43.2306,"lon":5.35489,"is_reserved":false,"is_disabled":false,"rental_uris":{"android":"levelo://app?vid=d9513a24-3235-43a7-b9a5-1c5cfe37603f","ios":"levelo://app?vid=d9513a24-3235-43a7-b9a5-1c5cfe37603f"},"vehicle_type_id":"4","last_reported":1727881751,"current_range_meters":35200,"station_id":"cpo3342slgdg3j2ifvpg","pricing_plan_id":"cebpf4jnsgd1na2vs0mg"},{"bike_id":"772088a0-7828-4f69-ba5d-0f6cdb83dec2","system_id":"levelo_inurba_marseille","lat":43.337444,"lon":5.374475,"is_reserved":false,"is_disabled":false,"rental_uris":{"android":"levelo://app?vid=772088a0-7828-4f69-ba5d-0f6cdb83dec2","ios":"levelo://app?vid=772088a0-7828-4f69-ba5d-0f6cdb83dec2"},"vehicle_type_id":"4","last_reported":1727881751,"current_range_meters":6000,"station_id":"","pricing_plan_id":"cebpf4jnsgd1na2vs0mg"},{"bike_id":"dc8649d3-fbbb-41c3-b029-2004e81ae915","system_id":"levelo_inurba_marseille","lat":43.31334,"lon":5.39697,"is_reserved":false,"is_disabled":false,"rental_uris":{"android":"levelo://app?vid=dc8649d3-fbbb-41c3-b029-2004e81ae915","ios":"levelo://app?vid=dc8649d3-fbbb-41c3-b029-2004e81ae915"},"vehicle_type_id":"4","last_reported":1727881751,"current_range_meters":9600,"station_id":"ce4bgvp2rcd13ifvqcu0","pricing_plan_id":"cebpf4jnsgd1na2vs0mg"},{"bike_id":"89f79560-9417-4d80-afea-9f3796d9baaf","system_id":"levelo_inurba_marseille","lat":43.337444,"lon":5.374475,"is_reserved":false,"is_disabled":false,"rental_uris":{"android":"levelo://app?vid=89f79560-9417-4d80-afea-9f3796d9baaf","ios":"levelo://app?vid=89f79560-9417-4d80-afea-9f3796d9baaf"},"vehicle_type_id":"4","last_reported":1727881751,"current_range_meters":14400,"station_id":"","pricing_plan_id":"cebpf4jnsgd1na2vs0mg"},{"bike_id":"8989dc50-b37a-4eb9-a0e3-a46ec0f5b6bc","system_id":"levelo_inurba_marseille","lat":43.26498,"lon":5.39546,"is_reserved":false,"is_disabled":false,"rental_uris":{"android":"levelo://app?vid=8989dc50-b37a-4eb9-a0e3-a46ec0f5b6bc","ios":"levelo://app?vid=8989dc50-b37a-4eb9-a0e3-a46ec0f5b6bc"},"vehicle_type_id":"4","last_reported":1727881751,"current_range_meters":27200,"station_id":"ce4bhi12rcd13ifvqfq0","pricing_plan_id":"cebpf4jnsgd1na2vs0mg"},{"bike_id":"20261d7d-d2c8-40f2-b1c6-bc88e81dae24","system_id":"levelo_inurba_marseille","lat":43.32365,"lon":5.38884,"is_reserved":false,"is_disabled":false,"rental_uris":{"android":"levelo://app?vid=20261d7d-d2c8-40f2-b1c6-bc88e81dae24","ios":"levelo://app?vid=20261d7d-d2c8-40f2-b1c6-bc88e81dae24"},"vehicle_type_id":"4","last_reported":1727881751,"current_range_meters":39200,"station_id":"ce4bhqp2rcd13ifvqhog","pricing_plan_id":"cebpf4jnsgd1na2vs0mg"},{"bike_id":"ead23471-8976-4253-a144-cfd4dd70aeca","system_id":"levelo_inurba_marseille","lat":43.257266,"lon":5.394446,"is_reserved":false,"is_disabled":false,"rental_uris":{"android":"levelo://app?vid=ead23471-8976-4253-a144-cfd4dd70aeca","ios":"levelo://app?vid=ead23471-8976-4253-a144-cfd4dd70aeca"},"vehicle_type_id":"4","last_reported":1727881751,"current_range_meters":27600,"station_id":"ce4bhip2rcd13ifvqft0","pricing_plan_id":"cebpf4jnsgd1na2vs0mg"},{"bike_id":"c30d50df-9f96-4b53-b031-00de0beea60b","system_id":"levelo_inurba_marseille","lat":43.29201,"lon":5.39325,"is_reserved":false,"is_disabled":false,"rental_uris":{"android":"levelo://app?vid=c30d50df-9f96-4b53-b031-00de0beea60b","ios":"levelo://app?vid=c30d50df-9f96-4b53-b031-00de0beea60b"},"vehicle_type_id":"4","last_reported":1727881751,"current_range_meters":16800,"station_id":"ce4bh192rcd13ifvqdd0","pricing_plan_id":"cebpf4jnsgd1na2vs0mg"},{"bike_id":"b3e24112-d030-40a0-a3ce-a041f042f7fe","system_id":"levelo_inurba_marseille","lat":43.23067,"lon":5.3549,"is_reserved":false,"is_disabled":false,"rental_uris":{"android":"levelo://app?vid=b3e24112-d030-40a0-a3ce-a041f042f7fe","ios":"levelo://app?vid=b3e24112-d030-40a0-a3ce-a041f042f7fe"},"vehicle_type_id":"4","last_reported":1727881751,"current_range_meters":38000,"station_id":"cpo3342slgdg3j2ifvpg","pricing_plan_id":"cebpf4jnsgd1na2vs0mg"},{"bike_id":"83417309-1905-40ac-b36b-c75733043c3a","system_id":"levelo_inurba_marseille","lat":43.24182,"lon":5.39735,"is_reserved":false,"is_disabled":false,"rental_uris":{"android":"levelo://app?vid=83417309-1905-40ac-b36b-c75733043c3a","ios":"levelo://app?vid=83417309-1905-40ac-b36b-c75733043c3a"},"vehicle_type_id":"4","last_reported":1727881751,"current_range_meters":16400,"station_id":"ce4bhn12rcd13ifvqgpg","pricing_plan_id":"cebpf4jnsgd1na2vs0mg"},{"bike_id":"0022220a-5a12-4562-9d8c-535f16826892","system_id":"levelo_inurba_marseille","lat":43.29971,"lon":5.37188,"is_reserved":false,"is_disabled":false,"rental_uris":{"android":"levelo://app?vid=0022220a-5a12-4562-9d8c-535f16826892","ios":"levelo://app?vid=0022220a-5a12-4562-9d8c-535f16826892"},"vehicle_type_id":"4","last_reported":1727881751,"current_range_meters":38800,"station_id":"ce4bgr92rcd13ifvqc7g","pricing_plan_id":"cebpf4jnsgd1na2vs0mg"},{"bike_id":"75b48645-8972-4560-ac54-5027be0bb909","system_id":"levelo_inurba_marseille","lat":43.33023,"lon":5.39044,"is_reserved":false,"is_disabled":false,"rental_uris":{"android":"levelo://app?vid=75b48645-8972-4560-ac54-5027be0bb909","ios":"levelo://app?vid=75b48645-8972-4560-ac54-5027be0bb909"},"vehicle_type_id":"4","last_reported":1727881751,"current_range_meters":31200,"station_id":"ce4bhr92rcd13ifvqhrg","pricing_plan_id":"cebpf4jnsgd1na2vs0mg"},{"bike_id":"a69e7372-0e73-4b9b-9ce3-2edaf8d32c61","system_id":"levelo_inurba_marseille","lat":43.24649,"lon":5.38898,"is_reserved":false,"is_disabled":false,"rental_uris":{"android":"levelo://app?vid=a69e7372-0e73-4b9b-9ce3-2edaf8d32c61","ios":"levelo://app?vid=a69e7372-0e73-4b9b-9ce3-2edaf8d32c61"},"vehicle_type_id":"4","last_reported":1727881751,"current_range_meters":12000,"station_id":"ce4bhg12rcd13ifvqf60","pricing_plan_id":"cebpf4jnsgd1na2vs0mg"},{"bike_id":"f03145c8-03a9-4fec-b830-f6384a2e82a0","system_id":"levelo_inurba_marseille","lat":43.25863,"lon":5.39899,"is_reserved":false,"is_disabled":false,"rental_uris":{"android":"levelo://app?vid=f03145c8-03a9-4fec-b830-f6384a2e82a0","ios":"levelo://app?vid=f03145c8-03a9-4fec-b830-f6384a2e82a0"},"vehicle_type_id":"4","last_reported":1727881751,"current_range_meters":3200,"station_id":"ce4bhl92rcd13ifvqghg","pricing_plan_id":"cebpf4jnsgd1na2vs0mg"},{"bike_id":"f16bbba3-84a3-4df4-9bb6-85a925aacec0","system_id":"levelo_inurba_marseille","lat":43.30414,"lon":5.41289,"is_reserved":false,"is_disabled":false,"rental_uris":{"android":"levelo://app?vid=f16bbba3-84a3-4df4-9bb6-85a925aacec0","ios":"levelo://app?vid=f16bbba3-84a3-4df4-9bb6-85a925aacec0"},"vehicle_type_id":"4","last_reported":1727881751,"current_range_meters":30800,"station_id":"ce4bhop2rcd13ifvqh8g","pricing_plan_id":"cebpf4jnsgd1na2vs0mg"},{"bike_id":"847252bc-524e-4fdb-8b67-48d717331149","system_id":"levelo_inurba_marseille","lat":43.29529,"lon":5.3854,"is_reserved":false,"is_disabled":false,"rental_uris":{"android":"levelo://app?vid=847252bc-524e-4fdb-8b67-48d717331149","ios":"levelo://app?vid=847252bc-524e-4fdb-8b67-48d717331149"},"vehicle_type_id":"4","last_reported":1727881751,"current_range_meters":31200,"station_id":"ce4bgih2rcd13ifvqba0","pricing_plan_id":"cebpf4jnsgd1na2vs0mg"},{"bike_id":"0927edc0-a2c0-428a-a1e9-31ec3c4f6f54","system_id":"levelo_inurba_marseille","lat":43.305563,"lon":5.39208,"is_reserved":false,"is_disabled":false,"rental_uris":{"android":"levelo://app?vid=0927edc0-a2c0-428a-a1e9-31ec3c4f6f54","ios":"levelo://app?vid=0927edc0-a2c0-428a-a1e9-31ec3c4f6f54"},"vehicle_type_id":"4","last_reported":1727881751,"current_range_meters":14400,"station_id":"","pricing_plan_id":"cebpf4jnsgd1na2vs0mg"},{"bike_id":"187e7c8e-6a0e-4e90-b90e-1931abb11779","system_id":"levelo_inurba_marseille","lat":43.29711,"lon":5.37687,"is_reserved":false,"is_disabled":false,"rental_uris":{"android":"levelo://app?vid=187e7c8e-6a0e-4e90-b90e-1931abb11779","ios":"levelo://app?vid=187e7c8e-6a0e-4e90-b90e-1931abb11779"},"vehicle_type_id":"4","last_reported":1727881751,"current_range_meters":2800,"station_id":"ce4bgkh2rcd13ifvqbl0","pricing_plan_id":"cebpf4jnsgd1na2vs0mg"},{"bike_id":"a7e478a0-395a-4172-8e85-16057e36a31e","system_id":"levelo_inurba_marseille","lat":43.30795,"lon":5.37654,"is_reserved":false,"is_disabled":false,"rental_uris":{"android":"levelo://app?vid=a7e478a0-395a-4172-8e85-16057e36a31e","ios":"levelo://app?vid=a7e478a0-395a-4172-8e85-16057e36a31e"},"vehicle_type_id":"4","last_reported":1727881751,"current_range_meters":14400,"station_id":"ce4bgv92rcd13ifvqcq0","pricing_plan_id":"cebpf4jnsgd1na2vs0mg"},{"bike_id":"675cb930-3952-4e3b-afa5-11117c649b7c","system_id":"levelo_inurba_marseille","lat":43.30413,"lon":5.41285,"is_reserved":false,"is_disabled":false,"rental_uris":{"android":"levelo://app?vid=675cb930-3952-4e3b-afa5-11117c649b7c","ios":"levelo://app?vid=675cb930-3952-4e3b-afa5-11117c649b7c"},"vehicle_type_id":"4","last_reported":1727881751,"current_range_meters":24400,"station_id":"ce4bhop2rcd13ifvqh8g","pricing_plan_id":"cebpf4jnsgd1na2vs0mg"},{"bike_id":"624c9b9f-0e24-43cf-bc48-7b6713487aab","system_id":"levelo_inurba_marseille","lat":43.29076,"lon":5.37171,"is_reserved":false,"is_disabled":false,"rental_uris":{"android":"levelo://app?vid=624c9b9f-0e24-43cf-bc48-7b6713487aab","ios":"levelo://app?vid=624c9b9f-0e24-43cf-bc48-7b6713487aab"},"vehicle_type_id":"4","last_reported":1727881751,"current_range_meters":2000,"station_id":"ce4bh5p2rcd13ifvqe4g","pricing_plan_id":"cebpf4jnsgd1na2vs0mg"},{"bike_id":"520a6be5-2fe4-436d-b89e-0706e0a2e975","system_id":"levelo_inurba_marseille","lat":43.28954,"lon":5.36396,"is_reserved":false,"is_disabled":false,"rental_uris":{"android":"levelo://app?vid=520a6be5-2fe4-436d-b89e-0706e0a2e975","ios":"levelo://app?vid=520a6be5-2fe4-436d-b89e-0706e0a2e975"},"vehicle_type_id":"4","last_reported":1727881751,"current_range_meters":37600,"station_id":"ce4bhc92rcd13ifvqetg","pricing_plan_id":"cebpf4jnsgd1na2vs0mg"},{"bike_id":"19ebb6fa-94a7-487e-b88d-7dffc6e3a54d","system_id":"levelo_inurba_marseille","lat":43.27566,"lon":5.38413,"is_reserved":false,"is_disabled":false,"rental_uris":{"android":"levelo://app?vid=19ebb6fa-94a7-487e-b88d-7dffc6e3a54d","ios":"levelo://app?vid=19ebb6fa-94a7-487e-b88d-7dffc6e3a54d"},"vehicle_type_id":"4","last_reported":1727881751,"current_range_meters":29600,"station_id":"ce4bhh92rcd13ifvqfi0","pricing_plan_id":"cebpf4jnsgd1na2vs0mg"},{"bike_id":"857ebaca-6335-401d-b9ee-9d545c4e9c05","system_id":"levelo_inurba_marseille","lat":43.28103,"lon":5.37834,"is_reserved":false,"is_disabled":false,"rental_uris":{"android":"levelo://app?vid=857ebaca-6335-401d-b9ee-9d545c4e9c05","ios":"levelo://app?vid=857ebaca-6335-401d-b9ee-9d545c4e9c05"},"vehicle_type_id":"4","last_reported":1727881751,"current_range_meters":36400,"station_id":"ce4bha12rcd13ifvqee0","pricing_plan_id":"cebpf4jnsgd1na2vs0mg"},{"bike_id":"7c7831b8-5083-4675-8d1a-f60c9fd82b32","system_id":"levelo_inurba_marseille","lat":43.25725,"lon":5.41106,"is_reserved":false,"is_disabled":false,"rental_uris":{"android":"levelo://app?vid=7c7831b8-5083-4675-8d1a-f60c9fd82b32","ios":"levelo://app?vid=7c7831b8-5083-4675-8d1a-f60c9fd82b32"},"vehicle_type_id":"4","last_reported":1727881751,"current_range_meters":38800,"station_id":"ce4bhkp2rcd13ifvqgd0","pricing_plan_id":"cebpf4jnsgd1na2vs0mg"},{"bike_id":"c407dfea-e4a7-402b-9b4a-1ef18c3bc721","system_id":"levelo_inurba_marseille","lat":43.28094,"lon":5.37835,"is_reserved":false,"is_disabled":false,"rental_uris":{"android":"levelo://app?vid=c407dfea-e4a7-402b-9b4a-1ef18c3bc721","ios":"levelo://app?vid=c407dfea-e4a7-402b-9b4a-1ef18c3bc721"},"vehicle_type_id":"4","last_reported":1727881751,"current_range_meters":12000,"station_id":"ce4bha12rcd13ifvqee0","pricing_plan_id":"cebpf4jnsgd1na2vs0mg"},{"bike_id":"5084d4e8-22d7-4248-aec8-4997331ff1e0","system_id":"levelo_inurba_marseille","lat":43.22924,"lon":5.35375,"is_reserved":false,"is_disabled":false,"rental_uris":{"android":"levelo://app?vid=5084d4e8-22d7-4248-aec8-4997331ff1e0","ios":"levelo://app?vid=5084d4e8-22d7-4248-aec8-4997331ff1e0"},"vehicle_type_id":"4","last_reported":1727881751,"current_range_meters":38400,"station_id":"cpo3532slgdg3j2ikp40","pricing_plan_id":"cebpf4jnsgd1na2vs0mg"},{"bike_id":"11993b50-d7cd-4bc8-9db5-bb06917619c1","system_id":"levelo_inurba_marseille","lat":43.30423,"lon":5.41282,"is_reserved":false,"is_disabled":false,"rental_uris":{"android":"levelo://app?vid=11993b50-d7cd-4bc8-9db5-bb06917619c1","ios":"levelo://app?vid=11993b50-d7cd-4bc8-9db5-bb06917619c1"},"vehicle_type_id":"4","last_reported":1727881751,"current_range_meters":15200,"station_id":"ce4bhop2rcd13ifvqh8g","pricing_plan_id":"cebpf4jnsgd1na2vs0mg"},{"bike_id":"b298e924-ec3a-42f8-b253-106ea44a01aa","system_id":"levelo_inurba_marseille","lat":43.29304,"lon":5.37469,"is_reserved":false,"is_disabled":false,"rental_uris":{"android":"levelo://app?vid=b298e924-ec3a-42f8-b253-106ea44a01aa","ios":"levelo://app?vid=b298e924-ec3a-42f8-b253-106ea44a01aa"},"vehicle_type_id":"4","last_reported":1727881751,"current_range_meters":24000,"station_id":"ce4bgi12rcd13ifvqb70","pricing_plan_id":"cebpf4jnsgd1na2vs0mg"},{"bike_id":"839c9596-f91c-43e7-b990-8d1e0e90ea7a","system_id":"levelo_inurba_marseille","lat":43.28434,"lon":5.34993,"is_reserved":false,"is_disabled":false,"rental_uris":{"android":"levelo://app?vid=839c9596-f91c-43e7-b990-8d1e0e90ea7a","ios":"levelo://app?vid=839c9596-f91c-43e7-b990-8d1e0e90ea7a"},"vehicle_type_id":"4","last_reported":1727881751,"current_range_meters":6800,"station_id":"ce4bhbh2rcd13ifvqepg","pricing_plan_id":"cebpf4jnsgd1na2vs0mg"},{"bike_id":"6153543f-5e3f-48f0-9614-a51a9c3ce506","system_id":"levelo_inurba_marseille","lat":43.33022,"lon":5.39036,"is_reserved":false,"is_disabled":false,"rental_uris":{"android":"levelo://app?vid=6153543f-5e3f-48f0-9614-a51a9c3ce506","ios":"levelo://app?vid=6153543f-5e3f-48f0-9614-a51a9c3ce506"},"vehicle_type_id":"4","last_reported":1727881751,"current_range_meters":30000,"station_id":"ce4bhr92rcd13ifvqhrg","pricing_plan_id":"cebpf4jnsgd1na2vs0mg"},{"bike_id":"6761501b-3608-4eff-96cc-640abf7d5b57","system_id":"levelo_inurba_marseille","lat":43.289246,"lon":5.383951,"is_reserved":false,"is_disabled":false,"rental_uris":{"android":"levelo://app?vid=6761501b-3608-4eff-96cc-640abf7d5b57","ios":"levelo://app?vid=6761501b-3608-4eff-96cc-640abf7d5b57"},"vehicle_type_id":"4","last_reported":1727881751,"current_range_meters":24400,"station_id":"ce4bh0h2rcd13ifvqd40","pricing_plan_id":"cebpf4jnsgd1na2vs0mg"},{"bike_id":"b90091da-30b0-4c44-bbd4-ba8868c240ad","system_id":"levelo_inurba_marseille","lat":43.30536,"lon":5.36555,"is_reserved":false,"is_disabled":false,"rental_uris":{"android":"levelo://app?vid=b90091da-30b0-4c44-bbd4-ba8868c240ad","ios":"levelo://app?vid=b90091da-30b0-4c44-bbd4-ba8868c240ad"},"vehicle_type_id":"4","last_reported":1727881751,"current_range_meters":6000,"station_id":"ce4bgs12rcd13ifvqcag","pricing_plan_id":"cebpf4jnsgd1na2vs0mg"},{"bike_id":"6cf8336e-f406-4216-b253-5f2d654db6b2","system_id":"levelo_inurba_marseille","lat":43.31227,"lon":5.36864,"is_reserved":false,"is_disabled":false,"rental_uris":{"android":"levelo://app?vid=6cf8336e-f406-4216-b253-5f2d654db6b2","ios":"levelo://app?vid=6cf8336e-f406-4216-b253-5f2d654db6b2"},"vehicle_type_id":"4","last_reported":1727881751,"current_range_meters":8400,"station_id":"ce4bgl92rcd13ifvqbq0","pricing_plan_id":"cebpf4jnsgd1na2vs0mg"},{"bike_id":"8af1ef6e-80ad-49d2-8d2c-33a2f433c7cb","system_id":"levelo_inurba_marseille","lat":43.26684,"lon":5.38272,"is_reserved":false,"is_disabled":false,"rental_uris":{"android":"levelo://app?vid=8af1ef6e-80ad-49d2-8d2c-33a2f433c7cb","ios":"levelo://app?vid=8af1ef6e-80ad-49d2-8d2c-33a2f433c7cb"},"vehicle_type_id":"4","last_reported":1727881751,"current_range_meters":38800,"station_id":"ce4bhg92rcd13ifvqf90","pricing_plan_id":"cebpf4jnsgd1na2vs0mg"},{"bike_id":"53719e5b-d67a-4a3c-9bcc-b9d9ce085164","system_id":"levelo_inurba_marseille","lat":43.28862,"lon":5.39328,"is_reserved":false,"is_disabled":false,"rental_uris":{"android":"levelo://app?vid=53719e5b-d67a-4a3c-9bcc-b9d9ce085164","ios":"levelo://app?vid=53719e5b-d67a-4a3c-9bcc-b9d9ce085164"},"vehicle_type_id":"4","last_reported":1727881751,"current_range_meters":26000,"station_id":"ce4bh2p2rcd13ifvqdi0","pricing_plan_id":"cebpf4jnsgd1na2vs0mg"},{"bike_id":"d2c13433-f228-4887-bb10-ab5452eeee09","system_id":"levelo_inurba_marseille","lat":43.27975,"lon":5.38732,"is_reserved":false,"is_disabled":false,"rental_uris":{"android":"levelo://app?vid=d2c13433-f228-4887-bb10-ab5452eeee09","ios":"levelo://app?vid=d2c13433-f228-4887-bb10-ab5452eeee09"},"vehicle_type_id":"4","last_reported":1727881751,"current_range_meters":19600,"station_id":"ce4bhg12rcd13ifvqf80","pricing_plan_id":"cebpf4jnsgd1na2vs0mg"},{"bike_id":"300554b2-6bd1-40e3-990b-57e383079204","system_id":"levelo_inurba_marseille","lat":43.28711,"lon":5.39987,"is_reserved":false,"is_disabled":false,"rental_uris":{"android":"levelo://app?vid=300554b2-6bd1-40e3-990b-57e383079204","ios":"levelo://app?vid=300554b2-6bd1-40e3-990b-57e383079204"},"vehicle_type_id":"4","last_reported":1727881751,"current_range_meters":28000,"station_id":"ce4bho92rcd13ifvqh3g","pricing_plan_id":"cebpf4jnsgd1na2vs0mg"},{"bike_id":"9f6ea554-100d-4d77-80cb-b79622e7fa00","system_id":"levelo_inurba_marseille","lat":43.229401,"lon":5.353724,"is_reserved":false,"is_disabled":false,"rental_uris":{"android":"levelo://app?vid=9f6ea554-100d-4d77-80cb-b79622e7fa00","ios":"levelo://app?vid=9f6ea554-100d-4d77-80cb-b79622e7fa00"},"vehicle_type_id":"4","last_reported":1727881751,"current_range_meters":27200,"station_id":"cpo3532slgdg3j2ikp40","pricing_plan_id":"cebpf4jnsgd1na2vs0mg"},{"bike_id":"40e0ff0b-b02f-4a7c-8412-ad87532dba40","system_id":"levelo_inurba_marseille","lat":43.289681,"lon":5.365552,"is_reserved":false,"is_disabled":false,"rental_uris":{"android":"levelo://app?vid=40e0ff0b-b02f-4a7c-8412-ad87532dba40","ios":"levelo://app?vid=40e0ff0b-b02f-4a7c-8412-ad87532dba40"},"vehicle_type_id":"4","last_reported":1727881751,"current_range_meters":17200,"station_id":"ce4bh692rcd13ifvqe90","pricing_plan_id":"cebpf4jnsgd1na2vs0mg"},{"bike_id":"5fe5b945-224b-4074-81c3-2c71560e1a06","system_id":"levelo_inurba_marseille","lat":43.29906,"lon":5.38129,"is_reserved":false,"is_disabled":false,"rental_uris":{"android":"levelo://app?vid=5fe5b945-224b-4074-81c3-2c71560e1a06","ios":"levelo://app?vid=5fe5b945-224b-4074-81c3-2c71560e1a06"},"vehicle_type_id":"4","last_reported":1727881751,"current_range_meters":6000,"station_id":"ce4bgj12rcd13ifvqbc0","pricing_plan_id":"cebpf4jnsgd1na2vs0mg"},{"bike_id":"f452ca40-3b2a-4401-86a7-6928a9c048be","system_id":"levelo_inurba_marseille","lat":43.28853,"lon":5.35868,"is_reserved":false,"is_disabled":false,"rental_uris":{"android":"levelo://app?vid=f452ca40-3b2a-4401-86a7-6928a9c048be","ios":"levelo://app?vid=f452ca40-3b2a-4401-86a7-6928a9c048be"},"vehicle_type_id":"4","last_reported":1727881751,"current_range_meters":22000,"station_id":"ce4bhb12rcd13ifvqem0","pricing_plan_id":"cebpf4jnsgd1na2vs0mg"},{"bike_id":"11e00563-099e-4fc3-8319-21eb826696dc","system_id":"levelo_inurba_marseille","lat":43.27063,"lon":5.40259,"is_reserved":false,"is_disabled":false,"rental_uris":{"android":"levelo://app?vid=11e00563-099e-4fc3-8319-21eb826696dc","ios":"levelo://app?vid=11e00563-099e-4fc3-8319-21eb826696dc"},"vehicle_type_id":"4","last_reported":1727881751,"current_range_meters":38000,"station_id":"ce4bhk92rcd13ifvqgc0","pricing_plan_id":"cebpf4jnsgd1na2vs0mg"},{"bike_id":"07f91a63-cacc-4e45-903b-db1d3e18d737","system_id":"levelo_inurba_marseille","lat":43.26196,"lon":5.37447,"is_reserved":false,"is_disabled":false,"rental_uris":{"android":"levelo://app?vid=07f91a63-cacc-4e45-903b-db1d3e18d737","ios":"levelo://app?vid=07f91a63-cacc-4e45-903b-db1d3e18d737"},"vehicle_type_id":"4","last_reported":1727881751,"current_range_meters":3200,"station_id":"ce4bhgp2rcd13ifvqfc0","pricing_plan_id":"cebpf4jnsgd1na2vs0mg"},{"bike_id":"64bd957e-b978-44cb-a85c-928d627d24ec","system_id":"levelo_inurba_marseille","lat":43.35754,"lon":5.35887,"is_reserved":false,"is_disabled":false,"rental_uris":{"android":"levelo://app?vid=64bd957e-b978-44cb-a85c-928d627d24ec","ios":"levelo://app?vid=64bd957e-b978-44cb-a85c-928d627d24ec"},"vehicle_type_id":"4","last_reported":1727881751,"current_range_meters":18000,"station_id":"","pricing_plan_id":"cebpf4jnsgd1na2vs0mg"},{"bike_id":"1cb3e311-f2bf-4163-b140-90085c63e526","system_id":"levelo_inurba_marseille","lat":43.28569,"lon":5.39499,"is_reserved":false,"is_disabled":false,"rental_uris":{"android":"levelo://app?vid=1cb3e311-f2bf-4163-b140-90085c63e526","ios":"levelo://app?vid=1cb3e311-f2bf-4163-b140-90085c63e526"},"vehicle_type_id":"4","last_reported":1727881751,"current_range_meters":21600,"station_id":"ce4bh292rcd13ifvqdg0","pricing_plan_id":"cebpf4jnsgd1na2vs0mg"},{"bike_id":"c6332a08-4c8f-44dc-a344-8c14294fb98e","system_id":"levelo_inurba_marseille","lat":43.2827,"lon":5.35058,"is_reserved":false,"is_disabled":false,"rental_uris":{"android":"levelo://app?vid=c6332a08-4c8f-44dc-a344-8c14294fb98e","ios":"levelo://app?vid=c6332a08-4c8f-44dc-a344-8c14294fb98e"},"vehicle_type_id":"4","last_reported":1727881751,"current_range_meters":30000,"station_id":"ce4bhbp2rcd13ifvqerg","pricing_plan_id":"cebpf4jnsgd1na2vs0mg"},{"bike_id":"3377a178-4716-46df-a33e-6753c16501c1","system_id":"levelo_inurba_marseille","lat":43.25724,"lon":5.41105,"is_reserved":false,"is_disabled":false,"rental_uris":{"android":"levelo://app?vid=3377a178-4716-46df-a33e-6753c16501c1","ios":"levelo://app?vid=3377a178-4716-46df-a33e-6753c16501c1"},"vehicle_type_id":"4","last_reported":1727881751,"current_range_meters":30400,"station_id":"ce4bhkp2rcd13ifvqgd0","pricing_plan_id":"cebpf4jnsgd1na2vs0mg"},{"bike_id":"db215235-46fd-4e94-b4a2-8d3ec4e5a140","system_id":"levelo_inurba_marseille","lat":43.32479,"lon":5.36548,"is_reserved":false,"is_disabled":false,"rental_uris":{"android":"levelo://app?vid=db215235-46fd-4e94-b4a2-8d3ec4e5a140","ios":"levelo://app?vid=db215235-46fd-4e94-b4a2-8d3ec4e5a140"},"vehicle_type_id":"4","last_reported":1727881751,"current_range_meters":19200,"station_id":"ce4bhs12rcd13ifvqhvg","pricing_plan_id":"cebpf4jnsgd1na2vs0mg"},{"bike_id":"4ac5b21d-f552-4c0b-a28d-986f107a6b95","system_id":"levelo_inurba_marseille","lat":43.32406,"lon":5.39005,"is_reserved":false,"is_disabled":false,"rental_uris":{"android":"levelo://app?vid=4ac5b21d-f552-4c0b-a28d-986f107a6b95","ios":"levelo://app?vid=4ac5b21d-f552-4c0b-a28d-986f107a6b95"},"vehicle_type_id":"4","last_reported":1727881751,"current_range_meters":11600,"station_id":"","pricing_plan_id":"cebpf4jnsgd1na2vs0mg"},{"bike_id":"9689306c-cfc3-4e23-b8c6-c45b6923066a","system_id":"levelo_inurba_marseille","lat":43.29619,"lon":5.3715,"is_reserved":false,"is_disabled":false,"rental_uris":{"android":"levelo://app?vid=9689306c-cfc3-4e23-b8c6-c45b6923066a","ios":"levelo://app?vid=9689306c-cfc3-4e23-b8c6-c45b6923066a"},"vehicle_type_id":"4","last_reported":1727881751,"current_range_meters":24400,"station_id":"ce4bgnh2rcd13ifvqc0g","pricing_plan_id":"cebpf4jnsgd1na2vs0mg"},{"bike_id":"af73b995-6c55-4096-8776-a462be9b879a","system_id":"levelo_inurba_marseille","lat":43.30578,"lon":5.37109,"is_reserved":false,"is_disabled":false,"rental_uris":{"android":"levelo://app?vid=af73b995-6c55-4096-8776-a462be9b879a","ios":"levelo://app?vid=af73b995-6c55-4096-8776-a462be9b879a"},"vehicle_type_id":"4","last_reported":1727881751,"current_range_meters":36400,"station_id":"","pricing_plan_id":"cebpf4jnsgd1na2vs0mg"},{"bike_id":"2cd62159-cdb3-4ab1-afe4-be11b2a67d0e","system_id":"levelo_inurba_marseille","lat":43.23193,"lon":5.3999,"is_reserved":false,"is_disabled":false,"rental_uris":{"android":"levelo://app?vid=2cd62159-cdb3-4ab1-afe4-be11b2a67d0e","ios":"levelo://app?vid=2cd62159-cdb3-4ab1-afe4-be11b2a67d0e"},"vehicle_type_id":"4","last_reported":1727881751,"current_range_meters":4000,"station_id":"ce4bhn12rcd13ifvqgqg","pricing_plan_id":"cebpf4jnsgd1na2vs0mg"},{"bike_id":"16e9511f-4c0e-4f99-9ec5-2c2ea2299ca9","system_id":"levelo_inurba_marseille","lat":43.29078,"lon":5.37166,"is_reserved":false,"is_disabled":false,"rental_uris":{"android":"levelo://app?vid=16e9511f-4c0e-4f99-9ec5-2c2ea2299ca9","ios":"levelo://app?vid=16e9511f-4c0e-4f99-9ec5-2c2ea2299ca9"},"vehicle_type_id":"4","last_reported":1727881751,"current_range_meters":23200,"station_id":"ce4bh5p2rcd13ifvqe4g","pricing_plan_id":"cebpf4jnsgd1na2vs0mg"},{"bike_id":"01e77b0f-7cc2-4f21-bca1-292aaef4dbf5","system_id":"levelo_inurba_marseille","lat":43.23062,"lon":5.35491,"is_reserved":false,"is_disabled":false,"rental_uris":{"android":"levelo://app?vid=01e77b0f-7cc2-4f21-bca1-292aaef4dbf5","ios":"levelo://app?vid=01e77b0f-7cc2-4f21-bca1-292aaef4dbf5"},"vehicle_type_id":"4","last_reported":1727881751,"current_range_meters":25600,"station_id":"cpo3342slgdg3j2ifvpg","pricing_plan_id":"cebpf4jnsgd1na2vs0mg"},{"bike_id":"ea3bd8c8-b9fe-4e97-b922-3fe29b7ddbd3","system_id":"levelo_inurba_marseille","lat":43.28271,"lon":5.35067,"is_reserved":false,"is_disabled":false,"rental_uris":{"android":"levelo://app?vid=ea3bd8c8-b9fe-4e97-b922-3fe29b7ddbd3","ios":"levelo://app?vid=ea3bd8c8-b9fe-4e97-b922-3fe29b7ddbd3"},"vehicle_type_id":"4","last_reported":1727881751,"current_range_meters":25600,"station_id":"ce4bhbp2rcd13ifvqerg","pricing_plan_id":"cebpf4jnsgd1na2vs0mg"},{"bike_id":"5dac9f59-99d8-47f9-b99a-06c3eeec022f","system_id":"levelo_inurba_marseille","lat":43.23062,"lon":5.35493,"is_reserved":false,"is_disabled":false,"rental_uris":{"android":"levelo://app?vid=5dac9f59-99d8-47f9-b99a-06c3eeec022f","ios":"levelo://app?vid=5dac9f59-99d8-47f9-b99a-06c3eeec022f"},"vehicle_type_id":"4","last_reported":1727881751,"current_range_meters":35200,"station_id":"cpo3342slgdg3j2ifvpg","pricing_plan_id":"cebpf4jnsgd1na2vs0mg"},{"bike_id":"499f28f4-d7f4-4a26-852b-a4005675a1f4","system_id":"levelo_inurba_marseille","lat":43.26062,"lon":5.39403,"is_reserved":false,"is_disabled":false,"rental_uris":{"android":"levelo://app?vid=499f28f4-d7f4-4a26-852b-a4005675a1f4","ios":"levelo://app?vid=499f28f4-d7f4-4a26-852b-a4005675a1f4"},"vehicle_type_id":"4","last_reported":1727881751,"current_range_meters":8400,"station_id":"ce4bhh92rcd13ifvqfj0","pricing_plan_id":"cebpf4jnsgd1na2vs0mg"},{"bike_id":"2656314f-982e-4541-9a98-b333567c157a","system_id":"levelo_inurba_marseille","lat":43.29538,"lon":5.38547,"is_reserved":false,"is_disabled":false,"rental_uris":{"android":"levelo://app?vid=2656314f-982e-4541-9a98-b333567c157a","ios":"levelo://app?vid=2656314f-982e-4541-9a98-b333567c157a"},"vehicle_type_id":"4","last_reported":1727881751,"current_range_meters":3600,"station_id":"ce4bgih2rcd13ifvqba0","pricing_plan_id":"cebpf4jnsgd1na2vs0mg"},{"bike_id":"e586c27e-228f-4aec-adc4-3f9697637559","system_id":"levelo_inurba_marseille","lat":43.29557,"lon":5.42289,"is_reserved":false,"is_disabled":false,"rental_uris":{"android":"levelo://app?vid=e586c27e-228f-4aec-adc4-3f9697637559","ios":"levelo://app?vid=e586c27e-228f-4aec-adc4-3f9697637559"},"vehicle_type_id":"4","last_reported":1727881751,"current_range_meters":20400,"station_id":"ce4bhph2rcd13ifvqhdg","pricing_plan_id":"cebpf4jnsgd1na2vs0mg"},{"bike_id":"c0cc65ec-0d58-43c6-858f-ab0fd814e8bd","system_id":"levelo_inurba_marseille","lat":43.28974,"lon":5.37844,"is_reserved":false,"is_disabled":false,"rental_uris":{"android":"levelo://app?vid=c0cc65ec-0d58-43c6-858f-ab0fd814e8bd","ios":"levelo://app?vid=c0cc65ec-0d58-43c6-858f-ab0fd814e8bd"},"vehicle_type_id":"4","last_reported":1727881751,"current_range_meters":37600,"station_id":"ce4bh9p2rcd13ifvqed0","pricing_plan_id":"cebpf4jnsgd1na2vs0mg"},{"bike_id":"0aa67772-2acf-4638-9603-668627a7f382","system_id":"levelo_inurba_marseille","lat":43.26062,"lon":5.39396,"is_reserved":false,"is_disabled":false,"rental_uris":{"android":"levelo://app?vid=0aa67772-2acf-4638-9603-668627a7f382","ios":"levelo://app?vid=0aa67772-2acf-4638-9603-668627a7f382"},"vehicle_type_id":"4","last_reported":1727881751,"current_range_meters":15200,"station_id":"ce4bhh92rcd13ifvqfj0","pricing_plan_id":"cebpf4jnsgd1na2vs0mg"},{"bike_id":"418fb012-6512-437c-891b-809f7e6550e8","system_id":"levelo_inurba_marseille","lat":43.32546,"lon":5.41435,"is_reserved":false,"is_disabled":false,"rental_uris":{"android":"levelo://app?vid=418fb012-6512-437c-891b-809f7e6550e8","ios":"levelo://app?vid=418fb012-6512-437c-891b-809f7e6550e8"},"vehicle_type_id":"4","last_reported":1727881751,"current_range_meters":15200,"station_id":"ce4bhq12rcd13ifvqhhg","pricing_plan_id":"cebpf4jnsgd1na2vs0mg"},{"bike_id":"467826d0-a45d-4a11-a2d1-cd13ffad3743","system_id":"levelo_inurba_marseille","lat":43.28668,"lon":5.38663,"is_reserved":false,"is_disabled":false,"rental_uris":{"android":"levelo://app?vid=467826d0-a45d-4a11-a2d1-cd13ffad3743","ios":"levelo://app?vid=467826d0-a45d-4a11-a2d1-cd13ffad3743"},"vehicle_type_id":"4","last_reported":1727881751,"current_range_meters":2800,"station_id":"ce4bh492rcd13ifvqdug","pricing_plan_id":"cebpf4jnsgd1na2vs0mg"},{"bike_id":"ac38ae6b-a2f4-48d9-83a5-fc57e43fb79e","system_id":"levelo_inurba_marseille","lat":43.28838,"lon":5.35855,"is_reserved":false,"is_disabled":false,"rental_uris":{"android":"levelo://app?vid=ac38ae6b-a2f4-48d9-83a5-fc57e43fb79e","ios":"levelo://app?vid=ac38ae6b-a2f4-48d9-83a5-fc57e43fb79e"},"vehicle_type_id":"4","last_reported":1727881751,"current_range_meters":24400,"station_id":"ce4bhb12rcd13ifvqem0","pricing_plan_id":"cebpf4jnsgd1na2vs0mg"},{"bike_id":"627eec60-5f4a-4bd0-9b6f-822bf8e954d5","system_id":"levelo_inurba_marseille","lat":43.31723,"lon":5.42392,"is_reserved":false,"is_disabled":false,"rental_uris":{"android":"levelo://app?vid=627eec60-5f4a-4bd0-9b6f-822bf8e954d5","ios":"levelo://app?vid=627eec60-5f4a-4bd0-9b6f-822bf8e954d5"},"vehicle_type_id":"4","last_reported":1727881751,"current_range_meters":20000,"station_id":"ce4bhp92rcd13ifvqhbg","pricing_plan_id":"cebpf4jnsgd1na2vs0mg"},{"bike_id":"f0ed540d-6058-44ba-9702-ab0b3ca8816e","system_id":"levelo_inurba_marseille","lat":43.25499,"lon":5.37648,"is_reserved":false,"is_disabled":false,"rental_uris":{"android":"levelo://app?vid=f0ed540d-6058-44ba-9702-ab0b3ca8816e","ios":"levelo://app?vid=f0ed540d-6058-44ba-9702-ab0b3ca8816e"},"vehicle_type_id":"4","last_reported":1727881751,"current_range_meters":29600,"station_id":"ce4bhh12rcd13ifvqff0","pricing_plan_id":"cebpf4jnsgd1na2vs0mg"},{"bike_id":"1a855352-86f2-4d19-9361-cae95d56f46c","system_id":"levelo_inurba_marseille","lat":43.28423,"lon":5.34988,"is_reserved":false,"is_disabled":false,"rental_uris":{"android":"levelo://app?vid=1a855352-86f2-4d19-9361-cae95d56f46c","ios":"levelo://app?vid=1a855352-86f2-4d19-9361-cae95d56f46c"},"vehicle_type_id":"4","last_reported":1727881751,"current_range_meters":22800,"station_id":"ce4bhbh2rcd13ifvqepg","pricing_plan_id":"cebpf4jnsgd1na2vs0mg"},{"bike_id":"58a14ce1-2014-4595-b2e8-3b1fc49aaeb1","system_id":"levelo_inurba_marseille","lat":43.26491,"lon":5.39547,"is_reserved":false,"is_disabled":false,"rental_uris":{"android":"levelo://app?vid=58a14ce1-2014-4595-b2e8-3b1fc49aaeb1","ios":"levelo://app?vid=58a14ce1-2014-4595-b2e8-3b1fc49aaeb1"},"vehicle_type_id":"4","last_reported":1727881751,"current_range_meters":32800,"station_id":"ce4bhi12rcd13ifvqfq0","pricing_plan_id":"cebpf4jnsgd1na2vs0mg"},{"bike_id":"4064b74c-e4ef-4363-b54b-a0533439388b","system_id":"levelo_inurba_marseille","lat":43.27177,"lon":5.40995,"is_reserved":false,"is_disabled":false,"rental_uris":{"android":"levelo://app?vid=4064b74c-e4ef-4363-b54b-a0533439388b","ios":"levelo://app?vid=4064b74c-e4ef-4363-b54b-a0533439388b"},"vehicle_type_id":"4","last_reported":1727881751,"current_range_meters":6800,"station_id":"ce4bhl12rcd13ifvqgf0","pricing_plan_id":"cebpf4jnsgd1na2vs0mg"},{"bike_id":"91f17f22-70d9-4f57-9983-12e6b8390902","system_id":"levelo_inurba_marseille","lat":43.24803,"lon":5.37455,"is_reserved":false,"is_disabled":false,"rental_uris":{"android":"levelo://app?vid=91f17f22-70d9-4f57-9983-12e6b8390902","ios":"levelo://app?vid=91f17f22-70d9-4f57-9983-12e6b8390902"},"vehicle_type_id":"4","last_reported":1727881751,"current_range_meters":28000,"station_id":"ce4bhgh2rcd13ifvqfb0","pricing_plan_id":"cebpf4jnsgd1na2vs0mg"},{"bike_id":"03f3bf6e-1db2-4a77-beac-a5544646f619","system_id":"levelo_inurba_marseille","lat":43.276716,"lon":5.388773,"is_reserved":false,"is_disabled":false,"rental_uris":{"android":"levelo://app?vid=03f3bf6e-1db2-4a77-beac-a5544646f619","ios":"levelo://app?vid=03f3bf6e-1db2-4a77-beac-a5544646f619"},"vehicle_type_id":"4","last_reported":1727881751,"current_range_meters":35200,"station_id":"ce4bhi12rcd13ifvqfo0","pricing_plan_id":"cebpf4jnsgd1na2vs0mg"},{"bike_id":"f2971694-692f-4bfe-8d92-686d388a2bcd","system_id":"levelo_inurba_marseille","lat":43.29048,"lon":5.35912,"is_reserved":false,"is_disabled":false,"rental_uris":{"android":"levelo://app?vid=f2971694-692f-4bfe-8d92-686d388a2bcd","ios":"levelo://app?vid=f2971694-692f-4bfe-8d92-686d388a2bcd"},"vehicle_type_id":"4","last_reported":1727881751,"current_range_meters":28800,"station_id":"ce4bha92rcd13ifvqeg0","pricing_plan_id":"cebpf4jnsgd1na2vs0mg"},{"bike_id":"a57b6501-df5e-47cf-93a6-3acf89605414","system_id":"levelo_inurba_marseille","lat":43.29032,"lon":5.38649,"is_reserved":false,"is_disabled":false,"rental_uris":{"android":"levelo://app?vid=a57b6501-df5e-47cf-93a6-3acf89605414","ios":"levelo://app?vid=a57b6501-df5e-47cf-93a6-3acf89605414"},"vehicle_type_id":"4","last_reported":1727881751,"current_range_meters":21600,"station_id":"ce4bh4p2rcd13ifvqe0g","pricing_plan_id":"cebpf4jnsgd1na2vs0mg"},{"bike_id":"09b25b1c-fcac-47f0-aef7-2dabf594a8fe","system_id":"levelo_inurba_marseille","lat":43.23197,"lon":5.35554,"is_reserved":false,"is_disabled":false,"rental_uris":{"android":"levelo://app?vid=09b25b1c-fcac-47f0-aef7-2dabf594a8fe","ios":"levelo://app?vid=09b25b1c-fcac-47f0-aef7-2dabf594a8fe"},"vehicle_type_id":"4","last_reported":1727881751,"current_range_meters":38800,"station_id":"ce4bhu92rcd13ifvqi70","pricing_plan_id":"cebpf4jnsgd1na2vs0mg"},{"bike_id":"49ccf3a3-7bbd-4fd3-ad51-e4cc11dc11ef","system_id":"levelo_inurba_marseille","lat":43.31994,"lon":5.38166,"is_reserved":false,"is_disabled":false,"rental_uris":{"android":"levelo://app?vid=49ccf3a3-7bbd-4fd3-ad51-e4cc11dc11ef","ios":"levelo://app?vid=49ccf3a3-7bbd-4fd3-ad51-e4cc11dc11ef"},"vehicle_type_id":"4","last_reported":1727881751,"current_range_meters":34800,"station_id":"ce4bhr12rcd13ifvqhpg","pricing_plan_id":"cebpf4jnsgd1na2vs0mg"},{"bike_id":"45f3a5dc-9bf4-44ee-9a1f-ad91c9abc860","system_id":"levelo_inurba_marseille","lat":43.29585,"lon":5.3674,"is_reserved":false,"is_disabled":false,"rental_uris":{"android":"levelo://app?vid=45f3a5dc-9bf4-44ee-9a1f-ad91c9abc860","ios":"levelo://app?vid=45f3a5dc-9bf4-44ee-9a1f-ad91c9abc860"},"vehicle_type_id":"4","last_reported":1727881751,"current_range_meters":39200,"station_id":"ce4bgph2rcd13ifvqc2g","pricing_plan_id":"cebpf4jnsgd1na2vs0mg"},{"bike_id":"2f417626-678f-4707-8521-e029ec0fddca","system_id":"levelo_inurba_marseille","lat":43.31711,"lon":5.43707,"is_reserved":false,"is_disabled":false,"rental_uris":{"android":"levelo://app?vid=2f417626-678f-4707-8521-e029ec0fddca","ios":"levelo://app?vid=2f417626-678f-4707-8521-e029ec0fddca"},"vehicle_type_id":"4","last_reported":1727881751,"current_range_meters":21600,"station_id":"ce4bhp92rcd13ifvqhcg","pricing_plan_id":"cebpf4jnsgd1na2vs0mg"},{"bike_id":"ad801a7a-4990-486f-aa13-5f01d1e80058","system_id":"levelo_inurba_marseille","lat":43.3042,"lon":5.41287,"is_reserved":false,"is_disabled":false,"rental_uris":{"android":"levelo://app?vid=ad801a7a-4990-486f-aa13-5f01d1e80058","ios":"levelo://app?vid=ad801a7a-4990-486f-aa13-5f01d1e80058"},"vehicle_type_id":"4","last_reported":1727881751,"current_range_meters":38400,"station_id":"ce4bhop2rcd13ifvqh8g","pricing_plan_id":"cebpf4jnsgd1na2vs0mg"},{"bike_id":"6e04b9fc-17e0-4599-a9a0-bab78e1dc215","system_id":"levelo_inurba_marseille","lat":43.29419,"lon":5.38626,"is_reserved":false,"is_disabled":false,"rental_uris":{"android":"levelo://app?vid=6e04b9fc-17e0-4599-a9a0-bab78e1dc215","ios":"levelo://app?vid=6e04b9fc-17e0-4599-a9a0-bab78e1dc215"},"vehicle_type_id":"4","last_reported":1727881751,"current_range_meters":10000,"station_id":"ce4bh2h2rcd13ifvqdh0","pricing_plan_id":"cebpf4jnsgd1na2vs0mg"},{"bike_id":"f3efec1e-f6c0-45c1-ba6c-f51a31dbe8ee","system_id":"levelo_inurba_marseille","lat":43.25722,"lon":5.41116,"is_reserved":false,"is_disabled":false,"rental_uris":{"android":"levelo://app?vid=f3efec1e-f6c0-45c1-ba6c-f51a31dbe8ee","ios":"levelo://app?vid=f3efec1e-f6c0-45c1-ba6c-f51a31dbe8ee"},"vehicle_type_id":"4","last_reported":1727881751,"current_range_meters":32000,"station_id":"ce4bhkp2rcd13ifvqgd0","pricing_plan_id":"cebpf4jnsgd1na2vs0mg"},{"bike_id":"c2849fa8-bb62-45fa-8c52-fe90dcbb43f5","system_id":"levelo_inurba_marseille","lat":43.264976,"lon":5.395182,"is_reserved":false,"is_disabled":false,"rental_uris":{"android":"levelo://app?vid=c2849fa8-bb62-45fa-8c52-fe90dcbb43f5","ios":"levelo://app?vid=c2849fa8-bb62-45fa-8c52-fe90dcbb43f5"},"vehicle_type_id":"4","last_reported":1727881751,"current_range_meters":7200,"station_id":"ce4bhi12rcd13ifvqfq0","pricing_plan_id":"cebpf4jnsgd1na2vs0mg"},{"bike_id":"970be3b2-3017-43b3-9323-5bafde814cfa","system_id":"levelo_inurba_marseille","lat":43.29619,"lon":5.3715,"is_reserved":false,"is_disabled":false,"rental_uris":{"android":"levelo://app?vid=970be3b2-3017-43b3-9323-5bafde814cfa","ios":"levelo://app?vid=970be3b2-3017-43b3-9323-5bafde814cfa"},"vehicle_type_id":"4","last_reported":1727881751,"current_range_meters":3600,"station_id":"ce4bgnh2rcd13ifvqc0g","pricing_plan_id":"cebpf4jnsgd1na2vs0mg"},{"bike_id":"47e354cb-116b-4750-9377-b5b9e7aa5817","system_id":"levelo_inurba_marseille","lat":43.305328,"lon":5.384256,"is_reserved":false,"is_disabled":false,"rental_uris":{"android":"levelo://app?vid=47e354cb-116b-4750-9377-b5b9e7aa5817","ios":"levelo://app?vid=47e354cb-116b-4750-9377-b5b9e7aa5817"},"vehicle_type_id":"4","last_reported":1727881751,"current_range_meters":22000,"station_id":"ce4bgg92rcd13ifvqb30","pricing_plan_id":"cebpf4jnsgd1na2vs0mg"},{"bike_id":"8273889d-8556-43eb-9202-efc6a736e525","system_id":"levelo_inurba_marseille","lat":43.28268,"lon":5.35065,"is_reserved":false,"is_disabled":false,"rental_uris":{"android":"levelo://app?vid=8273889d-8556-43eb-9202-efc6a736e525","ios":"levelo://app?vid=8273889d-8556-43eb-9202-efc6a736e525"},"vehicle_type_id":"4","last_reported":1727881751,"current_range_meters":20000,"station_id":"ce4bhbp2rcd13ifvqerg","pricing_plan_id":"cebpf4jnsgd1na2vs0mg"},{"bike_id":"2f51ad03-f759-42e2-bb35-b5314fb30f43","system_id":"levelo_inurba_marseille","lat":43.28486,"lon":5.3593,"is_reserved":false,"is_disabled":false,"rental_uris":{"android":"levelo://app?vid=2f51ad03-f759-42e2-bb35-b5314fb30f43","ios":"levelo://app?vid=2f51ad03-f759-42e2-bb35-b5314fb30f43"},"vehicle_type_id":"4","last_reported":1727881751,"current_range_meters":28800,"station_id":"ce4bha12rcd13ifvqef0","pricing_plan_id":"cebpf4jnsgd1na2vs0mg"},{"bike_id":"3b595122-26fc-4dad-80ca-22313a5b7120","system_id":"levelo_inurba_marseille","lat":43.30643,"lon":5.40068,"is_reserved":false,"is_disabled":false,"rental_uris":{"android":"levelo://app?vid=3b595122-26fc-4dad-80ca-22313a5b7120","ios":"levelo://app?vid=3b595122-26fc-4dad-80ca-22313a5b7120"},"vehicle_type_id":"4","last_reported":1727881751,"current_range_meters":34800,"station_id":"ce4bh112rcd13ifvqda0","pricing_plan_id":"cebpf4jnsgd1na2vs0mg"},{"bike_id":"78fc462d-2836-45ba-b251-e6e033d9315f","system_id":"levelo_inurba_marseille","lat":43.31488,"lon":5.37308,"is_reserved":false,"is_disabled":false,"rental_uris":{"android":"levelo://app?vid=78fc462d-2836-45ba-b251-e6e033d9315f","ios":"levelo://app?vid=78fc462d-2836-45ba-b251-e6e033d9315f"},"vehicle_type_id":"4","last_reported":1727881751,"current_range_meters":25200,"station_id":"ce4bgt12rcd13ifvqcd0","pricing_plan_id":"cebpf4jnsgd1na2vs0mg"},{"bike_id":"29e89cd5-53ed-4066-8cd5-3641edc117ac","system_id":"levelo_inurba_marseille","lat":43.24651,"lon":5.38894,"is_reserved":false,"is_disabled":false,"rental_uris":{"android":"levelo://app?vid=29e89cd5-53ed-4066-8cd5-3641edc117ac","ios":"levelo://app?vid=29e89cd5-53ed-4066-8cd5-3641edc117ac"},"vehicle_type_id":"4","last_reported":1727881751,"current_range_meters":39200,"station_id":"ce4bhg12rcd13ifvqf60","pricing_plan_id":"cebpf4jnsgd1na2vs0mg"},{"bike_id":"754e197f-9b81-4898-9116-61c1dce6a21f","system_id":"levelo_inurba_marseille","lat":43.29882,"lon":5.38903,"is_reserved":false,"is_disabled":false,"rental_uris":{"android":"levelo://app?vid=754e197f-9b81-4898-9116-61c1dce6a21f","ios":"levelo://app?vid=754e197f-9b81-4898-9116-61c1dce6a21f"},"vehicle_type_id":"4","last_reported":1727881751,"current_range_meters":35600,"station_id":"ce4bh392rcd13ifvqdl0","pricing_plan_id":"cebpf4jnsgd1na2vs0mg"},{"bike_id":"3b2373e7-eabb-407b-82ab-5a608332c29d","system_id":"levelo_inurba_marseille","lat":43.29026,"lon":5.38146,"is_reserved":false,"is_disabled":false,"rental_uris":{"android":"levelo://app?vid=3b2373e7-eabb-407b-82ab-5a608332c29d","ios":"levelo://app?vid=3b2373e7-eabb-407b-82ab-5a608332c29d"},"vehicle_type_id":"4","last_reported":1727881751,"current_range_meters":2000,"station_id":"ce4bh4p2rcd13ifvqe1g","pricing_plan_id":"cebpf4jnsgd1na2vs0mg"},{"bike_id":"c82c99dd-8df2-4155-a108-84adda99ee9b","system_id":"levelo_inurba_marseille","lat":43.26567,"lon":5.39014,"is_reserved":false,"is_disabled":false,"rental_uris":{"android":"levelo://app?vid=c82c99dd-8df2-4155-a108-84adda99ee9b","ios":"levelo://app?vid=c82c99dd-8df2-4155-a108-84adda99ee9b"},"vehicle_type_id":"4","last_reported":1727881751,"current_range_meters":29600,"station_id":"ce4bhe12rcd13ifvqf30","pricing_plan_id":"cebpf4jnsgd1na2vs0mg"},{"bike_id":"f25fe50f-d7c3-4cb7-af05-2a0700ecfdbd","system_id":"levelo_inurba_marseille","lat":43.25723,"lon":5.4111,"is_reserved":false,"is_disabled":false,"rental_uris":{"android":"levelo://app?vid=f25fe50f-d7c3-4cb7-af05-2a0700ecfdbd","ios":"levelo://app?vid=f25fe50f-d7c3-4cb7-af05-2a0700ecfdbd"},"vehicle_type_id":"4","last_reported":1727881751,"current_range_meters":28800,"station_id":"ce4bhkp2rcd13ifvqgd0","pricing_plan_id":"cebpf4jnsgd1na2vs0mg"},{"bike_id":"17ce31a1-02b8-4d9b-b69a-5f64832d6ab1","system_id":"levelo_inurba_marseille","lat":43.284231,"lon":5.349825,"is_reserved":false,"is_disabled":false,"rental_uris":{"android":"levelo://app?vid=17ce31a1-02b8-4d9b-b69a-5f64832d6ab1","ios":"levelo://app?vid=17ce31a1-02b8-4d9b-b69a-5f64832d6ab1"},"vehicle_type_id":"4","last_reported":1727881751,"current_range_meters":32800,"station_id":"ce4bhbh2rcd13ifvqepg","pricing_plan_id":"cebpf4jnsgd1na2vs0mg"},{"bike_id":"f94b24a0-d728-4f5f-baa4-f516236e6866","system_id":"levelo_inurba_marseille","lat":43.296143,"lon":5.37715,"is_reserved":false,"is_disabled":false,"rental_uris":{"android":"levelo://app?vid=f94b24a0-d728-4f5f-baa4-f516236e6866","ios":"levelo://app?vid=f94b24a0-d728-4f5f-baa4-f516236e6866"},"vehicle_type_id":"4","last_reported":1727881751,"current_range_meters":25200,"station_id":"ce4bgi92rcd13ifvqb90","pricing_plan_id":"cebpf4jnsgd1na2vs0mg"},