{"last_updated":1742738855,"ttl":60,"version":"2.2","data":{"bikes":[{"bike_id":"c2ede34a-4706-40da-973f-7f4f49ea76d2","system_id":"levelo_inurba_marseille","lat":43.30147,"lon":5.38084,"is_reserved":false,"is_disabled":false,"rental_uris":{"android":"levelo://app?vid=c2ede34a-4706-40da-973f-7f4f49ea76d2","ios":"levelo://app?vid=c2ede34a-4706-40da-973f-7f4f49ea76d2"},"vehicle_type_id":"4","last_reported":1742738855,"current_range_meters":2800,"station_id":"ce4bgjp2rcd13ifvqbh0","pricing_plan_id":"cebpf4jnsgd1na2vs0mg"},{"bike_id":"5f0b782a-15fe-4f49-9750-6b28d80152e5","system_id":"levelo_inurba_marseille","lat":43.26549,"lon":5.3729,"is_reserved":false,"is_disabled":false,"rental_uris":{"android":"levelo://app?vid=5f0b782a-15fe-4f49-9750-6b28d80152e5","ios":"levelo://app?vid=5f0b782a-15fe-4f49-9750-6b28d80152e5"},"vehicle_type_id":"4","last_reported":1742738855,"current_range_meters":2800,"station_id":"ce4bhg12rcd13ifvqf70","pricing_plan_id":"cebpf4jnsgd1na2vs0mg"},{"bike_id":"6f1993f1-783f-424c-8cd2-2934c01d9217","system_id":"levelo_inurba_marseille","lat":43.27377,"lon":5.36255,"is_reserved":false,"is_disabled":false,"rental_uris":{"android":"levelo://app?vid=6f1993f1-783f-424c-8cd2-2934c01d9217","ios":"levelo://app?vid=6f1993f1-783f-424c-8cd2-2934c01d9217"},"vehicle_type_id":"4","last_reported":1742738855,"current_range_meters":2000,"station_id":"ce4bhbh2rcd13ifvqeo0","pricing_plan_id":"cebpf4jnsgd1na2vs0mg"},{"bike_id":"9ec37718-6044-4fc8-b225-01c1646eb687","system_id":"levelo_inurba_marseille","lat":43.26554,"lon":5.37281,"is_reserved":false,"is_disabled":false,"rental_uris":{"android":"levelo://app?vid=9ec37718-6044-4fc8-b225-01c1646eb687","ios":"levelo://app?vid=9ec37718-6044-4fc8-b225-01c1646eb687"},"vehicle_type_id":"4","last_reported":1742738855,"current_range_meters":2800,"station_id":"ce4bhg12rcd13ifvqf70","pricing_plan_id":"cebpf4jnsgd1na2vs0mg"},{"bike_id":"7e9adb93-697d-4e95-8eda-5fa3c27dc33c","system_id":"levelo_inurba_marseille","lat":43.29606,"lon":5.38113,"is_reserved":false,"is_disabled":false,"rental_uris":{"android":"levelo://app?vid=7e9adb93-697d-4e95-8eda-5fa3c27dc33c","ios":"levelo://app?vid=7e9adb93-697d-4e95-8eda-5fa3c27dc33c"},"vehicle_type_id":"4","last_reported":1742738855,"current_range_meters":3200,"station_id":"ce4bgl12rcd13ifvqbo0","pricing_plan_id":"cebpf4jnsgd1na2vs0mg"},{"bike_id":"b6999c42-1e1a-43c5-adc2-1f662fa817ef","system_id":"levelo_inurba_marseille","lat":43.27917,"lon":5.39584,"is_reserved":false,"is_disabled":false,"rental_uris":{"android":"levelo://app?vid=b6999c42-1e1a-43c5-adc2-1f662fa817ef","ios":"levelo://app?vid=b6999c42-1e1a-43c5-adc2-1f662fa817ef"},"vehicle_type_id":"4","last_reported":1742738855,"current_range_meters":3200,"station_id":"ce4bhf92rcd13ifvqf40","pricing_plan_id":"cebpf4jnsgd1na2vs0mg"},{"bike_id":"0b18996a-cd2d-4f3c-bbfa-d64e56a4ce2a","system_id":"levelo_inurba_marseille","lat":43.2861,"lon":5.35106,"is_reserved":false,"is_disabled":false,"rental_uris":{"android":"levelo://app?vid=0b18996a-cd2d-4f3c-bbfa-d64e56a4ce2a","ios":"levelo://app?vid=0b18996a-cd2d-4f3c-bbfa-d64e56a4ce2a"},"vehicle_type_id":"4","last_reported":1742738855,"current_range_meters":3200,"station_id":"ce4bhch2rcd13ifvqeug","pricing_plan_id":"cebpf4jnsgd1na2vs0mg"},{"bike_id":"2080f22e-5c28-493e-8f08-860a79507d0b","system_id":"levelo_inurba_marseille","lat":43.25877,"lon":5.39915,"is_reserved":false,"is_disabled":false,"rental_uris":{"android":"levelo://app?vid=2080f22e-5c28-493e-8f08-860a79507d0b","ios":"levelo://app?vid=2080f22e-5c28-493e-8f08-860a79507d0b"},"vehicle_type_id":"4","last_reported":1742738855,"current_range_meters":3200,"station_id":"ce4bhl92rcd13ifvqghg","pricing_plan_id":"cebpf4jnsgd1na2vs0mg"},{"bike_id":"1b3b4f69-657e-4463-b7fb-c46c89f70c94","system_id":"levelo_inurba_marseille","lat":43.25456,"lon":5.38173,"is_reserved":false,"is_disabled":false,"rental_uris":{"android":"levelo://app?vid=1b3b4f69-657e-4463-b7fb-c46c89f70c94","ios":"levelo://app?vid=1b3b4f69-657e-4463-b7fb-c46c89f70c94"},"vehicle_type_id":"4","last_reported":1742738855,"current_range_meters":3600,"station_id":"","pricing_plan_id":"cebpf4jnsgd1na2vs0mg"},{"bike_id":"8cdb03ed-cad4-4376-8aaa-b36d57b16a4c","system_id":"levelo_inurba_marseille","lat":43.24073,"lon":5.37757,"is_reserved":false,"is_disabled":false,"rental_uris":{"android":"levelo://app?vid=8cdb03ed-cad4-4376-8aaa-b36d57b16a4c","ios":"levelo://app?vid=8cdb03ed-cad4-4376-8aaa-b36d57b16a4c"},"vehicle_type_id":"4","last_reported":1742738855,"current_range_meters":3600,"station_id":"ce4bhnp2rcd13ifvqgvg","pricing_plan_id":"cebpf4jnsgd1na2vs0mg"},{"bike_id":"a78a9221-f047-461d-b0f4-ac17f9c68663","system_id":"levelo_inurba_marseille","lat":43.29037,"lon":5.39967,"is_reserved":false,"is_disabled":false,"rental_uris":{"android":"levelo://app?vid=a78a9221-f047-461d-b0f4-ac17f9c68663","ios":"levelo://app?vid=a78a9221-f047-461d-b0f4-ac17f9c68663"},"vehicle_type_id":"4","last_reported":1742738855,"current_range_meters":3200,"station_id":"ce4bh392rcd13ifvqdm0","pricing_plan_id":"cebpf4jnsgd1na2vs0mg"},{"bike_id":"21b1b337-bf74-43ab-85dc-eeab8a29ea28","system_id":"levelo_inurba_marseille","lat":43.31171,"lon":5.38721,"is_reserved":false,"is_disabled":false,"rental_uris":{"android":"levelo://app?vid=21b1b337-bf74-43ab-85dc-eeab8a29ea28","ios":"levelo://app?vid=21b1b337-bf74-43ab-85dc-eeab8a29ea28"},"vehicle_type_id":"4","last_reported":1742738855,"current_range_meters":3600,"station_id":"ce4bgv12rcd13ifvqcp0","pricing_plan_id":"cebpf4jnsgd1na2vs0mg"},{"bike_id":"342dd688-e46a-41de-bf02-6fe4c8056b17","system_id":"levelo_inurba_marseille","lat":43.29536,"lon":5.38547,"is_reserved":false,"is_disabled":false,"rental_uris":{"android":"levelo://app?vid=342dd688-e46a-41de-bf02-6fe4c8056b17","ios":"levelo://app?vid=342dd688-e46a-41de-bf02-6fe4c8056b17"},"vehicle_type_id":"4","last_reported":1742738855,"current_range_meters":3600,"station_id":"ce4bgih2rcd13ifvqba0","pricing_plan_id":"cebpf4jnsgd1na2vs0mg"},{"bike_id":"ddc6a720-69c0-4f7f-9c68-1190f54f1a4f","system_id":"levelo_inurba_marseille","lat":43.27326,"lon":5.39079,"is_reserved":false,"is_disabled":false,"rental_uris":{"android":"levelo://app?vid=ddc6a720-69c0-4f7f-9c68-1190f54f1a4f","ios":"levelo://app?vid=ddc6a720-69c0-4f7f-9c68-1190f54f1a4f"},"vehicle_type_id":"4","last_reported":1742738855,"current_range_meters":3600,"station_id":"ce4bhgp2rcd13ifvqfe0","pricing_plan_id":"cebpf4jnsgd1na2vs0mg"},{"bike_id":"3273f40d-d327-4a96-a10b-bb064e299908","system_id":"levelo_inurba_marseille","lat":43.33076,"lon":5.40816,"is_reserved":false,"is_disabled":false,"rental_uris":{"android":"levelo://app?vid=3273f40d-d327-4a96-a10b-bb064e299908","ios":"levelo://app?vid=3273f40d-d327-4a96-a10b-bb064e299908"},"vehicle_type_id":"4","last_reported":1742738855,"current_range_meters":3600,"station_id":"","pricing_plan_id":"cebpf4jnsgd1na2vs0mg"},{"bike_id":"0007fce5-562c-4dc0-afc3-21cf7828d9fe","system_id":"levelo_inurba_marseille","lat":43.30131,"lon":5.37411,"is_reserved":false,"is_disabled":false,"rental_uris":{"android":"levelo://app?vid=0007fce5-562c-4dc0-afc3-21cf7828d9fe","ios":"levelo://app?vid=0007fce5-562c-4dc0-afc3-21cf7828d9fe"},"vehicle_type_id":"4","last_reported":1742738855,"current_range_meters":4000,"station_id":"ce4bgs92rcd13ifvqcc0","pricing_plan_id":"cebpf4jnsgd1na2vs0mg"},{"bike_id":"08136bef-d287-4ec8-b536-7f29e9cba3c7","system_id":"levelo_inurba_marseille","lat":43.28001,"lon":5.40014,"is_reserved":false,"is_disabled":false,"rental_uris":{"android":"levelo://app?vid=08136bef-d287-4ec8-b536-7f29e9cba3c7","ios":"levelo://app?vid=08136bef-d287-4ec8-b536-7f29e9cba3c7"},"vehicle_type_id":"4","last_reported":1742738855,"current_range_meters":4000,"station_id":"ce4bho92rcd13ifvqh4g","pricing_plan_id":"cebpf4jnsgd1na2vs0mg"},{"bike_id":"1575595a-e87a-4430-93fe-1c21776408b3","system_id":"levelo_inurba_marseille","lat":43.29852,"lon":5.36292,"is_reserved":false,"is_disabled":false,"rental_uris":{"android":"levelo://app?vid=1575595a-e87a-4430-93fe-1c21776408b3","ios":"levelo://app?vid=1575595a-e87a-4430-93fe-1c21776408b3"},"vehicle_type_id":"4","last_reported":1742738855,"current_range_meters":4400,"station_id":"ce4bgpp2rcd13ifvqc3g","pricing_plan_id":"cebpf4jnsgd1na2vs0mg"},{"bike_id":"a94b1726-4ccb-4cfe-9cea-cc1f00f65873","system_id":"levelo_inurba_marseille","lat":43.28619,"lon":5.35114,"is_reserved":false,"is_disabled":false,"rental_uris":{"android":"levelo://app?vid=a94b1726-4ccb-4cfe-9cea-cc1f00f65873","ios":"levelo://app?vid=a94b1726-4ccb-4cfe-9cea-cc1f00f65873"},"vehicle_type_id":"4","last_reported":1742738855,"current_range_meters":4400,"station_id":"ce4bhch2rcd13ifvqeug","pricing_plan_id":"cebpf4jnsgd1na2vs0mg"},{"bike_id":"df021de5-590a-4a63-a9fa-2a81b7e844aa","system_id":"levelo_inurba_marseille","lat":43.26194,"lon":5.37914,"is_reserved":false,"is_disabled":false,"rental_uris":{"android":"levelo://app?vid=df021de5-590a-4a63-a9fa-2a81b7e844aa","ios":"levelo://app?vid=df021de5-590a-4a63-a9fa-2a81b7e844aa"},"vehicle_type_id":"4","last_reported":1742738855,"current_range_meters":4400,"station_id":"ce4bhjp2rcd13ifvqg90","pricing_plan_id":"cebpf4jnsgd1na2vs0mg"},{"bike_id":"662e9bb6-0ff5-4177-895c-9377852088ee","system_id":"levelo_inurba_marseille","lat":43.30889,"lon":5.37194,"is_reserved":false,"is_disabled":false,"rental_uris":{"android":"levelo://app?vid=662e9bb6-0ff5-4177-895c-9377852088ee","ios":"levelo://app?vid=662e9bb6-0ff5-4177-895c-9377852088ee"},"vehicle_type_id":"4","last_reported":1742738855,"current_range_meters":4400,"station_id":"ce4bguh2rcd13ifvqckg","pricing_plan_id":"cebpf4jnsgd1na2vs0mg"},{"bike_id":"216f3f8b-ece3-4151-8782-c32729f33ad9","system_id":"levelo_inurba_marseille","lat":43.27814,"lon":5.40723,"is_reserved":false,"is_disabled":false,"rental_uris":{"android":"levelo://app?vid=216f3f8b-ece3-4151-8782-c32729f33ad9","ios":"levelo://app?vid=216f3f8b-ece3-4151-8782-c32729f33ad9"},"vehicle_type_id":"4","last_reported":1742738855,"current_range_meters":4800,"station_id":"ce4bhnh2rcd13ifvqgtg","pricing_plan_id":"cebpf4jnsgd1na2vs0mg"},{"bike_id":"d7ecf0b7-2430-4e23-a8c3-92233081769e","system_id":"levelo_inurba_marseille","lat":43.2407,"lon":5.3775,"is_reserved":false,"is_disabled":false,"rental_uris":{"android":"levelo://app?vid=d7ecf0b7-2430-4e23-a8c3-92233081769e","ios":"levelo://app?vid=d7ecf0b7-2430-4e23-a8c3-92233081769e"},"vehicle_type_id":"4","last_reported":1742738855,"current_range_meters":4800,"station_id":"ce4bhnp2rcd13ifvqgvg","pricing_plan_id":"cebpf4jnsgd1na2vs0mg"},{"bike_id":"fe239f3d-5c83-42bd-8b99-e0b3f3784fb5","system_id":"levelo_inurba_marseille","lat":43.24614,"lon":5.38394,"is_reserved":false,"is_disabled":false,"rental_uris":{"android":"levelo://app?vid=fe239f3d-5c83-42bd-8b99-e0b3f3784fb5","ios":"levelo://app?vid=fe239f3d-5c83-42bd-8b99-e0b3f3784fb5"},"vehicle_type_id":"4","last_reported":1742738855,"current_range_meters":4800,"station_id":"","pricing_plan_id":"cebpf4jnsgd1na2vs0mg"},{"bike_id":"ce8c8822-d10f-4d35-8b9b-78f765bd1673","system_id":"levelo_inurba_marseille","lat":43.30636,"lon":5.40094,"is_reserved":false,"is_disabled":false,"rental_uris":{"android":"levelo://app?vid=ce8c8822-d10f-4d35-8b9b-78f765bd1673","ios":"levelo://app?vid=ce8c8822-d10f-4d35-8b9b-78f765bd1673"},"vehicle_type_id":"4","last_reported":1742738855,"current_range_meters":5600,"station_id":"ce4bh112rcd13ifvqda0","pricing_plan_id":"cebpf4jnsgd1na2vs0mg"},{"bike_id":"3c2a7dcf-f6cd-4a5b-ac2d-0c447364948d","system_id":"levelo_inurba_marseille","lat":43.314629,"lon":5.373731,"is_reserved":false,"is_disabled":false,"rental_uris":{"android":"levelo://app?vid=3c2a7dcf-f6cd-4a5b-ac2d-0c447364948d","ios":"levelo://app?vid=3c2a7dcf-f6cd-4a5b-ac2d-0c447364948d"},"vehicle_type_id":"4","last_reported":1742738855,"current_range_meters":5600,"station_id":"","pricing_plan_id":"cebpf4jnsgd1na2vs0mg"},{"bike_id":"ac889ad3-2e26-4ae5-9ba6-4fa04f0c5f81","system_id":"levelo_inurba_marseille","lat":43.2465,"lon":5.38897,"is_reserved":false,"is_disabled":false,"rental_uris":{"android":"levelo://app?vid=ac889ad3-2e26-4ae5-9ba6-4fa04f0c5f81","ios":"levelo://app?vid=ac889ad3-2e26-4ae5-9ba6-4fa04f0c5f81"},"vehicle_type_id":"4","last_reported":1742738855,"current_range_meters":5600,"station_id":"ce4bhg12rcd13ifvqf60","pricing_plan_id":"cebpf4jnsgd1na2vs0mg"},{"bike_id":"38a12be0-fd89-40c4-b0e6-9ad3a26315f5","system_id":"levelo_inurba_marseille","lat":43.25115,"lon":5.40322,"is_reserved":false,"is_disabled":false,"rental_uris":{"android":"levelo://app?vid=38a12be0-fd89-40c4-b0e6-9ad3a26315f5","ios":"levelo://app?vid=38a12be0-fd89-40c4-b0e6-9ad3a26315f5"},"vehicle_type_id":"4","last_reported":1742738855,"current_range_meters":5600,"station_id":"ce4bhlh2rcd13ifvqgig","pricing_plan_id":"cebpf4jnsgd1na2vs0mg"},{"bike_id":"aef92dcc-48b5-458a-8829-a4af718b3750","system_id":"levelo_inurba_marseille","lat":43.30526,"lon":5.36504,"is_reserved":false,"is_disabled":false,"rental_uris":{"android":"levelo://app?vid=aef92dcc-48b5-458a-8829-a4af718b3750","ios":"levelo://app?vid=aef92dcc-48b5-458a-8829-a4af718b3750"},"vehicle_type_id":"4","last_reported":1742738855,"current_range_meters":5600,"station_id":"","pricing_plan_id":"cebpf4jnsgd1na2vs0mg"},{"bike_id":"7e404fa5-832e-4d88-b0ef-daf6b7a55ef5","system_id":"levelo_inurba_marseille","lat":43.26215,"lon":5.37446,"is_reserved":false,"is_disabled":false,"rental_uris":{"android":"levelo://app?vid=7e404fa5-832e-4d88-b0ef-daf6b7a55ef5","ios":"levelo://app?vid=7e404fa5-832e-4d88-b0ef-daf6b7a55ef5"},"vehicle_type_id":"4","last_reported":1742738855,"current_range_meters":6000,"station_id":"ce4bhgp2rcd13ifvqfc0","pricing_plan_id":"cebpf4jnsgd1na2vs0mg"},{"bike_id":"bc907f4e-ac90-452e-a1ba-80955e0ca732","system_id":"levelo_inurba_marseille","lat":43.292572,"lon":5.376329,"is_reserved":false,"is_disabled":false,"rental_uris":{"android":"levelo://app?vid=bc907f4e-ac90-452e-a1ba-80955e0ca732","ios":"levelo://app?vid=bc907f4e-ac90-452e-a1ba-80955e0ca732"},"vehicle_type_id":"4","last_reported":1742738855,"current_range_meters":6000,"station_id":"ce4bha92rcd13ifvqeg0","pricing_plan_id":"cebpf4jnsgd1na2vs0mg"},{"bike_id":"3bc17e9f-c28e-42ac-ab2f-a661d914a8b7","system_id":"levelo_inurba_marseille","lat":43.2508,"lon":5.39522,"is_reserved":false,"is_disabled":true,"rental_uris":{"android":"levelo://app?vid=3bc17e9f-c28e-42ac-ab2f-a661d914a8b7","ios":"levelo://app?vid=3bc17e9f-c28e-42ac-ab2f-a661d914a8b7"},"vehicle_type_id":"4","last_reported":1742738855,"current_range_meters":6000,"station_id":"ce4bhm12rcd13ifvqgkg","pricing_plan_id":"cebpf4jnsgd1na2vs0mg"},{"bike_id":"3e88036a-1e50-485b-b747-3a809a18f1c4","system_id":"levelo_inurba_marseille","lat":43.31695,"lon":5.40475,"is_reserved":false,"is_disabled":false,"rental_uris":{"android":"levelo://app?vid=3e88036a-1e50-485b-b747-3a809a18f1c4","ios":"levelo://app?vid=3e88036a-1e50-485b-b747-3a809a18f1c4"},"vehicle_type_id":"4","last_reported":1742738855,"current_range_meters":5600,"station_id":"ce4bh012rcd13ifvqd00","pricing_plan_id":"cebpf4jnsgd1na2vs0mg"},{"bike_id":"e80b4b21-4839-45ff-8dfa-11e581a59564","system_id":"levelo_inurba_marseille","lat":43.28613,"lon":5.35104,"is_reserved":false,"is_disabled":false,"rental_uris":{"android":"levelo://app?vid=e80b4b21-4839-45ff-8dfa-11e581a59564","ios":"levelo://app?vid=e80b4b21-4839-45ff-8dfa-11e581a59564"},"vehicle_type_id":"4","last_reported":1742738855,"current_range_meters":6400,"station_id":"ce4bhch2rcd13ifvqeug","pricing_plan_id":"cebpf4jnsgd1na2vs0mg"},{"bike_id":"4e23f8a9-8f41-411b-aa19-80b2f725f3a0","system_id":"levelo_inurba_marseille","lat":43.2862,"lon":5.35108,"is_reserved":false,"is_disabled":true,"rental_uris":{"android":"levelo://app?vid=4e23f8a9-8f41-411b-aa19-80b2f725f3a0","ios":"levelo://app?vid=4e23f8a9-8f41-411b-aa19-80b2f725f3a0"},"vehicle_type_id":"4","last_reported":1742738855,"current_range_meters":6400,"station_id":"ce4bhch2rcd13ifvqeug","pricing_plan_id":"cebpf4jnsgd1na2vs0mg"},{"bike_id":"74bb9572-0fc1-4998-84f5-f2f755f6d3bc","system_id":"levelo_inurba_marseille","lat":43.28076,"lon":5.3964,"is_reserved":false,"is_disabled":false,"rental_uris":{"android":"levelo://app?vid=74bb9572-0fc1-4998-84f5-f2f755f6d3bc","ios":"levelo://app?vid=74bb9572-0fc1-4998-84f5-f2f755f6d3bc"},"vehicle_type_id":"4","last_reported":1742738855,"current_range_meters":6400,"station_id":"ce4bho12rcd13ifvqh2g","pricing_plan_id":"cebpf4jnsgd1na2vs0mg"},{"bike_id":"a87d9a78-6c0d-423b-ac9d-0b9a179a344f","system_id":"levelo_inurba_marseille","lat":43.29508,"lon":5.36391,"is_reserved":false,"is_disabled":false,"rental_uris":{"android":"levelo://app?vid=a87d9a78-6c0d-423b-ac9d-0b9a179a344f","ios":"levelo://app?vid=a87d9a78-6c0d-423b-ac9d-0b9a179a344f"},"vehicle_type_id":"4","last_reported":1742738855,"current_range_meters":6800,"station_id":"","pricing_plan_id":"cebpf4jnsgd1na2vs0mg"},{"bike_id":"c9d7970d-038c-4e5f-9a35-46c9ff801e9c","system_id":"levelo_inurba_marseille","lat":43.278348,"lon":5.391862,"is_reserved":false,"is_disabled":false,"rental_uris":{"android":"levelo://app?vid=c9d7970d-038c-4e5f-9a35-46c9ff801e9c","ios":"levelo://app?vid=c9d7970d-038c-4e5f-9a35-46c9ff801e9c"},"vehicle_type_id":"4","last_reported":1742738855,"current_range_meters":6000,"station_id":"ce4bhjp2rcd13ifvqga0","pricing_plan_id":"cebpf4jnsgd1na2vs0mg"},{"bike_id":"45a0fc63-a3f3-458b-b5fb-651264b4410a","system_id":"levelo_inurba_marseille","lat":43.31369,"lon":5.38493,"is_reserved":false,"is_disabled":false,"rental_uris":{"android":"levelo://app?vid=45a0fc63-a3f3-458b-b5fb-651264b4410a","ios":"levelo://app?vid=45a0fc63-a3f3-458b-b5fb-651264b4410a"},"vehicle_type_id":"4","last_reported":1742738855,"current_range_meters":6000,"station_id":"ce4bgt92rcd13ifvqcf0","pricing_plan_id":"cebpf4jnsgd1na2vs0mg"},{"bike_id":"5a79d095-34a6-4b73-b152-1e70b8b81fa2","system_id":"levelo_inurba_marseille","lat":43.24547,"lon":5.39532,"is_reserved":false,"is_disabled":false,"rental_uris":{"android":"levelo://app?vid=5a79d095-34a6-4b73-b152-1e70b8b81fa2","ios":"levelo://app?vid=5a79d095-34a6-4b73-b152-1e70b8b81fa2"},"vehicle_type_id":"4","last_reported":1742738855,"current_range_meters":6800,"station_id":"ce4bhlp2rcd13ifvqgjg","pricing_plan_id":"cebpf4jnsgd1na2vs0mg"},{"bike_id":"0b69ec7a-ecb3-4d15-8556-06ba54e1d10e","system_id":"levelo_inurba_marseille","lat":43.29303,"lon":5.37163,"is_reserved":false,"is_disabled":false,"rental_uris":{"android":"levelo://app?vid=0b69ec7a-ecb3-4d15-8556-06ba54e1d10e","ios":"levelo://app?vid=0b69ec7a-ecb3-4d15-8556-06ba54e1d10e"},"vehicle_type_id":"4","last_reported":1742738855,"current_range_meters":6800,"station_id":"ce4bgh92rcd13ifvqb40","pricing_plan_id":"cebpf4jnsgd1na2vs0mg"},{"bike_id":"732bf599-2547-4911-86e6-14671e71beed","system_id":"levelo_inurba_marseille","lat":43.2944,"lon":5.39755,"is_reserved":false,"is_disabled":false,"rental_uris":{"android":"levelo://app?vid=732bf599-2547-4911-86e6-14671e71beed","ios":"levelo://app?vid=732bf599-2547-4911-86e6-14671e71beed"},"vehicle_type_id":"4","last_reported":1742738855,"current_range_meters":6400,"station_id":"ce4bh3h2rcd13ifvqdo0","pricing_plan_id":"cebpf4jnsgd1na2vs0mg"},{"bike_id":"cdf950a8-184a-4a77-b81c-94c38e94d157","system_id":"levelo_inurba_marseille","lat":43.29682,"lon":5.37712,"is_reserved":false,"is_disabled":true,"rental_uris":{"android":"levelo://app?vid=cdf950a8-184a-4a77-b81c-94c38e94d157","ios":"levelo://app?vid=cdf950a8-184a-4a77-b81c-94c38e94d157"},"vehicle_type_id":"4","last_reported":1742738855,"current_range_meters":6800,"station_id":"ce4bgkh2rcd13ifvqbl0","pricing_plan_id":"cebpf4jnsgd1na2vs0mg"},{"bike_id":"8b81648b-0873-4b47-9003-8a6163ffe912","system_id":"levelo_inurba_marseille","lat":43.28424,"lon":5.35,"is_reserved":false,"is_disabled":false,"rental_uris":{"android":"levelo://app?vid=8b81648b-0873-4b47-9003-8a6163ffe912","ios":"levelo://app?vid=8b81648b-0873-4b47-9003-8a6163ffe912"},"vehicle_type_id":"4","last_reported":1742738855,"current_range_meters":7200,"station_id":"ce4bhbh2rcd13ifvqepg","pricing_plan_id":"cebpf4jnsgd1na2vs0mg"},{"bike_id":"a7905089-1e42-49b2-bd42-03f8876cfe2a","system_id":"levelo_inurba_marseille","lat":43.30373,"lon":5.42489,"is_reserved":false,"is_disabled":false,"rental_uris":{"android":"levelo://app?vid=a7905089-1e42-49b2-bd42-03f8876cfe2a","ios":"levelo://app?vid=a7905089-1e42-49b2-bd42-03f8876cfe2a"},"vehicle_type_id":"4","last_reported":1742738855,"current_range_meters":7200,"station_id":"ce4bhoh2rcd13ifvqh6g","pricing_plan_id":"cebpf4jnsgd1na2vs0mg"},{"bike_id":"4bbee01b-80b4-497e-86e8-8fce287c4265","system_id":"levelo_inurba_marseille","lat":43.262025,"lon":5.379345,"is_reserved":false,"is_disabled":false,"rental_uris":{"android":"levelo://app?vid=4bbee01b-80b4-497e-86e8-8fce287c4265","ios":"levelo://app?vid=4bbee01b-80b4-497e-86e8-8fce287c4265"},"vehicle_type_id":"4","last_reported":1742738855,"current_range_meters":7200,"station_id":"ce4bhjp2rcd13ifvqg90","pricing_plan_id":"cebpf4jnsgd1na2vs0mg"},{"bike_id":"20224949-f8b0-49c5-b0a3-76e018407169","system_id":"levelo_inurba_marseille","lat":43.27179,"lon":5.39192,"is_reserved":false,"is_disabled":false,"rental_uris":{"android":"levelo://app?vid=20224949-f8b0-49c5-b0a3-76e018407169","ios":"levelo://app?vid=20224949-f8b0-49c5-b0a3-76e018407169"},"vehicle_type_id":"4","last_reported":1742738855,"current_range_meters":7200,"station_id":"ce4bhhp2rcd13ifvqfm0","pricing_plan_id":"cebpf4jnsgd1na2vs0mg"},{"bike_id":"76a73682-e507-4679-ae6f-2820ae7d19f0","system_id":"levelo_inurba_marseille","lat":43.3171,"lon":5.40471,"is_reserved":false,"is_disabled":false,"rental_uris":{"android":"levelo://app?vid=76a73682-e507-4679-ae6f-2820ae7d19f0","ios":"levelo://app?vid=76a73682-e507-4679-ae6f-2820ae7d19f0"},"vehicle_type_id":"4","last_reported":1742738855,"current_range_meters":7200,"station_id":"ce4bh012rcd13ifvqd00","pricing_plan_id":"cebpf4jnsgd1na2vs0mg"},{"bike_id":"c102df47-1a69-4d31-b8be-1bcca189eb57","system_id":"levelo_inurba_marseille","lat":43.31691,"lon":5.37435,"is_reserved":false,"is_disabled":false,"rental_uris":{"android":"levelo://app?vid=c102df47-1a69-4d31-b8be-1bcca189eb57","ios":"levelo://app?vid=c102df47-1a69-4d31-b8be-1bcca189eb57"},"vehicle_type_id":"4","last_reported":1742738855,"current_range_meters":7200,"station_id":"","pricing_plan_id":"cebpf4jnsgd1na2vs0mg"},{"bike_id":"dc0b5eb4-361e-4785-b0b9-f3eefce109c0","system_id":"levelo_inurba_marseille","lat":43.28421,"lon":5.34989,"is_reserved":false,"is_disabled":false,"rental_uris":{"android":"levelo://app?vid=dc0b5eb4-361e-4785-b0b9-f3eefce109c0","ios":"levelo://app?vid=dc0b5eb4-361e-4785-b0b9-f3eefce109c0"},"vehicle_type_id":"4","last_reported":1742738855,"current_range_meters":7200,"station_id":"ce4bhbh2rcd13ifvqepg","pricing_plan_id":"cebpf4jnsgd1na2vs0mg"},{"bike_id":"1df0b3b2-8b10-4d59-a49f-c6ab72341a39","system_id":"levelo_inurba_marseille","lat":43.23052,"lon":5.35494,"is_reserved":false,"is_disabled":false,"rental_uris":{"android":"levelo://app?vid=1df0b3b2-8b10-4d59-a49f-c6ab72341a39","ios":"levelo://app?vid=1df0b3b2-8b10-4d59-a49f-c6ab72341a39"},"vehicle_type_id":"4","last_reported":1742738855,"current_range_meters":7200,"station_id":"cpo3342slgdg3j2ifvpg","pricing_plan_id":"cebpf4jnsgd1na2vs0mg"},{"bike_id":"0d3b5ada-58d5-4d28-acd2-731d8d46df13","system_id":"levelo_inurba_marseille","lat":43.3064,"lon":5.40094,"is_reserved":false,"is_disabled":false,"rental_uris":{"android":"levelo://app?vid=0d3b5ada-58d5-4d28-acd2-731d8d46df13","ios":"levelo://app?vid=0d3b5ada-58d5-4d28-acd2-731d8d46df13"},"vehicle_type_id":"4","last_reported":1742738855,"current_range_meters":7200,"station_id":"ce4bh112rcd13ifvqda0","pricing_plan_id":"cebpf4jnsgd1na2vs0mg"},{"bike_id":"27e69dc3-f489-40ab-9e43-a4775025f0c0","system_id":"levelo_inurba_marseille","lat":43.32557,"lon":5.41442,"is_reserved":false,"is_disabled":false,"rental_uris":{"android":"levelo://app?vid=27e69dc3-f489-40ab-9e43-a4775025f0c0","ios":"levelo://app?vid=27e69dc3-f489-40ab-9e43-a4775025f0c0"},"vehicle_type_id":"4","last_reported":1742738855,"current_range_meters":7200,"station_id":"ce4bhq12rcd13ifvqhhg","pricing_plan_id":"cebpf4jnsgd1na2vs0mg"},{"bike_id":"2b8a2544-6fe0-430f-a4c9-2d72f1cb5fad","system_id":"levelo_inurba_marseille","lat":43.26795,"lon":5.39414,"is_reserved":false,"is_disabled":false,"rental_uris":{"android":"levelo://app?vid=2b8a2544-6fe0-430f-a4c9-2d72f1cb5fad","ios":"levelo://app?vid=2b8a2544-6fe0-430f-a4c9-2d72f1cb5fad"},"vehicle_type_id":"4","last_reported":1742738855,"current_range_meters":6800,"station_id":"ce4bhh12rcd13ifvqfg0","pricing_plan_id":"cebpf4jnsgd1na2vs0mg"},{"bike_id":"040f3bf0-bc9b-4bc1-8565-1964eb7156d5","system_id":"levelo_inurba_marseille","lat":43.29453,"lon":5.38505,"is_reserved":false,"is_disabled":false,"rental_uris":{"android":"levelo://app?vid=040f3bf0-bc9b-4bc1-8565-1964eb7156d5","ios":"levelo://app?vid=040f3bf0-bc9b-4bc1-8565-1964eb7156d5"},"vehicle_type_id":"4","last_reported":1742738855,"current_range_meters":8000,"station_id":"","pricing_plan_id":"cebpf4jnsgd1na2vs0mg"},{"bike_id":"bba45793-5e94-4926-90cc-5c285c76c11e","system_id":"levelo_inurba_marseille","lat":43.23156,"lon":5.43708,"is_reserved":false,"is_disabled":false,"rental_uris":{"android":"levelo://app?vid=bba45793-5e94-4926-90cc-5c285c76c11e","ios":"levelo://app?vid=bba45793-5e94-4926-90cc-5c285c76c11e"},"vehicle_type_id":"4","last_reported":1742738855,"current_range_meters":8000,"station_id":"ce4bhmp2rcd13ifvqgog","pricing_plan_id":"cebpf4jnsgd1na2vs0mg"},{"bike_id":"7dff0d61-f3b4-42de-8e95-a63f03cbc4f6","system_id":"levelo_inurba_marseille","lat":43.3137,"lon":5.38498,"is_reserved":false,"is_disabled":false,"rental_uris":{"android":"levelo://app?vid=7dff0d61-f3b4-42de-8e95-a63f03cbc4f6","ios":"levelo://app?vid=7dff0d61-f3b4-42de-8e95-a63f03cbc4f6"},"vehicle_type_id":"4","last_reported":1742738855,"current_range_meters":8000,"station_id":"ce4bgt92rcd13ifvqcf0","pricing_plan_id":"cebpf4jnsgd1na2vs0mg"},{"bike_id":"e801530f-8d62-488b-88cd-2671fa7f5703","system_id":"levelo_inurba_marseille","lat":43.29517,"lon":5.37509,"is_reserved":false,"is_disabled":false,"rental_uris":{"android":"levelo://app?vid=e801530f-8d62-488b-88cd-2671fa7f5703","ios":"levelo://app?vid=e801530f-8d62-488b-88cd-2671fa7f5703"},"vehicle_type_id":"4","last_reported":1742738855,"current_range_meters":8000,"station_id":"ce4bgkp2rcd13ifvqbmg","pricing_plan_id":"cebpf4jnsgd1na2vs0mg"},{"bike_id":"9a036443-4b23-4c99-ab88-c3479ce1ab91","system_id":"levelo_inurba_marseille","lat":43.32367,"lon":5.38892,"is_reserved":false,"is_disabled":false,"rental_uris":{"android":"levelo://app?vid=9a036443-4b23-4c99-ab88-c3479ce1ab91","ios":"levelo://app?vid=9a036443-4b23-4c99-ab88-c3479ce1ab91"},"vehicle_type_id":"4","last_reported":1742738855,"current_range_meters":8000,"station_id":"ce4bhqp2rcd13ifvqhog","pricing_plan_id":"cebpf4jnsgd1na2vs0mg"},{"bike_id":"acf2f818-cf94-483f-ae97-2400f0cb8bb8","system_id":"levelo_inurba_marseille","lat":43.28347,"lon":5.38117,"is_reserved":false,"is_disabled":false,"rental_uris":{"android":"levelo://app?vid=acf2f818-cf94-483f-ae97-2400f0cb8bb8","ios":"levelo://app?vid=acf2f818-cf94-483f-ae97-2400f0cb8bb8"},"vehicle_type_id":"4","last_reported":1742738855,"current_range_meters":8000,"station_id":"ce4bh412rcd13ifvqdr0","pricing_plan_id":"cebpf4jnsgd1na2vs0mg"},{"bike_id":"5d4cc92c-eafe-478c-8820-ef016b1e9d02","system_id":"levelo_inurba_marseille","lat":43.29882,"lon":5.43657,"is_reserved":false,"is_disabled":false,"rental_uris":{"android":"levelo://app?vid=5d4cc92c-eafe-478c-8820-ef016b1e9d02","ios":"levelo://app?vid=5d4cc92c-eafe-478c-8820-ef016b1e9d02"},"vehicle_type_id":"4","last_reported":1742738855,"current_range_meters":8000,"station_id":"ce4bhpp2rcd13ifvqhfg","pricing_plan_id":"cebpf4jnsgd1na2vs0mg"},{"bike_id":"3f3f99da-6673-441e-a5b3-6857219a400e","system_id":"levelo_inurba_marseille","lat":43.25009,"lon":5.38925,"is_reserved":false,"is_disabled":false,"rental_uris":{"android":"levelo://app?vid=3f3f99da-6673-441e-a5b3-6857219a400e","ios":"levelo://app?vid=3f3f99da-6673-441e-a5b3-6857219a400e"},"vehicle_type_id":"4","last_reported":1742738855,"current_range_meters":8000,"station_id":"ce4bhgp2rcd13ifvqfd0","pricing_plan_id":"cebpf4jnsgd1na2vs0mg"},{"bike_id":"014cf003-1505-49cd-ba72-06250a2191ab","system_id":"levelo_inurba_marseille","lat":43.2305,"lon":5.35506,"is_reserved":false,"is_disabled":false,"rental_uris":{"android":"levelo://app?vid=014cf003-1505-49cd-ba72-06250a2191ab","ios":"levelo://app?vid=014cf003-1505-49cd-ba72-06250a2191ab"},"vehicle_type_id":"4","last_reported":1742738855,"current_range_meters":8000,"station_id":"cpo3342slgdg3j2ifvpg","pricing_plan_id":"cebpf4jnsgd1na2vs0mg"},{"bike_id":"8ed1ac19-a2dd-4532-af16-423d1df5a6d4","system_id":"levelo_inurba_marseille","lat":43.23124,"lon":5.4139,"is_reserved":false,"is_disabled":false,"rental_uris":{"android":"levelo://app?vid=8ed1ac19-a2dd-4532-af16-423d1df5a6d4","ios":"levelo://app?vid=8ed1ac19-a2dd-4532-af16-423d1df5a6d4"},"vehicle_type_id":"4","last_reported":1742738855,"current_range_meters":8000,"station_id":"","pricing_plan_id":"cebpf4jnsgd1na2vs0mg"},{"bike_id":"768ca5e6-f1bb-42f2-ac3f-2632b474747d","system_id":"levelo_inurba_marseille","lat":43.258261,"lon":5.394429,"is_reserved":false,"is_disabled":false,"rental_uris":{"android":"levelo://app?vid=768ca5e6-f1bb-42f2-ac3f-2632b474747d","ios":"levelo://app?vid=768ca5e6-f1bb-42f2-ac3f-2632b474747d"},"vehicle_type_id":"4","last_reported":1742738855,"current_range_meters":8000,"station_id":"ce4bhip2rcd13ifvqft0","pricing_plan_id":"cebpf4jnsgd1na2vs0mg"},{"bike_id":"f52f1403-e5ef-4f15-816b-2ba1cd83754e","system_id":"levelo_inurba_marseille","lat":43.32616,"lon":5.36403,"is_reserved":false,"is_disabled":false,"rental_uris":{"android":"levelo://app?vid=f52f1403-e5ef-4f15-816b-2ba1cd83754e","ios":"levelo://app?vid=f52f1403-e5ef-4f15-816b-2ba1cd83754e"},"vehicle_type_id":"4","last_reported":1742738855,"current_range_meters":8000,"station_id":"","pricing_plan_id":"cebpf4jnsgd1na2vs0mg"},{"bike_id":"d9782675-253a-48e7-9f6d-d7315cb9ae92","system_id":"levelo_inurba_marseille","lat":43.22927,"lon":5.35376,"is_reserved":false,"is_disabled":false,"rental_uris":{"android":"levelo://app?vid=d9782675-253a-48e7-9f6d-d7315cb9ae92","ios":"levelo://app?vid=d9782675-253a-48e7-9f6d-d7315cb9ae92"},"vehicle_type_id":"4","last_reported":1742738855,"current_range_meters":8400,"station_id":"cpo3532slgdg3j2ikp40","pricing_plan_id":"cebpf4jnsgd1na2vs0mg"},{"bike_id":"76408863-444a-48bb-867f-eb61761a4041","system_id":"levelo_inurba_marseille","lat":43.288628,"lon":5.358431,"is_reserved":false,"is_disabled":false,"rental_uris":{"android":"levelo://app?vid=76408863-444a-48bb-867f-eb61761a4041","ios":"levelo://app?vid=76408863-444a-48bb-867f-eb61761a4041"},"vehicle_type_id":"4","last_reported":1742738855,"current_range_meters":8400,"station_id":"ce4bhlh2rcd13ifvqgig","pricing_plan_id":"cebpf4jnsgd1na2vs0mg"},{"bike_id":"72503a27-a949-4a46-b139-c44d4f416a58","system_id":"levelo_inurba_marseille","lat":43.231964,"lon":5.355589,"is_reserved":false,"is_disabled":false,"rental_uris":{"android":"levelo://app?vid=72503a27-a949-4a46-b139-c44d4f416a58","ios":"levelo://app?vid=72503a27-a949-4a46-b139-c44d4f416a58"},"vehicle_type_id":"4","last_reported":1742738855,"current_range_meters":8400,"station_id":"ce4bhu92rcd13ifvqi70","pricing_plan_id":"cebpf4jnsgd1na2vs0mg"},{"bike_id":"f6c056a6-2322-4c01-af0a-8f6649999ef0","system_id":"levelo_inurba_marseille","lat":43.27565,"lon":5.38443,"is_reserved":false,"is_disabled":false,"rental_uris":{"android":"levelo://app?vid=f6c056a6-2322-4c01-af0a-8f6649999ef0","ios":"levelo://app?vid=f6c056a6-2322-4c01-af0a-8f6649999ef0"},"vehicle_type_id":"4","last_reported":1742738855,"current_range_meters":8400,"station_id":"ce4bhh92rcd13ifvqfi0","pricing_plan_id":"cebpf4jnsgd1na2vs0mg"},{"bike_id":"af79d276-6717-45bd-b84d-36ee0c480aeb","system_id":"levelo_inurba_marseille","lat":43.28158,"lon":5.4265,"is_reserved":false,"is_disabled":false,"rental_uris":{"android":"levelo://app?vid=af79d276-6717-45bd-b84d-36ee0c480aeb","ios":"levelo://app?vid=af79d276-6717-45bd-b84d-36ee0c480aeb"},"vehicle_type_id":"4","last_reported":1742738855,"current_range_meters":8400,"station_id":"ce4bhnh2rcd13ifvqgug","pricing_plan_id":"cebpf4jnsgd1na2vs0mg"},{"bike_id":"ea375b77-5265-4f10-98eb-8a594992fa8c","system_id":"levelo_inurba_marseille","lat":43.23073,"lon":5.35505,"is_reserved":false,"is_disabled":false,"rental_uris":{"android":"levelo://app?vid=ea375b77-5265-4f10-98eb-8a594992fa8c","ios":"levelo://app?vid=ea375b77-5265-4f10-98eb-8a594992fa8c"},"vehicle_type_id":"4","last_reported":1742738855,"current_range_meters":8400,"station_id":"cpo3342slgdg3j2ifvpg","pricing_plan_id":"cebpf4jnsgd1na2vs0mg"},{"bike_id":"23aae21a-1ee8-4544-a323-476ec541691a","system_id":"levelo_inurba_marseille","lat":43.23186,"lon":5.39982,"is_reserved":false,"is_disabled":false,"rental_uris":{"android":"levelo://app?vid=23aae21a-1ee8-4544-a323-476ec541691a","ios":"levelo://app?vid=23aae21a-1ee8-4544-a323-476ec541691a"},"vehicle_type_id":"4","last_reported":1742738855,"current_range_meters":8400,"station_id":"ce4bhn12rcd13ifvqgqg","pricing_plan_id":"cebpf4jnsgd1na2vs0mg"},{"bike_id":"9b469204-1d25-4894-b812-bcc7dda80cbd","system_id":"levelo_inurba_marseille","lat":43.278175,"lon":5.407095,"is_reserved":false,"is_disabled":false,"rental_uris":{"android":"levelo://app?vid=9b469204-1d25-4894-b812-bcc7dda80cbd","ios":"levelo://app?vid=9b469204-1d25-4894-b812-bcc7dda80cbd"},"vehicle_type_id":"4","last_reported":1742738855,"current_range_meters":8400,"station_id":"ce4bhnh2rcd13ifvqgtg","pricing_plan_id":"cebpf4jnsgd1na2vs0mg"},{"bike_id":"5de93a4e-8597-44d3-b79a-a868c09960fb","system_id":"levelo_inurba_marseille","lat":43.26206,"lon":5.37454,"is_reserved":false,"is_disabled":true,"rental_uris":{"android":"levelo://app?vid=5de93a4e-8597-44d3-b79a-a868c09960fb","ios":"levelo://app?vid=5de93a4e-8597-44d3-b79a-a868c09960fb"},"vehicle_type_id":"4","last_reported":1742738855,"current_range_meters":8400,"station_id":"ce4bhgp2rcd13ifvqfc0","pricing_plan_id":"cebpf4jnsgd1na2vs0mg"},{"bike_id":"525e076a-3225-46f1-acfc-cf966b12abdd","system_id":"levelo_inurba_marseille","lat":43.24662,"lon":5.38172,"is_reserved":false,"is_disabled":false,"rental_uris":{"android":"levelo://app?vid=525e076a-3225-46f1-acfc-cf966b12abdd","ios":"levelo://app?vid=525e076a-3225-46f1-acfc-cf966b12abdd"},"vehicle_type_id":"4","last_reported":1742738855,"current_range_meters":8400,"station_id":"ce4bhih2rcd13ifvqfr0","pricing_plan_id":"cebpf4jnsgd1na2vs0mg"},{"bike_id":"a1b77fbb-d2d1-462f-b414-955c0e5fe742","system_id":"levelo_inurba_marseille","lat":43.26214,"lon":5.37442,"is_reserved":false,"is_disabled":false,"rental_uris":{"android":"levelo://app?vid=a1b77fbb-d2d1-462f-b414-955c0e5fe742","ios":"levelo://app?vid=a1b77fbb-d2d1-462f-b414-955c0e5fe742"},"vehicle_type_id":"4","last_reported":1742738855,"current_range_meters":8400,"station_id":"ce4bhgp2rcd13ifvqfc0","pricing_plan_id":"cebpf4jnsgd1na2vs0mg"},{"bike_id":"d8d3275c-0e6e-4f78-92e3-0cf37611aba1","system_id":"levelo_inurba_marseille","lat":43.23147,"lon":5.43723,"is_reserved":false,"is_disabled":false,"rental_uris":{"android":"levelo://app?vid=d8d3275c-0e6e-4f78-92e3-0cf37611aba1","ios":"levelo://app?vid=d8d3275c-0e6e-4f78-92e3-0cf37611aba1"},"vehicle_type_id":"4","last_reported":1742738855,"current_range_meters":8800,"station_id":"ce4bhmp2rcd13ifvqgog","pricing_plan_id":"cebpf4jnsgd1na2vs0mg"},{"bike_id":"c9682881-2d5d-446f-98f8-ad15e25b6738","system_id":"levelo_inurba_marseille","lat":43.26787,"lon":5.39416,"is_reserved":false,"is_disabled":false,"rental_uris":{"android":"levelo://app?vid=c9682881-2d5d-446f-98f8-ad15e25b6738","ios":"levelo://app?vid=c9682881-2d5d-446f-98f8-ad15e25b6738"},"vehicle_type_id":"4","last_reported":1742738855,"current_range_meters":8800,"station_id":"ce4bhh12rcd13ifvqfg0","pricing_plan_id":"cebpf4jnsgd1na2vs0mg"},{"bike_id":"a7a9d68a-b527-472d-b45c-c1363e8def55","system_id":"levelo_inurba_marseille","lat":43.26215,"lon":5.37445,"is_reserved":false,"is_disabled":true,"rental_uris":{"android":"levelo://app?vid=a7a9d68a-b527-472d-b45c-c1363e8def55","ios":"levelo://app?vid=a7a9d68a-b527-472d-b45c-c1363e8def55"},"vehicle_type_id":"4","last_reported":1742738855,"current_range_meters":8800,"station_id":"ce4bhgp2rcd13ifvqfc0","pricing_plan_id":"cebpf4jnsgd1na2vs0mg"},{"bike_id":"3598e2fa-aea0-49e3-9a7f-8dcfedac3d2e","system_id":"levelo_inurba_marseille","lat":43.2971,"lon":5.37696,"is_reserved":false,"is_disabled":false,"rental_uris":{"android":"levelo://app?vid=3598e2fa-aea0-49e3-9a7f-8dcfedac3d2e","ios":"levelo://app?vid=3598e2fa-aea0-49e3-9a7f-8dcfedac3d2e"},"vehicle_type_id":"4","last_reported":1742738855,"current_range_meters":8800,"station_id":"ce4bgkh2rcd13ifvqbl0","pricing_plan_id":"cebpf4jnsgd1na2vs0mg"},{"bike_id":"a1f867cd-603b-4611-8a7e-fa5434f6be88","system_id":"levelo_inurba_marseille","lat":43.24338,"lon":5.37209,"is_reserved":false,"is_disabled":false,"rental_uris":{"android":"levelo://app?vid=a1f867cd-603b-4611-8a7e-fa5434f6be88","ios":"levelo://app?vid=a1f867cd-603b-4611-8a7e-fa5434f6be88"},"vehicle_type_id":"4","last_reported":1742738855,"current_range_meters":8800,"station_id":"ce4bhhh2rcd13ifvqfk0","pricing_plan_id":"cebpf4jnsgd1na2vs0mg"},{"bike_id":"ad263336-64b9-4f27-8f30-4a49fa7dcbf6","system_id":"levelo_inurba_marseille","lat":43.27635,"lon":5.42643,"is_reserved":false,"is_disabled":false,"rental_uris":{"android":"levelo://app?vid=ad263336-64b9-4f27-8f30-4a49fa7dcbf6","ios":"levelo://app?vid=ad263336-64b9-4f27-8f30-4a49fa7dcbf6"},"vehicle_type_id":"4","last_reported":1742738855,"current_range_meters":8800,"station_id":"","pricing_plan_id":"cebpf4jnsgd1na2vs0mg"},{"bike_id":"70e7b112-3e5f-474f-a658-c0c3a879725b","system_id":"levelo_inurba_marseille","lat":43.28412,"lon":5.34976,"is_reserved":false,"is_disabled":false,"rental_uris":{"android":"levelo://app?vid=70e7b112-3e5f-474f-a658-c0c3a879725b","ios":"levelo://app?vid=70e7b112-3e5f-474f-a658-c0c3a879725b"},"vehicle_type_id":"4","last_reported":1742738855,"current_range_meters":8800,"station_id":"ce4bhbh2rcd13ifvqepg","pricing_plan_id":"cebpf4jnsgd1na2vs0mg"},{"bike_id":"757e9d77-3e68-4058-adbb-ffeaa3762057","system_id":"levelo_inurba_marseille","lat":43.258039,"lon":5.410214,"is_reserved":false,"is_disabled":false,"rental_uris":{"android":"levelo://app?vid=757e9d77-3e68-4058-adbb-ffeaa3762057","ios":"levelo://app?vid=757e9d77-3e68-4058-adbb-ffeaa3762057"},"vehicle_type_id":"4","last_reported":1742738855,"current_range_meters":8400,"station_id":"ce4bhkp2rcd13ifvqgd0","pricing_plan_id":"cebpf4jnsgd1na2vs0mg"},{"bike_id":"329956a8-9735-4a92-a6e9-d86d39342f86","system_id":"levelo_inurba_marseille","lat":43.2903,"lon":5.38653,"is_reserved":false,"is_disabled":false,"rental_uris":{"android":"levelo://app?vid=329956a8-9735-4a92-a6e9-d86d39342f86","ios":"levelo://app?vid=329956a8-9735-4a92-a6e9-d86d39342f86"},"vehicle_type_id":"4","last_reported":1742738855,"current_range_meters":8800,"station_id":"ce4bh4p2rcd13ifvqe0g","pricing_plan_id":"cebpf4jnsgd1na2vs0mg"},{"bike_id":"72123cf2-9d2b-41b8-9bee-4f35b0be3549","system_id":"levelo_inurba_marseille","lat":43.2306,"lon":5.35491,"is_reserved":false,"is_disabled":true,"rental_uris":{"android":"levelo://app?vid=72123cf2-9d2b-41b8-9bee-4f35b0be3549","ios":"levelo://app?vid=72123cf2-9d2b-41b8-9bee-4f35b0be3549"},"vehicle_type_id":"4","last_reported":1742738855,"current_range_meters":8800,"station_id":"cpo3342slgdg3j2ifvpg","pricing_plan_id":"cebpf4jnsgd1na2vs0mg"},{"bike_id":"65b84453-2ebb-466f-aa59-9e0dd1fa6abb","system_id":"levelo_inurba_marseille","lat":43.26563,"lon":5.39016,"is_reserved":false,"is_disabled":false,"rental_uris":{"android":"levelo://app?vid=65b84453-2ebb-466f-aa59-9e0dd1fa6abb","ios":"levelo://app?vid=65b84453-2ebb-466f-aa59-9e0dd1fa6abb"},"vehicle_type_id":"4","last_reported":1742738855,"current_range_meters":8800,"station_id":"ce4bhe12rcd13ifvqf30","pricing_plan_id":"cebpf4jnsgd1na2vs0mg"},{"bike_id":"037e6ede-daec-42c4-b1a5-a4ddfe378bc9","system_id":"levelo_inurba_marseille","lat":43.28702,"lon":5.37944,"is_reserved":false,"is_disabled":true,"rental_uris":{"android":"levelo://app?vid=037e6ede-daec-42c4-b1a5-a4ddfe378bc9","ios":"levelo://app?vid=037e6ede-daec-42c4-b1a5-a4ddfe378bc9"},"vehicle_type_id":"4","last_reported":1742738855,"current_range_meters":9200,"station_id":"ce4bh9p2rcd13ifvqec0","pricing_plan_id":"cebpf4jnsgd1na2vs0mg"},{"bike_id":"787fb028-74e3-4ece-a600-b719e0014a09","system_id":"levelo_inurba_marseille","lat":43.24666,"lon":5.38141,"is_reserved":false,"is_disabled":false,"rental_uris":{"android":"levelo://app?vid=787fb028-74e3-4ece-a600-b719e0014a09","ios":"levelo://app?vid=787fb028-74e3-4ece-a600-b719e0014a09"},"vehicle_type_id":"4","last_reported":1742738855,"current_range_meters":9200,"station_id":"ce4bhih2rcd13ifvqfr0","pricing_plan_id":"cebpf4jnsgd1na2vs0mg"},{"bike_id":"3356c097-9f5c-498d-9ff6-a46abc5682f9","system_id":"levelo_inurba_marseille","lat":43.2396,"lon":5.36653,"is_reserved":false,"is_disabled":false,"rental_uris":{"android":"levelo://app?vid=3356c097-9f5c-498d-9ff6-a46abc5682f9","ios":"levelo://app?vid=3356c097-9f5c-498d-9ff6-a46abc5682f9"},"vehicle_type_id":"4","last_reported":1742738855,"current_range_meters":9200,"station_id":"ce4bhi12rcd13ifvqfp0","pricing_plan_id":"cebpf4jnsgd1na2vs0mg"},{"bike_id":"9970402a-8a2d-496c-b7c7-073b8ddd9a2d","system_id":"levelo_inurba_marseille","lat":43.2861,"lon":5.35115,"is_reserved":false,"is_disabled":false,"rental_uris":{"android":"levelo://app?vid=9970402a-8a2d-496c-b7c7-073b8ddd9a2d","ios":"levelo://app?vid=9970402a-8a2d-496c-b7c7-073b8ddd9a2d"},"vehicle_type_id":"4","last_reported":1742738855,"current_range_meters":9200,"station_id":"ce4bhch2rcd13ifvqeug","pricing_plan_id":"cebpf4jnsgd1na2vs0mg"},{"bike_id":"75239504-6411-4c5a-918c-ff12c7d01c06","system_id":"levelo_inurba_marseille","lat":43.27807,"lon":5.4069,"is_reserved":false,"is_disabled":false,"rental_uris":{"android":"levelo://app?vid=75239504-6411-4c5a-918c-ff12c7d01c06","ios":"levelo://app?vid=75239504-6411-4c5a-918c-ff12c7d01c06"},"vehicle_type_id":"4","last_reported":1742738855,"current_range_meters":9200,"station_id":"ce4bhnh2rcd13ifvqgtg","pricing_plan_id":"cebpf4jnsgd1na2vs0mg"},{"bike_id":"2032e81a-8d24-4036-9cc6-bf67698b8322","system_id":"levelo_inurba_marseille","lat":43.24175,"lon":5.39735,"is_reserved":false,"is_disabled":false,"rental_uris":{"android":"levelo://app?vid=2032e81a-8d24-4036-9cc6-bf67698b8322","ios":"levelo://app?vid=2032e81a-8d24-4036-9cc6-bf67698b8322"},"vehicle_type_id":"4","last_reported":1742738855,"current_range_meters":9200,"station_id":"ce4bhn12rcd13ifvqgpg","pricing_plan_id":"cebpf4jnsgd1na2vs0mg"},{"bike_id":"001fc69d-c2b9-495b-92b1-1cd8ed02c722","system_id":"levelo_inurba_marseille","lat":43.29009,"lon":5.38145,"is_reserved":false,"is_disabled":false,"rental_uris":{"android":"levelo://app?vid=001fc69d-c2b9-495b-92b1-1cd8ed02c722","ios":"levelo://app?vid=001fc69d-c2b9-495b-92b1-1cd8ed02c722"},"vehicle_type_id":"4","last_reported":1742738855,"current_range_meters":9200,"station_id":"ce4bh4p2rcd13ifvqe1g","pricing_plan_id":"cebpf4jnsgd1na2vs0mg"},{"bike_id":"d8db56db-4cb3-4526-bb21-59d863a38c2d","system_id":"levelo_inurba_marseille","lat":43.27621,"lon":5.3613,"is_reserved":false,"is_disabled":false,"rental_uris":{"android":"levelo://app?vid=d8db56db-4cb3-4526-bb21-59d863a38c2d","ios":"levelo://app?vid=d8db56db-4cb3-4526-bb21-59d863a38c2d"},"vehicle_type_id":"4","last_reported":1742738855,"current_range_meters":9200,"station_id":"ce4bgj92rcd13ifvqbe0","pricing_plan_id":"cebpf4jnsgd1na2vs0mg"},{"bike_id":"54ca4c5a-6508-4384-aa99-8a68b88e417b","system_id":"levelo_inurba_marseille","lat":43.260559,"lon":5.375421,"is_reserved":false,"is_disabled":false,"rental_uris":{"android":"levelo://app?vid=54ca4c5a-6508-4384-aa99-8a68b88e417b","ios":"levelo://app?vid=54ca4c5a-6508-4384-aa99-8a68b88e417b"},"vehicle_type_id":"4","last_reported":1742738855,"current_range_meters":9200,"station_id":"ce4bhgh2rcd13ifvqfa0","pricing_plan_id":"cebpf4jnsgd1na2vs0mg"},{"bike_id":"ce8e0a57-4459-4644-a5c3-b0626fd39aae","system_id":"levelo_inurba_marseille","lat":43.30156,"lon":5.37408,"is_reserved":false,"is_disabled":false,"rental_uris":{"android":"levelo://app?vid=ce8e0a57-4459-4644-a5c3-b0626fd39aae","ios":"levelo://app?vid=ce8e0a57-4459-4644-a5c3-b0626fd39aae"},"vehicle_type_id":"4","last_reported":1742738855,"current_range_meters":10000,"station_id":"ce4bgs92rcd13ifvqcc0","pricing_plan_id":"cebpf4jnsgd1na2vs0mg"},{"bike_id":"8e7e6ace-571f-4ac7-bf7d-8521113965ca","system_id":"levelo_inurba_marseille","lat":43.28857,"lon":5.35845,"is_reserved":false,"is_disabled":false,"rental_uris":{"android":"levelo://app?vid=8e7e6ace-571f-4ac7-bf7d-8521113965ca","ios":"levelo://app?vid=8e7e6ace-571f-4ac7-bf7d-8521113965ca"},"vehicle_type_id":"4","last_reported":1742738855,"current_range_meters":9600,"station_id":"ce4bhb12rcd13ifvqem0","pricing_plan_id":"cebpf4jnsgd1na2vs0mg"},{"bike_id":"5fa6422d-0048-4749-bd31-b3e431f37aa7","system_id":"levelo_inurba_marseille","lat":43.30135,"lon":5.37429,"is_reserved":false,"is_disabled":false,"rental_uris":{"android":"levelo://app?vid=5fa6422d-0048-4749-bd31-b3e431f37aa7","ios":"levelo://app?vid=5fa6422d-0048-4749-bd31-b3e431f37aa7"},"vehicle_type_id":"4","last_reported":1742738855,"current_range_meters":9600,"station_id":"","pricing_plan_id":"cebpf4jnsgd1na2vs0mg"},{"bike_id":"e53a0096-e4a9-4af5-b074-80e3827286ce","system_id":"levelo_inurba_marseille","lat":43.28488,"lon":5.38597,"is_reserved":false,"is_disabled":false,"rental_uris":{"android":"levelo://app?vid=e53a0096-e4a9-4af5-b074-80e3827286ce","ios":"levelo://app?vid=e53a0096-e4a9-4af5-b074-80e3827286ce"},"vehicle_type_id":"4","last_reported":1742738855,"current_range_meters":9600,"station_id":"ce4bh8p2rcd13ifvqeb0","pricing_plan_id":"cebpf4jnsgd1na2vs0mg"},{"bike_id":"7ac60f63-1efc-41c9-abc7-fafd587cbbf1","system_id":"levelo_inurba_marseille","lat":43.293215,"lon":5.370207,"is_reserved":false,"is_disabled":false,"rental_uris":{"android":"levelo://app?vid=7ac60f63-1efc-41c9-abc7-fafd587cbbf1","ios":"levelo://app?vid=7ac60f63-1efc-41c9-abc7-fafd587cbbf1"},"vehicle_type_id":"4","last_reported":1742738855,"current_range_meters":9200,"station_id":"ce4bgn92rcd13ifvqbvg","pricing_plan_id":"cebpf4jnsgd1na2vs0mg"},{"bike_id":"3b9a819f-b3f2-4dd0-9556-4117db3c1aa7","system_id":"levelo_inurba_marseille","lat":43.29513,"lon":5.38551,"is_reserved":false,"is_disabled":false,"rental_uris":{"android":"levelo://app?vid=3b9a819f-b3f2-4dd0-9556-4117db3c1aa7","ios":"levelo://app?vid=3b9a819f-b3f2-4dd0-9556-4117db3c1aa7"},"vehicle_type_id":"4","last_reported":1742738855,"current_range_meters":9600,"station_id":"ce4bgih2rcd13ifvqba0","pricing_plan_id":"cebpf4jnsgd1na2vs0mg"},{"bike_id":"3e19d40c-9e28-484c-81e3-5ba2f117b49a","system_id":"levelo_inurba_marseille","lat":43.28159,"lon":5.42651,"is_reserved":false,"is_disabled":false,"rental_uris":{"android":"levelo://app?vid=3e19d40c-9e28-484c-81e3-5ba2f117b49a","ios":"levelo://app?vid=3e19d40c-9e28-484c-81e3-5ba2f117b49a"},"vehicle_type_id":"4","last_reported":1742738855,"current_range_meters":9200,"station_id":"ce4bhnh2rcd13ifvqgug","pricing_plan_id":"cebpf4jnsgd1na2vs0mg"},{"bike_id":"52390db3-1658-4d95-8474-5735938b9643","system_id":"levelo_inurba_marseille","lat":43.26232,"lon":5.40471,"is_reserved":false,"is_disabled":false,"rental_uris":{"android":"levelo://app?vid=52390db3-1658-4d95-8474-5735938b9643","ios":"levelo://app?vid=52390db3-1658-4d95-8474-5735938b9643"},"vehicle_type_id":"4","last_reported":1742738855,"current_range_meters":9600,"station_id":"ce4bhmh2rcd13ifvqgmg","pricing_plan_id":"cebpf4jnsgd1na2vs0mg"},{"bike_id":"cd383773-4b9e-47b8-a0dc-4b9211546aa7","system_id":"levelo_inurba_marseille","lat":43.33608,"lon":5.41035,"is_reserved":false,"is_disabled":false,"rental_uris":{"android":"levelo://app?vid=cd383773-4b9e-47b8-a0dc-4b9211546aa7","ios":"levelo://app?vid=cd383773-4b9e-47b8-a0dc-4b9211546aa7"},"vehicle_type_id":"4","last_reported":1742738855,"current_range_meters":10000,"station_id":"ce4bhqh2rcd13ifvqhmg","pricing_plan_id":"cebpf4jnsgd1na2vs0mg"},{"bike_id":"751ff1ed-b498-4578-9bd4-943bf6c9d8eb","system_id":"levelo_inurba_marseille","lat":43.23191,"lon":5.3555,"is_reserved":false,"is_disabled":false,"rental_uris":{"android":"levelo://app?vid=751ff1ed-b498-4578-9bd4-943bf6c9d8eb","ios":"levelo://app?vid=751ff1ed-b498-4578-9bd4-943bf6c9d8eb"},"vehicle_type_id":"4","last_reported":1742738855,"current_range_meters":10000,"station_id":"ce4bhu92rcd13ifvqi70","pricing_plan_id":"cebpf4jnsgd1na2vs0mg"},{"bike_id":"2fd4d927-0f70-4f4e-9269-8cd3b232bcd8","system_id":"levelo_inurba_marseille","lat":43.25933,"lon":5.40901,"is_reserved":false,"is_disabled":false,"rental_uris":{"android":"levelo://app?vid=2fd4d927-0f70-4f4e-9269-8cd3b232bcd8","ios":"levelo://app?vid=2fd4d927-0f70-4f4e-9269-8cd3b232bcd8"},"vehicle_type_id":"4","last_reported":1742738855,"current_range_meters":10000,"station_id":"ce4bhm92rcd13ifvqglg","pricing_plan_id":"cebpf4jnsgd1na2vs0mg"},{"bike_id":"48566c0c-871d-48eb-a9fa-2ff06b0702fd","system_id":"levelo_inurba_marseille","lat":43.29202,"lon":5.39326,"is_reserved":false,"is_disabled":false,"rental_uris":{"android":"levelo://app?vid=48566c0c-871d-48eb-a9fa-2ff06b0702fd","ios":"levelo://app?vid=48566c0c-871d-48eb-a9fa-2ff06b0702fd"},"vehicle_type_id":"4","last_reported":1742738855,"current_range_meters":10000,"station_id":"ce4bh192rcd13ifvqdd0","pricing_plan_id":"cebpf4jnsgd1na2vs0mg"},{"bike_id":"ff526df9-66e1-4c8f-88bd-f1fc42df1991","system_id":"levelo_inurba_marseille","lat":43.24172,"lon":5.36402,"is_reserved":false,"is_disabled":false,"rental_uris":{"android":"levelo://app?vid=ff526df9-66e1-4c8f-88bd-f1fc42df1991","ios":"levelo://app?vid=ff526df9-66e1-4c8f-88bd-f1fc42df1991"},"vehicle_type_id":"4","last_reported":1742738855,"current_range_meters":10000,"station_id":"cpo36qri1sfpv3e86is0","pricing_plan_id":"cebpf4jnsgd1na2vs0mg"},{"bike_id":"ac31c223-d539-4c00-aa3e-c5a7466acaf4","system_id":"levelo_inurba_marseille","lat":43.30549,"lon":5.38426,"is_reserved":false,"is_disabled":false,"rental_uris":{"android":"levelo://app?vid=ac31c223-d539-4c00-aa3e-c5a7466acaf4","ios":"levelo://app?vid=ac31c223-d539-4c00-aa3e-c5a7466acaf4"},"vehicle_type_id":"4","last_reported":1742738855,"current_range_meters":10000,"station_id":"ce4bgg92rcd13ifvqb30","pricing_plan_id":"cebpf4jnsgd1na2vs0mg"},{"bike_id":"466b52b1-619d-4757-a4a2-7dbcc5ac0e91","system_id":"levelo_inurba_marseille","lat":43.30376,"lon":5.42492,"is_reserved":false,"is_disabled":false,"rental_uris":{"android":"levelo://app?vid=466b52b1-619d-4757-a4a2-7dbcc5ac0e91","ios":"levelo://app?vid=466b52b1-619d-4757-a4a2-7dbcc5ac0e91"},"vehicle_type_id":"4","last_reported":1742738855,"current_range_meters":10000,"station_id":"ce4bhoh2rcd13ifvqh6g","pricing_plan_id":"cebpf4jnsgd1na2vs0mg"},{"bike_id":"d954b141-3cee-4de0-9c29-d5babd11cd82","system_id":"levelo_inurba_marseille","lat":43.25092,"lon":5.39531,"is_reserved":false,"is_disabled":false,"rental_uris":{"android":"levelo://app?vid=d954b141-3cee-4de0-9c29-d5babd11cd82","ios":"levelo://app?vid=d954b141-3cee-4de0-9c29-d5babd11cd82"},"vehicle_type_id":"4","last_reported":1742738855,"current_range_meters":10000,"station_id":"ce4bhm12rcd13ifvqgkg","pricing_plan_id":"cebpf4jnsgd1na2vs0mg"},{"bike_id":"801ac92f-133f-417e-90ff-e9cdca3569b0","system_id":"levelo_inurba_marseille","lat":43.2407,"lon":5.3777,"is_reserved":false,"is_disabled":false,"rental_uris":{"android":"levelo://app?vid=801ac92f-133f-417e-90ff-e9cdca3569b0","ios":"levelo://app?vid=801ac92f-133f-417e-90ff-e9cdca3569b0"},"vehicle_type_id":"4","last_reported":1742738855,"current_range_meters":10000,"station_id":"ce4bhnp2rcd13ifvqgvg","pricing_plan_id":"cebpf4jnsgd1na2vs0mg"},{"bike_id":"80bd481f-76dd-47f5-8a33-ce4926e26fff","system_id":"levelo_inurba_marseille","lat":43.26198,"lon":5.37462,"is_reserved":false,"is_disabled":true,"rental_uris":{"android":"levelo://app?vid=80bd481f-76dd-47f5-8a33-ce4926e26fff","ios":"levelo://app?vid=80bd481f-76dd-47f5-8a33-ce4926e26fff"},"vehicle_type_id":"4","last_reported":1742738855,"current_range_meters":10000,"station_id":"ce4bhgp2rcd13ifvqfc0","pricing_plan_id":"cebpf4jnsgd1na2vs0mg"},{"bike_id":"dd5d6d06-0e34-4684-b128-c77a8d50ab86","system_id":"levelo_inurba_marseille","lat":43.301447,"lon":5.374197,"is_reserved":false,"is_disabled":false,"rental_uris":{"android":"levelo://app?vid=dd5d6d06-0e34-4684-b128-c77a8d50ab86","ios":"levelo://app?vid=dd5d6d06-0e34-4684-b128-c77a8d50ab86"},"vehicle_type_id":"4","last_reported":1742738855,"current_range_meters":10800,"station_id":"ce4bgs92rcd13ifvqcc0","pricing_plan_id":"cebpf4jnsgd1na2vs0mg"},{"bike_id":"085ef65d-1c70-4528-b12f-795338c2d1da","system_id":"levelo_inurba_marseille","lat":43.31985,"lon":5.38117,"is_reserved":false,"is_disabled":false,"rental_uris":{"android":"levelo://app?vid=085ef65d-1c70-4528-b12f-795338c2d1da","ios":"levelo://app?vid=085ef65d-1c70-4528-b12f-795338c2d1da"},"vehicle_type_id":"4","last_reported":1742738855,"current_range_meters":10800,"station_id":"ce4bhr12rcd13ifvqhpg","pricing_plan_id":"cebpf4jnsgd1na2vs0mg"},{"bike_id":"24e3c5e1-f3e0-4779-978f-2a70c40752ad","system_id":"levelo_inurba_marseille","lat":43.3078,"lon":5.37652,"is_reserved":false,"is_disabled":false,"rental_uris":{"android":"levelo://app?vid=24e3c5e1-f3e0-4779-978f-2a70c40752ad","ios":"levelo://app?vid=24e3c5e1-f3e0-4779-978f-2a70c40752ad"},"vehicle_type_id":"4","last_reported":1742738855,"current_range_meters":10000,"station_id":"ce4bgv92rcd13ifvqcq0","pricing_plan_id":"cebpf4jnsgd1na2vs0mg"},{"bike_id":"841fe5c8-99e3-46fc-aa34-8f037d7693f8","system_id":"levelo_inurba_marseille","lat":43.24073,"lon":5.37764,"is_reserved":false,"is_disabled":false,"rental_uris":{"android":"levelo://app?vid=841fe5c8-99e3-46fc-aa34-8f037d7693f8","ios":"levelo://app?vid=841fe5c8-99e3-46fc-aa34-8f037d7693f8"},"vehicle_type_id":"4","last_reported":1742738855,"current_range_meters":10800,"station_id":"ce4bhnp2rcd13ifvqgvg","pricing_plan_id":"cebpf4jnsgd1na2vs0mg"},{"bike_id":"8baa2ca8-9eb2-4942-ba47-ed90d166dad3","system_id":"levelo_inurba_marseille","lat":43.25317,"lon":5.40213,"is_reserved":false,"is_disabled":true,"rental_uris":{"android":"levelo://app?vid=8baa2ca8-9eb2-4942-ba47-ed90d166dad3","ios":"levelo://app?vid=8baa2ca8-9eb2-4942-ba47-ed90d166dad3"},"vehicle_type_id":"4","last_reported":1742738855,"current_range_meters":10800,"station_id":"","pricing_plan_id":"cebpf4jnsgd1na2vs0mg"},{"bike_id":"ba52014b-a246-4894-a2c7-c3fb0c4bebc3","system_id":"levelo_inurba_marseille","lat":43.27822,"lon":5.40725,"is_reserved":false,"is_disabled":false,"rental_uris":{"android":"levelo://app?vid=ba52014b-a246-4894-a2c7-c3fb0c4bebc3","ios":"levelo://app?vid=ba52014b-a246-4894-a2c7-c3fb0c4bebc3"},"vehicle_type_id":"4","last_reported":1742738855,"current_range_meters":10800,"station_id":"ce4bhnh2rcd13ifvqgtg","pricing_plan_id":"cebpf4jnsgd1na2vs0mg"},{"bike_id":"ec08777e-c7ab-4765-8e39-6de133d13e35","system_id":"levelo_inurba_marseille","lat":43.31126,"lon":5.37763,"is_reserved":false,"is_disabled":false,"rental_uris":{"android":"levelo://app?vid=ec08777e-c7ab-4765-8e39-6de133d13e35","ios":"levelo://app?vid=ec08777e-c7ab-4765-8e39-6de133d13e35"},"vehicle_type_id":"4","last_reported":1742738855,"current_range_meters":10000,"station_id":"ce4bgt92rcd13ifvqcg0","pricing_plan_id":"cebpf4jnsgd1na2vs0mg"},{"bike_id":"07541760-82c4-4d38-b58c-85ffff07e965","system_id":"levelo_inurba_marseille","lat":43.23958,"lon":5.36633,"is_reserved":false,"is_disabled":false,"rental_uris":{"android":"levelo://app?vid=07541760-82c4-4d38-b58c-85ffff07e965","ios":"levelo://app?vid=07541760-82c4-4d38-b58c-85ffff07e965"},"vehicle_type_id":"4","last_reported":1742738855,"current_range_meters":10800,"station_id":"ce4bhi12rcd13ifvqfp0","pricing_plan_id":"cebpf4jnsgd1na2vs0mg"},{"bike_id":"db96ab39-a5ac-46c4-b7dc-2e16e3f1c6e7","system_id":"levelo_inurba_marseille","lat":43.28507,"lon":5.35605,"is_reserved":false,"is_disabled":false,"rental_uris":{"android":"levelo://app?vid=db96ab39-a5ac-46c4-b7dc-2e16e3f1c6e7","ios":"levelo://app?vid=db96ab39-a5ac-46c4-b7dc-2e16e3f1c6e7"},"vehicle_type_id":"4","last_reported":1742738855,"current_range_meters":10800,"station_id":"","pricing_plan_id":"cebpf4jnsgd1na2vs0mg"},{"bike_id":"08fcbc8a-2ec7-4352-afeb-2a43a18f8a05","system_id":"levelo_inurba_marseille","lat":43.27611,"lon":5.36112,"is_reserved":false,"is_disabled":true,"rental_uris":{"android":"levelo://app?vid=08fcbc8a-2ec7-4352-afeb-2a43a18f8a05","ios":"levelo://app?vid=08fcbc8a-2ec7-4352-afeb-2a43a18f8a05"},"vehicle_type_id":"4","last_reported":1742738855,"current_range_meters":10800,"station_id":"ce4bgj92rcd13ifvqbe0","pricing_plan_id":"cebpf4jnsgd1na2vs0mg"},{"bike_id":"bdd85a69-2526-423f-83bc-580097d3e5b5","system_id":"levelo_inurba_marseille","lat":43.23054,"lon":5.35501,"is_reserved":false,"is_disabled":false,"rental_uris":{"android":"levelo://app?vid=bdd85a69-2526-423f-83bc-580097d3e5b5","ios":"levelo://app?vid=bdd85a69-2526-423f-83bc-580097d3e5b5"},"vehicle_type_id":"4","last_reported":1742738855,"current_range_meters":10800,"station_id":"cpo3342slgdg3j2ifvpg","pricing_plan_id":"cebpf4jnsgd1na2vs0mg"},{"bike_id":"4c8a4056-48ac-48f3-aef0-9ae5cc16b399","system_id":"levelo_inurba_marseille","lat":43.27804,"lon":5.40726,"is_reserved":false,"is_disabled":false,"rental_uris":{"android":"levelo://app?vid=4c8a4056-48ac-48f3-aef0-9ae5cc16b399","ios":"levelo://app?vid=4c8a4056-48ac-48f3-aef0-9ae5cc16b399"},"vehicle_type_id":"4","last_reported":1742738855,"current_range_meters":10800,"station_id":"ce4bhnh2rcd13ifvqgtg","pricing_plan_id":"cebpf4jnsgd1na2vs0mg"},{"bike_id":"c4b0f35b-a823-4320-a87c-5cbcf9e7fb05","system_id":"levelo_inurba_marseille","lat":43.28425,"lon":5.34992,"is_reserved":false,"is_disabled":false,"rental_uris":{"android":"levelo://app?vid=c4b0f35b-a823-4320-a87c-5cbcf9e7fb05","ios":"levelo://app?vid=c4b0f35b-a823-4320-a87c-5cbcf9e7fb05"},"vehicle_type_id":"4","last_reported":1742738855,"current_range_meters":10800,"station_id":"ce4bhbh2rcd13ifvqepg","pricing_plan_id":"cebpf4jnsgd1na2vs0mg"},{"bike_id":"8faa77e2-25e8-4623-b300-9c210fbe7c54","system_id":"levelo_inurba_marseille","lat":43.28471,"lon":5.38431,"is_reserved":false,"is_disabled":false,"rental_uris":{"android":"levelo://app?vid=8faa77e2-25e8-4623-b300-9c210fbe7c54","ios":"levelo://app?vid=8faa77e2-25e8-4623-b300-9c210fbe7c54"},"vehicle_type_id":"4","last_reported":1742738855,"current_range_meters":10800,"station_id":"ce4bh512rcd13ifvqe3g","pricing_plan_id":"cebpf4jnsgd1na2vs0mg"},{"bike_id":"196e5527-f8ec-47c9-88d8-c0c49611574a","system_id":"levelo_inurba_marseille","lat":43.22946,"lon":5.35736,"is_reserved":false,"is_disabled":false,"rental_uris":{"android":"levelo://app?vid=196e5527-f8ec-47c9-88d8-c0c49611574a","ios":"levelo://app?vid=196e5527-f8ec-47c9-88d8-c0c49611574a"},"vehicle_type_id":"4","last_reported":1742738855,"current_range_meters":10800,"station_id":"","pricing_plan_id":"cebpf4jnsgd1na2vs0mg"},{"bike_id":"f7128881-3250-47b4-940a-0a23e9764e36","system_id":"levelo_inurba_marseille","lat":43.25951,"lon":5.40914,"is_reserved":false,"is_disabled":false,"rental_uris":{"android":"levelo://app?vid=f7128881-3250-47b4-940a-0a23e9764e36","ios":"levelo://app?vid=f7128881-3250-47b4-940a-0a23e9764e36"},"vehicle_type_id":"4","last_reported":1742738855,"current_range_meters":10800,"station_id":"ce4bhm92rcd13ifvqglg","pricing_plan_id":"cebpf4jnsgd1na2vs0mg"},{"bike_id":"061d8d5f-2036-493f-a35e-b9b79eba9fae","system_id":"levelo_inurba_marseille","lat":43.32336,"lon":5.40624,"is_reserved":false,"is_disabled":false,"rental_uris":{"android":"levelo://app?vid=061d8d5f-2036-493f-a35e-b9b79eba9fae","ios":"levelo://app?vid=061d8d5f-2036-493f-a35e-b9b79eba9fae"},"vehicle_type_id":"4","last_reported":1742738855,"current_range_meters":11200,"station_id":"ce4bhq92rcd13ifvqhjg","pricing_plan_id":"cebpf4jnsgd1na2vs0mg"},{"bike_id":"ef0553a3-6066-43cc-94b6-2f09725c05cb","system_id":"levelo_inurba_marseille","lat":43.28159,"lon":5.42645,"is_reserved":false,"is_disabled":false,"rental_uris":{"android":"levelo://app?vid=ef0553a3-6066-43cc-94b6-2f09725c05cb","ios":"levelo://app?vid=ef0553a3-6066-43cc-94b6-2f09725c05cb"},"vehicle_type_id":"4","last_reported":1742738855,"current_range_meters":11200,"station_id":"ce4bhnh2rcd13ifvqgug","pricing_plan_id":"cebpf4jnsgd1na2vs0mg"},{"bike_id":"5932f5b5-0803-41be-ad57-2c62bb691349","system_id":"levelo_inurba_marseille","lat":43.24679,"lon":5.38176,"is_reserved":false,"is_disabled":false,"rental_uris":{"android":"levelo://app?vid=5932f5b5-0803-41be-ad57-2c62bb691349","ios":"levelo://app?vid=5932f5b5-0803-41be-ad57-2c62bb691349"},"vehicle_type_id":"4","last_reported":1742738855,"current_range_meters":11200,"station_id":"ce4bhih2rcd13ifvqfr0","pricing_plan_id":"cebpf4jnsgd1na2vs0mg"},{"bike_id":"193e77bb-e4fe-49d9-a4c8-d5a812e0bd48","system_id":"levelo_inurba_marseille","lat":43.26939,"lon":5.40265,"is_reserved":false,"is_disabled":false,"rental_uris":{"android":"levelo://app?vid=193e77bb-e4fe-49d9-a4c8-d5a812e0bd48","ios":"levelo://app?vid=193e77bb-e4fe-49d9-a4c8-d5a812e0bd48"},"vehicle_type_id":"4","last_reported":1742738855,"current_range_meters":10800,"station_id":"cjm6bp8fraef2m0cb0m0","pricing_plan_id":"cebpf4jnsgd1na2vs0mg"},{"bike_id":"e5aa177d-ef4e-46c8-bb7b-8540ce1debc7","system_id":"levelo_inurba_marseille","lat":43.26932,"lon":5.38933,"is_reserved":false,"is_disabled":false,"rental_uris":{"android":"levelo://app?vid=e5aa177d-ef4e-46c8-bb7b-8540ce1debc7","ios":"levelo://app?vid=e5aa177d-ef4e-46c8-bb7b-8540ce1debc7"},"vehicle_type_id":"4","last_reported":1742738855,"current_range_meters":10800,"station_id":"ce4bhhh2rcd13ifvqfl0","pricing_plan_id":"cebpf4jnsgd1na2vs0mg"},{"bike_id":"f657da43-9a05-4822-9c77-ad8671579423","system_id":"levelo_inurba_marseille","lat":43.29568,"lon":5.40015,"is_reserved":false,"is_disabled":true,"rental_uris":{"android":"levelo://app?vid=f657da43-9a05-4822-9c77-ad8671579423","ios":"levelo://app?vid=f657da43-9a05-4822-9c77-ad8671579423"},"vehicle_type_id":"4","last_reported":1742738855,"current_range_meters":11600,"station_id":"ce4bh312rcd13ifvqdj0","pricing_plan_id":"cebpf4jnsgd1na2vs0mg"},{"bike_id":"67b1f8a6-bb1b-4aa1-a4af-3bfe6cd68002","system_id":"levelo_inurba_marseille","lat":43.30605,"lon":5.37233,"is_reserved":false,"is_disabled":false,"rental_uris":{"android":"levelo://app?vid=67b1f8a6-bb1b-4aa1-a4af-3bfe6cd68002","ios":"levelo://app?vid=67b1f8a6-bb1b-4aa1-a4af-3bfe6cd68002"},"vehicle_type_id":"4","last_reported":1742738855,"current_range_meters":11200,"station_id":"ce4bgqh2rcd13ifvqc4g","pricing_plan_id":"cebpf4jnsgd1na2vs0mg"},{"bike_id":"89b0dcc5-cc3e-42ed-b96e-ed5335c7a50e","system_id":"levelo_inurba_marseille","lat":43.27071,"lon":5.40327,"is_reserved":false,"is_disabled":false,"rental_uris":{"android":"levelo://app?vid=89b0dcc5-cc3e-42ed-b96e-ed5335c7a50e","ios":"levelo://app?vid=89b0dcc5-cc3e-42ed-b96e-ed5335c7a50e"},"vehicle_type_id":"4","last_reported":1742738855,"current_range_meters":11200,"station_id":"","pricing_plan_id":"cebpf4jnsgd1na2vs0mg"},{"bike_id":"1650359f-760e-4a41-ab05-5e8897b971d2","system_id":"levelo_inurba_marseille","lat":43.31752,"lon":5.39006,"is_reserved":false,"is_disabled":false,"rental_uris":{"android":"levelo://app?vid=1650359f-760e-4a41-ab05-5e8897b971d2","ios":"levelo://app?vid=1650359f-760e-4a41-ab05-5e8897b971d2"},"vehicle_type_id":"4","last_reported":1742738855,"current_range_meters":11600,"station_id":"ce4bhqp2rcd13ifvqhng","pricing_plan_id":"cebpf4jnsgd1na2vs0mg"},{"bike_id":"a8054457-ef9c-4293-879f-1eab83000740","system_id":"levelo_inurba_marseille","lat":43.24168,"lon":5.36404,"is_reserved":false,"is_disabled":false,"rental_uris":{"android":"levelo://app?vid=a8054457-ef9c-4293-879f-1eab83000740","ios":"levelo://app?vid=a8054457-ef9c-4293-879f-1eab83000740"},"vehicle_type_id":"4","last_reported":1742738855,"current_range_meters":11600,"station_id":"cpo36qri1sfpv3e86is0","pricing_plan_id":"cebpf4jnsgd1na2vs0mg"},{"bike_id":"dded0294-32f1-470c-8a38-f64890dd987e","system_id":"levelo_inurba_marseille","lat":43.26198,"lon":5.37932,"is_reserved":false,"is_disabled":false,"rental_uris":{"android":"levelo://app?vid=dded0294-32f1-470c-8a38-f64890dd987e","ios":"levelo://app?vid=dded0294-32f1-470c-8a38-f64890dd987e"},"vehicle_type_id":"4","last_reported":1742738855,"current_range_meters":11600,"station_id":"ce4bhjp2rcd13ifvqg90","pricing_plan_id":"cebpf4jnsgd1na2vs0mg"},{"bike_id":"b0d9750a-8007-4292-bbe4-125f34d23ca3","system_id":"levelo_inurba_marseille","lat":43.28433,"lon":5.34993,"is_reserved":false,"is_disabled":false,"rental_uris":{"android":"levelo://app?vid=b0d9750a-8007-4292-bbe4-125f34d23ca3","ios":"levelo://app?vid=b0d9750a-8007-4292-bbe4-125f34d23ca3"},"vehicle_type_id":"4","last_reported":1742738855,"current_range_meters":11600,"station_id":"ce4bhbh2rcd13ifvqepg","pricing_plan_id":"cebpf4jnsgd1na2vs0mg"},{"bike_id":"8d047e1e-ff7a-4199-9b91-a5d2141ca1cd","system_id":"levelo_inurba_marseille","lat":43.30539,"lon":5.36528,"is_reserved":false,"is_disabled":false,"rental_uris":{"android":"levelo://app?vid=8d047e1e-ff7a-4199-9b91-a5d2141ca1cd","ios":"levelo://app?vid=8d047e1e-ff7a-4199-9b91-a5d2141ca1cd"},"vehicle_type_id":"4","last_reported":1742738855,"current_range_meters":11600,"station_id":"ce4bgs12rcd13ifvqcag","pricing_plan_id":"cebpf4jnsgd1na2vs0mg"},{"bike_id":"c18aba0d-31c0-4c41-b3e3-e1cc595130e4","system_id":"levelo_inurba_marseille","lat":43.23149,"lon":5.43709,"is_reserved":false,"is_disabled":false,"rental_uris":{"android":"levelo://app?vid=c18aba0d-31c0-4c41-b3e3-e1cc595130e4","ios":"levelo://app?vid=c18aba0d-31c0-4c41-b3e3-e1cc595130e4"},"vehicle_type_id":"4","last_reported":1742738855,"current_range_meters":12000,"station_id":"ce4bhmp2rcd13ifvqgog","pricing_plan_id":"cebpf4jnsgd1na2vs0mg"},{"bike_id":"60bc5ef2-d120-4be4-8b53-10f64fb77c9a","system_id":"levelo_inurba_marseille","lat":43.26569,"lon":5.38997,"is_reserved":false,"is_disabled":false,"rental_uris":{"android":"levelo://app?vid=60bc5ef2-d120-4be4-8b53-10f64fb77c9a","ios":"levelo://app?vid=60bc5ef2-d120-4be4-8b53-10f64fb77c9a"},"vehicle_type_id":"4","last_reported":1742738855,"current_range_meters":12000,"station_id":"ce4bhe12rcd13ifvqf30","pricing_plan_id":"cebpf4jnsgd1na2vs0mg"},{"bike_id":"8ac76298-3375-4b96-8a90-9315b1510fa4","system_id":"levelo_inurba_marseille","lat":43.27833,"lon":5.40729,"is_reserved":false,"is_disabled":true,"rental_uris":{"android":"levelo://app?vid=8ac76298-3375-4b96-8a90-9315b1510fa4","ios":"levelo://app?vid=8ac76298-3375-4b96-8a90-9315b1510fa4"},"vehicle_type_id":"4","last_reported":1742738855,"current_range_meters":12000,"station_id":"ce4bhnh2rcd13ifvqgtg","pricing_plan_id":"cebpf4jnsgd1na2vs0mg"},{"bike_id":"f48a0817-7997-47a8-8e6c-21114c013c28","system_id":"levelo_inurba_marseille","lat":43.26808,"lon":5.40266,"is_reserved":false,"is_disabled":false,"rental_uris":{"android":"levelo://app?vid=f48a0817-7997-47a8-8e6c-21114c013c28","ios":"levelo://app?vid=f48a0817-7997-47a8-8e6c-21114c013c28"},"vehicle_type_id":"4","last_reported":1742738855,"current_range_meters":12000,"station_id":"ce501612rcd8frsf0b60","pricing_plan_id":"cebpf4jnsgd1na2vs0mg"},{"bike_id":"d204e741-d72a-4968-8d3c-d03408eeb29a","system_id":"levelo_inurba_marseille","lat":43.30309,"lon":5.39223,"is_reserved":false,"is_disabled":false,"rental_uris":{"android":"levelo://app?vid=d204e741-d72a-4968-8d3c-d03408eeb29a","ios":"levelo://app?vid=d204e741-d72a-4968-8d3c-d03408eeb29a"},"vehicle_type_id":"4","last_reported":1742738855,"current_range_meters":12000,"station_id":"ce4bgkh2rcd13ifvqbk0","pricing_plan_id":"cebpf4jnsgd1na2vs0mg"},{"bike_id":"e2eb2d87-2cbf-42e4-8397-d293ec47d94b","system_id":"levelo_inurba_marseille","lat":43.29096,"lon":5.3815,"is_reserved":false,"is_disabled":false,"rental_uris":{"android":"levelo://app?vid=e2eb2d87-2cbf-42e4-8397-d293ec47d94b","ios":"levelo://app?vid=e2eb2d87-2cbf-42e4-8397-d293ec47d94b"},"vehicle_type_id":"4","last_reported":1742738855,"current_range_meters":12000,"station_id":"ce4bh512rcd13ifvqe2g","pricing_plan_id":"cebpf4jnsgd1na2vs0mg"},{"bike_id":"1542e904-806a-47f4-9338-21788e6e778e","system_id":"levelo_inurba_marseille","lat":43.2397,"lon":5.36638,"is_reserved":false,"is_disabled":false,"rental_uris":{"android":"levelo://app?vid=1542e904-806a-47f4-9338-21788e6e778e","ios":"levelo://app?vid=1542e904-806a-47f4-9338-21788e6e778e"},"vehicle_type_id":"4","last_reported":1742738855,"current_range_meters":12400,"station_id":"ce4bhi12rcd13ifvqfp0","pricing_plan_id":"cebpf4jnsgd1na2vs0mg"},{"bike_id":"17238c44-02e8-4ba3-abe3-5ae6a9cab49f","system_id":"levelo_inurba_marseille","lat":43.31756,"lon":5.39025,"is_reserved":false,"is_disabled":true,"rental_uris":{"android":"levelo://app?vid=17238c44-02e8-4ba3-abe3-5ae6a9cab49f","ios":"levelo://app?vid=17238c44-02e8-4ba3-abe3-5ae6a9cab49f"},"vehicle_type_id":"4","last_reported":1742738855,"current_range_meters":12400,"station_id":"ce4bhqp2rcd13ifvqhng","pricing_plan_id":"cebpf4jnsgd1na2vs0mg"},{"bike_id":"4baf8c5d-e0fe-4a6c-97de-a71e960c5338","system_id":"levelo_inurba_marseille","lat":43.24162,"lon":5.36435,"is_reserved":false,"is_disabled":false,"rental_uris":{"android":"levelo://app?vid=4baf8c5d-e0fe-4a6c-97de-a71e960c5338","ios":"levelo://app?vid=4baf8c5d-e0fe-4a6c-97de-a71e960c5338"},"vehicle_type_id":"4","last_reported":1742738855,"current_range_meters":12400,"station_id":"cpo36qri1sfpv3e86is0","pricing_plan_id":"cebpf4jnsgd1na2vs0mg"},{"bike_id":"901ad870-67db-4efd-a3cc-2d5ce9510114","system_id":"levelo_inurba_marseille","lat":43.26845,"lon":5.39447,"is_reserved":false,"is_disabled":false,"rental_uris":{"android":"levelo://app?vid=901ad870-67db-4efd-a3cc-2d5ce9510114","ios":"levelo://app?vid=901ad870-67db-4efd-a3cc-2d5ce9510114"},"vehicle_type_id":"4","last_reported":1742738855,"current_range_meters":12400,"station_id":"","pricing_plan_id":"cebpf4jnsgd1na2vs0mg"},{"bike_id":"4b4d6cec-a3b7-4055-ae15-11f501820285","system_id":"levelo_inurba_marseille","lat":43.29787,"lon":5.38103,"is_reserved":false,"is_disabled":false,"rental_uris":{"android":"levelo://app?vid=4b4d6cec-a3b7-4055-ae15-11f501820285","ios":"levelo://app?vid=4b4d6cec-a3b7-4055-ae15-11f501820285"},"vehicle_type_id":"4","last_reported":1742738855,"current_range_meters":12400,"station_id":"ce4bgip2rcd13ifvqbb0","pricing_plan_id":"cebpf4jnsgd1na2vs0mg"},{"bike_id":"03c09edb-342b-4474-801a-9f74027b45d0","system_id":"levelo_inurba_marseille","lat":43.24993,"lon":5.38926,"is_reserved":false,"is_disabled":false,"rental_uris":{"android":"levelo://app?vid=03c09edb-342b-4474-801a-9f74027b45d0","ios":"levelo://app?vid=03c09edb-342b-4474-801a-9f74027b45d0"},"vehicle_type_id":"4","last_reported":1742738855,"current_range_meters":12400,"station_id":"ce4bhgp2rcd13ifvqfd0","pricing_plan_id":"cebpf4jnsgd1na2vs0mg"},{"bike_id":"a7a1de65-6b62-4b5b-8ae4-156f2d2b5a21","system_id":"levelo_inurba_marseille","lat":43.29609,"lon":5.38093,"is_reserved":false,"is_disabled":false,"rental_uris":{"android":"levelo://app?vid=a7a1de65-6b62-4b5b-8ae4-156f2d2b5a21","ios":"levelo://app?vid=a7a1de65-6b62-4b5b-8ae4-156f2d2b5a21"},"vehicle_type_id":"4","last_reported":1742738855,"current_range_meters":12400,"station_id":"ce4bgl12rcd13ifvqbo0","pricing_plan_id":"cebpf4jnsgd1na2vs0mg"},{"bike_id":"d07b8c90-d978-41c9-ae53-3b451cb226e7","system_id":"levelo_inurba_marseille","lat":43.28601,"lon":5.35099,"is_reserved":false,"is_disabled":false,"rental_uris":{"android":"levelo://app?vid=d07b8c90-d978-41c9-ae53-3b451cb226e7","ios":"levelo://app?vid=d07b8c90-d978-41c9-ae53-3b451cb226e7"},"vehicle_type_id":"4","last_reported":1742738855,"current_range_meters":12800,"station_id":"ce4bhch2rcd13ifvqeug","pricing_plan_id":"cebpf4jnsgd1na2vs0mg"},{"bike_id":"034718de-67f9-4b03-9b14-13a8fc4858ac","system_id":"levelo_inurba_marseille","lat":43.2313,"lon":5.35706,"is_reserved":false,"is_disabled":false,"rental_uris":{"android":"levelo://app?vid=034718de-67f9-4b03-9b14-13a8fc4858ac","ios":"levelo://app?vid=034718de-67f9-4b03-9b14-13a8fc4858ac"},"vehicle_type_id":"4","last_reported":1742738855,"current_range_meters":12800,"station_id":"","pricing_plan_id":"cebpf4jnsgd1na2vs0mg"},{"bike_id":"e2b68c00-ea55-4d0f-ae98-6403b351276c","system_id":"levelo_inurba_marseille","lat":43.23049,"lon":5.35487,"is_reserved":false,"is_disabled":false,"rental_uris":{"android":"levelo://app?vid=e2b68c00-ea55-4d0f-ae98-6403b351276c","ios":"levelo://app?vid=e2b68c00-ea55-4d0f-ae98-6403b351276c"},"vehicle_type_id":"4","last_reported":1742738855,"current_range_meters":12800,"station_id":"cpo3342slgdg3j2ifvpg","pricing_plan_id":"cebpf4jnsgd1na2vs0mg"},{"bike_id":"02d586e9-734d-4421-8b40-3ea1c61cc2d2","system_id":"levelo_inurba_marseille","lat":43.24624,"lon":5.38198,"is_reserved":false,"is_disabled":false,"rental_uris":{"android":"levelo://app?vid=02d586e9-734d-4421-8b40-3ea1c61cc2d2","ios":"levelo://app?vid=02d586e9-734d-4421-8b40-3ea1c61cc2d2"},"vehicle_type_id":"4","last_reported":1742738855,"current_range_meters":12800,"station_id":"ce4bhih2rcd13ifvqfr0","pricing_plan_id":"cebpf4jnsgd1na2vs0mg"},{"bike_id":"d55e6c47-9aec-4393-9928-5c3933de8c2e","system_id":"levelo_inurba_marseille","lat":43.29262,"lon":5.40911,"is_reserved":false,"is_disabled":false,"rental_uris":{"android":"levelo://app?vid=d55e6c47-9aec-4393-9928-5c3933de8c2e","ios":"levelo://app?vid=d55e6c47-9aec-4393-9928-5c3933de8c2e"},"vehicle_type_id":"4","last_reported":1742738855,"current_range_meters":12400,"station_id":"ce4bh192rcd13ifvqdc0","pricing_plan_id":"cebpf4jnsgd1na2vs0mg"},{"bike_id":"fad399ac-474c-4863-af4e-7d0e96481bb0","system_id":"levelo_inurba_marseille","lat":43.28485,"lon":5.38415,"is_reserved":false,"is_disabled":false,"rental_uris":{"android":"levelo://app?vid=fad399ac-474c-4863-af4e-7d0e96481bb0","ios":"levelo://app?vid=fad399ac-474c-4863-af4e-7d0e96481bb0"},"vehicle_type_id":"4","last_reported":1742738855,"current_range_meters":12800,"station_id":"ce4bh512rcd13ifvqe3g","pricing_plan_id":"cebpf4jnsgd1na2vs0mg"},{"bike_id":"03d87b21-3593-42a7-9c07-852735842538","system_id":"levelo_inurba_marseille","lat":43.25119,"lon":5.40335,"is_reserved":false,"is_disabled":false,"rental_uris":{"android":"levelo://app?vid=03d87b21-3593-42a7-9c07-852735842538","ios":"levelo://app?vid=03d87b21-3593-42a7-9c07-852735842538"},"vehicle_type_id":"4","last_reported":1742738855,"current_range_meters":12800,"station_id":"ce4bhlh2rcd13ifvqgig","pricing_plan_id":"cebpf4jnsgd1na2vs0mg"},{"bike_id":"f52c7f07-7a6b-4dbc-aeae-9fa998834082","system_id":"levelo_inurba_marseille","lat":43.32302,"lon":5.37524,"is_reserved":false,"is_disabled":false,"rental_uris":{"android":"levelo://app?vid=f52c7f07-7a6b-4dbc-aeae-9fa998834082","ios":"levelo://app?vid=f52c7f07-7a6b-4dbc-aeae-9fa998834082"},"vehicle_type_id":"4","last_reported":1742738855,"current_range_meters":13600,"station_id":"","pricing_plan_id":"cebpf4jnsgd1na2vs0mg"},{"bike_id":"185d7254-bdd0-4e18-9eae-8137d49879d0","system_id":"levelo_inurba_marseille","lat":43.28079,"lon":5.39666,"is_reserved":false,"is_disabled":false,"rental_uris":{"android":"levelo://app?vid=185d7254-bdd0-4e18-9eae-8137d49879d0","ios":"levelo://app?vid=185d7254-bdd0-4e18-9eae-8137d49879d0"},"vehicle_type_id":"4","last_reported":1742738855,"current_range_meters":13600,"station_id":"ce4bho12rcd13ifvqh2g","pricing_plan_id":"cebpf4jnsgd1na2vs0mg"},{"bike_id":"e77d191c-b6c2-4af6-8798-46f31e387227","system_id":"levelo_inurba_marseille","lat":43.30139,"lon":5.37434,"is_reserved":false,"is_disabled":false,"rental_uris":{"android":"levelo://app?vid=e77d191c-b6c2-4af6-8798-46f31e387227","ios":"levelo://app?vid=e77d191c-b6c2-4af6-8798-46f31e387227"},"vehicle_type_id":"4","last_reported":1742738855,"current_range_meters":13600,"station_id":"ce4bgs92rcd13ifvqcc0","pricing_plan_id":"cebpf4jnsgd1na2vs0mg"},{"bike_id":"052e7d2b-cf85-4188-aab0-d049f0b8e35e","system_id":"levelo_inurba_marseille","lat":43.28411,"lon":5.34989,"is_reserved":false,"is_disabled":false,"rental_uris":{"android":"levelo://app?vid=052e7d2b-cf85-4188-aab0-d049f0b8e35e","ios":"levelo://app?vid=052e7d2b-cf85-4188-aab0-d049f0b8e35e"},"vehicle_type_id":"4","last_reported":1742738855,"current_range_meters":13600,"station_id":"ce4bhbh2rcd13ifvqepg","pricing_plan_id":"cebpf4jnsgd1na2vs0mg"},{"bike_id":"edc56328-2a9f-4777-ac37-df35cc7481d7","system_id":"levelo_inurba_marseille","lat":43.28419,"lon":5.34996,"is_reserved":false,"is_disabled":false,"rental_uris":{"android":"levelo://app?vid=edc56328-2a9f-4777-ac37-df35cc7481d7","ios":"levelo://app?vid=edc56328-2a9f-4777-ac37-df35cc7481d7"},"vehicle_type_id":"4","last_reported":1742738855,"current_range_meters":13600,"station_id":"ce4bhbh2rcd13ifvqepg","pricing_plan_id":"cebpf4jnsgd1na2vs0mg"},{"bike_id":"3df94b64-27aa-4008-820e-abfb339ced19","system_id":"levelo_inurba_marseille","lat":43.28939,"lon":5.3638,"is_reserved":false,"is_disabled":false,"rental_uris":{"android":"levelo://app?vid=3df94b64-27aa-4008-820e-abfb339ced19","ios":"levelo://app?vid=3df94b64-27aa-4008-820e-abfb339ced19"},"vehicle_type_id":"4","last_reported":1742738855,"current_range_meters":12800,"station_id":"ce4bhc92rcd13ifvqetg","pricing_plan_id":"cebpf4jnsgd1na2vs0mg"},{"bike_id":"3fc68bb2-f7cf-4469-bf13-a70f7c73648a","system_id":"levelo_inurba_marseille","lat":43.29204,"lon":5.39332,"is_reserved":false,"is_disabled":false,"rental_uris":{"android":"levelo://app?vid=3fc68bb2-f7cf-4469-bf13-a70f7c73648a","ios":"levelo://app?vid=3fc68bb2-f7cf-4469-bf13-a70f7c73648a"},"vehicle_type_id":"4","last_reported":1742738855,"current_range_meters":12800,"station_id":"ce4bh192rcd13ifvqdd0","pricing_plan_id":"cebpf4jnsgd1na2vs0mg"},{"bike_id":"9bd66c75-2d6b-4709-91e0-c8130478cce4","system_id":"levelo_inurba_marseille","lat":43.25937,"lon":5.40905,"is_reserved":false,"is_disabled":false,"rental_uris":{"android":"levelo://app?vid=9bd66c75-2d6b-4709-91e0-c8130478cce4","ios":"levelo://app?vid=9bd66c75-2d6b-4709-91e0-c8130478cce4"},"vehicle_type_id":"4","last_reported":1742738855,"current_range_meters":14000,"station_id":"ce4bhm92rcd13ifvqglg","pricing_plan_id":"cebpf4jnsgd1na2vs0mg"},{"bike_id":"209e5542-ac08-4009-abf5-f83bef8badc8","system_id":"levelo_inurba_marseille","lat":43.23963,"lon":5.36647,"is_reserved":false,"is_disabled":false,"rental_uris":{"android":"levelo://app?vid=209e5542-ac08-4009-abf5-f83bef8badc8","ios":"levelo://app?vid=209e5542-ac08-4009-abf5-f83bef8badc8"},"vehicle_type_id":"4","last_reported":1742738855,"current_range_meters":14000,"station_id":"ce4bhi12rcd13ifvqfp0","pricing_plan_id":"cebpf4jnsgd1na2vs0mg"},{"bike_id":"81c28995-a624-4bc5-ad4b-6d333e9d549b","system_id":"levelo_inurba_marseille","lat":43.24668,"lon":5.38175,"is_reserved":false,"is_disabled":false,"rental_uris":{"android":"levelo://app?vid=81c28995-a624-4bc5-ad4b-6d333e9d549b","ios":"levelo://app?vid=81c28995-a624-4bc5-ad4b-6d333e9d549b"},"vehicle_type_id":"4","last_reported":1742738855,"current_range_meters":14000,"station_id":"ce4bhih2rcd13ifvqfr0","pricing_plan_id":"cebpf4jnsgd1na2vs0mg"},{"bike_id":"5c64bd94-a43f-47e3-9ff6-790a3dcc7c39","system_id":"levelo_inurba_marseille","lat":43.27317,"lon":5.39083,"is_reserved":false,"is_disabled":false,"rental_uris":{"android":"levelo://app?vid=5c64bd94-a43f-47e3-9ff6-790a3dcc7c39","ios":"levelo://app?vid=5c64bd94-a43f-47e3-9ff6-790a3dcc7c39"},"vehicle_type_id":"4","last_reported":1742738855,"current_range_meters":13600,"station_id":"ce4bhgp2rcd13ifvqfe0","pricing_plan_id":"cebpf4jnsgd1na2vs0mg"},{"bike_id":"5861d634-d12f-4a56-96b1-c355fffc2ccc","system_id":"levelo_inurba_marseille","lat":43.28681,"lon":5.38671,"is_reserved":false,"is_disabled":false,"rental_uris":{"android":"levelo://app?vid=5861d634-d12f-4a56-96b1-c355fffc2ccc","ios":"levelo://app?vid=5861d634-d12f-4a56-96b1-c355fffc2ccc"},"vehicle_type_id":"4","last_reported":1742738855,"current_range_meters":14000,"station_id":"ce4bh492rcd13ifvqdug","pricing_plan_id":"cebpf4jnsgd1na2vs0mg"},{"bike_id":"282809df-29b4-411f-b718-322266f75751","system_id":"levelo_inurba_marseille","lat":43.23048,"lon":5.35492,"is_reserved":false,"is_disabled":false,"rental_uris":{"android":"levelo://app?vid=282809df-29b4-411f-b718-322266f75751","ios":"levelo://app?vid=282809df-29b4-411f-b718-322266f75751"},"vehicle_type_id":"4","last_reported":1742738855,"current_range_meters":14000,"station_id":"cpo3342slgdg3j2ifvpg","pricing_plan_id":"cebpf4jnsgd1na2vs0mg"},{"bike_id":"b51147c0-c75a-46d6-893a-043f34572a4e","system_id":"levelo_inurba_marseille","lat":43.28415,"lon":5.3496,"is_reserved":false,"is_disabled":false,"rental_uris":{"android":"levelo://app?vid=b51147c0-c75a-46d6-893a-043f34572a4e","ios":"levelo://app?vid=b51147c0-c75a-46d6-893a-043f34572a4e"},"vehicle_type_id":"4","last_reported":1742738855,"current_range_meters":14000,"station_id":"ce4bhbh2rcd13ifvqepg","pricing_plan_id":"cebpf4jnsgd1na2vs0mg"},{"bike_id":"f6d7107e-0e7f-4d78-aceb-ce102c3385f1","system_id":"levelo_inurba_marseille","lat":43.29574,"lon":5.39987,"is_reserved":false,"is_disabled":false,"rental_uris":{"android":"levelo://app?vid=f6d7107e-0e7f-4d78-aceb-ce102c3385f1","ios":"levelo://app?vid=f6d7107e-0e7f-4d78-aceb-ce102c3385f1"},"vehicle_type_id":"4","last_reported":1742738855,"current_range_meters":13600,"station_id":"ce4bh312rcd13ifvqdj0","pricing_plan_id":"cebpf4jnsgd1na2vs0mg"},{"bike_id":"587c4b09-c6c3-4755-8011-d820e3904490","system_id":"levelo_inurba_marseille","lat":43.23953,"lon":5.36635,"is_reserved":false,"is_disabled":false,"rental_uris":{"android":"levelo://app?vid=587c4b09-c6c3-4755-8011-d820e3904490","ios":"levelo://app?vid=587c4b09-c6c3-4755-8011-d820e3904490"},"vehicle_type_id":"4","last_reported":1742738855,"current_range_meters":14000,"station_id":"ce4bhi12rcd13ifvqfp0","pricing_plan_id":"cebpf4jnsgd1na2vs0mg"},{"bike_id":"a8b3cb95-f059-47ac-b672-1c7197ca6c51","system_id":"levelo_inurba_marseille","lat":43.28154,"lon":5.42651,"is_reserved":false,"is_disabled":false,"rental_uris":{"android":"levelo://app?vid=a8b3cb95-f059-47ac-b672-1c7197ca6c51","ios":"levelo://app?vid=a8b3cb95-f059-47ac-b672-1c7197ca6c51"},"vehicle_type_id":"4","last_reported":1742738855,"current_range_meters":14400,"station_id":"ce4bhnh2rcd13ifvqgug","pricing_plan_id":"cebpf4jnsgd1na2vs0mg"},{"bike_id":"48614845-6ca4-497c-b159-c9520fb78e0f","system_id":"levelo_inurba_marseille","lat":43.24646,"lon":5.38894,"is_reserved":false,"is_disabled":false,"rental_uris":{"android":"levelo://app?vid=48614845-6ca4-497c-b159-c9520fb78e0f","ios":"levelo://app?vid=48614845-6ca4-497c-b159-c9520fb78e0f"},"vehicle_type_id":"4","last_reported":1742738855,"current_range_meters":14400,"station_id":"ce4bhg12rcd13ifvqf60","pricing_plan_id":"cebpf4jnsgd1na2vs0mg"},{"bike_id":"362ce256-d873-44d5-8d0c-8eb3060da6b1","system_id":"levelo_inurba_marseille","lat":43.28164,"lon":5.42659,"is_reserved":false,"is_disabled":false,"rental_uris":{"android":"levelo://app?vid=362ce256-d873-44d5-8d0c-8eb3060da6b1","ios":"levelo://app?vid=362ce256-d873-44d5-8d0c-8eb3060da6b1"},"vehicle_type_id":"4","last_reported":1742738855,"current_range_meters":14400,"station_id":"ce4bhnh2rcd13ifvqgug","pricing_plan_id":"cebpf4jnsgd1na2vs0mg"},{"bike_id":"ecdeb839-d288-4298-bd17-74a7cb144436","system_id":"levelo_inurba_marseille","lat":43.31494,"lon":5.37315,"is_reserved":false,"is_disabled":false,"rental_uris":{"android":"levelo://app?vid=ecdeb839-d288-4298-bd17-74a7cb144436","ios":"levelo://app?vid=ecdeb839-d288-4298-bd17-74a7cb144436"},"vehicle_type_id":"4","last_reported":1742738855,"current_range_meters":14400,"station_id":"ce4bghh2rcd13ifvqb60","pricing_plan_id":"cebpf4jnsgd1na2vs0mg"},{"bike_id":"6e6f2292-d953-4193-b160-26f59d7cec7f","system_id":"levelo_inurba_marseille","lat":43.28631,"lon":5.35233,"is_reserved":false,"is_disabled":false,"rental_uris":{"android":"levelo://app?vid=6e6f2292-d953-4193-b160-26f59d7cec7f","ios":"levelo://app?vid=6e6f2292-d953-4193-b160-26f59d7cec7f"},"vehicle_type_id":"4","last_reported":1742738855,"current_range_meters":14400,"station_id":"","pricing_plan_id":"cebpf4jnsgd1na2vs0mg"},{"bike_id":"7f5e5c2c-97b8-4ea2-9fc9-69a4c6b408c5","system_id":"levelo_inurba_marseille","lat":43.31178,"lon":5.38713,"is_reserved":false,"is_disabled":false,"rental_uris":{"android":"levelo://app?vid=7f5e5c2c-97b8-4ea2-9fc9-69a4c6b408c5","ios":"levelo://app?vid=7f5e5c2c-97b8-4ea2-9fc9-69a4c6b408c5"},"vehicle_type_id":"4","last_reported":1742738855,"current_range_meters":14800,"station_id":"ce4bgv12rcd13ifvqcp0","pricing_plan_id":"cebpf4jnsgd1na2vs0mg"},{"bike_id":"24b77e8f-4e9e-4342-9950-404af23a4ef7","system_id":"levelo_inurba_marseille","lat":43.23959,"lon":5.36634,"is_reserved":false,"is_disabled":false,"rental_uris":{"android":"levelo://app?vid=24b77e8f-4e9e-4342-9950-404af23a4ef7","ios":"levelo://app?vid=24b77e8f-4e9e-4342-9950-404af23a4ef7"},"vehicle_type_id":"4","last_reported":1742738855,"current_range_meters":14800,"station_id":"ce4bhi12rcd13ifvqfp0","pricing_plan_id":"cebpf4jnsgd1na2vs0mg"},{"bike_id":"34207fc9-5939-4edc-8d37-fffbb14f3eec","system_id":"levelo_inurba_marseille","lat":43.30755,"lon":5.38299,"is_reserved":false,"is_disabled":false,"rental_uris":{"android":"levelo://app?vid=34207fc9-5939-4edc-8d37-fffbb14f3eec","ios":"levelo://app?vid=34207fc9-5939-4edc-8d37-fffbb14f3eec"},"vehicle_type_id":"4","last_reported":1742738855,"current_range_meters":14800,"station_id":"","pricing_plan_id":"cebpf4jnsgd1na2vs0mg"},{"bike_id":"73f24004-486a-42ce-8b4c-437345158989","system_id":"levelo_inurba_marseille","lat":43.25942,"lon":5.4091,"is_reserved":false,"is_disabled":false,"rental_uris":{"android":"levelo://app?vid=73f24004-486a-42ce-8b4c-437345158989","ios":"levelo://app?vid=73f24004-486a-42ce-8b4c-437345158989"},"vehicle_type_id":"4","last_reported":1742738855,"current_range_meters":14800,"station_id":"ce4bhm92rcd13ifvqglg","pricing_plan_id":"cebpf4jnsgd1na2vs0mg"},{"bike_id":"f52d578c-2e92-468c-8d0d-6b48faf8734d","system_id":"levelo_inurba_marseille","lat":43.29875,"lon":5.38926,"is_reserved":false,"is_disabled":true,"rental_uris":{"android":"levelo://app?vid=f52d578c-2e92-468c-8d0d-6b48faf8734d","ios":"levelo://app?vid=f52d578c-2e92-468c-8d0d-6b48faf8734d"},"vehicle_type_id":"4","last_reported":1742738855,"current_range_meters":14800,"station_id":"ce4bh392rcd13ifvqdl0","pricing_plan_id":"cebpf4jnsgd1na2vs0mg"},{"bike_id":"b4033be0-5b35-45ca-9979-c7890f6c888e","system_id":"levelo_inurba_marseille","lat":43.311677,"lon":5.387185,"is_reserved":false,"is_disabled":false,"rental_uris":{"android":"levelo://app?vid=b4033be0-5b35-45ca-9979-c7890f6c888e","ios":"levelo://app?vid=b4033be0-5b35-45ca-9979-c7890f6c888e"},"vehicle_type_id":"4","last_reported":1742738855,"current_range_meters":14800,"station_id":"ce4bh612rcd13ifvqe6g","pricing_plan_id":"cebpf4jnsgd1na2vs0mg"},{"bike_id":"e90042f4-0baf-48f7-aceb-eae799176385","system_id":"levelo_inurba_marseille","lat":43.27053,"lon":5.40265,"is_reserved":false,"is_disabled":false,"rental_uris":{"android":"levelo://app?vid=e90042f4-0baf-48f7-aceb-eae799176385","ios":"levelo://app?vid=e90042f4-0baf-48f7-aceb-eae799176385"},"vehicle_type_id":"4","last_reported":1742738855,"current_range_meters":14800,"station_id":"ce4bhk92rcd13ifvqgc0","pricing_plan_id":"cebpf4jnsgd1na2vs0mg"},{"bike_id":"45552859-4388-4519-83b2-67e80a70e6dd","system_id":"levelo_inurba_marseille","lat":43.2835,"lon":5.38112,"is_reserved":false,"is_disabled":false,"rental_uris":{"android":"levelo://app?vid=45552859-4388-4519-83b2-67e80a70e6dd","ios":"levelo://app?vid=45552859-4388-4519-83b2-67e80a70e6dd"},"vehicle_type_id":"4","last_reported":1742738855,"current_range_meters":14400,"station_id":"ce4bh412rcd13ifvqdr0","pricing_plan_id":"cebpf4jnsgd1na2vs0mg"},{"bike_id":"c3362549-d37d-47ba-9e62-5e06d74774a8","system_id":"levelo_inurba_marseille","lat":43.23202,"lon":5.35559,"is_reserved":false,"is_disabled":false,"rental_uris":{"android":"levelo://app?vid=c3362549-d37d-47ba-9e62-5e06d74774a8","ios":"levelo://app?vid=c3362549-d37d-47ba-9e62-5e06d74774a8"},"vehicle_type_id":"4","last_reported":1742738855,"current_range_meters":14800,"station_id":"ce4bhu92rcd13ifvqi70","pricing_plan_id":"cebpf4jnsgd1na2vs0mg"},{"bike_id":"190b2064-fd76-48bb-8245-b597993b1043","system_id":"levelo_inurba_marseille","lat":43.2783,"lon":5.40696,"is_reserved":false,"is_disabled":false,"rental_uris":{"android":"levelo://app?vid=190b2064-fd76-48bb-8245-b597993b1043","ios":"levelo://app?vid=190b2064-fd76-48bb-8245-b597993b1043"},"vehicle_type_id":"4","last_reported":1742738855,"current_range_meters":14800,"station_id":"ce4bhnh2rcd13ifvqgtg","pricing_plan_id":"cebpf4jnsgd1na2vs0mg"},{"bike_id":"b0412563-bdfd-4056-9ff8-db1bf9f2dd0a","system_id":"levelo_inurba_marseille","lat":43.23965,"lon":5.36642,"is_reserved":false,"is_disabled":false,"rental_uris":{"android":"levelo://app?vid=b0412563-bdfd-4056-9ff8-db1bf9f2dd0a","ios":"levelo://app?vid=b0412563-bdfd-4056-9ff8-db1bf9f2dd0a"},"vehicle_type_id":"4","last_reported":1742738855,"current_range_meters":14800,"station_id":"ce4bhi12rcd13ifvqfp0","pricing_plan_id":"cebpf4jnsgd1na2vs0mg"},{"bike_id":"2ca0e00a-5797-4fdf-8ea8-686805ca80c9","system_id":"levelo_inurba_marseille","lat":43.30995,"lon":5.39043,"is_reserved":false,"is_disabled":true,"rental_uris":{"android":"levelo://app?vid=2ca0e00a-5797-4fdf-8ea8-686805ca80c9","ios":"levelo://app?vid=2ca0e00a-5797-4fdf-8ea8-686805ca80c9"},"vehicle_type_id":"4","last_reported":1742738855,"current_range_meters":15200,"station_id":"ce4bgup2rcd13ifvqco0","pricing_plan_id":"cebpf4jnsgd1na2vs0mg"},{"bike_id":"f22d78b3-ffd3-44da-abc2-b3d6669cfcb0","system_id":"levelo_inurba_marseille","lat":43.25112,"lon":5.40322,"is_reserved":false,"is_disabled":false,"rental_uris":{"android":"levelo://app?vid=f22d78b3-ffd3-44da-abc2-b3d6669cfcb0","ios":"levelo://app?vid=f22d78b3-ffd3-44da-abc2-b3d6669cfcb0"},"vehicle_type_id":"4","last_reported":1742738855,"current_range_meters":15200,"station_id":"ce4bhlh2rcd13ifvqgig","pricing_plan_id":"cebpf4jnsgd1na2vs0mg"},{"bike_id":"87e86a8c-06a5-4c7c-ad4c-f947c9935fa5","system_id":"levelo_inurba_marseille","lat":43.2319,"lon":5.39987,"is_reserved":false,"is_disabled":false,"rental_uris":{"android":"levelo://app?vid=87e86a8c-06a5-4c7c-ad4c-f947c9935fa5","ios":"levelo://app?vid=87e86a8c-06a5-4c7c-ad4c-f947c9935fa5"},"vehicle_type_id":"4","last_reported":1742738855,"current_range_meters":15200,"station_id":"ce4bhn12rcd13ifvqgqg","pricing_plan_id":"cebpf4jnsgd1na2vs0mg"},{"bike_id":"bef6d4db-ed95-44d6-bc02-fd893be3a7cf","system_id":"levelo_inurba_marseille","lat":43.28346,"lon":5.38112,"is_reserved":false,"is_disabled":false,"rental_uris":{"android":"levelo://app?vid=bef6d4db-ed95-44d6-bc02-fd893be3a7cf","ios":"levelo://app?vid=bef6d4db-ed95-44d6-bc02-fd893be3a7cf"},"vehicle_type_id":"4","last_reported":1742738855,"current_range_meters":15200,"station_id":"ce4bh412rcd13ifvqdr0","pricing_plan_id":"cebpf4jnsgd1na2vs0mg"},{"bike_id":"27496029-c91e-45d5-8423-dd646ed48f72","system_id":"levelo_inurba_marseille","lat":43.23195,"lon":5.35555,"is_reserved":false,"is_disabled":false,"rental_uris":{"android":"levelo://app?vid=27496029-c91e-45d5-8423-dd646ed48f72","ios":"levelo://app?vid=27496029-c91e-45d5-8423-dd646ed48f72"},"vehicle_type_id":"4","last_reported":1742738855,"current_range_meters":16000,"station_id":"ce4bhu92rcd13ifvqi70","pricing_plan_id":"cebpf4jnsgd1na2vs0mg"},{"bike_id":"9cbc1949-0d4a-4c0d-928c-72d26191e6c2","system_id":"levelo_inurba_marseille","lat":43.28419,"lon":5.34984,"is_reserved":false,"is_disabled":false,"rental_uris":{"android":"levelo://app?vid=9cbc1949-0d4a-4c0d-928c-72d26191e6c2","ios":"levelo://app?vid=9cbc1949-0d4a-4c0d-928c-72d26191e6c2"},"vehicle_type_id":"4","last_reported":1742738855,"current_range_meters":16000,"station_id":"ce4bhbh2rcd13ifvqepg","pricing_plan_id":"cebpf4jnsgd1na2vs0mg"},{"bike_id":"cb7bdd2b-3379-4224-b596-67e0720cb0fa","system_id":"levelo_inurba_marseille","lat":43.23058,"lon":5.35488,"is_reserved":false,"is_disabled":false,"rental_uris":{"android":"levelo://app?vid=cb7bdd2b-3379-4224-b596-67e0720cb0fa","ios":"levelo://app?vid=cb7bdd2b-3379-4224-b596-67e0720cb0fa"},"vehicle_type_id":"4","last_reported":1742738855,"current_range_meters":16000,"station_id":"cpo3342slgdg3j2ifvpg","pricing_plan_id":"cebpf4jnsgd1na2vs0mg"},{"bike_id":"93ec7d5c-bd63-450b-a4b3-2aab91a9a53f","system_id":"levelo_inurba_marseille","lat":43.28419,"lon":5.3498,"is_reserved":false,"is_disabled":false,"rental_uris":{"android":"levelo://app?vid=93ec7d5c-bd63-450b-a4b3-2aab91a9a53f","ios":"levelo://app?vid=93ec7d5c-bd63-450b-a4b3-2aab91a9a53f"},"vehicle_type_id":"4","last_reported":1742738855,"current_range_meters":16000,"station_id":"ce4bhbh2rcd13ifvqepg","pricing_plan_id":"cebpf4jnsgd1na2vs0mg"},{"bike_id":"8db8e94c-5c15-452d-8525-723b319c3c7c","system_id":"levelo_inurba_marseille","lat":43.28869,"lon":5.39315,"is_reserved":false,"is_disabled":true,"rental_uris":{"android":"levelo://app?vid=8db8e94c-5c15-452d-8525-723b319c3c7c","ios":"levelo://app?vid=8db8e94c-5c15-452d-8525-723b319c3c7c"},"vehicle_type_id":"4","last_reported":1742738855,"current_range_meters":16000,"station_id":"ce4bh2p2rcd13ifvqdi0","pricing_plan_id":"cebpf4jnsgd1na2vs0mg"},{"bike_id":"bd9efa2d-e510-4373-b156-7632395cd83f","system_id":"levelo_inurba_marseille","lat":43.2396,"lon":5.36636,"is_reserved":false,"is_disabled":false,"rental_uris":{"android":"levelo://app?vid=bd9efa2d-e510-4373-b156-7632395cd83f","ios":"levelo://app?vid=bd9efa2d-e510-4373-b156-7632395cd83f"},"vehicle_type_id":"4","last_reported":1742738855,"current_range_meters":16000,"station_id":"ce4bhi12rcd13ifvqfp0","pricing_plan_id":"cebpf4jnsgd1na2vs0mg"},{"bike_id":"3552c022-01fb-4fdc-a14d-7739c527d240","system_id":"levelo_inurba_marseille","lat":43.28275,"lon":5.35071,"is_reserved":false,"is_disabled":false,"rental_uris":{"android":"levelo://app?vid=3552c022-01fb-4fdc-a14d-7739c527d240","ios":"levelo://app?vid=3552c022-01fb-4fdc-a14d-7739c527d240"},"vehicle_type_id":"4","last_reported":1742738855,"current_range_meters":16000,"station_id":"ce4bhbp2rcd13ifvqerg","pricing_plan_id":"cebpf4jnsgd1na2vs0mg"},{"bike_id":"f74b13c7-053c-4b7a-983a-625dd03e6fbb","system_id":"levelo_inurba_marseille","lat":43.23172,"lon":5.35571,"is_reserved":false,"is_disabled":false,"rental_uris":{"android":"levelo://app?vid=f74b13c7-053c-4b7a-983a-625dd03e6fbb","ios":"levelo://app?vid=f74b13c7-053c-4b7a-983a-625dd03e6fbb"},"vehicle_type_id":"4","last_reported":1742738855,"current_range_meters":16400,"station_id":"ce4bhu92rcd13ifvqi70","pricing_plan_id":"cebpf4jnsgd1na2vs0mg"},{"bike_id":"76757220-d8a3-400d-93c0-947089c24c8c","system_id":"levelo_inurba_marseille","lat":43.29898,"lon":5.43677,"is_reserved":false,"is_disabled":false,"rental_uris":{"android":"levelo://app?vid=76757220-d8a3-400d-93c0-947089c24c8c","ios":"levelo://app?vid=76757220-d8a3-400d-93c0-947089c24c8c"},"vehicle_type_id":"4","last_reported":1742738855,"current_range_meters":16400,"station_id":"ce4bhpp2rcd13ifvqhfg","pricing_plan_id":"cebpf4jnsgd1na2vs0mg"},{"bike_id":"115561f9-8de6-497c-b35c-68d1ace111ae","system_id":"levelo_inurba_marseille","lat":43.28621,"lon":5.35105,"is_reserved":false,"is_disabled":false,"rental_uris":{"android":"levelo://app?vid=115561f9-8de6-497c-b35c-68d1ace111ae","ios":"levelo://app?vid=115561f9-8de6-497c-b35c-68d1ace111ae"},"vehicle_type_id":"4","last_reported":1742738855,"current_range_meters":16400,"station_id":"ce4bhch2rcd13ifvqeug","pricing_plan_id":"cebpf4jnsgd1na2vs0mg"},{"bike_id":"fd75b0f4-d590-40ad-8ab6-124339ae9bb3","system_id":"levelo_inurba_marseille","lat":43.32609,"lon":5.41031,"is_reserved":false,"is_disabled":false,"rental_uris":{"android":"levelo://app?vid=fd75b0f4-d590-40ad-8ab6-124339ae9bb3","ios":"levelo://app?vid=fd75b0f4-d590-40ad-8ab6-124339ae9bb3"},"vehicle_type_id":"4","last_reported":1742738855,"current_range_meters":16400,"station_id":"","pricing_plan_id":"cebpf4jnsgd1na2vs0mg"},{"bike_id":"e784bcf0-e6f4-419c-acc0-929d2665a4b7","system_id":"levelo_inurba_marseille","lat":43.28149,"lon":5.42647,"is_reserved":false,"is_disabled":false,"rental_uris":{"android":"levelo://app?vid=e784bcf0-e6f4-419c-acc0-929d2665a4b7","ios":"levelo://app?vid=e784bcf0-e6f4-419c-acc0-929d2665a4b7"},"vehicle_type_id":"4","last_reported":1742738855,"current_range_meters":16400,"station_id":"ce4bhnh2rcd13ifvqgug","pricing_plan_id":"cebpf4jnsgd1na2vs0mg"},{"bike_id":"5844d9a5-bb80-4a65-9bf1-bfc5c297e765","system_id":"levelo_inurba_marseille","lat":43.33611,"lon":5.41037,"is_reserved":false,"is_disabled":false,"rental_uris":{"android":"levelo://app?vid=5844d9a5-bb80-4a65-9bf1-bfc5c297e765","ios":"levelo://app?vid=5844d9a5-bb80-4a65-9bf1-bfc5c297e765"},"vehicle_type_id":"4","last_reported":1742738855,"current_range_meters":16400,"station_id":"ce4bhqh2rcd13ifvqhmg","pricing_plan_id":"cebpf4jnsgd1na2vs0mg"},{"bike_id":"c4ab3472-f8f2-45ed-ad61-5a88a3be4471","system_id":"levelo_inurba_marseille","lat":43.29843,"lon":5.37836,"is_reserved":false,"is_disabled":false,"rental_uris":{"android":"levelo://app?vid=c4ab3472-f8f2-45ed-ad61-5a88a3be4471","ios":"levelo://app?vid=c4ab3472-f8f2-45ed-ad61-5a88a3be4471"},"vehicle_type_id":"4","last_reported":1742738855,"current_range_meters":16400,"station_id":"","pricing_plan_id":"cebpf4jnsgd1na2vs0mg"},{"bike_id":"c1f47fbe-b534-4b3c-8530-341a3d53a528","system_id":"levelo_inurba_marseille","lat":43.302924,"lon":5.392116,"is_reserved":false,"is_disabled":false,"rental_uris":{"android":"levelo://app?vid=c1f47fbe-b534-4b3c-8530-341a3d53a528","ios":"levelo://app?vid=c1f47fbe-b534-4b3c-8530-341a3d53a528"},"vehicle_type_id":"4","last_reported":1742738855,"current_range_meters":16400,"station_id":"ce4bgop2rcd13ifvqc1g","pricing_plan_id":"cebpf4jnsgd1na2vs0mg"},{"bike_id":"46c3b44b-19c7-48c2-8fcf-dabd183d384d","system_id":"levelo_inurba_marseille","lat":43.25113,"lon":5.40327,"is_reserved":false,"is_disabled":false,"rental_uris":{"android":"levelo://app?vid=46c3b44b-19c7-48c2-8fcf-dabd183d384d","ios":"levelo://app?vid=46c3b44b-19c7-48c2-8fcf-dabd183d384d"},"vehicle_type_id":"4","last_reported":1742738855,"current_range_meters":16400,"station_id":"ce4bhlh2rcd13ifvqgig","pricing_plan_id":"cebpf4jnsgd1na2vs0mg"},{"bike_id":"7cb552e9-1b90-4b45-ab23-4a48b2da1f44","system_id":"levelo_inurba_marseille","lat":43.27382,"lon":5.36255,"is_reserved":false,"is_disabled":false,"rental_uris":{"android":"levelo://app?vid=7cb552e9-1b90-4b45-ab23-4a48b2da1f44","ios":"levelo://app?vid=7cb552e9-1b90-4b45-ab23-4a48b2da1f44"},"vehicle_type_id":"4","last_reported":1742738855,"current_range_meters":16400,"station_id":"ce4bhbh2rcd13ifvqeo0","pricing_plan_id":"cebpf4jnsgd1na2vs0mg"},{"bike_id":"1997b10d-1d35-44d3-85c4-29c84df0623c","system_id":"levelo_inurba_marseille","lat":43.24072,"lon":5.37766,"is_reserved":false,"is_disabled":false,"rental_uris":{"android":"levelo://app?vid=1997b10d-1d35-44d3-85c4-29c84df0623c","ios":"levelo://app?vid=1997b10d-1d35-44d3-85c4-29c84df0623c"},"vehicle_type_id":"4","last_reported":1742738855,"current_range_meters":16400,"station_id":"ce4bhnp2rcd13ifvqgvg","pricing_plan_id":"cebpf4jnsgd1na2vs0mg"},{"bike_id":"6da13cbe-fe0b-42ba-8b7f-69afa665c6dc","system_id":"levelo_inurba_marseille","lat":43.30328,"lon":5.37572,"is_reserved":false,"is_disabled":false,"rental_uris":{"android":"levelo://app?vid=6da13cbe-fe0b-42ba-8b7f-69afa665c6dc","ios":"levelo://app?vid=6da13cbe-fe0b-42ba-8b7f-69afa665c6dc"},"vehicle_type_id":"4","last_reported":1742738855,"current_range_meters":16400,"station_id":"","pricing_plan_id":"cebpf4jnsgd1na2vs0mg"},{"bike_id":"9b3dcaf5-b313-4c20-91dc-f1c16272632c","system_id":"levelo_inurba_marseille","lat":43.28169,"lon":5.42635,"is_reserved":false,"is_disabled":false,"rental_uris":{"android":"levelo://app?vid=9b3dcaf5-b313-4c20-91dc-f1c16272632c","ios":"levelo://app?vid=9b3dcaf5-b313-4c20-91dc-f1c16272632c"},"vehicle_type_id":"4","last_reported":1742738855,"current_range_meters":16400,"station_id":"ce4bhnh2rcd13ifvqgug","pricing_plan_id":"cebpf4jnsgd1na2vs0mg"},