{"last_updated":1741032645,"ttl":60,"version":"2.2","data":{"bikes":[{"bike_id":"53e89396-23c2-42c2-a797-d5f1216cbc0f","system_id":"levelo_inurba_marseille","lat":43.279774,"lon":5.387428,"is_reserved":false,"is_disabled":false,"rental_uris":{"android":"levelo://app?vid=53e89396-23c2-42c2-a797-d5f1216cbc0f","ios":"levelo://app?vid=53e89396-23c2-42c2-a797-d5f1216cbc0f"},"vehicle_type_id":"4","last_reported":1741032645,"current_range_meters":2800,"station_id":"ce4bh492rcd13ifvqdug","pricing_plan_id":"cebpf4jnsgd1na2vs0mg"},{"bike_id":"ee03f83b-3694-42cc-a671-e03a150a1798","system_id":"levelo_inurba_marseille","lat":43.24603,"lon":5.41973,"is_reserved":false,"is_disabled":false,"rental_uris":{"android":"levelo://app?vid=ee03f83b-3694-42cc-a671-e03a150a1798","ios":"levelo://app?vid=ee03f83b-3694-42cc-a671-e03a150a1798"},"vehicle_type_id":"4","last_reported":1741032645,"current_range_meters":2800,"station_id":"","pricing_plan_id":"cebpf4jnsgd1na2vs0mg"},{"bike_id":"dfbe5b22-16bd-45bc-88c0-b49540ad072c","system_id":"levelo_inurba_marseille","lat":43.31059,"lon":5.3834,"is_reserved":false,"is_disabled":false,"rental_uris":{"android":"levelo://app?vid=dfbe5b22-16bd-45bc-88c0-b49540ad072c","ios":"levelo://app?vid=dfbe5b22-16bd-45bc-88c0-b49540ad072c"},"vehicle_type_id":"4","last_reported":1741032645,"current_range_meters":2800,"station_id":"ce4bgv92rcd13ifvqcr0","pricing_plan_id":"cebpf4jnsgd1na2vs0mg"},{"bike_id":"0beb0083-7441-4b48-bd15-be39f411e5a9","system_id":"levelo_inurba_marseille","lat":43.27177,"lon":5.40996,"is_reserved":false,"is_disabled":false,"rental_uris":{"android":"levelo://app?vid=0beb0083-7441-4b48-bd15-be39f411e5a9","ios":"levelo://app?vid=0beb0083-7441-4b48-bd15-be39f411e5a9"},"vehicle_type_id":"4","last_reported":1741032645,"current_range_meters":2800,"station_id":"ce4bhl12rcd13ifvqgf0","pricing_plan_id":"cebpf4jnsgd1na2vs0mg"},{"bike_id":"18dc9bda-e5c5-440d-b60f-d6dbca42063e","system_id":"levelo_inurba_marseille","lat":43.29879,"lon":5.38909,"is_reserved":false,"is_disabled":false,"rental_uris":{"android":"levelo://app?vid=18dc9bda-e5c5-440d-b60f-d6dbca42063e","ios":"levelo://app?vid=18dc9bda-e5c5-440d-b60f-d6dbca42063e"},"vehicle_type_id":"4","last_reported":1741032645,"current_range_meters":2800,"station_id":"ce4bh392rcd13ifvqdl0","pricing_plan_id":"cebpf4jnsgd1na2vs0mg"},{"bike_id":"7d20e0c3-9413-4d8c-86cb-bbbfaa900348","system_id":"levelo_inurba_marseille","lat":43.26207,"lon":5.40466,"is_reserved":false,"is_disabled":false,"rental_uris":{"android":"levelo://app?vid=7d20e0c3-9413-4d8c-86cb-bbbfaa900348","ios":"levelo://app?vid=7d20e0c3-9413-4d8c-86cb-bbbfaa900348"},"vehicle_type_id":"4","last_reported":1741032645,"current_range_meters":3200,"station_id":"ce4bhmh2rcd13ifvqgmg","pricing_plan_id":"cebpf4jnsgd1na2vs0mg"},{"bike_id":"26350f2f-54a6-49a6-9b9f-9776dbf53608","system_id":"levelo_inurba_marseille","lat":43.29012,"lon":5.35594,"is_reserved":false,"is_disabled":false,"rental_uris":{"android":"levelo://app?vid=26350f2f-54a6-49a6-9b9f-9776dbf53608","ios":"levelo://app?vid=26350f2f-54a6-49a6-9b9f-9776dbf53608"},"vehicle_type_id":"4","last_reported":1741032645,"current_range_meters":3200,"station_id":"ce4bhb92rcd13ifvqen0","pricing_plan_id":"cebpf4jnsgd1na2vs0mg"},{"bike_id":"83b497b2-314e-4b20-9e5a-bb5497fdb332","system_id":"levelo_inurba_marseille","lat":43.28438,"lon":5.39211,"is_reserved":false,"is_disabled":false,"rental_uris":{"android":"levelo://app?vid=83b497b2-314e-4b20-9e5a-bb5497fdb332","ios":"levelo://app?vid=83b497b2-314e-4b20-9e5a-bb5497fdb332"},"vehicle_type_id":"4","last_reported":1741032645,"current_range_meters":3200,"station_id":"ce4bhoh2rcd13ifvqh5g","pricing_plan_id":"cebpf4jnsgd1na2vs0mg"},{"bike_id":"b6c23505-d18b-466f-92d2-85235d7acd7b","system_id":"levelo_inurba_marseille","lat":43.28691,"lon":5.38658,"is_reserved":false,"is_disabled":false,"rental_uris":{"android":"levelo://app?vid=b6c23505-d18b-466f-92d2-85235d7acd7b","ios":"levelo://app?vid=b6c23505-d18b-466f-92d2-85235d7acd7b"},"vehicle_type_id":"4","last_reported":1741032645,"current_range_meters":3600,"station_id":"ce4bh492rcd13ifvqdug","pricing_plan_id":"cebpf4jnsgd1na2vs0mg"},{"bike_id":"a8abc00a-3761-4f67-bd0f-e0eeed19e130","system_id":"levelo_inurba_marseille","lat":43.301385,"lon":5.398728,"is_reserved":false,"is_disabled":false,"rental_uris":{"android":"levelo://app?vid=a8abc00a-3761-4f67-bd0f-e0eeed19e130","ios":"levelo://app?vid=a8abc00a-3761-4f67-bd0f-e0eeed19e130"},"vehicle_type_id":"4","last_reported":1741032645,"current_range_meters":3600,"station_id":"ce4bgjh2rcd13ifvqbg0","pricing_plan_id":"cebpf4jnsgd1na2vs0mg"},{"bike_id":"28d8c838-7563-4204-99de-6bfee341891f","system_id":"levelo_inurba_marseille","lat":43.28941,"lon":5.36385,"is_reserved":false,"is_disabled":false,"rental_uris":{"android":"levelo://app?vid=28d8c838-7563-4204-99de-6bfee341891f","ios":"levelo://app?vid=28d8c838-7563-4204-99de-6bfee341891f"},"vehicle_type_id":"4","last_reported":1741032645,"current_range_meters":3600,"station_id":"ce4bhc92rcd13ifvqetg","pricing_plan_id":"cebpf4jnsgd1na2vs0mg"},{"bike_id":"0f81143d-a661-448d-b5db-73d277586f49","system_id":"levelo_inurba_marseille","lat":43.29047,"lon":5.37562,"is_reserved":false,"is_disabled":false,"rental_uris":{"android":"levelo://app?vid=0f81143d-a661-448d-b5db-73d277586f49","ios":"levelo://app?vid=0f81143d-a661-448d-b5db-73d277586f49"},"vehicle_type_id":"4","last_reported":1741032645,"current_range_meters":4000,"station_id":"ce4bh692rcd13ifvqe90","pricing_plan_id":"cebpf4jnsgd1na2vs0mg"},{"bike_id":"e38aa0b3-5634-433d-88ec-8fa5630b7bfa","system_id":"levelo_inurba_marseille","lat":43.28678,"lon":5.36365,"is_reserved":false,"is_disabled":false,"rental_uris":{"android":"levelo://app?vid=e38aa0b3-5634-433d-88ec-8fa5630b7bfa","ios":"levelo://app?vid=e38aa0b3-5634-433d-88ec-8fa5630b7bfa"},"vehicle_type_id":"4","last_reported":1741032645,"current_range_meters":4000,"station_id":"ce4bhah2rcd13ifvqej0","pricing_plan_id":"cebpf4jnsgd1na2vs0mg"},{"bike_id":"21872e80-97c2-42ce-9a03-8663a63c8e69","system_id":"levelo_inurba_marseille","lat":43.309,"lon":5.37192,"is_reserved":false,"is_disabled":false,"rental_uris":{"android":"levelo://app?vid=21872e80-97c2-42ce-9a03-8663a63c8e69","ios":"levelo://app?vid=21872e80-97c2-42ce-9a03-8663a63c8e69"},"vehicle_type_id":"4","last_reported":1741032645,"current_range_meters":4000,"station_id":"ce4bguh2rcd13ifvqckg","pricing_plan_id":"cebpf4jnsgd1na2vs0mg"},{"bike_id":"7294fa1b-6789-4d34-92da-72d6801cf1aa","system_id":"levelo_inurba_marseille","lat":43.32727,"lon":5.36274,"is_reserved":false,"is_disabled":false,"rental_uris":{"android":"levelo://app?vid=7294fa1b-6789-4d34-92da-72d6801cf1aa","ios":"levelo://app?vid=7294fa1b-6789-4d34-92da-72d6801cf1aa"},"vehicle_type_id":"4","last_reported":1741032645,"current_range_meters":4000,"station_id":"","pricing_plan_id":"cebpf4jnsgd1na2vs0mg"},{"bike_id":"b03c3a9d-0fa3-4b59-8697-d4e3a3388e49","system_id":"levelo_inurba_marseille","lat":43.289918,"lon":5.356608,"is_reserved":false,"is_disabled":false,"rental_uris":{"android":"levelo://app?vid=b03c3a9d-0fa3-4b59-8697-d4e3a3388e49","ios":"levelo://app?vid=b03c3a9d-0fa3-4b59-8697-d4e3a3388e49"},"vehicle_type_id":"4","last_reported":1741032645,"current_range_meters":4400,"station_id":"ce4bhb92rcd13ifvqen0","pricing_plan_id":"cebpf4jnsgd1na2vs0mg"},{"bike_id":"fbb434ec-fb3e-4b4d-be26-675e17ec36af","system_id":"levelo_inurba_marseille","lat":43.23167,"lon":5.43705,"is_reserved":false,"is_disabled":true,"rental_uris":{"android":"levelo://app?vid=fbb434ec-fb3e-4b4d-be26-675e17ec36af","ios":"levelo://app?vid=fbb434ec-fb3e-4b4d-be26-675e17ec36af"},"vehicle_type_id":"4","last_reported":1741032645,"current_range_meters":4400,"station_id":"ce4bhmp2rcd13ifvqgog","pricing_plan_id":"cebpf4jnsgd1na2vs0mg"},{"bike_id":"b80734e0-8979-42a2-8d04-ad13ecb4c417","system_id":"levelo_inurba_marseille","lat":43.30422,"lon":5.41279,"is_reserved":false,"is_disabled":false,"rental_uris":{"android":"levelo://app?vid=b80734e0-8979-42a2-8d04-ad13ecb4c417","ios":"levelo://app?vid=b80734e0-8979-42a2-8d04-ad13ecb4c417"},"vehicle_type_id":"4","last_reported":1741032645,"current_range_meters":4400,"station_id":"ce4bhop2rcd13ifvqh8g","pricing_plan_id":"cebpf4jnsgd1na2vs0mg"},{"bike_id":"face0865-d642-455a-b3a5-4e8ed90ff01b","system_id":"levelo_inurba_marseille","lat":43.25826,"lon":5.39436,"is_reserved":false,"is_disabled":false,"rental_uris":{"android":"levelo://app?vid=face0865-d642-455a-b3a5-4e8ed90ff01b","ios":"levelo://app?vid=face0865-d642-455a-b3a5-4e8ed90ff01b"},"vehicle_type_id":"4","last_reported":1741032645,"current_range_meters":4400,"station_id":"ce4bhip2rcd13ifvqft0","pricing_plan_id":"cebpf4jnsgd1na2vs0mg"},{"bike_id":"f224c7e8-3be4-4479-9b6c-cd1890de52d2","system_id":"levelo_inurba_marseille","lat":43.28168,"lon":5.42614,"is_reserved":false,"is_disabled":false,"rental_uris":{"android":"levelo://app?vid=f224c7e8-3be4-4479-9b6c-cd1890de52d2","ios":"levelo://app?vid=f224c7e8-3be4-4479-9b6c-cd1890de52d2"},"vehicle_type_id":"4","last_reported":1741032645,"current_range_meters":4400,"station_id":"ce4bhnh2rcd13ifvqgug","pricing_plan_id":"cebpf4jnsgd1na2vs0mg"},{"bike_id":"0b423f28-c994-44a8-92c2-143d6e2a54a1","system_id":"levelo_inurba_marseille","lat":43.2907,"lon":5.37151,"is_reserved":false,"is_disabled":false,"rental_uris":{"android":"levelo://app?vid=0b423f28-c994-44a8-92c2-143d6e2a54a1","ios":"levelo://app?vid=0b423f28-c994-44a8-92c2-143d6e2a54a1"},"vehicle_type_id":"4","last_reported":1741032645,"current_range_meters":4400,"station_id":"ce4bh5p2rcd13ifvqe4g","pricing_plan_id":"cebpf4jnsgd1na2vs0mg"},{"bike_id":"7df0e9ef-3a60-4c27-8f7e-cc7aef1298be","system_id":"levelo_inurba_marseille","lat":43.31272,"lon":5.40176,"is_reserved":false,"is_disabled":false,"rental_uris":{"android":"levelo://app?vid=7df0e9ef-3a60-4c27-8f7e-cc7aef1298be","ios":"levelo://app?vid=7df0e9ef-3a60-4c27-8f7e-cc7aef1298be"},"vehicle_type_id":"4","last_reported":1741032645,"current_range_meters":4800,"station_id":"ce4bh092rcd13ifvqd30","pricing_plan_id":"cebpf4jnsgd1na2vs0mg"},{"bike_id":"217d65b3-7ceb-462d-9843-88d2f01a5050","system_id":"levelo_inurba_marseille","lat":43.32904,"lon":5.3806,"is_reserved":false,"is_disabled":false,"rental_uris":{"android":"levelo://app?vid=217d65b3-7ceb-462d-9843-88d2f01a5050","ios":"levelo://app?vid=217d65b3-7ceb-462d-9843-88d2f01a5050"},"vehicle_type_id":"4","last_reported":1741032645,"current_range_meters":4800,"station_id":"","pricing_plan_id":"cebpf4jnsgd1na2vs0mg"},{"bike_id":"6831e895-45f6-493a-be8a-99fde45419fa","system_id":"levelo_inurba_marseille","lat":43.2782,"lon":5.40718,"is_reserved":false,"is_disabled":false,"rental_uris":{"android":"levelo://app?vid=6831e895-45f6-493a-be8a-99fde45419fa","ios":"levelo://app?vid=6831e895-45f6-493a-be8a-99fde45419fa"},"vehicle_type_id":"4","last_reported":1741032645,"current_range_meters":4800,"station_id":"ce4bhnh2rcd13ifvqgtg","pricing_plan_id":"cebpf4jnsgd1na2vs0mg"},{"bike_id":"9463366e-522d-4127-840d-efbf9c7cebdc","system_id":"levelo_inurba_marseille","lat":43.3117,"lon":5.38707,"is_reserved":false,"is_disabled":false,"rental_uris":{"android":"levelo://app?vid=9463366e-522d-4127-840d-efbf9c7cebdc","ios":"levelo://app?vid=9463366e-522d-4127-840d-efbf9c7cebdc"},"vehicle_type_id":"4","last_reported":1741032645,"current_range_meters":4800,"station_id":"ce4bgv12rcd13ifvqcp0","pricing_plan_id":"cebpf4jnsgd1na2vs0mg"},{"bike_id":"24ed5ac6-3975-425d-9c54-09b0c1c5f0d0","system_id":"levelo_inurba_marseille","lat":43.28425,"lon":5.37561,"is_reserved":false,"is_disabled":false,"rental_uris":{"android":"levelo://app?vid=24ed5ac6-3975-425d-9c54-09b0c1c5f0d0","ios":"levelo://app?vid=24ed5ac6-3975-425d-9c54-09b0c1c5f0d0"},"vehicle_type_id":"4","last_reported":1741032645,"current_range_meters":5600,"station_id":"","pricing_plan_id":"cebpf4jnsgd1na2vs0mg"},{"bike_id":"e0fc8d54-7aea-4d6e-8fa8-926448c099ad","system_id":"levelo_inurba_marseille","lat":43.26071,"lon":5.39374,"is_reserved":false,"is_disabled":false,"rental_uris":{"android":"levelo://app?vid=e0fc8d54-7aea-4d6e-8fa8-926448c099ad","ios":"levelo://app?vid=e0fc8d54-7aea-4d6e-8fa8-926448c099ad"},"vehicle_type_id":"4","last_reported":1741032645,"current_range_meters":5600,"station_id":"ce4bhh92rcd13ifvqfj0","pricing_plan_id":"cebpf4jnsgd1na2vs0mg"},{"bike_id":"8b458597-9639-492e-aa6b-d0a23ffeb280","system_id":"levelo_inurba_marseille","lat":43.25575,"lon":5.38249,"is_reserved":false,"is_disabled":false,"rental_uris":{"android":"levelo://app?vid=8b458597-9639-492e-aa6b-d0a23ffeb280","ios":"levelo://app?vid=8b458597-9639-492e-aa6b-d0a23ffeb280"},"vehicle_type_id":"4","last_reported":1741032645,"current_range_meters":5600,"station_id":"ce4bhih2rcd13ifvqfs0","pricing_plan_id":"cebpf4jnsgd1na2vs0mg"},{"bike_id":"86c7165b-af41-4ab6-8db1-4c48ec9527b2","system_id":"levelo_inurba_marseille","lat":43.2886,"lon":5.35866,"is_reserved":false,"is_disabled":false,"rental_uris":{"android":"levelo://app?vid=86c7165b-af41-4ab6-8db1-4c48ec9527b2","ios":"levelo://app?vid=86c7165b-af41-4ab6-8db1-4c48ec9527b2"},"vehicle_type_id":"4","last_reported":1741032645,"current_range_meters":5600,"station_id":"ce4bhb12rcd13ifvqem0","pricing_plan_id":"cebpf4jnsgd1na2vs0mg"},{"bike_id":"ed66d6d0-2199-4330-a81f-5b8beacb5347","system_id":"levelo_inurba_marseille","lat":43.28414,"lon":5.37541,"is_reserved":false,"is_disabled":false,"rental_uris":{"android":"levelo://app?vid=ed66d6d0-2199-4330-a81f-5b8beacb5347","ios":"levelo://app?vid=ed66d6d0-2199-4330-a81f-5b8beacb5347"},"vehicle_type_id":"4","last_reported":1741032645,"current_range_meters":5600,"station_id":"ce4bh412rcd13ifvqds0","pricing_plan_id":"cebpf4jnsgd1na2vs0mg"},{"bike_id":"e355fddf-c114-45a4-b7a3-1e02fde20fd3","system_id":"levelo_inurba_marseille","lat":43.25108,"lon":5.40334,"is_reserved":false,"is_disabled":false,"rental_uris":{"android":"levelo://app?vid=e355fddf-c114-45a4-b7a3-1e02fde20fd3","ios":"levelo://app?vid=e355fddf-c114-45a4-b7a3-1e02fde20fd3"},"vehicle_type_id":"4","last_reported":1741032645,"current_range_meters":6000,"station_id":"ce4bhlh2rcd13ifvqgig","pricing_plan_id":"cebpf4jnsgd1na2vs0mg"},{"bike_id":"db917d75-2e56-416a-a174-c009ce6c14ea","system_id":"levelo_inurba_marseille","lat":43.28929,"lon":5.36388,"is_reserved":false,"is_disabled":false,"rental_uris":{"android":"levelo://app?vid=db917d75-2e56-416a-a174-c009ce6c14ea","ios":"levelo://app?vid=db917d75-2e56-416a-a174-c009ce6c14ea"},"vehicle_type_id":"4","last_reported":1741032645,"current_range_meters":6000,"station_id":"ce4bhc92rcd13ifvqetg","pricing_plan_id":"cebpf4jnsgd1na2vs0mg"},{"bike_id":"8ae6a80b-8e3f-41cf-a17c-6c04d3b9ae14","system_id":"levelo_inurba_marseille","lat":43.29004,"lon":5.38139,"is_reserved":false,"is_disabled":false,"rental_uris":{"android":"levelo://app?vid=8ae6a80b-8e3f-41cf-a17c-6c04d3b9ae14","ios":"levelo://app?vid=8ae6a80b-8e3f-41cf-a17c-6c04d3b9ae14"},"vehicle_type_id":"4","last_reported":1741032645,"current_range_meters":6000,"station_id":"ce4bh4p2rcd13ifvqe1g","pricing_plan_id":"cebpf4jnsgd1na2vs0mg"},{"bike_id":"22fae547-e446-46ff-a02d-c56f6b239dd6","system_id":"levelo_inurba_marseille","lat":43.3133,"lon":5.39691,"is_reserved":false,"is_disabled":false,"rental_uris":{"android":"levelo://app?vid=22fae547-e446-46ff-a02d-c56f6b239dd6","ios":"levelo://app?vid=22fae547-e446-46ff-a02d-c56f6b239dd6"},"vehicle_type_id":"4","last_reported":1741032645,"current_range_meters":6000,"station_id":"ce4bgvp2rcd13ifvqcu0","pricing_plan_id":"cebpf4jnsgd1na2vs0mg"},{"bike_id":"c6f5a98c-7495-43ef-b326-63d5e1e260b7","system_id":"levelo_inurba_marseille","lat":43.29202,"lon":5.35811,"is_reserved":false,"is_disabled":false,"rental_uris":{"android":"levelo://app?vid=c6f5a98c-7495-43ef-b326-63d5e1e260b7","ios":"levelo://app?vid=c6f5a98c-7495-43ef-b326-63d5e1e260b7"},"vehicle_type_id":"4","last_reported":1741032645,"current_range_meters":6000,"station_id":"ce4bhb12rcd13ifvqel0","pricing_plan_id":"cebpf4jnsgd1na2vs0mg"},{"bike_id":"de12ae88-8a49-4127-a4ae-0c2d4331cb91","system_id":"levelo_inurba_marseille","lat":43.24392,"lon":5.37057,"is_reserved":false,"is_disabled":false,"rental_uris":{"android":"levelo://app?vid=de12ae88-8a49-4127-a4ae-0c2d4331cb91","ios":"levelo://app?vid=de12ae88-8a49-4127-a4ae-0c2d4331cb91"},"vehicle_type_id":"4","last_reported":1741032645,"current_range_meters":6400,"station_id":"ce4bhhh2rcd13ifvqfk0","pricing_plan_id":"cebpf4jnsgd1na2vs0mg"},{"bike_id":"6d179f19-88b8-4e27-9211-90e1bfa6d2cb","system_id":"levelo_inurba_marseille","lat":43.3302,"lon":5.39287,"is_reserved":false,"is_disabled":false,"rental_uris":{"android":"levelo://app?vid=6d179f19-88b8-4e27-9211-90e1bfa6d2cb","ios":"levelo://app?vid=6d179f19-88b8-4e27-9211-90e1bfa6d2cb"},"vehicle_type_id":"4","last_reported":1741032645,"current_range_meters":6400,"station_id":"","pricing_plan_id":"cebpf4jnsgd1na2vs0mg"},{"bike_id":"fd55ec61-ea03-4691-8f74-530e74ea7311","system_id":"levelo_inurba_marseille","lat":43.24994,"lon":5.38931,"is_reserved":false,"is_disabled":false,"rental_uris":{"android":"levelo://app?vid=fd55ec61-ea03-4691-8f74-530e74ea7311","ios":"levelo://app?vid=fd55ec61-ea03-4691-8f74-530e74ea7311"},"vehicle_type_id":"4","last_reported":1741032645,"current_range_meters":6400,"station_id":"ce4bhgp2rcd13ifvqfd0","pricing_plan_id":"cebpf4jnsgd1na2vs0mg"},{"bike_id":"46915a1c-952e-4ae6-8b99-730a0ce44978","system_id":"levelo_inurba_marseille","lat":43.28448,"lon":5.39204,"is_reserved":false,"is_disabled":false,"rental_uris":{"android":"levelo://app?vid=46915a1c-952e-4ae6-8b99-730a0ce44978","ios":"levelo://app?vid=46915a1c-952e-4ae6-8b99-730a0ce44978"},"vehicle_type_id":"4","last_reported":1741032645,"current_range_meters":6400,"station_id":"ce4bhoh2rcd13ifvqh5g","pricing_plan_id":"cebpf4jnsgd1na2vs0mg"},{"bike_id":"b4a958b6-c20a-49d7-b146-1203321285d8","system_id":"levelo_inurba_marseille","lat":43.2318,"lon":5.39992,"is_reserved":false,"is_disabled":false,"rental_uris":{"android":"levelo://app?vid=b4a958b6-c20a-49d7-b146-1203321285d8","ios":"levelo://app?vid=b4a958b6-c20a-49d7-b146-1203321285d8"},"vehicle_type_id":"4","last_reported":1741032645,"current_range_meters":6400,"station_id":"ce4bhn12rcd13ifvqgqg","pricing_plan_id":"cebpf4jnsgd1na2vs0mg"},{"bike_id":"51dac736-e1f7-43ae-a021-5c1e738d6bef","system_id":"levelo_inurba_marseille","lat":43.28879,"lon":5.35853,"is_reserved":false,"is_disabled":true,"rental_uris":{"android":"levelo://app?vid=51dac736-e1f7-43ae-a021-5c1e738d6bef","ios":"levelo://app?vid=51dac736-e1f7-43ae-a021-5c1e738d6bef"},"vehicle_type_id":"4","last_reported":1741032645,"current_range_meters":6400,"station_id":"ce4bhb12rcd13ifvqem0","pricing_plan_id":"cebpf4jnsgd1na2vs0mg"},{"bike_id":"e7bf9aa4-ebab-4733-bd2d-62b9efb9b294","system_id":"levelo_inurba_marseille","lat":43.27482,"lon":5.42449,"is_reserved":false,"is_disabled":true,"rental_uris":{"android":"levelo://app?vid=e7bf9aa4-ebab-4733-bd2d-62b9efb9b294","ios":"levelo://app?vid=e7bf9aa4-ebab-4733-bd2d-62b9efb9b294"},"vehicle_type_id":"4","last_reported":1741032645,"current_range_meters":6400,"station_id":"ce4bhn92rcd13ifvqgrg","pricing_plan_id":"cebpf4jnsgd1na2vs0mg"},{"bike_id":"b80a8d7f-92e6-4f78-b57f-311159fa4e97","system_id":"levelo_inurba_marseille","lat":43.28143,"lon":5.4266,"is_reserved":false,"is_disabled":false,"rental_uris":{"android":"levelo://app?vid=b80a8d7f-92e6-4f78-b57f-311159fa4e97","ios":"levelo://app?vid=b80a8d7f-92e6-4f78-b57f-311159fa4e97"},"vehicle_type_id":"4","last_reported":1741032645,"current_range_meters":6400,"station_id":"ce4bhnh2rcd13ifvqgug","pricing_plan_id":"cebpf4jnsgd1na2vs0mg"},{"bike_id":"b607ea7b-de8a-4db3-bd0a-bd62ecd3499e","system_id":"levelo_inurba_marseille","lat":43.29445,"lon":5.39738,"is_reserved":false,"is_disabled":false,"rental_uris":{"android":"levelo://app?vid=b607ea7b-de8a-4db3-bd0a-bd62ecd3499e","ios":"levelo://app?vid=b607ea7b-de8a-4db3-bd0a-bd62ecd3499e"},"vehicle_type_id":"4","last_reported":1741032645,"current_range_meters":6400,"station_id":"ce4bh3h2rcd13ifvqdo0","pricing_plan_id":"cebpf4jnsgd1na2vs0mg"},{"bike_id":"5448adf4-7c92-4e80-8997-a3207cf43e8b","system_id":"levelo_inurba_marseille","lat":43.30428,"lon":5.38879,"is_reserved":false,"is_disabled":false,"rental_uris":{"android":"levelo://app?vid=5448adf4-7c92-4e80-8997-a3207cf43e8b","ios":"levelo://app?vid=5448adf4-7c92-4e80-8997-a3207cf43e8b"},"vehicle_type_id":"4","last_reported":1741032645,"current_range_meters":6800,"station_id":"ce4bgk12rcd13ifvqbi0","pricing_plan_id":"cebpf4jnsgd1na2vs0mg"},{"bike_id":"c1228a63-fb04-46dd-ab39-c6f68c8b00ad","system_id":"levelo_inurba_marseille","lat":43.29837,"lon":5.36293,"is_reserved":false,"is_disabled":false,"rental_uris":{"android":"levelo://app?vid=c1228a63-fb04-46dd-ab39-c6f68c8b00ad","ios":"levelo://app?vid=c1228a63-fb04-46dd-ab39-c6f68c8b00ad"},"vehicle_type_id":"4","last_reported":1741032645,"current_range_meters":6800,"station_id":"ce4bhoh2rcd13ifvqh5g","pricing_plan_id":"cebpf4jnsgd1na2vs0mg"},{"bike_id":"23c20c41-e8a4-4dc6-b7b9-05b6d6793f3e","system_id":"levelo_inurba_marseille","lat":43.27826,"lon":5.40709,"is_reserved":false,"is_disabled":false,"rental_uris":{"android":"levelo://app?vid=23c20c41-e8a4-4dc6-b7b9-05b6d6793f3e","ios":"levelo://app?vid=23c20c41-e8a4-4dc6-b7b9-05b6d6793f3e"},"vehicle_type_id":"4","last_reported":1741032645,"current_range_meters":6800,"station_id":"ce4bhnh2rcd13ifvqgtg","pricing_plan_id":"cebpf4jnsgd1na2vs0mg"},{"bike_id":"e570d6c1-cc4e-42a8-a853-3a66a5e91138","system_id":"levelo_inurba_marseille","lat":43.23069,"lon":5.35473,"is_reserved":false,"is_disabled":false,"rental_uris":{"android":"levelo://app?vid=e570d6c1-cc4e-42a8-a853-3a66a5e91138","ios":"levelo://app?vid=e570d6c1-cc4e-42a8-a853-3a66a5e91138"},"vehicle_type_id":"4","last_reported":1741032645,"current_range_meters":6800,"station_id":"cpo3342slgdg3j2ifvpg","pricing_plan_id":"cebpf4jnsgd1na2vs0mg"},{"bike_id":"f2eeef9f-275d-44c2-826c-e74f7f433524","system_id":"levelo_inurba_marseille","lat":43.27429,"lon":5.39425,"is_reserved":false,"is_disabled":false,"rental_uris":{"android":"levelo://app?vid=f2eeef9f-275d-44c2-826c-e74f7f433524","ios":"levelo://app?vid=f2eeef9f-275d-44c2-826c-e74f7f433524"},"vehicle_type_id":"4","last_reported":1741032645,"current_range_meters":6800,"station_id":"ce4bhdp2rcd13ifvqf20","pricing_plan_id":"cebpf4jnsgd1na2vs0mg"},{"bike_id":"5cd0c11b-f9d6-428f-9f34-0abc9c264bfe","system_id":"levelo_inurba_marseille","lat":43.27984,"lon":5.41637,"is_reserved":false,"is_disabled":false,"rental_uris":{"android":"levelo://app?vid=5cd0c11b-f9d6-428f-9f34-0abc9c264bfe","ios":"levelo://app?vid=5cd0c11b-f9d6-428f-9f34-0abc9c264bfe"},"vehicle_type_id":"4","last_reported":1741032645,"current_range_meters":6800,"station_id":"ce4bho12rcd13ifvqh1g","pricing_plan_id":"cebpf4jnsgd1na2vs0mg"},{"bike_id":"232499b3-0afe-409e-b179-d21bfa5b759f","system_id":"levelo_inurba_marseille","lat":43.27178,"lon":5.4099,"is_reserved":false,"is_disabled":false,"rental_uris":{"android":"levelo://app?vid=232499b3-0afe-409e-b179-d21bfa5b759f","ios":"levelo://app?vid=232499b3-0afe-409e-b179-d21bfa5b759f"},"vehicle_type_id":"4","last_reported":1741032645,"current_range_meters":6800,"station_id":"ce4bhl12rcd13ifvqgf0","pricing_plan_id":"cebpf4jnsgd1na2vs0mg"},{"bike_id":"9db49163-1bcf-4cb4-975b-b1e9ddf4e6d9","system_id":"levelo_inurba_marseille","lat":43.27176,"lon":5.40996,"is_reserved":false,"is_disabled":false,"rental_uris":{"android":"levelo://app?vid=9db49163-1bcf-4cb4-975b-b1e9ddf4e6d9","ios":"levelo://app?vid=9db49163-1bcf-4cb4-975b-b1e9ddf4e6d9"},"vehicle_type_id":"4","last_reported":1741032645,"current_range_meters":6800,"station_id":"ce4bhl12rcd13ifvqgf0","pricing_plan_id":"cebpf4jnsgd1na2vs0mg"},{"bike_id":"1621e0c3-0194-4d15-8a8b-87beecb39238","system_id":"levelo_inurba_marseille","lat":43.3201,"lon":5.38137,"is_reserved":false,"is_disabled":true,"rental_uris":{"android":"levelo://app?vid=1621e0c3-0194-4d15-8a8b-87beecb39238","ios":"levelo://app?vid=1621e0c3-0194-4d15-8a8b-87beecb39238"},"vehicle_type_id":"4","last_reported":1741032645,"current_range_meters":7200,"station_id":"ce4bhr12rcd13ifvqhpg","pricing_plan_id":"cebpf4jnsgd1na2vs0mg"},{"bike_id":"3d8c95d1-4c69-468a-ae4e-3bcc4d973ad2","system_id":"levelo_inurba_marseille","lat":43.29281,"lon":5.36844,"is_reserved":false,"is_disabled":false,"rental_uris":{"android":"levelo://app?vid=3d8c95d1-4c69-468a-ae4e-3bcc4d973ad2","ios":"levelo://app?vid=3d8c95d1-4c69-468a-ae4e-3bcc4d973ad2"},"vehicle_type_id":"4","last_reported":1741032645,"current_range_meters":7200,"station_id":"ce4bhbp2rcd13ifvqesg","pricing_plan_id":"cebpf4jnsgd1na2vs0mg"},{"bike_id":"f1c8f5e3-cdda-43f4-a454-326ddfcc2175","system_id":"levelo_inurba_marseille","lat":43.29032,"lon":5.38616,"is_reserved":false,"is_disabled":true,"rental_uris":{"android":"levelo://app?vid=f1c8f5e3-cdda-43f4-a454-326ddfcc2175","ios":"levelo://app?vid=f1c8f5e3-cdda-43f4-a454-326ddfcc2175"},"vehicle_type_id":"4","last_reported":1741032645,"current_range_meters":7200,"station_id":"ce4bh4p2rcd13ifvqe0g","pricing_plan_id":"cebpf4jnsgd1na2vs0mg"},{"bike_id":"b4a2566f-9d4d-46c9-99e2-db1a69a3a08b","system_id":"levelo_inurba_marseille","lat":43.30799,"lon":5.38159,"is_reserved":false,"is_disabled":false,"rental_uris":{"android":"levelo://app?vid=b4a2566f-9d4d-46c9-99e2-db1a69a3a08b","ios":"levelo://app?vid=b4a2566f-9d4d-46c9-99e2-db1a69a3a08b"},"vehicle_type_id":"4","last_reported":1741032645,"current_range_meters":7200,"station_id":"ce4bgt12rcd13ifvqce0","pricing_plan_id":"cebpf4jnsgd1na2vs0mg"},{"bike_id":"2daa11be-071f-479c-9bd0-92101cc53d8c","system_id":"levelo_inurba_marseille","lat":43.28071,"lon":5.39649,"is_reserved":false,"is_disabled":false,"rental_uris":{"android":"levelo://app?vid=2daa11be-071f-479c-9bd0-92101cc53d8c","ios":"levelo://app?vid=2daa11be-071f-479c-9bd0-92101cc53d8c"},"vehicle_type_id":"4","last_reported":1741032645,"current_range_meters":7200,"station_id":"ce4bho12rcd13ifvqh2g","pricing_plan_id":"cebpf4jnsgd1na2vs0mg"},{"bike_id":"93c78c45-afab-486c-8bef-c2b3d219a8cf","system_id":"levelo_inurba_marseille","lat":43.270687,"lon":5.422773,"is_reserved":false,"is_disabled":false,"rental_uris":{"android":"levelo://app?vid=93c78c45-afab-486c-8bef-c2b3d219a8cf","ios":"levelo://app?vid=93c78c45-afab-486c-8bef-c2b3d219a8cf"},"vehicle_type_id":"4","last_reported":1741032645,"current_range_meters":7200,"station_id":"ce4bhk92rcd13ifvqgb0","pricing_plan_id":"cebpf4jnsgd1na2vs0mg"},{"bike_id":"3df256a4-3af2-4e09-ac29-246774d99c68","system_id":"levelo_inurba_marseille","lat":43.23189,"lon":5.39977,"is_reserved":false,"is_disabled":false,"rental_uris":{"android":"levelo://app?vid=3df256a4-3af2-4e09-ac29-246774d99c68","ios":"levelo://app?vid=3df256a4-3af2-4e09-ac29-246774d99c68"},"vehicle_type_id":"4","last_reported":1741032645,"current_range_meters":7200,"station_id":"ce4bhn12rcd13ifvqgqg","pricing_plan_id":"cebpf4jnsgd1na2vs0mg"},{"bike_id":"bd06cd47-338b-4323-9c5c-f1ee48756c82","system_id":"levelo_inurba_marseille","lat":43.2961,"lon":5.38106,"is_reserved":false,"is_disabled":false,"rental_uris":{"android":"levelo://app?vid=bd06cd47-338b-4323-9c5c-f1ee48756c82","ios":"levelo://app?vid=bd06cd47-338b-4323-9c5c-f1ee48756c82"},"vehicle_type_id":"4","last_reported":1741032645,"current_range_meters":7200,"station_id":"ce4bgl12rcd13ifvqbo0","pricing_plan_id":"cebpf4jnsgd1na2vs0mg"},{"bike_id":"1a311c68-7ac5-4465-af49-13d7672135ac","system_id":"levelo_inurba_marseille","lat":43.32686,"lon":5.40995,"is_reserved":false,"is_disabled":false,"rental_uris":{"android":"levelo://app?vid=1a311c68-7ac5-4465-af49-13d7672135ac","ios":"levelo://app?vid=1a311c68-7ac5-4465-af49-13d7672135ac"},"vehicle_type_id":"4","last_reported":1741032645,"current_range_meters":7200,"station_id":"ce4bhpp2rcd13ifvqhgg","pricing_plan_id":"cebpf4jnsgd1na2vs0mg"},{"bike_id":"ed258a03-ca9a-4f25-91e0-1f24c615e3a4","system_id":"levelo_inurba_marseille","lat":43.28266,"lon":5.35063,"is_reserved":false,"is_disabled":false,"rental_uris":{"android":"levelo://app?vid=ed258a03-ca9a-4f25-91e0-1f24c615e3a4","ios":"levelo://app?vid=ed258a03-ca9a-4f25-91e0-1f24c615e3a4"},"vehicle_type_id":"4","last_reported":1741032645,"current_range_meters":7200,"station_id":"ce4bhbp2rcd13ifvqerg","pricing_plan_id":"cebpf4jnsgd1na2vs0mg"},{"bike_id":"b1b607c2-6808-4ebb-adc5-415376445f2b","system_id":"levelo_inurba_marseille","lat":43.29913,"lon":5.38149,"is_reserved":false,"is_disabled":false,"rental_uris":{"android":"levelo://app?vid=b1b607c2-6808-4ebb-adc5-415376445f2b","ios":"levelo://app?vid=b1b607c2-6808-4ebb-adc5-415376445f2b"},"vehicle_type_id":"4","last_reported":1741032645,"current_range_meters":7200,"station_id":"ce4bgj12rcd13ifvqbc0","pricing_plan_id":"cebpf4jnsgd1na2vs0mg"},{"bike_id":"3ea4eed1-15d4-4fc3-ac79-8960a628997e","system_id":"levelo_inurba_marseille","lat":43.24652,"lon":5.38911,"is_reserved":false,"is_disabled":false,"rental_uris":{"android":"levelo://app?vid=3ea4eed1-15d4-4fc3-ac79-8960a628997e","ios":"levelo://app?vid=3ea4eed1-15d4-4fc3-ac79-8960a628997e"},"vehicle_type_id":"4","last_reported":1741032645,"current_range_meters":8000,"station_id":"ce4bhg12rcd13ifvqf60","pricing_plan_id":"cebpf4jnsgd1na2vs0mg"},{"bike_id":"668bcddd-0ac8-402c-b6a2-0e4934644fd6","system_id":"levelo_inurba_marseille","lat":43.30595,"lon":5.3936,"is_reserved":false,"is_disabled":false,"rental_uris":{"android":"levelo://app?vid=668bcddd-0ac8-402c-b6a2-0e4934644fd6","ios":"levelo://app?vid=668bcddd-0ac8-402c-b6a2-0e4934644fd6"},"vehicle_type_id":"4","last_reported":1741032645,"current_range_meters":8000,"station_id":"ce4bh0p2rcd13ifvqd80","pricing_plan_id":"cebpf4jnsgd1na2vs0mg"},{"bike_id":"27a07bb4-540d-4751-b4bf-cbfe455109eb","system_id":"levelo_inurba_marseille","lat":43.28368,"lon":5.38099,"is_reserved":false,"is_disabled":false,"rental_uris":{"android":"levelo://app?vid=27a07bb4-540d-4751-b4bf-cbfe455109eb","ios":"levelo://app?vid=27a07bb4-540d-4751-b4bf-cbfe455109eb"},"vehicle_type_id":"4","last_reported":1741032645,"current_range_meters":8000,"station_id":"ce4bh412rcd13ifvqdr0","pricing_plan_id":"cebpf4jnsgd1na2vs0mg"},{"bike_id":"2b3abd07-9662-4bb6-b1fa-05258a1133b4","system_id":"levelo_inurba_marseille","lat":43.30455,"lon":5.37902,"is_reserved":false,"is_disabled":false,"rental_uris":{"android":"levelo://app?vid=2b3abd07-9662-4bb6-b1fa-05258a1133b4","ios":"levelo://app?vid=2b3abd07-9662-4bb6-b1fa-05258a1133b4"},"vehicle_type_id":"4","last_reported":1741032645,"current_range_meters":8000,"station_id":"ce4bgup2rcd13ifvqcn0","pricing_plan_id":"cebpf4jnsgd1na2vs0mg"},{"bike_id":"6229b5e8-8d17-4294-a915-b97f6de0103d","system_id":"levelo_inurba_marseille","lat":43.255821,"lon":5.38235,"is_reserved":false,"is_disabled":false,"rental_uris":{"android":"levelo://app?vid=6229b5e8-8d17-4294-a915-b97f6de0103d","ios":"levelo://app?vid=6229b5e8-8d17-4294-a915-b97f6de0103d"},"vehicle_type_id":"4","last_reported":1741032645,"current_range_meters":8000,"station_id":"ce4bhih2rcd13ifvqfs0","pricing_plan_id":"cebpf4jnsgd1na2vs0mg"},{"bike_id":"bc043e19-c031-47ee-876d-71cec0ebba88","system_id":"levelo_inurba_marseille","lat":43.29968,"lon":5.37174,"is_reserved":false,"is_disabled":false,"rental_uris":{"android":"levelo://app?vid=bc043e19-c031-47ee-876d-71cec0ebba88","ios":"levelo://app?vid=bc043e19-c031-47ee-876d-71cec0ebba88"},"vehicle_type_id":"4","last_reported":1741032645,"current_range_meters":8000,"station_id":"ce4bgr92rcd13ifvqc7g","pricing_plan_id":"cebpf4jnsgd1na2vs0mg"},{"bike_id":"2d4e1c3e-7392-4616-b3cf-646345a17bd5","system_id":"levelo_inurba_marseille","lat":43.29569,"lon":5.42285,"is_reserved":false,"is_disabled":true,"rental_uris":{"android":"levelo://app?vid=2d4e1c3e-7392-4616-b3cf-646345a17bd5","ios":"levelo://app?vid=2d4e1c3e-7392-4616-b3cf-646345a17bd5"},"vehicle_type_id":"4","last_reported":1741032645,"current_range_meters":8000,"station_id":"ce4bhph2rcd13ifvqhdg","pricing_plan_id":"cebpf4jnsgd1na2vs0mg"},{"bike_id":"b242990d-89c3-4246-99ad-4963e988dc5b","system_id":"levelo_inurba_marseille","lat":43.27905,"lon":5.38007,"is_reserved":false,"is_disabled":false,"rental_uris":{"android":"levelo://app?vid=b242990d-89c3-4246-99ad-4963e988dc5b","ios":"levelo://app?vid=b242990d-89c3-4246-99ad-4963e988dc5b"},"vehicle_type_id":"4","last_reported":1741032645,"current_range_meters":8000,"station_id":"ce4bhf92rcd13ifvqf50","pricing_plan_id":"cebpf4jnsgd1na2vs0mg"},{"bike_id":"73681137-6538-4684-87ec-aa9b29720d1e","system_id":"levelo_inurba_marseille","lat":43.23228,"lon":5.35553,"is_reserved":false,"is_disabled":false,"rental_uris":{"android":"levelo://app?vid=73681137-6538-4684-87ec-aa9b29720d1e","ios":"levelo://app?vid=73681137-6538-4684-87ec-aa9b29720d1e"},"vehicle_type_id":"4","last_reported":1741032645,"current_range_meters":8000,"station_id":"ce4bhu92rcd13ifvqi70","pricing_plan_id":"cebpf4jnsgd1na2vs0mg"},{"bike_id":"e5cc295a-bb37-400d-b07c-79830e0f9d2e","system_id":"levelo_inurba_marseille","lat":43.27827,"lon":5.40741,"is_reserved":false,"is_disabled":false,"rental_uris":{"android":"levelo://app?vid=e5cc295a-bb37-400d-b07c-79830e0f9d2e","ios":"levelo://app?vid=e5cc295a-bb37-400d-b07c-79830e0f9d2e"},"vehicle_type_id":"4","last_reported":1741032645,"current_range_meters":8000,"station_id":"ce4bhnh2rcd13ifvqgtg","pricing_plan_id":"cebpf4jnsgd1na2vs0mg"},{"bike_id":"5da70b26-5045-4fcf-85cf-7f68a925e135","system_id":"levelo_inurba_marseille","lat":43.27981,"lon":5.41671,"is_reserved":false,"is_disabled":false,"rental_uris":{"android":"levelo://app?vid=5da70b26-5045-4fcf-85cf-7f68a925e135","ios":"levelo://app?vid=5da70b26-5045-4fcf-85cf-7f68a925e135"},"vehicle_type_id":"4","last_reported":1741032645,"current_range_meters":8000,"station_id":"ce4bho12rcd13ifvqh1g","pricing_plan_id":"cebpf4jnsgd1na2vs0mg"},{"bike_id":"0a42b506-aec3-4369-808c-c91f0f7eb197","system_id":"levelo_inurba_marseille","lat":43.25588,"lon":5.38241,"is_reserved":false,"is_disabled":false,"rental_uris":{"android":"levelo://app?vid=0a42b506-aec3-4369-808c-c91f0f7eb197","ios":"levelo://app?vid=0a42b506-aec3-4369-808c-c91f0f7eb197"},"vehicle_type_id":"4","last_reported":1741032645,"current_range_meters":8000,"station_id":"ce4bhih2rcd13ifvqfs0","pricing_plan_id":"cebpf4jnsgd1na2vs0mg"},{"bike_id":"3d6a4ca5-8d13-4c5d-97a7-0783eb099084","system_id":"levelo_inurba_marseille","lat":43.27174,"lon":5.40997,"is_reserved":false,"is_disabled":false,"rental_uris":{"android":"levelo://app?vid=3d6a4ca5-8d13-4c5d-97a7-0783eb099084","ios":"levelo://app?vid=3d6a4ca5-8d13-4c5d-97a7-0783eb099084"},"vehicle_type_id":"4","last_reported":1741032645,"current_range_meters":8000,"station_id":"ce4bhl12rcd13ifvqgf0","pricing_plan_id":"cebpf4jnsgd1na2vs0mg"},{"bike_id":"67840413-1344-46b9-ab98-66949f53d391","system_id":"levelo_inurba_marseille","lat":43.29721,"lon":5.37702,"is_reserved":false,"is_disabled":false,"rental_uris":{"android":"levelo://app?vid=67840413-1344-46b9-ab98-66949f53d391","ios":"levelo://app?vid=67840413-1344-46b9-ab98-66949f53d391"},"vehicle_type_id":"4","last_reported":1741032645,"current_range_meters":8000,"station_id":"ce4bgkh2rcd13ifvqbl0","pricing_plan_id":"cebpf4jnsgd1na2vs0mg"},{"bike_id":"f381c9bd-14fa-41ab-b589-3ecebd6dfe48","system_id":"levelo_inurba_marseille","lat":43.32372,"lon":5.36784,"is_reserved":false,"is_disabled":false,"rental_uris":{"android":"levelo://app?vid=f381c9bd-14fa-41ab-b589-3ecebd6dfe48","ios":"levelo://app?vid=f381c9bd-14fa-41ab-b589-3ecebd6dfe48"},"vehicle_type_id":"4","last_reported":1741032645,"current_range_meters":8000,"station_id":"ce4bhsh2rcd13ifvqi2g","pricing_plan_id":"cebpf4jnsgd1na2vs0mg"},{"bike_id":"40323d2b-7fa4-44fa-8afd-3105efa74518","system_id":"levelo_inurba_marseille","lat":43.24168,"lon":5.39718,"is_reserved":false,"is_disabled":false,"rental_uris":{"android":"levelo://app?vid=40323d2b-7fa4-44fa-8afd-3105efa74518","ios":"levelo://app?vid=40323d2b-7fa4-44fa-8afd-3105efa74518"},"vehicle_type_id":"4","last_reported":1741032645,"current_range_meters":8400,"station_id":"ce4bhn12rcd13ifvqgpg","pricing_plan_id":"cebpf4jnsgd1na2vs0mg"},{"bike_id":"1d34f648-5239-430b-90b9-0227061e3556","system_id":"levelo_inurba_marseille","lat":43.28609,"lon":5.37063,"is_reserved":false,"is_disabled":false,"rental_uris":{"android":"levelo://app?vid=1d34f648-5239-430b-90b9-0227061e3556","ios":"levelo://app?vid=1d34f648-5239-430b-90b9-0227061e3556"},"vehicle_type_id":"4","last_reported":1741032645,"current_range_meters":8400,"station_id":"ce4bht12rcd13ifvqi60","pricing_plan_id":"cebpf4jnsgd1na2vs0mg"},{"bike_id":"89cb348e-b4f6-4810-b86f-98d924074122","system_id":"levelo_inurba_marseille","lat":43.32369,"lon":5.38885,"is_reserved":false,"is_disabled":false,"rental_uris":{"android":"levelo://app?vid=89cb348e-b4f6-4810-b86f-98d924074122","ios":"levelo://app?vid=89cb348e-b4f6-4810-b86f-98d924074122"},"vehicle_type_id":"4","last_reported":1741032645,"current_range_meters":8400,"station_id":"ce4bhqp2rcd13ifvqhog","pricing_plan_id":"cebpf4jnsgd1na2vs0mg"},{"bike_id":"9ee3d017-a864-4e85-a47f-e27d4c7b327f","system_id":"levelo_inurba_marseille","lat":43.27816,"lon":5.40716,"is_reserved":false,"is_disabled":false,"rental_uris":{"android":"levelo://app?vid=9ee3d017-a864-4e85-a47f-e27d4c7b327f","ios":"levelo://app?vid=9ee3d017-a864-4e85-a47f-e27d4c7b327f"},"vehicle_type_id":"4","last_reported":1741032645,"current_range_meters":8400,"station_id":"ce4bhnh2rcd13ifvqgtg","pricing_plan_id":"cebpf4jnsgd1na2vs0mg"},{"bike_id":"2ab11bbe-a968-4ea2-8a15-b47f3045ae38","system_id":"levelo_inurba_marseille","lat":43.23175,"lon":5.39997,"is_reserved":false,"is_disabled":false,"rental_uris":{"android":"levelo://app?vid=2ab11bbe-a968-4ea2-8a15-b47f3045ae38","ios":"levelo://app?vid=2ab11bbe-a968-4ea2-8a15-b47f3045ae38"},"vehicle_type_id":"4","last_reported":1741032645,"current_range_meters":8400,"station_id":"ce4bhn12rcd13ifvqgqg","pricing_plan_id":"cebpf4jnsgd1na2vs0mg"},{"bike_id":"cc33fbb4-9af6-4003-b965-a7312e3c1cb7","system_id":"levelo_inurba_marseille","lat":43.29769,"lon":5.3791,"is_reserved":false,"is_disabled":false,"rental_uris":{"android":"levelo://app?vid=cc33fbb4-9af6-4003-b965-a7312e3c1cb7","ios":"levelo://app?vid=cc33fbb4-9af6-4003-b965-a7312e3c1cb7"},"vehicle_type_id":"4","last_reported":1741032645,"current_range_meters":8400,"station_id":"","pricing_plan_id":"cebpf4jnsgd1na2vs0mg"},{"bike_id":"27d79748-37ff-44a9-9b3c-91da3ce4c1f0","system_id":"levelo_inurba_marseille","lat":43.28924,"lon":5.36402,"is_reserved":false,"is_disabled":false,"rental_uris":{"android":"levelo://app?vid=27d79748-37ff-44a9-9b3c-91da3ce4c1f0","ios":"levelo://app?vid=27d79748-37ff-44a9-9b3c-91da3ce4c1f0"},"vehicle_type_id":"4","last_reported":1741032645,"current_range_meters":8400,"station_id":"ce4bhc92rcd13ifvqetg","pricing_plan_id":"cebpf4jnsgd1na2vs0mg"},{"bike_id":"d7ce44cc-3af2-4647-93ca-8a6f7b44c256","system_id":"levelo_inurba_marseille","lat":43.32801,"lon":5.39148,"is_reserved":false,"is_disabled":false,"rental_uris":{"android":"levelo://app?vid=d7ce44cc-3af2-4647-93ca-8a6f7b44c256","ios":"levelo://app?vid=d7ce44cc-3af2-4647-93ca-8a6f7b44c256"},"vehicle_type_id":"4","last_reported":1741032645,"current_range_meters":8400,"station_id":"","pricing_plan_id":"cebpf4jnsgd1na2vs0mg"},{"bike_id":"76d154d9-de45-47c4-aa4e-ebc4dd631146","system_id":"levelo_inurba_marseille","lat":43.29256,"lon":5.37619,"is_reserved":false,"is_disabled":false,"rental_uris":{"android":"levelo://app?vid=76d154d9-de45-47c4-aa4e-ebc4dd631146","ios":"levelo://app?vid=76d154d9-de45-47c4-aa4e-ebc4dd631146"},"vehicle_type_id":"4","last_reported":1741032645,"current_range_meters":8400,"station_id":"ce4bgi12rcd13ifvqb80","pricing_plan_id":"cebpf4jnsgd1na2vs0mg"},{"bike_id":"9aa030fc-75b6-46d2-bc65-2c1c00869ae1","system_id":"levelo_inurba_marseille","lat":43.25087,"lon":5.39516,"is_reserved":false,"is_disabled":false,"rental_uris":{"android":"levelo://app?vid=9aa030fc-75b6-46d2-bc65-2c1c00869ae1","ios":"levelo://app?vid=9aa030fc-75b6-46d2-bc65-2c1c00869ae1"},"vehicle_type_id":"4","last_reported":1741032645,"current_range_meters":8400,"station_id":"ce4bhm12rcd13ifvqgkg","pricing_plan_id":"cebpf4jnsgd1na2vs0mg"},{"bike_id":"f6eb9592-fc92-442a-81d8-aa644308ff02","system_id":"levelo_inurba_marseille","lat":43.28411,"lon":5.37503,"is_reserved":false,"is_disabled":false,"rental_uris":{"android":"levelo://app?vid=f6eb9592-fc92-442a-81d8-aa644308ff02","ios":"levelo://app?vid=f6eb9592-fc92-442a-81d8-aa644308ff02"},"vehicle_type_id":"4","last_reported":1741032645,"current_range_meters":8400,"station_id":"ce4bh412rcd13ifvqds0","pricing_plan_id":"cebpf4jnsgd1na2vs0mg"},{"bike_id":"21695fff-f155-4839-904c-88b17112f7ea","system_id":"levelo_inurba_marseille","lat":43.28403,"lon":5.37516,"is_reserved":false,"is_disabled":false,"rental_uris":{"android":"levelo://app?vid=21695fff-f155-4839-904c-88b17112f7ea","ios":"levelo://app?vid=21695fff-f155-4839-904c-88b17112f7ea"},"vehicle_type_id":"4","last_reported":1741032645,"current_range_meters":8400,"station_id":"ce4bh412rcd13ifvqds0","pricing_plan_id":"cebpf4jnsgd1na2vs0mg"},{"bike_id":"3c9dafd4-57aa-4ec7-be16-270c3cf389ac","system_id":"levelo_inurba_marseille","lat":43.30423,"lon":5.41285,"is_reserved":false,"is_disabled":false,"rental_uris":{"android":"levelo://app?vid=3c9dafd4-57aa-4ec7-be16-270c3cf389ac","ios":"levelo://app?vid=3c9dafd4-57aa-4ec7-be16-270c3cf389ac"},"vehicle_type_id":"4","last_reported":1741032645,"current_range_meters":8800,"station_id":"ce4bhop2rcd13ifvqh8g","pricing_plan_id":"cebpf4jnsgd1na2vs0mg"},{"bike_id":"3788ae76-c367-49e6-8647-3256e7f5ab34","system_id":"levelo_inurba_marseille","lat":43.324655,"lon":5.365024,"is_reserved":false,"is_disabled":false,"rental_uris":{"android":"levelo://app?vid=3788ae76-c367-49e6-8647-3256e7f5ab34","ios":"levelo://app?vid=3788ae76-c367-49e6-8647-3256e7f5ab34"},"vehicle_type_id":"4","last_reported":1741032645,"current_range_meters":8800,"station_id":"ce4bhs12rcd13ifvqhvg","pricing_plan_id":"cebpf4jnsgd1na2vs0mg"},{"bike_id":"a847a896-1c09-4980-b195-f41bfa1e056e","system_id":"levelo_inurba_marseille","lat":43.27569,"lon":5.38421,"is_reserved":false,"is_disabled":false,"rental_uris":{"android":"levelo://app?vid=a847a896-1c09-4980-b195-f41bfa1e056e","ios":"levelo://app?vid=a847a896-1c09-4980-b195-f41bfa1e056e"},"vehicle_type_id":"4","last_reported":1741032645,"current_range_meters":8800,"station_id":"ce4bhh92rcd13ifvqfi0","pricing_plan_id":"cebpf4jnsgd1na2vs0mg"},{"bike_id":"988ea014-fb72-448d-92d2-52a699e3cca8","system_id":"levelo_inurba_marseille","lat":43.32051,"lon":5.41549,"is_reserved":false,"is_disabled":false,"rental_uris":{"android":"levelo://app?vid=988ea014-fb72-448d-92d2-52a699e3cca8","ios":"levelo://app?vid=988ea014-fb72-448d-92d2-52a699e3cca8"},"vehicle_type_id":"4","last_reported":1741032645,"current_range_meters":8400,"station_id":"ce4bhq92rcd13ifvqhkg","pricing_plan_id":"cebpf4jnsgd1na2vs0mg"},{"bike_id":"13fef0da-5b77-406c-872d-50cc045036d0","system_id":"levelo_inurba_marseille","lat":43.29698,"lon":5.36604,"is_reserved":false,"is_disabled":false,"rental_uris":{"android":"levelo://app?vid=13fef0da-5b77-406c-872d-50cc045036d0","ios":"levelo://app?vid=13fef0da-5b77-406c-872d-50cc045036d0"},"vehicle_type_id":"4","last_reported":1741032645,"current_range_meters":8800,"station_id":"ce4bgn12rcd13ifvqbt0","pricing_plan_id":"cebpf4jnsgd1na2vs0mg"},{"bike_id":"26dee533-297d-4941-9468-845a2f6d1880","system_id":"levelo_inurba_marseille","lat":43.26064,"lon":5.39399,"is_reserved":false,"is_disabled":false,"rental_uris":{"android":"levelo://app?vid=26dee533-297d-4941-9468-845a2f6d1880","ios":"levelo://app?vid=26dee533-297d-4941-9468-845a2f6d1880"},"vehicle_type_id":"4","last_reported":1741032645,"current_range_meters":8800,"station_id":"ce4bhh92rcd13ifvqfj0","pricing_plan_id":"cebpf4jnsgd1na2vs0mg"},{"bike_id":"e41e0bb8-6c1c-4ce2-b18d-069e130ca183","system_id":"levelo_inurba_marseille","lat":43.23051,"lon":5.35477,"is_reserved":false,"is_disabled":false,"rental_uris":{"android":"levelo://app?vid=e41e0bb8-6c1c-4ce2-b18d-069e130ca183","ios":"levelo://app?vid=e41e0bb8-6c1c-4ce2-b18d-069e130ca183"},"vehicle_type_id":"4","last_reported":1741032645,"current_range_meters":8800,"station_id":"cpo3342slgdg3j2ifvpg","pricing_plan_id":"cebpf4jnsgd1na2vs0mg"},{"bike_id":"2f0b80d9-59f7-4334-be85-b33604a2c47a","system_id":"levelo_inurba_marseille","lat":43.24146,"lon":5.36486,"is_reserved":false,"is_disabled":false,"rental_uris":{"android":"levelo://app?vid=2f0b80d9-59f7-4334-be85-b33604a2c47a","ios":"levelo://app?vid=2f0b80d9-59f7-4334-be85-b33604a2c47a"},"vehicle_type_id":"4","last_reported":1741032645,"current_range_meters":9200,"station_id":"","pricing_plan_id":"cebpf4jnsgd1na2vs0mg"},{"bike_id":"ce8ef3d2-07e3-4512-8813-bcde53a01429","system_id":"levelo_inurba_marseille","lat":43.24167,"lon":5.36397,"is_reserved":false,"is_disabled":false,"rental_uris":{"android":"levelo://app?vid=ce8ef3d2-07e3-4512-8813-bcde53a01429","ios":"levelo://app?vid=ce8ef3d2-07e3-4512-8813-bcde53a01429"},"vehicle_type_id":"4","last_reported":1741032645,"current_range_meters":9200,"station_id":"cpo36qri1sfpv3e86is0","pricing_plan_id":"cebpf4jnsgd1na2vs0mg"},{"bike_id":"b240d511-138a-48c0-af7a-005b95321099","system_id":"levelo_inurba_marseille","lat":43.27918,"lon":5.39581,"is_reserved":false,"is_disabled":false,"rental_uris":{"android":"levelo://app?vid=b240d511-138a-48c0-af7a-005b95321099","ios":"levelo://app?vid=b240d511-138a-48c0-af7a-005b95321099"},"vehicle_type_id":"4","last_reported":1741032645,"current_range_meters":9200,"station_id":"ce4bhf92rcd13ifvqf40","pricing_plan_id":"cebpf4jnsgd1na2vs0mg"},{"bike_id":"8853f3b9-20a3-4480-9c1d-81721e27d9f9","system_id":"levelo_inurba_marseille","lat":43.260582,"lon":5.393906,"is_reserved":false,"is_disabled":false,"rental_uris":{"android":"levelo://app?vid=8853f3b9-20a3-4480-9c1d-81721e27d9f9","ios":"levelo://app?vid=8853f3b9-20a3-4480-9c1d-81721e27d9f9"},"vehicle_type_id":"4","last_reported":1741032645,"current_range_meters":9200,"station_id":"ce4bhh92rcd13ifvqfj0","pricing_plan_id":"cebpf4jnsgd1na2vs0mg"},{"bike_id":"ad61dc75-fa64-47cd-858f-9ec0dbaab2f8","system_id":"levelo_inurba_marseille","lat":43.27813,"lon":5.40717,"is_reserved":false,"is_disabled":false,"rental_uris":{"android":"levelo://app?vid=ad61dc75-fa64-47cd-858f-9ec0dbaab2f8","ios":"levelo://app?vid=ad61dc75-fa64-47cd-858f-9ec0dbaab2f8"},"vehicle_type_id":"4","last_reported":1741032645,"current_range_meters":9200,"station_id":"ce4bhnh2rcd13ifvqgtg","pricing_plan_id":"cebpf4jnsgd1na2vs0mg"},{"bike_id":"1949dc32-d038-4254-aa34-3898c6d6e735","system_id":"levelo_inurba_marseille","lat":43.30908,"lon":5.37188,"is_reserved":false,"is_disabled":false,"rental_uris":{"android":"levelo://app?vid=1949dc32-d038-4254-aa34-3898c6d6e735","ios":"levelo://app?vid=1949dc32-d038-4254-aa34-3898c6d6e735"},"vehicle_type_id":"4","last_reported":1741032645,"current_range_meters":9200,"station_id":"ce4bguh2rcd13ifvqckg","pricing_plan_id":"cebpf4jnsgd1na2vs0mg"},{"bike_id":"af0aaf03-ec78-4d32-ab25-3f1a45002eb8","system_id":"levelo_inurba_marseille","lat":43.30588,"lon":5.39366,"is_reserved":false,"is_disabled":false,"rental_uris":{"android":"levelo://app?vid=af0aaf03-ec78-4d32-ab25-3f1a45002eb8","ios":"levelo://app?vid=af0aaf03-ec78-4d32-ab25-3f1a45002eb8"},"vehicle_type_id":"4","last_reported":1741032645,"current_range_meters":9200,"station_id":"ce4bh0p2rcd13ifvqd80","pricing_plan_id":"cebpf4jnsgd1na2vs0mg"},{"bike_id":"b21e25bd-5fe3-4b4c-9515-724946c2cde8","system_id":"levelo_inurba_marseille","lat":43.28463,"lon":5.35853,"is_reserved":false,"is_disabled":false,"rental_uris":{"android":"levelo://app?vid=b21e25bd-5fe3-4b4c-9515-724946c2cde8","ios":"levelo://app?vid=b21e25bd-5fe3-4b4c-9515-724946c2cde8"},"vehicle_type_id":"4","last_reported":1741032645,"current_range_meters":9200,"station_id":"ce4bhah2rcd13ifvqei0","pricing_plan_id":"cebpf4jnsgd1na2vs0mg"},{"bike_id":"8ade5181-cd88-4ece-8534-46a6372826ef","system_id":"levelo_inurba_marseille","lat":43.27763,"lon":5.41505,"is_reserved":false,"is_disabled":false,"rental_uris":{"android":"levelo://app?vid=8ade5181-cd88-4ece-8534-46a6372826ef","ios":"levelo://app?vid=8ade5181-cd88-4ece-8534-46a6372826ef"},"vehicle_type_id":"4","last_reported":1741032645,"current_range_meters":9200,"station_id":"","pricing_plan_id":"cebpf4jnsgd1na2vs0mg"},{"bike_id":"30d075e9-20e1-4621-94dc-4318e577ce39","system_id":"levelo_inurba_marseille","lat":43.30154,"lon":5.39868,"is_reserved":false,"is_disabled":false,"rental_uris":{"android":"levelo://app?vid=30d075e9-20e1-4621-94dc-4318e577ce39","ios":"levelo://app?vid=30d075e9-20e1-4621-94dc-4318e577ce39"},"vehicle_type_id":"4","last_reported":1741032645,"current_range_meters":9200,"station_id":"ce4bh0h2rcd13ifvqd40","pricing_plan_id":"cebpf4jnsgd1na2vs0mg"},{"bike_id":"6d4c1863-5b62-4c5a-885f-92e7721e779d","system_id":"levelo_inurba_marseille","lat":43.28466,"lon":5.35887,"is_reserved":false,"is_disabled":false,"rental_uris":{"android":"levelo://app?vid=6d4c1863-5b62-4c5a-885f-92e7721e779d","ios":"levelo://app?vid=6d4c1863-5b62-4c5a-885f-92e7721e779d"},"vehicle_type_id":"4","last_reported":1741032645,"current_range_meters":9200,"station_id":"ce4bhah2rcd13ifvqei0","pricing_plan_id":"cebpf4jnsgd1na2vs0mg"},{"bike_id":"d53e6646-6b53-48ec-af4a-514a33ea2b9d","system_id":"levelo_inurba_marseille","lat":43.29304,"lon":5.37456,"is_reserved":false,"is_disabled":false,"rental_uris":{"android":"levelo://app?vid=d53e6646-6b53-48ec-af4a-514a33ea2b9d","ios":"levelo://app?vid=d53e6646-6b53-48ec-af4a-514a33ea2b9d"},"vehicle_type_id":"4","last_reported":1741032645,"current_range_meters":9200,"station_id":"ce4bgi12rcd13ifvqb70","pricing_plan_id":"cebpf4jnsgd1na2vs0mg"},{"bike_id":"80821f47-f993-4968-909c-24aeac35e4e1","system_id":"levelo_inurba_marseille","lat":43.2904,"lon":5.3997,"is_reserved":false,"is_disabled":false,"rental_uris":{"android":"levelo://app?vid=80821f47-f993-4968-909c-24aeac35e4e1","ios":"levelo://app?vid=80821f47-f993-4968-909c-24aeac35e4e1"},"vehicle_type_id":"4","last_reported":1741032645,"current_range_meters":9200,"station_id":"ce4bh392rcd13ifvqdm0","pricing_plan_id":"cebpf4jnsgd1na2vs0mg"},{"bike_id":"31788eea-9bfd-49dd-9a4e-7191b48a0eac","system_id":"levelo_inurba_marseille","lat":43.24073,"lon":5.37763,"is_reserved":false,"is_disabled":false,"rental_uris":{"android":"levelo://app?vid=31788eea-9bfd-49dd-9a4e-7191b48a0eac","ios":"levelo://app?vid=31788eea-9bfd-49dd-9a4e-7191b48a0eac"},"vehicle_type_id":"4","last_reported":1741032645,"current_range_meters":9200,"station_id":"ce4bhnp2rcd13ifvqgvg","pricing_plan_id":"cebpf4jnsgd1na2vs0mg"},{"bike_id":"e5af46d8-756e-4b29-887f-202b12c3baa0","system_id":"levelo_inurba_marseille","lat":43.3041,"lon":5.41292,"is_reserved":false,"is_disabled":false,"rental_uris":{"android":"levelo://app?vid=e5af46d8-756e-4b29-887f-202b12c3baa0","ios":"levelo://app?vid=e5af46d8-756e-4b29-887f-202b12c3baa0"},"vehicle_type_id":"4","last_reported":1741032645,"current_range_meters":9200,"station_id":"ce4bhop2rcd13ifvqh8g","pricing_plan_id":"cebpf4jnsgd1na2vs0mg"},{"bike_id":"4ac99ae1-810a-468d-bee2-9d2949811503","system_id":"levelo_inurba_marseille","lat":43.23191,"lon":5.39988,"is_reserved":false,"is_disabled":false,"rental_uris":{"android":"levelo://app?vid=4ac99ae1-810a-468d-bee2-9d2949811503","ios":"levelo://app?vid=4ac99ae1-810a-468d-bee2-9d2949811503"},"vehicle_type_id":"4","last_reported":1741032645,"current_range_meters":9200,"station_id":"ce4bhn12rcd13ifvqgqg","pricing_plan_id":"cebpf4jnsgd1na2vs0mg"},{"bike_id":"c8c30254-af6a-4a88-b0b6-9a3a52022bea","system_id":"levelo_inurba_marseille","lat":43.32455,"lon":5.42688,"is_reserved":false,"is_disabled":false,"rental_uris":{"android":"levelo://app?vid=c8c30254-af6a-4a88-b0b6-9a3a52022bea","ios":"levelo://app?vid=c8c30254-af6a-4a88-b0b6-9a3a52022bea"},"vehicle_type_id":"4","last_reported":1741032645,"current_range_meters":9600,"station_id":"","pricing_plan_id":"cebpf4jnsgd1na2vs0mg"},{"bike_id":"5b69c928-069c-4522-8a93-8676e4f351de","system_id":"levelo_inurba_marseille","lat":43.28479,"lon":5.35904,"is_reserved":false,"is_disabled":false,"rental_uris":{"android":"levelo://app?vid=5b69c928-069c-4522-8a93-8676e4f351de","ios":"levelo://app?vid=5b69c928-069c-4522-8a93-8676e4f351de"},"vehicle_type_id":"4","last_reported":1741032645,"current_range_meters":9600,"station_id":"ce4bhah2rcd13ifvqei0","pricing_plan_id":"cebpf4jnsgd1na2vs0mg"},{"bike_id":"8a926c1c-bce9-43a8-b444-8cbd0ddeca91","system_id":"levelo_inurba_marseille","lat":43.337444,"lon":5.374475,"is_reserved":false,"is_disabled":true,"rental_uris":{"android":"levelo://app?vid=8a926c1c-bce9-43a8-b444-8cbd0ddeca91","ios":"levelo://app?vid=8a926c1c-bce9-43a8-b444-8cbd0ddeca91"},"vehicle_type_id":"4","last_reported":1741032645,"current_range_meters":9600,"station_id":"","pricing_plan_id":"cebpf4jnsgd1na2vs0mg"},{"bike_id":"48d33537-7de8-4746-9396-b1f5f4e83f13","system_id":"levelo_inurba_marseille","lat":43.24073,"lon":5.37736,"is_reserved":false,"is_disabled":false,"rental_uris":{"android":"levelo://app?vid=48d33537-7de8-4746-9396-b1f5f4e83f13","ios":"levelo://app?vid=48d33537-7de8-4746-9396-b1f5f4e83f13"},"vehicle_type_id":"4","last_reported":1741032645,"current_range_meters":9600,"station_id":"ce4bhnp2rcd13ifvqgvg","pricing_plan_id":"cebpf4jnsgd1na2vs0mg"},{"bike_id":"c4445bc0-5f30-4d66-8d13-5a5b5ff7eb7c","system_id":"levelo_inurba_marseille","lat":43.286382,"lon":5.385691,"is_reserved":false,"is_disabled":false,"rental_uris":{"android":"levelo://app?vid=c4445bc0-5f30-4d66-8d13-5a5b5ff7eb7c","ios":"levelo://app?vid=c4445bc0-5f30-4d66-8d13-5a5b5ff7eb7c"},"vehicle_type_id":"4","last_reported":1741032645,"current_range_meters":9600,"station_id":"ce4bh0p2rcd13ifvqd80","pricing_plan_id":"cebpf4jnsgd1na2vs0mg"},{"bike_id":"fcc1e2d7-d27d-4efa-925e-da5eb0b689fc","system_id":"levelo_inurba_marseille","lat":43.28103,"lon":5.37834,"is_reserved":false,"is_disabled":false,"rental_uris":{"android":"levelo://app?vid=fcc1e2d7-d27d-4efa-925e-da5eb0b689fc","ios":"levelo://app?vid=fcc1e2d7-d27d-4efa-925e-da5eb0b689fc"},"vehicle_type_id":"4","last_reported":1741032645,"current_range_meters":9600,"station_id":"ce4bha12rcd13ifvqee0","pricing_plan_id":"cebpf4jnsgd1na2vs0mg"},{"bike_id":"9c9f0913-f60e-48c1-a059-193d8823879b","system_id":"levelo_inurba_marseille","lat":43.29198,"lon":5.39339,"is_reserved":false,"is_disabled":false,"rental_uris":{"android":"levelo://app?vid=9c9f0913-f60e-48c1-a059-193d8823879b","ios":"levelo://app?vid=9c9f0913-f60e-48c1-a059-193d8823879b"},"vehicle_type_id":"4","last_reported":1741032645,"current_range_meters":9600,"station_id":"ce4bh192rcd13ifvqdd0","pricing_plan_id":"cebpf4jnsgd1na2vs0mg"},{"bike_id":"ffd5fa35-92ec-4cc7-9a87-e8633ad3e1d2","system_id":"levelo_inurba_marseille","lat":43.27811,"lon":5.4073,"is_reserved":false,"is_disabled":false,"rental_uris":{"android":"levelo://app?vid=ffd5fa35-92ec-4cc7-9a87-e8633ad3e1d2","ios":"levelo://app?vid=ffd5fa35-92ec-4cc7-9a87-e8633ad3e1d2"},"vehicle_type_id":"4","last_reported":1741032645,"current_range_meters":9600,"station_id":"ce4bhnh2rcd13ifvqgtg","pricing_plan_id":"cebpf4jnsgd1na2vs0mg"},{"bike_id":"4586ca83-2f5e-4b63-b2a9-29ed75f9f1db","system_id":"levelo_inurba_marseille","lat":43.28723,"lon":5.36098,"is_reserved":false,"is_disabled":false,"rental_uris":{"android":"levelo://app?vid=4586ca83-2f5e-4b63-b2a9-29ed75f9f1db","ios":"levelo://app?vid=4586ca83-2f5e-4b63-b2a9-29ed75f9f1db"},"vehicle_type_id":"4","last_reported":1741032645,"current_range_meters":9600,"station_id":"cki0cbj6b192h4jlfktg","pricing_plan_id":"cebpf4jnsgd1na2vs0mg"},{"bike_id":"cfff197d-74ac-4300-81c7-c4b6d9f1ad1a","system_id":"levelo_inurba_marseille","lat":43.25826,"lon":5.39434,"is_reserved":false,"is_disabled":false,"rental_uris":{"android":"levelo://app?vid=cfff197d-74ac-4300-81c7-c4b6d9f1ad1a","ios":"levelo://app?vid=cfff197d-74ac-4300-81c7-c4b6d9f1ad1a"},"vehicle_type_id":"4","last_reported":1741032645,"current_range_meters":9600,"station_id":"ce4bhip2rcd13ifvqft0","pricing_plan_id":"cebpf4jnsgd1na2vs0mg"},{"bike_id":"333a6c0e-55ea-479e-8979-442cffca28fc","system_id":"levelo_inurba_marseille","lat":43.27815,"lon":5.40734,"is_reserved":false,"is_disabled":false,"rental_uris":{"android":"levelo://app?vid=333a6c0e-55ea-479e-8979-442cffca28fc","ios":"levelo://app?vid=333a6c0e-55ea-479e-8979-442cffca28fc"},"vehicle_type_id":"4","last_reported":1741032645,"current_range_meters":9600,"station_id":"ce4bhnh2rcd13ifvqgtg","pricing_plan_id":"cebpf4jnsgd1na2vs0mg"},{"bike_id":"ad4e362b-2285-4463-9b2d-deac46bd2dca","system_id":"levelo_inurba_marseille","lat":43.28096,"lon":5.37863,"is_reserved":false,"is_disabled":false,"rental_uris":{"android":"levelo://app?vid=ad4e362b-2285-4463-9b2d-deac46bd2dca","ios":"levelo://app?vid=ad4e362b-2285-4463-9b2d-deac46bd2dca"},"vehicle_type_id":"4","last_reported":1741032645,"current_range_meters":9600,"station_id":"","pricing_plan_id":"cebpf4jnsgd1na2vs0mg"},{"bike_id":"ca5480bb-53a6-4ee4-a068-0e6478df7749","system_id":"levelo_inurba_marseille","lat":43.2799,"lon":5.41662,"is_reserved":false,"is_disabled":false,"rental_uris":{"android":"levelo://app?vid=ca5480bb-53a6-4ee4-a068-0e6478df7749","ios":"levelo://app?vid=ca5480bb-53a6-4ee4-a068-0e6478df7749"},"vehicle_type_id":"4","last_reported":1741032645,"current_range_meters":9600,"station_id":"ce4bho12rcd13ifvqh1g","pricing_plan_id":"cebpf4jnsgd1na2vs0mg"},{"bike_id":"b53e751e-c2f6-4da9-aba0-fe23543b117d","system_id":"levelo_inurba_marseille","lat":43.28087,"lon":5.39597,"is_reserved":false,"is_disabled":false,"rental_uris":{"android":"levelo://app?vid=b53e751e-c2f6-4da9-aba0-fe23543b117d","ios":"levelo://app?vid=b53e751e-c2f6-4da9-aba0-fe23543b117d"},"vehicle_type_id":"4","last_reported":1741032645,"current_range_meters":9600,"station_id":"ce4bho12rcd13ifvqh2g","pricing_plan_id":"cebpf4jnsgd1na2vs0mg"},{"bike_id":"a195e6bc-b894-442a-bea7-6f9808515ae7","system_id":"levelo_inurba_marseille","lat":43.30897,"lon":5.39649,"is_reserved":false,"is_disabled":false,"rental_uris":{"android":"levelo://app?vid=a195e6bc-b894-442a-bea7-6f9808515ae7","ios":"levelo://app?vid=a195e6bc-b894-442a-bea7-6f9808515ae7"},"vehicle_type_id":"4","last_reported":1741032645,"current_range_meters":9600,"station_id":"ce4bh012rcd13ifvqcv0","pricing_plan_id":"cebpf4jnsgd1na2vs0mg"},{"bike_id":"9de31664-78c8-4270-8903-4906d276beb2","system_id":"levelo_inurba_marseille","lat":43.28082,"lon":5.39659,"is_reserved":false,"is_disabled":false,"rental_uris":{"android":"levelo://app?vid=9de31664-78c8-4270-8903-4906d276beb2","ios":"levelo://app?vid=9de31664-78c8-4270-8903-4906d276beb2"},"vehicle_type_id":"4","last_reported":1741032645,"current_range_meters":9600,"station_id":"ce4bho12rcd13ifvqh2g","pricing_plan_id":"cebpf4jnsgd1na2vs0mg"},{"bike_id":"e7d02aea-a5f1-47d2-9f85-fe1a246d83da","system_id":"levelo_inurba_marseille","lat":43.32362,"lon":5.38886,"is_reserved":false,"is_disabled":false,"rental_uris":{"android":"levelo://app?vid=e7d02aea-a5f1-47d2-9f85-fe1a246d83da","ios":"levelo://app?vid=e7d02aea-a5f1-47d2-9f85-fe1a246d83da"},"vehicle_type_id":"4","last_reported":1741032645,"current_range_meters":9600,"station_id":"ce4bhqp2rcd13ifvqhog","pricing_plan_id":"cebpf4jnsgd1na2vs0mg"},{"bike_id":"5f6058f8-17d6-41f9-bf21-73aab62a2071","system_id":"levelo_inurba_marseille","lat":43.25825,"lon":5.39429,"is_reserved":false,"is_disabled":false,"rental_uris":{"android":"levelo://app?vid=5f6058f8-17d6-41f9-bf21-73aab62a2071","ios":"levelo://app?vid=5f6058f8-17d6-41f9-bf21-73aab62a2071"},"vehicle_type_id":"4","last_reported":1741032645,"current_range_meters":10000,"station_id":"ce4bhip2rcd13ifvqft0","pricing_plan_id":"cebpf4jnsgd1na2vs0mg"},{"bike_id":"ee105a03-8f1e-4cc3-bf51-d4bcf68da2ca","system_id":"levelo_inurba_marseille","lat":43.29703,"lon":5.36614,"is_reserved":false,"is_disabled":false,"rental_uris":{"android":"levelo://app?vid=ee105a03-8f1e-4cc3-bf51-d4bcf68da2ca","ios":"levelo://app?vid=ee105a03-8f1e-4cc3-bf51-d4bcf68da2ca"},"vehicle_type_id":"4","last_reported":1741032645,"current_range_meters":10000,"station_id":"ce4bgn12rcd13ifvqbt0","pricing_plan_id":"cebpf4jnsgd1na2vs0mg"},{"bike_id":"e1993c30-bf76-4bdd-b6e8-6751d5d1e137","system_id":"levelo_inurba_marseille","lat":43.28571,"lon":5.39451,"is_reserved":false,"is_disabled":false,"rental_uris":{"android":"levelo://app?vid=e1993c30-bf76-4bdd-b6e8-6751d5d1e137","ios":"levelo://app?vid=e1993c30-bf76-4bdd-b6e8-6751d5d1e137"},"vehicle_type_id":"4","last_reported":1741032645,"current_range_meters":10000,"station_id":"ce4bh292rcd13ifvqdg0","pricing_plan_id":"cebpf4jnsgd1na2vs0mg"},{"bike_id":"be332849-5e3d-42be-9107-ef85fb20c572","system_id":"levelo_inurba_marseille","lat":43.27974,"lon":5.36948,"is_reserved":false,"is_disabled":false,"rental_uris":{"android":"levelo://app?vid=be332849-5e3d-42be-9107-ef85fb20c572","ios":"levelo://app?vid=be332849-5e3d-42be-9107-ef85fb20c572"},"vehicle_type_id":"4","last_reported":1741032645,"current_range_meters":10000,"station_id":"ce4bha12rcd13ifvqef0","pricing_plan_id":"cebpf4jnsgd1na2vs0mg"},{"bike_id":"853e9f93-6f18-4242-b269-d87025e7bb93","system_id":"levelo_inurba_marseille","lat":43.30751,"lon":5.37132,"is_reserved":false,"is_disabled":false,"rental_uris":{"android":"levelo://app?vid=853e9f93-6f18-4242-b269-d87025e7bb93","ios":"levelo://app?vid=853e9f93-6f18-4242-b269-d87025e7bb93"},"vehicle_type_id":"4","last_reported":1741032645,"current_range_meters":10000,"station_id":"","pricing_plan_id":"cebpf4jnsgd1na2vs0mg"},{"bike_id":"71cd5d9d-c4a9-4d7f-b25c-bd7ceef0b27e","system_id":"levelo_inurba_marseille","lat":43.31286,"lon":5.37764,"is_reserved":false,"is_disabled":false,"rental_uris":{"android":"levelo://app?vid=71cd5d9d-c4a9-4d7f-b25c-bd7ceef0b27e","ios":"levelo://app?vid=71cd5d9d-c4a9-4d7f-b25c-bd7ceef0b27e"},"vehicle_type_id":"4","last_reported":1741032645,"current_range_meters":10000,"station_id":"","pricing_plan_id":"cebpf4jnsgd1na2vs0mg"},{"bike_id":"caedf473-9313-4874-87c8-230b4a1efdb8","system_id":"levelo_inurba_marseille","lat":43.32464,"lon":5.36565,"is_reserved":false,"is_disabled":false,"rental_uris":{"android":"levelo://app?vid=caedf473-9313-4874-87c8-230b4a1efdb8","ios":"levelo://app?vid=caedf473-9313-4874-87c8-230b4a1efdb8"},"vehicle_type_id":"4","last_reported":1741032645,"current_range_meters":10000,"station_id":"ce4bhs12rcd13ifvqhvg","pricing_plan_id":"cebpf4jnsgd1na2vs0mg"},{"bike_id":"e46aaa24-439a-4b2f-b104-8839e0fa87f7","system_id":"levelo_inurba_marseille","lat":43.27824,"lon":5.40724,"is_reserved":false,"is_disabled":false,"rental_uris":{"android":"levelo://app?vid=e46aaa24-439a-4b2f-b104-8839e0fa87f7","ios":"levelo://app?vid=e46aaa24-439a-4b2f-b104-8839e0fa87f7"},"vehicle_type_id":"4","last_reported":1741032645,"current_range_meters":10000,"station_id":"ce4bhnh2rcd13ifvqgtg","pricing_plan_id":"cebpf4jnsgd1na2vs0mg"},{"bike_id":"4f30479b-44ba-4e00-b91e-8464bf8f0d2e","system_id":"levelo_inurba_marseille","lat":43.3303,"lon":5.3904,"is_reserved":false,"is_disabled":false,"rental_uris":{"android":"levelo://app?vid=4f30479b-44ba-4e00-b91e-8464bf8f0d2e","ios":"levelo://app?vid=4f30479b-44ba-4e00-b91e-8464bf8f0d2e"},"vehicle_type_id":"4","last_reported":1741032645,"current_range_meters":10000,"station_id":"ce4bhr92rcd13ifvqhrg","pricing_plan_id":"cebpf4jnsgd1na2vs0mg"},{"bike_id":"31b2184d-2679-404d-b959-56eaf43114d2","system_id":"levelo_inurba_marseille","lat":43.26229,"lon":5.40451,"is_reserved":false,"is_disabled":false,"rental_uris":{"android":"levelo://app?vid=31b2184d-2679-404d-b959-56eaf43114d2","ios":"levelo://app?vid=31b2184d-2679-404d-b959-56eaf43114d2"},"vehicle_type_id":"4","last_reported":1741032645,"current_range_meters":10000,"station_id":"ce4bhmh2rcd13ifvqgmg","pricing_plan_id":"cebpf4jnsgd1na2vs0mg"},{"bike_id":"ee26afb6-ba4c-4dc4-8464-b764cc25857b","system_id":"levelo_inurba_marseille","lat":43.27953,"lon":5.41052,"is_reserved":false,"is_disabled":false,"rental_uris":{"android":"levelo://app?vid=ee26afb6-ba4c-4dc4-8464-b764cc25857b","ios":"levelo://app?vid=ee26afb6-ba4c-4dc4-8464-b764cc25857b"},"vehicle_type_id":"4","last_reported":1741032645,"current_range_meters":10000,"station_id":"ce4bhnp2rcd13ifvqh0g","pricing_plan_id":"cebpf4jnsgd1na2vs0mg"},{"bike_id":"35af5cdd-93fc-40ab-8fad-3ee3d5572abe","system_id":"levelo_inurba_marseille","lat":43.26822,"lon":5.40252,"is_reserved":false,"is_disabled":false,"rental_uris":{"android":"levelo://app?vid=35af5cdd-93fc-40ab-8fad-3ee3d5572abe","ios":"levelo://app?vid=35af5cdd-93fc-40ab-8fad-3ee3d5572abe"},"vehicle_type_id":"4","last_reported":1741032645,"current_range_meters":10000,"station_id":"ce501612rcd8frsf0b60","pricing_plan_id":"cebpf4jnsgd1na2vs0mg"},{"bike_id":"20f28f92-adf9-48e3-a33b-83ded65127c5","system_id":"levelo_inurba_marseille","lat":43.2307,"lon":5.35464,"is_reserved":false,"is_disabled":false,"rental_uris":{"android":"levelo://app?vid=20f28f92-adf9-48e3-a33b-83ded65127c5","ios":"levelo://app?vid=20f28f92-adf9-48e3-a33b-83ded65127c5"},"vehicle_type_id":"4","last_reported":1741032645,"current_range_meters":10000,"station_id":"cpo3342slgdg3j2ifvpg","pricing_plan_id":"cebpf4jnsgd1na2vs0mg"},{"bike_id":"e67ba2d4-7ad6-4ad9-b1d1-b65da88ab977","system_id":"levelo_inurba_marseille","lat":43.29452,"lon":5.3974,"is_reserved":false,"is_disabled":false,"rental_uris":{"android":"levelo://app?vid=e67ba2d4-7ad6-4ad9-b1d1-b65da88ab977","ios":"levelo://app?vid=e67ba2d4-7ad6-4ad9-b1d1-b65da88ab977"},"vehicle_type_id":"4","last_reported":1741032645,"current_range_meters":10800,"station_id":"ce4bh3h2rcd13ifvqdo0","pricing_plan_id":"cebpf4jnsgd1na2vs0mg"},{"bike_id":"dd1f8279-3140-4cc7-9d4f-2981bc73d236","system_id":"levelo_inurba_marseille","lat":43.32325,"lon":5.40615,"is_reserved":false,"is_disabled":false,"rental_uris":{"android":"levelo://app?vid=dd1f8279-3140-4cc7-9d4f-2981bc73d236","ios":"levelo://app?vid=dd1f8279-3140-4cc7-9d4f-2981bc73d236"},"vehicle_type_id":"4","last_reported":1741032645,"current_range_meters":10800,"station_id":"ce4bhq92rcd13ifvqhjg","pricing_plan_id":"cebpf4jnsgd1na2vs0mg"},{"bike_id":"f71f9016-cd7a-4d2f-a244-6b67297b159e","system_id":"levelo_inurba_marseille","lat":43.2793,"lon":5.41662,"is_reserved":false,"is_disabled":false,"rental_uris":{"android":"levelo://app?vid=f71f9016-cd7a-4d2f-a244-6b67297b159e","ios":"levelo://app?vid=f71f9016-cd7a-4d2f-a244-6b67297b159e"},"vehicle_type_id":"4","last_reported":1741032645,"current_range_meters":10800,"station_id":"","pricing_plan_id":"cebpf4jnsgd1na2vs0mg"},{"bike_id":"1901130a-ffd5-42a0-b994-e2aa42548e35","system_id":"levelo_inurba_marseille","lat":43.26117,"lon":5.41499,"is_reserved":false,"is_disabled":false,"rental_uris":{"android":"levelo://app?vid=1901130a-ffd5-42a0-b994-e2aa42548e35","ios":"levelo://app?vid=1901130a-ffd5-42a0-b994-e2aa42548e35"},"vehicle_type_id":"4","last_reported":1741032645,"current_range_meters":10800,"station_id":"","pricing_plan_id":"cebpf4jnsgd1na2vs0mg"},{"bike_id":"442e17cf-9700-477c-a555-09fc8cf0081c","system_id":"levelo_inurba_marseille","lat":43.28451,"lon":5.35889,"is_reserved":false,"is_disabled":false,"rental_uris":{"android":"levelo://app?vid=442e17cf-9700-477c-a555-09fc8cf0081c","ios":"levelo://app?vid=442e17cf-9700-477c-a555-09fc8cf0081c"},"vehicle_type_id":"4","last_reported":1741032645,"current_range_meters":10800,"station_id":"ce4bhah2rcd13ifvqei0","pricing_plan_id":"cebpf4jnsgd1na2vs0mg"},{"bike_id":"6f575320-0666-41e9-bdb0-fc8dacfb507e","system_id":"levelo_inurba_marseille","lat":43.29705,"lon":5.36625,"is_reserved":false,"is_disabled":false,"rental_uris":{"android":"levelo://app?vid=6f575320-0666-41e9-bdb0-fc8dacfb507e","ios":"levelo://app?vid=6f575320-0666-41e9-bdb0-fc8dacfb507e"},"vehicle_type_id":"4","last_reported":1741032645,"current_range_meters":10800,"station_id":"ce4bgn12rcd13ifvqbt0","pricing_plan_id":"cebpf4jnsgd1na2vs0mg"},{"bike_id":"e29f86e8-2c96-484f-9c1f-a6eb3cd7348e","system_id":"levelo_inurba_marseille","lat":43.27997,"lon":5.41662,"is_reserved":false,"is_disabled":false,"rental_uris":{"android":"levelo://app?vid=e29f86e8-2c96-484f-9c1f-a6eb3cd7348e","ios":"levelo://app?vid=e29f86e8-2c96-484f-9c1f-a6eb3cd7348e"},"vehicle_type_id":"4","last_reported":1741032645,"current_range_meters":10800,"station_id":"ce4bho12rcd13ifvqh1g","pricing_plan_id":"cebpf4jnsgd1na2vs0mg"},{"bike_id":"fd02f3a8-dea7-4cf3-80b4-23d80305c13b","system_id":"levelo_inurba_marseille","lat":43.29871,"lon":5.38905,"is_reserved":false,"is_disabled":false,"rental_uris":{"android":"levelo://app?vid=fd02f3a8-dea7-4cf3-80b4-23d80305c13b","ios":"levelo://app?vid=fd02f3a8-dea7-4cf3-80b4-23d80305c13b"},"vehicle_type_id":"4","last_reported":1741032645,"current_range_meters":10800,"station_id":"ce4bh392rcd13ifvqdl0","pricing_plan_id":"cebpf4jnsgd1na2vs0mg"},{"bike_id":"41ed89d3-77cd-4311-8513-748a0ca63c4f","system_id":"levelo_inurba_marseille","lat":43.21273,"lon":5.35352,"is_reserved":false,"is_disabled":false,"rental_uris":{"android":"levelo://app?vid=41ed89d3-77cd-4311-8513-748a0ca63c4f","ios":"levelo://app?vid=41ed89d3-77cd-4311-8513-748a0ca63c4f"},"vehicle_type_id":"4","last_reported":1741032645,"current_range_meters":10800,"station_id":"","pricing_plan_id":"cebpf4jnsgd1na2vs0mg"},{"bike_id":"6cb85db3-4a75-4184-94df-23b36b1080ab","system_id":"levelo_inurba_marseille","lat":43.29937,"lon":5.36548,"is_reserved":false,"is_disabled":false,"rental_uris":{"android":"levelo://app?vid=6cb85db3-4a75-4184-94df-23b36b1080ab","ios":"levelo://app?vid=6cb85db3-4a75-4184-94df-23b36b1080ab"},"vehicle_type_id":"4","last_reported":1741032645,"current_range_meters":10800,"station_id":"ce4bgm92rcd13ifvqbr0","pricing_plan_id":"cebpf4jnsgd1na2vs0mg"},{"bike_id":"64953142-7637-42b4-b0d1-c449e63f1db7","system_id":"levelo_inurba_marseille","lat":43.29651,"lon":5.36012,"is_reserved":false,"is_disabled":false,"rental_uris":{"android":"levelo://app?vid=64953142-7637-42b4-b0d1-c449e63f1db7","ios":"levelo://app?vid=64953142-7637-42b4-b0d1-c449e63f1db7"},"vehicle_type_id":"4","last_reported":1741032645,"current_range_meters":10800,"station_id":"","pricing_plan_id":"cebpf4jnsgd1na2vs0mg"},{"bike_id":"83ed66f8-02e2-4018-b9ef-9016056fb6bc","system_id":"levelo_inurba_marseille","lat":43.24539,"lon":5.39532,"is_reserved":false,"is_disabled":false,"rental_uris":{"android":"levelo://app?vid=83ed66f8-02e2-4018-b9ef-9016056fb6bc","ios":"levelo://app?vid=83ed66f8-02e2-4018-b9ef-9016056fb6bc"},"vehicle_type_id":"4","last_reported":1741032645,"current_range_meters":10800,"station_id":"ce4bhlp2rcd13ifvqgjg","pricing_plan_id":"cebpf4jnsgd1na2vs0mg"},{"bike_id":"bba5c829-32fe-4a1d-9461-a852d59caa6b","system_id":"levelo_inurba_marseille","lat":43.28855,"lon":5.3932,"is_reserved":false,"is_disabled":true,"rental_uris":{"android":"levelo://app?vid=bba5c829-32fe-4a1d-9461-a852d59caa6b","ios":"levelo://app?vid=bba5c829-32fe-4a1d-9461-a852d59caa6b"},"vehicle_type_id":"4","last_reported":1741032645,"current_range_meters":10800,"station_id":"ce4bh2p2rcd13ifvqdi0","pricing_plan_id":"cebpf4jnsgd1na2vs0mg"},{"bike_id":"84d59691-2fe2-40f5-99af-d69b01f1f4e5","system_id":"levelo_inurba_marseille","lat":43.29192,"lon":5.39332,"is_reserved":false,"is_disabled":false,"rental_uris":{"android":"levelo://app?vid=84d59691-2fe2-40f5-99af-d69b01f1f4e5","ios":"levelo://app?vid=84d59691-2fe2-40f5-99af-d69b01f1f4e5"},"vehicle_type_id":"4","last_reported":1741032645,"current_range_meters":10800,"station_id":"ce4bh192rcd13ifvqdd0","pricing_plan_id":"cebpf4jnsgd1na2vs0mg"},{"bike_id":"db736e35-5569-4194-a5ba-d957f7eadf92","system_id":"levelo_inurba_marseille","lat":43.303,"lon":5.39213,"is_reserved":false,"is_disabled":false,"rental_uris":{"android":"levelo://app?vid=db736e35-5569-4194-a5ba-d957f7eadf92","ios":"levelo://app?vid=db736e35-5569-4194-a5ba-d957f7eadf92"},"vehicle_type_id":"4","last_reported":1741032645,"current_range_meters":11200,"station_id":"ce4bgkh2rcd13ifvqbk0","pricing_plan_id":"cebpf4jnsgd1na2vs0mg"},{"bike_id":"7e08dcdf-f47e-4eba-8f0e-b43cc6aa3a3d","system_id":"levelo_inurba_marseille","lat":43.27844,"lon":5.40723,"is_reserved":false,"is_disabled":false,"rental_uris":{"android":"levelo://app?vid=7e08dcdf-f47e-4eba-8f0e-b43cc6aa3a3d","ios":"levelo://app?vid=7e08dcdf-f47e-4eba-8f0e-b43cc6aa3a3d"},"vehicle_type_id":"4","last_reported":1741032645,"current_range_meters":11200,"station_id":"ce4bhnh2rcd13ifvqgtg","pricing_plan_id":"cebpf4jnsgd1na2vs0mg"},{"bike_id":"7c309f39-c40e-43c0-ba34-e6d9dc8bea4d","system_id":"levelo_inurba_marseille","lat":43.23953,"lon":5.36643,"is_reserved":false,"is_disabled":false,"rental_uris":{"android":"levelo://app?vid=7c309f39-c40e-43c0-ba34-e6d9dc8bea4d","ios":"levelo://app?vid=7c309f39-c40e-43c0-ba34-e6d9dc8bea4d"},"vehicle_type_id":"4","last_reported":1741032645,"current_range_meters":11200,"station_id":"ce4bhi12rcd13ifvqfp0","pricing_plan_id":"cebpf4jnsgd1na2vs0mg"},{"bike_id":"48270f6a-44a2-42a0-a432-d34f6489ec6a","system_id":"levelo_inurba_marseille","lat":43.27915,"lon":5.3958,"is_reserved":false,"is_disabled":false,"rental_uris":{"android":"levelo://app?vid=48270f6a-44a2-42a0-a432-d34f6489ec6a","ios":"levelo://app?vid=48270f6a-44a2-42a0-a432-d34f6489ec6a"},"vehicle_type_id":"4","last_reported":1741032645,"current_range_meters":11200,"station_id":"ce4bhf92rcd13ifvqf40","pricing_plan_id":"cebpf4jnsgd1na2vs0mg"},{"bike_id":"9a386038-9cc6-4b52-b406-e6a33e3dcf23","system_id":"levelo_inurba_marseille","lat":43.28462,"lon":5.35893,"is_reserved":false,"is_disabled":false,"rental_uris":{"android":"levelo://app?vid=9a386038-9cc6-4b52-b406-e6a33e3dcf23","ios":"levelo://app?vid=9a386038-9cc6-4b52-b406-e6a33e3dcf23"},"vehicle_type_id":"4","last_reported":1741032645,"current_range_meters":11200,"station_id":"ce4bhah2rcd13ifvqei0","pricing_plan_id":"cebpf4jnsgd1na2vs0mg"},{"bike_id":"d07ad459-e74c-4149-9c1a-9739c9e644f7","system_id":"levelo_inurba_marseille","lat":43.28616,"lon":5.35107,"is_reserved":false,"is_disabled":false,"rental_uris":{"android":"levelo://app?vid=d07ad459-e74c-4149-9c1a-9739c9e644f7","ios":"levelo://app?vid=d07ad459-e74c-4149-9c1a-9739c9e644f7"},"vehicle_type_id":"4","last_reported":1741032645,"current_range_meters":11200,"station_id":"ce4bhch2rcd13ifvqeug","pricing_plan_id":"cebpf4jnsgd1na2vs0mg"},{"bike_id":"1c1991de-be68-4cb3-960c-6defd82ce8db","system_id":"levelo_inurba_marseille","lat":43.29608,"lon":5.38106,"is_reserved":false,"is_disabled":false,"rental_uris":{"android":"levelo://app?vid=1c1991de-be68-4cb3-960c-6defd82ce8db","ios":"levelo://app?vid=1c1991de-be68-4cb3-960c-6defd82ce8db"},"vehicle_type_id":"4","last_reported":1741032645,"current_range_meters":11200,"station_id":"ce4bgl12rcd13ifvqbo0","pricing_plan_id":"cebpf4jnsgd1na2vs0mg"},{"bike_id":"362b2e41-0f7d-42ca-85b4-447baad17196","system_id":"levelo_inurba_marseille","lat":43.27193,"lon":5.41885,"is_reserved":false,"is_disabled":false,"rental_uris":{"android":"levelo://app?vid=362b2e41-0f7d-42ca-85b4-447baad17196","ios":"levelo://app?vid=362b2e41-0f7d-42ca-85b4-447baad17196"},"vehicle_type_id":"4","last_reported":1741032645,"current_range_meters":11200,"station_id":"","pricing_plan_id":"cebpf4jnsgd1na2vs0mg"},{"bike_id":"ee2ee136-55a7-4a98-9cd3-76f303145cd7","system_id":"levelo_inurba_marseille","lat":43.29869,"lon":5.38901,"is_reserved":false,"is_disabled":false,"rental_uris":{"android":"levelo://app?vid=ee2ee136-55a7-4a98-9cd3-76f303145cd7","ios":"levelo://app?vid=ee2ee136-55a7-4a98-9cd3-76f303145cd7"},"vehicle_type_id":"4","last_reported":1741032645,"current_range_meters":11600,"station_id":"ce4bh392rcd13ifvqdl0","pricing_plan_id":"cebpf4jnsgd1na2vs0mg"},{"bike_id":"0b818497-4d97-451b-b637-cef3d02b5c9d","system_id":"levelo_inurba_marseille","lat":43.31736,"lon":5.43746,"is_reserved":false,"is_disabled":true,"rental_uris":{"android":"levelo://app?vid=0b818497-4d97-451b-b637-cef3d02b5c9d","ios":"levelo://app?vid=0b818497-4d97-451b-b637-cef3d02b5c9d"},"vehicle_type_id":"4","last_reported":1741032645,"current_range_meters":11600,"station_id":"ce4bhp92rcd13ifvqhcg","pricing_plan_id":"cebpf4jnsgd1na2vs0mg"},{"bike_id":"fd41a648-9734-43e3-bd8f-5b3c7a6a97b3","system_id":"levelo_inurba_marseille","lat":43.29167,"lon":5.37172,"is_reserved":false,"is_disabled":false,"rental_uris":{"android":"levelo://app?vid=fd41a648-9734-43e3-bd8f-5b3c7a6a97b3","ios":"levelo://app?vid=fd41a648-9734-43e3-bd8f-5b3c7a6a97b3"},"vehicle_type_id":"4","last_reported":1741032645,"current_range_meters":11600,"station_id":"ce4bha92rcd13ifvqeh0","pricing_plan_id":"cebpf4jnsgd1na2vs0mg"},{"bike_id":"4b8bcc6a-b1ee-4044-9ae8-7c00efea0717","system_id":"levelo_inurba_marseille","lat":43.28418,"lon":5.3753,"is_reserved":false,"is_disabled":false,"rental_uris":{"android":"levelo://app?vid=4b8bcc6a-b1ee-4044-9ae8-7c00efea0717","ios":"levelo://app?vid=4b8bcc6a-b1ee-4044-9ae8-7c00efea0717"},"vehicle_type_id":"4","last_reported":1741032645,"current_range_meters":11600,"station_id":"ce4bh412rcd13ifvqds0","pricing_plan_id":"cebpf4jnsgd1na2vs0mg"},{"bike_id":"945269ae-743e-4d15-9bec-cd6fab16834f","system_id":"levelo_inurba_marseille","lat":43.282491,"lon":5.379058,"is_reserved":false,"is_disabled":false,"rental_uris":{"android":"levelo://app?vid=945269ae-743e-4d15-9bec-cd6fab16834f","ios":"levelo://app?vid=945269ae-743e-4d15-9bec-cd6fab16834f"},"vehicle_type_id":"4","last_reported":1741032645,"current_range_meters":11600,"station_id":"ce4bha12rcd13ifvqef0","pricing_plan_id":"cebpf4jnsgd1na2vs0mg"},{"bike_id":"b9314492-a56a-4787-bda8-bd2f48e84ce6","system_id":"levelo_inurba_marseille","lat":43.26225,"lon":5.40447,"is_reserved":false,"is_disabled":false,"rental_uris":{"android":"levelo://app?vid=b9314492-a56a-4787-bda8-bd2f48e84ce6","ios":"levelo://app?vid=b9314492-a56a-4787-bda8-bd2f48e84ce6"},"vehicle_type_id":"4","last_reported":1741032645,"current_range_meters":12000,"station_id":"ce4bhmh2rcd13ifvqgmg","pricing_plan_id":"cebpf4jnsgd1na2vs0mg"},{"bike_id":"5922db46-7b22-483d-aa0a-e26abb03e0c9","system_id":"levelo_inurba_marseille","lat":43.26568,"lon":5.39009,"is_reserved":false,"is_disabled":false,"rental_uris":{"android":"levelo://app?vid=5922db46-7b22-483d-aa0a-e26abb03e0c9","ios":"levelo://app?vid=5922db46-7b22-483d-aa0a-e26abb03e0c9"},"vehicle_type_id":"4","last_reported":1741032645,"current_range_meters":12000,"station_id":"ce4bhe12rcd13ifvqf30","pricing_plan_id":"cebpf4jnsgd1na2vs0mg"},{"bike_id":"602d4599-66db-4c51-934c-10f122321525","system_id":"levelo_inurba_marseille","lat":43.22938,"lon":5.35392,"is_reserved":false,"is_disabled":false,"rental_uris":{"android":"levelo://app?vid=602d4599-66db-4c51-934c-10f122321525","ios":"levelo://app?vid=602d4599-66db-4c51-934c-10f122321525"},"vehicle_type_id":"4","last_reported":1741032645,"current_range_meters":12000,"station_id":"cpo3532slgdg3j2ikp40","pricing_plan_id":"cebpf4jnsgd1na2vs0mg"},{"bike_id":"56ba5e12-3b52-43a2-a5c4-7fdbacb52374","system_id":"levelo_inurba_marseille","lat":43.29448,"lon":5.39752,"is_reserved":false,"is_disabled":false,"rental_uris":{"android":"levelo://app?vid=56ba5e12-3b52-43a2-a5c4-7fdbacb52374","ios":"levelo://app?vid=56ba5e12-3b52-43a2-a5c4-7fdbacb52374"},"vehicle_type_id":"4","last_reported":1741032645,"current_range_meters":12000,"station_id":"ce4bh3h2rcd13ifvqdo0","pricing_plan_id":"cebpf4jnsgd1na2vs0mg"},{"bike_id":"87aa6962-4521-45e2-b329-c7da6122dc3b","system_id":"levelo_inurba_marseille","lat":43.28956,"lon":5.3663,"is_reserved":false,"is_disabled":false,"rental_uris":{"android":"levelo://app?vid=87aa6962-4521-45e2-b329-c7da6122dc3b","ios":"levelo://app?vid=87aa6962-4521-45e2-b329-c7da6122dc3b"},"vehicle_type_id":"4","last_reported":1741032645,"current_range_meters":12000,"station_id":"ce4bhap2rcd13ifvqek0","pricing_plan_id":"cebpf4jnsgd1na2vs0mg"},{"bike_id":"102de46f-1f3d-42c6-b125-cb45380886c0","system_id":"levelo_inurba_marseille","lat":43.28455,"lon":5.35888,"is_reserved":false,"is_disabled":false,"rental_uris":{"android":"levelo://app?vid=102de46f-1f3d-42c6-b125-cb45380886c0","ios":"levelo://app?vid=102de46f-1f3d-42c6-b125-cb45380886c0"},"vehicle_type_id":"4","last_reported":1741032645,"current_range_meters":12000,"station_id":"ce4bhah2rcd13ifvqei0","pricing_plan_id":"cebpf4jnsgd1na2vs0mg"},{"bike_id":"e61fc92c-066a-469c-967f-4f066588d4e6","system_id":"levelo_inurba_marseille","lat":43.23199,"lon":5.35558,"is_reserved":false,"is_disabled":false,"rental_uris":{"android":"levelo://app?vid=e61fc92c-066a-469c-967f-4f066588d4e6","ios":"levelo://app?vid=e61fc92c-066a-469c-967f-4f066588d4e6"},"vehicle_type_id":"4","last_reported":1741032645,"current_range_meters":12000,"station_id":"ce4bhu92rcd13ifvqi70","pricing_plan_id":"cebpf4jnsgd1na2vs0mg"},{"bike_id":"ad59b830-78f7-4086-940e-9b2c1f343553","system_id":"levelo_inurba_marseille","lat":43.28001,"lon":5.40017,"is_reserved":false,"is_disabled":false,"rental_uris":{"android":"levelo://app?vid=ad59b830-78f7-4086-940e-9b2c1f343553","ios":"levelo://app?vid=ad59b830-78f7-4086-940e-9b2c1f343553"},"vehicle_type_id":"4","last_reported":1741032645,"current_range_meters":12000,"station_id":"ce4bho92rcd13ifvqh4g","pricing_plan_id":"cebpf4jnsgd1na2vs0mg"},{"bike_id":"2fe8f916-4590-4cd4-978d-98051b849535","system_id":"levelo_inurba_marseille","lat":43.279985,"lon":5.416634,"is_reserved":false,"is_disabled":false,"rental_uris":{"android":"levelo://app?vid=2fe8f916-4590-4cd4-978d-98051b849535","ios":"levelo://app?vid=2fe8f916-4590-4cd4-978d-98051b849535"},"vehicle_type_id":"4","last_reported":1741032645,"current_range_meters":12400,"station_id":"ce4bho12rcd13ifvqh1g","pricing_plan_id":"cebpf4jnsgd1na2vs0mg"},{"bike_id":"9de42f25-f760-4086-9a08-2934eee1b520","system_id":"levelo_inurba_marseille","lat":43.21297,"lon":5.35361,"is_reserved":false,"is_disabled":false,"rental_uris":{"android":"levelo://app?vid=9de42f25-f760-4086-9a08-2934eee1b520","ios":"levelo://app?vid=9de42f25-f760-4086-9a08-2934eee1b520"},"vehicle_type_id":"4","last_reported":1741032645,"current_range_meters":12400,"station_id":"","pricing_plan_id":"cebpf4jnsgd1na2vs0mg"},{"bike_id":"187d5684-340e-4f8d-b6ab-116969b1a3d0","system_id":"levelo_inurba_marseille","lat":43.27822,"lon":5.40721,"is_reserved":false,"is_disabled":false,"rental_uris":{"android":"levelo://app?vid=187d5684-340e-4f8d-b6ab-116969b1a3d0","ios":"levelo://app?vid=187d5684-340e-4f8d-b6ab-116969b1a3d0"},"vehicle_type_id":"4","last_reported":1741032645,"current_range_meters":12400,"station_id":"ce4bhnh2rcd13ifvqgtg","pricing_plan_id":"cebpf4jnsgd1na2vs0mg"},{"bike_id":"7376b4cb-b3dc-46d7-a05a-758fb3fdf340","system_id":"levelo_inurba_marseille","lat":43.30304,"lon":5.39203,"is_reserved":false,"is_disabled":false,"rental_uris":{"android":"levelo://app?vid=7376b4cb-b3dc-46d7-a05a-758fb3fdf340","ios":"levelo://app?vid=7376b4cb-b3dc-46d7-a05a-758fb3fdf340"},"vehicle_type_id":"4","last_reported":1741032645,"current_range_meters":12400,"station_id":"ce4bgkh2rcd13ifvqbk0","pricing_plan_id":"cebpf4jnsgd1na2vs0mg"},{"bike_id":"001a5048-e1a4-4b85-9036-c0b92c183777","system_id":"levelo_inurba_marseille","lat":43.29794,"lon":5.38089,"is_reserved":false,"is_disabled":false,"rental_uris":{"android":"levelo://app?vid=001a5048-e1a4-4b85-9036-c0b92c183777","ios":"levelo://app?vid=001a5048-e1a4-4b85-9036-c0b92c183777"},"vehicle_type_id":"4","last_reported":1741032645,"current_range_meters":12400,"station_id":"ce4bgip2rcd13ifvqbb0","pricing_plan_id":"cebpf4jnsgd1na2vs0mg"},{"bike_id":"d170468f-c190-4434-8e4e-ee1b40595363","system_id":"levelo_inurba_marseille","lat":43.304,"lon":5.4129,"is_reserved":false,"is_disabled":false,"rental_uris":{"android":"levelo://app?vid=d170468f-c190-4434-8e4e-ee1b40595363","ios":"levelo://app?vid=d170468f-c190-4434-8e4e-ee1b40595363"},"vehicle_type_id":"4","last_reported":1741032645,"current_range_meters":12400,"station_id":"ce4bhop2rcd13ifvqh8g","pricing_plan_id":"cebpf4jnsgd1na2vs0mg"},{"bike_id":"bce611a7-5044-470a-9dc2-ccdbc1151c5c","system_id":"levelo_inurba_marseille","lat":43.32483,"lon":5.36587,"is_reserved":false,"is_disabled":false,"rental_uris":{"android":"levelo://app?vid=bce611a7-5044-470a-9dc2-ccdbc1151c5c","ios":"levelo://app?vid=bce611a7-5044-470a-9dc2-ccdbc1151c5c"},"vehicle_type_id":"4","last_reported":1741032645,"current_range_meters":12400,"station_id":"ce4bhs12rcd13ifvqhvg","pricing_plan_id":"cebpf4jnsgd1na2vs0mg"},{"bike_id":"9a633337-6129-4042-810b-abbb21f0b063","system_id":"levelo_inurba_marseille","lat":43.29526,"lon":5.39399,"is_reserved":false,"is_disabled":false,"rental_uris":{"android":"levelo://app?vid=9a633337-6129-4042-810b-abbb21f0b063","ios":"levelo://app?vid=9a633337-6129-4042-810b-abbb21f0b063"},"vehicle_type_id":"4","last_reported":1741032645,"current_range_meters":12800,"station_id":"ce4bh292rcd13ifvqdf0","pricing_plan_id":"cebpf4jnsgd1na2vs0mg"},{"bike_id":"fc538172-abdb-42d0-9e73-20cebfb49ebf","system_id":"levelo_inurba_marseille","lat":43.28414,"lon":5.37522,"is_reserved":false,"is_disabled":false,"rental_uris":{"android":"levelo://app?vid=fc538172-abdb-42d0-9e73-20cebfb49ebf","ios":"levelo://app?vid=fc538172-abdb-42d0-9e73-20cebfb49ebf"},"vehicle_type_id":"4","last_reported":1741032645,"current_range_meters":12800,"station_id":"ce4bh412rcd13ifvqds0","pricing_plan_id":"cebpf4jnsgd1na2vs0mg"},{"bike_id":"cb014a6b-6553-43cb-90ee-c6d22cf5883f","system_id":"levelo_inurba_marseille","lat":43.26083,"lon":5.39354,"is_reserved":false,"is_disabled":false,"rental_uris":{"android":"levelo://app?vid=cb014a6b-6553-43cb-90ee-c6d22cf5883f","ios":"levelo://app?vid=cb014a6b-6553-43cb-90ee-c6d22cf5883f"},"vehicle_type_id":"4","last_reported":1741032645,"current_range_meters":12800,"station_id":"ce4bhh92rcd13ifvqfj0","pricing_plan_id":"cebpf4jnsgd1na2vs0mg"},{"bike_id":"3c5c93de-5d50-4966-8756-e4d54fa782ee","system_id":"levelo_inurba_marseille","lat":43.31757,"lon":5.39022,"is_reserved":false,"is_disabled":false,"rental_uris":{"android":"levelo://app?vid=3c5c93de-5d50-4966-8756-e4d54fa782ee","ios":"levelo://app?vid=3c5c93de-5d50-4966-8756-e4d54fa782ee"},"vehicle_type_id":"4","last_reported":1741032645,"current_range_meters":13600,"station_id":"ce4bhqp2rcd13ifvqhng","pricing_plan_id":"cebpf4jnsgd1na2vs0mg"},{"bike_id":"4f4a1247-04d9-4c7b-a6ca-280bfff4035f","system_id":"levelo_inurba_marseille","lat":43.29075,"lon":5.37167,"is_reserved":false,"is_disabled":false,"rental_uris":{"android":"levelo://app?vid=4f4a1247-04d9-4c7b-a6ca-280bfff4035f","ios":"levelo://app?vid=4f4a1247-04d9-4c7b-a6ca-280bfff4035f"},"vehicle_type_id":"4","last_reported":1741032645,"current_range_meters":13600,"station_id":"ce4bh5p2rcd13ifvqe4g","pricing_plan_id":"cebpf4jnsgd1na2vs0mg"},{"bike_id":"d749ca5c-d506-43ea-8c3f-c819b06b7f2f","system_id":"levelo_inurba_marseille","lat":43.28668,"lon":5.36356,"is_reserved":false,"is_disabled":false,"rental_uris":{"android":"levelo://app?vid=d749ca5c-d506-43ea-8c3f-c819b06b7f2f","ios":"levelo://app?vid=d749ca5c-d506-43ea-8c3f-c819b06b7f2f"},"vehicle_type_id":"4","last_reported":1741032645,"current_range_meters":13600,"station_id":"ce4bhah2rcd13ifvqej0","pricing_plan_id":"cebpf4jnsgd1na2vs0mg"},{"bike_id":"e4e91370-e554-4387-b1fb-5ffddc6d4231","system_id":"levelo_inurba_marseille","lat":43.25818,"lon":5.39422,"is_reserved":false,"is_disabled":false,"rental_uris":{"android":"levelo://app?vid=e4e91370-e554-4387-b1fb-5ffddc6d4231","ios":"levelo://app?vid=e4e91370-e554-4387-b1fb-5ffddc6d4231"},"vehicle_type_id":"4","last_reported":1741032645,"current_range_meters":13600,"station_id":"ce4bhip2rcd13ifvqft0","pricing_plan_id":"cebpf4jnsgd1na2vs0mg"},{"bike_id":"373d78c5-16bc-4095-9a66-2b440c99b361","system_id":"levelo_inurba_marseille","lat":43.27821,"lon":5.40718,"is_reserved":false,"is_disabled":false,"rental_uris":{"android":"levelo://app?vid=373d78c5-16bc-4095-9a66-2b440c99b361","ios":"levelo://app?vid=373d78c5-16bc-4095-9a66-2b440c99b361"},"vehicle_type_id":"4","last_reported":1741032645,"current_range_meters":13600,"station_id":"ce4bhnh2rcd13ifvqgtg","pricing_plan_id":"cebpf4jnsgd1na2vs0mg"},{"bike_id":"29c60754-9df2-4a82-8936-100fec420b4c","system_id":"levelo_inurba_marseille","lat":43.29964,"lon":5.39768,"is_reserved":false,"is_disabled":false,"rental_uris":{"android":"levelo://app?vid=29c60754-9df2-4a82-8936-100fec420b4c","ios":"levelo://app?vid=29c60754-9df2-4a82-8936-100fec420b4c"},"vehicle_type_id":"4","last_reported":1741032645,"current_range_meters":13600,"station_id":"ce4bh0h2rcd13ifvqd50","pricing_plan_id":"cebpf4jnsgd1na2vs0mg"},{"bike_id":"e7ec1ac1-2323-47bd-a2b5-7cd3afb282cf","system_id":"levelo_inurba_marseille","lat":43.2655,"lon":5.37292,"is_reserved":false,"is_disabled":false,"rental_uris":{"android":"levelo://app?vid=e7ec1ac1-2323-47bd-a2b5-7cd3afb282cf","ios":"levelo://app?vid=e7ec1ac1-2323-47bd-a2b5-7cd3afb282cf"},"vehicle_type_id":"4","last_reported":1741032645,"current_range_meters":13600,"station_id":"ce4bhg12rcd13ifvqf70","pricing_plan_id":"cebpf4jnsgd1na2vs0mg"},{"bike_id":"a5193847-231c-4c8c-b335-8579028b0ddd","system_id":"levelo_inurba_marseille","lat":43.27813,"lon":5.40717,"is_reserved":false,"is_disabled":false,"rental_uris":{"android":"levelo://app?vid=a5193847-231c-4c8c-b335-8579028b0ddd","ios":"levelo://app?vid=a5193847-231c-4c8c-b335-8579028b0ddd"},"vehicle_type_id":"4","last_reported":1741032645,"current_range_meters":13600,"station_id":"ce4bhnh2rcd13ifvqgtg","pricing_plan_id":"cebpf4jnsgd1na2vs0mg"},{"bike_id":"33d78023-4d5b-48ce-9665-2809bebb67ae","system_id":"levelo_inurba_marseille","lat":43.2846,"lon":5.35881,"is_reserved":false,"is_disabled":false,"rental_uris":{"android":"levelo://app?vid=33d78023-4d5b-48ce-9665-2809bebb67ae","ios":"levelo://app?vid=33d78023-4d5b-48ce-9665-2809bebb67ae"},"vehicle_type_id":"4","last_reported":1741032645,"current_range_meters":13600,"station_id":"ce4bhah2rcd13ifvqei0","pricing_plan_id":"cebpf4jnsgd1na2vs0mg"},{"bike_id":"711f809a-3a53-49f1-a4ac-f129de8de9f9","system_id":"levelo_inurba_marseille","lat":43.30152,"lon":5.39895,"is_reserved":false,"is_disabled":false,"rental_uris":{"android":"levelo://app?vid=711f809a-3a53-49f1-a4ac-f129de8de9f9","ios":"levelo://app?vid=711f809a-3a53-49f1-a4ac-f129de8de9f9"},"vehicle_type_id":"4","last_reported":1741032645,"current_range_meters":13600,"station_id":"ce4bh0h2rcd13ifvqd40","pricing_plan_id":"cebpf4jnsgd1na2vs0mg"},{"bike_id":"e6d9f684-9eb1-4df9-a51b-f285cd96d65d","system_id":"levelo_inurba_marseille","lat":43.25047,"lon":5.38911,"is_reserved":false,"is_disabled":false,"rental_uris":{"android":"levelo://app?vid=e6d9f684-9eb1-4df9-a51b-f285cd96d65d","ios":"levelo://app?vid=e6d9f684-9eb1-4df9-a51b-f285cd96d65d"},"vehicle_type_id":"4","last_reported":1741032645,"current_range_meters":13600,"station_id":"ce4bhgp2rcd13ifvqfd0","pricing_plan_id":"cebpf4jnsgd1na2vs0mg"},{"bike_id":"9b2c6281-f034-4aab-b4f9-b9df898569fd","system_id":"levelo_inurba_marseille","lat":43.2795,"lon":5.41042,"is_reserved":false,"is_disabled":false,"rental_uris":{"android":"levelo://app?vid=9b2c6281-f034-4aab-b4f9-b9df898569fd","ios":"levelo://app?vid=9b2c6281-f034-4aab-b4f9-b9df898569fd"},"vehicle_type_id":"4","last_reported":1741032645,"current_range_meters":13600,"station_id":"ce4bhnp2rcd13ifvqh0g","pricing_plan_id":"cebpf4jnsgd1na2vs0mg"},{"bike_id":"8fd7d9f7-e8bc-417d-8642-b3fc5e66e788","system_id":"levelo_inurba_marseille","lat":43.29983,"lon":5.39726,"is_reserved":false,"is_disabled":false,"rental_uris":{"android":"levelo://app?vid=8fd7d9f7-e8bc-417d-8642-b3fc5e66e788","ios":"levelo://app?vid=8fd7d9f7-e8bc-417d-8642-b3fc5e66e788"},"vehicle_type_id":"4","last_reported":1741032645,"current_range_meters":13600,"station_id":"","pricing_plan_id":"cebpf4jnsgd1na2vs0mg"},{"bike_id":"dd08d469-0e07-4995-a332-b3086215ce48","system_id":"levelo_inurba_marseille","lat":43.30932,"lon":5.39019,"is_reserved":false,"is_disabled":true,"rental_uris":{"android":"levelo://app?vid=dd08d469-0e07-4995-a332-b3086215ce48","ios":"levelo://app?vid=dd08d469-0e07-4995-a332-b3086215ce48"},"vehicle_type_id":"4","last_reported":1741032645,"current_range_meters":13600,"station_id":"ce4bgup2rcd13ifvqco0","pricing_plan_id":"cebpf4jnsgd1na2vs0mg"},{"bike_id":"09e4a186-5878-4788-9d97-8c4dac66bb36","system_id":"levelo_inurba_marseille","lat":43.28452,"lon":5.35884,"is_reserved":false,"is_disabled":false,"rental_uris":{"android":"levelo://app?vid=09e4a186-5878-4788-9d97-8c4dac66bb36","ios":"levelo://app?vid=09e4a186-5878-4788-9d97-8c4dac66bb36"},"vehicle_type_id":"4","last_reported":1741032645,"current_range_meters":13600,"station_id":"ce4bhah2rcd13ifvqei0","pricing_plan_id":"cebpf4jnsgd1na2vs0mg"},{"bike_id":"c05b4417-be6b-4425-b1b2-3aa517db1553","system_id":"levelo_inurba_marseille","lat":43.30796,"lon":5.37651,"is_reserved":false,"is_disabled":false,"rental_uris":{"android":"levelo://app?vid=c05b4417-be6b-4425-b1b2-3aa517db1553","ios":"levelo://app?vid=c05b4417-be6b-4425-b1b2-3aa517db1553"},"vehicle_type_id":"4","last_reported":1741032645,"current_range_meters":13600,"station_id":"ce4bgv92rcd13ifvqcq0","pricing_plan_id":"cebpf4jnsgd1na2vs0mg"},{"bike_id":"d1b38336-63c7-4d2d-a2d6-75d4567269de","system_id":"levelo_inurba_marseille","lat":43.30932,"lon":5.40152,"is_reserved":false,"is_disabled":false,"rental_uris":{"android":"levelo://app?vid=d1b38336-63c7-4d2d-a2d6-75d4567269de","ios":"levelo://app?vid=d1b38336-63c7-4d2d-a2d6-75d4567269de"},"vehicle_type_id":"4","last_reported":1741032645,"current_range_meters":13600,"station_id":"ce4bgvp2rcd13ifvqct0","pricing_plan_id":"cebpf4jnsgd1na2vs0mg"},{"bike_id":"cb813df4-3836-4634-974a-d02d99a32d8a","system_id":"levelo_inurba_marseille","lat":43.32705,"lon":5.39232,"is_reserved":false,"is_disabled":false,"rental_uris":{"android":"levelo://app?vid=cb813df4-3836-4634-974a-d02d99a32d8a","ios":"levelo://app?vid=cb813df4-3836-4634-974a-d02d99a32d8a"},"vehicle_type_id":"4","last_reported":1741032645,"current_range_meters":14000,"station_id":"","pricing_plan_id":"cebpf4jnsgd1na2vs0mg"},{"bike_id":"4e6002db-7e64-4369-9d80-a1fc61dd87a0","system_id":"levelo_inurba_marseille","lat":43.2928,"lon":5.40113,"is_reserved":false,"is_disabled":false,"rental_uris":{"android":"levelo://app?vid=4e6002db-7e64-4369-9d80-a1fc61dd87a0","ios":"levelo://app?vid=4e6002db-7e64-4369-9d80-a1fc61dd87a0"},"vehicle_type_id":"4","last_reported":1741032645,"current_range_meters":14000,"station_id":"ce4bh312rcd13ifvqdk0","pricing_plan_id":"cebpf4jnsgd1na2vs0mg"},{"bike_id":"e5136b97-99d8-49fc-aff2-faca0326e8ae","system_id":"levelo_inurba_marseille","lat":43.2796,"lon":5.41063,"is_reserved":false,"is_disabled":false,"rental_uris":{"android":"levelo://app?vid=e5136b97-99d8-49fc-aff2-faca0326e8ae","ios":"levelo://app?vid=e5136b97-99d8-49fc-aff2-faca0326e8ae"},"vehicle_type_id":"4","last_reported":1741032645,"current_range_meters":14000,"station_id":"ce4bhnp2rcd13ifvqh0g","pricing_plan_id":"cebpf4jnsgd1na2vs0mg"},{"bike_id":"44a7153b-0fd7-4509-836b-676bbf84fb06","system_id":"levelo_inurba_marseille","lat":43.23192,"lon":5.35549,"is_reserved":false,"is_disabled":false,"rental_uris":{"android":"levelo://app?vid=44a7153b-0fd7-4509-836b-676bbf84fb06","ios":"levelo://app?vid=44a7153b-0fd7-4509-836b-676bbf84fb06"},"vehicle_type_id":"4","last_reported":1741032645,"current_range_meters":14000,"station_id":"ce4bhu92rcd13ifvqi70","pricing_plan_id":"cebpf4jnsgd1na2vs0mg"},{"bike_id":"d21a56d9-0159-490b-a86d-89ea089bc9ac","system_id":"levelo_inurba_marseille","lat":43.28264,"lon":5.35071,"is_reserved":false,"is_disabled":false,"rental_uris":{"android":"levelo://app?vid=d21a56d9-0159-490b-a86d-89ea089bc9ac","ios":"levelo://app?vid=d21a56d9-0159-490b-a86d-89ea089bc9ac"},"vehicle_type_id":"4","last_reported":1741032645,"current_range_meters":14400,"station_id":"ce4bhbp2rcd13ifvqerg","pricing_plan_id":"cebpf4jnsgd1na2vs0mg"},{"bike_id":"ee1d2ad1-36ca-49dd-a328-f2a9a9994ecb","system_id":"levelo_inurba_marseille","lat":43.3107,"lon":5.38136,"is_reserved":false,"is_disabled":false,"rental_uris":{"android":"levelo://app?vid=ee1d2ad1-36ca-49dd-a328-f2a9a9994ecb","ios":"levelo://app?vid=ee1d2ad1-36ca-49dd-a328-f2a9a9994ecb"},"vehicle_type_id":"4","last_reported":1741032645,"current_range_meters":14800,"station_id":"","pricing_plan_id":"cebpf4jnsgd1na2vs0mg"},{"bike_id":"089251b4-101d-44dd-a4b2-0e114c7f8e04","system_id":"levelo_inurba_marseille","lat":43.30419,"lon":5.39755,"is_reserved":false,"is_disabled":false,"rental_uris":{"android":"levelo://app?vid=089251b4-101d-44dd-a4b2-0e114c7f8e04","ios":"levelo://app?vid=089251b4-101d-44dd-a4b2-0e114c7f8e04"},"vehicle_type_id":"4","last_reported":1741032645,"current_range_meters":14800,"station_id":"ce4bh092rcd13ifvqd20","pricing_plan_id":"cebpf4jnsgd1na2vs0mg"},{"bike_id":"ed7f448a-2ee8-49f9-aca5-39dcd6dc9acb","system_id":"levelo_inurba_marseille","lat":43.29056,"lon":5.35925,"is_reserved":false,"is_disabled":false,"rental_uris":{"android":"levelo://app?vid=ed7f448a-2ee8-49f9-aca5-39dcd6dc9acb","ios":"levelo://app?vid=ed7f448a-2ee8-49f9-aca5-39dcd6dc9acb"},"vehicle_type_id":"4","last_reported":1741032645,"current_range_meters":14800,"station_id":"ce4bha92rcd13ifvqeg0","pricing_plan_id":"cebpf4jnsgd1na2vs0mg"},{"bike_id":"a672a65c-d1fc-4716-9934-f7368b43bb6f","system_id":"levelo_inurba_marseille","lat":43.28414,"lon":5.37517,"is_reserved":false,"is_disabled":false,"rental_uris":{"android":"levelo://app?vid=a672a65c-d1fc-4716-9934-f7368b43bb6f","ios":"levelo://app?vid=a672a65c-d1fc-4716-9934-f7368b43bb6f"},"vehicle_type_id":"4","last_reported":1741032645,"current_range_meters":14800,"station_id":"ce4bh412rcd13ifvqds0","pricing_plan_id":"cebpf4jnsgd1na2vs0mg"},{"bike_id":"7ecea380-b6b7-41ac-b4df-687eba37e4c1","system_id":"levelo_inurba_marseille","lat":43.27814,"lon":5.40705,"is_reserved":false,"is_disabled":false,"rental_uris":{"android":"levelo://app?vid=7ecea380-b6b7-41ac-b4df-687eba37e4c1","ios":"levelo://app?vid=7ecea380-b6b7-41ac-b4df-687eba37e4c1"},"vehicle_type_id":"4","last_reported":1741032645,"current_range_meters":15200,"station_id":"ce4bhnh2rcd13ifvqgtg","pricing_plan_id":"cebpf4jnsgd1na2vs0mg"},{"bike_id":"6fa58c35-f6be-4003-a239-afce8566540c","system_id":"levelo_inurba_marseille","lat":43.22943,"lon":5.35384,"is_reserved":false,"is_disabled":false,"rental_uris":{"android":"levelo://app?vid=6fa58c35-f6be-4003-a239-afce8566540c","ios":"levelo://app?vid=6fa58c35-f6be-4003-a239-afce8566540c"},"vehicle_type_id":"4","last_reported":1741032645,"current_range_meters":15200,"station_id":"cpo3532slgdg3j2ikp40","pricing_plan_id":"cebpf4jnsgd1na2vs0mg"},{"bike_id":"a9e4db3f-a424-4a70-bbb1-9ffa5bd94433","system_id":"levelo_inurba_marseille","lat":43.32369,"lon":5.38911,"is_reserved":false,"is_disabled":false,"rental_uris":{"android":"levelo://app?vid=a9e4db3f-a424-4a70-bbb1-9ffa5bd94433","ios":"levelo://app?vid=a9e4db3f-a424-4a70-bbb1-9ffa5bd94433"},"vehicle_type_id":"4","last_reported":1741032645,"current_range_meters":15200,"station_id":"ce4bhqp2rcd13ifvqhog","pricing_plan_id":"cebpf4jnsgd1na2vs0mg"},{"bike_id":"3916c545-d5d3-4101-b910-12ca00fd823b","system_id":"levelo_inurba_marseille","lat":43.31166,"lon":5.38727,"is_reserved":false,"is_disabled":false,"rental_uris":{"android":"levelo://app?vid=3916c545-d5d3-4101-b910-12ca00fd823b","ios":"levelo://app?vid=3916c545-d5d3-4101-b910-12ca00fd823b"},"vehicle_type_id":"4","last_reported":1741032645,"current_range_meters":15200,"station_id":"ce4bgv12rcd13ifvqcp0","pricing_plan_id":"cebpf4jnsgd1na2vs0mg"},{"bike_id":"474b314c-3a52-4e17-bbda-10f41385b1a6","system_id":"levelo_inurba_marseille","lat":43.30647,"lon":5.37278,"is_reserved":false,"is_disabled":false,"rental_uris":{"android":"levelo://app?vid=474b314c-3a52-4e17-bbda-10f41385b1a6","ios":"levelo://app?vid=474b314c-3a52-4e17-bbda-10f41385b1a6"},"vehicle_type_id":"4","last_reported":1741032645,"current_range_meters":15200,"station_id":"","pricing_plan_id":"cebpf4jnsgd1na2vs0mg"},{"bike_id":"2458e0f1-a8b2-4533-b3c9-d2a934eb6fd5","system_id":"levelo_inurba_marseille","lat":43.28848,"lon":5.35846,"is_reserved":false,"is_disabled":false,"rental_uris":{"android":"levelo://app?vid=2458e0f1-a8b2-4533-b3c9-d2a934eb6fd5","ios":"levelo://app?vid=2458e0f1-a8b2-4533-b3c9-d2a934eb6fd5"},"vehicle_type_id":"4","last_reported":1741032645,"current_range_meters":16000,"station_id":"ce4bhb12rcd13ifvqem0","pricing_plan_id":"cebpf4jnsgd1na2vs0mg"},