{"last_updated":1730959950,"ttl":60,"version":"2.2","data":{"bikes":[{"bike_id":"ad7bd7b0-39aa-4255-b369-36ca8455a7df","system_id":"levelo_inurba_marseille","lat":43.319966,"lon":5.381458,"is_reserved":false,"is_disabled":false,"rental_uris":{"android":"levelo://app?vid=ad7bd7b0-39aa-4255-b369-36ca8455a7df","ios":"levelo://app?vid=ad7bd7b0-39aa-4255-b369-36ca8455a7df"},"vehicle_type_id":"4","last_reported":1730959950,"current_range_meters":39200,"station_id":"ce4bhr12rcd13ifvqhpg","pricing_plan_id":"cebpf4jnsgd1na2vs0mg"},{"bike_id":"ba0c072f-8c4a-4fe5-8b96-6570b7e9c09c","system_id":"levelo_inurba_marseille","lat":43.30896,"lon":5.39626,"is_reserved":false,"is_disabled":false,"rental_uris":{"android":"levelo://app?vid=ba0c072f-8c4a-4fe5-8b96-6570b7e9c09c","ios":"levelo://app?vid=ba0c072f-8c4a-4fe5-8b96-6570b7e9c09c"},"vehicle_type_id":"4","last_reported":1730959950,"current_range_meters":27600,"station_id":"ce4bh012rcd13ifvqcv0","pricing_plan_id":"cebpf4jnsgd1na2vs0mg"},{"bike_id":"9fc02c53-055a-440d-a952-05755c2d8906","system_id":"levelo_inurba_marseille","lat":43.28568,"lon":5.39494,"is_reserved":false,"is_disabled":false,"rental_uris":{"android":"levelo://app?vid=9fc02c53-055a-440d-a952-05755c2d8906","ios":"levelo://app?vid=9fc02c53-055a-440d-a952-05755c2d8906"},"vehicle_type_id":"4","last_reported":1730959950,"current_range_meters":16400,"station_id":"ce4bh292rcd13ifvqdg0","pricing_plan_id":"cebpf4jnsgd1na2vs0mg"},{"bike_id":"e8e9bdd7-0c79-42d3-ab62-c6dc8d47a11b","system_id":"levelo_inurba_marseille","lat":43.2439,"lon":5.37055,"is_reserved":false,"is_disabled":false,"rental_uris":{"android":"levelo://app?vid=e8e9bdd7-0c79-42d3-ab62-c6dc8d47a11b","ios":"levelo://app?vid=e8e9bdd7-0c79-42d3-ab62-c6dc8d47a11b"},"vehicle_type_id":"4","last_reported":1730959950,"current_range_meters":14800,"station_id":"ce4bhhh2rcd13ifvqfk0","pricing_plan_id":"cebpf4jnsgd1na2vs0mg"},{"bike_id":"cedf82b2-8cd2-42d6-8db7-31822fa37d3c","system_id":"levelo_inurba_marseille","lat":43.288544,"lon":5.373199,"is_reserved":false,"is_disabled":false,"rental_uris":{"android":"levelo://app?vid=cedf82b2-8cd2-42d6-8db7-31822fa37d3c","ios":"levelo://app?vid=cedf82b2-8cd2-42d6-8db7-31822fa37d3c"},"vehicle_type_id":"4","last_reported":1730959950,"current_range_meters":38000,"station_id":"ce4bh3p2rcd13ifvqdq0","pricing_plan_id":"cebpf4jnsgd1na2vs0mg"},{"bike_id":"b79739f5-aaa0-49a4-a53d-2b13f632e303","system_id":"levelo_inurba_marseille","lat":43.31709,"lon":5.40441,"is_reserved":false,"is_disabled":false,"rental_uris":{"android":"levelo://app?vid=b79739f5-aaa0-49a4-a53d-2b13f632e303","ios":"levelo://app?vid=b79739f5-aaa0-49a4-a53d-2b13f632e303"},"vehicle_type_id":"4","last_reported":1730959950,"current_range_meters":10000,"station_id":"ce4bh012rcd13ifvqd00","pricing_plan_id":"cebpf4jnsgd1na2vs0mg"},{"bike_id":"29885d2f-5a2c-4beb-8d24-3b02a53d2e3c","system_id":"levelo_inurba_marseille","lat":43.28475,"lon":5.38558,"is_reserved":false,"is_disabled":false,"rental_uris":{"android":"levelo://app?vid=29885d2f-5a2c-4beb-8d24-3b02a53d2e3c","ios":"levelo://app?vid=29885d2f-5a2c-4beb-8d24-3b02a53d2e3c"},"vehicle_type_id":"4","last_reported":1730959950,"current_range_meters":38800,"station_id":"ce4bh8p2rcd13ifvqeb0","pricing_plan_id":"cebpf4jnsgd1na2vs0mg"},{"bike_id":"2358f1b7-8303-46b0-8fd0-ffc2b5a34c06","system_id":"levelo_inurba_marseille","lat":43.246681,"lon":5.381598,"is_reserved":false,"is_disabled":false,"rental_uris":{"android":"levelo://app?vid=2358f1b7-8303-46b0-8fd0-ffc2b5a34c06","ios":"levelo://app?vid=2358f1b7-8303-46b0-8fd0-ffc2b5a34c06"},"vehicle_type_id":"4","last_reported":1730959950,"current_range_meters":36800,"station_id":"ce4bhih2rcd13ifvqfr0","pricing_plan_id":"cebpf4jnsgd1na2vs0mg"},{"bike_id":"4c31defd-a46c-451d-8327-93053a02cdad","system_id":"levelo_inurba_marseille","lat":43.31182,"lon":5.387104,"is_reserved":false,"is_disabled":false,"rental_uris":{"android":"levelo://app?vid=4c31defd-a46c-451d-8327-93053a02cdad","ios":"levelo://app?vid=4c31defd-a46c-451d-8327-93053a02cdad"},"vehicle_type_id":"4","last_reported":1730959950,"current_range_meters":8800,"station_id":"ce4bgv12rcd13ifvqcp0","pricing_plan_id":"cebpf4jnsgd1na2vs0mg"},{"bike_id":"e02d6de2-e1ff-4620-97db-57c175400127","system_id":"levelo_inurba_marseille","lat":43.30418,"lon":5.41284,"is_reserved":false,"is_disabled":false,"rental_uris":{"android":"levelo://app?vid=e02d6de2-e1ff-4620-97db-57c175400127","ios":"levelo://app?vid=e02d6de2-e1ff-4620-97db-57c175400127"},"vehicle_type_id":"4","last_reported":1730959950,"current_range_meters":32400,"station_id":"ce4bhop2rcd13ifvqh8g","pricing_plan_id":"cebpf4jnsgd1na2vs0mg"},{"bike_id":"d05f4868-23cb-41be-b0a5-eef83a05a342","system_id":"levelo_inurba_marseille","lat":43.29637,"lon":5.40603,"is_reserved":false,"is_disabled":false,"rental_uris":{"android":"levelo://app?vid=d05f4868-23cb-41be-b0a5-eef83a05a342","ios":"levelo://app?vid=d05f4868-23cb-41be-b0a5-eef83a05a342"},"vehicle_type_id":"4","last_reported":1730959950,"current_range_meters":39200,"station_id":"ce4bh0h2rcd13ifvqd60","pricing_plan_id":"cebpf4jnsgd1na2vs0mg"},{"bike_id":"aaf896be-23fc-4cde-b212-d643c208e7c1","system_id":"levelo_inurba_marseille","lat":43.30417,"lon":5.41291,"is_reserved":false,"is_disabled":false,"rental_uris":{"android":"levelo://app?vid=aaf896be-23fc-4cde-b212-d643c208e7c1","ios":"levelo://app?vid=aaf896be-23fc-4cde-b212-d643c208e7c1"},"vehicle_type_id":"4","last_reported":1730959950,"current_range_meters":35200,"station_id":"ce4bhop2rcd13ifvqh8g","pricing_plan_id":"cebpf4jnsgd1na2vs0mg"},{"bike_id":"171c996e-af3a-4f37-a956-55d56c1c1adb","system_id":"levelo_inurba_marseille","lat":43.290351,"lon":5.399697,"is_reserved":false,"is_disabled":false,"rental_uris":{"android":"levelo://app?vid=171c996e-af3a-4f37-a956-55d56c1c1adb","ios":"levelo://app?vid=171c996e-af3a-4f37-a956-55d56c1c1adb"},"vehicle_type_id":"4","last_reported":1730959950,"current_range_meters":40000,"station_id":"ce4bh392rcd13ifvqdm0","pricing_plan_id":"cebpf4jnsgd1na2vs0mg"},{"bike_id":"985e549d-f1b3-40eb-848e-3dd63b403f43","system_id":"levelo_inurba_marseille","lat":43.302561,"lon":5.400778,"is_reserved":false,"is_disabled":false,"rental_uris":{"android":"levelo://app?vid=985e549d-f1b3-40eb-848e-3dd63b403f43","ios":"levelo://app?vid=985e549d-f1b3-40eb-848e-3dd63b403f43"},"vehicle_type_id":"4","last_reported":1730959950,"current_range_meters":38400,"station_id":"ce4bgvh2rcd13ifvqcs0","pricing_plan_id":"cebpf4jnsgd1na2vs0mg"},{"bike_id":"2e2fe7b5-7495-4cdd-8155-f9fafd6448a8","system_id":"levelo_inurba_marseille","lat":43.28574,"lon":5.395,"is_reserved":false,"is_disabled":false,"rental_uris":{"android":"levelo://app?vid=2e2fe7b5-7495-4cdd-8155-f9fafd6448a8","ios":"levelo://app?vid=2e2fe7b5-7495-4cdd-8155-f9fafd6448a8"},"vehicle_type_id":"4","last_reported":1730959950,"current_range_meters":17200,"station_id":"ce4bh292rcd13ifvqdg0","pricing_plan_id":"cebpf4jnsgd1na2vs0mg"},{"bike_id":"4227da68-790f-4721-a964-6630e55e5d9d","system_id":"levelo_inurba_marseille","lat":43.28448,"lon":5.39184,"is_reserved":false,"is_disabled":false,"rental_uris":{"android":"levelo://app?vid=4227da68-790f-4721-a964-6630e55e5d9d","ios":"levelo://app?vid=4227da68-790f-4721-a964-6630e55e5d9d"},"vehicle_type_id":"4","last_reported":1730959950,"current_range_meters":27600,"station_id":"ce4bhoh2rcd13ifvqh5g","pricing_plan_id":"cebpf4jnsgd1na2vs0mg"},{"bike_id":"1eabb2c3-4fde-4bd6-a226-df0ee2986574","system_id":"levelo_inurba_marseille","lat":43.2963,"lon":5.37168,"is_reserved":false,"is_disabled":false,"rental_uris":{"android":"levelo://app?vid=1eabb2c3-4fde-4bd6-a226-df0ee2986574","ios":"levelo://app?vid=1eabb2c3-4fde-4bd6-a226-df0ee2986574"},"vehicle_type_id":"4","last_reported":1730959950,"current_range_meters":38000,"station_id":"ce4bgnh2rcd13ifvqc0g","pricing_plan_id":"cebpf4jnsgd1na2vs0mg"},{"bike_id":"8af378d1-5bc4-457f-9470-74e88c52bda7","system_id":"levelo_inurba_marseille","lat":43.319989,"lon":5.381561,"is_reserved":false,"is_disabled":false,"rental_uris":{"android":"levelo://app?vid=8af378d1-5bc4-457f-9470-74e88c52bda7","ios":"levelo://app?vid=8af378d1-5bc4-457f-9470-74e88c52bda7"},"vehicle_type_id":"4","last_reported":1730959950,"current_range_meters":38000,"station_id":"ce4bhr12rcd13ifvqhpg","pricing_plan_id":"cebpf4jnsgd1na2vs0mg"},{"bike_id":"55fc641b-46b1-4285-8546-805cff3fb723","system_id":"levelo_inurba_marseille","lat":43.28075,"lon":5.3965,"is_reserved":false,"is_disabled":false,"rental_uris":{"android":"levelo://app?vid=55fc641b-46b1-4285-8546-805cff3fb723","ios":"levelo://app?vid=55fc641b-46b1-4285-8546-805cff3fb723"},"vehicle_type_id":"4","last_reported":1730959950,"current_range_meters":3600,"station_id":"ce4bho12rcd13ifvqh2g","pricing_plan_id":"cebpf4jnsgd1na2vs0mg"},{"bike_id":"92437862-9629-46f7-8ed5-946bc7784f02","system_id":"levelo_inurba_marseille","lat":43.320021,"lon":5.381571,"is_reserved":false,"is_disabled":false,"rental_uris":{"android":"levelo://app?vid=92437862-9629-46f7-8ed5-946bc7784f02","ios":"levelo://app?vid=92437862-9629-46f7-8ed5-946bc7784f02"},"vehicle_type_id":"4","last_reported":1730959950,"current_range_meters":28000,"station_id":"ce4bhr12rcd13ifvqhpg","pricing_plan_id":"cebpf4jnsgd1na2vs0mg"},{"bike_id":"44135612-fabe-4db6-b769-98ffa02d00e4","system_id":"levelo_inurba_marseille","lat":43.32286,"lon":5.3828,"is_reserved":false,"is_disabled":false,"rental_uris":{"android":"levelo://app?vid=44135612-fabe-4db6-b769-98ffa02d00e4","ios":"levelo://app?vid=44135612-fabe-4db6-b769-98ffa02d00e4"},"vehicle_type_id":"4","last_reported":1730959950,"current_range_meters":39200,"station_id":"ce4bhr12rcd13ifvqhqg","pricing_plan_id":"cebpf4jnsgd1na2vs0mg"},{"bike_id":"68795af6-e265-48d7-b50a-81f544090ea4","system_id":"levelo_inurba_marseille","lat":43.28725,"lon":5.39979,"is_reserved":false,"is_disabled":false,"rental_uris":{"android":"levelo://app?vid=68795af6-e265-48d7-b50a-81f544090ea4","ios":"levelo://app?vid=68795af6-e265-48d7-b50a-81f544090ea4"},"vehicle_type_id":"4","last_reported":1730959950,"current_range_meters":32800,"station_id":"ce4bho92rcd13ifvqh3g","pricing_plan_id":"cebpf4jnsgd1na2vs0mg"},{"bike_id":"2039bb38-3c8f-482b-8530-ff52b4064a7a","system_id":"levelo_inurba_marseille","lat":43.28937,"lon":5.36633,"is_reserved":false,"is_disabled":false,"rental_uris":{"android":"levelo://app?vid=2039bb38-3c8f-482b-8530-ff52b4064a7a","ios":"levelo://app?vid=2039bb38-3c8f-482b-8530-ff52b4064a7a"},"vehicle_type_id":"4","last_reported":1730959950,"current_range_meters":11600,"station_id":"ce4bhap2rcd13ifvqek0","pricing_plan_id":"cebpf4jnsgd1na2vs0mg"},{"bike_id":"9d78bd0e-01c4-44cd-bc1a-db7ad2391a80","system_id":"levelo_inurba_marseille","lat":43.29878,"lon":5.39746,"is_reserved":false,"is_disabled":false,"rental_uris":{"android":"levelo://app?vid=9d78bd0e-01c4-44cd-bc1a-db7ad2391a80","ios":"levelo://app?vid=9d78bd0e-01c4-44cd-bc1a-db7ad2391a80"},"vehicle_type_id":"4","last_reported":1730959950,"current_range_meters":24400,"station_id":"ce4bh0h2rcd13ifvqd50","pricing_plan_id":"cebpf4jnsgd1na2vs0mg"},{"bike_id":"701523d9-1b3c-4253-b84d-c5e48c0380fd","system_id":"levelo_inurba_marseille","lat":43.29882,"lon":5.39741,"is_reserved":false,"is_disabled":false,"rental_uris":{"android":"levelo://app?vid=701523d9-1b3c-4253-b84d-c5e48c0380fd","ios":"levelo://app?vid=701523d9-1b3c-4253-b84d-c5e48c0380fd"},"vehicle_type_id":"4","last_reported":1730959950,"current_range_meters":39200,"station_id":"ce4bh0h2rcd13ifvqd50","pricing_plan_id":"cebpf4jnsgd1na2vs0mg"},{"bike_id":"4b8f51c7-3386-420b-a363-4efce99317bc","system_id":"levelo_inurba_marseille","lat":43.3153,"lon":5.38025,"is_reserved":false,"is_disabled":false,"rental_uris":{"android":"levelo://app?vid=4b8f51c7-3386-420b-a363-4efce99317bc","ios":"levelo://app?vid=4b8f51c7-3386-420b-a363-4efce99317bc"},"vehicle_type_id":"4","last_reported":1730959950,"current_range_meters":25200,"station_id":"ce4bhsp2rcd13ifvqi50","pricing_plan_id":"cebpf4jnsgd1na2vs0mg"},{"bike_id":"05419841-ceea-414e-89a7-5606d46b36b6","system_id":"levelo_inurba_marseille","lat":43.25721,"lon":5.41117,"is_reserved":false,"is_disabled":false,"rental_uris":{"android":"levelo://app?vid=05419841-ceea-414e-89a7-5606d46b36b6","ios":"levelo://app?vid=05419841-ceea-414e-89a7-5606d46b36b6"},"vehicle_type_id":"4","last_reported":1730959950,"current_range_meters":31200,"station_id":"ce4bhkp2rcd13ifvqgd0","pricing_plan_id":"cebpf4jnsgd1na2vs0mg"},{"bike_id":"c37d9904-8a9a-4807-af69-c429905bd0ba","system_id":"levelo_inurba_marseille","lat":43.28108,"lon":5.37845,"is_reserved":false,"is_disabled":false,"rental_uris":{"android":"levelo://app?vid=c37d9904-8a9a-4807-af69-c429905bd0ba","ios":"levelo://app?vid=c37d9904-8a9a-4807-af69-c429905bd0ba"},"vehicle_type_id":"4","last_reported":1730959950,"current_range_meters":34800,"station_id":"ce4bha12rcd13ifvqee0","pricing_plan_id":"cebpf4jnsgd1na2vs0mg"},{"bike_id":"079a9457-9ae3-4bcc-b08f-5881de10505c","system_id":"levelo_inurba_marseille","lat":43.29876,"lon":5.397316,"is_reserved":false,"is_disabled":false,"rental_uris":{"android":"levelo://app?vid=079a9457-9ae3-4bcc-b08f-5881de10505c","ios":"levelo://app?vid=079a9457-9ae3-4bcc-b08f-5881de10505c"},"vehicle_type_id":"4","last_reported":1730959950,"current_range_meters":29600,"station_id":"ce4bh0h2rcd13ifvqd50","pricing_plan_id":"cebpf4jnsgd1na2vs0mg"},{"bike_id":"9ec0d2b8-7b49-46a9-9aec-730dd6534056","system_id":"levelo_inurba_marseille","lat":43.24803,"lon":5.37451,"is_reserved":false,"is_disabled":false,"rental_uris":{"android":"levelo://app?vid=9ec0d2b8-7b49-46a9-9aec-730dd6534056","ios":"levelo://app?vid=9ec0d2b8-7b49-46a9-9aec-730dd6534056"},"vehicle_type_id":"4","last_reported":1730959950,"current_range_meters":36400,"station_id":"ce4bhgh2rcd13ifvqfb0","pricing_plan_id":"cebpf4jnsgd1na2vs0mg"},{"bike_id":"7a6a242f-0a0d-488e-8aaf-ee82d34f2990","system_id":"levelo_inurba_marseille","lat":43.27665,"lon":5.38891,"is_reserved":false,"is_disabled":false,"rental_uris":{"android":"levelo://app?vid=7a6a242f-0a0d-488e-8aaf-ee82d34f2990","ios":"levelo://app?vid=7a6a242f-0a0d-488e-8aaf-ee82d34f2990"},"vehicle_type_id":"4","last_reported":1730959950,"current_range_meters":37600,"station_id":"ce4bhi12rcd13ifvqfo0","pricing_plan_id":"cebpf4jnsgd1na2vs0mg"},{"bike_id":"46ff488b-1526-48eb-91aa-363949a640c7","system_id":"levelo_inurba_marseille","lat":43.28444,"lon":5.39184,"is_reserved":false,"is_disabled":false,"rental_uris":{"android":"levelo://app?vid=46ff488b-1526-48eb-91aa-363949a640c7","ios":"levelo://app?vid=46ff488b-1526-48eb-91aa-363949a640c7"},"vehicle_type_id":"4","last_reported":1730959950,"current_range_meters":18000,"station_id":"ce4bhoh2rcd13ifvqh5g","pricing_plan_id":"cebpf4jnsgd1na2vs0mg"},{"bike_id":"492ddbaa-120d-4fd5-83ae-8f34d9afd278","system_id":"levelo_inurba_marseille","lat":43.27185,"lon":5.40989,"is_reserved":false,"is_disabled":false,"rental_uris":{"android":"levelo://app?vid=492ddbaa-120d-4fd5-83ae-8f34d9afd278","ios":"levelo://app?vid=492ddbaa-120d-4fd5-83ae-8f34d9afd278"},"vehicle_type_id":"4","last_reported":1730959950,"current_range_meters":38000,"station_id":"ce4bhl12rcd13ifvqgf0","pricing_plan_id":"cebpf4jnsgd1na2vs0mg"},{"bike_id":"4df27c33-5d2b-4c1c-a7b3-9c8543269d96","system_id":"levelo_inurba_marseille","lat":43.30464,"lon":5.3791,"is_reserved":false,"is_disabled":false,"rental_uris":{"android":"levelo://app?vid=4df27c33-5d2b-4c1c-a7b3-9c8543269d96","ios":"levelo://app?vid=4df27c33-5d2b-4c1c-a7b3-9c8543269d96"},"vehicle_type_id":"4","last_reported":1730959950,"current_range_meters":30800,"station_id":"ce4bgup2rcd13ifvqcn0","pricing_plan_id":"cebpf4jnsgd1na2vs0mg"},{"bike_id":"b3a780aa-eced-42c7-aa0f-ab93e922353e","system_id":"levelo_inurba_marseille","lat":43.25582,"lon":5.38233,"is_reserved":false,"is_disabled":false,"rental_uris":{"android":"levelo://app?vid=b3a780aa-eced-42c7-aa0f-ab93e922353e","ios":"levelo://app?vid=b3a780aa-eced-42c7-aa0f-ab93e922353e"},"vehicle_type_id":"4","last_reported":1730959950,"current_range_meters":22400,"station_id":"ce4bhih2rcd13ifvqfs0","pricing_plan_id":"cebpf4jnsgd1na2vs0mg"},{"bike_id":"2e62fcec-946d-4a6d-a285-e8f59d009382","system_id":"levelo_inurba_marseille","lat":43.29023,"lon":5.38132,"is_reserved":false,"is_disabled":false,"rental_uris":{"android":"levelo://app?vid=2e62fcec-946d-4a6d-a285-e8f59d009382","ios":"levelo://app?vid=2e62fcec-946d-4a6d-a285-e8f59d009382"},"vehicle_type_id":"4","last_reported":1730959950,"current_range_meters":10800,"station_id":"ce4bh4p2rcd13ifvqe1g","pricing_plan_id":"cebpf4jnsgd1na2vs0mg"},{"bike_id":"8a401a8a-30f9-4643-ad63-74116d1b600f","system_id":"levelo_inurba_marseille","lat":43.32482,"lon":5.36573,"is_reserved":false,"is_disabled":false,"rental_uris":{"android":"levelo://app?vid=8a401a8a-30f9-4643-ad63-74116d1b600f","ios":"levelo://app?vid=8a401a8a-30f9-4643-ad63-74116d1b600f"},"vehicle_type_id":"4","last_reported":1730959950,"current_range_meters":37600,"station_id":"ce4bhs12rcd13ifvqhvg","pricing_plan_id":"cebpf4jnsgd1na2vs0mg"},{"bike_id":"171db454-9231-4690-bd0b-fa5dcfdd830b","system_id":"levelo_inurba_marseille","lat":43.31761,"lon":5.39026,"is_reserved":false,"is_disabled":false,"rental_uris":{"android":"levelo://app?vid=171db454-9231-4690-bd0b-fa5dcfdd830b","ios":"levelo://app?vid=171db454-9231-4690-bd0b-fa5dcfdd830b"},"vehicle_type_id":"4","last_reported":1730959950,"current_range_meters":35200,"station_id":"ce4bhqp2rcd13ifvqhng","pricing_plan_id":"cebpf4jnsgd1na2vs0mg"},{"bike_id":"8b35c676-cfc5-4c65-9ed8-904afb124fcd","system_id":"levelo_inurba_marseille","lat":43.31751,"lon":5.39019,"is_reserved":false,"is_disabled":false,"rental_uris":{"android":"levelo://app?vid=8b35c676-cfc5-4c65-9ed8-904afb124fcd","ios":"levelo://app?vid=8b35c676-cfc5-4c65-9ed8-904afb124fcd"},"vehicle_type_id":"4","last_reported":1730959950,"current_range_meters":38800,"station_id":"ce4bhqp2rcd13ifvqhng","pricing_plan_id":"cebpf4jnsgd1na2vs0mg"},{"bike_id":"37a37d6f-ba33-4ebe-b882-03706725d0ba","system_id":"levelo_inurba_marseille","lat":43.29196,"lon":5.35816,"is_reserved":false,"is_disabled":false,"rental_uris":{"android":"levelo://app?vid=37a37d6f-ba33-4ebe-b882-03706725d0ba","ios":"levelo://app?vid=37a37d6f-ba33-4ebe-b882-03706725d0ba"},"vehicle_type_id":"4","last_reported":1730959950,"current_range_meters":36800,"station_id":"ce4bhb12rcd13ifvqel0","pricing_plan_id":"cebpf4jnsgd1na2vs0mg"},{"bike_id":"eaf74a67-c04d-4f4a-8ddf-7731a6f05c3a","system_id":"levelo_inurba_marseille","lat":43.31337,"lon":5.39696,"is_reserved":false,"is_disabled":false,"rental_uris":{"android":"levelo://app?vid=eaf74a67-c04d-4f4a-8ddf-7731a6f05c3a","ios":"levelo://app?vid=eaf74a67-c04d-4f4a-8ddf-7731a6f05c3a"},"vehicle_type_id":"4","last_reported":1730959950,"current_range_meters":30000,"station_id":"ce4bgvp2rcd13ifvqcu0","pricing_plan_id":"cebpf4jnsgd1na2vs0mg"},{"bike_id":"b7134e83-5a93-46f0-9e58-5c7421ed0cda","system_id":"levelo_inurba_marseille","lat":43.2319,"lon":5.39991,"is_reserved":false,"is_disabled":false,"rental_uris":{"android":"levelo://app?vid=b7134e83-5a93-46f0-9e58-5c7421ed0cda","ios":"levelo://app?vid=b7134e83-5a93-46f0-9e58-5c7421ed0cda"},"vehicle_type_id":"4","last_reported":1730959950,"current_range_meters":7200,"station_id":"ce4bhn12rcd13ifvqgqg","pricing_plan_id":"cebpf4jnsgd1na2vs0mg"},{"bike_id":"56becf86-9a1d-48db-a78d-99be3efcd096","system_id":"levelo_inurba_marseille","lat":43.29632,"lon":5.40598,"is_reserved":false,"is_disabled":false,"rental_uris":{"android":"levelo://app?vid=56becf86-9a1d-48db-a78d-99be3efcd096","ios":"levelo://app?vid=56becf86-9a1d-48db-a78d-99be3efcd096"},"vehicle_type_id":"4","last_reported":1730959950,"current_range_meters":17200,"station_id":"ce4bh0h2rcd13ifvqd60","pricing_plan_id":"cebpf4jnsgd1na2vs0mg"},{"bike_id":"872d59cd-dd29-4d8e-a06e-ec7edb147612","system_id":"levelo_inurba_marseille","lat":43.25498,"lon":5.37644,"is_reserved":false,"is_disabled":false,"rental_uris":{"android":"levelo://app?vid=872d59cd-dd29-4d8e-a06e-ec7edb147612","ios":"levelo://app?vid=872d59cd-dd29-4d8e-a06e-ec7edb147612"},"vehicle_type_id":"4","last_reported":1730959950,"current_range_meters":38800,"station_id":"ce4bhh12rcd13ifvqff0","pricing_plan_id":"cebpf4jnsgd1na2vs0mg"},{"bike_id":"d5e91622-e3dd-4f31-acce-52cf3f312cf4","system_id":"levelo_inurba_marseille","lat":43.2439,"lon":5.37061,"is_reserved":false,"is_disabled":false,"rental_uris":{"android":"levelo://app?vid=d5e91622-e3dd-4f31-acce-52cf3f312cf4","ios":"levelo://app?vid=d5e91622-e3dd-4f31-acce-52cf3f312cf4"},"vehicle_type_id":"4","last_reported":1730959950,"current_range_meters":7200,"station_id":"ce4bhhh2rcd13ifvqfk0","pricing_plan_id":"cebpf4jnsgd1na2vs0mg"},{"bike_id":"692f31da-ed64-4e18-b7cc-350f01a2fb79","system_id":"levelo_inurba_marseille","lat":43.30195,"lon":5.43772,"is_reserved":false,"is_disabled":false,"rental_uris":{"android":"levelo://app?vid=692f31da-ed64-4e18-b7cc-350f01a2fb79","ios":"levelo://app?vid=692f31da-ed64-4e18-b7cc-350f01a2fb79"},"vehicle_type_id":"4","last_reported":1730959950,"current_range_meters":14400,"station_id":"","pricing_plan_id":"cebpf4jnsgd1na2vs0mg"},{"bike_id":"396a9a9c-144b-4091-bde1-a8caae5f9db9","system_id":"levelo_inurba_marseille","lat":43.28927,"lon":5.36405,"is_reserved":false,"is_disabled":false,"rental_uris":{"android":"levelo://app?vid=396a9a9c-144b-4091-bde1-a8caae5f9db9","ios":"levelo://app?vid=396a9a9c-144b-4091-bde1-a8caae5f9db9"},"vehicle_type_id":"4","last_reported":1730959950,"current_range_meters":24800,"station_id":"ce4bhc92rcd13ifvqetg","pricing_plan_id":"cebpf4jnsgd1na2vs0mg"},{"bike_id":"7efb74c7-507e-47aa-84c0-a01d770fb0df","system_id":"levelo_inurba_marseille","lat":43.2991,"lon":5.38139,"is_reserved":false,"is_disabled":false,"rental_uris":{"android":"levelo://app?vid=7efb74c7-507e-47aa-84c0-a01d770fb0df","ios":"levelo://app?vid=7efb74c7-507e-47aa-84c0-a01d770fb0df"},"vehicle_type_id":"4","last_reported":1730959950,"current_range_meters":33200,"station_id":"ce4bgj12rcd13ifvqbc0","pricing_plan_id":"cebpf4jnsgd1na2vs0mg"},{"bike_id":"5f70e16d-28d7-4630-92d8-90c2b506d253","system_id":"levelo_inurba_marseille","lat":43.28705,"lon":5.39984,"is_reserved":false,"is_disabled":false,"rental_uris":{"android":"levelo://app?vid=5f70e16d-28d7-4630-92d8-90c2b506d253","ios":"levelo://app?vid=5f70e16d-28d7-4630-92d8-90c2b506d253"},"vehicle_type_id":"4","last_reported":1730959950,"current_range_meters":30800,"station_id":"ce4bho92rcd13ifvqh3g","pricing_plan_id":"cebpf4jnsgd1na2vs0mg"},{"bike_id":"12a810ee-aa57-4f80-8de0-f61e4cbe122f","system_id":"levelo_inurba_marseille","lat":43.2827,"lon":5.350662,"is_reserved":false,"is_disabled":false,"rental_uris":{"android":"levelo://app?vid=12a810ee-aa57-4f80-8de0-f61e4cbe122f","ios":"levelo://app?vid=12a810ee-aa57-4f80-8de0-f61e4cbe122f"},"vehicle_type_id":"4","last_reported":1730959950,"current_range_meters":36800,"station_id":"ce4bhbp2rcd13ifvqerg","pricing_plan_id":"cebpf4jnsgd1na2vs0mg"},{"bike_id":"b4acb205-fefb-4ff0-a0f5-e0b7a0a1fe0d","system_id":"levelo_inurba_marseille","lat":43.279931,"lon":5.416566,"is_reserved":false,"is_disabled":false,"rental_uris":{"android":"levelo://app?vid=b4acb205-fefb-4ff0-a0f5-e0b7a0a1fe0d","ios":"levelo://app?vid=b4acb205-fefb-4ff0-a0f5-e0b7a0a1fe0d"},"vehicle_type_id":"4","last_reported":1730959950,"current_range_meters":31200,"station_id":"ce4bho12rcd13ifvqh1g","pricing_plan_id":"cebpf4jnsgd1na2vs0mg"},{"bike_id":"3a265529-f2df-4840-bbc7-a2d699d588fb","system_id":"levelo_inurba_marseille","lat":43.24394,"lon":5.37055,"is_reserved":false,"is_disabled":false,"rental_uris":{"android":"levelo://app?vid=3a265529-f2df-4840-bbc7-a2d699d588fb","ios":"levelo://app?vid=3a265529-f2df-4840-bbc7-a2d699d588fb"},"vehicle_type_id":"4","last_reported":1730959950,"current_range_meters":17600,"station_id":"ce4bhhh2rcd13ifvqfk0","pricing_plan_id":"cebpf4jnsgd1na2vs0mg"},{"bike_id":"7b6a98d6-1aae-4cd8-b1f6-ff158c0701be","system_id":"levelo_inurba_marseille","lat":43.280409,"lon":5.369517,"is_reserved":false,"is_disabled":false,"rental_uris":{"android":"levelo://app?vid=7b6a98d6-1aae-4cd8-b1f6-ff158c0701be","ios":"levelo://app?vid=7b6a98d6-1aae-4cd8-b1f6-ff158c0701be"},"vehicle_type_id":"4","last_reported":1730959950,"current_range_meters":38400,"station_id":"ce4bha12rcd13ifvqef0","pricing_plan_id":"cebpf4jnsgd1na2vs0mg"},{"bike_id":"dc17e306-8ad0-4f72-be8a-86e1adf7c59d","system_id":"levelo_inurba_marseille","lat":43.28666,"lon":5.36347,"is_reserved":false,"is_disabled":false,"rental_uris":{"android":"levelo://app?vid=dc17e306-8ad0-4f72-be8a-86e1adf7c59d","ios":"levelo://app?vid=dc17e306-8ad0-4f72-be8a-86e1adf7c59d"},"vehicle_type_id":"4","last_reported":1730959950,"current_range_meters":39200,"station_id":"ce4bhah2rcd13ifvqej0","pricing_plan_id":"cebpf4jnsgd1na2vs0mg"},{"bike_id":"933271ee-c87c-49ba-af4e-414a76ba1f14","system_id":"levelo_inurba_marseille","lat":43.29559,"lon":5.42292,"is_reserved":false,"is_disabled":false,"rental_uris":{"android":"levelo://app?vid=933271ee-c87c-49ba-af4e-414a76ba1f14","ios":"levelo://app?vid=933271ee-c87c-49ba-af4e-414a76ba1f14"},"vehicle_type_id":"4","last_reported":1730959950,"current_range_meters":9600,"station_id":"ce4bhph2rcd13ifvqhdg","pricing_plan_id":"cebpf4jnsgd1na2vs0mg"},{"bike_id":"6183f40e-33a0-4db8-b355-9e393636f6a9","system_id":"levelo_inurba_marseille","lat":43.291626,"lon":5.371804,"is_reserved":false,"is_disabled":false,"rental_uris":{"android":"levelo://app?vid=6183f40e-33a0-4db8-b355-9e393636f6a9","ios":"levelo://app?vid=6183f40e-33a0-4db8-b355-9e393636f6a9"},"vehicle_type_id":"4","last_reported":1730959950,"current_range_meters":24800,"station_id":"ce4bha92rcd13ifvqeh0","pricing_plan_id":"cebpf4jnsgd1na2vs0mg"},{"bike_id":"f53b8015-109e-4528-b185-5714bff195ad","system_id":"levelo_inurba_marseille","lat":43.26493,"lon":5.39539,"is_reserved":false,"is_disabled":false,"rental_uris":{"android":"levelo://app?vid=f53b8015-109e-4528-b185-5714bff195ad","ios":"levelo://app?vid=f53b8015-109e-4528-b185-5714bff195ad"},"vehicle_type_id":"4","last_reported":1730959950,"current_range_meters":37600,"station_id":"ce4bhi12rcd13ifvqfq0","pricing_plan_id":"cebpf4jnsgd1na2vs0mg"},{"bike_id":"78ea8e6b-fcbc-4ca9-b233-6e6fd40ab14f","system_id":"levelo_inurba_marseille","lat":43.28032,"lon":5.36949,"is_reserved":false,"is_disabled":false,"rental_uris":{"android":"levelo://app?vid=78ea8e6b-fcbc-4ca9-b233-6e6fd40ab14f","ios":"levelo://app?vid=78ea8e6b-fcbc-4ca9-b233-6e6fd40ab14f"},"vehicle_type_id":"4","last_reported":1730959950,"current_range_meters":39200,"station_id":"ce4bha12rcd13ifvqef0","pricing_plan_id":"cebpf4jnsgd1na2vs0mg"},{"bike_id":"66cadc2f-87dc-4b78-bb91-c6d6eee1cfce","system_id":"levelo_inurba_marseille","lat":43.30137,"lon":5.3988,"is_reserved":false,"is_disabled":false,"rental_uris":{"android":"levelo://app?vid=66cadc2f-87dc-4b78-bb91-c6d6eee1cfce","ios":"levelo://app?vid=66cadc2f-87dc-4b78-bb91-c6d6eee1cfce"},"vehicle_type_id":"4","last_reported":1730959950,"current_range_meters":14400,"station_id":"ce4bh0h2rcd13ifvqd40","pricing_plan_id":"cebpf4jnsgd1na2vs0mg"},{"bike_id":"4586eee4-c5dc-4955-a2ed-387cfd203fdd","system_id":"levelo_inurba_marseille","lat":43.2667,"lon":5.40289,"is_reserved":false,"is_disabled":false,"rental_uris":{"android":"levelo://app?vid=4586eee4-c5dc-4955-a2ed-387cfd203fdd","ios":"levelo://app?vid=4586eee4-c5dc-4955-a2ed-387cfd203fdd"},"vehicle_type_id":"4","last_reported":1730959950,"current_range_meters":17200,"station_id":"","pricing_plan_id":"cebpf4jnsgd1na2vs0mg"},{"bike_id":"5891e32d-bdd2-4b40-a25c-9c61439b13c8","system_id":"levelo_inurba_marseille","lat":43.30645,"lon":5.40073,"is_reserved":false,"is_disabled":false,"rental_uris":{"android":"levelo://app?vid=5891e32d-bdd2-4b40-a25c-9c61439b13c8","ios":"levelo://app?vid=5891e32d-bdd2-4b40-a25c-9c61439b13c8"},"vehicle_type_id":"4","last_reported":1730959950,"current_range_meters":16400,"station_id":"ce4bh112rcd13ifvqda0","pricing_plan_id":"cebpf4jnsgd1na2vs0mg"},{"bike_id":"081053e3-ccb9-46ca-9453-43abcf34915a","system_id":"levelo_inurba_marseille","lat":43.24671,"lon":5.3816,"is_reserved":false,"is_disabled":false,"rental_uris":{"android":"levelo://app?vid=081053e3-ccb9-46ca-9453-43abcf34915a","ios":"levelo://app?vid=081053e3-ccb9-46ca-9453-43abcf34915a"},"vehicle_type_id":"4","last_reported":1730959950,"current_range_meters":29600,"station_id":"ce4bhih2rcd13ifvqfr0","pricing_plan_id":"cebpf4jnsgd1na2vs0mg"},{"bike_id":"c5e9ee0b-be1a-4769-9cc4-f173309cd349","system_id":"levelo_inurba_marseille","lat":43.32481,"lon":5.36572,"is_reserved":false,"is_disabled":false,"rental_uris":{"android":"levelo://app?vid=c5e9ee0b-be1a-4769-9cc4-f173309cd349","ios":"levelo://app?vid=c5e9ee0b-be1a-4769-9cc4-f173309cd349"},"vehicle_type_id":"4","last_reported":1730959950,"current_range_meters":32800,"station_id":"ce4bhs12rcd13ifvqhvg","pricing_plan_id":"cebpf4jnsgd1na2vs0mg"},{"bike_id":"94cca890-79d8-473d-aa3d-66aeecf75673","system_id":"levelo_inurba_marseille","lat":43.23192,"lon":5.39989,"is_reserved":false,"is_disabled":false,"rental_uris":{"android":"levelo://app?vid=94cca890-79d8-473d-aa3d-66aeecf75673","ios":"levelo://app?vid=94cca890-79d8-473d-aa3d-66aeecf75673"},"vehicle_type_id":"4","last_reported":1730959950,"current_range_meters":26800,"station_id":"ce4bhn12rcd13ifvqgqg","pricing_plan_id":"cebpf4jnsgd1na2vs0mg"},{"bike_id":"e3c5b5f1-bc30-4cf3-980a-9322e4e93ac7","system_id":"levelo_inurba_marseille","lat":43.27217,"lon":5.39179,"is_reserved":false,"is_disabled":false,"rental_uris":{"android":"levelo://app?vid=e3c5b5f1-bc30-4cf3-980a-9322e4e93ac7","ios":"levelo://app?vid=e3c5b5f1-bc30-4cf3-980a-9322e4e93ac7"},"vehicle_type_id":"4","last_reported":1730959950,"current_range_meters":28000,"station_id":"ce4bhhp2rcd13ifvqfm0","pricing_plan_id":"cebpf4jnsgd1na2vs0mg"},{"bike_id":"8e0c185f-0e3b-4c3e-84c3-711b79a97013","system_id":"levelo_inurba_marseille","lat":43.31171,"lon":5.38714,"is_reserved":false,"is_disabled":false,"rental_uris":{"android":"levelo://app?vid=8e0c185f-0e3b-4c3e-84c3-711b79a97013","ios":"levelo://app?vid=8e0c185f-0e3b-4c3e-84c3-711b79a97013"},"vehicle_type_id":"4","last_reported":1730959950,"current_range_meters":24800,"station_id":"ce4bgv12rcd13ifvqcp0","pricing_plan_id":"cebpf4jnsgd1na2vs0mg"},{"bike_id":"836697de-ac3b-4edb-8d4d-c21d55bd1edf","system_id":"levelo_inurba_marseille","lat":43.2455,"lon":5.39527,"is_reserved":false,"is_disabled":false,"rental_uris":{"android":"levelo://app?vid=836697de-ac3b-4edb-8d4d-c21d55bd1edf","ios":"levelo://app?vid=836697de-ac3b-4edb-8d4d-c21d55bd1edf"},"vehicle_type_id":"4","last_reported":1730959950,"current_range_meters":18800,"station_id":"ce4bhlp2rcd13ifvqgjg","pricing_plan_id":"cebpf4jnsgd1na2vs0mg"},{"bike_id":"360e1dc9-8393-4609-b278-67df3c794242","system_id":"levelo_inurba_marseille","lat":43.29032,"lon":5.39963,"is_reserved":false,"is_disabled":false,"rental_uris":{"android":"levelo://app?vid=360e1dc9-8393-4609-b278-67df3c794242","ios":"levelo://app?vid=360e1dc9-8393-4609-b278-67df3c794242"},"vehicle_type_id":"4","last_reported":1730959950,"current_range_meters":38000,"station_id":"ce4bh392rcd13ifvqdm0","pricing_plan_id":"cebpf4jnsgd1na2vs0mg"},{"bike_id":"66f19576-170e-4bdc-8ddf-aa1c58792fe4","system_id":"levelo_inurba_marseille","lat":43.30643,"lon":5.40074,"is_reserved":false,"is_disabled":false,"rental_uris":{"android":"levelo://app?vid=66f19576-170e-4bdc-8ddf-aa1c58792fe4","ios":"levelo://app?vid=66f19576-170e-4bdc-8ddf-aa1c58792fe4"},"vehicle_type_id":"4","last_reported":1730959950,"current_range_meters":38000,"station_id":"ce4bh112rcd13ifvqda0","pricing_plan_id":"cebpf4jnsgd1na2vs0mg"},{"bike_id":"981e35e7-7a8c-46e2-824d-1f28d39b001f","system_id":"levelo_inurba_marseille","lat":43.31284,"lon":5.40168,"is_reserved":false,"is_disabled":false,"rental_uris":{"android":"levelo://app?vid=981e35e7-7a8c-46e2-824d-1f28d39b001f","ios":"levelo://app?vid=981e35e7-7a8c-46e2-824d-1f28d39b001f"},"vehicle_type_id":"4","last_reported":1730959950,"current_range_meters":16400,"station_id":"ce4bh092rcd13ifvqd30","pricing_plan_id":"cebpf4jnsgd1na2vs0mg"},{"bike_id":"f213d2df-9c93-4348-930e-c905d6e760da","system_id":"levelo_inurba_marseille","lat":43.31493,"lon":5.373,"is_reserved":false,"is_disabled":false,"rental_uris":{"android":"levelo://app?vid=f213d2df-9c93-4348-930e-c905d6e760da","ios":"levelo://app?vid=f213d2df-9c93-4348-930e-c905d6e760da"},"vehicle_type_id":"4","last_reported":1730959950,"current_range_meters":37600,"station_id":"ce4bgt12rcd13ifvqcd0","pricing_plan_id":"cebpf4jnsgd1na2vs0mg"},{"bike_id":"42163e3e-5009-401f-a1ce-f09eb7e2a510","system_id":"levelo_inurba_marseille","lat":43.31323,"lon":5.39698,"is_reserved":false,"is_disabled":false,"rental_uris":{"android":"levelo://app?vid=42163e3e-5009-401f-a1ce-f09eb7e2a510","ios":"levelo://app?vid=42163e3e-5009-401f-a1ce-f09eb7e2a510"},"vehicle_type_id":"4","last_reported":1730959950,"current_range_meters":38800,"station_id":"ce4bgvp2rcd13ifvqcu0","pricing_plan_id":"cebpf4jnsgd1na2vs0mg"},{"bike_id":"4102c5da-b3bb-4e3b-b23f-eef2c213d450","system_id":"levelo_inurba_marseille","lat":43.23194,"lon":5.39983,"is_reserved":false,"is_disabled":false,"rental_uris":{"android":"levelo://app?vid=4102c5da-b3bb-4e3b-b23f-eef2c213d450","ios":"levelo://app?vid=4102c5da-b3bb-4e3b-b23f-eef2c213d450"},"vehicle_type_id":"4","last_reported":1730959950,"current_range_meters":37600,"station_id":"ce4bhn12rcd13ifvqgqg","pricing_plan_id":"cebpf4jnsgd1na2vs0mg"},{"bike_id":"9d3a9001-73d4-4d99-a28c-168d17697469","system_id":"levelo_inurba_marseille","lat":43.31696,"lon":5.40474,"is_reserved":false,"is_disabled":false,"rental_uris":{"android":"levelo://app?vid=9d3a9001-73d4-4d99-a28c-168d17697469","ios":"levelo://app?vid=9d3a9001-73d4-4d99-a28c-168d17697469"},"vehicle_type_id":"4","last_reported":1730959950,"current_range_meters":37600,"station_id":"ce4bh012rcd13ifvqd00","pricing_plan_id":"cebpf4jnsgd1na2vs0mg"},{"bike_id":"a0db1695-32d8-4d9c-9829-ab1da773a69e","system_id":"levelo_inurba_marseille","lat":43.301432,"lon":5.398736,"is_reserved":false,"is_disabled":false,"rental_uris":{"android":"levelo://app?vid=a0db1695-32d8-4d9c-9829-ab1da773a69e","ios":"levelo://app?vid=a0db1695-32d8-4d9c-9829-ab1da773a69e"},"vehicle_type_id":"4","last_reported":1730959950,"current_range_meters":34800,"station_id":"ce4bh0h2rcd13ifvqd40","pricing_plan_id":"cebpf4jnsgd1na2vs0mg"},{"bike_id":"c11c2ccd-1a6b-426e-a6be-d7b8db656223","system_id":"levelo_inurba_marseille","lat":43.30886,"lon":5.39644,"is_reserved":false,"is_disabled":false,"rental_uris":{"android":"levelo://app?vid=c11c2ccd-1a6b-426e-a6be-d7b8db656223","ios":"levelo://app?vid=c11c2ccd-1a6b-426e-a6be-d7b8db656223"},"vehicle_type_id":"4","last_reported":1730959950,"current_range_meters":10800,"station_id":"ce4bh012rcd13ifvqcv0","pricing_plan_id":"cebpf4jnsgd1na2vs0mg"},{"bike_id":"98e4f743-fc71-4c1a-966c-70daa7951023","system_id":"levelo_inurba_marseille","lat":43.29631,"lon":5.40595,"is_reserved":false,"is_disabled":false,"rental_uris":{"android":"levelo://app?vid=98e4f743-fc71-4c1a-966c-70daa7951023","ios":"levelo://app?vid=98e4f743-fc71-4c1a-966c-70daa7951023"},"vehicle_type_id":"4","last_reported":1730959950,"current_range_meters":37600,"station_id":"ce4bh0h2rcd13ifvqd60","pricing_plan_id":"cebpf4jnsgd1na2vs0mg"},{"bike_id":"1222545d-f607-4658-a0af-f3ecb0fb9e37","system_id":"levelo_inurba_marseille","lat":43.25087,"lon":5.39523,"is_reserved":false,"is_disabled":false,"rental_uris":{"android":"levelo://app?vid=1222545d-f607-4658-a0af-f3ecb0fb9e37","ios":"levelo://app?vid=1222545d-f607-4658-a0af-f3ecb0fb9e37"},"vehicle_type_id":"4","last_reported":1730959950,"current_range_meters":38800,"station_id":"ce4bhm12rcd13ifvqgkg","pricing_plan_id":"cebpf4jnsgd1na2vs0mg"},{"bike_id":"916c1227-a089-47f0-b184-7006a96e3a45","system_id":"levelo_inurba_marseille","lat":43.28934,"lon":5.36378,"is_reserved":false,"is_disabled":false,"rental_uris":{"android":"levelo://app?vid=916c1227-a089-47f0-b184-7006a96e3a45","ios":"levelo://app?vid=916c1227-a089-47f0-b184-7006a96e3a45"},"vehicle_type_id":"4","last_reported":1730959950,"current_range_meters":16400,"station_id":"ce4bhc92rcd13ifvqetg","pricing_plan_id":"cebpf4jnsgd1na2vs0mg"},{"bike_id":"3d7bd1e7-1854-4955-aade-bd7db8f32ccb","system_id":"levelo_inurba_marseille","lat":43.292175,"lon":5.380311,"is_reserved":false,"is_disabled":false,"rental_uris":{"android":"levelo://app?vid=3d7bd1e7-1854-4955-aade-bd7db8f32ccb","ios":"levelo://app?vid=3d7bd1e7-1854-4955-aade-bd7db8f32ccb"},"vehicle_type_id":"4","last_reported":1730959950,"current_range_meters":38000,"station_id":"ce4bhg92rcd13ifvqf90","pricing_plan_id":"cebpf4jnsgd1na2vs0mg"},{"bike_id":"17b2635b-cb35-405f-89f8-3b87581f3773","system_id":"levelo_inurba_marseille","lat":43.29896,"lon":5.43663,"is_reserved":false,"is_disabled":false,"rental_uris":{"android":"levelo://app?vid=17b2635b-cb35-405f-89f8-3b87581f3773","ios":"levelo://app?vid=17b2635b-cb35-405f-89f8-3b87581f3773"},"vehicle_type_id":"4","last_reported":1730959950,"current_range_meters":12800,"station_id":"ce4bhpp2rcd13ifvqhfg","pricing_plan_id":"cebpf4jnsgd1na2vs0mg"},{"bike_id":"6648ef17-3082-4729-9252-7b0bafb502be","system_id":"levelo_inurba_marseille","lat":43.23196,"lon":5.35564,"is_reserved":false,"is_disabled":false,"rental_uris":{"android":"levelo://app?vid=6648ef17-3082-4729-9252-7b0bafb502be","ios":"levelo://app?vid=6648ef17-3082-4729-9252-7b0bafb502be"},"vehicle_type_id":"4","last_reported":1730959950,"current_range_meters":39200,"station_id":"ce4bhu92rcd13ifvqi70","pricing_plan_id":"cebpf4jnsgd1na2vs0mg"},{"bike_id":"6a9c52e2-bcaa-4489-8e90-0318f99981ba","system_id":"levelo_inurba_marseille","lat":43.32342,"lon":5.40615,"is_reserved":false,"is_disabled":false,"rental_uris":{"android":"levelo://app?vid=6a9c52e2-bcaa-4489-8e90-0318f99981ba","ios":"levelo://app?vid=6a9c52e2-bcaa-4489-8e90-0318f99981ba"},"vehicle_type_id":"4","last_reported":1730959950,"current_range_meters":37600,"station_id":"ce4bhq92rcd13ifvqhjg","pricing_plan_id":"cebpf4jnsgd1na2vs0mg"},{"bike_id":"19645b45-8dc5-44dd-9eea-afb63875c101","system_id":"levelo_inurba_marseille","lat":43.31704,"lon":5.3775,"is_reserved":false,"is_disabled":false,"rental_uris":{"android":"levelo://app?vid=19645b45-8dc5-44dd-9eea-afb63875c101","ios":"levelo://app?vid=19645b45-8dc5-44dd-9eea-afb63875c101"},"vehicle_type_id":"4","last_reported":1730959950,"current_range_meters":11200,"station_id":"ce4bgth2rcd13ifvqch0","pricing_plan_id":"cebpf4jnsgd1na2vs0mg"},{"bike_id":"545ff0d5-f202-4d1f-80fa-b27cc0ff59cd","system_id":"levelo_inurba_marseille","lat":43.30431,"lon":5.39753,"is_reserved":false,"is_disabled":false,"rental_uris":{"android":"levelo://app?vid=545ff0d5-f202-4d1f-80fa-b27cc0ff59cd","ios":"levelo://app?vid=545ff0d5-f202-4d1f-80fa-b27cc0ff59cd"},"vehicle_type_id":"4","last_reported":1730959950,"current_range_meters":18000,"station_id":"ce4bh092rcd13ifvqd20","pricing_plan_id":"cebpf4jnsgd1na2vs0mg"},{"bike_id":"26b1df08-1bc0-4ba0-930e-e3b593d2225a","system_id":"levelo_inurba_marseille","lat":43.31113,"lon":5.37775,"is_reserved":false,"is_disabled":false,"rental_uris":{"android":"levelo://app?vid=26b1df08-1bc0-4ba0-930e-e3b593d2225a","ios":"levelo://app?vid=26b1df08-1bc0-4ba0-930e-e3b593d2225a"},"vehicle_type_id":"4","last_reported":1730959950,"current_range_meters":9200,"station_id":"ce4bgt92rcd13ifvqcg0","pricing_plan_id":"cebpf4jnsgd1na2vs0mg"},{"bike_id":"b0516b90-2d31-4323-8824-477a11b1f9c5","system_id":"levelo_inurba_marseille","lat":43.24808,"lon":5.37457,"is_reserved":false,"is_disabled":false,"rental_uris":{"android":"levelo://app?vid=b0516b90-2d31-4323-8824-477a11b1f9c5","ios":"levelo://app?vid=b0516b90-2d31-4323-8824-477a11b1f9c5"},"vehicle_type_id":"4","last_reported":1730959950,"current_range_meters":16400,"station_id":"ce4bhgh2rcd13ifvqfb0","pricing_plan_id":"cebpf4jnsgd1na2vs0mg"},{"bike_id":"5ced0120-1736-44d5-b40f-74a64dbb5597","system_id":"levelo_inurba_marseille","lat":43.31177,"lon":5.38714,"is_reserved":false,"is_disabled":false,"rental_uris":{"android":"levelo://app?vid=5ced0120-1736-44d5-b40f-74a64dbb5597","ios":"levelo://app?vid=5ced0120-1736-44d5-b40f-74a64dbb5597"},"vehicle_type_id":"4","last_reported":1730959950,"current_range_meters":29600,"station_id":"ce4bgv12rcd13ifvqcp0","pricing_plan_id":"cebpf4jnsgd1na2vs0mg"},{"bike_id":"deaf0c78-2653-47a3-a84b-1a36720bb08e","system_id":"levelo_inurba_marseille","lat":43.28613,"lon":5.37064,"is_reserved":false,"is_disabled":false,"rental_uris":{"android":"levelo://app?vid=deaf0c78-2653-47a3-a84b-1a36720bb08e","ios":"levelo://app?vid=deaf0c78-2653-47a3-a84b-1a36720bb08e"},"vehicle_type_id":"4","last_reported":1730959950,"current_range_meters":35200,"station_id":"ce4bht12rcd13ifvqi60","pricing_plan_id":"cebpf4jnsgd1na2vs0mg"},{"bike_id":"16f08dd0-76a9-4c3b-93a0-516b3a1b7232","system_id":"levelo_inurba_marseille","lat":43.311193,"lon":5.377735,"is_reserved":false,"is_disabled":false,"rental_uris":{"android":"levelo://app?vid=16f08dd0-76a9-4c3b-93a0-516b3a1b7232","ios":"levelo://app?vid=16f08dd0-76a9-4c3b-93a0-516b3a1b7232"},"vehicle_type_id":"4","last_reported":1730959950,"current_range_meters":38000,"station_id":"ce4bgt92rcd13ifvqcg0","pricing_plan_id":"cebpf4jnsgd1na2vs0mg"},{"bike_id":"c5b7820d-78fe-4750-89b8-a0efef8e5b8b","system_id":"levelo_inurba_marseille","lat":43.24659,"lon":5.38169,"is_reserved":false,"is_disabled":false,"rental_uris":{"android":"levelo://app?vid=c5b7820d-78fe-4750-89b8-a0efef8e5b8b","ios":"levelo://app?vid=c5b7820d-78fe-4750-89b8-a0efef8e5b8b"},"vehicle_type_id":"4","last_reported":1730959950,"current_range_meters":24400,"station_id":"ce4bhih2rcd13ifvqfr0","pricing_plan_id":"cebpf4jnsgd1na2vs0mg"},{"bike_id":"44fcf395-545c-4374-bb35-4ab3d378aa17","system_id":"levelo_inurba_marseille","lat":43.31076,"lon":5.38364,"is_reserved":false,"is_disabled":false,"rental_uris":{"android":"levelo://app?vid=44fcf395-545c-4374-bb35-4ab3d378aa17","ios":"levelo://app?vid=44fcf395-545c-4374-bb35-4ab3d378aa17"},"vehicle_type_id":"4","last_reported":1730959950,"current_range_meters":37600,"station_id":"ce4bgv92rcd13ifvqcr0","pricing_plan_id":"cebpf4jnsgd1na2vs0mg"},{"bike_id":"2e6d0777-b007-40a0-b939-30f46a5b6275","system_id":"levelo_inurba_marseille","lat":43.30924,"lon":5.368581,"is_reserved":false,"is_disabled":false,"rental_uris":{"android":"levelo://app?vid=2e6d0777-b007-40a0-b939-30f46a5b6275","ios":"levelo://app?vid=2e6d0777-b007-40a0-b939-30f46a5b6275"},"vehicle_type_id":"4","last_reported":1730959950,"current_range_meters":24400,"station_id":"ce4bgl92rcd13ifvqbq0","pricing_plan_id":"cebpf4jnsgd1na2vs0mg"},{"bike_id":"b50df5fe-30bf-459c-8b0f-95a268b03bce","system_id":"levelo_inurba_marseille","lat":43.31697,"lon":5.4047,"is_reserved":false,"is_disabled":false,"rental_uris":{"android":"levelo://app?vid=b50df5fe-30bf-459c-8b0f-95a268b03bce","ios":"levelo://app?vid=b50df5fe-30bf-459c-8b0f-95a268b03bce"},"vehicle_type_id":"4","last_reported":1730959950,"current_range_meters":39200,"station_id":"ce4bh012rcd13ifvqd00","pricing_plan_id":"cebpf4jnsgd1na2vs0mg"},{"bike_id":"7d5377df-bebd-4431-9ac0-7cec87e1a859","system_id":"levelo_inurba_marseille","lat":43.32056,"lon":5.4155,"is_reserved":false,"is_disabled":false,"rental_uris":{"android":"levelo://app?vid=7d5377df-bebd-4431-9ac0-7cec87e1a859","ios":"levelo://app?vid=7d5377df-bebd-4431-9ac0-7cec87e1a859"},"vehicle_type_id":"4","last_reported":1730959950,"current_range_meters":16800,"station_id":"ce4bhq92rcd13ifvqhkg","pricing_plan_id":"cebpf4jnsgd1na2vs0mg"},{"bike_id":"528eba06-d6b6-4dce-90ab-a903ec23230f","system_id":"levelo_inurba_marseille","lat":43.29194,"lon":5.35819,"is_reserved":false,"is_disabled":false,"rental_uris":{"android":"levelo://app?vid=528eba06-d6b6-4dce-90ab-a903ec23230f","ios":"levelo://app?vid=528eba06-d6b6-4dce-90ab-a903ec23230f"},"vehicle_type_id":"4","last_reported":1730959950,"current_range_meters":39200,"station_id":"ce4bhb12rcd13ifvqel0","pricing_plan_id":"cebpf4jnsgd1na2vs0mg"},{"bike_id":"73bfab2f-2160-41b5-95ab-d2e0665d7584","system_id":"levelo_inurba_marseille","lat":43.3153,"lon":5.38038,"is_reserved":false,"is_disabled":false,"rental_uris":{"android":"levelo://app?vid=73bfab2f-2160-41b5-95ab-d2e0665d7584","ios":"levelo://app?vid=73bfab2f-2160-41b5-95ab-d2e0665d7584"},"vehicle_type_id":"4","last_reported":1730959950,"current_range_meters":38800,"station_id":"ce4bhsp2rcd13ifvqi50","pricing_plan_id":"cebpf4jnsgd1na2vs0mg"},{"bike_id":"e53e5f72-9550-4bdf-a04d-643a9d23eeb5","system_id":"levelo_inurba_marseille","lat":43.308816,"lon":5.396503,"is_reserved":false,"is_disabled":false,"rental_uris":{"android":"levelo://app?vid=e53e5f72-9550-4bdf-a04d-643a9d23eeb5","ios":"levelo://app?vid=e53e5f72-9550-4bdf-a04d-643a9d23eeb5"},"vehicle_type_id":"4","last_reported":1730959950,"current_range_meters":38800,"station_id":"ce4bh012rcd13ifvqcv0","pricing_plan_id":"cebpf4jnsgd1na2vs0mg"},{"bike_id":"1f605dcf-489a-46c5-8ec0-74217c529382","system_id":"levelo_inurba_marseille","lat":43.243909,"lon":5.370532,"is_reserved":false,"is_disabled":false,"rental_uris":{"android":"levelo://app?vid=1f605dcf-489a-46c5-8ec0-74217c529382","ios":"levelo://app?vid=1f605dcf-489a-46c5-8ec0-74217c529382"},"vehicle_type_id":"4","last_reported":1730959950,"current_range_meters":8800,"station_id":"ce4bhhh2rcd13ifvqfk0","pricing_plan_id":"cebpf4jnsgd1na2vs0mg"},{"bike_id":"ca82ab2a-5b61-49f3-b5bd-916d062122f2","system_id":"levelo_inurba_marseille","lat":43.25732,"lon":5.41111,"is_reserved":false,"is_disabled":false,"rental_uris":{"android":"levelo://app?vid=ca82ab2a-5b61-49f3-b5bd-916d062122f2","ios":"levelo://app?vid=ca82ab2a-5b61-49f3-b5bd-916d062122f2"},"vehicle_type_id":"4","last_reported":1730959950,"current_range_meters":38400,"station_id":"ce4bhkp2rcd13ifvqgd0","pricing_plan_id":"cebpf4jnsgd1na2vs0mg"},{"bike_id":"ee4e2628-0066-4f92-9883-aac3787b9751","system_id":"levelo_inurba_marseille","lat":43.30781,"lon":5.37655,"is_reserved":false,"is_disabled":false,"rental_uris":{"android":"levelo://app?vid=ee4e2628-0066-4f92-9883-aac3787b9751","ios":"levelo://app?vid=ee4e2628-0066-4f92-9883-aac3787b9751"},"vehicle_type_id":"4","last_reported":1730959950,"current_range_meters":39200,"station_id":"ce4bgv92rcd13ifvqcq0","pricing_plan_id":"cebpf4jnsgd1na2vs0mg"},{"bike_id":"9094defa-3c48-47d1-864e-b8ee2f1f0d2c","system_id":"levelo_inurba_marseille","lat":43.23195,"lon":5.35543,"is_reserved":false,"is_disabled":false,"rental_uris":{"android":"levelo://app?vid=9094defa-3c48-47d1-864e-b8ee2f1f0d2c","ios":"levelo://app?vid=9094defa-3c48-47d1-864e-b8ee2f1f0d2c"},"vehicle_type_id":"4","last_reported":1730959950,"current_range_meters":11600,"station_id":"ce4bhu92rcd13ifvqi70","pricing_plan_id":"cebpf4jnsgd1na2vs0mg"},{"bike_id":"138edf40-8b55-4b5b-8ebd-2a9cd72069a9","system_id":"levelo_inurba_marseille","lat":43.24671,"lon":5.38163,"is_reserved":false,"is_disabled":false,"rental_uris":{"android":"levelo://app?vid=138edf40-8b55-4b5b-8ebd-2a9cd72069a9","ios":"levelo://app?vid=138edf40-8b55-4b5b-8ebd-2a9cd72069a9"},"vehicle_type_id":"4","last_reported":1730959950,"current_range_meters":12400,"station_id":"ce4bhih2rcd13ifvqfr0","pricing_plan_id":"cebpf4jnsgd1na2vs0mg"},{"bike_id":"c1f11680-2672-40b6-8614-d00a9bc5e3c1","system_id":"levelo_inurba_marseille","lat":43.25855,"lon":5.39908,"is_reserved":false,"is_disabled":false,"rental_uris":{"android":"levelo://app?vid=c1f11680-2672-40b6-8614-d00a9bc5e3c1","ios":"levelo://app?vid=c1f11680-2672-40b6-8614-d00a9bc5e3c1"},"vehicle_type_id":"4","last_reported":1730959950,"current_range_meters":34800,"station_id":"ce4bhl92rcd13ifvqghg","pricing_plan_id":"cebpf4jnsgd1na2vs0mg"},{"bike_id":"2133dfbe-49e8-4189-a0e7-2637129ed1cc","system_id":"levelo_inurba_marseille","lat":43.30152,"lon":5.38083,"is_reserved":false,"is_disabled":false,"rental_uris":{"android":"levelo://app?vid=2133dfbe-49e8-4189-a0e7-2637129ed1cc","ios":"levelo://app?vid=2133dfbe-49e8-4189-a0e7-2637129ed1cc"},"vehicle_type_id":"4","last_reported":1730959950,"current_range_meters":15200,"station_id":"ce4bgjp2rcd13ifvqbh0","pricing_plan_id":"cebpf4jnsgd1na2vs0mg"},{"bike_id":"cde33d01-4fdf-4588-9993-50576e545d63","system_id":"levelo_inurba_marseille","lat":43.299,"lon":5.4367,"is_reserved":false,"is_disabled":false,"rental_uris":{"android":"levelo://app?vid=cde33d01-4fdf-4588-9993-50576e545d63","ios":"levelo://app?vid=cde33d01-4fdf-4588-9993-50576e545d63"},"vehicle_type_id":"4","last_reported":1730959950,"current_range_meters":35600,"station_id":"ce4bhpp2rcd13ifvqhfg","pricing_plan_id":"cebpf4jnsgd1na2vs0mg"},{"bike_id":"7b0fa45b-73b1-43d0-b318-c7b89f93ae59","system_id":"levelo_inurba_marseille","lat":43.31325,"lon":5.39697,"is_reserved":false,"is_disabled":false,"rental_uris":{"android":"levelo://app?vid=7b0fa45b-73b1-43d0-b318-c7b89f93ae59","ios":"levelo://app?vid=7b0fa45b-73b1-43d0-b318-c7b89f93ae59"},"vehicle_type_id":"4","last_reported":1730959950,"current_range_meters":6000,"station_id":"ce4bgvp2rcd13ifvqcu0","pricing_plan_id":"cebpf4jnsgd1na2vs0mg"},{"bike_id":"5d12a22f-fcb6-4b7e-9573-e76f1f41893b","system_id":"levelo_inurba_marseille","lat":43.29789,"lon":5.38115,"is_reserved":false,"is_disabled":false,"rental_uris":{"android":"levelo://app?vid=5d12a22f-fcb6-4b7e-9573-e76f1f41893b","ios":"levelo://app?vid=5d12a22f-fcb6-4b7e-9573-e76f1f41893b"},"vehicle_type_id":"4","last_reported":1730959950,"current_range_meters":38800,"station_id":"ce4bgip2rcd13ifvqbb0","pricing_plan_id":"cebpf4jnsgd1na2vs0mg"},{"bike_id":"76180087-7581-4fd5-b38a-35c240d40301","system_id":"levelo_inurba_marseille","lat":43.2586,"lon":5.39901,"is_reserved":false,"is_disabled":false,"rental_uris":{"android":"levelo://app?vid=76180087-7581-4fd5-b38a-35c240d40301","ios":"levelo://app?vid=76180087-7581-4fd5-b38a-35c240d40301"},"vehicle_type_id":"4","last_reported":1730959950,"current_range_meters":35600,"station_id":"ce4bhl92rcd13ifvqghg","pricing_plan_id":"cebpf4jnsgd1na2vs0mg"},{"bike_id":"3334fb0c-1e85-4359-ba27-a13e405366d1","system_id":"levelo_inurba_marseille","lat":43.308896,"lon":5.39648,"is_reserved":false,"is_disabled":false,"rental_uris":{"android":"levelo://app?vid=3334fb0c-1e85-4359-ba27-a13e405366d1","ios":"levelo://app?vid=3334fb0c-1e85-4359-ba27-a13e405366d1"},"vehicle_type_id":"4","last_reported":1730959950,"current_range_meters":37600,"station_id":"ce4bh012rcd13ifvqcv0","pricing_plan_id":"cebpf4jnsgd1na2vs0mg"},{"bike_id":"34634ce2-f8c9-4afd-9d91-a815c55201fd","system_id":"levelo_inurba_marseille","lat":43.28419,"lon":5.40933,"is_reserved":false,"is_disabled":false,"rental_uris":{"android":"levelo://app?vid=34634ce2-f8c9-4afd-9d91-a815c55201fd","ios":"levelo://app?vid=34634ce2-f8c9-4afd-9d91-a815c55201fd"},"vehicle_type_id":"4","last_reported":1730959950,"current_range_meters":26800,"station_id":"","pricing_plan_id":"cebpf4jnsgd1na2vs0mg"},{"bike_id":"e286df23-18dc-484d-ae62-2208ff98fa32","system_id":"levelo_inurba_marseille","lat":43.2835,"lon":5.3811,"is_reserved":false,"is_disabled":false,"rental_uris":{"android":"levelo://app?vid=e286df23-18dc-484d-ae62-2208ff98fa32","ios":"levelo://app?vid=e286df23-18dc-484d-ae62-2208ff98fa32"},"vehicle_type_id":"4","last_reported":1730959950,"current_range_meters":12800,"station_id":"ce4bh412rcd13ifvqdr0","pricing_plan_id":"cebpf4jnsgd1na2vs0mg"},{"bike_id":"8ba8d452-3216-40cf-8734-045ff57db744","system_id":"levelo_inurba_marseille","lat":43.24181,"lon":5.39729,"is_reserved":false,"is_disabled":false,"rental_uris":{"android":"levelo://app?vid=8ba8d452-3216-40cf-8734-045ff57db744","ios":"levelo://app?vid=8ba8d452-3216-40cf-8734-045ff57db744"},"vehicle_type_id":"4","last_reported":1730959950,"current_range_meters":34000,"station_id":"ce4bhn12rcd13ifvqgpg","pricing_plan_id":"cebpf4jnsgd1na2vs0mg"},{"bike_id":"89366d32-f18f-41cc-add5-a8ca219fef86","system_id":"levelo_inurba_marseille","lat":43.28731,"lon":5.36083,"is_reserved":false,"is_disabled":false,"rental_uris":{"android":"levelo://app?vid=89366d32-f18f-41cc-add5-a8ca219fef86","ios":"levelo://app?vid=89366d32-f18f-41cc-add5-a8ca219fef86"},"vehicle_type_id":"4","last_reported":1730959950,"current_range_meters":38400,"station_id":"cki0cbj6b192h4jlfktg","pricing_plan_id":"cebpf4jnsgd1na2vs0mg"},{"bike_id":"45e7adae-d936-4def-bb90-7a872cc45679","system_id":"levelo_inurba_marseille","lat":43.2482,"lon":5.40096,"is_reserved":false,"is_disabled":false,"rental_uris":{"android":"levelo://app?vid=45e7adae-d936-4def-bb90-7a872cc45679","ios":"levelo://app?vid=45e7adae-d936-4def-bb90-7a872cc45679"},"vehicle_type_id":"4","last_reported":1730959950,"current_range_meters":16400,"station_id":"","pricing_plan_id":"cebpf4jnsgd1na2vs0mg"},{"bike_id":"c8fe4e30-b3c6-483e-8cac-a69280835fbc","system_id":"levelo_inurba_marseille","lat":43.29196,"lon":5.39322,"is_reserved":false,"is_disabled":false,"rental_uris":{"android":"levelo://app?vid=c8fe4e30-b3c6-483e-8cac-a69280835fbc","ios":"levelo://app?vid=c8fe4e30-b3c6-483e-8cac-a69280835fbc"},"vehicle_type_id":"4","last_reported":1730959950,"current_range_meters":32000,"station_id":"ce4bh192rcd13ifvqdd0","pricing_plan_id":"cebpf4jnsgd1na2vs0mg"},{"bike_id":"5174ae6b-73b7-4eb9-b82e-9c61c1f78ce8","system_id":"levelo_inurba_marseille","lat":43.312327,"lon":5.406129,"is_reserved":false,"is_disabled":false,"rental_uris":{"android":"levelo://app?vid=5174ae6b-73b7-4eb9-b82e-9c61c1f78ce8","ios":"levelo://app?vid=5174ae6b-73b7-4eb9-b82e-9c61c1f78ce8"},"vehicle_type_id":"4","last_reported":1730959950,"current_range_meters":18000,"station_id":"","pricing_plan_id":"cebpf4jnsgd1na2vs0mg"},{"bike_id":"dfc57c68-6159-4eed-8ead-767ef843bf95","system_id":"levelo_inurba_marseille","lat":43.28847,"lon":5.35851,"is_reserved":false,"is_disabled":false,"rental_uris":{"android":"levelo://app?vid=dfc57c68-6159-4eed-8ead-767ef843bf95","ios":"levelo://app?vid=dfc57c68-6159-4eed-8ead-767ef843bf95"},"vehicle_type_id":"4","last_reported":1730959950,"current_range_meters":39200,"station_id":"ce4bhb12rcd13ifvqem0","pricing_plan_id":"cebpf4jnsgd1na2vs0mg"},{"bike_id":"020c4090-ffb7-42e9-abcb-d78d430b9f27","system_id":"levelo_inurba_marseille","lat":43.30142,"lon":5.37419,"is_reserved":false,"is_disabled":false,"rental_uris":{"android":"levelo://app?vid=020c4090-ffb7-42e9-abcb-d78d430b9f27","ios":"levelo://app?vid=020c4090-ffb7-42e9-abcb-d78d430b9f27"},"vehicle_type_id":"4","last_reported":1730959950,"current_range_meters":40000,"station_id":"ce4bgs92rcd13ifvqcc0","pricing_plan_id":"cebpf4jnsgd1na2vs0mg"},{"bike_id":"6c6067c7-81ca-4cfd-98d1-3c4aa468815b","system_id":"levelo_inurba_marseille","lat":43.31754,"lon":5.39025,"is_reserved":false,"is_disabled":false,"rental_uris":{"android":"levelo://app?vid=6c6067c7-81ca-4cfd-98d1-3c4aa468815b","ios":"levelo://app?vid=6c6067c7-81ca-4cfd-98d1-3c4aa468815b"},"vehicle_type_id":"4","last_reported":1730959950,"current_range_meters":38800,"station_id":"ce4bhqp2rcd13ifvqhng","pricing_plan_id":"cebpf4jnsgd1na2vs0mg"},{"bike_id":"9c6afc33-ad2d-4d82-9acf-8c53e02a8636","system_id":"levelo_inurba_marseille","lat":43.3152,"lon":5.38967,"is_reserved":false,"is_disabled":false,"rental_uris":{"android":"levelo://app?vid=9c6afc33-ad2d-4d82-9acf-8c53e02a8636","ios":"levelo://app?vid=9c6afc33-ad2d-4d82-9acf-8c53e02a8636"},"vehicle_type_id":"4","last_reported":1730959950,"current_range_meters":38800,"station_id":"","pricing_plan_id":"cebpf4jnsgd1na2vs0mg"},{"bike_id":"698f04a8-8b31-4b26-bec7-b8ff5d19442b","system_id":"levelo_inurba_marseille","lat":43.31284,"lon":5.40164,"is_reserved":false,"is_disabled":false,"rental_uris":{"android":"levelo://app?vid=698f04a8-8b31-4b26-bec7-b8ff5d19442b","ios":"levelo://app?vid=698f04a8-8b31-4b26-bec7-b8ff5d19442b"},"vehicle_type_id":"4","last_reported":1730959950,"current_range_meters":35200,"station_id":"ce4bh092rcd13ifvqd30","pricing_plan_id":"cebpf4jnsgd1na2vs0mg"},{"bike_id":"73c53c13-4b99-443a-bf46-889ae8071c20","system_id":"levelo_inurba_marseille","lat":43.25093,"lon":5.39517,"is_reserved":false,"is_disabled":false,"rental_uris":{"android":"levelo://app?vid=73c53c13-4b99-443a-bf46-889ae8071c20","ios":"levelo://app?vid=73c53c13-4b99-443a-bf46-889ae8071c20"},"vehicle_type_id":"4","last_reported":1730959950,"current_range_meters":12400,"station_id":"ce4bhm12rcd13ifvqgkg","pricing_plan_id":"cebpf4jnsgd1na2vs0mg"},{"bike_id":"76733292-6685-4127-a6aa-dc0a61b373d8","system_id":"levelo_inurba_marseille","lat":43.23155,"lon":5.43713,"is_reserved":false,"is_disabled":false,"rental_uris":{"android":"levelo://app?vid=76733292-6685-4127-a6aa-dc0a61b373d8","ios":"levelo://app?vid=76733292-6685-4127-a6aa-dc0a61b373d8"},"vehicle_type_id":"4","last_reported":1730959950,"current_range_meters":38400,"station_id":"ce4bhmp2rcd13ifvqgog","pricing_plan_id":"cebpf4jnsgd1na2vs0mg"},{"bike_id":"2facdba2-ecb9-40ab-bffe-f6a10c31247c","system_id":"levelo_inurba_marseille","lat":43.33614,"lon":5.41024,"is_reserved":false,"is_disabled":false,"rental_uris":{"android":"levelo://app?vid=2facdba2-ecb9-40ab-bffe-f6a10c31247c","ios":"levelo://app?vid=2facdba2-ecb9-40ab-bffe-f6a10c31247c"},"vehicle_type_id":"4","last_reported":1730959950,"current_range_meters":39200,"station_id":"ce4bhqh2rcd13ifvqhmg","pricing_plan_id":"cebpf4jnsgd1na2vs0mg"},{"bike_id":"4425573e-d73c-4468-ae36-c95cd2911915","system_id":"levelo_inurba_marseille","lat":43.30161,"lon":5.38074,"is_reserved":false,"is_disabled":false,"rental_uris":{"android":"levelo://app?vid=4425573e-d73c-4468-ae36-c95cd2911915","ios":"levelo://app?vid=4425573e-d73c-4468-ae36-c95cd2911915"},"vehicle_type_id":"4","last_reported":1730959950,"current_range_meters":32800,"station_id":"ce4bgjp2rcd13ifvqbh0","pricing_plan_id":"cebpf4jnsgd1na2vs0mg"},{"bike_id":"2124a367-0ae8-429d-b3c5-c266676110e5","system_id":"levelo_inurba_marseille","lat":43.30206,"lon":5.39462,"is_reserved":false,"is_disabled":false,"rental_uris":{"android":"levelo://app?vid=2124a367-0ae8-429d-b3c5-c266676110e5","ios":"levelo://app?vid=2124a367-0ae8-429d-b3c5-c266676110e5"},"vehicle_type_id":"4","last_reported":1730959950,"current_range_meters":32800,"station_id":"ce4bh0p2rcd13ifvqd70","pricing_plan_id":"cebpf4jnsgd1na2vs0mg"},{"bike_id":"ee8a3550-0001-4fcc-bd31-4beeb6d76621","system_id":"levelo_inurba_marseille","lat":43.31084,"lon":5.38368,"is_reserved":false,"is_disabled":false,"rental_uris":{"android":"levelo://app?vid=ee8a3550-0001-4fcc-bd31-4beeb6d76621","ios":"levelo://app?vid=ee8a3550-0001-4fcc-bd31-4beeb6d76621"},"vehicle_type_id":"4","last_reported":1730959950,"current_range_meters":9600,"station_id":"ce4bgv92rcd13ifvqcr0","pricing_plan_id":"cebpf4jnsgd1na2vs0mg"},{"bike_id":"d25cc44c-d51b-4657-b44d-4c31a96a9ac3","system_id":"levelo_inurba_marseille","lat":43.32343,"lon":5.40615,"is_reserved":false,"is_disabled":false,"rental_uris":{"android":"levelo://app?vid=d25cc44c-d51b-4657-b44d-4c31a96a9ac3","ios":"levelo://app?vid=d25cc44c-d51b-4657-b44d-4c31a96a9ac3"},"vehicle_type_id":"4","last_reported":1730959950,"current_range_meters":14400,"station_id":"ce4bhq92rcd13ifvqhjg","pricing_plan_id":"cebpf4jnsgd1na2vs0mg"},{"bike_id":"87bb9cd7-84c0-4297-aa15-ee97a5321339","system_id":"levelo_inurba_marseille","lat":43.27818,"lon":5.40708,"is_reserved":false,"is_disabled":false,"rental_uris":{"android":"levelo://app?vid=87bb9cd7-84c0-4297-aa15-ee97a5321339","ios":"levelo://app?vid=87bb9cd7-84c0-4297-aa15-ee97a5321339"},"vehicle_type_id":"4","last_reported":1730959950,"current_range_meters":30800,"station_id":"ce4bhnh2rcd13ifvqgtg","pricing_plan_id":"cebpf4jnsgd1na2vs0mg"},{"bike_id":"1a200d94-7fcc-43a0-baf7-0653f1297e9d","system_id":"levelo_inurba_marseille","lat":43.24667,"lon":5.381633,"is_reserved":false,"is_disabled":false,"rental_uris":{"android":"levelo://app?vid=1a200d94-7fcc-43a0-baf7-0653f1297e9d","ios":"levelo://app?vid=1a200d94-7fcc-43a0-baf7-0653f1297e9d"},"vehicle_type_id":"4","last_reported":1730959950,"current_range_meters":16800,"station_id":"ce4bhih2rcd13ifvqfr0","pricing_plan_id":"cebpf4jnsgd1na2vs0mg"},{"bike_id":"dd172bf8-d14d-45c6-9752-e4c7a309bb9f","system_id":"levelo_inurba_marseille","lat":43.25832,"lon":5.39444,"is_reserved":false,"is_disabled":false,"rental_uris":{"android":"levelo://app?vid=dd172bf8-d14d-45c6-9752-e4c7a309bb9f","ios":"levelo://app?vid=dd172bf8-d14d-45c6-9752-e4c7a309bb9f"},"vehicle_type_id":"4","last_reported":1730959950,"current_range_meters":36400,"station_id":"ce4bhip2rcd13ifvqft0","pricing_plan_id":"cebpf4jnsgd1na2vs0mg"},{"bike_id":"c819360e-bead-4d00-96c1-0cc47dde28e3","system_id":"levelo_inurba_marseille","lat":43.29559,"lon":5.42291,"is_reserved":false,"is_disabled":false,"rental_uris":{"android":"levelo://app?vid=c819360e-bead-4d00-96c1-0cc47dde28e3","ios":"levelo://app?vid=c819360e-bead-4d00-96c1-0cc47dde28e3"},"vehicle_type_id":"4","last_reported":1730959950,"current_range_meters":38400,"station_id":"ce4bhph2rcd13ifvqhdg","pricing_plan_id":"cebpf4jnsgd1na2vs0mg"},{"bike_id":"9fd2eafb-b3a2-4330-b6d6-848617578953","system_id":"levelo_inurba_marseille","lat":43.319942,"lon":5.381468,"is_reserved":false,"is_disabled":false,"rental_uris":{"android":"levelo://app?vid=9fd2eafb-b3a2-4330-b6d6-848617578953","ios":"levelo://app?vid=9fd2eafb-b3a2-4330-b6d6-848617578953"},"vehicle_type_id":"4","last_reported":1730959950,"current_range_meters":6800,"station_id":"ce4bhr12rcd13ifvqhpg","pricing_plan_id":"cebpf4jnsgd1na2vs0mg"},{"bike_id":"ed9d7a87-b2a5-4493-8ad8-420f1b483592","system_id":"levelo_inurba_marseille","lat":43.30882,"lon":5.39635,"is_reserved":false,"is_disabled":false,"rental_uris":{"android":"levelo://app?vid=ed9d7a87-b2a5-4493-8ad8-420f1b483592","ios":"levelo://app?vid=ed9d7a87-b2a5-4493-8ad8-420f1b483592"},"vehicle_type_id":"4","last_reported":1730959950,"current_range_meters":39200,"station_id":"ce4bh012rcd13ifvqcv0","pricing_plan_id":"cebpf4jnsgd1na2vs0mg"},{"bike_id":"d1e30271-cd2c-4770-9843-e1d5713bd908","system_id":"levelo_inurba_marseille","lat":43.29027,"lon":5.39981,"is_reserved":false,"is_disabled":false,"rental_uris":{"android":"levelo://app?vid=d1e30271-cd2c-4770-9843-e1d5713bd908","ios":"levelo://app?vid=d1e30271-cd2c-4770-9843-e1d5713bd908"},"vehicle_type_id":"4","last_reported":1730959950,"current_range_meters":35200,"station_id":"ce4bh392rcd13ifvqdm0","pricing_plan_id":"cebpf4jnsgd1na2vs0mg"},{"bike_id":"5b0f60c7-ef1f-4634-8bc2-02af8f6e9225","system_id":"levelo_inurba_marseille","lat":43.29558,"lon":5.42295,"is_reserved":false,"is_disabled":false,"rental_uris":{"android":"levelo://app?vid=5b0f60c7-ef1f-4634-8bc2-02af8f6e9225","ios":"levelo://app?vid=5b0f60c7-ef1f-4634-8bc2-02af8f6e9225"},"vehicle_type_id":"4","last_reported":1730959950,"current_range_meters":20800,"station_id":"ce4bhph2rcd13ifvqhdg","pricing_plan_id":"cebpf4jnsgd1na2vs0mg"},{"bike_id":"420e4751-2784-4222-be4e-5723d5a12888","system_id":"levelo_inurba_marseille","lat":43.243949,"lon":5.370565,"is_reserved":false,"is_disabled":false,"rental_uris":{"android":"levelo://app?vid=420e4751-2784-4222-be4e-5723d5a12888","ios":"levelo://app?vid=420e4751-2784-4222-be4e-5723d5a12888"},"vehicle_type_id":"4","last_reported":1730959950,"current_range_meters":17600,"station_id":"ce4bhhh2rcd13ifvqfk0","pricing_plan_id":"cebpf4jnsgd1na2vs0mg"},{"bike_id":"786dca10-1e08-4efd-b3ba-972c6c8e8a40","system_id":"levelo_inurba_marseille","lat":43.28941,"lon":5.39627,"is_reserved":false,"is_disabled":false,"rental_uris":{"android":"levelo://app?vid=786dca10-1e08-4efd-b3ba-972c6c8e8a40","ios":"levelo://app?vid=786dca10-1e08-4efd-b3ba-972c6c8e8a40"},"vehicle_type_id":"4","last_reported":1730959950,"current_range_meters":38800,"station_id":"ce4bh3h2rcd13ifvqdn0","pricing_plan_id":"cebpf4jnsgd1na2vs0mg"},{"bike_id":"837ded3d-8ab1-4eeb-9d54-012bc38338bd","system_id":"levelo_inurba_marseille","lat":43.28,"lon":5.4003,"is_reserved":false,"is_disabled":false,"rental_uris":{"android":"levelo://app?vid=837ded3d-8ab1-4eeb-9d54-012bc38338bd","ios":"levelo://app?vid=837ded3d-8ab1-4eeb-9d54-012bc38338bd"},"vehicle_type_id":"4","last_reported":1730959950,"current_range_meters":38800,"station_id":"ce4bho92rcd13ifvqh4g","pricing_plan_id":"cebpf4jnsgd1na2vs0mg"},{"bike_id":"f4e37ef4-d22b-473c-affa-b7e5883bbb9c","system_id":"levelo_inurba_marseille","lat":43.3025,"lon":5.40061,"is_reserved":false,"is_disabled":false,"rental_uris":{"android":"levelo://app?vid=f4e37ef4-d22b-473c-affa-b7e5883bbb9c","ios":"levelo://app?vid=f4e37ef4-d22b-473c-affa-b7e5883bbb9c"},"vehicle_type_id":"4","last_reported":1730959950,"current_range_meters":33200,"station_id":"ce4bgvh2rcd13ifvqcs0","pricing_plan_id":"cebpf4jnsgd1na2vs0mg"},{"bike_id":"a5bc2fce-204d-4ecc-bd2f-0a758ce61f0d","system_id":"levelo_inurba_marseille","lat":43.27991,"lon":5.40012,"is_reserved":false,"is_disabled":false,"rental_uris":{"android":"levelo://app?vid=a5bc2fce-204d-4ecc-bd2f-0a758ce61f0d","ios":"levelo://app?vid=a5bc2fce-204d-4ecc-bd2f-0a758ce61f0d"},"vehicle_type_id":"4","last_reported":1730959950,"current_range_meters":6400,"station_id":"ce4bho92rcd13ifvqh4g","pricing_plan_id":"cebpf4jnsgd1na2vs0mg"},{"bike_id":"e3236391-a0e6-40e1-97e1-7033a7de6d23","system_id":"levelo_inurba_marseille","lat":43.30244,"lon":5.40055,"is_reserved":false,"is_disabled":false,"rental_uris":{"android":"levelo://app?vid=e3236391-a0e6-40e1-97e1-7033a7de6d23","ios":"levelo://app?vid=e3236391-a0e6-40e1-97e1-7033a7de6d23"},"vehicle_type_id":"4","last_reported":1730959950,"current_range_meters":36800,"station_id":"ce4bgvh2rcd13ifvqcs0","pricing_plan_id":"cebpf4jnsgd1na2vs0mg"},{"bike_id":"ce9c29f4-99c2-42e0-bc51-19aa6bed5e01","system_id":"levelo_inurba_marseille","lat":43.30941,"lon":5.40154,"is_reserved":false,"is_disabled":false,"rental_uris":{"android":"levelo://app?vid=ce9c29f4-99c2-42e0-bc51-19aa6bed5e01","ios":"levelo://app?vid=ce9c29f4-99c2-42e0-bc51-19aa6bed5e01"},"vehicle_type_id":"4","last_reported":1730959950,"current_range_meters":35200,"station_id":"ce4bgvp2rcd13ifvqct0","pricing_plan_id":"cebpf4jnsgd1na2vs0mg"},{"bike_id":"4d3c374a-1f45-46b9-8607-f64397074506","system_id":"levelo_inurba_marseille","lat":43.25094,"lon":5.39518,"is_reserved":false,"is_disabled":false,"rental_uris":{"android":"levelo://app?vid=4d3c374a-1f45-46b9-8607-f64397074506","ios":"levelo://app?vid=4d3c374a-1f45-46b9-8607-f64397074506"},"vehicle_type_id":"4","last_reported":1730959950,"current_range_meters":27600,"station_id":"ce4bhm12rcd13ifvqgkg","pricing_plan_id":"cebpf4jnsgd1na2vs0mg"},{"bike_id":"6e5bb042-f0b5-471d-9711-9d10414d087e","system_id":"levelo_inurba_marseille","lat":43.28566,"lon":5.39503,"is_reserved":false,"is_disabled":false,"rental_uris":{"android":"levelo://app?vid=6e5bb042-f0b5-471d-9711-9d10414d087e","ios":"levelo://app?vid=6e5bb042-f0b5-471d-9711-9d10414d087e"},"vehicle_type_id":"4","last_reported":1730959950,"current_range_meters":38800,"station_id":"ce4bh292rcd13ifvqdg0","pricing_plan_id":"cebpf4jnsgd1na2vs0mg"},{"bike_id":"903b0ec3-2165-4ecf-84f1-2edb22136500","system_id":"levelo_inurba_marseille","lat":43.25731,"lon":5.4111,"is_reserved":false,"is_disabled":false,"rental_uris":{"android":"levelo://app?vid=903b0ec3-2165-4ecf-84f1-2edb22136500","ios":"levelo://app?vid=903b0ec3-2165-4ecf-84f1-2edb22136500"},"vehicle_type_id":"4","last_reported":1730959950,"current_range_meters":39200,"station_id":"ce4bhkp2rcd13ifvqgd0","pricing_plan_id":"cebpf4jnsgd1na2vs0mg"},{"bike_id":"e4867451-a2be-4dbe-9c17-13c25d36a7bb","system_id":"levelo_inurba_marseille","lat":43.30931,"lon":5.40155,"is_reserved":false,"is_disabled":false,"rental_uris":{"android":"levelo://app?vid=e4867451-a2be-4dbe-9c17-13c25d36a7bb","ios":"levelo://app?vid=e4867451-a2be-4dbe-9c17-13c25d36a7bb"},"vehicle_type_id":"4","last_reported":1730959950,"current_range_meters":30000,"station_id":"ce4bgvp2rcd13ifvqct0","pricing_plan_id":"cebpf4jnsgd1na2vs0mg"},{"bike_id":"0ae9a65c-df56-4431-b28b-eae76520013a","system_id":"levelo_inurba_marseille","lat":43.3212,"lon":5.38843,"is_reserved":false,"is_disabled":false,"rental_uris":{"android":"levelo://app?vid=0ae9a65c-df56-4431-b28b-eae76520013a","ios":"levelo://app?vid=0ae9a65c-df56-4431-b28b-eae76520013a"},"vehicle_type_id":"4","last_reported":1730959950,"current_range_meters":35600,"station_id":"","pricing_plan_id":"cebpf4jnsgd1na2vs0mg"},{"bike_id":"9060b117-76f7-49a9-949e-911239e41aef","system_id":"levelo_inurba_marseille","lat":43.3088,"lon":5.39636,"is_reserved":false,"is_disabled":false,"rental_uris":{"android":"levelo://app?vid=9060b117-76f7-49a9-949e-911239e41aef","ios":"levelo://app?vid=9060b117-76f7-49a9-949e-911239e41aef"},"vehicle_type_id":"4","last_reported":1730959950,"current_range_meters":38400,"station_id":"ce4bh012rcd13ifvqcv0","pricing_plan_id":"cebpf4jnsgd1na2vs0mg"},{"bike_id":"8d3f2712-a392-4fa9-a770-60cc352f37cb","system_id":"levelo_inurba_marseille","lat":43.31172,"lon":5.38711,"is_reserved":false,"is_disabled":false,"rental_uris":{"android":"levelo://app?vid=8d3f2712-a392-4fa9-a770-60cc352f37cb","ios":"levelo://app?vid=8d3f2712-a392-4fa9-a770-60cc352f37cb"},"vehicle_type_id":"4","last_reported":1730959950,"current_range_meters":26000,"station_id":"ce4bgv12rcd13ifvqcp0","pricing_plan_id":"cebpf4jnsgd1na2vs0mg"},{"bike_id":"0716099e-4daa-46f4-b3a0-9b0c2d84b63b","system_id":"levelo_inurba_marseille","lat":43.24817,"lon":5.37457,"is_reserved":false,"is_disabled":false,"rental_uris":{"android":"levelo://app?vid=0716099e-4daa-46f4-b3a0-9b0c2d84b63b","ios":"levelo://app?vid=0716099e-4daa-46f4-b3a0-9b0c2d84b63b"},"vehicle_type_id":"4","last_reported":1730959950,"current_range_meters":36800,"station_id":"ce4bhgh2rcd13ifvqfb0","pricing_plan_id":"cebpf4jnsgd1na2vs0mg"},{"bike_id":"55a677bd-87c6-4021-ae5c-c9a5693b7d71","system_id":"levelo_inurba_marseille","lat":43.3133,"lon":5.39694,"is_reserved":false,"is_disabled":false,"rental_uris":{"android":"levelo://app?vid=55a677bd-87c6-4021-ae5c-c9a5693b7d71","ios":"levelo://app?vid=55a677bd-87c6-4021-ae5c-c9a5693b7d71"},"vehicle_type_id":"4","last_reported":1730959950,"current_range_meters":38800,"station_id":"ce4bgvp2rcd13ifvqcu0","pricing_plan_id":"cebpf4jnsgd1na2vs0mg"},{"bike_id":"4e5d727a-7c34-44b8-af94-45a54b88c1cc","system_id":"levelo_inurba_marseille","lat":43.33719,"lon":5.39182,"is_reserved":false,"is_disabled":false,"rental_uris":{"android":"levelo://app?vid=4e5d727a-7c34-44b8-af94-45a54b88c1cc","ios":"levelo://app?vid=4e5d727a-7c34-44b8-af94-45a54b88c1cc"},"vehicle_type_id":"4","last_reported":1730959950,"current_range_meters":38800,"station_id":"ce4bhr92rcd13ifvqhsg","pricing_plan_id":"cebpf4jnsgd1na2vs0mg"},{"bike_id":"4d3b85b2-074c-4592-ac59-ac28cff03ca1","system_id":"levelo_inurba_marseille","lat":43.27907,"lon":5.38013,"is_reserved":false,"is_disabled":false,"rental_uris":{"android":"levelo://app?vid=4d3b85b2-074c-4592-ac59-ac28cff03ca1","ios":"levelo://app?vid=4d3b85b2-074c-4592-ac59-ac28cff03ca1"},"vehicle_type_id":"4","last_reported":1730959950,"current_range_meters":39200,"station_id":"ce4bhf92rcd13ifvqf50","pricing_plan_id":"cebpf4jnsgd1na2vs0mg"},{"bike_id":"6e08cc60-1459-43bc-a433-1309104d77c6","system_id":"levelo_inurba_marseille","lat":43.27195,"lon":5.3919,"is_reserved":false,"is_disabled":false,"rental_uris":{"android":"levelo://app?vid=6e08cc60-1459-43bc-a433-1309104d77c6","ios":"levelo://app?vid=6e08cc60-1459-43bc-a433-1309104d77c6"},"vehicle_type_id":"4","last_reported":1730959950,"current_range_meters":12000,"station_id":"ce4bhhp2rcd13ifvqfm0","pricing_plan_id":"cebpf4jnsgd1na2vs0mg"},{"bike_id":"c75b9b52-b430-4c81-b723-a17bcc7311fb","system_id":"levelo_inurba_marseille","lat":43.28944,"lon":5.36391,"is_reserved":false,"is_disabled":false,"rental_uris":{"android":"levelo://app?vid=c75b9b52-b430-4c81-b723-a17bcc7311fb","ios":"levelo://app?vid=c75b9b52-b430-4c81-b723-a17bcc7311fb"},"vehicle_type_id":"4","last_reported":1730959950,"current_range_meters":38800,"station_id":"ce4bhc92rcd13ifvqetg","pricing_plan_id":"cebpf4jnsgd1na2vs0mg"},{"bike_id":"c8c9c378-3390-4c26-9a84-63bc1b6bfba9","system_id":"levelo_inurba_marseille","lat":43.29272,"lon":5.3844,"is_reserved":false,"is_disabled":false,"rental_uris":{"android":"levelo://app?vid=c8c9c378-3390-4c26-9a84-63bc1b6bfba9","ios":"levelo://app?vid=c8c9c378-3390-4c26-9a84-63bc1b6bfba9"},"vehicle_type_id":"4","last_reported":1730959950,"current_range_meters":38800,"station_id":"ce4bh692rcd13ifvqea0","pricing_plan_id":"cebpf4jnsgd1na2vs0mg"},{"bike_id":"2ac59b30-95ad-4d41-84cd-66b709f67fc4","system_id":"levelo_inurba_marseille","lat":43.337444,"lon":5.374475,"is_reserved":false,"is_disabled":false,"rental_uris":{"android":"levelo://app?vid=2ac59b30-95ad-4d41-84cd-66b709f67fc4","ios":"levelo://app?vid=2ac59b30-95ad-4d41-84cd-66b709f67fc4"},"vehicle_type_id":"4","last_reported":1730959950,"current_range_meters":33600,"station_id":"","pricing_plan_id":"cebpf4jnsgd1na2vs0mg"},{"bike_id":"85a956f0-b294-4816-952d-2bd6b413951c","system_id":"levelo_inurba_marseille","lat":43.2738,"lon":5.36264,"is_reserved":false,"is_disabled":false,"rental_uris":{"android":"levelo://app?vid=85a956f0-b294-4816-952d-2bd6b413951c","ios":"levelo://app?vid=85a956f0-b294-4816-952d-2bd6b413951c"},"vehicle_type_id":"4","last_reported":1730959950,"current_range_meters":37600,"station_id":"ce4bhbh2rcd13ifvqeo0","pricing_plan_id":"cebpf4jnsgd1na2vs0mg"},{"bike_id":"93444b2e-a368-4e9a-bd78-d630f95be8a7","system_id":"levelo_inurba_marseille","lat":43.3136,"lon":5.38498,"is_reserved":false,"is_disabled":false,"rental_uris":{"android":"levelo://app?vid=93444b2e-a368-4e9a-bd78-d630f95be8a7","ios":"levelo://app?vid=93444b2e-a368-4e9a-bd78-d630f95be8a7"},"vehicle_type_id":"4","last_reported":1730959950,"current_range_meters":38800,"station_id":"ce4bgt92rcd13ifvqcf0","pricing_plan_id":"cebpf4jnsgd1na2vs0mg"},{"bike_id":"d398d794-d5fa-4ae6-b063-9466efe93a0b","system_id":"levelo_inurba_marseille","lat":43.32344,"lon":5.40621,"is_reserved":false,"is_disabled":false,"rental_uris":{"android":"levelo://app?vid=d398d794-d5fa-4ae6-b063-9466efe93a0b","ios":"levelo://app?vid=d398d794-d5fa-4ae6-b063-9466efe93a0b"},"vehicle_type_id":"4","last_reported":1730959950,"current_range_meters":19600,"station_id":"ce4bhq92rcd13ifvqhjg","pricing_plan_id":"cebpf4jnsgd1na2vs0mg"},{"bike_id":"a429d417-ae34-4edf-87c8-05ac18f72a29","system_id":"levelo_inurba_marseille","lat":43.310717,"lon":5.383484,"is_reserved":false,"is_disabled":false,"rental_uris":{"android":"levelo://app?vid=a429d417-ae34-4edf-87c8-05ac18f72a29","ios":"levelo://app?vid=a429d417-ae34-4edf-87c8-05ac18f72a29"},"vehicle_type_id":"4","last_reported":1730959950,"current_range_meters":6000,"station_id":"ce4bgv92rcd13ifvqcr0","pricing_plan_id":"cebpf4jnsgd1na2vs0mg"},{"bike_id":"25902ba6-6d35-42f4-b385-916a195b4207","system_id":"levelo_inurba_marseille","lat":43.31691,"lon":5.40479,"is_reserved":false,"is_disabled":false,"rental_uris":{"android":"levelo://app?vid=25902ba6-6d35-42f4-b385-916a195b4207","ios":"levelo://app?vid=25902ba6-6d35-42f4-b385-916a195b4207"},"vehicle_type_id":"4","last_reported":1730959950,"current_range_meters":36800,"station_id":"ce4bh012rcd13ifvqd00","pricing_plan_id":"cebpf4jnsgd1na2vs0mg"},{"bike_id":"b14a9bae-5644-45d5-b166-8cba06b667a6","system_id":"levelo_inurba_marseille","lat":43.28723,"lon":5.37948,"is_reserved":false,"is_disabled":false,"rental_uris":{"android":"levelo://app?vid=b14a9bae-5644-45d5-b166-8cba06b667a6","ios":"levelo://app?vid=b14a9bae-5644-45d5-b166-8cba06b667a6"},"vehicle_type_id":"4","last_reported":1730959950,"current_range_meters":29600,"station_id":"ce4bh9p2rcd13ifvqec0","pricing_plan_id":"cebpf4jnsgd1na2vs0mg"},{"bike_id":"168791b9-b91f-45ad-be13-7e7740694a51","system_id":"levelo_inurba_marseille","lat":43.276782,"lon":5.388952,"is_reserved":false,"is_disabled":false,"rental_uris":{"android":"levelo://app?vid=168791b9-b91f-45ad-be13-7e7740694a51","ios":"levelo://app?vid=168791b9-b91f-45ad-be13-7e7740694a51"},"vehicle_type_id":"4","last_reported":1730959950,"current_range_meters":35200,"station_id":"ce4bhi12rcd13ifvqfo0","pricing_plan_id":"cebpf4jnsgd1na2vs0mg"},{"bike_id":"3d161c35-9f40-4b08-a68a-f579008f18ef","system_id":"levelo_inurba_marseille","lat":43.25731,"lon":5.41113,"is_reserved":false,"is_disabled":false,"rental_uris":{"android":"levelo://app?vid=3d161c35-9f40-4b08-a68a-f579008f18ef","ios":"levelo://app?vid=3d161c35-9f40-4b08-a68a-f579008f18ef"},"vehicle_type_id":"4","last_reported":1730959950,"current_range_meters":39200,"station_id":"ce4bhkp2rcd13ifvqgd0","pricing_plan_id":"cebpf4jnsgd1na2vs0mg"},{"bike_id":"1e59035c-5193-446f-a559-600e748f580e","system_id":"levelo_inurba_marseille","lat":43.30889,"lon":5.37199,"is_reserved":false,"is_disabled":false,"rental_uris":{"android":"levelo://app?vid=1e59035c-5193-446f-a559-600e748f580e","ios":"levelo://app?vid=1e59035c-5193-446f-a559-600e748f580e"},"vehicle_type_id":"4","last_reported":1730959950,"current_range_meters":37600,"station_id":"ce4bguh2rcd13ifvqckg","pricing_plan_id":"cebpf4jnsgd1na2vs0mg"},{"bike_id":"91dbb18e-7c31-498e-8c65-eddd96e1049a","system_id":"levelo_inurba_marseille","lat":43.28703,"lon":5.3739,"is_reserved":false,"is_disabled":false,"rental_uris":{"android":"levelo://app?vid=91dbb18e-7c31-498e-8c65-eddd96e1049a","ios":"levelo://app?vid=91dbb18e-7c31-498e-8c65-eddd96e1049a"},"vehicle_type_id":"4","last_reported":1730959950,"current_range_meters":31200,"station_id":"ce4bh3p2rcd13ifvqdq0","pricing_plan_id":"cebpf4jnsgd1na2vs0mg"},{"bike_id":"1a0498c7-be91-4bcc-a0cc-79fb673c1cc0","system_id":"levelo_inurba_marseille","lat":43.24072,"lon":5.37761,"is_reserved":false,"is_disabled":false,"rental_uris":{"android":"levelo://app?vid=1a0498c7-be91-4bcc-a0cc-79fb673c1cc0","ios":"levelo://app?vid=1a0498c7-be91-4bcc-a0cc-79fb673c1cc0"},"vehicle_type_id":"4","last_reported":1730959950,"current_range_meters":35200,"station_id":"ce4bhnp2rcd13ifvqgvg","pricing_plan_id":"cebpf4jnsgd1na2vs0mg"},{"bike_id":"12c2424a-2c76-4686-8b89-4192d116a037","system_id":"levelo_inurba_marseille","lat":43.30938,"lon":5.40149,"is_reserved":false,"is_disabled":false,"rental_uris":{"android":"levelo://app?vid=12c2424a-2c76-4686-8b89-4192d116a037","ios":"levelo://app?vid=12c2424a-2c76-4686-8b89-4192d116a037"},"vehicle_type_id":"4","last_reported":1730959950,"current_range_meters":33200,"station_id":"ce4bgvp2rcd13ifvqct0","pricing_plan_id":"cebpf4jnsgd1na2vs0mg"},{"bike_id":"970630a5-31bb-43c8-8400-8d64094a61f0","system_id":"levelo_inurba_marseille","lat":43.30465,"lon":5.37904,"is_reserved":false,"is_disabled":false,"rental_uris":{"android":"levelo://app?vid=970630a5-31bb-43c8-8400-8d64094a61f0","ios":"levelo://app?vid=970630a5-31bb-43c8-8400-8d64094a61f0"},"vehicle_type_id":"4","last_reported":1730959950,"current_range_meters":36000,"station_id":"ce4bgup2rcd13ifvqcn0","pricing_plan_id":"cebpf4jnsgd1na2vs0mg"},{"bike_id":"ffbc1eb1-f3f5-4614-8c87-15bc40ce3458","system_id":"levelo_inurba_marseille","lat":43.30149,"lon":5.38072,"is_reserved":false,"is_disabled":false,"rental_uris":{"android":"levelo://app?vid=ffbc1eb1-f3f5-4614-8c87-15bc40ce3458","ios":"levelo://app?vid=ffbc1eb1-f3f5-4614-8c87-15bc40ce3458"},"vehicle_type_id":"4","last_reported":1730959950,"current_range_meters":4000,"station_id":"ce4bgjp2rcd13ifvqbh0","pricing_plan_id":"cebpf4jnsgd1na2vs0mg"},{"bike_id":"b3efa261-435a-4d71-be02-67992b1c969c","system_id":"levelo_inurba_marseille","lat":43.30164,"lon":5.38072,"is_reserved":false,"is_disabled":false,"rental_uris":{"android":"levelo://app?vid=b3efa261-435a-4d71-be02-67992b1c969c","ios":"levelo://app?vid=b3efa261-435a-4d71-be02-67992b1c969c"},"vehicle_type_id":"4","last_reported":1730959950,"current_range_meters":14000,"station_id":"ce4bgjp2rcd13ifvqbh0","pricing_plan_id":"cebpf4jnsgd1na2vs0mg"},{"bike_id":"a98ff049-2eaa-47ca-adaa-e6a430ac3958","system_id":"levelo_inurba_marseille","lat":43.29631,"lon":5.40595,"is_reserved":false,"is_disabled":false,"rental_uris":{"android":"levelo://app?vid=a98ff049-2eaa-47ca-adaa-e6a430ac3958","ios":"levelo://app?vid=a98ff049-2eaa-47ca-adaa-e6a430ac3958"},"vehicle_type_id":"4","last_reported":1730959950,"current_range_meters":37600,"station_id":"ce4bh0h2rcd13ifvqd60","pricing_plan_id":"cebpf4jnsgd1na2vs0mg"},{"bike_id":"ecc2597c-73b2-4662-b036-f015722a8a69","system_id":"levelo_inurba_marseille","lat":43.22934,"lon":5.35379,"is_reserved":false,"is_disabled":false,"rental_uris":{"android":"levelo://app?vid=ecc2597c-73b2-4662-b036-f015722a8a69","ios":"levelo://app?vid=ecc2597c-73b2-4662-b036-f015722a8a69"},"vehicle_type_id":"4","last_reported":1730959950,"current_range_meters":38000,"station_id":"cpo3532slgdg3j2ikp40","pricing_plan_id":"cebpf4jnsgd1na2vs0mg"},{"bike_id":"52af7a3b-ddda-465a-a3b9-5cc6f08e1552","system_id":"levelo_inurba_marseille","lat":43.24164,"lon":5.36398,"is_reserved":false,"is_disabled":false,"rental_uris":{"android":"levelo://app?vid=52af7a3b-ddda-465a-a3b9-5cc6f08e1552","ios":"levelo://app?vid=52af7a3b-ddda-465a-a3b9-5cc6f08e1552"},"vehicle_type_id":"4","last_reported":1730959950,"current_range_meters":16400,"station_id":"cpo36qri1sfpv3e86is0","pricing_plan_id":"cebpf4jnsgd1na2vs0mg"},{"bike_id":"c8908898-597c-4769-9a3c-a8548f4da9f2","system_id":"levelo_inurba_marseille","lat":43.312786,"lon":5.401721,"is_reserved":false,"is_disabled":false,"rental_uris":{"android":"levelo://app?vid=c8908898-597c-4769-9a3c-a8548f4da9f2","ios":"levelo://app?vid=c8908898-597c-4769-9a3c-a8548f4da9f2"},"vehicle_type_id":"4","last_reported":1730959950,"current_range_meters":16800,"station_id":"ce4bh092rcd13ifvqd30","pricing_plan_id":"cebpf4jnsgd1na2vs0mg"},{"bike_id":"be06f586-7806-4770-a536-5e917b8770bd","system_id":"levelo_inurba_marseille","lat":43.31718,"lon":5.43703,"is_reserved":false,"is_disabled":false,"rental_uris":{"android":"levelo://app?vid=be06f586-7806-4770-a536-5e917b8770bd","ios":"levelo://app?vid=be06f586-7806-4770-a536-5e917b8770bd"},"vehicle_type_id":"4","last_reported":1730959950,"current_range_meters":27600,"station_id":"ce4bhp92rcd13ifvqhcg","pricing_plan_id":"cebpf4jnsgd1na2vs0mg"},{"bike_id":"467cd5cb-e6f2-47b1-b614-a2adddbeea06","system_id":"levelo_inurba_marseille","lat":43.31344,"lon":5.38513,"is_reserved":false,"is_disabled":false,"rental_uris":{"android":"levelo://app?vid=467cd5cb-e6f2-47b1-b614-a2adddbeea06","ios":"levelo://app?vid=467cd5cb-e6f2-47b1-b614-a2adddbeea06"},"vehicle_type_id":"4","last_reported":1730959950,"current_range_meters":18800,"station_id":"ce4bgt92rcd13ifvqcf0","pricing_plan_id":"cebpf4jnsgd1na2vs0mg"},{"bike_id":"a1104f3d-c757-4480-8808-15c6845131c4","system_id":"levelo_inurba_marseille","lat":43.30942,"lon":5.40138,"is_reserved":false,"is_disabled":false,"rental_uris":{"android":"levelo://app?vid=a1104f3d-c757-4480-8808-15c6845131c4","ios":"levelo://app?vid=a1104f3d-c757-4480-8808-15c6845131c4"},"vehicle_type_id":"4","last_reported":1730959950,"current_range_meters":25600,"station_id":"ce4bgvp2rcd13ifvqct0","pricing_plan_id":"cebpf4jnsgd1na2vs0mg"},{"bike_id":"923d8709-2f23-428d-889a-a4c82a103832","system_id":"levelo_inurba_marseille","lat":43.30417,"lon":5.41286,"is_reserved":false,"is_disabled":false,"rental_uris":{"android":"levelo://app?vid=923d8709-2f23-428d-889a-a4c82a103832","ios":"levelo://app?vid=923d8709-2f23-428d-889a-a4c82a103832"},"vehicle_type_id":"4","last_reported":1730959950,"current_range_meters":38000,"station_id":"ce4bhop2rcd13ifvqh8g","pricing_plan_id":"cebpf4jnsgd1na2vs0mg"},{"bike_id":"9cfadd0d-3ed5-4b63-abba-a82a26c46921","system_id":"levelo_inurba_marseille","lat":43.31084,"lon":5.42429,"is_reserved":false,"is_disabled":false,"rental_uris":{"android":"levelo://app?vid=9cfadd0d-3ed5-4b63-abba-a82a26c46921","ios":"levelo://app?vid=9cfadd0d-3ed5-4b63-abba-a82a26c46921"},"vehicle_type_id":"4","last_reported":1730959950,"current_range_meters":37600,"station_id":"ce4bhp92rcd13ifvqhag","pricing_plan_id":"cebpf4jnsgd1na2vs0mg"},{"bike_id":"dd591836-f417-403f-84a9-67ff85978f8f","system_id":"levelo_inurba_marseille","lat":43.23196,"lon":5.39986,"is_reserved":false,"is_disabled":false,"rental_uris":{"android":"levelo://app?vid=dd591836-f417-403f-84a9-67ff85978f8f","ios":"levelo://app?vid=dd591836-f417-403f-84a9-67ff85978f8f"},"vehicle_type_id":"4","last_reported":1730959950,"current_range_meters":2800,"station_id":"ce4bhn12rcd13ifvqgqg","pricing_plan_id":"cebpf4jnsgd1na2vs0mg"},{"bike_id":"bb017bc9-c270-4adf-9073-adf578799d78","system_id":"levelo_inurba_marseille","lat":43.31712,"lon":5.40466,"is_reserved":false,"is_disabled":false,"rental_uris":{"android":"levelo://app?vid=bb017bc9-c270-4adf-9073-adf578799d78","ios":"levelo://app?vid=bb017bc9-c270-4adf-9073-adf578799d78"},"vehicle_type_id":"4","last_reported":1730959950,"current_range_meters":6800,"station_id":"ce4bh012rcd13ifvqd00","pricing_plan_id":"cebpf4jnsgd1na2vs0mg"},{"bike_id":"82dcf687-2814-4f35-a6b5-3cdfdf897df5","system_id":"levelo_inurba_marseille","lat":43.28269,"lon":5.35074,"is_reserved":false,"is_disabled":false,"rental_uris":{"android":"levelo://app?vid=82dcf687-2814-4f35-a6b5-3cdfdf897df5","ios":"levelo://app?vid=82dcf687-2814-4f35-a6b5-3cdfdf897df5"},"vehicle_type_id":"4","last_reported":1730959950,"current_range_meters":13600,"station_id":"ce4bhbp2rcd13ifvqerg","pricing_plan_id":"cebpf4jnsgd1na2vs0mg"},{"bike_id":"61680a4c-ec35-4c78-acb4-59a8d40b101c","system_id":"levelo_inurba_marseille","lat":43.27611,"lon":5.38513,"is_reserved":false,"is_disabled":false,"rental_uris":{"android":"levelo://app?vid=61680a4c-ec35-4c78-acb4-59a8d40b101c","ios":"levelo://app?vid=61680a4c-ec35-4c78-acb4-59a8d40b101c"},"vehicle_type_id":"4","last_reported":1730959950,"current_range_meters":38000,"station_id":"","pricing_plan_id":"cebpf4jnsgd1na2vs0mg"},{"bike_id":"85359c8d-cc51-4aa1-991a-1be21e554660","system_id":"levelo_inurba_marseille","lat":43.231858,"lon":5.399838,"is_reserved":false,"is_disabled":false,"rental_uris":{"android":"levelo://app?vid=85359c8d-cc51-4aa1-991a-1be21e554660","ios":"levelo://app?vid=85359c8d-cc51-4aa1-991a-1be21e554660"},"vehicle_type_id":"4","last_reported":1730959950,"current_range_meters":8000,"station_id":"ce4bhn12rcd13ifvqgqg","pricing_plan_id":"cebpf4jnsgd1na2vs0mg"},{"bike_id":"38780a4c-9535-4968-b1c7-71a04802861b","system_id":"levelo_inurba_marseille","lat":43.29782,"lon":5.37111,"is_reserved":false,"is_disabled":false,"rental_uris":{"android":"levelo://app?vid=38780a4c-9535-4968-b1c7-71a04802861b","ios":"levelo://app?vid=38780a4c-9535-4968-b1c7-71a04802861b"},"vehicle_type_id":"4","last_reported":1730959950,"current_range_meters":17600,"station_id":"ce4bgop2rcd13ifvqc1g","pricing_plan_id":"cebpf4jnsgd1na2vs0mg"},{"bike_id":"4c469113-4671-499f-ad77-e567c1aaa206","system_id":"levelo_inurba_marseille","lat":43.30645,"lon":5.40107,"is_reserved":false,"is_disabled":false,"rental_uris":{"android":"levelo://app?vid=4c469113-4671-499f-ad77-e567c1aaa206","ios":"levelo://app?vid=4c469113-4671-499f-ad77-e567c1aaa206"},"vehicle_type_id":"4","last_reported":1730959950,"current_range_meters":30400,"station_id":"ce4bh112rcd13ifvqda0","pricing_plan_id":"cebpf4jnsgd1na2vs0mg"},{"bike_id":"4ca3b39a-67b6-4257-9361-c35a6cd149a4","system_id":"levelo_inurba_marseille","lat":43.29626,"lon":5.40596,"is_reserved":false,"is_disabled":false,"rental_uris":{"android":"levelo://app?vid=4ca3b39a-67b6-4257-9361-c35a6cd149a4","ios":"levelo://app?vid=4ca3b39a-67b6-4257-9361-c35a6cd149a4"},"vehicle_type_id":"4","last_reported":1730959950,"current_range_meters":18000,"station_id":"ce4bh0h2rcd13ifvqd60","pricing_plan_id":"cebpf4jnsgd1na2vs0mg"},{"bike_id":"af546fe3-bcc5-4039-9c62-1b20f638cc9c","system_id":"levelo_inurba_marseille","lat":43.275682,"lon":5.384169,"is_reserved":false,"is_disabled":false,"rental_uris":{"android":"levelo://app?vid=af546fe3-bcc5-4039-9c62-1b20f638cc9c","ios":"levelo://app?vid=af546fe3-bcc5-4039-9c62-1b20f638cc9c"},"vehicle_type_id":"4","last_reported":1730959950,"current_range_meters":37600,"station_id":"ce4bhh92rcd13ifvqfi0","pricing_plan_id":"cebpf4jnsgd1na2vs0mg"},{"bike_id":"b90b2c99-8d53-4ffd-bebc-8805e3eaa459","system_id":"levelo_inurba_marseille","lat":43.31283,"lon":5.40165,"is_reserved":false,"is_disabled":false,"rental_uris":{"android":"levelo://app?vid=b90b2c99-8d53-4ffd-bebc-8805e3eaa459","ios":"levelo://app?vid=b90b2c99-8d53-4ffd-bebc-8805e3eaa459"},"vehicle_type_id":"4","last_reported":1730959950,"current_range_meters":27200,"station_id":"ce4bh092rcd13ifvqd30","pricing_plan_id":"cebpf4jnsgd1na2vs0mg"},{"bike_id":"5335c7ad-0841-43aa-932e-a1f6a43a39ae","system_id":"levelo_inurba_marseille","lat":43.28704,"lon":5.37394,"is_reserved":false,"is_disabled":false,"rental_uris":{"android":"levelo://app?vid=5335c7ad-0841-43aa-932e-a1f6a43a39ae","ios":"levelo://app?vid=5335c7ad-0841-43aa-932e-a1f6a43a39ae"},"vehicle_type_id":"4","last_reported":1730959950,"current_range_meters":38800,"station_id":"ce4bh3p2rcd13ifvqdq0","pricing_plan_id":"cebpf4jnsgd1na2vs0mg"},{"bike_id":"bba06b43-6432-4aee-9aae-4b24dc703daf","system_id":"levelo_inurba_marseille","lat":43.28726,"lon":5.36087,"is_reserved":false,"is_disabled":false,"rental_uris":{"android":"levelo://app?vid=bba06b43-6432-4aee-9aae-4b24dc703daf","ios":"levelo://app?vid=bba06b43-6432-4aee-9aae-4b24dc703daf"},"vehicle_type_id":"4","last_reported":1730959950,"current_range_meters":38800,"station_id":"cki0cbj6b192h4jlfktg","pricing_plan_id":"cebpf4jnsgd1na2vs0mg"},{"bike_id":"76dabfb5-4800-416a-a39c-36296f06ea42","system_id":"levelo_inurba_marseille","lat":43.30891,"lon":5.37204,"is_reserved":false,"is_disabled":false,"rental_uris":{"android":"levelo://app?vid=76dabfb5-4800-416a-a39c-36296f06ea42","ios":"levelo://app?vid=76dabfb5-4800-416a-a39c-36296f06ea42"},"vehicle_type_id":"4","last_reported":1730959950,"current_range_meters":37600,"station_id":"ce4bguh2rcd13ifvqckg","pricing_plan_id":"cebpf4jnsgd1na2vs0mg"},{"bike_id":"26ee007d-c521-4271-a726-fe0c9aeca07e","system_id":"levelo_inurba_marseille","lat":43.33114,"lon":5.38224,"is_reserved":false,"is_disabled":false,"rental_uris":{"android":"levelo://app?vid=26ee007d-c521-4271-a726-fe0c9aeca07e","ios":"levelo://app?vid=26ee007d-c521-4271-a726-fe0c9aeca07e"},"vehicle_type_id":"4","last_reported":1730959950,"current_range_meters":12400,"station_id":"","pricing_plan_id":"cebpf4jnsgd1na2vs0mg"},{"bike_id":"7b03e489-e38f-490f-b482-ed7db3c26bb0","system_id":"levelo_inurba_marseille","lat":43.29881,"lon":5.39736,"is_reserved":false,"is_disabled":false,"rental_uris":{"android":"levelo://app?vid=7b03e489-e38f-490f-b482-ed7db3c26bb0","ios":"levelo://app?vid=7b03e489-e38f-490f-b482-ed7db3c26bb0"},"vehicle_type_id":"4","last_reported":1730959950,"current_range_meters":28000,"station_id":"ce4bh0h2rcd13ifvqd50","pricing_plan_id":"cebpf4jnsgd1na2vs0mg"},{"bike_id":"ced8706c-4472-4b4f-8a25-94042c427a41","system_id":"levelo_inurba_marseille","lat":43.30356,"lon":5.41875,"is_reserved":false,"is_disabled":false,"rental_uris":{"android":"levelo://app?vid=ced8706c-4472-4b4f-8a25-94042c427a41","ios":"levelo://app?vid=ced8706c-4472-4b4f-8a25-94042c427a41"},"vehicle_type_id":"4","last_reported":1730959950,"current_range_meters":39200,"station_id":"ce4bhop2rcd13ifvqh7g","pricing_plan_id":"cebpf4jnsgd1na2vs0mg"},{"bike_id":"cd0dc4f3-d529-46fe-b422-b20da277e4f3","system_id":"levelo_inurba_marseille","lat":43.30143,"lon":5.37425,"is_reserved":false,"is_disabled":false,"rental_uris":{"android":"levelo://app?vid=cd0dc4f3-d529-46fe-b422-b20da277e4f3","ios":"levelo://app?vid=cd0dc4f3-d529-46fe-b422-b20da277e4f3"},"vehicle_type_id":"4","last_reported":1730959950,"current_range_meters":19600,"station_id":"ce4bgs92rcd13ifvqcc0","pricing_plan_id":"cebpf4jnsgd1na2vs0mg"},{"bike_id":"82e9ea93-4a43-4d8f-b3a4-4c2b075f6c82","system_id":"levelo_inurba_marseille","lat":43.316992,"lon":5.404662,"is_reserved":false,"is_disabled":false,"rental_uris":{"android":"levelo://app?vid=82e9ea93-4a43-4d8f-b3a4-4c2b075f6c82","ios":"levelo://app?vid=82e9ea93-4a43-4d8f-b3a4-4c2b075f6c82"},"vehicle_type_id":"4","last_reported":1730959950,"current_range_meters":39200,"station_id":"ce4bh012rcd13ifvqd00","pricing_plan_id":"cebpf4jnsgd1na2vs0mg"},{"bike_id":"f7580a0d-9afe-4cc1-8e42-f3683f9d2ed1","system_id":"levelo_inurba_marseille","lat":43.27909,"lon":5.38011,"is_reserved":false,"is_disabled":false,"rental_uris":{"android":"levelo://app?vid=f7580a0d-9afe-4cc1-8e42-f3683f9d2ed1","ios":"levelo://app?vid=f7580a0d-9afe-4cc1-8e42-f3683f9d2ed1"},"vehicle_type_id":"4","last_reported":1730959950,"current_range_meters":10000,"station_id":"ce4bhf92rcd13ifvqf50","pricing_plan_id":"cebpf4jnsgd1na2vs0mg"},{"bike_id":"c66cfd2b-6b27-48f4-8608-0c3afce51f13","system_id":"levelo_inurba_marseille","lat":43.30888,"lon":5.39643,"is_reserved":false,"is_disabled":false,"rental_uris":{"android":"levelo://app?vid=c66cfd2b-6b27-48f4-8608-0c3afce51f13","ios":"levelo://app?vid=c66cfd2b-6b27-48f4-8608-0c3afce51f13"},"vehicle_type_id":"4","last_reported":1730959950,"current_range_meters":24000,"station_id":"ce4bh012rcd13ifvqcv0","pricing_plan_id":"cebpf4jnsgd1na2vs0mg"},{"bike_id":"95a18c43-005b-4f4c-a0a0-e2f3ea31cfab","system_id":"levelo_inurba_marseille","lat":43.26063,"lon":5.39394,"is_reserved":false,"is_disabled":false,"rental_uris":{"android":"levelo://app?vid=95a18c43-005b-4f4c-a0a0-e2f3ea31cfab","ios":"levelo://app?vid=95a18c43-005b-4f4c-a0a0-e2f3ea31cfab"},"vehicle_type_id":"4","last_reported":1730959950,"current_range_meters":27200,"station_id":"ce4bhh92rcd13ifvqfj0","pricing_plan_id":"cebpf4jnsgd1na2vs0mg"},{"bike_id":"63679012-d0a0-44a9-a805-20815a46a99d","system_id":"levelo_inurba_marseille","lat":43.30784,"lon":5.40037,"is_reserved":false,"is_disabled":false,"rental_uris":{"android":"levelo://app?vid=63679012-d0a0-44a9-a805-20815a46a99d","ios":"levelo://app?vid=63679012-d0a0-44a9-a805-20815a46a99d"},"vehicle_type_id":"4","last_reported":1730959950,"current_range_meters":8800,"station_id":"","pricing_plan_id":"cebpf4jnsgd1na2vs0mg"},{"bike_id":"b5738913-2886-4b79-9515-3dd20595a79d","system_id":"levelo_inurba_marseille","lat":43.27379,"lon":5.36259,"is_reserved":false,"is_disabled":false,"rental_uris":{"android":"levelo://app?vid=b5738913-2886-4b79-9515-3dd20595a79d","ios":"levelo://app?vid=b5738913-2886-4b79-9515-3dd20595a79d"},"vehicle_type_id":"4","last_reported":1730959950,"current_range_meters":38800,"station_id":"ce4bhbh2rcd13ifvqeo0","pricing_plan_id":"cebpf4jnsgd1na2vs0mg"},{"bike_id":"887340df-7083-4187-8953-4bc94f3e841b","system_id":"levelo_inurba_marseille","lat":43.31179,"lon":5.38711,"is_reserved":false,"is_disabled":false,"rental_uris":{"android":"levelo://app?vid=887340df-7083-4187-8953-4bc94f3e841b","ios":"levelo://app?vid=887340df-7083-4187-8953-4bc94f3e841b"},"vehicle_type_id":"4","last_reported":1730959950,"current_range_meters":38400,"station_id":"ce4bgv12rcd13ifvqcp0","pricing_plan_id":"cebpf4jnsgd1na2vs0mg"},{"bike_id":"0007c120-2b8f-49c1-b3a2-b69854c6b2ad","system_id":"levelo_inurba_marseille","lat":43.27997,"lon":5.40008,"is_reserved":false,"is_disabled":false,"rental_uris":{"android":"levelo://app?vid=0007c120-2b8f-49c1-b3a2-b69854c6b2ad","ios":"levelo://app?vid=0007c120-2b8f-49c1-b3a2-b69854c6b2ad"},"vehicle_type_id":"4","last_reported":1730959950,"current_range_meters":29600,"station_id":"ce4bho92rcd13ifvqh4g","pricing_plan_id":"cebpf4jnsgd1na2vs0mg"},{"bike_id":"3f314870-52dc-415d-ae40-b2bd80bd40bc","system_id":"levelo_inurba_marseille","lat":43.31125,"lon":5.37759,"is_reserved":false,"is_disabled":false,"rental_uris":{"android":"levelo://app?vid=3f314870-52dc-415d-ae40-b2bd80bd40bc","ios":"levelo://app?vid=3f314870-52dc-415d-ae40-b2bd80bd40bc"},"vehicle_type_id":"4","last_reported":1730959950,"current_range_meters":11600,"station_id":"ce4bgt92rcd13ifvqcg0","pricing_plan_id":"cebpf4jnsgd1na2vs0mg"},{"bike_id":"0676d849-58b6-4143-8d93-e6ea116edbf5","system_id":"levelo_inurba_marseille","lat":43.257302,"lon":5.411055,"is_reserved":false,"is_disabled":false,"rental_uris":{"android":"levelo://app?vid=0676d849-58b6-4143-8d93-e6ea116edbf5","ios":"levelo://app?vid=0676d849-58b6-4143-8d93-e6ea116edbf5"},"vehicle_type_id":"4","last_reported":1730959950,"current_range_meters":39200,"station_id":"ce4bhkp2rcd13ifvqgd0","pricing_plan_id":"cebpf4jnsgd1na2vs0mg"},{"bike_id":"76a6e6d2-4686-4b04-b754-fb622b90a2bd","system_id":"levelo_inurba_marseille","lat":43.30135,"lon":5.39884,"is_reserved":false,"is_disabled":false,"rental_uris":{"android":"levelo://app?vid=76a6e6d2-4686-4b04-b754-fb622b90a2bd","ios":"levelo://app?vid=76a6e6d2-4686-4b04-b754-fb622b90a2bd"},"vehicle_type_id":"4","last_reported":1730959950,"current_range_meters":38000,"station_id":"ce4bh0h2rcd13ifvqd40","pricing_plan_id":"cebpf4jnsgd1na2vs0mg"},{"bike_id":"35157b21-5c79-4034-925a-c42c1f251a68","system_id":"levelo_inurba_marseille","lat":43.29228,"lon":5.36074,"is_reserved":false,"is_disabled":false,"rental_uris":{"android":"levelo://app?vid=35157b21-5c79-4034-925a-c42c1f251a68","ios":"levelo://app?vid=35157b21-5c79-4034-925a-c42c1f251a68"},"vehicle_type_id":"4","last_reported":1730959950,"current_range_meters":36800,"station_id":"ce4bhbh2rcd13ifvqeqg","pricing_plan_id":"cebpf4jnsgd1na2vs0mg"},{"bike_id":"08ea0481-773d-4f98-aecd-294cbb3bff31","system_id":"levelo_inurba_marseille","lat":43.3172,"lon":5.42404,"is_reserved":false,"is_disabled":false,"rental_uris":{"android":"levelo://app?vid=08ea0481-773d-4f98-aecd-294cbb3bff31","ios":"levelo://app?vid=08ea0481-773d-4f98-aecd-294cbb3bff31"},"vehicle_type_id":"4","last_reported":1730959950,"current_range_meters":38000,"station_id":"ce4bhp92rcd13ifvqhbg","pricing_plan_id":"cebpf4jnsgd1na2vs0mg"},{"bike_id":"8436ecb3-47e0-4cca-9ae8-d7421c2f92f4","system_id":"levelo_inurba_marseille","lat":43.2319,"lon":5.39984,"is_reserved":false,"is_disabled":false,"rental_uris":{"android":"levelo://app?vid=8436ecb3-47e0-4cca-9ae8-d7421c2f92f4","ios":"levelo://app?vid=8436ecb3-47e0-4cca-9ae8-d7421c2f92f4"},"vehicle_type_id":"4","last_reported":1730959950,"current_range_meters":7200,"station_id":"ce4bhn12rcd13ifvqgqg","pricing_plan_id":"cebpf4jnsgd1na2vs0mg"},{"bike_id":"20c6ca9a-76ba-4e3f-9eeb-2a6da9712f70","system_id":"levelo_inurba_marseille","lat":43.31285,"lon":5.40165,"is_reserved":false,"is_disabled":false,"rental_uris":{"android":"levelo://app?vid=20c6ca9a-76ba-4e3f-9eeb-2a6da9712f70","ios":"levelo://app?vid=20c6ca9a-76ba-4e3f-9eeb-2a6da9712f70"},"vehicle_type_id":"4","last_reported":1730959950,"current_range_meters":11600,"station_id":"ce4bh092rcd13ifvqd30","pricing_plan_id":"cebpf4jnsgd1na2vs0mg"},{"bike_id":"0235ad22-6d87-4f43-b0e9-92ff12bebbf1","system_id":"levelo_inurba_marseille","lat":43.24647,"lon":5.38897,"is_reserved":false,"is_disabled":false,"rental_uris":{"android":"levelo://app?vid=0235ad22-6d87-4f43-b0e9-92ff12bebbf1","ios":"levelo://app?vid=0235ad22-6d87-4f43-b0e9-92ff12bebbf1"},"vehicle_type_id":"4","last_reported":1730959950,"current_range_meters":38800,"station_id":"ce4bhg12rcd13ifvqf60","pricing_plan_id":"cebpf4jnsgd1na2vs0mg"},{"bike_id":"2a4f5f71-d6be-4e4b-8a26-e0469ed26788","system_id":"levelo_inurba_marseille","lat":43.27317,"lon":5.39067,"is_reserved":false,"is_disabled":false,"rental_uris":{"android":"levelo://app?vid=2a4f5f71-d6be-4e4b-8a26-e0469ed26788","ios":"levelo://app?vid=2a4f5f71-d6be-4e4b-8a26-e0469ed26788"},"vehicle_type_id":"4","last_reported":1730959950,"current_range_meters":16000,"station_id":"ce4bhgp2rcd13ifvqfe0","pricing_plan_id":"cebpf4jnsgd1na2vs0mg"},{"bike_id":"5fc23a67-3a78-46a3-b905-651fb2a11995","system_id":"levelo_inurba_marseille","lat":43.30465,"lon":5.3792,"is_reserved":false,"is_disabled":false,"rental_uris":{"android":"levelo://app?vid=5fc23a67-3a78-46a3-b905-651fb2a11995","ios":"levelo://app?vid=5fc23a67-3a78-46a3-b905-651fb2a11995"},"vehicle_type_id":"4","last_reported":1730959950,"current_range_meters":35600,"station_id":"ce4bgup2rcd13ifvqcn0","pricing_plan_id":"cebpf4jnsgd1na2vs0mg"},{"bike_id":"e8815619-1b4d-4c61-b8a2-2a31305640dd","system_id":"levelo_inurba_marseille","lat":43.24547,"lon":5.39529,"is_reserved":false,"is_disabled":false,"rental_uris":{"android":"levelo://app?vid=e8815619-1b4d-4c61-b8a2-2a31305640dd","ios":"levelo://app?vid=e8815619-1b4d-4c61-b8a2-2a31305640dd"},"vehicle_type_id":"4","last_reported":1730959950,"current_range_meters":37600,"station_id":"ce4bhlp2rcd13ifvqgjg","pricing_plan_id":"cebpf4jnsgd1na2vs0mg"},