{"last_updated":1702109320,"ttl":30,"version":"2.2","data":{"bikes":[{"bike_id":"fd8a89d2-6163-49fb-93c4-c0e1984bab08","system_id":"levelo_inurba_marseille","lat":43.305714,"lon":5.365633,"is_reserved":false,"is_disabled":false,"rental_uris":{"android":"levelo://app?vid=fd8a89d2-6163-49fb-93c4-c0e1984bab08","ios":"levelo://app?vid=fd8a89d2-6163-49fb-93c4-c0e1984bab08"},"vehicle_type_id":"4","last_reported":1702109320,"current_range_meters":29200,"station_id":"ce4bgs12rcd13ifvqcag","pricing_plan_id":"free"},{"bike_id":"e97d32cf-3dcb-4f5a-9412-c4dbad9b95ac","system_id":"levelo_inurba_marseille","lat":43.305714,"lon":5.365633,"is_reserved":false,"is_disabled":false,"rental_uris":{"android":"levelo://app?vid=e97d32cf-3dcb-4f5a-9412-c4dbad9b95ac","ios":"levelo://app?vid=e97d32cf-3dcb-4f5a-9412-c4dbad9b95ac"},"vehicle_type_id":"4","last_reported":1702109320,"current_range_meters":26400,"station_id":"ce4bgs12rcd13ifvqcag","pricing_plan_id":"free"},{"bike_id":"c7e69eb3-d404-488e-8bb1-e80ea560fab0","system_id":"levelo_inurba_marseille","lat":43.305989,"lon":5.37225,"is_reserved":false,"is_disabled":false,"rental_uris":{"android":"levelo://app?vid=c7e69eb3-d404-488e-8bb1-e80ea560fab0","ios":"levelo://app?vid=c7e69eb3-d404-488e-8bb1-e80ea560fab0"},"vehicle_type_id":"4","last_reported":1702109320,"current_range_meters":22800,"station_id":"ce4bgqh2rcd13ifvqc4g","pricing_plan_id":"free"},{"bike_id":"1b7112ec-01c6-4bed-9da4-c617084e1246","system_id":"levelo_inurba_marseille","lat":43.30593,"lon":5.37235,"is_reserved":false,"is_disabled":false,"rental_uris":{"android":"levelo://app?vid=1b7112ec-01c6-4bed-9da4-c617084e1246","ios":"levelo://app?vid=1b7112ec-01c6-4bed-9da4-c617084e1246"},"vehicle_type_id":"4","last_reported":1702109320,"current_range_meters":25200,"station_id":"ce4bgqh2rcd13ifvqc4g","pricing_plan_id":"free"},{"bike_id":"96cb9cf6-aeb8-4939-8812-91e1da3575f1","system_id":"levelo_inurba_marseille","lat":43.317075,"lon":5.377367,"is_reserved":false,"is_disabled":false,"rental_uris":{"android":"levelo://app?vid=96cb9cf6-aeb8-4939-8812-91e1da3575f1","ios":"levelo://app?vid=96cb9cf6-aeb8-4939-8812-91e1da3575f1"},"vehicle_type_id":"4","last_reported":1702109320,"current_range_meters":30000,"station_id":"ce4bgth2rcd13ifvqch0","pricing_plan_id":"free"},{"bike_id":"e50a0d9c-af0a-4e60-b6b7-2f9fc9cf5c58","system_id":"levelo_inurba_marseille","lat":43.317075,"lon":5.377367,"is_reserved":false,"is_disabled":false,"rental_uris":{"android":"levelo://app?vid=e50a0d9c-af0a-4e60-b6b7-2f9fc9cf5c58","ios":"levelo://app?vid=e50a0d9c-af0a-4e60-b6b7-2f9fc9cf5c58"},"vehicle_type_id":"4","last_reported":1702109320,"current_range_meters":23600,"station_id":"ce4bgth2rcd13ifvqch0","pricing_plan_id":"free"},{"bike_id":"884158e6-8ed4-4fe3-9553-eb4fe8c63194","system_id":"levelo_inurba_marseille","lat":43.31533,"lon":5.3803,"is_reserved":false,"is_disabled":false,"rental_uris":{"android":"levelo://app?vid=884158e6-8ed4-4fe3-9553-eb4fe8c63194","ios":"levelo://app?vid=884158e6-8ed4-4fe3-9553-eb4fe8c63194"},"vehicle_type_id":"4","last_reported":1702109320,"current_range_meters":21600,"station_id":"ce4bhsp2rcd13ifvqi50","pricing_plan_id":"free"},{"bike_id":"23de9ff1-8b1e-4261-b6db-8784d365fe4f","system_id":"levelo_inurba_marseille","lat":43.301939,"lon":5.366286,"is_reserved":false,"is_disabled":false,"rental_uris":{"android":"levelo://app?vid=23de9ff1-8b1e-4261-b6db-8784d365fe4f","ios":"levelo://app?vid=23de9ff1-8b1e-4261-b6db-8784d365fe4f"},"vehicle_type_id":"4","last_reported":1702109320,"current_range_meters":29200,"station_id":"ce4bgrh2rcd13ifvqc8g","pricing_plan_id":"free"},{"bike_id":"cf023c7c-4d54-4d2d-b543-55175c33bc86","system_id":"levelo_inurba_marseille","lat":43.304606,"lon":5.379026,"is_reserved":false,"is_disabled":false,"rental_uris":{"android":"levelo://app?vid=cf023c7c-4d54-4d2d-b543-55175c33bc86","ios":"levelo://app?vid=cf023c7c-4d54-4d2d-b543-55175c33bc86"},"vehicle_type_id":"4","last_reported":1702109320,"current_range_meters":20800,"station_id":"ce4bgup2rcd13ifvqcn0","pricing_plan_id":"free"},{"bike_id":"370fdddc-6cc0-4cf4-84ef-fed870a5b8b5","system_id":"levelo_inurba_marseille","lat":43.304606,"lon":5.379026,"is_reserved":false,"is_disabled":false,"rental_uris":{"android":"levelo://app?vid=370fdddc-6cc0-4cf4-84ef-fed870a5b8b5","ios":"levelo://app?vid=370fdddc-6cc0-4cf4-84ef-fed870a5b8b5"},"vehicle_type_id":"4","last_reported":1702109320,"current_range_meters":29200,"station_id":"ce4bgup2rcd13ifvqcn0","pricing_plan_id":"free"},{"bike_id":"924c7182-8d77-41cb-a263-1f83b21f0af5","system_id":"levelo_inurba_marseille","lat":43.302784,"lon":5.377158,"is_reserved":false,"is_disabled":false,"rental_uris":{"android":"levelo://app?vid=924c7182-8d77-41cb-a263-1f83b21f0af5","ios":"levelo://app?vid=924c7182-8d77-41cb-a263-1f83b21f0af5"},"vehicle_type_id":"4","last_reported":1702109320,"current_range_meters":18000,"station_id":"ce4bguh2rcd13ifvqcj0","pricing_plan_id":"free"},{"bike_id":"d32d2bb0-57e0-4c22-83ea-53fe045920d6","system_id":"levelo_inurba_marseille","lat":43.302784,"lon":5.377158,"is_reserved":false,"is_disabled":false,"rental_uris":{"android":"levelo://app?vid=d32d2bb0-57e0-4c22-83ea-53fe045920d6","ios":"levelo://app?vid=d32d2bb0-57e0-4c22-83ea-53fe045920d6"},"vehicle_type_id":"4","last_reported":1702109320,"current_range_meters":28400,"station_id":"ce4bguh2rcd13ifvqcj0","pricing_plan_id":"free"},{"bike_id":"12c5ed45-dd2b-4f3d-92a2-007b91a2b718","system_id":"levelo_inurba_marseille","lat":43.319962,"lon":5.381477,"is_reserved":false,"is_disabled":false,"rental_uris":{"android":"levelo://app?vid=12c5ed45-dd2b-4f3d-92a2-007b91a2b718","ios":"levelo://app?vid=12c5ed45-dd2b-4f3d-92a2-007b91a2b718"},"vehicle_type_id":"4","last_reported":1702109320,"current_range_meters":14000,"station_id":"ce4bhr12rcd13ifvqhpg","pricing_plan_id":"free"},{"bike_id":"ee0e638f-d618-41fa-ac21-fbf44fdd47b0","system_id":"levelo_inurba_marseille","lat":43.31998,"lon":5.38151,"is_reserved":false,"is_disabled":false,"rental_uris":{"android":"levelo://app?vid=ee0e638f-d618-41fa-ac21-fbf44fdd47b0","ios":"levelo://app?vid=ee0e638f-d618-41fa-ac21-fbf44fdd47b0"},"vehicle_type_id":"4","last_reported":1702109320,"current_range_meters":30000,"station_id":"ce4bhr12rcd13ifvqhpg","pricing_plan_id":"free"},{"bike_id":"bc5fbb97-360a-4591-ac4b-df0879d1eab4","system_id":"levelo_inurba_marseille","lat":43.31356,"lon":5.38493,"is_reserved":false,"is_disabled":false,"rental_uris":{"android":"levelo://app?vid=bc5fbb97-360a-4591-ac4b-df0879d1eab4","ios":"levelo://app?vid=bc5fbb97-360a-4591-ac4b-df0879d1eab4"},"vehicle_type_id":"4","last_reported":1702109320,"current_range_meters":23600,"station_id":"ce4bgt92rcd13ifvqcf0","pricing_plan_id":"free"},{"bike_id":"c41aefca-4add-46b9-8fc0-22df8388f249","system_id":"levelo_inurba_marseille","lat":43.297794,"lon":5.370888,"is_reserved":false,"is_disabled":false,"rental_uris":{"android":"levelo://app?vid=c41aefca-4add-46b9-8fc0-22df8388f249","ios":"levelo://app?vid=c41aefca-4add-46b9-8fc0-22df8388f249"},"vehicle_type_id":"4","last_reported":1702109320,"current_range_meters":24400,"station_id":"ce4bgop2rcd13ifvqc1g","pricing_plan_id":"free"},{"bike_id":"62530057-5868-4165-b8d2-5109a890bbeb","system_id":"levelo_inurba_marseille","lat":43.297794,"lon":5.370888,"is_reserved":false,"is_disabled":false,"rental_uris":{"android":"levelo://app?vid=62530057-5868-4165-b8d2-5109a890bbeb","ios":"levelo://app?vid=62530057-5868-4165-b8d2-5109a890bbeb"},"vehicle_type_id":"4","last_reported":1702109320,"current_range_meters":22400,"station_id":"ce4bgop2rcd13ifvqc1g","pricing_plan_id":"free"},{"bike_id":"38f1223e-a214-4eb0-9b54-a70de861d11b","system_id":"levelo_inurba_marseille","lat":43.322872,"lon":5.382756,"is_reserved":false,"is_disabled":false,"rental_uris":{"android":"levelo://app?vid=38f1223e-a214-4eb0-9b54-a70de861d11b","ios":"levelo://app?vid=38f1223e-a214-4eb0-9b54-a70de861d11b"},"vehicle_type_id":"4","last_reported":1702109320,"current_range_meters":23600,"station_id":"ce4bhr12rcd13ifvqhqg","pricing_plan_id":"free"},{"bike_id":"d04bedf3-fa0d-476a-afc0-f8735ca347d1","system_id":"levelo_inurba_marseille","lat":43.322872,"lon":5.382756,"is_reserved":false,"is_disabled":false,"rental_uris":{"android":"levelo://app?vid=d04bedf3-fa0d-476a-afc0-f8735ca347d1","ios":"levelo://app?vid=d04bedf3-fa0d-476a-afc0-f8735ca347d1"},"vehicle_type_id":"4","last_reported":1702109320,"current_range_meters":4800,"station_id":"ce4bhr12rcd13ifvqhqg","pricing_plan_id":"free"},{"bike_id":"c7434962-efe8-4461-8be2-21b47b98f22c","system_id":"levelo_inurba_marseille","lat":43.322872,"lon":5.382756,"is_reserved":false,"is_disabled":false,"rental_uris":{"android":"levelo://app?vid=c7434962-efe8-4461-8be2-21b47b98f22c","ios":"levelo://app?vid=c7434962-efe8-4461-8be2-21b47b98f22c"},"vehicle_type_id":"4","last_reported":1702109320,"current_range_meters":16800,"station_id":"ce4bhr12rcd13ifvqhqg","pricing_plan_id":"free"},{"bike_id":"6ac675f1-e0be-498c-ad2f-b742a949d4b0","system_id":"levelo_inurba_marseille","lat":43.298218,"lon":5.374416,"is_reserved":false,"is_disabled":false,"rental_uris":{"android":"levelo://app?vid=6ac675f1-e0be-498c-ad2f-b742a949d4b0","ios":"levelo://app?vid=6ac675f1-e0be-498c-ad2f-b742a949d4b0"},"vehicle_type_id":"4","last_reported":1702109320,"current_range_meters":2800,"station_id":"","pricing_plan_id":"free"},{"bike_id":"594379a6-9dbe-4ac5-9a3c-a7cbcc29e291","system_id":"levelo_inurba_marseille","lat":43.328258,"lon":5.366837,"is_reserved":false,"is_disabled":false,"rental_uris":{"android":"levelo://app?vid=594379a6-9dbe-4ac5-9a3c-a7cbcc29e291","ios":"levelo://app?vid=594379a6-9dbe-4ac5-9a3c-a7cbcc29e291"},"vehicle_type_id":"4","last_reported":1702109320,"current_range_meters":24400,"station_id":"ce4bhs92rcd13ifvqi0g","pricing_plan_id":"free"},{"bike_id":"ee60dd09-2b5b-4f0b-8fbe-5c1a8b48e0ab","system_id":"levelo_inurba_marseille","lat":43.297163,"lon":5.365866,"is_reserved":false,"is_disabled":false,"rental_uris":{"android":"levelo://app?vid=ee60dd09-2b5b-4f0b-8fbe-5c1a8b48e0ab","ios":"levelo://app?vid=ee60dd09-2b5b-4f0b-8fbe-5c1a8b48e0ab"},"vehicle_type_id":"4","last_reported":1702109320,"current_range_meters":22000,"station_id":"ce4bgn12rcd13ifvqbt0","pricing_plan_id":"free"},{"bike_id":"8f71061e-11da-47dc-b6b6-1fef310f637a","system_id":"levelo_inurba_marseille","lat":43.2968,"lon":5.37291,"is_reserved":false,"is_disabled":false,"rental_uris":{"android":"levelo://app?vid=8f71061e-11da-47dc-b6b6-1fef310f637a","ios":"levelo://app?vid=8f71061e-11da-47dc-b6b6-1fef310f637a"},"vehicle_type_id":"4","last_reported":1702109320,"current_range_meters":29600,"station_id":"ce4bgk12rcd13ifvqbj0","pricing_plan_id":"free"},{"bike_id":"cb3150b9-f5c3-41cd-96bf-a86361bea72c","system_id":"levelo_inurba_marseille","lat":43.296262,"lon":5.371514,"is_reserved":false,"is_disabled":false,"rental_uris":{"android":"levelo://app?vid=cb3150b9-f5c3-41cd-96bf-a86361bea72c","ios":"levelo://app?vid=cb3150b9-f5c3-41cd-96bf-a86361bea72c"},"vehicle_type_id":"4","last_reported":1702109320,"current_range_meters":25600,"station_id":"","pricing_plan_id":"free"},{"bike_id":"ff7d43a8-dfef-4523-9e21-a8e04fe4808e","system_id":"levelo_inurba_marseille","lat":43.296224,"lon":5.371532,"is_reserved":false,"is_disabled":false,"rental_uris":{"android":"levelo://app?vid=ff7d43a8-dfef-4523-9e21-a8e04fe4808e","ios":"levelo://app?vid=ff7d43a8-dfef-4523-9e21-a8e04fe4808e"},"vehicle_type_id":"4","last_reported":1702109320,"current_range_meters":20800,"station_id":"","pricing_plan_id":"free"},{"bike_id":"92dc65d6-6823-4de3-93d4-056f738f090c","system_id":"levelo_inurba_marseille","lat":43.316538,"lon":5.38954,"is_reserved":false,"is_disabled":false,"rental_uris":{"android":"levelo://app?vid=92dc65d6-6823-4de3-93d4-056f738f090c","ios":"levelo://app?vid=92dc65d6-6823-4de3-93d4-056f738f090c"},"vehicle_type_id":"4","last_reported":1702109320,"current_range_meters":0,"station_id":"","pricing_plan_id":"free"},{"bike_id":"87389395-e993-4cad-b394-fc2ef07ae09e","system_id":"levelo_inurba_marseille","lat":43.29573,"lon":5.367355,"is_reserved":false,"is_disabled":false,"rental_uris":{"android":"levelo://app?vid=87389395-e993-4cad-b394-fc2ef07ae09e","ios":"levelo://app?vid=87389395-e993-4cad-b394-fc2ef07ae09e"},"vehicle_type_id":"4","last_reported":1702109320,"current_range_meters":30000,"station_id":"ce4bgph2rcd13ifvqc2g","pricing_plan_id":"free"},{"bike_id":"876532af-199e-486a-937f-82e75b08f425","system_id":"levelo_inurba_marseille","lat":43.29573,"lon":5.367355,"is_reserved":false,"is_disabled":false,"rental_uris":{"android":"levelo://app?vid=876532af-199e-486a-937f-82e75b08f425","ios":"levelo://app?vid=876532af-199e-486a-937f-82e75b08f425"},"vehicle_type_id":"4","last_reported":1702109320,"current_range_meters":31200,"station_id":"ce4bgph2rcd13ifvqc2g","pricing_plan_id":"free"},{"bike_id":"ac280f89-2064-454f-aa7e-d1c8bd6e9377","system_id":"levelo_inurba_marseille","lat":43.29579,"lon":5.36739,"is_reserved":false,"is_disabled":false,"rental_uris":{"android":"levelo://app?vid=ac280f89-2064-454f-aa7e-d1c8bd6e9377","ios":"levelo://app?vid=ac280f89-2064-454f-aa7e-d1c8bd6e9377"},"vehicle_type_id":"4","last_reported":1702109320,"current_range_meters":20400,"station_id":"ce4bgph2rcd13ifvqc2g","pricing_plan_id":"free"},{"bike_id":"ba2dbab4-5bf1-415d-8d8c-538c104b9cf3","system_id":"levelo_inurba_marseille","lat":43.29573,"lon":5.367355,"is_reserved":false,"is_disabled":false,"rental_uris":{"android":"levelo://app?vid=ba2dbab4-5bf1-415d-8d8c-538c104b9cf3","ios":"levelo://app?vid=ba2dbab4-5bf1-415d-8d8c-538c104b9cf3"},"vehicle_type_id":"4","last_reported":1702109320,"current_range_meters":26400,"station_id":"ce4bgph2rcd13ifvqc2g","pricing_plan_id":"free"},{"bike_id":"2a575d3a-98b5-4c9d-a8c1-5f45d28f2040","system_id":"levelo_inurba_marseille","lat":43.296935,"lon":5.376544,"is_reserved":false,"is_disabled":false,"rental_uris":{"android":"levelo://app?vid=2a575d3a-98b5-4c9d-a8c1-5f45d28f2040","ios":"levelo://app?vid=2a575d3a-98b5-4c9d-a8c1-5f45d28f2040"},"vehicle_type_id":"4","last_reported":1702109320,"current_range_meters":13600,"station_id":"ce4bgkh2rcd13ifvqbl0","pricing_plan_id":"free"},{"bike_id":"d30a5129-9b2e-4dd2-bdbd-27264148d65f","system_id":"levelo_inurba_marseille","lat":43.296921,"lon":5.376579,"is_reserved":false,"is_disabled":false,"rental_uris":{"android":"levelo://app?vid=d30a5129-9b2e-4dd2-bdbd-27264148d65f","ios":"levelo://app?vid=d30a5129-9b2e-4dd2-bdbd-27264148d65f"},"vehicle_type_id":"4","last_reported":1702109320,"current_range_meters":21600,"station_id":"ce4bgkh2rcd13ifvqbl0","pricing_plan_id":"free"},{"bike_id":"228baed1-e399-40e0-a2e5-7b8608918327","system_id":"levelo_inurba_marseille","lat":43.317557,"lon":5.390173,"is_reserved":false,"is_disabled":false,"rental_uris":{"android":"levelo://app?vid=228baed1-e399-40e0-a2e5-7b8608918327","ios":"levelo://app?vid=228baed1-e399-40e0-a2e5-7b8608918327"},"vehicle_type_id":"4","last_reported":1702109320,"current_range_meters":29600,"station_id":"ce4bhqp2rcd13ifvqhng","pricing_plan_id":"free"},{"bike_id":"2ba3d187-866c-4a09-817b-c1c02eaa1f0f","system_id":"levelo_inurba_marseille","lat":43.317557,"lon":5.390173,"is_reserved":false,"is_disabled":false,"rental_uris":{"android":"levelo://app?vid=2ba3d187-866c-4a09-817b-c1c02eaa1f0f","ios":"levelo://app?vid=2ba3d187-866c-4a09-817b-c1c02eaa1f0f"},"vehicle_type_id":"4","last_reported":1702109320,"current_range_meters":29600,"station_id":"ce4bhqp2rcd13ifvqhng","pricing_plan_id":"free"},{"bike_id":"4a1a8ed0-1f65-4c2c-8253-94af66a12fd5","system_id":"levelo_inurba_marseille","lat":43.298037,"lon":5.381066,"is_reserved":false,"is_disabled":false,"rental_uris":{"android":"levelo://app?vid=4a1a8ed0-1f65-4c2c-8253-94af66a12fd5","ios":"levelo://app?vid=4a1a8ed0-1f65-4c2c-8253-94af66a12fd5"},"vehicle_type_id":"4","last_reported":1702109320,"current_range_meters":20000,"station_id":"ce4bgip2rcd13ifvqbb0","pricing_plan_id":"free"},{"bike_id":"ff38f414-84a5-4651-859d-e3a894ddb088","system_id":"levelo_inurba_marseille","lat":43.298037,"lon":5.381066,"is_reserved":false,"is_disabled":false,"rental_uris":{"android":"levelo://app?vid=ff38f414-84a5-4651-859d-e3a894ddb088","ios":"levelo://app?vid=ff38f414-84a5-4651-859d-e3a894ddb088"},"vehicle_type_id":"4","last_reported":1702109320,"current_range_meters":26400,"station_id":"ce4bgip2rcd13ifvqbb0","pricing_plan_id":"free"},{"bike_id":"e60e423d-b427-4215-b36f-7be87c5e2e4a","system_id":"levelo_inurba_marseille","lat":43.304274,"lon":5.388873,"is_reserved":false,"is_disabled":false,"rental_uris":{"android":"levelo://app?vid=e60e423d-b427-4215-b36f-7be87c5e2e4a","ios":"levelo://app?vid=e60e423d-b427-4215-b36f-7be87c5e2e4a"},"vehicle_type_id":"4","last_reported":1702109320,"current_range_meters":29600,"station_id":"ce4bgk12rcd13ifvqbi0","pricing_plan_id":"free"},{"bike_id":"263479b3-1624-49bf-8dba-943561616d0b","system_id":"levelo_inurba_marseille","lat":43.29608,"lon":5.37717,"is_reserved":false,"is_disabled":false,"rental_uris":{"android":"levelo://app?vid=263479b3-1624-49bf-8dba-943561616d0b","ios":"levelo://app?vid=263479b3-1624-49bf-8dba-943561616d0b"},"vehicle_type_id":"4","last_reported":1702109320,"current_range_meters":23200,"station_id":"ce4bgi92rcd13ifvqb90","pricing_plan_id":"free"},{"bike_id":"6a820ce0-0fd7-437d-9630-0e3ffbd73453","system_id":"levelo_inurba_marseille","lat":43.29528,"lon":5.37506,"is_reserved":false,"is_disabled":false,"rental_uris":{"android":"levelo://app?vid=6a820ce0-0fd7-437d-9630-0e3ffbd73453","ios":"levelo://app?vid=6a820ce0-0fd7-437d-9630-0e3ffbd73453"},"vehicle_type_id":"4","last_reported":1702109320,"current_range_meters":22800,"station_id":"ce4bgkp2rcd13ifvqbmg","pricing_plan_id":"free"},{"bike_id":"e4380772-0cc4-42aa-8069-884f657a0a21","system_id":"levelo_inurba_marseille","lat":43.32367,"lon":5.388836,"is_reserved":false,"is_disabled":false,"rental_uris":{"android":"levelo://app?vid=e4380772-0cc4-42aa-8069-884f657a0a21","ios":"levelo://app?vid=e4380772-0cc4-42aa-8069-884f657a0a21"},"vehicle_type_id":"4","last_reported":1702109320,"current_range_meters":31200,"station_id":"ce4bhqp2rcd13ifvqhog","pricing_plan_id":"free"},{"bike_id":"c5e48920-cc52-4ec0-a83a-246a7afa1e90","system_id":"levelo_inurba_marseille","lat":43.32367,"lon":5.388836,"is_reserved":false,"is_disabled":false,"rental_uris":{"android":"levelo://app?vid=c5e48920-cc52-4ec0-a83a-246a7afa1e90","ios":"levelo://app?vid=c5e48920-cc52-4ec0-a83a-246a7afa1e90"},"vehicle_type_id":"4","last_reported":1702109320,"current_range_meters":28000,"station_id":"ce4bhqp2rcd13ifvqhog","pricing_plan_id":"free"},{"bike_id":"5a1f6bc8-e270-4ee1-b3a7-8b734b52a9ea","system_id":"levelo_inurba_marseille","lat":43.32367,"lon":5.38886,"is_reserved":false,"is_disabled":false,"rental_uris":{"android":"levelo://app?vid=5a1f6bc8-e270-4ee1-b3a7-8b734b52a9ea","ios":"levelo://app?vid=5a1f6bc8-e270-4ee1-b3a7-8b734b52a9ea"},"vehicle_type_id":"4","last_reported":1702109320,"current_range_meters":15200,"station_id":"ce4bhqp2rcd13ifvqhog","pricing_plan_id":"free"},{"bike_id":"24073613-5cec-4b81-8f4e-13b4440c154c","system_id":"levelo_inurba_marseille","lat":43.29305,"lon":5.37173,"is_reserved":false,"is_disabled":false,"rental_uris":{"android":"levelo://app?vid=24073613-5cec-4b81-8f4e-13b4440c154c","ios":"levelo://app?vid=24073613-5cec-4b81-8f4e-13b4440c154c"},"vehicle_type_id":"4","last_reported":1702109320,"current_range_meters":10400,"station_id":"ce4bgh92rcd13ifvqb40","pricing_plan_id":"free"},{"bike_id":"27242d55-c6a0-48c6-843f-10ecc7488eac","system_id":"levelo_inurba_marseille","lat":43.29301,"lon":5.37176,"is_reserved":false,"is_disabled":false,"rental_uris":{"android":"levelo://app?vid=27242d55-c6a0-48c6-843f-10ecc7488eac","ios":"levelo://app?vid=27242d55-c6a0-48c6-843f-10ecc7488eac"},"vehicle_type_id":"4","last_reported":1702109320,"current_range_meters":28800,"station_id":"ce4bgh92rcd13ifvqb40","pricing_plan_id":"free"},{"bike_id":"3425fe7a-513d-4750-bb51-67781ed2e6fc","system_id":"levelo_inurba_marseille","lat":43.292979,"lon":5.37153,"is_reserved":false,"is_disabled":false,"rental_uris":{"android":"levelo://app?vid=3425fe7a-513d-4750-bb51-67781ed2e6fc","ios":"levelo://app?vid=3425fe7a-513d-4750-bb51-67781ed2e6fc"},"vehicle_type_id":"4","last_reported":1702109320,"current_range_meters":10000,"station_id":"","pricing_plan_id":"free"},{"bike_id":"14ef2333-1325-460c-8bed-5690657dee16","system_id":"levelo_inurba_marseille","lat":43.293,"lon":5.37184,"is_reserved":false,"is_disabled":false,"rental_uris":{"android":"levelo://app?vid=14ef2333-1325-460c-8bed-5690657dee16","ios":"levelo://app?vid=14ef2333-1325-460c-8bed-5690657dee16"},"vehicle_type_id":"4","last_reported":1702109320,"current_range_meters":18800,"station_id":"ce4bgh92rcd13ifvqb40","pricing_plan_id":"free"},{"bike_id":"ffe8e861-9583-46be-9da3-462d5c1037ee","system_id":"levelo_inurba_marseille","lat":43.293006,"lon":5.374466,"is_reserved":false,"is_disabled":false,"rental_uris":{"android":"levelo://app?vid=ffe8e861-9583-46be-9da3-462d5c1037ee","ios":"levelo://app?vid=ffe8e861-9583-46be-9da3-462d5c1037ee"},"vehicle_type_id":"4","last_reported":1702109320,"current_range_meters":12400,"station_id":"ce4bgi12rcd13ifvqb70","pricing_plan_id":"free"},{"bike_id":"04231d3d-2fb1-49a7-b608-e64644034c95","system_id":"levelo_inurba_marseille","lat":43.305994,"lon":5.393687,"is_reserved":false,"is_disabled":false,"rental_uris":{"android":"levelo://app?vid=04231d3d-2fb1-49a7-b608-e64644034c95","ios":"levelo://app?vid=04231d3d-2fb1-49a7-b608-e64644034c95"},"vehicle_type_id":"4","last_reported":1702109320,"current_range_meters":13200,"station_id":"ce4bh0p2rcd13ifvqd80","pricing_plan_id":"free"},{"bike_id":"b3577d3b-c1f1-4a84-aed4-651756acee24","system_id":"levelo_inurba_marseille","lat":43.2936,"lon":5.37835,"is_reserved":false,"is_disabled":false,"rental_uris":{"android":"levelo://app?vid=b3577d3b-c1f1-4a84-aed4-651756acee24","ios":"levelo://app?vid=b3577d3b-c1f1-4a84-aed4-651756acee24"},"vehicle_type_id":"4","last_reported":1702109320,"current_range_meters":27600,"station_id":"ce4bgjh2rcd13ifvqbf0","pricing_plan_id":"free"},{"bike_id":"5d1793e1-9d7c-48f3-9b2e-b94d36e2d8ed","system_id":"levelo_inurba_marseille","lat":43.2936,"lon":5.37835,"is_reserved":false,"is_disabled":false,"rental_uris":{"android":"levelo://app?vid=5d1793e1-9d7c-48f3-9b2e-b94d36e2d8ed","ios":"levelo://app?vid=5d1793e1-9d7c-48f3-9b2e-b94d36e2d8ed"},"vehicle_type_id":"4","last_reported":1702109320,"current_range_meters":28000,"station_id":"ce4bgjh2rcd13ifvqbf0","pricing_plan_id":"free"},{"bike_id":"8e8723aa-2a14-4bbc-b6a5-6e66f870c03d","system_id":"levelo_inurba_marseille","lat":43.292311,"lon":5.360731,"is_reserved":false,"is_disabled":false,"rental_uris":{"android":"levelo://app?vid=8e8723aa-2a14-4bbc-b6a5-6e66f870c03d","ios":"levelo://app?vid=8e8723aa-2a14-4bbc-b6a5-6e66f870c03d"},"vehicle_type_id":"4","last_reported":1702109320,"current_range_meters":28000,"station_id":"ce4bhbh2rcd13ifvqeqg","pricing_plan_id":"free"},{"bike_id":"1d7ca1ce-798f-4193-b9ec-0c71ad042aa7","system_id":"levelo_inurba_marseille","lat":43.292311,"lon":5.360731,"is_reserved":false,"is_disabled":false,"rental_uris":{"android":"levelo://app?vid=1d7ca1ce-798f-4193-b9ec-0c71ad042aa7","ios":"levelo://app?vid=1d7ca1ce-798f-4193-b9ec-0c71ad042aa7"},"vehicle_type_id":"4","last_reported":1702109320,"current_range_meters":26400,"station_id":"ce4bhbh2rcd13ifvqeqg","pricing_plan_id":"free"},{"bike_id":"2eb3b880-2dbf-4bf8-984e-2463921f6894","system_id":"levelo_inurba_marseille","lat":43.292663,"lon":5.376394,"is_reserved":false,"is_disabled":false,"rental_uris":{"android":"levelo://app?vid=2eb3b880-2dbf-4bf8-984e-2463921f6894","ios":"levelo://app?vid=2eb3b880-2dbf-4bf8-984e-2463921f6894"},"vehicle_type_id":"4","last_reported":1702109320,"current_range_meters":30000,"station_id":"ce4bgi12rcd13ifvqb80","pricing_plan_id":"free"},{"bike_id":"e00b0453-8bab-43c3-ab3c-87e60efd0183","system_id":"levelo_inurba_marseille","lat":43.29887,"lon":5.38925,"is_reserved":false,"is_disabled":false,"rental_uris":{"android":"levelo://app?vid=e00b0453-8bab-43c3-ab3c-87e60efd0183","ios":"levelo://app?vid=e00b0453-8bab-43c3-ab3c-87e60efd0183"},"vehicle_type_id":"4","last_reported":1702109320,"current_range_meters":22000,"station_id":"","pricing_plan_id":"free"},{"bike_id":"1d9d88da-6d05-4a9a-a1a6-232e5f2fb4e5","system_id":"levelo_inurba_marseille","lat":43.309047,"lon":5.396551,"is_reserved":false,"is_disabled":false,"rental_uris":{"android":"levelo://app?vid=1d9d88da-6d05-4a9a-a1a6-232e5f2fb4e5","ios":"levelo://app?vid=1d9d88da-6d05-4a9a-a1a6-232e5f2fb4e5"},"vehicle_type_id":"4","last_reported":1702109320,"current_range_meters":29200,"station_id":"ce4bh012rcd13ifvqcv0","pricing_plan_id":"free"},{"bike_id":"25370a0e-e806-4f5e-a418-6aeaa4287291","system_id":"levelo_inurba_marseille","lat":43.29187,"lon":5.35797,"is_reserved":false,"is_disabled":false,"rental_uris":{"android":"levelo://app?vid=25370a0e-e806-4f5e-a418-6aeaa4287291","ios":"levelo://app?vid=25370a0e-e806-4f5e-a418-6aeaa4287291"},"vehicle_type_id":"4","last_reported":1702109320,"current_range_meters":17600,"station_id":"ce4bhb12rcd13ifvqel0","pricing_plan_id":"free"},{"bike_id":"4e243823-71ff-4201-a69e-10766f056885","system_id":"levelo_inurba_marseille","lat":43.31326,"lon":5.39698,"is_reserved":false,"is_disabled":false,"rental_uris":{"android":"levelo://app?vid=4e243823-71ff-4201-a69e-10766f056885","ios":"levelo://app?vid=4e243823-71ff-4201-a69e-10766f056885"},"vehicle_type_id":"4","last_reported":1702109320,"current_range_meters":14800,"station_id":"ce4bgvp2rcd13ifvqcu0","pricing_plan_id":"free"},{"bike_id":"6b366e6a-8ee3-4fd9-ba9b-8efa90cfc50d","system_id":"levelo_inurba_marseille","lat":43.29562,"lon":5.38572,"is_reserved":false,"is_disabled":false,"rental_uris":{"android":"levelo://app?vid=6b366e6a-8ee3-4fd9-ba9b-8efa90cfc50d","ios":"levelo://app?vid=6b366e6a-8ee3-4fd9-ba9b-8efa90cfc50d"},"vehicle_type_id":"4","last_reported":1702109320,"current_range_meters":23600,"station_id":"ce4bgih2rcd13ifvqba0","pricing_plan_id":"free"},{"bike_id":"540bea20-1d8d-4808-9e80-832b2b737b49","system_id":"levelo_inurba_marseille","lat":43.29527,"lon":5.38544,"is_reserved":false,"is_disabled":false,"rental_uris":{"android":"levelo://app?vid=540bea20-1d8d-4808-9e80-832b2b737b49","ios":"levelo://app?vid=540bea20-1d8d-4808-9e80-832b2b737b49"},"vehicle_type_id":"4","last_reported":1702109320,"current_range_meters":22800,"station_id":"ce4bgih2rcd13ifvqba0","pricing_plan_id":"free"},{"bike_id":"2cea1a9d-b0c5-4f47-8358-9a881deb6c91","system_id":"levelo_inurba_marseille","lat":43.290327,"lon":5.375711,"is_reserved":false,"is_disabled":false,"rental_uris":{"android":"levelo://app?vid=2cea1a9d-b0c5-4f47-8358-9a881deb6c91","ios":"levelo://app?vid=2cea1a9d-b0c5-4f47-8358-9a881deb6c91"},"vehicle_type_id":"4","last_reported":1702109320,"current_range_meters":26800,"station_id":"ce4bh692rcd13ifvqe90","pricing_plan_id":"free"},{"bike_id":"1ed80631-747a-4a2d-bf72-67e4c9eed7eb","system_id":"levelo_inurba_marseille","lat":43.28941,"lon":5.364,"is_reserved":false,"is_disabled":false,"rental_uris":{"android":"levelo://app?vid=1ed80631-747a-4a2d-bf72-67e4c9eed7eb","ios":"levelo://app?vid=1ed80631-747a-4a2d-bf72-67e4c9eed7eb"},"vehicle_type_id":"4","last_reported":1702109320,"current_range_meters":31200,"station_id":"ce4bhc92rcd13ifvqetg","pricing_plan_id":"free"},{"bike_id":"190e6e21-997f-4e94-8bbf-d83ed1de4ac8","system_id":"levelo_inurba_marseille","lat":43.28939,"lon":5.36405,"is_reserved":false,"is_disabled":false,"rental_uris":{"android":"levelo://app?vid=190e6e21-997f-4e94-8bbf-d83ed1de4ac8","ios":"levelo://app?vid=190e6e21-997f-4e94-8bbf-d83ed1de4ac8"},"vehicle_type_id":"4","last_reported":1702109320,"current_range_meters":27200,"station_id":"ce4bhc92rcd13ifvqetg","pricing_plan_id":"free"},{"bike_id":"a84eaf3f-53ab-481d-b9e5-a6c1b000b857","system_id":"levelo_inurba_marseille","lat":43.289468,"lon":5.363719,"is_reserved":false,"is_disabled":false,"rental_uris":{"android":"levelo://app?vid=a84eaf3f-53ab-481d-b9e5-a6c1b000b857","ios":"levelo://app?vid=a84eaf3f-53ab-481d-b9e5-a6c1b000b857"},"vehicle_type_id":"4","last_reported":1702109320,"current_range_meters":30800,"station_id":"ce4bhc92rcd13ifvqetg","pricing_plan_id":"free"},{"bike_id":"a02a1b20-1fb1-4951-988a-77389649024d","system_id":"levelo_inurba_marseille","lat":43.289259,"lon":5.366364,"is_reserved":false,"is_disabled":false,"rental_uris":{"android":"levelo://app?vid=a02a1b20-1fb1-4951-988a-77389649024d","ios":"levelo://app?vid=a02a1b20-1fb1-4951-988a-77389649024d"},"vehicle_type_id":"4","last_reported":1702109320,"current_range_meters":12800,"station_id":"","pricing_plan_id":"free"},{"bike_id":"400690de-82e4-42ab-8566-d6ecd22cfab1","system_id":"levelo_inurba_marseille","lat":43.33039,"lon":5.38921,"is_reserved":false,"is_disabled":false,"rental_uris":{"android":"levelo://app?vid=400690de-82e4-42ab-8566-d6ecd22cfab1","ios":"levelo://app?vid=400690de-82e4-42ab-8566-d6ecd22cfab1"},"vehicle_type_id":"4","last_reported":1702109320,"current_range_meters":27600,"station_id":"ce4bhr92rcd13ifvqhrg","pricing_plan_id":"free"},{"bike_id":"8f6f10a7-e824-409e-80f7-f7456a0b63dd","system_id":"levelo_inurba_marseille","lat":43.33038,"lon":5.38924,"is_reserved":false,"is_disabled":false,"rental_uris":{"android":"levelo://app?vid=8f6f10a7-e824-409e-80f7-f7456a0b63dd","ios":"levelo://app?vid=8f6f10a7-e824-409e-80f7-f7456a0b63dd"},"vehicle_type_id":"4","last_reported":1702109320,"current_range_meters":15600,"station_id":"ce4bhr92rcd13ifvqhrg","pricing_plan_id":"free"},{"bike_id":"5c851a12-5741-43b3-816f-010057363b5e","system_id":"levelo_inurba_marseille","lat":43.330416,"lon":5.389194,"is_reserved":false,"is_disabled":false,"rental_uris":{"android":"levelo://app?vid=5c851a12-5741-43b3-816f-010057363b5e","ios":"levelo://app?vid=5c851a12-5741-43b3-816f-010057363b5e"},"vehicle_type_id":"4","last_reported":1702109320,"current_range_meters":9200,"station_id":"ce4bhr92rcd13ifvqhrg","pricing_plan_id":"free"},{"bike_id":"ce18ae7e-3845-4a46-8c8c-674d4d2c7da0","system_id":"levelo_inurba_marseille","lat":43.33044,"lon":5.38922,"is_reserved":false,"is_disabled":false,"rental_uris":{"android":"levelo://app?vid=ce18ae7e-3845-4a46-8c8c-674d4d2c7da0","ios":"levelo://app?vid=ce18ae7e-3845-4a46-8c8c-674d4d2c7da0"},"vehicle_type_id":"4","last_reported":1702109320,"current_range_meters":15600,"station_id":"ce4bhr92rcd13ifvqhrg","pricing_plan_id":"free"},{"bike_id":"a9a9daa7-7648-40b5-9720-d307eb27f7a6","system_id":"levelo_inurba_marseille","lat":43.29004,"lon":5.35618,"is_reserved":false,"is_disabled":false,"rental_uris":{"android":"levelo://app?vid=a9a9daa7-7648-40b5-9720-d307eb27f7a6","ios":"levelo://app?vid=a9a9daa7-7648-40b5-9720-d307eb27f7a6"},"vehicle_type_id":"4","last_reported":1702109320,"current_range_meters":26800,"station_id":"ce4bhb92rcd13ifvqen0","pricing_plan_id":"free"},{"bike_id":"e6aa64d7-b2f8-4db9-98ca-c72ba001f222","system_id":"levelo_inurba_marseille","lat":43.290103,"lon":5.356114,"is_reserved":false,"is_disabled":false,"rental_uris":{"android":"levelo://app?vid=e6aa64d7-b2f8-4db9-98ca-c72ba001f222","ios":"levelo://app?vid=e6aa64d7-b2f8-4db9-98ca-c72ba001f222"},"vehicle_type_id":"4","last_reported":1702109320,"current_range_meters":27200,"station_id":"ce4bhb92rcd13ifvqen0","pricing_plan_id":"free"},{"bike_id":"73639b6f-42b1-4dab-aef9-3aa822755533","system_id":"levelo_inurba_marseille","lat":43.290995,"lon":5.381361,"is_reserved":false,"is_disabled":false,"rental_uris":{"android":"levelo://app?vid=73639b6f-42b1-4dab-aef9-3aa822755533","ios":"levelo://app?vid=73639b6f-42b1-4dab-aef9-3aa822755533"},"vehicle_type_id":"4","last_reported":1702109320,"current_range_meters":26400,"station_id":"ce4bh512rcd13ifvqe2g","pricing_plan_id":"free"},{"bike_id":"dc34d362-b385-41ed-b4f5-65565cd16d35","system_id":"levelo_inurba_marseille","lat":43.290995,"lon":5.381361,"is_reserved":false,"is_disabled":false,"rental_uris":{"android":"levelo://app?vid=dc34d362-b385-41ed-b4f5-65565cd16d35","ios":"levelo://app?vid=dc34d362-b385-41ed-b4f5-65565cd16d35"},"vehicle_type_id":"4","last_reported":1702109320,"current_range_meters":28400,"station_id":"ce4bh512rcd13ifvqe2g","pricing_plan_id":"free"},{"bike_id":"77d537b6-e42e-4ee3-8a12-aa67b43839c7","system_id":"levelo_inurba_marseille","lat":43.295169,"lon":5.390426,"is_reserved":false,"is_disabled":false,"rental_uris":{"android":"levelo://app?vid=77d537b6-e42e-4ee3-8a12-aa67b43839c7","ios":"levelo://app?vid=77d537b6-e42e-4ee3-8a12-aa67b43839c7"},"vehicle_type_id":"4","last_reported":1702109320,"current_range_meters":26400,"station_id":"ce4bh3p2rcd13ifvqdp0","pricing_plan_id":"free"},{"bike_id":"1e493687-f20b-4e96-a493-839b2c761a94","system_id":"levelo_inurba_marseille","lat":43.289741,"lon":5.378306,"is_reserved":false,"is_disabled":false,"rental_uris":{"android":"levelo://app?vid=1e493687-f20b-4e96-a493-839b2c761a94","ios":"levelo://app?vid=1e493687-f20b-4e96-a493-839b2c761a94"},"vehicle_type_id":"4","last_reported":1702109320,"current_range_meters":26400,"station_id":"ce4bh9p2rcd13ifvqed0","pricing_plan_id":"free"},{"bike_id":"066175bb-9259-4227-8cd4-78cd43f21020","system_id":"levelo_inurba_marseille","lat":43.287274,"lon":5.360892,"is_reserved":false,"is_disabled":false,"rental_uris":{"android":"levelo://app?vid=066175bb-9259-4227-8cd4-78cd43f21020","ios":"levelo://app?vid=066175bb-9259-4227-8cd4-78cd43f21020"},"vehicle_type_id":"4","last_reported":1702109320,"current_range_meters":30400,"station_id":"cki0cbj6b192h4jlfktg","pricing_plan_id":"free"},{"bike_id":"4ed05978-a9d3-406d-ad2e-c57b0ff4f0cf","system_id":"levelo_inurba_marseille","lat":43.28727,"lon":5.36078,"is_reserved":false,"is_disabled":false,"rental_uris":{"android":"levelo://app?vid=4ed05978-a9d3-406d-ad2e-c57b0ff4f0cf","ios":"levelo://app?vid=4ed05978-a9d3-406d-ad2e-c57b0ff4f0cf"},"vehicle_type_id":"4","last_reported":1702109320,"current_range_meters":31600,"station_id":"cki0cbj6b192h4jlfktg","pricing_plan_id":"free"},{"bike_id":"00eb7162-a713-4469-9070-da7182e14e95","system_id":"levelo_inurba_marseille","lat":43.28727,"lon":5.36078,"is_reserved":false,"is_disabled":false,"rental_uris":{"android":"levelo://app?vid=00eb7162-a713-4469-9070-da7182e14e95","ios":"levelo://app?vid=00eb7162-a713-4469-9070-da7182e14e95"},"vehicle_type_id":"4","last_reported":1702109320,"current_range_meters":30400,"station_id":"cki0cbj6b192h4jlfktg","pricing_plan_id":"free"},{"bike_id":"4243a33e-65eb-4bd3-b75a-0edd5a55e93a","system_id":"levelo_inurba_marseille","lat":43.28714,"lon":5.36106,"is_reserved":false,"is_disabled":false,"rental_uris":{"android":"levelo://app?vid=4243a33e-65eb-4bd3-b75a-0edd5a55e93a","ios":"levelo://app?vid=4243a33e-65eb-4bd3-b75a-0edd5a55e93a"},"vehicle_type_id":"4","last_reported":1702109320,"current_range_meters":24000,"station_id":"cki0cbj6b192h4jlfktg","pricing_plan_id":"free"},{"bike_id":"29d017db-b734-437f-b457-d855d49b5bac","system_id":"levelo_inurba_marseille","lat":43.28702,"lon":5.37394,"is_reserved":false,"is_disabled":false,"rental_uris":{"android":"levelo://app?vid=29d017db-b734-437f-b457-d855d49b5bac","ios":"levelo://app?vid=29d017db-b734-437f-b457-d855d49b5bac"},"vehicle_type_id":"4","last_reported":1702109320,"current_range_meters":25600,"station_id":"ce4bh3p2rcd13ifvqdq0","pricing_plan_id":"free"},{"bike_id":"11827d9c-dab2-4e6e-a8a5-19328753934f","system_id":"levelo_inurba_marseille","lat":43.286039,"lon":5.370681,"is_reserved":false,"is_disabled":false,"rental_uris":{"android":"levelo://app?vid=11827d9c-dab2-4e6e-a8a5-19328753934f","ios":"levelo://app?vid=11827d9c-dab2-4e6e-a8a5-19328753934f"},"vehicle_type_id":"4","last_reported":1702109320,"current_range_meters":18400,"station_id":"ce4bht12rcd13ifvqi60","pricing_plan_id":"free"},{"bike_id":"a3c78ba2-41ae-417d-a158-08c6c4a54351","system_id":"levelo_inurba_marseille","lat":43.287185,"lon":5.379373,"is_reserved":false,"is_disabled":false,"rental_uris":{"android":"levelo://app?vid=a3c78ba2-41ae-417d-a158-08c6c4a54351","ios":"levelo://app?vid=a3c78ba2-41ae-417d-a158-08c6c4a54351"},"vehicle_type_id":"4","last_reported":1702109320,"current_range_meters":26400,"station_id":"ce4bh9p2rcd13ifvqec0","pricing_plan_id":"free"},{"bike_id":"f546fcea-d5fb-44d5-8608-6351792ffea4","system_id":"levelo_inurba_marseille","lat":43.316828,"lon":5.404723,"is_reserved":false,"is_disabled":false,"rental_uris":{"android":"levelo://app?vid=f546fcea-d5fb-44d5-8608-6351792ffea4","ios":"levelo://app?vid=f546fcea-d5fb-44d5-8608-6351792ffea4"},"vehicle_type_id":"4","last_reported":1702109320,"current_range_meters":23600,"station_id":"ce4bh012rcd13ifvqd00","pricing_plan_id":"free"},{"bike_id":"139b5c27-953e-4eba-b438-40258d263d4d","system_id":"levelo_inurba_marseille","lat":43.28461,"lon":5.358899,"is_reserved":false,"is_disabled":false,"rental_uris":{"android":"levelo://app?vid=139b5c27-953e-4eba-b438-40258d263d4d","ios":"levelo://app?vid=139b5c27-953e-4eba-b438-40258d263d4d"},"vehicle_type_id":"4","last_reported":1702109320,"current_range_meters":31200,"station_id":"ce4bhah2rcd13ifvqei0","pricing_plan_id":"free"},{"bike_id":"c6fe9f00-9b73-4e8f-b600-1d49cfc12157","system_id":"levelo_inurba_marseille","lat":43.2846,"lon":5.35892,"is_reserved":false,"is_disabled":false,"rental_uris":{"android":"levelo://app?vid=c6fe9f00-9b73-4e8f-b600-1d49cfc12157","ios":"levelo://app?vid=c6fe9f00-9b73-4e8f-b600-1d49cfc12157"},"vehicle_type_id":"4","last_reported":1702109320,"current_range_meters":15600,"station_id":"ce4bhah2rcd13ifvqei0","pricing_plan_id":"free"},{"bike_id":"56380940-1685-40ff-9442-5aea03747329","system_id":"levelo_inurba_marseille","lat":43.284538,"lon":5.358657,"is_reserved":false,"is_disabled":false,"rental_uris":{"android":"levelo://app?vid=56380940-1685-40ff-9442-5aea03747329","ios":"levelo://app?vid=56380940-1685-40ff-9442-5aea03747329"},"vehicle_type_id":"4","last_reported":1702109320,"current_range_meters":23200,"station_id":"ce4bhah2rcd13ifvqei0","pricing_plan_id":"free"},{"bike_id":"591cb939-6b0a-4b19-83ff-445e61f6c1d6","system_id":"levelo_inurba_marseille","lat":43.284566,"lon":5.358931,"is_reserved":false,"is_disabled":false,"rental_uris":{"android":"levelo://app?vid=591cb939-6b0a-4b19-83ff-445e61f6c1d6","ios":"levelo://app?vid=591cb939-6b0a-4b19-83ff-445e61f6c1d6"},"vehicle_type_id":"4","last_reported":1702109320,"current_range_meters":31200,"station_id":"ce4bhah2rcd13ifvqei0","pricing_plan_id":"free"},{"bike_id":"2cee83b1-65df-416a-a71c-8c2ce874812a","system_id":"levelo_inurba_marseille","lat":43.284554,"lon":5.35891,"is_reserved":false,"is_disabled":false,"rental_uris":{"android":"levelo://app?vid=2cee83b1-65df-416a-a71c-8c2ce874812a","ios":"levelo://app?vid=2cee83b1-65df-416a-a71c-8c2ce874812a"},"vehicle_type_id":"4","last_reported":1702109320,"current_range_meters":28400,"station_id":"ce4bhah2rcd13ifvqei0","pricing_plan_id":"free"},{"bike_id":"441b82a9-77aa-44f1-bfd8-b490f77f947a","system_id":"levelo_inurba_marseille","lat":43.284538,"lon":5.358908,"is_reserved":false,"is_disabled":false,"rental_uris":{"android":"levelo://app?vid=441b82a9-77aa-44f1-bfd8-b490f77f947a","ios":"levelo://app?vid=441b82a9-77aa-44f1-bfd8-b490f77f947a"},"vehicle_type_id":"4","last_reported":1702109320,"current_range_meters":14400,"station_id":"ce4bhah2rcd13ifvqei0","pricing_plan_id":"free"},{"bike_id":"a74a3878-4eea-4074-b70f-591ba450338d","system_id":"levelo_inurba_marseille","lat":43.28612,"lon":5.35101,"is_reserved":false,"is_disabled":false,"rental_uris":{"android":"levelo://app?vid=a74a3878-4eea-4074-b70f-591ba450338d","ios":"levelo://app?vid=a74a3878-4eea-4074-b70f-591ba450338d"},"vehicle_type_id":"4","last_reported":1702109320,"current_range_meters":29200,"station_id":"ce4bhch2rcd13ifvqeug","pricing_plan_id":"free"},{"bike_id":"32a012bb-9201-44bb-93c7-b229b28ba027","system_id":"levelo_inurba_marseille","lat":43.283998,"lon":5.375062,"is_reserved":false,"is_disabled":false,"rental_uris":{"android":"levelo://app?vid=32a012bb-9201-44bb-93c7-b229b28ba027","ios":"levelo://app?vid=32a012bb-9201-44bb-93c7-b229b28ba027"},"vehicle_type_id":"4","last_reported":1702109320,"current_range_meters":0,"station_id":"ce4bh412rcd13ifvqds0","pricing_plan_id":"free"},{"bike_id":"5d75f86c-6c51-41c8-8db6-9452bc748670","system_id":"levelo_inurba_marseille","lat":43.283998,"lon":5.375062,"is_reserved":false,"is_disabled":false,"rental_uris":{"android":"levelo://app?vid=5d75f86c-6c51-41c8-8db6-9452bc748670","ios":"levelo://app?vid=5d75f86c-6c51-41c8-8db6-9452bc748670"},"vehicle_type_id":"4","last_reported":1702109320,"current_range_meters":22800,"station_id":"ce4bh412rcd13ifvqds0","pricing_plan_id":"free"},{"bike_id":"2fad643a-e583-499e-8b0d-881a41534779","system_id":"levelo_inurba_marseille","lat":43.283998,"lon":5.375062,"is_reserved":false,"is_disabled":false,"rental_uris":{"android":"levelo://app?vid=2fad643a-e583-499e-8b0d-881a41534779","ios":"levelo://app?vid=2fad643a-e583-499e-8b0d-881a41534779"},"vehicle_type_id":"4","last_reported":1702109320,"current_range_meters":13600,"station_id":"ce4bh412rcd13ifvqds0","pricing_plan_id":"free"},{"bike_id":"324d6f9f-42f6-4266-9049-e3939b639ea9","system_id":"levelo_inurba_marseille","lat":43.337168,"lon":5.391825,"is_reserved":false,"is_disabled":false,"rental_uris":{"android":"levelo://app?vid=324d6f9f-42f6-4266-9049-e3939b639ea9","ios":"levelo://app?vid=324d6f9f-42f6-4266-9049-e3939b639ea9"},"vehicle_type_id":"4","last_reported":1702109320,"current_range_meters":17600,"station_id":"ce4bhr92rcd13ifvqhsg","pricing_plan_id":"free"},{"bike_id":"394e7ef0-8795-4b05-b68f-3db5b0a2f588","system_id":"levelo_inurba_marseille","lat":43.33717,"lon":5.391857,"is_reserved":false,"is_disabled":false,"rental_uris":{"android":"levelo://app?vid=394e7ef0-8795-4b05-b68f-3db5b0a2f588","ios":"levelo://app?vid=394e7ef0-8795-4b05-b68f-3db5b0a2f588"},"vehicle_type_id":"4","last_reported":1702109320,"current_range_meters":29200,"station_id":"ce4bhr92rcd13ifvqhsg","pricing_plan_id":"free"},{"bike_id":"efe9d2cc-d0eb-4e85-b313-6bf62b4d4d4c","system_id":"levelo_inurba_marseille","lat":43.33717,"lon":5.391857,"is_reserved":false,"is_disabled":false,"rental_uris":{"android":"levelo://app?vid=efe9d2cc-d0eb-4e85-b313-6bf62b4d4d4c","ios":"levelo://app?vid=efe9d2cc-d0eb-4e85-b313-6bf62b4d4d4c"},"vehicle_type_id":"4","last_reported":1702109320,"current_range_meters":0,"station_id":"ce4bhr92rcd13ifvqhsg","pricing_plan_id":"free"},{"bike_id":"bcce3b25-1537-4198-b1da-695a0ed0517f","system_id":"levelo_inurba_marseille","lat":43.284214,"lon":5.349706,"is_reserved":false,"is_disabled":false,"rental_uris":{"android":"levelo://app?vid=bcce3b25-1537-4198-b1da-695a0ed0517f","ios":"levelo://app?vid=bcce3b25-1537-4198-b1da-695a0ed0517f"},"vehicle_type_id":"4","last_reported":1702109320,"current_range_meters":27200,"station_id":"ce4bhbh2rcd13ifvqepg","pricing_plan_id":"free"},{"bike_id":"d3229d00-f7eb-4555-8dd3-5f02dff4cb8c","system_id":"levelo_inurba_marseille","lat":43.289363,"lon":5.396322,"is_reserved":false,"is_disabled":false,"rental_uris":{"android":"levelo://app?vid=d3229d00-f7eb-4555-8dd3-5f02dff4cb8c","ios":"levelo://app?vid=d3229d00-f7eb-4555-8dd3-5f02dff4cb8c"},"vehicle_type_id":"4","last_reported":1702109320,"current_range_meters":28400,"station_id":"ce4bh3h2rcd13ifvqdn0","pricing_plan_id":"free"},{"bike_id":"4fcca0f6-58dd-47c0-9d91-6b6b9ef9c751","system_id":"levelo_inurba_marseille","lat":43.282744,"lon":5.350533,"is_reserved":false,"is_disabled":false,"rental_uris":{"android":"levelo://app?vid=4fcca0f6-58dd-47c0-9d91-6b6b9ef9c751","ios":"levelo://app?vid=4fcca0f6-58dd-47c0-9d91-6b6b9ef9c751"},"vehicle_type_id":"4","last_reported":1702109320,"current_range_meters":28400,"station_id":"ce4bhbp2rcd13ifvqerg","pricing_plan_id":"free"},{"bike_id":"857f5d82-f6d6-47cc-9769-bc5490af17c5","system_id":"levelo_inurba_marseille","lat":43.282754,"lon":5.350519,"is_reserved":false,"is_disabled":false,"rental_uris":{"android":"levelo://app?vid=857f5d82-f6d6-47cc-9769-bc5490af17c5","ios":"levelo://app?vid=857f5d82-f6d6-47cc-9769-bc5490af17c5"},"vehicle_type_id":"4","last_reported":1702109320,"current_range_meters":23600,"station_id":"ce4bhbp2rcd13ifvqerg","pricing_plan_id":"free"},{"bike_id":"b8563099-ece3-45c3-8ef1-f068ee71708f","system_id":"levelo_inurba_marseille","lat":43.282754,"lon":5.350519,"is_reserved":false,"is_disabled":false,"rental_uris":{"android":"levelo://app?vid=b8563099-ece3-45c3-8ef1-f068ee71708f","ios":"levelo://app?vid=b8563099-ece3-45c3-8ef1-f068ee71708f"},"vehicle_type_id":"4","last_reported":1702109320,"current_range_meters":6800,"station_id":"ce4bhbp2rcd13ifvqerg","pricing_plan_id":"free"},{"bike_id":"014e3a45-3e37-42b4-a4b7-4e08a14eecae","system_id":"levelo_inurba_marseille","lat":43.283502,"lon":5.386471,"is_reserved":false,"is_disabled":false,"rental_uris":{"android":"levelo://app?vid=014e3a45-3e37-42b4-a4b7-4e08a14eecae","ios":"levelo://app?vid=014e3a45-3e37-42b4-a4b7-4e08a14eecae"},"vehicle_type_id":"4","last_reported":1702109320,"current_range_meters":23600,"station_id":"ce4bh492rcd13ifvqdvg","pricing_plan_id":"free"},{"bike_id":"e52ddfd6-0ddd-4c7b-ab34-3c7fe5c2aaef","system_id":"levelo_inurba_marseille","lat":43.326605,"lon":5.409903,"is_reserved":false,"is_disabled":false,"rental_uris":{"android":"levelo://app?vid=e52ddfd6-0ddd-4c7b-ab34-3c7fe5c2aaef","ios":"levelo://app?vid=e52ddfd6-0ddd-4c7b-ab34-3c7fe5c2aaef"},"vehicle_type_id":"4","last_reported":1702109320,"current_range_meters":31600,"station_id":"ce4bhpp2rcd13ifvqhgg","pricing_plan_id":"free"},{"bike_id":"24f7bf56-e0e6-452e-aa46-25e110e538c6","system_id":"levelo_inurba_marseille","lat":43.326605,"lon":5.409903,"is_reserved":false,"is_disabled":false,"rental_uris":{"android":"levelo://app?vid=24f7bf56-e0e6-452e-aa46-25e110e538c6","ios":"levelo://app?vid=24f7bf56-e0e6-452e-aa46-25e110e538c6"},"vehicle_type_id":"4","last_reported":1702109320,"current_range_meters":31600,"station_id":"ce4bhpp2rcd13ifvqhgg","pricing_plan_id":"free"},{"bike_id":"5e578afd-3e4d-4841-96fa-cf1bf643d8d9","system_id":"levelo_inurba_marseille","lat":43.326605,"lon":5.409903,"is_reserved":false,"is_disabled":false,"rental_uris":{"android":"levelo://app?vid=5e578afd-3e4d-4841-96fa-cf1bf643d8d9","ios":"levelo://app?vid=5e578afd-3e4d-4841-96fa-cf1bf643d8d9"},"vehicle_type_id":"4","last_reported":1702109320,"current_range_meters":20000,"station_id":"ce4bhpp2rcd13ifvqhgg","pricing_plan_id":"free"},{"bike_id":"2bc70f49-2524-4452-8ab6-b18d46421545","system_id":"levelo_inurba_marseille","lat":43.326605,"lon":5.409903,"is_reserved":false,"is_disabled":false,"rental_uris":{"android":"levelo://app?vid=2bc70f49-2524-4452-8ab6-b18d46421545","ios":"levelo://app?vid=2bc70f49-2524-4452-8ab6-b18d46421545"},"vehicle_type_id":"4","last_reported":1702109320,"current_range_meters":22400,"station_id":"ce4bhpp2rcd13ifvqhgg","pricing_plan_id":"free"},{"bike_id":"c6edb2c0-fca4-4817-ac1a-8acfbd5f7de7","system_id":"levelo_inurba_marseille","lat":43.326605,"lon":5.409903,"is_reserved":false,"is_disabled":false,"rental_uris":{"android":"levelo://app?vid=c6edb2c0-fca4-4817-ac1a-8acfbd5f7de7","ios":"levelo://app?vid=c6edb2c0-fca4-4817-ac1a-8acfbd5f7de7"},"vehicle_type_id":"4","last_reported":1702109320,"current_range_meters":30000,"station_id":"ce4bhpp2rcd13ifvqhgg","pricing_plan_id":"free"},{"bike_id":"c0763524-47cd-4818-80fc-1b29f8280dc8","system_id":"levelo_inurba_marseille","lat":43.326605,"lon":5.409903,"is_reserved":false,"is_disabled":false,"rental_uris":{"android":"levelo://app?vid=c0763524-47cd-4818-80fc-1b29f8280dc8","ios":"levelo://app?vid=c0763524-47cd-4818-80fc-1b29f8280dc8"},"vehicle_type_id":"4","last_reported":1702109320,"current_range_meters":31600,"station_id":"ce4bhpp2rcd13ifvqhgg","pricing_plan_id":"free"},{"bike_id":"602a54ad-4929-4a4f-9c51-e372b2edb079","system_id":"levelo_inurba_marseille","lat":43.326605,"lon":5.409903,"is_reserved":false,"is_disabled":false,"rental_uris":{"android":"levelo://app?vid=602a54ad-4929-4a4f-9c51-e372b2edb079","ios":"levelo://app?vid=602a54ad-4929-4a4f-9c51-e372b2edb079"},"vehicle_type_id":"4","last_reported":1702109320,"current_range_meters":31200,"station_id":"ce4bhpp2rcd13ifvqhgg","pricing_plan_id":"free"},{"bike_id":"df2fa591-e017-46d5-b19e-b98eb6a1ab8b","system_id":"levelo_inurba_marseille","lat":43.304135,"lon":5.41286,"is_reserved":false,"is_disabled":false,"rental_uris":{"android":"levelo://app?vid=df2fa591-e017-46d5-b19e-b98eb6a1ab8b","ios":"levelo://app?vid=df2fa591-e017-46d5-b19e-b98eb6a1ab8b"},"vehicle_type_id":"4","last_reported":1702109320,"current_range_meters":24400,"station_id":"ce4bhop2rcd13ifvqh8g","pricing_plan_id":"free"},{"bike_id":"cb37c1ff-fe19-42e8-853e-44bf8a8d87d9","system_id":"levelo_inurba_marseille","lat":43.287154,"lon":5.399979,"is_reserved":false,"is_disabled":false,"rental_uris":{"android":"levelo://app?vid=cb37c1ff-fe19-42e8-853e-44bf8a8d87d9","ios":"levelo://app?vid=cb37c1ff-fe19-42e8-853e-44bf8a8d87d9"},"vehicle_type_id":"4","last_reported":1702109320,"current_range_meters":30000,"station_id":"ce4bho92rcd13ifvqh3g","pricing_plan_id":"free"},{"bike_id":"ff2f4825-91c4-4487-bfc5-d44d71d52695","system_id":"levelo_inurba_marseille","lat":43.292569,"lon":5.409107,"is_reserved":false,"is_disabled":false,"rental_uris":{"android":"levelo://app?vid=ff2f4825-91c4-4487-bfc5-d44d71d52695","ios":"levelo://app?vid=ff2f4825-91c4-4487-bfc5-d44d71d52695"},"vehicle_type_id":"4","last_reported":1702109320,"current_range_meters":7200,"station_id":"ce4bh192rcd13ifvqdc0","pricing_plan_id":"free"},{"bike_id":"70ac7416-454d-4b9e-8657-0711b043e459","system_id":"levelo_inurba_marseille","lat":43.320045,"lon":5.415046,"is_reserved":false,"is_disabled":false,"rental_uris":{"android":"levelo://app?vid=70ac7416-454d-4b9e-8657-0711b043e459","ios":"levelo://app?vid=70ac7416-454d-4b9e-8657-0711b043e459"},"vehicle_type_id":"4","last_reported":1702109320,"current_range_meters":28400,"station_id":"ce4bhq92rcd13ifvqhkg","pricing_plan_id":"free"},{"bike_id":"21edfed3-fb59-4281-84d0-ebb8bb92a86b","system_id":"levelo_inurba_marseille","lat":43.279742,"lon":5.38744,"is_reserved":false,"is_disabled":false,"rental_uris":{"android":"levelo://app?vid=21edfed3-fb59-4281-84d0-ebb8bb92a86b","ios":"levelo://app?vid=21edfed3-fb59-4281-84d0-ebb8bb92a86b"},"vehicle_type_id":"4","last_reported":1702109320,"current_range_meters":0,"station_id":"ce4bhg12rcd13ifvqf80","pricing_plan_id":"free"},{"bike_id":"89e688a0-f211-4ce0-bde6-dd5c803116b8","system_id":"levelo_inurba_marseille","lat":43.279742,"lon":5.38744,"is_reserved":false,"is_disabled":false,"rental_uris":{"android":"levelo://app?vid=89e688a0-f211-4ce0-bde6-dd5c803116b8","ios":"levelo://app?vid=89e688a0-f211-4ce0-bde6-dd5c803116b8"},"vehicle_type_id":"4","last_reported":1702109320,"current_range_meters":25600,"station_id":"ce4bhg12rcd13ifvqf80","pricing_plan_id":"free"},{"bike_id":"a432f837-3ae9-44cc-9ee3-2f2e81165017","system_id":"levelo_inurba_marseille","lat":43.2797,"lon":5.387463,"is_reserved":false,"is_disabled":false,"rental_uris":{"android":"levelo://app?vid=a432f837-3ae9-44cc-9ee3-2f2e81165017","ios":"levelo://app?vid=a432f837-3ae9-44cc-9ee3-2f2e81165017"},"vehicle_type_id":"4","last_reported":1702109320,"current_range_meters":7600,"station_id":"ce4bhg12rcd13ifvqf80","pricing_plan_id":"free"},{"bike_id":"71b63bbf-97e6-4b65-9ef6-e4b2a4c6338d","system_id":"levelo_inurba_marseille","lat":43.325243,"lon":5.414326,"is_reserved":false,"is_disabled":false,"rental_uris":{"android":"levelo://app?vid=71b63bbf-97e6-4b65-9ef6-e4b2a4c6338d","ios":"levelo://app?vid=71b63bbf-97e6-4b65-9ef6-e4b2a4c6338d"},"vehicle_type_id":"4","last_reported":1702109320,"current_range_meters":26000,"station_id":"ce4bhq12rcd13ifvqhhg","pricing_plan_id":"free"},{"bike_id":"f3194e18-3c74-4f0b-a190-3f1f1c3e4a59","system_id":"levelo_inurba_marseille","lat":43.277936,"lon":5.390203,"is_reserved":false,"is_disabled":false,"rental_uris":{"android":"levelo://app?vid=f3194e18-3c74-4f0b-a190-3f1f1c3e4a59","ios":"levelo://app?vid=f3194e18-3c74-4f0b-a190-3f1f1c3e4a59"},"vehicle_type_id":"4","last_reported":1702109320,"current_range_meters":2400,"station_id":"","pricing_plan_id":"free"},{"bike_id":"cad2aa93-1dd6-4f61-aed7-63bd8874b030","system_id":"levelo_inurba_marseille","lat":43.30355,"lon":5.41875,"is_reserved":false,"is_disabled":false,"rental_uris":{"android":"levelo://app?vid=cad2aa93-1dd6-4f61-aed7-63bd8874b030","ios":"levelo://app?vid=cad2aa93-1dd6-4f61-aed7-63bd8874b030"},"vehicle_type_id":"4","last_reported":1702109320,"current_range_meters":4800,"station_id":"ce4bhop2rcd13ifvqh7g","pricing_plan_id":"free"},{"bike_id":"24543067-89fb-4809-919a-61ff64ddfd63","system_id":"levelo_inurba_marseille","lat":43.33612,"lon":5.410321,"is_reserved":false,"is_disabled":false,"rental_uris":{"android":"levelo://app?vid=24543067-89fb-4809-919a-61ff64ddfd63","ios":"levelo://app?vid=24543067-89fb-4809-919a-61ff64ddfd63"},"vehicle_type_id":"4","last_reported":1702109320,"current_range_meters":3200,"station_id":"ce4bhqh2rcd13ifvqhmg","pricing_plan_id":"free"},{"bike_id":"89f003f7-cfb5-467e-9728-23686c1aedda","system_id":"levelo_inurba_marseille","lat":43.278399,"lon":5.392139,"is_reserved":false,"is_disabled":false,"rental_uris":{"android":"levelo://app?vid=89f003f7-cfb5-467e-9728-23686c1aedda","ios":"levelo://app?vid=89f003f7-cfb5-467e-9728-23686c1aedda"},"vehicle_type_id":"4","last_reported":1702109320,"current_range_meters":26400,"station_id":"ce4bhjp2rcd13ifvqga0","pricing_plan_id":"free"},{"bike_id":"64bbba07-a435-4543-858c-87875b1b48cf","system_id":"levelo_inurba_marseille","lat":43.275625,"lon":5.384392,"is_reserved":false,"is_disabled":false,"rental_uris":{"android":"levelo://app?vid=64bbba07-a435-4543-858c-87875b1b48cf","ios":"levelo://app?vid=64bbba07-a435-4543-858c-87875b1b48cf"},"vehicle_type_id":"4","last_reported":1702109320,"current_range_meters":19600,"station_id":"ce4bhh92rcd13ifvqfi0","pricing_plan_id":"free"},{"bike_id":"bd309c78-c820-47d6-8ca2-d32903baef91","system_id":"levelo_inurba_marseille","lat":43.276325,"lon":5.391868,"is_reserved":false,"is_disabled":false,"rental_uris":{"android":"levelo://app?vid=bd309c78-c820-47d6-8ca2-d32903baef91","ios":"levelo://app?vid=bd309c78-c820-47d6-8ca2-d32903baef91"},"vehicle_type_id":"4","last_reported":1702109320,"current_range_meters":8000,"station_id":"","pricing_plan_id":"free"},{"bike_id":"fc4bcc5b-5f4e-42a1-8cca-78d5c651475f","system_id":"levelo_inurba_marseille","lat":43.317121,"lon":5.423936,"is_reserved":false,"is_disabled":false,"rental_uris":{"android":"levelo://app?vid=fc4bcc5b-5f4e-42a1-8cca-78d5c651475f","ios":"levelo://app?vid=fc4bcc5b-5f4e-42a1-8cca-78d5c651475f"},"vehicle_type_id":"4","last_reported":1702109320,"current_range_meters":26400,"station_id":"ce4bhp92rcd13ifvqhbg","pricing_plan_id":"free"},{"bike_id":"b5e520e0-8911-4af3-a2d4-7d3ed4e4e33e","system_id":"levelo_inurba_marseille","lat":43.31712,"lon":5.424,"is_reserved":false,"is_disabled":false,"rental_uris":{"android":"levelo://app?vid=b5e520e0-8911-4af3-a2d4-7d3ed4e4e33e","ios":"levelo://app?vid=b5e520e0-8911-4af3-a2d4-7d3ed4e4e33e"},"vehicle_type_id":"4","last_reported":1702109320,"current_range_meters":11200,"station_id":"ce4bhp92rcd13ifvqhbg","pricing_plan_id":"free"},{"bike_id":"02791883-a925-42a0-9dd3-b7193f6a574b","system_id":"levelo_inurba_marseille","lat":43.31715,"lon":5.424,"is_reserved":false,"is_disabled":false,"rental_uris":{"android":"levelo://app?vid=02791883-a925-42a0-9dd3-b7193f6a574b","ios":"levelo://app?vid=02791883-a925-42a0-9dd3-b7193f6a574b"},"vehicle_type_id":"4","last_reported":1702109320,"current_range_meters":4800,"station_id":"ce4bhp92rcd13ifvqhbg","pricing_plan_id":"free"},{"bike_id":"e6ff414d-6f05-44d2-b7c6-4a89a6fc64e2","system_id":"levelo_inurba_marseille","lat":43.310869,"lon":5.424268,"is_reserved":false,"is_disabled":false,"rental_uris":{"android":"levelo://app?vid=e6ff414d-6f05-44d2-b7c6-4a89a6fc64e2","ios":"levelo://app?vid=e6ff414d-6f05-44d2-b7c6-4a89a6fc64e2"},"vehicle_type_id":"4","last_reported":1702109320,"current_range_meters":5600,"station_id":"ce4bhp92rcd13ifvqhag","pricing_plan_id":"free"},{"bike_id":"3382fddf-23bf-43e2-9be0-1a0233fdea3a","system_id":"levelo_inurba_marseille","lat":43.31085,"lon":5.42428,"is_reserved":false,"is_disabled":false,"rental_uris":{"android":"levelo://app?vid=3382fddf-23bf-43e2-9be0-1a0233fdea3a","ios":"levelo://app?vid=3382fddf-23bf-43e2-9be0-1a0233fdea3a"},"vehicle_type_id":"4","last_reported":1702109320,"current_range_meters":29200,"station_id":"ce4bhp92rcd13ifvqhag","pricing_plan_id":"free"},{"bike_id":"0f7a9644-c470-46e7-ae97-75a010349f8b","system_id":"levelo_inurba_marseille","lat":43.317121,"lon":5.423936,"is_reserved":false,"is_disabled":false,"rental_uris":{"android":"levelo://app?vid=0f7a9644-c470-46e7-ae97-75a010349f8b","ios":"levelo://app?vid=0f7a9644-c470-46e7-ae97-75a010349f8b"},"vehicle_type_id":"4","last_reported":1702109320,"current_range_meters":26800,"station_id":"ce4bhp92rcd13ifvqhbg","pricing_plan_id":"free"},{"bike_id":"88e59060-d458-48a8-8abe-8a1913097d92","system_id":"levelo_inurba_marseille","lat":43.317159,"lon":5.424022,"is_reserved":false,"is_disabled":false,"rental_uris":{"android":"levelo://app?vid=88e59060-d458-48a8-8abe-8a1913097d92","ios":"levelo://app?vid=88e59060-d458-48a8-8abe-8a1913097d92"},"vehicle_type_id":"4","last_reported":1702109320,"current_range_meters":26400,"station_id":"ce4bhp92rcd13ifvqhbg","pricing_plan_id":"free"},{"bike_id":"80038031-3601-4c51-b66a-c6c9131d41d1","system_id":"levelo_inurba_marseille","lat":43.310785,"lon":5.424305,"is_reserved":false,"is_disabled":false,"rental_uris":{"android":"levelo://app?vid=80038031-3601-4c51-b66a-c6c9131d41d1","ios":"levelo://app?vid=80038031-3601-4c51-b66a-c6c9131d41d1"},"vehicle_type_id":"4","last_reported":1702109320,"current_range_meters":30400,"station_id":"ce4bhp92rcd13ifvqhag","pricing_plan_id":"free"},{"bike_id":"e7bd1e73-4f86-473d-905c-a7b0f3d6ad8a","system_id":"levelo_inurba_marseille","lat":43.31723,"lon":5.42405,"is_reserved":false,"is_disabled":false,"rental_uris":{"android":"levelo://app?vid=e7bd1e73-4f86-473d-905c-a7b0f3d6ad8a","ios":"levelo://app?vid=e7bd1e73-4f86-473d-905c-a7b0f3d6ad8a"},"vehicle_type_id":"4","last_reported":1702109320,"current_range_meters":18000,"station_id":"ce4bhp92rcd13ifvqhbg","pricing_plan_id":"free"},{"bike_id":"fe6596e6-baa8-4e45-9baf-7421815b8310","system_id":"levelo_inurba_marseille","lat":43.31083,"lon":5.42432,"is_reserved":false,"is_disabled":false,"rental_uris":{"android":"levelo://app?vid=fe6596e6-baa8-4e45-9baf-7421815b8310","ios":"levelo://app?vid=fe6596e6-baa8-4e45-9baf-7421815b8310"},"vehicle_type_id":"4","last_reported":1702109320,"current_range_meters":16000,"station_id":"ce4bhp92rcd13ifvqhag","pricing_plan_id":"free"},{"bike_id":"c58024d2-cabc-4012-868c-d0b5976a6bb0","system_id":"levelo_inurba_marseille","lat":43.317121,"lon":5.423936,"is_reserved":false,"is_disabled":false,"rental_uris":{"android":"levelo://app?vid=c58024d2-cabc-4012-868c-d0b5976a6bb0","ios":"levelo://app?vid=c58024d2-cabc-4012-868c-d0b5976a6bb0"},"vehicle_type_id":"4","last_reported":1702109320,"current_range_meters":28800,"station_id":"ce4bhp92rcd13ifvqhbg","pricing_plan_id":"free"},{"bike_id":"48e3df08-57dc-434d-a06c-f6f751cd351f","system_id":"levelo_inurba_marseille","lat":43.310785,"lon":5.424305,"is_reserved":false,"is_disabled":false,"rental_uris":{"android":"levelo://app?vid=48e3df08-57dc-434d-a06c-f6f751cd351f","ios":"levelo://app?vid=48e3df08-57dc-434d-a06c-f6f751cd351f"},"vehicle_type_id":"4","last_reported":1702109320,"current_range_meters":20800,"station_id":"ce4bhp92rcd13ifvqhag","pricing_plan_id":"free"},{"bike_id":"63133364-316e-458e-b234-bbd4926c63fc","system_id":"levelo_inurba_marseille","lat":43.27583,"lon":5.39474,"is_reserved":false,"is_disabled":false,"rental_uris":{"android":"levelo://app?vid=63133364-316e-458e-b234-bbd4926c63fc","ios":"levelo://app?vid=63133364-316e-458e-b234-bbd4926c63fc"},"vehicle_type_id":"4","last_reported":1702109320,"current_range_meters":8800,"station_id":"","pricing_plan_id":"free"},{"bike_id":"18b63ca2-2bc4-4aa2-a9e6-ae18f6be1c35","system_id":"levelo_inurba_marseille","lat":43.273125,"lon":5.390731,"is_reserved":false,"is_disabled":false,"rental_uris":{"android":"levelo://app?vid=18b63ca2-2bc4-4aa2-a9e6-ae18f6be1c35","ios":"levelo://app?vid=18b63ca2-2bc4-4aa2-a9e6-ae18f6be1c35"},"vehicle_type_id":"4","last_reported":1702109320,"current_range_meters":27200,"station_id":"ce4bhgp2rcd13ifvqfe0","pricing_plan_id":"free"},{"bike_id":"3e4a4c93-9b65-4b8c-ad85-0235506115da","system_id":"levelo_inurba_marseille","lat":43.274099,"lon":5.394019,"is_reserved":false,"is_disabled":false,"rental_uris":{"android":"levelo://app?vid=3e4a4c93-9b65-4b8c-ad85-0235506115da","ios":"levelo://app?vid=3e4a4c93-9b65-4b8c-ad85-0235506115da"},"vehicle_type_id":"4","last_reported":1702109320,"current_range_meters":11600,"station_id":"ce4bhdp2rcd13ifvqf20","pricing_plan_id":"free"},{"bike_id":"3500ff95-ad50-4c05-a1e2-2faf185b7e1c","system_id":"levelo_inurba_marseille","lat":43.304096,"lon":5.425385,"is_reserved":false,"is_disabled":false,"rental_uris":{"android":"levelo://app?vid=3500ff95-ad50-4c05-a1e2-2faf185b7e1c","ios":"levelo://app?vid=3500ff95-ad50-4c05-a1e2-2faf185b7e1c"},"vehicle_type_id":"4","last_reported":1702109320,"current_range_meters":13200,"station_id":"ce4bhoh2rcd13ifvqh6g","pricing_plan_id":"free"},{"bike_id":"fc6794cf-495d-453d-b822-fc2923d07b21","system_id":"levelo_inurba_marseille","lat":43.304096,"lon":5.425385,"is_reserved":false,"is_disabled":false,"rental_uris":{"android":"levelo://app?vid=fc6794cf-495d-453d-b822-fc2923d07b21","ios":"levelo://app?vid=fc6794cf-495d-453d-b822-fc2923d07b21"},"vehicle_type_id":"4","last_reported":1702109320,"current_range_meters":12000,"station_id":"ce4bhoh2rcd13ifvqh6g","pricing_plan_id":"free"},{"bike_id":"b0ace1ee-48c1-47ff-b8ca-0f59683651a4","system_id":"levelo_inurba_marseille","lat":43.295523,"lon":5.422926,"is_reserved":false,"is_disabled":false,"rental_uris":{"android":"levelo://app?vid=b0ace1ee-48c1-47ff-b8ca-0f59683651a4","ios":"levelo://app?vid=b0ace1ee-48c1-47ff-b8ca-0f59683651a4"},"vehicle_type_id":"4","last_reported":1702109320,"current_range_meters":30400,"station_id":"ce4bhph2rcd13ifvqhdg","pricing_plan_id":"free"},{"bike_id":"281c8529-1375-471b-a05f-597307bf1b59","system_id":"levelo_inurba_marseille","lat":43.295511,"lon":5.422926,"is_reserved":false,"is_disabled":false,"rental_uris":{"android":"levelo://app?vid=281c8529-1375-471b-a05f-597307bf1b59","ios":"levelo://app?vid=281c8529-1375-471b-a05f-597307bf1b59"},"vehicle_type_id":"4","last_reported":1702109320,"current_range_meters":12000,"station_id":"ce4bhph2rcd13ifvqhdg","pricing_plan_id":"free"},{"bike_id":"d04013a3-534f-4ad9-a405-306181f29573","system_id":"levelo_inurba_marseille","lat":43.295511,"lon":5.422926,"is_reserved":false,"is_disabled":false,"rental_uris":{"android":"levelo://app?vid=d04013a3-534f-4ad9-a405-306181f29573","ios":"levelo://app?vid=d04013a3-534f-4ad9-a405-306181f29573"},"vehicle_type_id":"4","last_reported":1702109320,"current_range_meters":15200,"station_id":"ce4bhph2rcd13ifvqhdg","pricing_plan_id":"free"},{"bike_id":"5ed4ca3b-e38e-4196-acea-f278768787eb","system_id":"levelo_inurba_marseille","lat":43.295511,"lon":5.422926,"is_reserved":false,"is_disabled":false,"rental_uris":{"android":"levelo://app?vid=5ed4ca3b-e38e-4196-acea-f278768787eb","ios":"levelo://app?vid=5ed4ca3b-e38e-4196-acea-f278768787eb"},"vehicle_type_id":"4","last_reported":1702109320,"current_range_meters":31600,"station_id":"ce4bhph2rcd13ifvqhdg","pricing_plan_id":"free"},{"bike_id":"c8108039-44dd-4fb1-b7b8-29be72bcb52c","system_id":"levelo_inurba_marseille","lat":43.295511,"lon":5.422926,"is_reserved":false,"is_disabled":false,"rental_uris":{"android":"levelo://app?vid=c8108039-44dd-4fb1-b7b8-29be72bcb52c","ios":"levelo://app?vid=c8108039-44dd-4fb1-b7b8-29be72bcb52c"},"vehicle_type_id":"4","last_reported":1702109320,"current_range_meters":16800,"station_id":"ce4bhph2rcd13ifvqhdg","pricing_plan_id":"free"},{"bike_id":"4f9e48a0-eacd-4e63-bd3c-330b19e5c041","system_id":"levelo_inurba_marseille","lat":43.295511,"lon":5.422926,"is_reserved":false,"is_disabled":false,"rental_uris":{"android":"levelo://app?vid=4f9e48a0-eacd-4e63-bd3c-330b19e5c041","ios":"levelo://app?vid=4f9e48a0-eacd-4e63-bd3c-330b19e5c041"},"vehicle_type_id":"4","last_reported":1702109320,"current_range_meters":31600,"station_id":"ce4bhph2rcd13ifvqhdg","pricing_plan_id":"free"},{"bike_id":"8f021145-48f8-459b-aef0-f8921e18b0a0","system_id":"levelo_inurba_marseille","lat":43.27214,"lon":5.3925,"is_reserved":false,"is_disabled":false,"rental_uris":{"android":"levelo://app?vid=8f021145-48f8-459b-aef0-f8921e18b0a0","ios":"levelo://app?vid=8f021145-48f8-459b-aef0-f8921e18b0a0"},"vehicle_type_id":"4","last_reported":1702109320,"current_range_meters":2400,"station_id":"","pricing_plan_id":"free"},{"bike_id":"03db0e9a-78ef-4e06-9234-2d9686245c4d","system_id":"levelo_inurba_marseille","lat":43.269467,"lon":5.386439,"is_reserved":false,"is_disabled":false,"rental_uris":{"android":"levelo://app?vid=03db0e9a-78ef-4e06-9234-2d9686245c4d","ios":"levelo://app?vid=03db0e9a-78ef-4e06-9234-2d9686245c4d"},"vehicle_type_id":"4","last_reported":1702109320,"current_range_meters":30000,"station_id":"ce4bhh92rcd13ifvqfh0","pricing_plan_id":"free"},{"bike_id":"2c592db3-e82c-4b03-a22a-e9d541d8110a","system_id":"levelo_inurba_marseille","lat":43.269379,"lon":5.389261,"is_reserved":false,"is_disabled":false,"rental_uris":{"android":"levelo://app?vid=2c592db3-e82c-4b03-a22a-e9d541d8110a","ios":"levelo://app?vid=2c592db3-e82c-4b03-a22a-e9d541d8110a"},"vehicle_type_id":"4","last_reported":1702109320,"current_range_meters":1600,"station_id":"ce4bhhh2rcd13ifvqfl0","pricing_plan_id":"free"},{"bike_id":"57ac2a0e-aba7-47a4-8e41-5b9c19448ba4","system_id":"levelo_inurba_marseille","lat":43.26681,"lon":5.382694,"is_reserved":false,"is_disabled":false,"rental_uris":{"android":"levelo://app?vid=57ac2a0e-aba7-47a4-8e41-5b9c19448ba4","ios":"levelo://app?vid=57ac2a0e-aba7-47a4-8e41-5b9c19448ba4"},"vehicle_type_id":"4","last_reported":1702109320,"current_range_meters":25200,"station_id":"ce4bhg92rcd13ifvqf90","pricing_plan_id":"free"},{"bike_id":"6a42104f-e497-4f32-91f4-a30846d5a312","system_id":"levelo_inurba_marseille","lat":43.265714,"lon":5.372891,"is_reserved":false,"is_disabled":false,"rental_uris":{"android":"levelo://app?vid=6a42104f-e497-4f32-91f4-a30846d5a312","ios":"levelo://app?vid=6a42104f-e497-4f32-91f4-a30846d5a312"},"vehicle_type_id":"4","last_reported":1702109320,"current_range_meters":23600,"station_id":"ce4bhg12rcd13ifvqf70","pricing_plan_id":"free"},{"bike_id":"3315ff64-44e6-417a-b2e7-1e8925684364","system_id":"levelo_inurba_marseille","lat":43.279881,"lon":5.416579,"is_reserved":false,"is_disabled":false,"rental_uris":{"android":"levelo://app?vid=3315ff64-44e6-417a-b2e7-1e8925684364","ios":"levelo://app?vid=3315ff64-44e6-417a-b2e7-1e8925684364"},"vehicle_type_id":"4","last_reported":1702109320,"current_range_meters":4000,"station_id":"ce4bho12rcd13ifvqh1g","pricing_plan_id":"free"},{"bike_id":"8140807f-4a5f-4495-b23b-fe3acd4a5647","system_id":"levelo_inurba_marseille","lat":43.267966,"lon":5.393976,"is_reserved":false,"is_disabled":false,"rental_uris":{"android":"levelo://app?vid=8140807f-4a5f-4495-b23b-fe3acd4a5647","ios":"levelo://app?vid=8140807f-4a5f-4495-b23b-fe3acd4a5647"},"vehicle_type_id":"4","last_reported":1702109320,"current_range_meters":26800,"station_id":"ce4bhh12rcd13ifvqfg0","pricing_plan_id":"free"},{"bike_id":"98357e46-a44c-4d80-9f60-5a45352f4fdd","system_id":"levelo_inurba_marseille","lat":43.265571,"lon":5.390032,"is_reserved":false,"is_disabled":false,"rental_uris":{"android":"levelo://app?vid=98357e46-a44c-4d80-9f60-5a45352f4fdd","ios":"levelo://app?vid=98357e46-a44c-4d80-9f60-5a45352f4fdd"},"vehicle_type_id":"4","last_reported":1702109320,"current_range_meters":22000,"station_id":"ce4bhe12rcd13ifvqf30","pricing_plan_id":"free"},{"bike_id":"953e4af0-c270-490b-8a35-21adbad82a34","system_id":"levelo_inurba_marseille","lat":43.308051,"lon":5.43527,"is_reserved":false,"is_disabled":false,"rental_uris":{"android":"levelo://app?vid=953e4af0-c270-490b-8a35-21adbad82a34","ios":"levelo://app?vid=953e4af0-c270-490b-8a35-21adbad82a34"},"vehicle_type_id":"4","last_reported":1702109320,"current_range_meters":21600,"station_id":"ce4bhph2rcd13ifvqheg","pricing_plan_id":"free"},{"bike_id":"1a5742d3-94c0-403f-a68e-fc231cd78670","system_id":"levelo_inurba_marseille","lat":43.265569,"lon":5.390047,"is_reserved":false,"is_disabled":false,"rental_uris":{"android":"levelo://app?vid=1a5742d3-94c0-403f-a68e-fc231cd78670","ios":"levelo://app?vid=1a5742d3-94c0-403f-a68e-fc231cd78670"},"vehicle_type_id":"4","last_reported":1702109320,"current_range_meters":26800,"station_id":"ce4bhe12rcd13ifvqf30","pricing_plan_id":"free"},{"bike_id":"f9b02aaf-db50-4ee2-a015-da8c6eb9c2f1","system_id":"levelo_inurba_marseille","lat":43.261782,"lon":5.374515,"is_reserved":false,"is_disabled":false,"rental_uris":{"android":"levelo://app?vid=f9b02aaf-db50-4ee2-a015-da8c6eb9c2f1","ios":"levelo://app?vid=f9b02aaf-db50-4ee2-a015-da8c6eb9c2f1"},"vehicle_type_id":"4","last_reported":1702109320,"current_range_meters":29200,"station_id":"ce4bhgp2rcd13ifvqfc0","pricing_plan_id":"free"},{"bike_id":"10bd98e0-d0a2-4a25-a407-cc97034aa68c","system_id":"levelo_inurba_marseille","lat":43.31713,"lon":5.43702,"is_reserved":false,"is_disabled":false,"rental_uris":{"android":"levelo://app?vid=10bd98e0-d0a2-4a25-a407-cc97034aa68c","ios":"levelo://app?vid=10bd98e0-d0a2-4a25-a407-cc97034aa68c"},"vehicle_type_id":"4","last_reported":1702109320,"current_range_meters":8000,"station_id":"ce4bhp92rcd13ifvqhcg","pricing_plan_id":"free"},{"bike_id":"766f9bc5-cf93-4903-bf4f-bd10204d701c","system_id":"levelo_inurba_marseille","lat":43.261782,"lon":5.374515,"is_reserved":false,"is_disabled":false,"rental_uris":{"android":"levelo://app?vid=766f9bc5-cf93-4903-bf4f-bd10204d701c","ios":"levelo://app?vid=766f9bc5-cf93-4903-bf4f-bd10204d701c"},"vehicle_type_id":"4","last_reported":1702109320,"current_range_meters":19600,"station_id":"ce4bhgp2rcd13ifvqfc0","pricing_plan_id":"free"},{"bike_id":"7bffc4ea-9a78-4f9c-8551-13bce1b1dbc7","system_id":"levelo_inurba_marseille","lat":43.317104,"lon":5.436818,"is_reserved":false,"is_disabled":false,"rental_uris":{"android":"levelo://app?vid=7bffc4ea-9a78-4f9c-8551-13bce1b1dbc7","ios":"levelo://app?vid=7bffc4ea-9a78-4f9c-8551-13bce1b1dbc7"},"vehicle_type_id":"4","last_reported":1702109320,"current_range_meters":31200,"station_id":"ce4bhp92rcd13ifvqhcg","pricing_plan_id":"free"},{"bike_id":"089a56e4-f254-4271-978a-cf9b913cc864","system_id":"levelo_inurba_marseille","lat":43.271388,"lon":5.409269,"is_reserved":false,"is_disabled":false,"rental_uris":{"android":"levelo://app?vid=089a56e4-f254-4271-978a-cf9b913cc864","ios":"levelo://app?vid=089a56e4-f254-4271-978a-cf9b913cc864"},"vehicle_type_id":"4","last_reported":1702109320,"current_range_meters":24400,"station_id":"ce4bhl12rcd13ifvqgf0","pricing_plan_id":"free"},{"bike_id":"e682df97-8240-4ca3-aae3-148a900e0dc3","system_id":"levelo_inurba_marseille","lat":43.26202,"lon":5.379299,"is_reserved":false,"is_disabled":false,"rental_uris":{"android":"levelo://app?vid=e682df97-8240-4ca3-aae3-148a900e0dc3","ios":"levelo://app?vid=e682df97-8240-4ca3-aae3-148a900e0dc3"},"vehicle_type_id":"4","last_reported":1702109320,"current_range_meters":26000,"station_id":"ce4bhjp2rcd13ifvqg90","pricing_plan_id":"free"},{"bike_id":"c16ba598-e268-423a-ba8d-6002d2a98117","system_id":"levelo_inurba_marseille","lat":43.298768,"lon":5.43643,"is_reserved":false,"is_disabled":false,"rental_uris":{"android":"levelo://app?vid=c16ba598-e268-423a-ba8d-6002d2a98117","ios":"levelo://app?vid=c16ba598-e268-423a-ba8d-6002d2a98117"},"vehicle_type_id":"4","last_reported":1702109320,"current_range_meters":31200,"station_id":"ce4bhpp2rcd13ifvqhfg","pricing_plan_id":"free"},{"bike_id":"6b17b896-99f2-456b-929e-df3811eeb274","system_id":"levelo_inurba_marseille","lat":43.298768,"lon":5.43643,"is_reserved":false,"is_disabled":false,"rental_uris":{"android":"levelo://app?vid=6b17b896-99f2-456b-929e-df3811eeb274","ios":"levelo://app?vid=6b17b896-99f2-456b-929e-df3811eeb274"},"vehicle_type_id":"4","last_reported":1702109320,"current_range_meters":28000,"station_id":"ce4bhpp2rcd13ifvqhfg","pricing_plan_id":"free"},{"bike_id":"70c52fa1-91be-4fbd-9217-7a0c668f9310","system_id":"levelo_inurba_marseille","lat":43.298981,"lon":5.436633,"is_reserved":false,"is_disabled":false,"rental_uris":{"android":"levelo://app?vid=70c52fa1-91be-4fbd-9217-7a0c668f9310","ios":"levelo://app?vid=70c52fa1-91be-4fbd-9217-7a0c668f9310"},"vehicle_type_id":"4","last_reported":1702109320,"current_range_meters":26400,"station_id":"ce4bhpp2rcd13ifvqhfg","pricing_plan_id":"free"},{"bike_id":"2cd90db9-b508-45af-afd0-5b4b8fae22ee","system_id":"levelo_inurba_marseille","lat":43.298768,"lon":5.43643,"is_reserved":false,"is_disabled":false,"rental_uris":{"android":"levelo://app?vid=2cd90db9-b508-45af-afd0-5b4b8fae22ee","ios":"levelo://app?vid=2cd90db9-b508-45af-afd0-5b4b8fae22ee"},"vehicle_type_id":"4","last_reported":1702109320,"current_range_meters":26400,"station_id":"ce4bhpp2rcd13ifvqhfg","pricing_plan_id":"free"},{"bike_id":"4f68f183-a711-4386-a731-e8ea8e2f115e","system_id":"levelo_inurba_marseille","lat":43.298768,"lon":5.43643,"is_reserved":false,"is_disabled":false,"rental_uris":{"android":"levelo://app?vid=4f68f183-a711-4386-a731-e8ea8e2f115e","ios":"levelo://app?vid=4f68f183-a711-4386-a731-e8ea8e2f115e"},"vehicle_type_id":"4","last_reported":1702109320,"current_range_meters":25600,"station_id":"ce4bhpp2rcd13ifvqhfg","pricing_plan_id":"free"},{"bike_id":"ca4db8a8-5b98-4b78-bc3d-514f38028a3d","system_id":"levelo_inurba_marseille","lat":43.298768,"lon":5.43643,"is_reserved":false,"is_disabled":false,"rental_uris":{"android":"levelo://app?vid=ca4db8a8-5b98-4b78-bc3d-514f38028a3d","ios":"levelo://app?vid=ca4db8a8-5b98-4b78-bc3d-514f38028a3d"},"vehicle_type_id":"4","last_reported":1702109320,"current_range_meters":31200,"station_id":"ce4bhpp2rcd13ifvqhfg","pricing_plan_id":"free"},{"bike_id":"5215ad78-0811-4492-88ee-04afc35bf3a5","system_id":"levelo_inurba_marseille","lat":43.298768,"lon":5.43643,"is_reserved":false,"is_disabled":false,"rental_uris":{"android":"levelo://app?vid=5215ad78-0811-4492-88ee-04afc35bf3a5","ios":"levelo://app?vid=5215ad78-0811-4492-88ee-04afc35bf3a5"},"vehicle_type_id":"4","last_reported":1702109320,"current_range_meters":31200,"station_id":"ce4bhpp2rcd13ifvqhfg","pricing_plan_id":"free"},{"bike_id":"9f325604-7097-43d9-8e58-831174294b2f","system_id":"levelo_inurba_marseille","lat":43.298768,"lon":5.43643,"is_reserved":false,"is_disabled":false,"rental_uris":{"android":"levelo://app?vid=9f325604-7097-43d9-8e58-831174294b2f","ios":"levelo://app?vid=9f325604-7097-43d9-8e58-831174294b2f"},"vehicle_type_id":"4","last_reported":1702109320,"current_range_meters":8400,"station_id":"ce4bhpp2rcd13ifvqhfg","pricing_plan_id":"free"},{"bike_id":"83e2018e-7127-4415-8bbf-2e347a9c6750","system_id":"levelo_inurba_marseille","lat":43.298964,"lon":5.436736,"is_reserved":false,"is_disabled":false,"rental_uris":{"android":"levelo://app?vid=83e2018e-7127-4415-8bbf-2e347a9c6750","ios":"levelo://app?vid=83e2018e-7127-4415-8bbf-2e347a9c6750"},"vehicle_type_id":"4","last_reported":1702109320,"current_range_meters":0,"station_id":"ce4bhpp2rcd13ifvqhfg","pricing_plan_id":"free"},{"bike_id":"d3dc4849-a8f2-4ec1-9ff5-0f9c0b1fbf95","system_id":"levelo_inurba_marseille","lat":43.281548,"lon":5.42643,"is_reserved":false,"is_disabled":false,"rental_uris":{"android":"levelo://app?vid=d3dc4849-a8f2-4ec1-9ff5-0f9c0b1fbf95","ios":"levelo://app?vid=d3dc4849-a8f2-4ec1-9ff5-0f9c0b1fbf95"},"vehicle_type_id":"4","last_reported":1702109320,"current_range_meters":23600,"station_id":"ce4bhnh2rcd13ifvqgug","pricing_plan_id":"free"},{"bike_id":"2d70b9fc-8d42-4ce5-98c1-cdfca249cc2c","system_id":"levelo_inurba_marseille","lat":43.2815,"lon":5.4264,"is_reserved":false,"is_disabled":false,"rental_uris":{"android":"levelo://app?vid=2d70b9fc-8d42-4ce5-98c1-cdfca249cc2c","ios":"levelo://app?vid=2d70b9fc-8d42-4ce5-98c1-cdfca249cc2c"},"vehicle_type_id":"4","last_reported":1702109320,"current_range_meters":28800,"station_id":"ce4bhnh2rcd13ifvqgug","pricing_plan_id":"free"},{"bike_id":"f56607a5-8c0d-4214-a86e-b954d1fd309d","system_id":"levelo_inurba_marseille","lat":43.2815,"lon":5.42644,"is_reserved":false,"is_disabled":false,"rental_uris":{"android":"levelo://app?vid=f56607a5-8c0d-4214-a86e-b954d1fd309d","ios":"levelo://app?vid=f56607a5-8c0d-4214-a86e-b954d1fd309d"},"vehicle_type_id":"4","last_reported":1702109320,"current_range_meters":800,"station_id":"ce4bhnh2rcd13ifvqgug","pricing_plan_id":"free"},{"bike_id":"bf0f85ca-5630-4c1a-b3f1-d0fc5f67252f","system_id":"levelo_inurba_marseille","lat":43.281548,"lon":5.42643,"is_reserved":false,"is_disabled":false,"rental_uris":{"android":"levelo://app?vid=bf0f85ca-5630-4c1a-b3f1-d0fc5f67252f","ios":"levelo://app?vid=bf0f85ca-5630-4c1a-b3f1-d0fc5f67252f"},"vehicle_type_id":"4","last_reported":1702109320,"current_range_meters":29200,"station_id":"ce4bhnh2rcd13ifvqgug","pricing_plan_id":"free"},{"bike_id":"afdd757f-82b6-4f1d-9e3a-8be3ea55fd6d","system_id":"levelo_inurba_marseille","lat":43.2607,"lon":5.393983,"is_reserved":false,"is_disabled":false,"rental_uris":{"android":"levelo://app?vid=afdd757f-82b6-4f1d-9e3a-8be3ea55fd6d","ios":"levelo://app?vid=afdd757f-82b6-4f1d-9e3a-8be3ea55fd6d"},"vehicle_type_id":"4","last_reported":1702109320,"current_range_meters":23200,"station_id":"ce4bhh92rcd13ifvqfj0","pricing_plan_id":"free"},{"bike_id":"5c6c0a20-db46-4949-8b8f-87d395f35c91","system_id":"levelo_inurba_marseille","lat":43.275028,"lon":5.424534,"is_reserved":false,"is_disabled":false,"rental_uris":{"android":"levelo://app?vid=5c6c0a20-db46-4949-8b8f-87d395f35c91","ios":"levelo://app?vid=5c6c0a20-db46-4949-8b8f-87d395f35c91"},"vehicle_type_id":"4","last_reported":1702109320,"current_range_meters":31200,"station_id":"ce4bhn92rcd13ifvqgrg","pricing_plan_id":"free"},{"bike_id":"dc314a54-9749-4de6-a9e7-5498795c6ccf","system_id":"levelo_inurba_marseille","lat":43.275028,"lon":5.424534,"is_reserved":false,"is_disabled":false,"rental_uris":{"android":"levelo://app?vid=dc314a54-9749-4de6-a9e7-5498795c6ccf","ios":"levelo://app?vid=dc314a54-9749-4de6-a9e7-5498795c6ccf"},"vehicle_type_id":"4","last_reported":1702109320,"current_range_meters":26800,"station_id":"ce4bhn92rcd13ifvqgrg","pricing_plan_id":"free"},{"bike_id":"81142fc0-e6d9-4e1f-ae31-ca988411e3e0","system_id":"levelo_inurba_marseille","lat":43.255776,"lon":5.382374,"is_reserved":false,"is_disabled":false,"rental_uris":{"android":"levelo://app?vid=81142fc0-e6d9-4e1f-ae31-ca988411e3e0","ios":"levelo://app?vid=81142fc0-e6d9-4e1f-ae31-ca988411e3e0"},"vehicle_type_id":"4","last_reported":1702109320,"current_range_meters":24400,"station_id":"ce4bhih2rcd13ifvqfs0","pricing_plan_id":"free"},{"bike_id":"354e625b-19c8-4c14-beeb-5ea32b3cdae5","system_id":"levelo_inurba_marseille","lat":43.258224,"lon":5.394369,"is_reserved":false,"is_disabled":false,"rental_uris":{"android":"levelo://app?vid=354e625b-19c8-4c14-beeb-5ea32b3cdae5","ios":"levelo://app?vid=354e625b-19c8-4c14-beeb-5ea32b3cdae5"},"vehicle_type_id":"4","last_reported":1702109320,"current_range_meters":28800,"station_id":"ce4bhip2rcd13ifvqft0","pricing_plan_id":"free"},{"bike_id":"8abbf737-67d5-43e8-a940-280135ae0cd8","system_id":"levelo_inurba_marseille","lat":43.25496,"lon":5.37651,"is_reserved":false,"is_disabled":false,"rental_uris":{"android":"levelo://app?vid=8abbf737-67d5-43e8-a940-280135ae0cd8","ios":"levelo://app?vid=8abbf737-67d5-43e8-a940-280135ae0cd8"},"vehicle_type_id":"4","last_reported":1702109320,"current_range_meters":30800,"station_id":"ce4bhh12rcd13ifvqff0","pricing_plan_id":"free"},{"bike_id":"d39dc9bc-17f6-48e6-941d-15b827721d86","system_id":"levelo_inurba_marseille","lat":43.254947,"lon":5.376454,"is_reserved":false,"is_disabled":false,"rental_uris":{"android":"levelo://app?vid=d39dc9bc-17f6-48e6-941d-15b827721d86","ios":"levelo://app?vid=d39dc9bc-17f6-48e6-941d-15b827721d86"},"vehicle_type_id":"4","last_reported":1702109320,"current_range_meters":26400,"station_id":"ce4bhh12rcd13ifvqff0","pricing_plan_id":"free"},{"bike_id":"6ed089ef-9932-4c16-91e9-dafe344c662d","system_id":"levelo_inurba_marseille","lat":43.270721,"lon":5.422764,"is_reserved":false,"is_disabled":false,"rental_uris":{"android":"levelo://app?vid=6ed089ef-9932-4c16-91e9-dafe344c662d","ios":"levelo://app?vid=6ed089ef-9932-4c16-91e9-dafe344c662d"},"vehicle_type_id":"4","last_reported":1702109320,"current_range_meters":12800,"station_id":"ce4bhk92rcd13ifvqgb0","pricing_plan_id":"free"},{"bike_id":"b892416b-65d0-482e-a86c-e596080a2ad5","system_id":"levelo_inurba_marseille","lat":43.27069,"lon":5.42282,"is_reserved":false,"is_disabled":false,"rental_uris":{"android":"levelo://app?vid=b892416b-65d0-482e-a86c-e596080a2ad5","ios":"levelo://app?vid=b892416b-65d0-482e-a86c-e596080a2ad5"},"vehicle_type_id":"4","last_reported":1702109320,"current_range_meters":23200,"station_id":"ce4bhk92rcd13ifvqgb0","pricing_plan_id":"free"},{"bike_id":"8544b240-4563-4356-b729-81f1ce86de4e","system_id":"levelo_inurba_marseille","lat":43.258658,"lon":5.398935,"is_reserved":false,"is_disabled":false,"rental_uris":{"android":"levelo://app?vid=8544b240-4563-4356-b729-81f1ce86de4e","ios":"levelo://app?vid=8544b240-4563-4356-b729-81f1ce86de4e"},"vehicle_type_id":"4","last_reported":1702109320,"current_range_meters":31600,"station_id":"ce4bhl92rcd13ifvqghg","pricing_plan_id":"free"},{"bike_id":"c4df22de-68a0-40f7-b2c2-6a6aaf6b0bbb","system_id":"levelo_inurba_marseille","lat":43.258658,"lon":5.398935,"is_reserved":false,"is_disabled":false,"rental_uris":{"android":"levelo://app?vid=c4df22de-68a0-40f7-b2c2-6a6aaf6b0bbb","ios":"levelo://app?vid=c4df22de-68a0-40f7-b2c2-6a6aaf6b0bbb"},"vehicle_type_id":"4","last_reported":1702109320,"current_range_meters":20000,"station_id":"ce4bhl92rcd13ifvqghg","pricing_plan_id":"free"},{"bike_id":"3a377878-b713-4aaf-aad2-3a453208969a","system_id":"levelo_inurba_marseille","lat":43.25924,"lon":5.40914,"is_reserved":false,"is_disabled":false,"rental_uris":{"android":"levelo://app?vid=3a377878-b713-4aaf-aad2-3a453208969a","ios":"levelo://app?vid=3a377878-b713-4aaf-aad2-3a453208969a"},"vehicle_type_id":"4","last_reported":1702109320,"current_range_meters":18000,"station_id":"ce4bhm92rcd13ifvqglg","pricing_plan_id":"free"},{"bike_id":"9c0ddfb3-23a0-4f2d-87b9-6806835818c0","system_id":"levelo_inurba_marseille","lat":43.257079,"lon":5.411051,"is_reserved":false,"is_disabled":false,"rental_uris":{"android":"levelo://app?vid=9c0ddfb3-23a0-4f2d-87b9-6806835818c0","ios":"levelo://app?vid=9c0ddfb3-23a0-4f2d-87b9-6806835818c0"},"vehicle_type_id":"4","last_reported":1702109320,"current_range_meters":26400,"station_id":"ce4bhkp2rcd13ifvqgd0","pricing_plan_id":"free"},{"bike_id":"c0a43abc-646e-4fe3-9405-a4ff532063ee","system_id":"levelo_inurba_marseille","lat":43.250966,"lon":5.395186,"is_reserved":false,"is_disabled":false,"rental_uris":{"android":"levelo://app?vid=c0a43abc-646e-4fe3-9405-a4ff532063ee","ios":"levelo://app?vid=c0a43abc-646e-4fe3-9405-a4ff532063ee"},"vehicle_type_id":"4","last_reported":1702109320,"current_range_meters":30400,"station_id":"ce4bhm12rcd13ifvqgkg","pricing_plan_id":"free"},{"bike_id":"4c5b5549-97d3-4997-8f8f-681ffdaf3a0c","system_id":"levelo_inurba_marseille","lat":43.25083,"lon":5.39516,"is_reserved":false,"is_disabled":false,"rental_uris":{"android":"levelo://app?vid=4c5b5549-97d3-4997-8f8f-681ffdaf3a0c","ios":"levelo://app?vid=4c5b5549-97d3-4997-8f8f-681ffdaf3a0c"},"vehicle_type_id":"4","last_reported":1702109320,"current_range_meters":4000,"station_id":"ce4bhm12rcd13ifvqgkg","pricing_plan_id":"free"},{"bike_id":"8942007c-b796-4f77-9496-778676fd6edc","system_id":"levelo_inurba_marseille","lat":43.250966,"lon":5.395186,"is_reserved":false,"is_disabled":false,"rental_uris":{"android":"levelo://app?vid=8942007c-b796-4f77-9496-778676fd6edc","ios":"levelo://app?vid=8942007c-b796-4f77-9496-778676fd6edc"},"vehicle_type_id":"4","last_reported":1702109320,"current_range_meters":31200,"station_id":"ce4bhm12rcd13ifvqgkg","pricing_plan_id":"free"},{"bike_id":"6b2d81c2-ffbe-4ac1-8327-c215b6692d14","system_id":"levelo_inurba_marseille","lat":43.25102,"lon":5.403214,"is_reserved":false,"is_disabled":false,"rental_uris":{"android":"levelo://app?vid=6b2d81c2-ffbe-4ac1-8327-c215b6692d14","ios":"levelo://app?vid=6b2d81c2-ffbe-4ac1-8327-c215b6692d14"},"vehicle_type_id":"4","last_reported":1702109320,"current_range_meters":28800,"station_id":"ce4bhlh2rcd13ifvqgig","pricing_plan_id":"free"},{"bike_id":"780ecb94-fb8a-4ef6-b203-33556b9bd786","system_id":"levelo_inurba_marseille","lat":43.25102,"lon":5.403214,"is_reserved":false,"is_disabled":false,"rental_uris":{"android":"levelo://app?vid=780ecb94-fb8a-4ef6-b203-33556b9bd786","ios":"levelo://app?vid=780ecb94-fb8a-4ef6-b203-33556b9bd786"},"vehicle_type_id":"4","last_reported":1702109320,"current_range_meters":20400,"station_id":"ce4bhlh2rcd13ifvqgig","pricing_plan_id":"free"},{"bike_id":"d8ec6ef7-52db-4dde-9927-1128a313208a","system_id":"levelo_inurba_marseille","lat":43.246461,"lon":5.389014,"is_reserved":false,"is_disabled":false,"rental_uris":{"android":"levelo://app?vid=d8ec6ef7-52db-4dde-9927-1128a313208a","ios":"levelo://app?vid=d8ec6ef7-52db-4dde-9927-1128a313208a"},"vehicle_type_id":"4","last_reported":1702109320,"current_range_meters":24800,"station_id":"ce4bhg12rcd13ifvqf60","pricing_plan_id":"free"},{"bike_id":"6fc9a2eb-0bc4-4389-b1f2-a7c90c2f9a07","system_id":"levelo_inurba_marseille","lat":43.24389,"lon":5.37052,"is_reserved":false,"is_disabled":false,"rental_uris":{"android":"levelo://app?vid=6fc9a2eb-0bc4-4389-b1f2-a7c90c2f9a07","ios":"levelo://app?vid=6fc9a2eb-0bc4-4389-b1f2-a7c90c2f9a07"},"vehicle_type_id":"4","last_reported":1702109320,"current_range_meters":25200,"station_id":"ce4bhhh2rcd13ifvqfk0","pricing_plan_id":"free"},{"bike_id":"e6b1ec81-ce9d-4367-ae87-6e5064f4fd3b","system_id":"levelo_inurba_marseille","lat":43.243884,"lon":5.370736,"is_reserved":false,"is_disabled":false,"rental_uris":{"android":"levelo://app?vid=e6b1ec81-ce9d-4367-ae87-6e5064f4fd3b","ios":"levelo://app?vid=e6b1ec81-ce9d-4367-ae87-6e5064f4fd3b"},"vehicle_type_id":"4","last_reported":1702109320,"current_range_meters":30800,"station_id":"ce4bhhh2rcd13ifvqfk0","pricing_plan_id":"free"},{"bike_id":"90b46009-8f90-4cc7-8ea1-08f62555240b","system_id":"levelo_inurba_marseille","lat":43.245581,"lon":5.395069,"is_reserved":false,"is_disabled":false,"rental_uris":{"android":"levelo://app?vid=90b46009-8f90-4cc7-8ea1-08f62555240b","ios":"levelo://app?vid=90b46009-8f90-4cc7-8ea1-08f62555240b"},"vehicle_type_id":"4","last_reported":1702109320,"current_range_meters":12800,"station_id":"ce4bhlp2rcd13ifvqgjg","pricing_plan_id":"free"},{"bike_id":"b3705516-da65-4902-b345-4cc53e261fdf","system_id":"levelo_inurba_marseille","lat":43.2408,"lon":5.37759,"is_reserved":false,"is_disabled":false,"rental_uris":{"android":"levelo://app?vid=b3705516-da65-4902-b345-4cc53e261fdf","ios":"levelo://app?vid=b3705516-da65-4902-b345-4cc53e261fdf"},"vehicle_type_id":"4","last_reported":1702109320,"current_range_meters":19200,"station_id":"","pricing_plan_id":"free"},{"bike_id":"868bb225-bffe-4b2e-9a8b-56b2a9d28e58","system_id":"levelo_inurba_marseille","lat":43.24075,"lon":5.3776,"is_reserved":false,"is_disabled":false,"rental_uris":{"android":"levelo://app?vid=868bb225-bffe-4b2e-9a8b-56b2a9d28e58","ios":"levelo://app?vid=868bb225-bffe-4b2e-9a8b-56b2a9d28e58"},"vehicle_type_id":"4","last_reported":1702109320,"current_range_meters":18800,"station_id":"ce4bhnp2rcd13ifvqgvg","pricing_plan_id":"free"},{"bike_id":"07f04f98-06c9-4309-b3fe-4415621f48f3","system_id":"levelo_inurba_marseille","lat":43.239703,"lon":5.366308,"is_reserved":false,"is_disabled":false,"rental_uris":{"android":"levelo://app?vid=07f04f98-06c9-4309-b3fe-4415621f48f3","ios":"levelo://app?vid=07f04f98-06c9-4309-b3fe-4415621f48f3"},"vehicle_type_id":"4","last_reported":1702109320,"current_range_meters":24400,"station_id":"ce4bhi12rcd13ifvqfp0","pricing_plan_id":"free"},{"bike_id":"f3af0f29-c6b3-45f1-8540-3a752563e91b","system_id":"levelo_inurba_marseille","lat":43.23968,"lon":5.36628,"is_reserved":false,"is_disabled":false,"rental_uris":{"android":"levelo://app?vid=f3af0f29-c6b3-45f1-8540-3a752563e91b","ios":"levelo://app?vid=f3af0f29-c6b3-45f1-8540-3a752563e91b"},"vehicle_type_id":"4","last_reported":1702109320,"current_range_meters":11200,"station_id":"ce4bhi12rcd13ifvqfp0","pricing_plan_id":"free"},{"bike_id":"93fd8d33-bd13-40ab-b32d-bfac25f014e4","system_id":"levelo_inurba_marseille","lat":43.239588,"lon":5.366238,"is_reserved":false,"is_disabled":false,"rental_uris":{"android":"levelo://app?vid=93fd8d33-bd13-40ab-b32d-bfac25f014e4","ios":"levelo://app?vid=93fd8d33-bd13-40ab-b32d-bfac25f014e4"},"vehicle_type_id":"4","last_reported":1702109320,"current_range_meters":9600,"station_id":"ce4bhi12rcd13ifvqfp0","pricing_plan_id":"free"},{"bike_id":"a6a4b85e-4149-43b9-9e51-1a32a90de556","system_id":"levelo_inurba_marseille","lat":43.239588,"lon":5.366238,"is_reserved":false,"is_disabled":false,"rental_uris":{"android":"levelo://app?vid=a6a4b85e-4149-43b9-9e51-1a32a90de556","ios":"levelo://app?vid=a6a4b85e-4149-43b9-9e51-1a32a90de556"},"vehicle_type_id":"4","last_reported":1702109320,"current_range_meters":31200,"station_id":"ce4bhi12rcd13ifvqfp0","pricing_plan_id":"free"},{"bike_id":"fc8a7774-7978-464f-bc39-ef33e8146288","system_id":"levelo_inurba_marseille","lat":43.239588,"lon":5.366238,"is_reserved":false,"is_disabled":false,"rental_uris":{"android":"levelo://app?vid=fc8a7774-7978-464f-bc39-ef33e8146288","ios":"levelo://app?vid=fc8a7774-7978-464f-bc39-ef33e8146288"},"vehicle_type_id":"4","last_reported":1702109320,"current_range_meters":30000,"station_id":"ce4bhi12rcd13ifvqfp0","pricing_plan_id":"free"},{"bike_id":"8df37565-07df-4422-a214-552c70866e84","system_id":"levelo_inurba_marseille","lat":43.239588,"lon":5.366238,"is_reserved":false,"is_disabled":false,"rental_uris":{"android":"levelo://app?vid=8df37565-07df-4422-a214-552c70866e84","ios":"levelo://app?vid=8df37565-07df-4422-a214-552c70866e84"},"vehicle_type_id":"4","last_reported":1702109320,"current_range_meters":23200,"station_id":"ce4bhi12rcd13ifvqfp0","pricing_plan_id":"free"},{"bike_id":"93954539-37ab-42cb-8148-c6cd6174d0ce","system_id":"levelo_inurba_marseille","lat":43.23962,"lon":5.36625,"is_reserved":false,"is_disabled":false,"rental_uris":{"android":"levelo://app?vid=93954539-37ab-42cb-8148-c6cd6174d0ce","ios":"levelo://app?vid=93954539-37ab-42cb-8148-c6cd6174d0ce"},"vehicle_type_id":"4","last_reported":1702109320,"current_range_meters":30400,"station_id":"ce4bhi12rcd13ifvqfp0","pricing_plan_id":"free"},{"bike_id":"bb4b886c-66b7-4f91-b51d-a408ecac68f2","system_id":"levelo_inurba_marseille","lat":43.239588,"lon":5.366238,"is_reserved":false,"is_disabled":false,"rental_uris":{"android":"levelo://app?vid=bb4b886c-66b7-4f91-b51d-a408ecac68f2","ios":"levelo://app?vid=bb4b886c-66b7-4f91-b51d-a408ecac68f2"},"vehicle_type_id":"4","last_reported":1702109320,"current_range_meters":8400,"station_id":"ce4bhi12rcd13ifvqfp0","pricing_plan_id":"free"},{"bike_id":"19de1d90-0ef7-4697-bd3a-3e98bd2bf2e7","system_id":"levelo_inurba_marseille","lat":43.239588,"lon":5.366238,"is_reserved":false,"is_disabled":false,"rental_uris":{"android":"levelo://app?vid=19de1d90-0ef7-4697-bd3a-3e98bd2bf2e7","ios":"levelo://app?vid=19de1d90-0ef7-4697-bd3a-3e98bd2bf2e7"},"vehicle_type_id":"4","last_reported":1702109320,"current_range_meters":31600,"station_id":"ce4bhi12rcd13ifvqfp0","pricing_plan_id":"free"},{"bike_id":"c044812f-23c8-40b9-9235-f3a1ed3758bf","system_id":"levelo_inurba_marseille","lat":43.239588,"lon":5.366238,"is_reserved":false,"is_disabled":false,"rental_uris":{"android":"levelo://app?vid=c044812f-23c8-40b9-9235-f3a1ed3758bf","ios":"levelo://app?vid=c044812f-23c8-40b9-9235-f3a1ed3758bf"},"vehicle_type_id":"4","last_reported":1702109320,"current_range_meters":15600,"station_id":"ce4bhi12rcd13ifvqfp0","pricing_plan_id":"free"},{"bike_id":"1d8e9bd7-e6ff-447e-b845-0049da0206d3","system_id":"levelo_inurba_marseille","lat":43.231919,"lon":5.355532,"is_reserved":false,"is_disabled":false,"rental_uris":{"android":"levelo://app?vid=1d8e9bd7-e6ff-447e-b845-0049da0206d3","ios":"levelo://app?vid=1d8e9bd7-e6ff-447e-b845-0049da0206d3"},"vehicle_type_id":"4","last_reported":1702109320,"current_range_meters":28400,"station_id":"ce4bhu92rcd13ifvqi70","pricing_plan_id":"free"},{"bike_id":"19ba5a50-7ba0-4da5-96be-2e26583e1f0f","system_id":"levelo_inurba_marseille","lat":43.231919,"lon":5.355532,"is_reserved":false,"is_disabled":false,"rental_uris":{"android":"levelo://app?vid=19ba5a50-7ba0-4da5-96be-2e26583e1f0f","ios":"levelo://app?vid=19ba5a50-7ba0-4da5-96be-2e26583e1f0f"},"vehicle_type_id":"4","last_reported":1702109320,"current_range_meters":14000,"station_id":"ce4bhu92rcd13ifvqi70","pricing_plan_id":"free"},{"bike_id":"c3cc5da6-5c49-4257-ab3a-242bb99906d5","system_id":"levelo_inurba_marseille","lat":43.23196,"lon":5.35543,"is_reserved":false,"is_disabled":false,"rental_uris":{"android":"levelo://app?vid=c3cc5da6-5c49-4257-ab3a-242bb99906d5","ios":"levelo://app?vid=c3cc5da6-5c49-4257-ab3a-242bb99906d5"},"vehicle_type_id":"4","last_reported":1702109320,"current_range_meters":31200,"station_id":"ce4bhu92rcd13ifvqi70","pricing_plan_id":"free"},{"bike_id":"c6004eb4-873a-4661-a0e7-ea9140f6bd61","system_id":"levelo_inurba_marseille","lat":43.231919,"lon":5.355532,"is_reserved":false,"is_disabled":false,"rental_uris":{"android":"levelo://app?vid=c6004eb4-873a-4661-a0e7-ea9140f6bd61","ios":"levelo://app?vid=c6004eb4-873a-4661-a0e7-ea9140f6bd61"},"vehicle_type_id":"4","last_reported":1702109320,"current_range_meters":29600,"station_id":"ce4bhu92rcd13ifvqi70","pricing_plan_id":"free"},{"bike_id":"2d162bbc-a411-450c-a9d5-a61a23484d14","system_id":"levelo_inurba_marseille","lat":43.231919,"lon":5.355532,"is_reserved":false,"is_disabled":false,"rental_uris":{"android":"levelo://app?vid=2d162bbc-a411-450c-a9d5-a61a23484d14","ios":"levelo://app?vid=2d162bbc-a411-450c-a9d5-a61a23484d14"},"vehicle_type_id":"4","last_reported":1702109320,"current_range_meters":30800,"station_id":"ce4bhu92rcd13ifvqi70","pricing_plan_id":"free"},{"bike_id":"be845917-f52e-4a9f-83ff-909546a09332","system_id":"levelo_inurba_marseille","lat":43.231794,"lon":5.400052,"is_reserved":false,"is_disabled":false,"rental_uris":{"android":"levelo://app?vid=be845917-f52e-4a9f-83ff-909546a09332","ios":"levelo://app?vid=be845917-f52e-4a9f-83ff-909546a09332"},"vehicle_type_id":"4","last_reported":1702109320,"current_range_meters":31200,"station_id":"ce4bhn12rcd13ifvqgqg","pricing_plan_id":"free"},{"bike_id":"5c4c14b0-15b0-4600-8dc6-cdbde00bef8b","system_id":"levelo_inurba_marseille","lat":43.231874,"lon":5.399744,"is_reserved":false,"is_disabled":false,"rental_uris":{"android":"levelo://app?vid=5c4c14b0-15b0-4600-8dc6-cdbde00bef8b","ios":"levelo://app?vid=5c4c14b0-15b0-4600-8dc6-cdbde00bef8b"},"vehicle_type_id":"4","last_reported":1702109320,"current_range_meters":31200,"station_id":"ce4bhn12rcd13ifvqgqg","pricing_plan_id":"free"},{"bike_id":"6c4620c0-0d4d-493f-9950-4fd3c4457696","system_id":"levelo_inurba_marseille","lat":43.231794,"lon":5.400052,"is_reserved":false,"is_disabled":false,"rental_uris":{"android":"levelo://app?vid=6c4620c0-0d4d-493f-9950-4fd3c4457696","ios":"levelo://app?vid=6c4620c0-0d4d-493f-9950-4fd3c4457696"},"vehicle_type_id":"4","last_reported":1702109320,"current_range_meters":31200,"station_id":"ce4bhn12rcd13ifvqgqg","pricing_plan_id":"free"},{"bike_id":"ff1109c9-6591-43d3-b5cd-adc2963d746c","system_id":"levelo_inurba_marseille","lat":43.23187,"lon":5.39986,"is_reserved":false,"is_disabled":false,"rental_uris":{"android":"levelo://app?vid=ff1109c9-6591-43d3-b5cd-adc2963d746c","ios":"levelo://app?vid=ff1109c9-6591-43d3-b5cd-adc2963d746c"},"vehicle_type_id":"4","last_reported":1702109320,"current_range_meters":21200,"station_id":"ce4bhn12rcd13ifvqgqg","pricing_plan_id":"free"},{"bike_id":"1c690641-a72b-433d-b1af-d36beaec8f2e","system_id":"levelo_inurba_marseille","lat":43.231886,"lon":5.399951,"is_reserved":false,"is_disabled":false,"rental_uris":{"android":"levelo://app?vid=1c690641-a72b-433d-b1af-d36beaec8f2e","ios":"levelo://app?vid=1c690641-a72b-433d-b1af-d36beaec8f2e"},"vehicle_type_id":"4","last_reported":1702109320,"current_range_meters":27200,"station_id":"ce4bhn12rcd13ifvqgqg","pricing_plan_id":"free"},{"bike_id":"d7354235-71f2-4aeb-aa26-9572f0d131ef","system_id":"levelo_inurba_marseille","lat":43.23185,"lon":5.399786,"is_reserved":false,"is_disabled":false,"rental_uris":{"android":"levelo://app?vid=d7354235-71f2-4aeb-aa26-9572f0d131ef","ios":"levelo://app?vid=d7354235-71f2-4aeb-aa26-9572f0d131ef"},"vehicle_type_id":"4","last_reported":1702109320,"current_range_meters":30400,"station_id":"ce4bhn12rcd13ifvqgqg","pricing_plan_id":"free"},{"bike_id":"34665144-ce30-468a-b218-97ce329e0725","system_id":"levelo_inurba_marseille","lat":43.23182,"lon":5.39985,"is_reserved":false,"is_disabled":false,"rental_uris":{"android":"levelo://app?vid=34665144-ce30-468a-b218-97ce329e0725","ios":"levelo://app?vid=34665144-ce30-468a-b218-97ce329e0725"},"vehicle_type_id":"4","last_reported":1702109320,"current_range_meters":19600,"station_id":"ce4bhn12rcd13ifvqgqg","pricing_plan_id":"free"},{"bike_id":"1364bb53-1feb-4c66-bc1b-fe1d777b1c2f","system_id":"levelo_inurba_marseille","lat":43.23183,"lon":5.39991,"is_reserved":false,"is_disabled":false,"rental_uris":{"android":"levelo://app?vid=1364bb53-1feb-4c66-bc1b-fe1d777b1c2f","ios":"levelo://app?vid=1364bb53-1feb-4c66-bc1b-fe1d777b1c2f"},"vehicle_type_id":"4","last_reported":1702109320,"current_range_meters":29200,"station_id":"ce4bhn12rcd13ifvqgqg","pricing_plan_id":"free"},{"bike_id":"18920ba5-4ce1-41cc-940f-647195c9ea38","system_id":"levelo_inurba_marseille","lat":43.2318,"lon":5.39988,"is_reserved":false,"is_disabled":false,"rental_uris":{"android":"levelo://app?vid=18920ba5-4ce1-41cc-940f-647195c9ea38","ios":"levelo://app?vid=18920ba5-4ce1-41cc-940f-647195c9ea38"},"vehicle_type_id":"4","last_reported":1702109320,"current_range_meters":16400,"station_id":"ce4bhn12rcd13ifvqgqg","pricing_plan_id":"free"},{"bike_id":"e024353c-5e6e-427e-80d3-5305f95eda50","system_id":"levelo_inurba_marseille","lat":43.23152,"lon":5.4372,"is_reserved":false,"is_disabled":false,"rental_uris":{"android":"levelo://app?vid=e024353c-5e6e-427e-80d3-5305f95eda50","ios":"levelo://app?vid=e024353c-5e6e-427e-80d3-5305f95eda50"},"vehicle_type_id":"4","last_reported":1702109320,"current_range_meters":2800,"station_id":"ce4bhmp2rcd13ifvqgog","pricing_plan_id":"free"},{"bike_id":"ef4926f7-6b54-4abf-be7f-64a72128c3e0","system_id":"levelo_inurba_marseille","lat":43.231562,"lon":5.436933,"is_reserved":false,"is_disabled":false,"rental_uris":{"android":"levelo://app?vid=ef4926f7-6b54-4abf-be7f-64a72128c3e0","ios":"levelo://app?vid=ef4926f7-6b54-4abf-be7f-64a72128c3e0"},"vehicle_type_id":"4","last_reported":1702109320,"current_range_meters":24400,"station_id":"ce4bhmp2rcd13ifvqgog","pricing_plan_id":"free"}]}}