{"last_updated":1749931798,"ttl":60,"version":"2.2","data":{"bikes":[{"bike_id":"b31f0139-170f-4194-984f-4386218a1e9d","system_id":"levelo_inurba_marseille","lat":43.33771,"lon":5.37424,"is_reserved":false,"is_disabled":true,"rental_uris":{"android":"levelo://app?vid=b31f0139-170f-4194-984f-4386218a1e9d","ios":"levelo://app?vid=b31f0139-170f-4194-984f-4386218a1e9d"},"vehicle_type_id":"4","last_reported":1749931799,"current_range_meters":0,"station_id":"","pricing_plan_id":"cebpf4jnsgd1na2vs0mg"},{"bike_id":"1acfb620-cad7-48c0-8901-d7a5b74a5b65","system_id":"levelo_inurba_marseille","lat":43.33751,"lon":5.37456,"is_reserved":false,"is_disabled":true,"rental_uris":{"android":"levelo://app?vid=1acfb620-cad7-48c0-8901-d7a5b74a5b65","ios":"levelo://app?vid=1acfb620-cad7-48c0-8901-d7a5b74a5b65"},"vehicle_type_id":"4","last_reported":1749931799,"current_range_meters":0,"station_id":"","pricing_plan_id":"cebpf4jnsgd1na2vs0mg"},{"bike_id":"c59f710e-a568-48ee-b718-470006db13cd","system_id":"levelo_inurba_marseille","lat":43.21766,"lon":5.34603,"is_reserved":false,"is_disabled":true,"rental_uris":{"android":"levelo://app?vid=c59f710e-a568-48ee-b718-470006db13cd","ios":"levelo://app?vid=c59f710e-a568-48ee-b718-470006db13cd"},"vehicle_type_id":"4","last_reported":1749931799,"current_range_meters":0,"station_id":"","pricing_plan_id":"cebpf4jnsgd1na2vs0mg"},{"bike_id":"bf89d78c-eb96-40d5-beb0-f402ef102cc1","system_id":"levelo_inurba_marseille","lat":43.337444,"lon":5.374475,"is_reserved":false,"is_disabled":true,"rental_uris":{"android":"levelo://app?vid=bf89d78c-eb96-40d5-beb0-f402ef102cc1","ios":"levelo://app?vid=bf89d78c-eb96-40d5-beb0-f402ef102cc1"},"vehicle_type_id":"4","last_reported":1749931799,"current_range_meters":0,"station_id":"","pricing_plan_id":"cebpf4jnsgd1na2vs0mg"},{"bike_id":"5077581b-cebb-46fc-ba69-4fa8272d4810","system_id":"levelo_inurba_marseille","lat":43.21378,"lon":5.35509,"is_reserved":false,"is_disabled":true,"rental_uris":{"android":"levelo://app?vid=5077581b-cebb-46fc-ba69-4fa8272d4810","ios":"levelo://app?vid=5077581b-cebb-46fc-ba69-4fa8272d4810"},"vehicle_type_id":"4","last_reported":1749931799,"current_range_meters":0,"station_id":"","pricing_plan_id":"cebpf4jnsgd1na2vs0mg"},{"bike_id":"b700b739-d84e-40eb-a0b6-5cbfa9485ee2","system_id":"levelo_inurba_marseille","lat":43.27855,"lon":5.4218,"is_reserved":false,"is_disabled":true,"rental_uris":{"android":"levelo://app?vid=b700b739-d84e-40eb-a0b6-5cbfa9485ee2","ios":"levelo://app?vid=b700b739-d84e-40eb-a0b6-5cbfa9485ee2"},"vehicle_type_id":"4","last_reported":1749931799,"current_range_meters":0,"station_id":"","pricing_plan_id":"cebpf4jnsgd1na2vs0mg"},{"bike_id":"ebf89cec-3e1a-4275-9cd0-a3d19d69b5cf","system_id":"levelo_inurba_marseille","lat":43.27984,"lon":5.38488,"is_reserved":false,"is_disabled":true,"rental_uris":{"android":"levelo://app?vid=ebf89cec-3e1a-4275-9cd0-a3d19d69b5cf","ios":"levelo://app?vid=ebf89cec-3e1a-4275-9cd0-a3d19d69b5cf"},"vehicle_type_id":"4","last_reported":1749931799,"current_range_meters":0,"station_id":"","pricing_plan_id":"cebpf4jnsgd1na2vs0mg"},{"bike_id":"492f4bbd-1190-4ef2-b66a-479ffe91b09b","system_id":"levelo_inurba_marseille","lat":43.337444,"lon":5.374475,"is_reserved":false,"is_disabled":true,"rental_uris":{"android":"levelo://app?vid=492f4bbd-1190-4ef2-b66a-479ffe91b09b","ios":"levelo://app?vid=492f4bbd-1190-4ef2-b66a-479ffe91b09b"},"vehicle_type_id":"4","last_reported":1749931799,"current_range_meters":0,"station_id":"","pricing_plan_id":"cebpf4jnsgd1na2vs0mg"},{"bike_id":"90797f29-fbbf-43e3-a9ab-ebb696d9630b","system_id":"levelo_inurba_marseille","lat":43.31067,"lon":5.38233,"is_reserved":false,"is_disabled":true,"rental_uris":{"android":"levelo://app?vid=90797f29-fbbf-43e3-a9ab-ebb696d9630b","ios":"levelo://app?vid=90797f29-fbbf-43e3-a9ab-ebb696d9630b"},"vehicle_type_id":"4","last_reported":1749931799,"current_range_meters":0,"station_id":"","pricing_plan_id":"cebpf4jnsgd1na2vs0mg"},{"bike_id":"04076281-604c-4d0c-8e3d-82151e92dbd5","system_id":"levelo_inurba_marseille","lat":43.30835,"lon":5.36932,"is_reserved":false,"is_disabled":true,"rental_uris":{"android":"levelo://app?vid=04076281-604c-4d0c-8e3d-82151e92dbd5","ios":"levelo://app?vid=04076281-604c-4d0c-8e3d-82151e92dbd5"},"vehicle_type_id":"4","last_reported":1749931799,"current_range_meters":0,"station_id":"","pricing_plan_id":"cebpf4jnsgd1na2vs0mg"},{"bike_id":"a9b6bf99-4070-4437-bb20-72962ae30b90","system_id":"levelo_inurba_marseille","lat":43.27477,"lon":5.36392,"is_reserved":false,"is_disabled":true,"rental_uris":{"android":"levelo://app?vid=a9b6bf99-4070-4437-bb20-72962ae30b90","ios":"levelo://app?vid=a9b6bf99-4070-4437-bb20-72962ae30b90"},"vehicle_type_id":"4","last_reported":1749931799,"current_range_meters":0,"station_id":"","pricing_plan_id":"cebpf4jnsgd1na2vs0mg"},{"bike_id":"7773522a-1f7f-44ee-984f-5cc018c815cc","system_id":"levelo_inurba_marseille","lat":43.29925,"lon":5.3747,"is_reserved":false,"is_disabled":true,"rental_uris":{"android":"levelo://app?vid=7773522a-1f7f-44ee-984f-5cc018c815cc","ios":"levelo://app?vid=7773522a-1f7f-44ee-984f-5cc018c815cc"},"vehicle_type_id":"4","last_reported":1749931799,"current_range_meters":0,"station_id":"ce4bgjh2rcd13ifvqbg0","pricing_plan_id":"cebpf4jnsgd1na2vs0mg"},{"bike_id":"2f4fa214-bb4c-40f8-9413-ca0dd9be6dcd","system_id":"levelo_inurba_marseille","lat":43.30144,"lon":5.37408,"is_reserved":false,"is_disabled":true,"rental_uris":{"android":"levelo://app?vid=2f4fa214-bb4c-40f8-9413-ca0dd9be6dcd","ios":"levelo://app?vid=2f4fa214-bb4c-40f8-9413-ca0dd9be6dcd"},"vehicle_type_id":"4","last_reported":1749931799,"current_range_meters":0,"station_id":"ce4bgs92rcd13ifvqcc0","pricing_plan_id":"cebpf4jnsgd1na2vs0mg"},{"bike_id":"d6cb9527-ccd4-4a67-ae0e-272ebc296285","system_id":"levelo_inurba_marseille","lat":43.30945,"lon":5.40154,"is_reserved":false,"is_disabled":true,"rental_uris":{"android":"levelo://app?vid=d6cb9527-ccd4-4a67-ae0e-272ebc296285","ios":"levelo://app?vid=d6cb9527-ccd4-4a67-ae0e-272ebc296285"},"vehicle_type_id":"4","last_reported":1749931799,"current_range_meters":0,"station_id":"ce4bgvp2rcd13ifvqct0","pricing_plan_id":"cebpf4jnsgd1na2vs0mg"},{"bike_id":"baa430cc-6926-4ae9-8e4d-305335939bde","system_id":"levelo_inurba_marseille","lat":43.30427,"lon":5.39743,"is_reserved":false,"is_disabled":true,"rental_uris":{"android":"levelo://app?vid=baa430cc-6926-4ae9-8e4d-305335939bde","ios":"levelo://app?vid=baa430cc-6926-4ae9-8e4d-305335939bde"},"vehicle_type_id":"4","last_reported":1749931799,"current_range_meters":0,"station_id":"ce4bh092rcd13ifvqd20","pricing_plan_id":"cebpf4jnsgd1na2vs0mg"},{"bike_id":"fe6f76eb-cba3-4969-ad8d-cd90a180e87a","system_id":"levelo_inurba_marseille","lat":43.30595,"lon":5.39357,"is_reserved":false,"is_disabled":true,"rental_uris":{"android":"levelo://app?vid=fe6f76eb-cba3-4969-ad8d-cd90a180e87a","ios":"levelo://app?vid=fe6f76eb-cba3-4969-ad8d-cd90a180e87a"},"vehicle_type_id":"4","last_reported":1749931799,"current_range_meters":0,"station_id":"ce4bh0p2rcd13ifvqd80","pricing_plan_id":"cebpf4jnsgd1na2vs0mg"},{"bike_id":"eee6f0ea-d72b-4680-a550-37f9522b1205","system_id":"levelo_inurba_marseille","lat":43.30657,"lon":5.40073,"is_reserved":false,"is_disabled":true,"rental_uris":{"android":"levelo://app?vid=eee6f0ea-d72b-4680-a550-37f9522b1205","ios":"levelo://app?vid=eee6f0ea-d72b-4680-a550-37f9522b1205"},"vehicle_type_id":"4","last_reported":1749931799,"current_range_meters":0,"station_id":"ce4bh112rcd13ifvqda0","pricing_plan_id":"cebpf4jnsgd1na2vs0mg"},{"bike_id":"5c6ed433-1422-4dd3-a3b4-dc273c4cdcf7","system_id":"levelo_inurba_marseille","lat":43.26552,"lon":5.37283,"is_reserved":false,"is_disabled":true,"rental_uris":{"android":"levelo://app?vid=5c6ed433-1422-4dd3-a3b4-dc273c4cdcf7","ios":"levelo://app?vid=5c6ed433-1422-4dd3-a3b4-dc273c4cdcf7"},"vehicle_type_id":"4","last_reported":1749931799,"current_range_meters":0,"station_id":"ce4bhg12rcd13ifvqf70","pricing_plan_id":"cebpf4jnsgd1na2vs0mg"},{"bike_id":"74af06ce-d52c-49ec-ba89-d72002b49e70","system_id":"levelo_inurba_marseille","lat":43.26569,"lon":5.37283,"is_reserved":false,"is_disabled":true,"rental_uris":{"android":"levelo://app?vid=74af06ce-d52c-49ec-ba89-d72002b49e70","ios":"levelo://app?vid=74af06ce-d52c-49ec-ba89-d72002b49e70"},"vehicle_type_id":"4","last_reported":1749931799,"current_range_meters":0,"station_id":"ce4bhg12rcd13ifvqf70","pricing_plan_id":"cebpf4jnsgd1na2vs0mg"},{"bike_id":"d71fde5a-aa40-4dbc-8ca4-b96ab04f830b","system_id":"levelo_inurba_marseille","lat":43.2655,"lon":5.37334,"is_reserved":false,"is_disabled":true,"rental_uris":{"android":"levelo://app?vid=d71fde5a-aa40-4dbc-8ca4-b96ab04f830b","ios":"levelo://app?vid=d71fde5a-aa40-4dbc-8ca4-b96ab04f830b"},"vehicle_type_id":"4","last_reported":1749931799,"current_range_meters":0,"station_id":"ce4bhg12rcd13ifvqf70","pricing_plan_id":"cebpf4jnsgd1na2vs0mg"},{"bike_id":"c5aff4af-137e-478d-ba0c-539bf55ed037","system_id":"levelo_inurba_marseille","lat":43.26217,"lon":5.37438,"is_reserved":false,"is_disabled":true,"rental_uris":{"android":"levelo://app?vid=c5aff4af-137e-478d-ba0c-539bf55ed037","ios":"levelo://app?vid=c5aff4af-137e-478d-ba0c-539bf55ed037"},"vehicle_type_id":"4","last_reported":1749931799,"current_range_meters":0,"station_id":"ce4bhgp2rcd13ifvqfc0","pricing_plan_id":"cebpf4jnsgd1na2vs0mg"},{"bike_id":"718908ad-5540-4930-b134-cec6229c8d1c","system_id":"levelo_inurba_marseille","lat":43.265535,"lon":5.372854,"is_reserved":false,"is_disabled":true,"rental_uris":{"android":"levelo://app?vid=718908ad-5540-4930-b134-cec6229c8d1c","ios":"levelo://app?vid=718908ad-5540-4930-b134-cec6229c8d1c"},"vehicle_type_id":"4","last_reported":1749931799,"current_range_meters":0,"station_id":"ce4bhip2rcd13ifvqft0","pricing_plan_id":"cebpf4jnsgd1na2vs0mg"},{"bike_id":"c5df55a2-e759-4570-973d-4ac4126798dd","system_id":"levelo_inurba_marseille","lat":43.27021,"lon":5.40235,"is_reserved":false,"is_disabled":true,"rental_uris":{"android":"levelo://app?vid=c5df55a2-e759-4570-973d-4ac4126798dd","ios":"levelo://app?vid=c5df55a2-e759-4570-973d-4ac4126798dd"},"vehicle_type_id":"4","last_reported":1749931799,"current_range_meters":0,"station_id":"ce4bhk92rcd13ifvqgc0","pricing_plan_id":"cebpf4jnsgd1na2vs0mg"},{"bike_id":"9f42757c-354e-457f-9adf-c037ca8db774","system_id":"levelo_inurba_marseille","lat":43.27812,"lon":5.4072,"is_reserved":false,"is_disabled":true,"rental_uris":{"android":"levelo://app?vid=9f42757c-354e-457f-9adf-c037ca8db774","ios":"levelo://app?vid=9f42757c-354e-457f-9adf-c037ca8db774"},"vehicle_type_id":"4","last_reported":1749931799,"current_range_meters":0,"station_id":"ce4bhnh2rcd13ifvqgtg","pricing_plan_id":"cebpf4jnsgd1na2vs0mg"},{"bike_id":"0f50c2eb-d288-4d90-a9a3-cd0743222590","system_id":"levelo_inurba_marseille","lat":43.22503,"lon":5.34779,"is_reserved":false,"is_disabled":true,"rental_uris":{"android":"levelo://app?vid=0f50c2eb-d288-4d90-a9a3-cd0743222590","ios":"levelo://app?vid=0f50c2eb-d288-4d90-a9a3-cd0743222590"},"vehicle_type_id":"4","last_reported":1749931799,"current_range_meters":0,"station_id":"st_cvj5dfep6f1abm77gieg","pricing_plan_id":"cebpf4jnsgd1na2vs0mg"},{"bike_id":"77e1b72a-e412-4bf7-b26d-9074f78abf68","system_id":"levelo_inurba_marseille","lat":43.2253,"lon":5.34786,"is_reserved":false,"is_disabled":true,"rental_uris":{"android":"levelo://app?vid=77e1b72a-e412-4bf7-b26d-9074f78abf68","ios":"levelo://app?vid=77e1b72a-e412-4bf7-b26d-9074f78abf68"},"vehicle_type_id":"4","last_reported":1749931799,"current_range_meters":0,"station_id":"st_cvj5dfep6f1abm77gieg","pricing_plan_id":"cebpf4jnsgd1na2vs0mg"},{"bike_id":"fe5a9aaf-2d36-4b9d-abdd-dc360a59de38","system_id":"levelo_inurba_marseille","lat":43.21749,"lon":5.34593,"is_reserved":false,"is_disabled":true,"rental_uris":{"android":"levelo://app?vid=fe5a9aaf-2d36-4b9d-abdd-dc360a59de38","ios":"levelo://app?vid=fe5a9aaf-2d36-4b9d-abdd-dc360a59de38"},"vehicle_type_id":"4","last_reported":1749931799,"current_range_meters":0,"station_id":"st_cvj6r9ubvosntc0bgbag","pricing_plan_id":"cebpf4jnsgd1na2vs0mg"},{"bike_id":"ceed8e49-424f-4eba-95a3-d0aed3600067","system_id":"levelo_inurba_marseille","lat":43.21218,"lon":5.35048,"is_reserved":false,"is_disabled":true,"rental_uris":{"android":"levelo://app?vid=ceed8e49-424f-4eba-95a3-d0aed3600067","ios":"levelo://app?vid=ceed8e49-424f-4eba-95a3-d0aed3600067"},"vehicle_type_id":"4","last_reported":1749931799,"current_range_meters":0,"station_id":"st_cvj6sg6p6f1abm77japg","pricing_plan_id":"cebpf4jnsgd1na2vs0mg"},{"bike_id":"6cee23ad-00da-4b6b-8f66-ce7a67c9f254","system_id":"levelo_inurba_marseille","lat":43.263456,"lon":5.378246,"is_reserved":false,"is_disabled":true,"rental_uris":{"android":"levelo://app?vid=6cee23ad-00da-4b6b-8f66-ce7a67c9f254","ios":"levelo://app?vid=6cee23ad-00da-4b6b-8f66-ce7a67c9f254"},"vehicle_type_id":"4","last_reported":1749931799,"current_range_meters":0,"station_id":"st_d163nis0mtpqnht9uue0","pricing_plan_id":"cebpf4jnsgd1na2vs0mg"},{"bike_id":"8d60347d-541c-40fb-90ca-203bf6bd520a","system_id":"levelo_inurba_marseille","lat":43.271339,"lon":5.364023,"is_reserved":false,"is_disabled":true,"rental_uris":{"android":"levelo://app?vid=8d60347d-541c-40fb-90ca-203bf6bd520a","ios":"levelo://app?vid=8d60347d-541c-40fb-90ca-203bf6bd520a"},"vehicle_type_id":"4","last_reported":1749931799,"current_range_meters":400,"station_id":"","pricing_plan_id":"cebpf4jnsgd1na2vs0mg"},{"bike_id":"04005531-52ef-4a8c-a6d8-546a39325ee5","system_id":"levelo_inurba_marseille","lat":43.22511,"lon":5.34779,"is_reserved":false,"is_disabled":true,"rental_uris":{"android":"levelo://app?vid=04005531-52ef-4a8c-a6d8-546a39325ee5","ios":"levelo://app?vid=04005531-52ef-4a8c-a6d8-546a39325ee5"},"vehicle_type_id":"4","last_reported":1749931799,"current_range_meters":400,"station_id":"st_cvj5dfep6f1abm77gieg","pricing_plan_id":"cebpf4jnsgd1na2vs0mg"},{"bike_id":"0e3ea83e-e73d-40ce-9112-b17acaf390ef","system_id":"levelo_inurba_marseille","lat":43.26371,"lon":5.37758,"is_reserved":false,"is_disabled":true,"rental_uris":{"android":"levelo://app?vid=0e3ea83e-e73d-40ce-9112-b17acaf390ef","ios":"levelo://app?vid=0e3ea83e-e73d-40ce-9112-b17acaf390ef"},"vehicle_type_id":"4","last_reported":1749931799,"current_range_meters":800,"station_id":"st_d163nis0mtpqnht9uue0","pricing_plan_id":"cebpf4jnsgd1na2vs0mg"},{"bike_id":"f1aa10cd-6f5d-43bc-93fa-603986e1ce68","system_id":"levelo_inurba_marseille","lat":43.293,"lon":5.37457,"is_reserved":false,"is_disabled":true,"rental_uris":{"android":"levelo://app?vid=f1aa10cd-6f5d-43bc-93fa-603986e1ce68","ios":"levelo://app?vid=f1aa10cd-6f5d-43bc-93fa-603986e1ce68"},"vehicle_type_id":"4","last_reported":1749931799,"current_range_meters":2000,"station_id":"ce4bgi12rcd13ifvqb70","pricing_plan_id":"cebpf4jnsgd1na2vs0mg"},{"bike_id":"31ea3c2e-7dee-4ea6-9294-a0eb919a784c","system_id":"levelo_inurba_marseille","lat":43.29533,"lon":5.37502,"is_reserved":false,"is_disabled":true,"rental_uris":{"android":"levelo://app?vid=31ea3c2e-7dee-4ea6-9294-a0eb919a784c","ios":"levelo://app?vid=31ea3c2e-7dee-4ea6-9294-a0eb919a784c"},"vehicle_type_id":"4","last_reported":1749931799,"current_range_meters":2000,"station_id":"ce4bgkp2rcd13ifvqbmg","pricing_plan_id":"cebpf4jnsgd1na2vs0mg"},{"bike_id":"03c0888f-a0c8-4a70-8b64-65b833c46f12","system_id":"levelo_inurba_marseille","lat":43.30599,"lon":5.37225,"is_reserved":false,"is_disabled":true,"rental_uris":{"android":"levelo://app?vid=03c0888f-a0c8-4a70-8b64-65b833c46f12","ios":"levelo://app?vid=03c0888f-a0c8-4a70-8b64-65b833c46f12"},"vehicle_type_id":"4","last_reported":1749931799,"current_range_meters":2000,"station_id":"ce4bgqh2rcd13ifvqc4g","pricing_plan_id":"cebpf4jnsgd1na2vs0mg"},{"bike_id":"97421c04-2630-4fc1-9da9-b17d88602c5f","system_id":"levelo_inurba_marseille","lat":43.337682,"lon":5.374519,"is_reserved":false,"is_disabled":false,"rental_uris":{"android":"levelo://app?vid=97421c04-2630-4fc1-9da9-b17d88602c5f","ios":"levelo://app?vid=97421c04-2630-4fc1-9da9-b17d88602c5f"},"vehicle_type_id":"4","last_reported":1749931799,"current_range_meters":2800,"station_id":"","pricing_plan_id":"cebpf4jnsgd1na2vs0mg"},{"bike_id":"1b3f75e4-1993-4282-88c5-01111d52cfb4","system_id":"levelo_inurba_marseille","lat":43.30946,"lon":5.3903,"is_reserved":false,"is_disabled":false,"rental_uris":{"android":"levelo://app?vid=1b3f75e4-1993-4282-88c5-01111d52cfb4","ios":"levelo://app?vid=1b3f75e4-1993-4282-88c5-01111d52cfb4"},"vehicle_type_id":"4","last_reported":1749931799,"current_range_meters":2800,"station_id":"ce4bgup2rcd13ifvqco0","pricing_plan_id":"cebpf4jnsgd1na2vs0mg"},{"bike_id":"3d6ef34c-1ec6-4ed3-88e4-07359f729c42","system_id":"levelo_inurba_marseille","lat":43.27584,"lon":5.43394,"is_reserved":false,"is_disabled":false,"rental_uris":{"android":"levelo://app?vid=3d6ef34c-1ec6-4ed3-88e4-07359f729c42","ios":"levelo://app?vid=3d6ef34c-1ec6-4ed3-88e4-07359f729c42"},"vehicle_type_id":"4","last_reported":1749931799,"current_range_meters":3200,"station_id":"","pricing_plan_id":"cebpf4jnsgd1na2vs0mg"},{"bike_id":"36c23b8b-1a5c-4b44-9eb6-ec8428373f8a","system_id":"levelo_inurba_marseille","lat":43.255023,"lon":5.376505,"is_reserved":false,"is_disabled":false,"rental_uris":{"android":"levelo://app?vid=36c23b8b-1a5c-4b44-9eb6-ec8428373f8a","ios":"levelo://app?vid=36c23b8b-1a5c-4b44-9eb6-ec8428373f8a"},"vehicle_type_id":"4","last_reported":1749931799,"current_range_meters":3200,"station_id":"ce4bhh12rcd13ifvqff0","pricing_plan_id":"cebpf4jnsgd1na2vs0mg"},{"bike_id":"9c64e1e1-727a-4265-b82f-3ef12bd25e6b","system_id":"levelo_inurba_marseille","lat":43.29767,"lon":5.38101,"is_reserved":false,"is_disabled":false,"rental_uris":{"android":"levelo://app?vid=9c64e1e1-727a-4265-b82f-3ef12bd25e6b","ios":"levelo://app?vid=9c64e1e1-727a-4265-b82f-3ef12bd25e6b"},"vehicle_type_id":"4","last_reported":1749931799,"current_range_meters":3600,"station_id":"ce4bgip2rcd13ifvqbb0","pricing_plan_id":"cebpf4jnsgd1na2vs0mg"},{"bike_id":"cc4cf4f7-d1e2-4976-9f2e-f2340a255194","system_id":"levelo_inurba_marseille","lat":43.28826,"lon":5.35854,"is_reserved":false,"is_disabled":false,"rental_uris":{"android":"levelo://app?vid=cc4cf4f7-d1e2-4976-9f2e-f2340a255194","ios":"levelo://app?vid=cc4cf4f7-d1e2-4976-9f2e-f2340a255194"},"vehicle_type_id":"4","last_reported":1749931799,"current_range_meters":3600,"station_id":"ce4bhb12rcd13ifvqem0","pricing_plan_id":"cebpf4jnsgd1na2vs0mg"},{"bike_id":"564e58d8-e436-4907-a4a8-9ce1d1a87498","system_id":"levelo_inurba_marseille","lat":43.30643,"lon":5.4008,"is_reserved":false,"is_disabled":false,"rental_uris":{"android":"levelo://app?vid=564e58d8-e436-4907-a4a8-9ce1d1a87498","ios":"levelo://app?vid=564e58d8-e436-4907-a4a8-9ce1d1a87498"},"vehicle_type_id":"4","last_reported":1749931799,"current_range_meters":4000,"station_id":"ce4bh112rcd13ifvqda0","pricing_plan_id":"cebpf4jnsgd1na2vs0mg"},{"bike_id":"b2c7c4db-29d0-4250-bfa2-0c4ded6791b0","system_id":"levelo_inurba_marseille","lat":43.2669,"lon":5.38265,"is_reserved":false,"is_disabled":false,"rental_uris":{"android":"levelo://app?vid=b2c7c4db-29d0-4250-bfa2-0c4ded6791b0","ios":"levelo://app?vid=b2c7c4db-29d0-4250-bfa2-0c4ded6791b0"},"vehicle_type_id":"4","last_reported":1749931799,"current_range_meters":4000,"station_id":"ce4bhg92rcd13ifvqf90","pricing_plan_id":"cebpf4jnsgd1na2vs0mg"},{"bike_id":"db5fe0b4-405d-414f-b5a6-46e0ad249a82","system_id":"levelo_inurba_marseille","lat":43.24068,"lon":5.37764,"is_reserved":false,"is_disabled":false,"rental_uris":{"android":"levelo://app?vid=db5fe0b4-405d-414f-b5a6-46e0ad249a82","ios":"levelo://app?vid=db5fe0b4-405d-414f-b5a6-46e0ad249a82"},"vehicle_type_id":"4","last_reported":1749931799,"current_range_meters":4000,"station_id":"ce4bhnp2rcd13ifvqgvg","pricing_plan_id":"cebpf4jnsgd1na2vs0mg"},{"bike_id":"5d2a191c-18d5-49a7-a474-737051d40d3a","system_id":"levelo_inurba_marseille","lat":43.26338,"lon":5.37817,"is_reserved":false,"is_disabled":false,"rental_uris":{"android":"levelo://app?vid=5d2a191c-18d5-49a7-a474-737051d40d3a","ios":"levelo://app?vid=5d2a191c-18d5-49a7-a474-737051d40d3a"},"vehicle_type_id":"4","last_reported":1749931799,"current_range_meters":4000,"station_id":"st_d163nis0mtpqnht9uue0","pricing_plan_id":"cebpf4jnsgd1na2vs0mg"},{"bike_id":"350a9659-c2a9-4c6a-bb07-ec8fc3bf8c79","system_id":"levelo_inurba_marseille","lat":43.27814,"lon":5.40723,"is_reserved":false,"is_disabled":false,"rental_uris":{"android":"levelo://app?vid=350a9659-c2a9-4c6a-bb07-ec8fc3bf8c79","ios":"levelo://app?vid=350a9659-c2a9-4c6a-bb07-ec8fc3bf8c79"},"vehicle_type_id":"4","last_reported":1749931799,"current_range_meters":4400,"station_id":"ce4bhnh2rcd13ifvqgtg","pricing_plan_id":"cebpf4jnsgd1na2vs0mg"},{"bike_id":"26ecb020-f845-4181-8d30-b73979efe1d0","system_id":"levelo_inurba_marseille","lat":43.286116,"lon":5.370657,"is_reserved":false,"is_disabled":false,"rental_uris":{"android":"levelo://app?vid=26ecb020-f845-4181-8d30-b73979efe1d0","ios":"levelo://app?vid=26ecb020-f845-4181-8d30-b73979efe1d0"},"vehicle_type_id":"4","last_reported":1749931799,"current_range_meters":4400,"station_id":"ce4bht12rcd13ifvqi60","pricing_plan_id":"cebpf4jnsgd1na2vs0mg"},{"bike_id":"f053ee2f-b0a9-4944-9983-ac7f640159db","system_id":"levelo_inurba_marseille","lat":43.267426,"lon":5.427408,"is_reserved":false,"is_disabled":false,"rental_uris":{"android":"levelo://app?vid=f053ee2f-b0a9-4944-9983-ac7f640159db","ios":"levelo://app?vid=f053ee2f-b0a9-4944-9983-ac7f640159db"},"vehicle_type_id":"4","last_reported":1749931799,"current_range_meters":4800,"station_id":"","pricing_plan_id":"cebpf4jnsgd1na2vs0mg"},{"bike_id":"c39110b4-2750-43d7-90bf-76ec5b8f362c","system_id":"levelo_inurba_marseille","lat":43.28938,"lon":5.36637,"is_reserved":false,"is_disabled":false,"rental_uris":{"android":"levelo://app?vid=c39110b4-2750-43d7-90bf-76ec5b8f362c","ios":"levelo://app?vid=c39110b4-2750-43d7-90bf-76ec5b8f362c"},"vehicle_type_id":"4","last_reported":1749931799,"current_range_meters":4800,"station_id":"ce4bhap2rcd13ifvqek0","pricing_plan_id":"cebpf4jnsgd1na2vs0mg"},{"bike_id":"40b82cf9-a795-4190-9616-952d4f4be3b2","system_id":"levelo_inurba_marseille","lat":43.2406,"lon":5.37731,"is_reserved":false,"is_disabled":false,"rental_uris":{"android":"levelo://app?vid=40b82cf9-a795-4190-9616-952d4f4be3b2","ios":"levelo://app?vid=40b82cf9-a795-4190-9616-952d4f4be3b2"},"vehicle_type_id":"4","last_reported":1749931799,"current_range_meters":4800,"station_id":"ce4bhnp2rcd13ifvqgvg","pricing_plan_id":"cebpf4jnsgd1na2vs0mg"},{"bike_id":"c581076f-e0d4-4644-bb3a-3201acc0dde5","system_id":"levelo_inurba_marseille","lat":43.30949,"lon":5.39029,"is_reserved":false,"is_disabled":false,"rental_uris":{"android":"levelo://app?vid=c581076f-e0d4-4644-bb3a-3201acc0dde5","ios":"levelo://app?vid=c581076f-e0d4-4644-bb3a-3201acc0dde5"},"vehicle_type_id":"4","last_reported":1749931799,"current_range_meters":6000,"station_id":"ce4bgup2rcd13ifvqco0","pricing_plan_id":"cebpf4jnsgd1na2vs0mg"},{"bike_id":"e78d1fa2-d520-4139-b9eb-08831eded8f8","system_id":"levelo_inurba_marseille","lat":43.25528,"lon":5.37627,"is_reserved":false,"is_disabled":false,"rental_uris":{"android":"levelo://app?vid=e78d1fa2-d520-4139-b9eb-08831eded8f8","ios":"levelo://app?vid=e78d1fa2-d520-4139-b9eb-08831eded8f8"},"vehicle_type_id":"4","last_reported":1749931799,"current_range_meters":6000,"station_id":"ce4bhh12rcd13ifvqff0","pricing_plan_id":"cebpf4jnsgd1na2vs0mg"},{"bike_id":"d08ceb6e-bb09-4d96-a815-acf4b6b23ab7","system_id":"levelo_inurba_marseille","lat":43.26369,"lon":5.37802,"is_reserved":false,"is_disabled":false,"rental_uris":{"android":"levelo://app?vid=d08ceb6e-bb09-4d96-a815-acf4b6b23ab7","ios":"levelo://app?vid=d08ceb6e-bb09-4d96-a815-acf4b6b23ab7"},"vehicle_type_id":"4","last_reported":1749931799,"current_range_meters":6000,"station_id":"st_d163nis0mtpqnht9uue0","pricing_plan_id":"cebpf4jnsgd1na2vs0mg"},{"bike_id":"10e46e74-d35e-4e64-95c5-ef9d70094b86","system_id":"levelo_inurba_marseille","lat":43.29522,"lon":5.37519,"is_reserved":false,"is_disabled":false,"rental_uris":{"android":"levelo://app?vid=10e46e74-d35e-4e64-95c5-ef9d70094b86","ios":"levelo://app?vid=10e46e74-d35e-4e64-95c5-ef9d70094b86"},"vehicle_type_id":"4","last_reported":1749931799,"current_range_meters":6400,"station_id":"ce4bgkp2rcd13ifvqbmg","pricing_plan_id":"cebpf4jnsgd1na2vs0mg"},{"bike_id":"3ebcb526-9195-4257-ae10-ca7e45e1829a","system_id":"levelo_inurba_marseille","lat":43.23184,"lon":5.39992,"is_reserved":false,"is_disabled":false,"rental_uris":{"android":"levelo://app?vid=3ebcb526-9195-4257-ae10-ca7e45e1829a","ios":"levelo://app?vid=3ebcb526-9195-4257-ae10-ca7e45e1829a"},"vehicle_type_id":"4","last_reported":1749931799,"current_range_meters":6400,"station_id":"ce4bhn12rcd13ifvqgqg","pricing_plan_id":"cebpf4jnsgd1na2vs0mg"},{"bike_id":"94d69076-c0db-461e-b7eb-fb5d03d9f749","system_id":"levelo_inurba_marseille","lat":43.27998,"lon":5.41659,"is_reserved":false,"is_disabled":false,"rental_uris":{"android":"levelo://app?vid=94d69076-c0db-461e-b7eb-fb5d03d9f749","ios":"levelo://app?vid=94d69076-c0db-461e-b7eb-fb5d03d9f749"},"vehicle_type_id":"4","last_reported":1749931799,"current_range_meters":6400,"station_id":"ce4bho12rcd13ifvqh1g","pricing_plan_id":"cebpf4jnsgd1na2vs0mg"},{"bike_id":"720f1f3d-be0f-4f98-a328-321cc85e30ef","system_id":"levelo_inurba_marseille","lat":43.306106,"lon":5.380263,"is_reserved":false,"is_disabled":false,"rental_uris":{"android":"levelo://app?vid=720f1f3d-be0f-4f98-a328-321cc85e30ef","ios":"levelo://app?vid=720f1f3d-be0f-4f98-a328-321cc85e30ef"},"vehicle_type_id":"4","last_reported":1749931799,"current_range_meters":6800,"station_id":"ce4bgv92rcd13ifvqcr0","pricing_plan_id":"cebpf4jnsgd1na2vs0mg"},{"bike_id":"ce891566-49e9-42b9-9045-a54a0e5f0a3c","system_id":"levelo_inurba_marseille","lat":43.32045,"lon":5.41539,"is_reserved":false,"is_disabled":false,"rental_uris":{"android":"levelo://app?vid=ce891566-49e9-42b9-9045-a54a0e5f0a3c","ios":"levelo://app?vid=ce891566-49e9-42b9-9045-a54a0e5f0a3c"},"vehicle_type_id":"4","last_reported":1749931799,"current_range_meters":6800,"station_id":"ce4bhq92rcd13ifvqhkg","pricing_plan_id":"cebpf4jnsgd1na2vs0mg"},{"bike_id":"798f79b0-d48b-4215-b0f3-8a8ca252f33b","system_id":"levelo_inurba_marseille","lat":43.285736,"lon":5.395048,"is_reserved":false,"is_disabled":false,"rental_uris":{"android":"levelo://app?vid=798f79b0-d48b-4215-b0f3-8a8ca252f33b","ios":"levelo://app?vid=798f79b0-d48b-4215-b0f3-8a8ca252f33b"},"vehicle_type_id":"4","last_reported":1749931799,"current_range_meters":7200,"station_id":"ce4bh292rcd13ifvqdg0","pricing_plan_id":"cebpf4jnsgd1na2vs0mg"},{"bike_id":"8412a9e5-495c-4e7e-aee4-97aadcc6e241","system_id":"levelo_inurba_marseille","lat":43.2957,"lon":5.40022,"is_reserved":false,"is_disabled":false,"rental_uris":{"android":"levelo://app?vid=8412a9e5-495c-4e7e-aee4-97aadcc6e241","ios":"levelo://app?vid=8412a9e5-495c-4e7e-aee4-97aadcc6e241"},"vehicle_type_id":"4","last_reported":1749931799,"current_range_meters":7200,"station_id":"ce4bh312rcd13ifvqdj0","pricing_plan_id":"cebpf4jnsgd1na2vs0mg"},{"bike_id":"8cc8668c-1436-494e-a001-db5c0d0c2292","system_id":"levelo_inurba_marseille","lat":43.26689,"lon":5.38272,"is_reserved":false,"is_disabled":false,"rental_uris":{"android":"levelo://app?vid=8cc8668c-1436-494e-a001-db5c0d0c2292","ios":"levelo://app?vid=8cc8668c-1436-494e-a001-db5c0d0c2292"},"vehicle_type_id":"4","last_reported":1749931799,"current_range_meters":7200,"station_id":"ce4bhg92rcd13ifvqf90","pricing_plan_id":"cebpf4jnsgd1na2vs0mg"},{"bike_id":"a8a26a1c-0414-4916-b619-8ec3ec5817c2","system_id":"levelo_inurba_marseille","lat":43.27184,"lon":5.40989,"is_reserved":false,"is_disabled":false,"rental_uris":{"android":"levelo://app?vid=a8a26a1c-0414-4916-b619-8ec3ec5817c2","ios":"levelo://app?vid=a8a26a1c-0414-4916-b619-8ec3ec5817c2"},"vehicle_type_id":"4","last_reported":1749931799,"current_range_meters":7200,"station_id":"ce4bhl12rcd13ifvqgf0","pricing_plan_id":"cebpf4jnsgd1na2vs0mg"},{"bike_id":"019f7ce6-90a1-40dd-b974-20bf6d93b9f0","system_id":"levelo_inurba_marseille","lat":43.29286,"lon":5.38417,"is_reserved":false,"is_disabled":false,"rental_uris":{"android":"levelo://app?vid=019f7ce6-90a1-40dd-b974-20bf6d93b9f0","ios":"levelo://app?vid=019f7ce6-90a1-40dd-b974-20bf6d93b9f0"},"vehicle_type_id":"4","last_reported":1749931799,"current_range_meters":8400,"station_id":"ce4bh692rcd13ifvqea0","pricing_plan_id":"cebpf4jnsgd1na2vs0mg"},{"bike_id":"cf95ea5b-6c8f-4409-b6fc-a0968e95daf4","system_id":"levelo_inurba_marseille","lat":43.24181,"lon":5.3973,"is_reserved":false,"is_disabled":false,"rental_uris":{"android":"levelo://app?vid=cf95ea5b-6c8f-4409-b6fc-a0968e95daf4","ios":"levelo://app?vid=cf95ea5b-6c8f-4409-b6fc-a0968e95daf4"},"vehicle_type_id":"4","last_reported":1749931799,"current_range_meters":8400,"station_id":"ce4bhn12rcd13ifvqgpg","pricing_plan_id":"cebpf4jnsgd1na2vs0mg"},{"bike_id":"db8b7b21-74b8-4e5a-b510-9d25a786a981","system_id":"levelo_inurba_marseille","lat":43.28721,"lon":5.37934,"is_reserved":false,"is_disabled":false,"rental_uris":{"android":"levelo://app?vid=db8b7b21-74b8-4e5a-b510-9d25a786a981","ios":"levelo://app?vid=db8b7b21-74b8-4e5a-b510-9d25a786a981"},"vehicle_type_id":"4","last_reported":1749931799,"current_range_meters":8800,"station_id":"ce4bh9p2rcd13ifvqec0","pricing_plan_id":"cebpf4jnsgd1na2vs0mg"},{"bike_id":"39bfd0cf-5b81-4cd7-a4c4-a68f31dfe49c","system_id":"levelo_inurba_marseille","lat":43.27901,"lon":5.38005,"is_reserved":false,"is_disabled":false,"rental_uris":{"android":"levelo://app?vid=39bfd0cf-5b81-4cd7-a4c4-a68f31dfe49c","ios":"levelo://app?vid=39bfd0cf-5b81-4cd7-a4c4-a68f31dfe49c"},"vehicle_type_id":"4","last_reported":1749931799,"current_range_meters":8800,"station_id":"ce4bhf92rcd13ifvqf50","pricing_plan_id":"cebpf4jnsgd1na2vs0mg"},{"bike_id":"88d22cf4-98b7-4ada-8f86-e70f62a6af5d","system_id":"levelo_inurba_marseille","lat":43.24805,"lon":5.37441,"is_reserved":false,"is_disabled":false,"rental_uris":{"android":"levelo://app?vid=88d22cf4-98b7-4ada-8f86-e70f62a6af5d","ios":"levelo://app?vid=88d22cf4-98b7-4ada-8f86-e70f62a6af5d"},"vehicle_type_id":"4","last_reported":1749931799,"current_range_meters":8800,"station_id":"ce4bhgh2rcd13ifvqfb0","pricing_plan_id":"cebpf4jnsgd1na2vs0mg"},{"bike_id":"30ea247e-09fb-4fdd-8584-ff23c02a9f04","system_id":"levelo_inurba_marseille","lat":43.26221,"lon":5.37445,"is_reserved":false,"is_disabled":false,"rental_uris":{"android":"levelo://app?vid=30ea247e-09fb-4fdd-8584-ff23c02a9f04","ios":"levelo://app?vid=30ea247e-09fb-4fdd-8584-ff23c02a9f04"},"vehicle_type_id":"4","last_reported":1749931799,"current_range_meters":8800,"station_id":"ce4bhgp2rcd13ifvqfc0","pricing_plan_id":"cebpf4jnsgd1na2vs0mg"},{"bike_id":"2ab31527-f915-4286-b3a0-0beafd2cdd50","system_id":"levelo_inurba_marseille","lat":43.30023,"lon":5.36995,"is_reserved":false,"is_disabled":false,"rental_uris":{"android":"levelo://app?vid=2ab31527-f915-4286-b3a0-0beafd2cdd50","ios":"levelo://app?vid=2ab31527-f915-4286-b3a0-0beafd2cdd50"},"vehicle_type_id":"4","last_reported":1749931799,"current_range_meters":9200,"station_id":"","pricing_plan_id":"cebpf4jnsgd1na2vs0mg"},{"bike_id":"7fcb9d3f-4664-4887-82d0-036ba4e6dbdc","system_id":"levelo_inurba_marseille","lat":43.26222,"lon":5.37409,"is_reserved":false,"is_disabled":false,"rental_uris":{"android":"levelo://app?vid=7fcb9d3f-4664-4887-82d0-036ba4e6dbdc","ios":"levelo://app?vid=7fcb9d3f-4664-4887-82d0-036ba4e6dbdc"},"vehicle_type_id":"4","last_reported":1749931799,"current_range_meters":9200,"station_id":"","pricing_plan_id":"cebpf4jnsgd1na2vs0mg"},{"bike_id":"b52775f2-44fc-4b89-80c3-5d1e41e427f4","system_id":"levelo_inurba_marseille","lat":43.260292,"lon":5.375534,"is_reserved":false,"is_disabled":false,"rental_uris":{"android":"levelo://app?vid=b52775f2-44fc-4b89-80c3-5d1e41e427f4","ios":"levelo://app?vid=b52775f2-44fc-4b89-80c3-5d1e41e427f4"},"vehicle_type_id":"4","last_reported":1749931799,"current_range_meters":9200,"station_id":"","pricing_plan_id":"cebpf4jnsgd1na2vs0mg"},{"bike_id":"87c270dc-4fcf-4263-8f57-a07ca944f869","system_id":"levelo_inurba_marseille","lat":43.31294,"lon":5.39444,"is_reserved":false,"is_disabled":false,"rental_uris":{"android":"levelo://app?vid=87c270dc-4fcf-4263-8f57-a07ca944f869","ios":"levelo://app?vid=87c270dc-4fcf-4263-8f57-a07ca944f869"},"vehicle_type_id":"4","last_reported":1749931799,"current_range_meters":9200,"station_id":"","pricing_plan_id":"cebpf4jnsgd1na2vs0mg"},{"bike_id":"9751e89f-4154-4fa3-8571-de6540d520fb","system_id":"levelo_inurba_marseille","lat":43.295776,"lon":5.375141,"is_reserved":false,"is_disabled":false,"rental_uris":{"android":"levelo://app?vid=9751e89f-4154-4fa3-8571-de6540d520fb","ios":"levelo://app?vid=9751e89f-4154-4fa3-8571-de6540d520fb"},"vehicle_type_id":"4","last_reported":1749931799,"current_range_meters":9200,"station_id":"ce4bgh92rcd13ifvqb50","pricing_plan_id":"cebpf4jnsgd1na2vs0mg"},{"bike_id":"c8c05497-3432-4119-a34d-60ea49f45922","system_id":"levelo_inurba_marseille","lat":43.29788,"lon":5.37102,"is_reserved":false,"is_disabled":false,"rental_uris":{"android":"levelo://app?vid=c8c05497-3432-4119-a34d-60ea49f45922","ios":"levelo://app?vid=c8c05497-3432-4119-a34d-60ea49f45922"},"vehicle_type_id":"4","last_reported":1749931799,"current_range_meters":9200,"station_id":"ce4bgop2rcd13ifvqc1g","pricing_plan_id":"cebpf4jnsgd1na2vs0mg"},{"bike_id":"f4b4a1a4-5829-4de1-b0db-fec6458cb51c","system_id":"levelo_inurba_marseille","lat":43.2926,"lon":5.38438,"is_reserved":false,"is_disabled":false,"rental_uris":{"android":"levelo://app?vid=f4b4a1a4-5829-4de1-b0db-fec6458cb51c","ios":"levelo://app?vid=f4b4a1a4-5829-4de1-b0db-fec6458cb51c"},"vehicle_type_id":"4","last_reported":1749931799,"current_range_meters":9200,"station_id":"ce4bh692rcd13ifvqea0","pricing_plan_id":"cebpf4jnsgd1na2vs0mg"},{"bike_id":"a0b432a2-044f-4537-b06e-442ddd3e2347","system_id":"levelo_inurba_marseille","lat":43.2501,"lon":5.3892,"is_reserved":false,"is_disabled":false,"rental_uris":{"android":"levelo://app?vid=a0b432a2-044f-4537-b06e-442ddd3e2347","ios":"levelo://app?vid=a0b432a2-044f-4537-b06e-442ddd3e2347"},"vehicle_type_id":"4","last_reported":1749931799,"current_range_meters":9200,"station_id":"ce4bhgp2rcd13ifvqfd0","pricing_plan_id":"cebpf4jnsgd1na2vs0mg"},{"bike_id":"8712911d-c186-4974-911c-556ff2b605ba","system_id":"levelo_inurba_marseille","lat":43.24068,"lon":5.3776,"is_reserved":false,"is_disabled":false,"rental_uris":{"android":"levelo://app?vid=8712911d-c186-4974-911c-556ff2b605ba","ios":"levelo://app?vid=8712911d-c186-4974-911c-556ff2b605ba"},"vehicle_type_id":"4","last_reported":1749931799,"current_range_meters":9200,"station_id":"ce4bhnp2rcd13ifvqgvg","pricing_plan_id":"cebpf4jnsgd1na2vs0mg"},{"bike_id":"a011b965-8cb6-4198-9858-f2d1aa0dafcc","system_id":"levelo_inurba_marseille","lat":43.29536,"lon":5.38543,"is_reserved":false,"is_disabled":false,"rental_uris":{"android":"levelo://app?vid=a011b965-8cb6-4198-9858-f2d1aa0dafcc","ios":"levelo://app?vid=a011b965-8cb6-4198-9858-f2d1aa0dafcc"},"vehicle_type_id":"4","last_reported":1749931799,"current_range_meters":9600,"station_id":"ce4bgih2rcd13ifvqba0","pricing_plan_id":"cebpf4jnsgd1na2vs0mg"},{"bike_id":"0a176c0c-78a3-474b-b917-3fc9a4ed2ff7","system_id":"levelo_inurba_marseille","lat":43.255838,"lon":5.382256,"is_reserved":false,"is_disabled":false,"rental_uris":{"android":"levelo://app?vid=0a176c0c-78a3-474b-b917-3fc9a4ed2ff7","ios":"levelo://app?vid=0a176c0c-78a3-474b-b917-3fc9a4ed2ff7"},"vehicle_type_id":"4","last_reported":1749931799,"current_range_meters":9600,"station_id":"ce4bhih2rcd13ifvqfs0","pricing_plan_id":"cebpf4jnsgd1na2vs0mg"},{"bike_id":"a2f36015-21f2-481d-bdf5-2ff7bc0351b0","system_id":"levelo_inurba_marseille","lat":43.26816,"lon":5.40263,"is_reserved":false,"is_disabled":false,"rental_uris":{"android":"levelo://app?vid=a2f36015-21f2-481d-bdf5-2ff7bc0351b0","ios":"levelo://app?vid=a2f36015-21f2-481d-bdf5-2ff7bc0351b0"},"vehicle_type_id":"4","last_reported":1749931799,"current_range_meters":9600,"station_id":"ce501612rcd8frsf0b60","pricing_plan_id":"cebpf4jnsgd1na2vs0mg"},{"bike_id":"573f4d37-3f28-4b28-bbcb-1c080428515a","system_id":"levelo_inurba_marseille","lat":43.292633,"lon":5.384347,"is_reserved":false,"is_disabled":false,"rental_uris":{"android":"levelo://app?vid=573f4d37-3f28-4b28-bbcb-1c080428515a","ios":"levelo://app?vid=573f4d37-3f28-4b28-bbcb-1c080428515a"},"vehicle_type_id":"4","last_reported":1749931799,"current_range_meters":10000,"station_id":"ce4bh692rcd13ifvqea0","pricing_plan_id":"cebpf4jnsgd1na2vs0mg"},{"bike_id":"d1f2efc3-d86b-481d-8ab9-7f8faa28b7f5","system_id":"levelo_inurba_marseille","lat":43.28712,"lon":5.37929,"is_reserved":false,"is_disabled":false,"rental_uris":{"android":"levelo://app?vid=d1f2efc3-d86b-481d-8ab9-7f8faa28b7f5","ios":"levelo://app?vid=d1f2efc3-d86b-481d-8ab9-7f8faa28b7f5"},"vehicle_type_id":"4","last_reported":1749931799,"current_range_meters":10000,"station_id":"ce4bh9p2rcd13ifvqec0","pricing_plan_id":"cebpf4jnsgd1na2vs0mg"},{"bike_id":"f086dbed-517d-4a1e-ace8-b07dc30283c1","system_id":"levelo_inurba_marseille","lat":43.29704,"lon":5.36599,"is_reserved":false,"is_disabled":false,"rental_uris":{"android":"levelo://app?vid=f086dbed-517d-4a1e-ace8-b07dc30283c1","ios":"levelo://app?vid=f086dbed-517d-4a1e-ace8-b07dc30283c1"},"vehicle_type_id":"4","last_reported":1749931799,"current_range_meters":10800,"station_id":"ce4bgn12rcd13ifvqbt0","pricing_plan_id":"cebpf4jnsgd1na2vs0mg"},{"bike_id":"ce8488bb-eaaf-43ac-b767-0e951f4e58df","system_id":"levelo_inurba_marseille","lat":43.3059,"lon":5.39353,"is_reserved":false,"is_disabled":false,"rental_uris":{"android":"levelo://app?vid=ce8488bb-eaaf-43ac-b767-0e951f4e58df","ios":"levelo://app?vid=ce8488bb-eaaf-43ac-b767-0e951f4e58df"},"vehicle_type_id":"4","last_reported":1749931799,"current_range_meters":10800,"station_id":"ce4bh0p2rcd13ifvqd80","pricing_plan_id":"cebpf4jnsgd1na2vs0mg"},{"bike_id":"739bac6a-4bd5-463a-ae0a-e38918312247","system_id":"levelo_inurba_marseille","lat":43.29281,"lon":5.40118,"is_reserved":false,"is_disabled":false,"rental_uris":{"android":"levelo://app?vid=739bac6a-4bd5-463a-ae0a-e38918312247","ios":"levelo://app?vid=739bac6a-4bd5-463a-ae0a-e38918312247"},"vehicle_type_id":"4","last_reported":1749931799,"current_range_meters":10800,"station_id":"ce4bh312rcd13ifvqdk0","pricing_plan_id":"cebpf4jnsgd1na2vs0mg"},{"bike_id":"c8456ce6-cce4-4216-b0c1-f3c1f2c15ee5","system_id":"levelo_inurba_marseille","lat":43.29271,"lon":5.38444,"is_reserved":false,"is_disabled":false,"rental_uris":{"android":"levelo://app?vid=c8456ce6-cce4-4216-b0c1-f3c1f2c15ee5","ios":"levelo://app?vid=c8456ce6-cce4-4216-b0c1-f3c1f2c15ee5"},"vehicle_type_id":"4","last_reported":1749931799,"current_range_meters":10800,"station_id":"ce4bh692rcd13ifvqea0","pricing_plan_id":"cebpf4jnsgd1na2vs0mg"},{"bike_id":"e6b0b40d-4027-43af-9d9c-4538e9417958","system_id":"levelo_inurba_marseille","lat":43.263637,"lon":5.378177,"is_reserved":false,"is_disabled":false,"rental_uris":{"android":"levelo://app?vid=e6b0b40d-4027-43af-9d9c-4538e9417958","ios":"levelo://app?vid=e6b0b40d-4027-43af-9d9c-4538e9417958"},"vehicle_type_id":"4","last_reported":1749931799,"current_range_meters":10800,"station_id":"st_d163nis0mtpqnht9uue0","pricing_plan_id":"cebpf4jnsgd1na2vs0mg"},{"bike_id":"7d9f3ae3-c92b-433d-b036-9606b79ddf8c","system_id":"levelo_inurba_marseille","lat":43.26354,"lon":5.37816,"is_reserved":false,"is_disabled":false,"rental_uris":{"android":"levelo://app?vid=7d9f3ae3-c92b-433d-b036-9606b79ddf8c","ios":"levelo://app?vid=7d9f3ae3-c92b-433d-b036-9606b79ddf8c"},"vehicle_type_id":"4","last_reported":1749931799,"current_range_meters":10800,"station_id":"st_d163nis0mtpqnht9uue0","pricing_plan_id":"cebpf4jnsgd1na2vs0mg"},{"bike_id":"36aaa3d2-7e79-4b8a-bd67-c4f42f7d727d","system_id":"levelo_inurba_marseille","lat":43.26376,"lon":5.37805,"is_reserved":false,"is_disabled":false,"rental_uris":{"android":"levelo://app?vid=36aaa3d2-7e79-4b8a-bd67-c4f42f7d727d","ios":"levelo://app?vid=36aaa3d2-7e79-4b8a-bd67-c4f42f7d727d"},"vehicle_type_id":"4","last_reported":1749931799,"current_range_meters":10800,"station_id":"st_d163nis0mtpqnht9uue0","pricing_plan_id":"cebpf4jnsgd1na2vs0mg"},{"bike_id":"22c169b2-f167-4f7a-bb35-c11ca2919af6","system_id":"levelo_inurba_marseille","lat":43.28935,"lon":5.3664,"is_reserved":false,"is_disabled":false,"rental_uris":{"android":"levelo://app?vid=22c169b2-f167-4f7a-bb35-c11ca2919af6","ios":"levelo://app?vid=22c169b2-f167-4f7a-bb35-c11ca2919af6"},"vehicle_type_id":"4","last_reported":1749931799,"current_range_meters":11200,"station_id":"ce4bhap2rcd13ifvqek0","pricing_plan_id":"cebpf4jnsgd1na2vs0mg"},{"bike_id":"41d329cd-19bc-4ced-8012-362005bfacee","system_id":"levelo_inurba_marseille","lat":43.24811,"lon":5.37457,"is_reserved":false,"is_disabled":false,"rental_uris":{"android":"levelo://app?vid=41d329cd-19bc-4ced-8012-362005bfacee","ios":"levelo://app?vid=41d329cd-19bc-4ced-8012-362005bfacee"},"vehicle_type_id":"4","last_reported":1749931799,"current_range_meters":11200,"station_id":"ce4bhgh2rcd13ifvqfb0","pricing_plan_id":"cebpf4jnsgd1na2vs0mg"},{"bike_id":"90702fea-3c22-4307-9b78-de5b10bcdb32","system_id":"levelo_inurba_marseille","lat":43.26215,"lon":5.37438,"is_reserved":false,"is_disabled":false,"rental_uris":{"android":"levelo://app?vid=90702fea-3c22-4307-9b78-de5b10bcdb32","ios":"levelo://app?vid=90702fea-3c22-4307-9b78-de5b10bcdb32"},"vehicle_type_id":"4","last_reported":1749931799,"current_range_meters":11200,"station_id":"ce4bhgp2rcd13ifvqfc0","pricing_plan_id":"cebpf4jnsgd1na2vs0mg"},{"bike_id":"33a5ae76-fedf-41f8-94fe-0f03745d1877","system_id":"levelo_inurba_marseille","lat":43.25597,"lon":5.382,"is_reserved":false,"is_disabled":false,"rental_uris":{"android":"levelo://app?vid=33a5ae76-fedf-41f8-94fe-0f03745d1877","ios":"levelo://app?vid=33a5ae76-fedf-41f8-94fe-0f03745d1877"},"vehicle_type_id":"4","last_reported":1749931799,"current_range_meters":11200,"station_id":"ce4bhih2rcd13ifvqfs0","pricing_plan_id":"cebpf4jnsgd1na2vs0mg"},{"bike_id":"653cd02c-9bf3-4a7a-b8d1-27ab804bf944","system_id":"levelo_inurba_marseille","lat":43.31999,"lon":5.38143,"is_reserved":false,"is_disabled":false,"rental_uris":{"android":"levelo://app?vid=653cd02c-9bf3-4a7a-b8d1-27ab804bf944","ios":"levelo://app?vid=653cd02c-9bf3-4a7a-b8d1-27ab804bf944"},"vehicle_type_id":"4","last_reported":1749931799,"current_range_meters":11200,"station_id":"ce4bhr12rcd13ifvqhpg","pricing_plan_id":"cebpf4jnsgd1na2vs0mg"},{"bike_id":"061b51dc-6943-4523-8eed-b536ad391319","system_id":"levelo_inurba_marseille","lat":43.263673,"lon":5.378131,"is_reserved":false,"is_disabled":false,"rental_uris":{"android":"levelo://app?vid=061b51dc-6943-4523-8eed-b536ad391319","ios":"levelo://app?vid=061b51dc-6943-4523-8eed-b536ad391319"},"vehicle_type_id":"4","last_reported":1749931799,"current_range_meters":11200,"station_id":"st_d163nis0mtpqnht9uue0","pricing_plan_id":"cebpf4jnsgd1na2vs0mg"},{"bike_id":"2f0c6462-fbb1-4d3d-94cc-77e53667d1e9","system_id":"levelo_inurba_marseille","lat":43.26359,"lon":5.37828,"is_reserved":false,"is_disabled":false,"rental_uris":{"android":"levelo://app?vid=2f0c6462-fbb1-4d3d-94cc-77e53667d1e9","ios":"levelo://app?vid=2f0c6462-fbb1-4d3d-94cc-77e53667d1e9"},"vehicle_type_id":"4","last_reported":1749931799,"current_range_meters":11200,"station_id":"st_d163nis0mtpqnht9uue0","pricing_plan_id":"cebpf4jnsgd1na2vs0mg"},{"bike_id":"507c5d85-77a4-4cbc-a02c-82380c8bfef1","system_id":"levelo_inurba_marseille","lat":43.31119,"lon":5.37761,"is_reserved":false,"is_disabled":false,"rental_uris":{"android":"levelo://app?vid=507c5d85-77a4-4cbc-a02c-82380c8bfef1","ios":"levelo://app?vid=507c5d85-77a4-4cbc-a02c-82380c8bfef1"},"vehicle_type_id":"4","last_reported":1749931799,"current_range_meters":11600,"station_id":"ce4bgt92rcd13ifvqcg0","pricing_plan_id":"cebpf4jnsgd1na2vs0mg"},{"bike_id":"cd70432e-8cc2-475e-9930-0fcabd715217","system_id":"levelo_inurba_marseille","lat":43.26558,"lon":5.37286,"is_reserved":false,"is_disabled":false,"rental_uris":{"android":"levelo://app?vid=cd70432e-8cc2-475e-9930-0fcabd715217","ios":"levelo://app?vid=cd70432e-8cc2-475e-9930-0fcabd715217"},"vehicle_type_id":"4","last_reported":1749931799,"current_range_meters":11600,"station_id":"ce4bhg12rcd13ifvqf70","pricing_plan_id":"cebpf4jnsgd1na2vs0mg"},{"bike_id":"dcda8a69-9141-4188-85a8-e89a112c453b","system_id":"levelo_inurba_marseille","lat":43.267611,"lon":5.383819,"is_reserved":false,"is_disabled":false,"rental_uris":{"android":"levelo://app?vid=dcda8a69-9141-4188-85a8-e89a112c453b","ios":"levelo://app?vid=dcda8a69-9141-4188-85a8-e89a112c453b"},"vehicle_type_id":"4","last_reported":1749931799,"current_range_meters":11600,"station_id":"ce4bhg92rcd13ifvqf90","pricing_plan_id":"cebpf4jnsgd1na2vs0mg"},{"bike_id":"9bf9b16e-99e1-4b2d-a97f-94b6121ce170","system_id":"levelo_inurba_marseille","lat":43.32305,"lon":5.38305,"is_reserved":false,"is_disabled":false,"rental_uris":{"android":"levelo://app?vid=9bf9b16e-99e1-4b2d-a97f-94b6121ce170","ios":"levelo://app?vid=9bf9b16e-99e1-4b2d-a97f-94b6121ce170"},"vehicle_type_id":"4","last_reported":1749931799,"current_range_meters":11600,"station_id":"ce4bhr12rcd13ifvqhqg","pricing_plan_id":"cebpf4jnsgd1na2vs0mg"},{"bike_id":"2eb2516b-5f9f-4f58-8493-07049b393727","system_id":"levelo_inurba_marseille","lat":43.337311,"lon":5.39192,"is_reserved":false,"is_disabled":false,"rental_uris":{"android":"levelo://app?vid=2eb2516b-5f9f-4f58-8493-07049b393727","ios":"levelo://app?vid=2eb2516b-5f9f-4f58-8493-07049b393727"},"vehicle_type_id":"4","last_reported":1749931799,"current_range_meters":11600,"station_id":"ce4bhr92rcd13ifvqhsg","pricing_plan_id":"cebpf4jnsgd1na2vs0mg"},{"bike_id":"9e15bd24-3dbe-43ec-9a80-99f9837d8cf6","system_id":"levelo_inurba_marseille","lat":43.29719,"lon":5.37693,"is_reserved":false,"is_disabled":false,"rental_uris":{"android":"levelo://app?vid=9e15bd24-3dbe-43ec-9a80-99f9837d8cf6","ios":"levelo://app?vid=9e15bd24-3dbe-43ec-9a80-99f9837d8cf6"},"vehicle_type_id":"4","last_reported":1749931799,"current_range_meters":12000,"station_id":"ce4bgkh2rcd13ifvqbl0","pricing_plan_id":"cebpf4jnsgd1na2vs0mg"},{"bike_id":"ac9a19cd-8655-4aef-b11d-e1be410c6d64","system_id":"levelo_inurba_marseille","lat":43.31172,"lon":5.38725,"is_reserved":false,"is_disabled":false,"rental_uris":{"android":"levelo://app?vid=ac9a19cd-8655-4aef-b11d-e1be410c6d64","ios":"levelo://app?vid=ac9a19cd-8655-4aef-b11d-e1be410c6d64"},"vehicle_type_id":"4","last_reported":1749931799,"current_range_meters":12000,"station_id":"ce4bgv12rcd13ifvqcp0","pricing_plan_id":"cebpf4jnsgd1na2vs0mg"},{"bike_id":"83a71489-9213-4b9a-94eb-cf35d696d9b3","system_id":"levelo_inurba_marseille","lat":43.30592,"lon":5.39358,"is_reserved":false,"is_disabled":false,"rental_uris":{"android":"levelo://app?vid=83a71489-9213-4b9a-94eb-cf35d696d9b3","ios":"levelo://app?vid=83a71489-9213-4b9a-94eb-cf35d696d9b3"},"vehicle_type_id":"4","last_reported":1749931799,"current_range_meters":12000,"station_id":"ce4bh0p2rcd13ifvqd80","pricing_plan_id":"cebpf4jnsgd1na2vs0mg"},{"bike_id":"4f864424-3dd4-4963-ae98-8ed3f3f9bfbb","system_id":"levelo_inurba_marseille","lat":43.29546,"lon":5.39038,"is_reserved":false,"is_disabled":false,"rental_uris":{"android":"levelo://app?vid=4f864424-3dd4-4963-ae98-8ed3f3f9bfbb","ios":"levelo://app?vid=4f864424-3dd4-4963-ae98-8ed3f3f9bfbb"},"vehicle_type_id":"4","last_reported":1749931799,"current_range_meters":12000,"station_id":"ce4bh3p2rcd13ifvqdp0","pricing_plan_id":"cebpf4jnsgd1na2vs0mg"},{"bike_id":"7afac99f-c8c4-495c-8e8b-7988d3d73e66","system_id":"levelo_inurba_marseille","lat":43.26372,"lon":5.3781,"is_reserved":false,"is_disabled":false,"rental_uris":{"android":"levelo://app?vid=7afac99f-c8c4-495c-8e8b-7988d3d73e66","ios":"levelo://app?vid=7afac99f-c8c4-495c-8e8b-7988d3d73e66"},"vehicle_type_id":"4","last_reported":1749931799,"current_range_meters":12000,"station_id":"st_d163nis0mtpqnht9uue0","pricing_plan_id":"cebpf4jnsgd1na2vs0mg"},{"bike_id":"5a21e497-33bb-4066-baf7-e010c7ab35fe","system_id":"levelo_inurba_marseille","lat":43.24071,"lon":5.37756,"is_reserved":false,"is_disabled":false,"rental_uris":{"android":"levelo://app?vid=5a21e497-33bb-4066-baf7-e010c7ab35fe","ios":"levelo://app?vid=5a21e497-33bb-4066-baf7-e010c7ab35fe"},"vehicle_type_id":"4","last_reported":1749931799,"current_range_meters":12400,"station_id":"ce4bhnp2rcd13ifvqgvg","pricing_plan_id":"cebpf4jnsgd1na2vs0mg"},{"bike_id":"a7dc62cc-17ad-453f-b760-03f45a392af0","system_id":"levelo_inurba_marseille","lat":43.2979,"lon":5.38099,"is_reserved":false,"is_disabled":false,"rental_uris":{"android":"levelo://app?vid=a7dc62cc-17ad-453f-b760-03f45a392af0","ios":"levelo://app?vid=a7dc62cc-17ad-453f-b760-03f45a392af0"},"vehicle_type_id":"4","last_reported":1749931799,"current_range_meters":12800,"station_id":"ce4bgip2rcd13ifvqbb0","pricing_plan_id":"cebpf4jnsgd1na2vs0mg"},{"bike_id":"036fcc34-aefb-4cc5-a3f4-3c0bc1534c85","system_id":"levelo_inurba_marseille","lat":43.25086,"lon":5.39531,"is_reserved":false,"is_disabled":false,"rental_uris":{"android":"levelo://app?vid=036fcc34-aefb-4cc5-a3f4-3c0bc1534c85","ios":"levelo://app?vid=036fcc34-aefb-4cc5-a3f4-3c0bc1534c85"},"vehicle_type_id":"4","last_reported":1749931799,"current_range_meters":12800,"station_id":"ce4bhm12rcd13ifvqgkg","pricing_plan_id":"cebpf4jnsgd1na2vs0mg"},{"bike_id":"d2729172-f4bf-4eb8-9964-c217269a3492","system_id":"levelo_inurba_marseille","lat":43.211872,"lon":5.350897,"is_reserved":false,"is_disabled":false,"rental_uris":{"android":"levelo://app?vid=d2729172-f4bf-4eb8-9964-c217269a3492","ios":"levelo://app?vid=d2729172-f4bf-4eb8-9964-c217269a3492"},"vehicle_type_id":"4","last_reported":1749931799,"current_range_meters":12800,"station_id":"st_cvj6sg6p6f1abm77japg","pricing_plan_id":"cebpf4jnsgd1na2vs0mg"},{"bike_id":"bd081d41-5eed-4495-82ed-9e27cd112239","system_id":"levelo_inurba_marseille","lat":43.249488,"lon":5.396613,"is_reserved":false,"is_disabled":false,"rental_uris":{"android":"levelo://app?vid=bd081d41-5eed-4495-82ed-9e27cd112239","ios":"levelo://app?vid=bd081d41-5eed-4495-82ed-9e27cd112239"},"vehicle_type_id":"4","last_reported":1749931799,"current_range_meters":13600,"station_id":"","pricing_plan_id":"cebpf4jnsgd1na2vs0mg"},{"bike_id":"df1254ac-0833-4d4e-87e1-bdd09ea2bd36","system_id":"levelo_inurba_marseille","lat":43.29538,"lon":5.38445,"is_reserved":false,"is_disabled":false,"rental_uris":{"android":"levelo://app?vid=df1254ac-0833-4d4e-87e1-bdd09ea2bd36","ios":"levelo://app?vid=df1254ac-0833-4d4e-87e1-bdd09ea2bd36"},"vehicle_type_id":"4","last_reported":1749931799,"current_range_meters":13600,"station_id":"","pricing_plan_id":"cebpf4jnsgd1na2vs0mg"},{"bike_id":"0e46cc7b-2ba3-4bff-bd90-00d41cc2d25a","system_id":"levelo_inurba_marseille","lat":43.2637,"lon":5.37813,"is_reserved":false,"is_disabled":false,"rental_uris":{"android":"levelo://app?vid=0e46cc7b-2ba3-4bff-bd90-00d41cc2d25a","ios":"levelo://app?vid=0e46cc7b-2ba3-4bff-bd90-00d41cc2d25a"},"vehicle_type_id":"4","last_reported":1749931799,"current_range_meters":13600,"station_id":"st_d163nis0mtpqnht9uue0","pricing_plan_id":"cebpf4jnsgd1na2vs0mg"},{"bike_id":"f93b4177-c62a-4374-9943-ae59a7dd9908","system_id":"levelo_inurba_marseille","lat":43.29531,"lon":5.38544,"is_reserved":false,"is_disabled":false,"rental_uris":{"android":"levelo://app?vid=f93b4177-c62a-4374-9943-ae59a7dd9908","ios":"levelo://app?vid=f93b4177-c62a-4374-9943-ae59a7dd9908"},"vehicle_type_id":"4","last_reported":1749931799,"current_range_meters":14000,"station_id":"ce4bgih2rcd13ifvqba0","pricing_plan_id":"cebpf4jnsgd1na2vs0mg"},{"bike_id":"17d98d54-f0e2-47e1-81ae-2a5ecb53bdad","system_id":"levelo_inurba_marseille","lat":43.30436,"lon":5.38879,"is_reserved":false,"is_disabled":false,"rental_uris":{"android":"levelo://app?vid=17d98d54-f0e2-47e1-81ae-2a5ecb53bdad","ios":"levelo://app?vid=17d98d54-f0e2-47e1-81ae-2a5ecb53bdad"},"vehicle_type_id":"4","last_reported":1749931799,"current_range_meters":14000,"station_id":"ce4bgk12rcd13ifvqbi0","pricing_plan_id":"cebpf4jnsgd1na2vs0mg"},{"bike_id":"be1276f0-da40-426d-9a70-67ac3c279f52","system_id":"levelo_inurba_marseille","lat":43.24812,"lon":5.3746,"is_reserved":false,"is_disabled":false,"rental_uris":{"android":"levelo://app?vid=be1276f0-da40-426d-9a70-67ac3c279f52","ios":"levelo://app?vid=be1276f0-da40-426d-9a70-67ac3c279f52"},"vehicle_type_id":"4","last_reported":1749931799,"current_range_meters":14000,"station_id":"ce4bhgh2rcd13ifvqfb0","pricing_plan_id":"cebpf4jnsgd1na2vs0mg"},{"bike_id":"9714aba9-7977-43e7-a1e8-f5fc94147f75","system_id":"levelo_inurba_marseille","lat":43.26029,"lon":5.37551,"is_reserved":false,"is_disabled":false,"rental_uris":{"android":"levelo://app?vid=9714aba9-7977-43e7-a1e8-f5fc94147f75","ios":"levelo://app?vid=9714aba9-7977-43e7-a1e8-f5fc94147f75"},"vehicle_type_id":"4","last_reported":1749931799,"current_range_meters":14400,"station_id":"ce4bhgh2rcd13ifvqfa0","pricing_plan_id":"cebpf4jnsgd1na2vs0mg"},{"bike_id":"3ba53083-f560-4fb5-b3cc-01a71156c6ba","system_id":"levelo_inurba_marseille","lat":43.23188,"lon":5.35547,"is_reserved":false,"is_disabled":false,"rental_uris":{"android":"levelo://app?vid=3ba53083-f560-4fb5-b3cc-01a71156c6ba","ios":"levelo://app?vid=3ba53083-f560-4fb5-b3cc-01a71156c6ba"},"vehicle_type_id":"4","last_reported":1749931799,"current_range_meters":14400,"station_id":"ce4bhu92rcd13ifvqi70","pricing_plan_id":"cebpf4jnsgd1na2vs0mg"},{"bike_id":"a8283606-6fdf-49b2-991a-62bc6fc9988a","system_id":"levelo_inurba_marseille","lat":43.22501,"lon":5.34813,"is_reserved":false,"is_disabled":false,"rental_uris":{"android":"levelo://app?vid=a8283606-6fdf-49b2-991a-62bc6fc9988a","ios":"levelo://app?vid=a8283606-6fdf-49b2-991a-62bc6fc9988a"},"vehicle_type_id":"4","last_reported":1749931799,"current_range_meters":14400,"station_id":"st_cvj5dfep6f1abm77gieg","pricing_plan_id":"cebpf4jnsgd1na2vs0mg"},{"bike_id":"51c5518e-76de-4264-b70a-dd60046df65b","system_id":"levelo_inurba_marseille","lat":43.263591,"lon":5.37812,"is_reserved":false,"is_disabled":false,"rental_uris":{"android":"levelo://app?vid=51c5518e-76de-4264-b70a-dd60046df65b","ios":"levelo://app?vid=51c5518e-76de-4264-b70a-dd60046df65b"},"vehicle_type_id":"4","last_reported":1749931799,"current_range_meters":14400,"station_id":"st_d163nis0mtpqnht9uue0","pricing_plan_id":"cebpf4jnsgd1na2vs0mg"},{"bike_id":"8d274fd2-64fc-4514-9330-0ebe28877b2f","system_id":"levelo_inurba_marseille","lat":43.24806,"lon":5.37458,"is_reserved":false,"is_disabled":false,"rental_uris":{"android":"levelo://app?vid=8d274fd2-64fc-4514-9330-0ebe28877b2f","ios":"levelo://app?vid=8d274fd2-64fc-4514-9330-0ebe28877b2f"},"vehicle_type_id":"4","last_reported":1749931799,"current_range_meters":14800,"station_id":"ce4bhgh2rcd13ifvqfb0","pricing_plan_id":"cebpf4jnsgd1na2vs0mg"},{"bike_id":"b2a39d69-7123-480f-b5f0-3477ae80b9dc","system_id":"levelo_inurba_marseille","lat":43.23072,"lon":5.3548,"is_reserved":false,"is_disabled":false,"rental_uris":{"android":"levelo://app?vid=b2a39d69-7123-480f-b5f0-3477ae80b9dc","ios":"levelo://app?vid=b2a39d69-7123-480f-b5f0-3477ae80b9dc"},"vehicle_type_id":"4","last_reported":1749931799,"current_range_meters":14800,"station_id":"cpo3342slgdg3j2ifvpg","pricing_plan_id":"cebpf4jnsgd1na2vs0mg"},{"bike_id":"30b8e4f4-0cf1-40d8-9e5e-de65a58a713d","system_id":"levelo_inurba_marseille","lat":43.26367,"lon":5.37813,"is_reserved":false,"is_disabled":false,"rental_uris":{"android":"levelo://app?vid=30b8e4f4-0cf1-40d8-9e5e-de65a58a713d","ios":"levelo://app?vid=30b8e4f4-0cf1-40d8-9e5e-de65a58a713d"},"vehicle_type_id":"4","last_reported":1749931799,"current_range_meters":14800,"station_id":"st_d163nis0mtpqnht9uue0","pricing_plan_id":"cebpf4jnsgd1na2vs0mg"},{"bike_id":"b3f8d6a0-7082-4c22-9f20-414b32dd61c5","system_id":"levelo_inurba_marseille","lat":43.26029,"lon":5.37559,"is_reserved":false,"is_disabled":false,"rental_uris":{"android":"levelo://app?vid=b3f8d6a0-7082-4c22-9f20-414b32dd61c5","ios":"levelo://app?vid=b3f8d6a0-7082-4c22-9f20-414b32dd61c5"},"vehicle_type_id":"4","last_reported":1749931799,"current_range_meters":15200,"station_id":"ce4bhgh2rcd13ifvqfa0","pricing_plan_id":"cebpf4jnsgd1na2vs0mg"},{"bike_id":"37396e2a-eeee-4321-b042-9b99e7c1bda5","system_id":"levelo_inurba_marseille","lat":43.24809,"lon":5.374575,"is_reserved":false,"is_disabled":false,"rental_uris":{"android":"levelo://app?vid=37396e2a-eeee-4321-b042-9b99e7c1bda5","ios":"levelo://app?vid=37396e2a-eeee-4321-b042-9b99e7c1bda5"},"vehicle_type_id":"4","last_reported":1749931799,"current_range_meters":15200,"station_id":"ce4bhgh2rcd13ifvqfb0","pricing_plan_id":"cebpf4jnsgd1na2vs0mg"},{"bike_id":"ff28cfc6-e3b6-4df4-b7bc-d427fe36cb2e","system_id":"levelo_inurba_marseille","lat":43.29581,"lon":5.36739,"is_reserved":false,"is_disabled":false,"rental_uris":{"android":"levelo://app?vid=ff28cfc6-e3b6-4df4-b7bc-d427fe36cb2e","ios":"levelo://app?vid=ff28cfc6-e3b6-4df4-b7bc-d427fe36cb2e"},"vehicle_type_id":"4","last_reported":1749931799,"current_range_meters":16000,"station_id":"ce4bgph2rcd13ifvqc2g","pricing_plan_id":"cebpf4jnsgd1na2vs0mg"},{"bike_id":"92dea14c-e186-4515-aaec-4ba223fc1dce","system_id":"levelo_inurba_marseille","lat":43.24808,"lon":5.37459,"is_reserved":false,"is_disabled":false,"rental_uris":{"android":"levelo://app?vid=92dea14c-e186-4515-aaec-4ba223fc1dce","ios":"levelo://app?vid=92dea14c-e186-4515-aaec-4ba223fc1dce"},"vehicle_type_id":"4","last_reported":1749931799,"current_range_meters":16000,"station_id":"ce4bhgh2rcd13ifvqfb0","pricing_plan_id":"cebpf4jnsgd1na2vs0mg"},{"bike_id":"dc1e1319-b0f9-4bfb-9dd0-07f4d0186ec2","system_id":"levelo_inurba_marseille","lat":43.26235,"lon":5.40476,"is_reserved":false,"is_disabled":false,"rental_uris":{"android":"levelo://app?vid=dc1e1319-b0f9-4bfb-9dd0-07f4d0186ec2","ios":"levelo://app?vid=dc1e1319-b0f9-4bfb-9dd0-07f4d0186ec2"},"vehicle_type_id":"4","last_reported":1749931799,"current_range_meters":16000,"station_id":"ce4bhmh2rcd13ifvqgmg","pricing_plan_id":"cebpf4jnsgd1na2vs0mg"},{"bike_id":"761887df-5640-40e5-bdcb-4565aa776b42","system_id":"levelo_inurba_marseille","lat":43.31986,"lon":5.38135,"is_reserved":false,"is_disabled":false,"rental_uris":{"android":"levelo://app?vid=761887df-5640-40e5-bdcb-4565aa776b42","ios":"levelo://app?vid=761887df-5640-40e5-bdcb-4565aa776b42"},"vehicle_type_id":"4","last_reported":1749931799,"current_range_meters":16000,"station_id":"ce4bhr12rcd13ifvqhpg","pricing_plan_id":"cebpf4jnsgd1na2vs0mg"},{"bike_id":"ca345dc9-fdcd-4cd0-9db5-3a56151bb4ad","system_id":"levelo_inurba_marseille","lat":43.26363,"lon":5.37823,"is_reserved":false,"is_disabled":false,"rental_uris":{"android":"levelo://app?vid=ca345dc9-fdcd-4cd0-9db5-3a56151bb4ad","ios":"levelo://app?vid=ca345dc9-fdcd-4cd0-9db5-3a56151bb4ad"},"vehicle_type_id":"4","last_reported":1749931799,"current_range_meters":16000,"station_id":"st_d163nis0mtpqnht9uue0","pricing_plan_id":"cebpf4jnsgd1na2vs0mg"},{"bike_id":"decbbf6a-5803-4b9b-8dba-489f5abb76c8","system_id":"levelo_inurba_marseille","lat":43.26386,"lon":5.37812,"is_reserved":false,"is_disabled":false,"rental_uris":{"android":"levelo://app?vid=decbbf6a-5803-4b9b-8dba-489f5abb76c8","ios":"levelo://app?vid=decbbf6a-5803-4b9b-8dba-489f5abb76c8"},"vehicle_type_id":"4","last_reported":1749931799,"current_range_meters":16000,"station_id":"st_d163nis0mtpqnht9uue0","pricing_plan_id":"cebpf4jnsgd1na2vs0mg"},{"bike_id":"e0434344-4e63-43db-ab90-0b23b41990f7","system_id":"levelo_inurba_marseille","lat":43.30513,"lon":5.38437,"is_reserved":false,"is_disabled":false,"rental_uris":{"android":"levelo://app?vid=e0434344-4e63-43db-ab90-0b23b41990f7","ios":"levelo://app?vid=e0434344-4e63-43db-ab90-0b23b41990f7"},"vehicle_type_id":"4","last_reported":1749931799,"current_range_meters":16400,"station_id":"ce4bgg92rcd13ifvqb30","pricing_plan_id":"cebpf4jnsgd1na2vs0mg"},{"bike_id":"0e225452-51e7-46bc-9c4a-a4bb1f835fd9","system_id":"levelo_inurba_marseille","lat":43.29299,"lon":5.37457,"is_reserved":false,"is_disabled":false,"rental_uris":{"android":"levelo://app?vid=0e225452-51e7-46bc-9c4a-a4bb1f835fd9","ios":"levelo://app?vid=0e225452-51e7-46bc-9c4a-a4bb1f835fd9"},"vehicle_type_id":"4","last_reported":1749931799,"current_range_meters":16400,"station_id":"ce4bgi12rcd13ifvqb70","pricing_plan_id":"cebpf4jnsgd1na2vs0mg"},{"bike_id":"aa82331c-9057-434b-9166-f675b393064c","system_id":"levelo_inurba_marseille","lat":43.26033,"lon":5.37553,"is_reserved":false,"is_disabled":false,"rental_uris":{"android":"levelo://app?vid=aa82331c-9057-434b-9166-f675b393064c","ios":"levelo://app?vid=aa82331c-9057-434b-9166-f675b393064c"},"vehicle_type_id":"4","last_reported":1749931799,"current_range_meters":16400,"station_id":"ce4bhgh2rcd13ifvqfa0","pricing_plan_id":"cebpf4jnsgd1na2vs0mg"},{"bike_id":"a5ee4afe-a8c2-43ea-a8c6-a0a152038509","system_id":"levelo_inurba_marseille","lat":43.26032,"lon":5.37547,"is_reserved":false,"is_disabled":false,"rental_uris":{"android":"levelo://app?vid=a5ee4afe-a8c2-43ea-a8c6-a0a152038509","ios":"levelo://app?vid=a5ee4afe-a8c2-43ea-a8c6-a0a152038509"},"vehicle_type_id":"4","last_reported":1749931799,"current_range_meters":16400,"station_id":"ce4bhgh2rcd13ifvqfa0","pricing_plan_id":"cebpf4jnsgd1na2vs0mg"},{"bike_id":"e5b62466-ff9e-49e2-bd3e-be88bf15cda8","system_id":"levelo_inurba_marseille","lat":43.21191,"lon":5.35067,"is_reserved":false,"is_disabled":false,"rental_uris":{"android":"levelo://app?vid=e5b62466-ff9e-49e2-bd3e-be88bf15cda8","ios":"levelo://app?vid=e5b62466-ff9e-49e2-bd3e-be88bf15cda8"},"vehicle_type_id":"4","last_reported":1749931799,"current_range_meters":16400,"station_id":"st_cvj6sg6p6f1abm77japg","pricing_plan_id":"cebpf4jnsgd1na2vs0mg"},{"bike_id":"a24a529b-d226-4913-bf9b-29a309f7d424","system_id":"levelo_inurba_marseille","lat":43.263494,"lon":5.37822,"is_reserved":false,"is_disabled":false,"rental_uris":{"android":"levelo://app?vid=a24a529b-d226-4913-bf9b-29a309f7d424","ios":"levelo://app?vid=a24a529b-d226-4913-bf9b-29a309f7d424"},"vehicle_type_id":"4","last_reported":1749931799,"current_range_meters":16400,"station_id":"st_d163nis0mtpqnht9uue0","pricing_plan_id":"cebpf4jnsgd1na2vs0mg"},{"bike_id":"a123e9fa-df7d-41fb-b2d5-2e4e345456f9","system_id":"levelo_inurba_marseille","lat":43.25301,"lon":5.37476,"is_reserved":false,"is_disabled":false,"rental_uris":{"android":"levelo://app?vid=a123e9fa-df7d-41fb-b2d5-2e4e345456f9","ios":"levelo://app?vid=a123e9fa-df7d-41fb-b2d5-2e4e345456f9"},"vehicle_type_id":"4","last_reported":1749931799,"current_range_meters":16800,"station_id":"","pricing_plan_id":"cebpf4jnsgd1na2vs0mg"},{"bike_id":"273db4f6-da24-41e7-9c6b-354fabef4670","system_id":"levelo_inurba_marseille","lat":43.30829,"lon":5.37999,"is_reserved":false,"is_disabled":false,"rental_uris":{"android":"levelo://app?vid=273db4f6-da24-41e7-9c6b-354fabef4670","ios":"levelo://app?vid=273db4f6-da24-41e7-9c6b-354fabef4670"},"vehicle_type_id":"4","last_reported":1749931799,"current_range_meters":16800,"station_id":"","pricing_plan_id":"cebpf4jnsgd1na2vs0mg"},{"bike_id":"529d1f7c-b5c5-40bf-9472-1ac2b9f75ca0","system_id":"levelo_inurba_marseille","lat":43.250125,"lon":5.389169,"is_reserved":false,"is_disabled":false,"rental_uris":{"android":"levelo://app?vid=529d1f7c-b5c5-40bf-9472-1ac2b9f75ca0","ios":"levelo://app?vid=529d1f7c-b5c5-40bf-9472-1ac2b9f75ca0"},"vehicle_type_id":"4","last_reported":1749931799,"current_range_meters":16800,"station_id":"ce4bhgp2rcd13ifvqfd0","pricing_plan_id":"cebpf4jnsgd1na2vs0mg"},{"bike_id":"c78d3428-9a54-4158-bcde-576d5f82207f","system_id":"levelo_inurba_marseille","lat":43.26358,"lon":5.37811,"is_reserved":false,"is_disabled":false,"rental_uris":{"android":"levelo://app?vid=c78d3428-9a54-4158-bcde-576d5f82207f","ios":"levelo://app?vid=c78d3428-9a54-4158-bcde-576d5f82207f"},"vehicle_type_id":"4","last_reported":1749931799,"current_range_meters":16800,"station_id":"st_d163nis0mtpqnht9uue0","pricing_plan_id":"cebpf4jnsgd1na2vs0mg"},{"bike_id":"43da96e9-7fbe-437a-8a82-c33c8234490f","system_id":"levelo_inurba_marseille","lat":43.2636,"lon":5.3784,"is_reserved":false,"is_disabled":false,"rental_uris":{"android":"levelo://app?vid=43da96e9-7fbe-437a-8a82-c33c8234490f","ios":"levelo://app?vid=43da96e9-7fbe-437a-8a82-c33c8234490f"},"vehicle_type_id":"4","last_reported":1749931799,"current_range_meters":16800,"station_id":"st_d163nis0mtpqnht9uue0","pricing_plan_id":"cebpf4jnsgd1na2vs0mg"},{"bike_id":"2c7ba036-532a-4552-b7f1-5cd9cc98ab0b","system_id":"levelo_inurba_marseille","lat":43.26368,"lon":5.37817,"is_reserved":false,"is_disabled":false,"rental_uris":{"android":"levelo://app?vid=2c7ba036-532a-4552-b7f1-5cd9cc98ab0b","ios":"levelo://app?vid=2c7ba036-532a-4552-b7f1-5cd9cc98ab0b"},"vehicle_type_id":"4","last_reported":1749931799,"current_range_meters":16800,"station_id":"st_d163nis0mtpqnht9uue0","pricing_plan_id":"cebpf4jnsgd1na2vs0mg"},{"bike_id":"0172bdd7-2076-4479-a4cd-a8ebab27f23f","system_id":"levelo_inurba_marseille","lat":43.2953,"lon":5.37511,"is_reserved":false,"is_disabled":false,"rental_uris":{"android":"levelo://app?vid=0172bdd7-2076-4479-a4cd-a8ebab27f23f","ios":"levelo://app?vid=0172bdd7-2076-4479-a4cd-a8ebab27f23f"},"vehicle_type_id":"4","last_reported":1749931799,"current_range_meters":17200,"station_id":"ce4bgkp2rcd13ifvqbmg","pricing_plan_id":"cebpf4jnsgd1na2vs0mg"},{"bike_id":"ce4707f1-ade7-41e1-a35c-b9c7ed81ca93","system_id":"levelo_inurba_marseille","lat":43.26041,"lon":5.37533,"is_reserved":false,"is_disabled":false,"rental_uris":{"android":"levelo://app?vid=ce4707f1-ade7-41e1-a35c-b9c7ed81ca93","ios":"levelo://app?vid=ce4707f1-ade7-41e1-a35c-b9c7ed81ca93"},"vehicle_type_id":"4","last_reported":1749931799,"current_range_meters":17200,"station_id":"ce4bhgh2rcd13ifvqfa0","pricing_plan_id":"cebpf4jnsgd1na2vs0mg"},{"bike_id":"fbc50c25-fcb5-4c1d-8adf-6b5003671706","system_id":"levelo_inurba_marseille","lat":43.26216,"lon":5.37451,"is_reserved":false,"is_disabled":false,"rental_uris":{"android":"levelo://app?vid=fbc50c25-fcb5-4c1d-8adf-6b5003671706","ios":"levelo://app?vid=fbc50c25-fcb5-4c1d-8adf-6b5003671706"},"vehicle_type_id":"4","last_reported":1749931799,"current_range_meters":17200,"station_id":"ce4bhgp2rcd13ifvqfc0","pricing_plan_id":"cebpf4jnsgd1na2vs0mg"},{"bike_id":"c57701fd-240a-4eb3-9997-7f8b76408c0a","system_id":"levelo_inurba_marseille","lat":43.27811,"lon":5.40708,"is_reserved":false,"is_disabled":false,"rental_uris":{"android":"levelo://app?vid=c57701fd-240a-4eb3-9997-7f8b76408c0a","ios":"levelo://app?vid=c57701fd-240a-4eb3-9997-7f8b76408c0a"},"vehicle_type_id":"4","last_reported":1749931799,"current_range_meters":17200,"station_id":"ce4bhnh2rcd13ifvqgtg","pricing_plan_id":"cebpf4jnsgd1na2vs0mg"},{"bike_id":"2fdc72fd-a8fb-447d-b5b9-02a7038654e3","system_id":"levelo_inurba_marseille","lat":43.26935,"lon":5.40266,"is_reserved":false,"is_disabled":false,"rental_uris":{"android":"levelo://app?vid=2fdc72fd-a8fb-447d-b5b9-02a7038654e3","ios":"levelo://app?vid=2fdc72fd-a8fb-447d-b5b9-02a7038654e3"},"vehicle_type_id":"4","last_reported":1749931799,"current_range_meters":17200,"station_id":"cjm6bp8fraef2m0cb0m0","pricing_plan_id":"cebpf4jnsgd1na2vs0mg"},{"bike_id":"bcf8c37a-3b2c-4b4b-a33b-3ca9193b3a10","system_id":"levelo_inurba_marseille","lat":43.26383,"lon":5.37815,"is_reserved":false,"is_disabled":false,"rental_uris":{"android":"levelo://app?vid=bcf8c37a-3b2c-4b4b-a33b-3ca9193b3a10","ios":"levelo://app?vid=bcf8c37a-3b2c-4b4b-a33b-3ca9193b3a10"},"vehicle_type_id":"4","last_reported":1749931799,"current_range_meters":17200,"station_id":"st_d163nis0mtpqnht9uue0","pricing_plan_id":"cebpf4jnsgd1na2vs0mg"},{"bike_id":"14d0164c-2b6b-47b1-b99c-fbb11a27acc4","system_id":"levelo_inurba_marseille","lat":43.26366,"lon":5.37821,"is_reserved":false,"is_disabled":false,"rental_uris":{"android":"levelo://app?vid=14d0164c-2b6b-47b1-b99c-fbb11a27acc4","ios":"levelo://app?vid=14d0164c-2b6b-47b1-b99c-fbb11a27acc4"},"vehicle_type_id":"4","last_reported":1749931799,"current_range_meters":17200,"station_id":"st_d163nis0mtpqnht9uue0","pricing_plan_id":"cebpf4jnsgd1na2vs0mg"},{"bike_id":"5e7b60df-e8be-4a9e-806b-ffe82e954588","system_id":"levelo_inurba_marseille","lat":43.26378,"lon":5.37838,"is_reserved":false,"is_disabled":false,"rental_uris":{"android":"levelo://app?vid=5e7b60df-e8be-4a9e-806b-ffe82e954588","ios":"levelo://app?vid=5e7b60df-e8be-4a9e-806b-ffe82e954588"},"vehicle_type_id":"4","last_reported":1749931799,"current_range_meters":17200,"station_id":"st_d163nis0mtpqnht9uue0","pricing_plan_id":"cebpf4jnsgd1na2vs0mg"},{"bike_id":"3b98ea2c-81c6-4e60-9a2a-cafb0f3fcdc4","system_id":"levelo_inurba_marseille","lat":43.26371,"lon":5.37807,"is_reserved":false,"is_disabled":false,"rental_uris":{"android":"levelo://app?vid=3b98ea2c-81c6-4e60-9a2a-cafb0f3fcdc4","ios":"levelo://app?vid=3b98ea2c-81c6-4e60-9a2a-cafb0f3fcdc4"},"vehicle_type_id":"4","last_reported":1749931799,"current_range_meters":17200,"station_id":"st_d163nis0mtpqnht9uue0","pricing_plan_id":"cebpf4jnsgd1na2vs0mg"},{"bike_id":"32ad379e-863f-4814-aa19-c1ef9ca8f186","system_id":"levelo_inurba_marseille","lat":43.3054,"lon":5.36705,"is_reserved":false,"is_disabled":false,"rental_uris":{"android":"levelo://app?vid=32ad379e-863f-4814-aa19-c1ef9ca8f186","ios":"levelo://app?vid=32ad379e-863f-4814-aa19-c1ef9ca8f186"},"vehicle_type_id":"4","last_reported":1749931799,"current_range_meters":17600,"station_id":"ce4bgrp2rcd13ifvqc9g","pricing_plan_id":"cebpf4jnsgd1na2vs0mg"},{"bike_id":"dc1349e4-59da-4942-a421-7915d4edbfcb","system_id":"levelo_inurba_marseille","lat":43.24808,"lon":5.37456,"is_reserved":false,"is_disabled":false,"rental_uris":{"android":"levelo://app?vid=dc1349e4-59da-4942-a421-7915d4edbfcb","ios":"levelo://app?vid=dc1349e4-59da-4942-a421-7915d4edbfcb"},"vehicle_type_id":"4","last_reported":1749931799,"current_range_meters":17600,"station_id":"ce4bhgh2rcd13ifvqfb0","pricing_plan_id":"cebpf4jnsgd1na2vs0mg"},{"bike_id":"a7a59b9b-4fa4-4a48-b659-8872bcc182f4","system_id":"levelo_inurba_marseille","lat":43.2794,"lon":5.41046,"is_reserved":false,"is_disabled":false,"rental_uris":{"android":"levelo://app?vid=a7a59b9b-4fa4-4a48-b659-8872bcc182f4","ios":"levelo://app?vid=a7a59b9b-4fa4-4a48-b659-8872bcc182f4"},"vehicle_type_id":"4","last_reported":1749931799,"current_range_meters":17600,"station_id":"ce4bhnp2rcd13ifvqh0g","pricing_plan_id":"cebpf4jnsgd1na2vs0mg"},{"bike_id":"af54e57f-f161-4317-9bd4-1d43f8702955","system_id":"levelo_inurba_marseille","lat":43.23195,"lon":5.3555,"is_reserved":false,"is_disabled":false,"rental_uris":{"android":"levelo://app?vid=af54e57f-f161-4317-9bd4-1d43f8702955","ios":"levelo://app?vid=af54e57f-f161-4317-9bd4-1d43f8702955"},"vehicle_type_id":"4","last_reported":1749931799,"current_range_meters":17600,"station_id":"ce4bhu92rcd13ifvqi70","pricing_plan_id":"cebpf4jnsgd1na2vs0mg"},{"bike_id":"3f96fac2-85e8-4f01-be6f-bf8bd1d9101a","system_id":"levelo_inurba_marseille","lat":43.2637,"lon":5.37796,"is_reserved":false,"is_disabled":false,"rental_uris":{"android":"levelo://app?vid=3f96fac2-85e8-4f01-be6f-bf8bd1d9101a","ios":"levelo://app?vid=3f96fac2-85e8-4f01-be6f-bf8bd1d9101a"},"vehicle_type_id":"4","last_reported":1749931799,"current_range_meters":17600,"station_id":"st_d163nis0mtpqnht9uue0","pricing_plan_id":"cebpf4jnsgd1na2vs0mg"},{"bike_id":"70be4d44-b115-4274-818f-bb861bf26dab","system_id":"levelo_inurba_marseille","lat":43.26346,"lon":5.37834,"is_reserved":false,"is_disabled":false,"rental_uris":{"android":"levelo://app?vid=70be4d44-b115-4274-818f-bb861bf26dab","ios":"levelo://app?vid=70be4d44-b115-4274-818f-bb861bf26dab"},"vehicle_type_id":"4","last_reported":1749931799,"current_range_meters":17600,"station_id":"st_d163nis0mtpqnht9uue0","pricing_plan_id":"cebpf4jnsgd1na2vs0mg"},{"bike_id":"db925a1b-86b2-4561-9864-5ddf8b5f2239","system_id":"levelo_inurba_marseille","lat":43.26372,"lon":5.37817,"is_reserved":false,"is_disabled":false,"rental_uris":{"android":"levelo://app?vid=db925a1b-86b2-4561-9864-5ddf8b5f2239","ios":"levelo://app?vid=db925a1b-86b2-4561-9864-5ddf8b5f2239"},"vehicle_type_id":"4","last_reported":1749931799,"current_range_meters":17600,"station_id":"st_d163nis0mtpqnht9uue0","pricing_plan_id":"cebpf4jnsgd1na2vs0mg"},{"bike_id":"0b5f4564-1867-461b-85ee-6882d0d9f1fa","system_id":"levelo_inurba_marseille","lat":43.263587,"lon":5.37818,"is_reserved":false,"is_disabled":false,"rental_uris":{"android":"levelo://app?vid=0b5f4564-1867-461b-85ee-6882d0d9f1fa","ios":"levelo://app?vid=0b5f4564-1867-461b-85ee-6882d0d9f1fa"},"vehicle_type_id":"4","last_reported":1749931799,"current_range_meters":17600,"station_id":"st_d163nis0mtpqnht9uue0","pricing_plan_id":"cebpf4jnsgd1na2vs0mg"},{"bike_id":"d0ebfe61-7cfd-4ed0-925e-a7c041ecd597","system_id":"levelo_inurba_marseille","lat":43.26368,"lon":5.37798,"is_reserved":false,"is_disabled":false,"rental_uris":{"android":"levelo://app?vid=d0ebfe61-7cfd-4ed0-925e-a7c041ecd597","ios":"levelo://app?vid=d0ebfe61-7cfd-4ed0-925e-a7c041ecd597"},"vehicle_type_id":"4","last_reported":1749931799,"current_range_meters":17600,"station_id":"st_d163nis0mtpqnht9uue0","pricing_plan_id":"cebpf4jnsgd1na2vs0mg"},{"bike_id":"83c0c99d-9206-4f6f-8bd2-edceb1772c91","system_id":"levelo_inurba_marseille","lat":43.26675,"lon":5.38264,"is_reserved":false,"is_disabled":false,"rental_uris":{"android":"levelo://app?vid=83c0c99d-9206-4f6f-8bd2-edceb1772c91","ios":"levelo://app?vid=83c0c99d-9206-4f6f-8bd2-edceb1772c91"},"vehicle_type_id":"4","last_reported":1749931799,"current_range_meters":18000,"station_id":"ce4bhg92rcd13ifvqf90","pricing_plan_id":"cebpf4jnsgd1na2vs0mg"},{"bike_id":"9e6d838f-f8e6-4902-8cdd-7c766c7443fa","system_id":"levelo_inurba_marseille","lat":43.26027,"lon":5.37559,"is_reserved":false,"is_disabled":false,"rental_uris":{"android":"levelo://app?vid=9e6d838f-f8e6-4902-8cdd-7c766c7443fa","ios":"levelo://app?vid=9e6d838f-f8e6-4902-8cdd-7c766c7443fa"},"vehicle_type_id":"4","last_reported":1749931799,"current_range_meters":18000,"station_id":"ce4bhgh2rcd13ifvqfa0","pricing_plan_id":"cebpf4jnsgd1na2vs0mg"},{"bike_id":"45b37f3d-9742-4d73-bc5c-87dc7fdfe753","system_id":"levelo_inurba_marseille","lat":43.25737,"lon":5.41104,"is_reserved":false,"is_disabled":false,"rental_uris":{"android":"levelo://app?vid=45b37f3d-9742-4d73-bc5c-87dc7fdfe753","ios":"levelo://app?vid=45b37f3d-9742-4d73-bc5c-87dc7fdfe753"},"vehicle_type_id":"4","last_reported":1749931799,"current_range_meters":18000,"station_id":"ce4bhkp2rcd13ifvqgd0","pricing_plan_id":"cebpf4jnsgd1na2vs0mg"},{"bike_id":"15ca4f83-8df1-4b73-bad2-b0f1f9fd9e02","system_id":"levelo_inurba_marseille","lat":43.23065,"lon":5.35493,"is_reserved":false,"is_disabled":false,"rental_uris":{"android":"levelo://app?vid=15ca4f83-8df1-4b73-bad2-b0f1f9fd9e02","ios":"levelo://app?vid=15ca4f83-8df1-4b73-bad2-b0f1f9fd9e02"},"vehicle_type_id":"4","last_reported":1749931799,"current_range_meters":18000,"station_id":"cpo3342slgdg3j2ifvpg","pricing_plan_id":"cebpf4jnsgd1na2vs0mg"},{"bike_id":"280c5dcd-d5db-4fa5-917d-5c3430c8f79f","system_id":"levelo_inurba_marseille","lat":43.22934,"lon":5.35385,"is_reserved":false,"is_disabled":false,"rental_uris":{"android":"levelo://app?vid=280c5dcd-d5db-4fa5-917d-5c3430c8f79f","ios":"levelo://app?vid=280c5dcd-d5db-4fa5-917d-5c3430c8f79f"},"vehicle_type_id":"4","last_reported":1749931799,"current_range_meters":18000,"station_id":"cpo3532slgdg3j2ikp40","pricing_plan_id":"cebpf4jnsgd1na2vs0mg"},{"bike_id":"2526c19e-ecff-490d-8152-01d927713748","system_id":"levelo_inurba_marseille","lat":43.26368,"lon":5.37822,"is_reserved":false,"is_disabled":false,"rental_uris":{"android":"levelo://app?vid=2526c19e-ecff-490d-8152-01d927713748","ios":"levelo://app?vid=2526c19e-ecff-490d-8152-01d927713748"},"vehicle_type_id":"4","last_reported":1749931799,"current_range_meters":18000,"station_id":"st_d163nis0mtpqnht9uue0","pricing_plan_id":"cebpf4jnsgd1na2vs0mg"},{"bike_id":"a6883894-8f8e-47c4-805b-9835904847e6","system_id":"levelo_inurba_marseille","lat":43.26359,"lon":5.3781,"is_reserved":false,"is_disabled":false,"rental_uris":{"android":"levelo://app?vid=a6883894-8f8e-47c4-805b-9835904847e6","ios":"levelo://app?vid=a6883894-8f8e-47c4-805b-9835904847e6"},"vehicle_type_id":"4","last_reported":1749931799,"current_range_meters":18000,"station_id":"st_d163nis0mtpqnht9uue0","pricing_plan_id":"cebpf4jnsgd1na2vs0mg"},{"bike_id":"899fd811-d1bc-4d8d-b268-e01dd9f545bf","system_id":"levelo_inurba_marseille","lat":43.26366,"lon":5.37831,"is_reserved":false,"is_disabled":false,"rental_uris":{"android":"levelo://app?vid=899fd811-d1bc-4d8d-b268-e01dd9f545bf","ios":"levelo://app?vid=899fd811-d1bc-4d8d-b268-e01dd9f545bf"},"vehicle_type_id":"4","last_reported":1749931799,"current_range_meters":18000,"station_id":"st_d163nis0mtpqnht9uue0","pricing_plan_id":"cebpf4jnsgd1na2vs0mg"},{"bike_id":"b31d3165-d5e1-4bc6-a607-ca1a1c981148","system_id":"levelo_inurba_marseille","lat":43.27561,"lon":5.41725,"is_reserved":false,"is_disabled":false,"rental_uris":{"android":"levelo://app?vid=b31d3165-d5e1-4bc6-a607-ca1a1c981148","ios":"levelo://app?vid=b31d3165-d5e1-4bc6-a607-ca1a1c981148"},"vehicle_type_id":"4","last_reported":1749931799,"current_range_meters":18800,"station_id":"","pricing_plan_id":"cebpf4jnsgd1na2vs0mg"},{"bike_id":"c24f3ae8-0f26-4a8a-be2e-3248917ee5f6","system_id":"levelo_inurba_marseille","lat":43.29268,"lon":5.38437,"is_reserved":false,"is_disabled":false,"rental_uris":{"android":"levelo://app?vid=c24f3ae8-0f26-4a8a-be2e-3248917ee5f6","ios":"levelo://app?vid=c24f3ae8-0f26-4a8a-be2e-3248917ee5f6"},"vehicle_type_id":"4","last_reported":1749931799,"current_range_meters":18800,"station_id":"ce4bh692rcd13ifvqea0","pricing_plan_id":"cebpf4jnsgd1na2vs0mg"},{"bike_id":"c05d985b-02ed-4db2-9e84-07b24c9f0e9f","system_id":"levelo_inurba_marseille","lat":43.24804,"lon":5.37453,"is_reserved":false,"is_disabled":false,"rental_uris":{"android":"levelo://app?vid=c05d985b-02ed-4db2-9e84-07b24c9f0e9f","ios":"levelo://app?vid=c05d985b-02ed-4db2-9e84-07b24c9f0e9f"},"vehicle_type_id":"4","last_reported":1749931799,"current_range_meters":18800,"station_id":"ce4bhgh2rcd13ifvqfb0","pricing_plan_id":"cebpf4jnsgd1na2vs0mg"},{"bike_id":"490b7a49-7d58-4595-a928-35ceabd36dff","system_id":"levelo_inurba_marseille","lat":43.24081,"lon":5.37733,"is_reserved":false,"is_disabled":false,"rental_uris":{"android":"levelo://app?vid=490b7a49-7d58-4595-a928-35ceabd36dff","ios":"levelo://app?vid=490b7a49-7d58-4595-a928-35ceabd36dff"},"vehicle_type_id":"4","last_reported":1749931799,"current_range_meters":18800,"station_id":"ce4bhnp2rcd13ifvqgvg","pricing_plan_id":"cebpf4jnsgd1na2vs0mg"},{"bike_id":"e9332ad2-737e-40a4-bbf6-659ec43de235","system_id":"levelo_inurba_marseille","lat":43.26247,"lon":5.3769,"is_reserved":false,"is_disabled":false,"rental_uris":{"android":"levelo://app?vid=e9332ad2-737e-40a4-bbf6-659ec43de235","ios":"levelo://app?vid=e9332ad2-737e-40a4-bbf6-659ec43de235"},"vehicle_type_id":"4","last_reported":1749931799,"current_range_meters":19200,"station_id":"","pricing_plan_id":"cebpf4jnsgd1na2vs0mg"},{"bike_id":"66eabf99-4541-4877-916b-79b3f27e9a57","system_id":"levelo_inurba_marseille","lat":43.2809,"lon":5.3964,"is_reserved":false,"is_disabled":false,"rental_uris":{"android":"levelo://app?vid=66eabf99-4541-4877-916b-79b3f27e9a57","ios":"levelo://app?vid=66eabf99-4541-4877-916b-79b3f27e9a57"},"vehicle_type_id":"4","last_reported":1749931799,"current_range_meters":19200,"station_id":"ce4bho12rcd13ifvqh2g","pricing_plan_id":"cebpf4jnsgd1na2vs0mg"},{"bike_id":"4fbc8fdc-d257-4c29-9935-dde881714e31","system_id":"levelo_inurba_marseille","lat":43.33723,"lon":5.39179,"is_reserved":false,"is_disabled":false,"rental_uris":{"android":"levelo://app?vid=4fbc8fdc-d257-4c29-9935-dde881714e31","ios":"levelo://app?vid=4fbc8fdc-d257-4c29-9935-dde881714e31"},"vehicle_type_id":"4","last_reported":1749931799,"current_range_meters":19200,"station_id":"ce4bhr92rcd13ifvqhsg","pricing_plan_id":"cebpf4jnsgd1na2vs0mg"},{"bike_id":"deca16ca-262a-4c76-98c5-637294ebe620","system_id":"levelo_inurba_marseille","lat":43.2635,"lon":5.37823,"is_reserved":false,"is_disabled":false,"rental_uris":{"android":"levelo://app?vid=deca16ca-262a-4c76-98c5-637294ebe620","ios":"levelo://app?vid=deca16ca-262a-4c76-98c5-637294ebe620"},"vehicle_type_id":"4","last_reported":1749931799,"current_range_meters":19200,"station_id":"st_d163nis0mtpqnht9uue0","pricing_plan_id":"cebpf4jnsgd1na2vs0mg"},{"bike_id":"871a0b49-9483-4bb4-b0dc-03125b157abb","system_id":"levelo_inurba_marseille","lat":43.26367,"lon":5.37806,"is_reserved":false,"is_disabled":false,"rental_uris":{"android":"levelo://app?vid=871a0b49-9483-4bb4-b0dc-03125b157abb","ios":"levelo://app?vid=871a0b49-9483-4bb4-b0dc-03125b157abb"},"vehicle_type_id":"4","last_reported":1749931799,"current_range_meters":19200,"station_id":"st_d163nis0mtpqnht9uue0","pricing_plan_id":"cebpf4jnsgd1na2vs0mg"},{"bike_id":"684f4e0c-56e1-4f68-9d5c-52873241ab72","system_id":"levelo_inurba_marseille","lat":43.29851,"lon":5.37873,"is_reserved":false,"is_disabled":false,"rental_uris":{"android":"levelo://app?vid=684f4e0c-56e1-4f68-9d5c-52873241ab72","ios":"levelo://app?vid=684f4e0c-56e1-4f68-9d5c-52873241ab72"},"vehicle_type_id":"4","last_reported":1749931799,"current_range_meters":19600,"station_id":"","pricing_plan_id":"cebpf4jnsgd1na2vs0mg"},{"bike_id":"593039ae-3ab1-441a-b1cd-42b0caa11884","system_id":"levelo_inurba_marseille","lat":43.29534,"lon":5.38546,"is_reserved":false,"is_disabled":false,"rental_uris":{"android":"levelo://app?vid=593039ae-3ab1-441a-b1cd-42b0caa11884","ios":"levelo://app?vid=593039ae-3ab1-441a-b1cd-42b0caa11884"},"vehicle_type_id":"4","last_reported":1749931799,"current_range_meters":19600,"station_id":"ce4bgih2rcd13ifvqba0","pricing_plan_id":"cebpf4jnsgd1na2vs0mg"},{"bike_id":"c1390015-af11-47ef-9431-212ec24db701","system_id":"levelo_inurba_marseille","lat":43.29014,"lon":5.38123,"is_reserved":false,"is_disabled":false,"rental_uris":{"android":"levelo://app?vid=c1390015-af11-47ef-9431-212ec24db701","ios":"levelo://app?vid=c1390015-af11-47ef-9431-212ec24db701"},"vehicle_type_id":"4","last_reported":1749931799,"current_range_meters":19600,"station_id":"ce4bh4p2rcd13ifvqe1g","pricing_plan_id":"cebpf4jnsgd1na2vs0mg"},{"bike_id":"4797f275-2102-4ac8-863e-ba36ff09d955","system_id":"levelo_inurba_marseille","lat":43.26368,"lon":5.3782,"is_reserved":false,"is_disabled":false,"rental_uris":{"android":"levelo://app?vid=4797f275-2102-4ac8-863e-ba36ff09d955","ios":"levelo://app?vid=4797f275-2102-4ac8-863e-ba36ff09d955"},"vehicle_type_id":"4","last_reported":1749931799,"current_range_meters":19600,"station_id":"st_d163nis0mtpqnht9uue0","pricing_plan_id":"cebpf4jnsgd1na2vs0mg"},{"bike_id":"826f0ca3-e5fc-4cf8-8696-cb1fe62172b3","system_id":"levelo_inurba_marseille","lat":43.211925,"lon":5.350775,"is_reserved":false,"is_disabled":false,"rental_uris":{"android":"levelo://app?vid=826f0ca3-e5fc-4cf8-8696-cb1fe62172b3","ios":"levelo://app?vid=826f0ca3-e5fc-4cf8-8696-cb1fe62172b3"},"vehicle_type_id":"4","last_reported":1749931799,"current_range_meters":20000,"station_id":"","pricing_plan_id":"cebpf4jnsgd1na2vs0mg"},{"bike_id":"877ec881-e120-45bd-8e7d-bf2b52475d78","system_id":"levelo_inurba_marseille","lat":43.27655,"lon":5.35757,"is_reserved":false,"is_disabled":false,"rental_uris":{"android":"levelo://app?vid=877ec881-e120-45bd-8e7d-bf2b52475d78","ios":"levelo://app?vid=877ec881-e120-45bd-8e7d-bf2b52475d78"},"vehicle_type_id":"4","last_reported":1749931799,"current_range_meters":20000,"station_id":"","pricing_plan_id":"cebpf4jnsgd1na2vs0mg"},{"bike_id":"38e08ec6-738b-4a04-a092-dec10c6891d3","system_id":"levelo_inurba_marseille","lat":43.26869,"lon":5.40638,"is_reserved":false,"is_disabled":false,"rental_uris":{"android":"levelo://app?vid=38e08ec6-738b-4a04-a092-dec10c6891d3","ios":"levelo://app?vid=38e08ec6-738b-4a04-a092-dec10c6891d3"},"vehicle_type_id":"4","last_reported":1749931799,"current_range_meters":20000,"station_id":"","pricing_plan_id":"cebpf4jnsgd1na2vs0mg"},{"bike_id":"5e2c327c-89eb-4c94-81a2-a03b721728ae","system_id":"levelo_inurba_marseille","lat":43.2894,"lon":5.39628,"is_reserved":false,"is_disabled":false,"rental_uris":{"android":"levelo://app?vid=5e2c327c-89eb-4c94-81a2-a03b721728ae","ios":"levelo://app?vid=5e2c327c-89eb-4c94-81a2-a03b721728ae"},"vehicle_type_id":"4","last_reported":1749931799,"current_range_meters":20000,"station_id":"ce4bh3h2rcd13ifvqdn0","pricing_plan_id":"cebpf4jnsgd1na2vs0mg"},{"bike_id":"f153c56c-974e-4b57-829b-867a3ef51ded","system_id":"levelo_inurba_marseille","lat":43.294658,"lon":5.395498,"is_reserved":false,"is_disabled":false,"rental_uris":{"android":"levelo://app?vid=f153c56c-974e-4b57-829b-867a3ef51ded","ios":"levelo://app?vid=f153c56c-974e-4b57-829b-867a3ef51ded"},"vehicle_type_id":"4","last_reported":1749931799,"current_range_meters":20000,"station_id":"ce4bh3h2rcd13ifvqdo0","pricing_plan_id":"cebpf4jnsgd1na2vs0mg"},{"bike_id":"a1bc313e-c8cc-45ff-90a4-e65de017d999","system_id":"levelo_inurba_marseille","lat":43.28409,"lon":5.3751,"is_reserved":false,"is_disabled":false,"rental_uris":{"android":"levelo://app?vid=a1bc313e-c8cc-45ff-90a4-e65de017d999","ios":"levelo://app?vid=a1bc313e-c8cc-45ff-90a4-e65de017d999"},"vehicle_type_id":"4","last_reported":1749931799,"current_range_meters":20000,"station_id":"ce4bh412rcd13ifvqds0","pricing_plan_id":"cebpf4jnsgd1na2vs0mg"},{"bike_id":"c92619e9-9f05-45dc-b624-7adfd6b5f0d8","system_id":"levelo_inurba_marseille","lat":43.26557,"lon":5.39039,"is_reserved":false,"is_disabled":false,"rental_uris":{"android":"levelo://app?vid=c92619e9-9f05-45dc-b624-7adfd6b5f0d8","ios":"levelo://app?vid=c92619e9-9f05-45dc-b624-7adfd6b5f0d8"},"vehicle_type_id":"4","last_reported":1749931799,"current_range_meters":20000,"station_id":"ce4bhe12rcd13ifvqf30","pricing_plan_id":"cebpf4jnsgd1na2vs0mg"},{"bike_id":"6f68abb1-bc75-41a7-9945-61822848b28a","system_id":"levelo_inurba_marseille","lat":43.26035,"lon":5.37551,"is_reserved":false,"is_disabled":false,"rental_uris":{"android":"levelo://app?vid=6f68abb1-bc75-41a7-9945-61822848b28a","ios":"levelo://app?vid=6f68abb1-bc75-41a7-9945-61822848b28a"},"vehicle_type_id":"4","last_reported":1749931799,"current_range_meters":20000,"station_id":"ce4bhgh2rcd13ifvqfa0","pricing_plan_id":"cebpf4jnsgd1na2vs0mg"},{"bike_id":"4c237efd-f329-4afe-9c30-3627d354acf4","system_id":"levelo_inurba_marseille","lat":43.26366,"lon":5.37821,"is_reserved":false,"is_disabled":false,"rental_uris":{"android":"levelo://app?vid=4c237efd-f329-4afe-9c30-3627d354acf4","ios":"levelo://app?vid=4c237efd-f329-4afe-9c30-3627d354acf4"},"vehicle_type_id":"4","last_reported":1749931799,"current_range_meters":20000,"station_id":"st_d163nis0mtpqnht9uue0","pricing_plan_id":"cebpf4jnsgd1na2vs0mg"},{"bike_id":"17ec2cd1-e0b3-4d7e-b618-202a33269b98","system_id":"levelo_inurba_marseille","lat":43.28668,"lon":5.38659,"is_reserved":false,"is_disabled":false,"rental_uris":{"android":"levelo://app?vid=17ec2cd1-e0b3-4d7e-b618-202a33269b98","ios":"levelo://app?vid=17ec2cd1-e0b3-4d7e-b618-202a33269b98"},"vehicle_type_id":"4","last_reported":1749931799,"current_range_meters":20400,"station_id":"ce4bh492rcd13ifvqdug","pricing_plan_id":"cebpf4jnsgd1na2vs0mg"},{"bike_id":"e8f5f68a-3f7f-4305-a7f9-5f251e7e8634","system_id":"levelo_inurba_marseille","lat":43.26931,"lon":5.38893,"is_reserved":false,"is_disabled":false,"rental_uris":{"android":"levelo://app?vid=e8f5f68a-3f7f-4305-a7f9-5f251e7e8634","ios":"levelo://app?vid=e8f5f68a-3f7f-4305-a7f9-5f251e7e8634"},"vehicle_type_id":"4","last_reported":1749931799,"current_range_meters":20400,"station_id":"ce4bhhh2rcd13ifvqfl0","pricing_plan_id":"cebpf4jnsgd1na2vs0mg"},{"bike_id":"b4e27918-a6e3-4cc7-bd63-f9eabe2fb131","system_id":"levelo_inurba_marseille","lat":43.26365,"lon":5.3783,"is_reserved":false,"is_disabled":false,"rental_uris":{"android":"levelo://app?vid=b4e27918-a6e3-4cc7-bd63-f9eabe2fb131","ios":"levelo://app?vid=b4e27918-a6e3-4cc7-bd63-f9eabe2fb131"},"vehicle_type_id":"4","last_reported":1749931799,"current_range_meters":20400,"station_id":"st_d163nis0mtpqnht9uue0","pricing_plan_id":"cebpf4jnsgd1na2vs0mg"},{"bike_id":"32ff7e8f-be3b-497e-9e8f-337d799b73fd","system_id":"levelo_inurba_marseille","lat":43.26375,"lon":5.37815,"is_reserved":false,"is_disabled":false,"rental_uris":{"android":"levelo://app?vid=32ff7e8f-be3b-497e-9e8f-337d799b73fd","ios":"levelo://app?vid=32ff7e8f-be3b-497e-9e8f-337d799b73fd"},"vehicle_type_id":"4","last_reported":1749931799,"current_range_meters":20400,"station_id":"st_d163nis0mtpqnht9uue0","pricing_plan_id":"cebpf4jnsgd1na2vs0mg"},{"bike_id":"c4991758-f840-4623-bc3b-f162af640fda","system_id":"levelo_inurba_marseille","lat":43.26359,"lon":5.37813,"is_reserved":false,"is_disabled":false,"rental_uris":{"android":"levelo://app?vid=c4991758-f840-4623-bc3b-f162af640fda","ios":"levelo://app?vid=c4991758-f840-4623-bc3b-f162af640fda"},"vehicle_type_id":"4","last_reported":1749931799,"current_range_meters":20400,"station_id":"st_d163nis0mtpqnht9uue0","pricing_plan_id":"cebpf4jnsgd1na2vs0mg"},{"bike_id":"f4960cb7-92f3-48e4-a1cc-a2b8a605a4b3","system_id":"levelo_inurba_marseille","lat":43.33772,"lon":5.37448,"is_reserved":false,"is_disabled":false,"rental_uris":{"android":"levelo://app?vid=f4960cb7-92f3-48e4-a1cc-a2b8a605a4b3","ios":"levelo://app?vid=f4960cb7-92f3-48e4-a1cc-a2b8a605a4b3"},"vehicle_type_id":"4","last_reported":1749931799,"current_range_meters":20800,"station_id":"","pricing_plan_id":"cebpf4jnsgd1na2vs0mg"},{"bike_id":"b0cb7783-8aca-4bb0-bd16-1de7ced64a50","system_id":"levelo_inurba_marseille","lat":43.30532,"lon":5.36537,"is_reserved":false,"is_disabled":false,"rental_uris":{"android":"levelo://app?vid=b0cb7783-8aca-4bb0-bd16-1de7ced64a50","ios":"levelo://app?vid=b0cb7783-8aca-4bb0-bd16-1de7ced64a50"},"vehicle_type_id":"4","last_reported":1749931799,"current_range_meters":20800,"station_id":"ce4bgs12rcd13ifvqcag","pricing_plan_id":"cebpf4jnsgd1na2vs0mg"},{"bike_id":"86b9d729-d0a1-4afb-83ad-3eacec7c5d0d","system_id":"levelo_inurba_marseille","lat":43.26032,"lon":5.375498,"is_reserved":false,"is_disabled":false,"rental_uris":{"android":"levelo://app?vid=86b9d729-d0a1-4afb-83ad-3eacec7c5d0d","ios":"levelo://app?vid=86b9d729-d0a1-4afb-83ad-3eacec7c5d0d"},"vehicle_type_id":"4","last_reported":1749931799,"current_range_meters":20800,"station_id":"ce4bhgh2rcd13ifvqfa0","pricing_plan_id":"cebpf4jnsgd1na2vs0mg"},{"bike_id":"f95966cf-80a9-4da8-8f17-9b7381438c25","system_id":"levelo_inurba_marseille","lat":43.25828,"lon":5.39434,"is_reserved":false,"is_disabled":false,"rental_uris":{"android":"levelo://app?vid=f95966cf-80a9-4da8-8f17-9b7381438c25","ios":"levelo://app?vid=f95966cf-80a9-4da8-8f17-9b7381438c25"},"vehicle_type_id":"4","last_reported":1749931799,"current_range_meters":20800,"station_id":"ce4bhip2rcd13ifvqft0","pricing_plan_id":"cebpf4jnsgd1na2vs0mg"},{"bike_id":"7f620324-f68b-476f-b88c-130eedea329c","system_id":"levelo_inurba_marseille","lat":43.31883,"lon":5.40737,"is_reserved":false,"is_disabled":false,"rental_uris":{"android":"levelo://app?vid=7f620324-f68b-476f-b88c-130eedea329c","ios":"levelo://app?vid=7f620324-f68b-476f-b88c-130eedea329c"},"vehicle_type_id":"4","last_reported":1749931799,"current_range_meters":20800,"station_id":"ce4bhq12rcd13ifvqhig","pricing_plan_id":"cebpf4jnsgd1na2vs0mg"},{"bike_id":"3d04179b-e46d-439e-8e19-57dfe3d37792","system_id":"levelo_inurba_marseille","lat":43.263542,"lon":5.378239,"is_reserved":false,"is_disabled":false,"rental_uris":{"android":"levelo://app?vid=3d04179b-e46d-439e-8e19-57dfe3d37792","ios":"levelo://app?vid=3d04179b-e46d-439e-8e19-57dfe3d37792"},"vehicle_type_id":"4","last_reported":1749931799,"current_range_meters":20800,"station_id":"st_d163nis0mtpqnht9uue0","pricing_plan_id":"cebpf4jnsgd1na2vs0mg"},{"bike_id":"47502d71-3710-4cf6-b78c-5363480a124a","system_id":"levelo_inurba_marseille","lat":43.26389,"lon":5.37818,"is_reserved":false,"is_disabled":false,"rental_uris":{"android":"levelo://app?vid=47502d71-3710-4cf6-b78c-5363480a124a","ios":"levelo://app?vid=47502d71-3710-4cf6-b78c-5363480a124a"},"vehicle_type_id":"4","last_reported":1749931799,"current_range_meters":20800,"station_id":"st_d163nis0mtpqnht9uue0","pricing_plan_id":"cebpf4jnsgd1na2vs0mg"},{"bike_id":"6f516a22-9c76-414d-baf2-335147198272","system_id":"levelo_inurba_marseille","lat":43.26367,"lon":5.37809,"is_reserved":false,"is_disabled":false,"rental_uris":{"android":"levelo://app?vid=6f516a22-9c76-414d-baf2-335147198272","ios":"levelo://app?vid=6f516a22-9c76-414d-baf2-335147198272"},"vehicle_type_id":"4","last_reported":1749931799,"current_range_meters":20800,"station_id":"st_d163nis0mtpqnht9uue0","pricing_plan_id":"cebpf4jnsgd1na2vs0mg"},{"bike_id":"480a55b7-5347-4b5c-a7bd-ef85a6f69349","system_id":"levelo_inurba_marseille","lat":43.30423,"lon":5.39746,"is_reserved":false,"is_disabled":false,"rental_uris":{"android":"levelo://app?vid=480a55b7-5347-4b5c-a7bd-ef85a6f69349","ios":"levelo://app?vid=480a55b7-5347-4b5c-a7bd-ef85a6f69349"},"vehicle_type_id":"4","last_reported":1749931799,"current_range_meters":21600,"station_id":"ce4bh092rcd13ifvqd20","pricing_plan_id":"cebpf4jnsgd1na2vs0mg"},{"bike_id":"b08f4b6e-11c3-44cb-933d-f406fc123dc6","system_id":"levelo_inurba_marseille","lat":43.28849,"lon":5.39307,"is_reserved":false,"is_disabled":false,"rental_uris":{"android":"levelo://app?vid=b08f4b6e-11c3-44cb-933d-f406fc123dc6","ios":"levelo://app?vid=b08f4b6e-11c3-44cb-933d-f406fc123dc6"},"vehicle_type_id":"4","last_reported":1749931799,"current_range_meters":21600,"station_id":"ce4bh2p2rcd13ifvqdi0","pricing_plan_id":"cebpf4jnsgd1na2vs0mg"},{"bike_id":"e7806719-53d2-4a83-ad69-a6d9c469b968","system_id":"levelo_inurba_marseille","lat":43.26691,"lon":5.38276,"is_reserved":false,"is_disabled":false,"rental_uris":{"android":"levelo://app?vid=e7806719-53d2-4a83-ad69-a6d9c469b968","ios":"levelo://app?vid=e7806719-53d2-4a83-ad69-a6d9c469b968"},"vehicle_type_id":"4","last_reported":1749931799,"current_range_meters":21600,"station_id":"ce4bhg92rcd13ifvqf90","pricing_plan_id":"cebpf4jnsgd1na2vs0mg"},{"bike_id":"c46537fc-f94e-489d-8d8d-34f8ad186171","system_id":"levelo_inurba_marseille","lat":43.263506,"lon":5.378196,"is_reserved":false,"is_disabled":false,"rental_uris":{"android":"levelo://app?vid=c46537fc-f94e-489d-8d8d-34f8ad186171","ios":"levelo://app?vid=c46537fc-f94e-489d-8d8d-34f8ad186171"},"vehicle_type_id":"4","last_reported":1749931799,"current_range_meters":21600,"station_id":"st_d163nis0mtpqnht9uue0","pricing_plan_id":"cebpf4jnsgd1na2vs0mg"},{"bike_id":"bd6a90a9-ff3b-478b-823e-14d0ad3ee7ed","system_id":"levelo_inurba_marseille","lat":43.26691,"lon":5.38269,"is_reserved":false,"is_disabled":false,"rental_uris":{"android":"levelo://app?vid=bd6a90a9-ff3b-478b-823e-14d0ad3ee7ed","ios":"levelo://app?vid=bd6a90a9-ff3b-478b-823e-14d0ad3ee7ed"},"vehicle_type_id":"4","last_reported":1749931799,"current_range_meters":22000,"station_id":"ce4bhg92rcd13ifvqf90","pricing_plan_id":"cebpf4jnsgd1na2vs0mg"},{"bike_id":"473b8e46-d308-4ba5-8299-4a75ffe49851","system_id":"levelo_inurba_marseille","lat":43.316967,"lon":5.404799,"is_reserved":false,"is_disabled":false,"rental_uris":{"android":"levelo://app?vid=473b8e46-d308-4ba5-8299-4a75ffe49851","ios":"levelo://app?vid=473b8e46-d308-4ba5-8299-4a75ffe49851"},"vehicle_type_id":"4","last_reported":1749931799,"current_range_meters":22000,"station_id":"ce4bhq12rcd13ifvqhig","pricing_plan_id":"cebpf4jnsgd1na2vs0mg"},{"bike_id":"b42b9d95-2fdb-47a3-9ae1-45a1f3f1e97f","system_id":"levelo_inurba_marseille","lat":43.21186,"lon":5.35073,"is_reserved":false,"is_disabled":false,"rental_uris":{"android":"levelo://app?vid=b42b9d95-2fdb-47a3-9ae1-45a1f3f1e97f","ios":"levelo://app?vid=b42b9d95-2fdb-47a3-9ae1-45a1f3f1e97f"},"vehicle_type_id":"4","last_reported":1749931799,"current_range_meters":22000,"station_id":"st_cvj6sg6p6f1abm77japg","pricing_plan_id":"cebpf4jnsgd1na2vs0mg"},{"bike_id":"23ad5723-bf76-49b6-90f8-27a803335152","system_id":"levelo_inurba_marseille","lat":43.26369,"lon":5.37817,"is_reserved":false,"is_disabled":false,"rental_uris":{"android":"levelo://app?vid=23ad5723-bf76-49b6-90f8-27a803335152","ios":"levelo://app?vid=23ad5723-bf76-49b6-90f8-27a803335152"},"vehicle_type_id":"4","last_reported":1749931799,"current_range_meters":22000,"station_id":"st_d163nis0mtpqnht9uue0","pricing_plan_id":"cebpf4jnsgd1na2vs0mg"},{"bike_id":"98898507-29a7-4cb0-b3fc-b9d9600b506b","system_id":"levelo_inurba_marseille","lat":43.26354,"lon":5.37827,"is_reserved":false,"is_disabled":false,"rental_uris":{"android":"levelo://app?vid=98898507-29a7-4cb0-b3fc-b9d9600b506b","ios":"levelo://app?vid=98898507-29a7-4cb0-b3fc-b9d9600b506b"},"vehicle_type_id":"4","last_reported":1749931799,"current_range_meters":22000,"station_id":"st_d163nis0mtpqnht9uue0","pricing_plan_id":"cebpf4jnsgd1na2vs0mg"},{"bike_id":"72d0614c-32d0-4aab-a719-2ad1e2cb4d85","system_id":"levelo_inurba_marseille","lat":43.26371,"lon":5.37813,"is_reserved":false,"is_disabled":false,"rental_uris":{"android":"levelo://app?vid=72d0614c-32d0-4aab-a719-2ad1e2cb4d85","ios":"levelo://app?vid=72d0614c-32d0-4aab-a719-2ad1e2cb4d85"},"vehicle_type_id":"4","last_reported":1749931799,"current_range_meters":22000,"station_id":"st_d163nis0mtpqnht9uue0","pricing_plan_id":"cebpf4jnsgd1na2vs0mg"},{"bike_id":"5e40262f-dc18-484d-9782-b2451bbf4a0f","system_id":"levelo_inurba_marseille","lat":43.26367,"lon":5.37811,"is_reserved":false,"is_disabled":false,"rental_uris":{"android":"levelo://app?vid=5e40262f-dc18-484d-9782-b2451bbf4a0f","ios":"levelo://app?vid=5e40262f-dc18-484d-9782-b2451bbf4a0f"},"vehicle_type_id":"4","last_reported":1749931799,"current_range_meters":22000,"station_id":"st_d163nis0mtpqnht9uue0","pricing_plan_id":"cebpf4jnsgd1na2vs0mg"},{"bike_id":"68c5531c-7a4e-4f43-a643-c766d873dc4d","system_id":"levelo_inurba_marseille","lat":43.26347,"lon":5.37814,"is_reserved":false,"is_disabled":false,"rental_uris":{"android":"levelo://app?vid=68c5531c-7a4e-4f43-a643-c766d873dc4d","ios":"levelo://app?vid=68c5531c-7a4e-4f43-a643-c766d873dc4d"},"vehicle_type_id":"4","last_reported":1749931799,"current_range_meters":22000,"station_id":"st_d163nis0mtpqnht9uue0","pricing_plan_id":"cebpf4jnsgd1na2vs0mg"},{"bike_id":"31020014-315e-4aef-ad82-60dd1bc73d96","system_id":"levelo_inurba_marseille","lat":43.29708,"lon":5.36554,"is_reserved":false,"is_disabled":false,"rental_uris":{"android":"levelo://app?vid=31020014-315e-4aef-ad82-60dd1bc73d96","ios":"levelo://app?vid=31020014-315e-4aef-ad82-60dd1bc73d96"},"vehicle_type_id":"4","last_reported":1749931799,"current_range_meters":22400,"station_id":"ce4bgn12rcd13ifvqbt0","pricing_plan_id":"cebpf4jnsgd1na2vs0mg"},{"bike_id":"da1801b9-3051-4876-a4c1-84958f4848ea","system_id":"levelo_inurba_marseille","lat":43.30949,"lon":5.39043,"is_reserved":false,"is_disabled":false,"rental_uris":{"android":"levelo://app?vid=da1801b9-3051-4876-a4c1-84958f4848ea","ios":"levelo://app?vid=da1801b9-3051-4876-a4c1-84958f4848ea"},"vehicle_type_id":"4","last_reported":1749931799,"current_range_meters":22400,"station_id":"ce4bgup2rcd13ifvqco0","pricing_plan_id":"cebpf4jnsgd1na2vs0mg"},{"bike_id":"62ed8a91-259a-4f08-b3c6-d96fc36db697","system_id":"levelo_inurba_marseille","lat":43.28856,"lon":5.39318,"is_reserved":false,"is_disabled":false,"rental_uris":{"android":"levelo://app?vid=62ed8a91-259a-4f08-b3c6-d96fc36db697","ios":"levelo://app?vid=62ed8a91-259a-4f08-b3c6-d96fc36db697"},"vehicle_type_id":"4","last_reported":1749931799,"current_range_meters":22400,"station_id":"ce4bh2p2rcd13ifvqdi0","pricing_plan_id":"cebpf4jnsgd1na2vs0mg"},{"bike_id":"1041cb5a-7c28-4e14-8812-bbfcae0bba83","system_id":"levelo_inurba_marseille","lat":43.292202,"lon":5.360529,"is_reserved":false,"is_disabled":false,"rental_uris":{"android":"levelo://app?vid=1041cb5a-7c28-4e14-8812-bbfcae0bba83","ios":"levelo://app?vid=1041cb5a-7c28-4e14-8812-bbfcae0bba83"},"vehicle_type_id":"4","last_reported":1749931799,"current_range_meters":22400,"station_id":"ce4bhbh2rcd13ifvqeqg","pricing_plan_id":"cebpf4jnsgd1na2vs0mg"},