{"last_updated":1678529227,"ttl":30,"version":"2.2","data":{"bikes":[{"bike_id":"1c64c75a-c4f6-4ab6-ab46-31e613f15330","system_id":"levelo_inurba_marseille","lat":43.312239,"lon":5.368562,"is_reserved":false,"is_disabled":false,"rental_uris":{"android":"levelo://app?vid=1c64c75a-c4f6-4ab6-ab46-31e613f15330","ios":"levelo://app?vid=1c64c75a-c4f6-4ab6-ab46-31e613f15330"},"vehicle_type_id":"4","last_reported":1678529227,"current_range_meters":29600,"station_id":"ce4bgl92rcd13ifvqbq0","pricing_plan_id":"free"},{"bike_id":"38e45496-8953-4d11-a58d-751f296a241f","system_id":"levelo_inurba_marseille","lat":43.312242,"lon":5.368522,"is_reserved":false,"is_disabled":false,"rental_uris":{"android":"levelo://app?vid=38e45496-8953-4d11-a58d-751f296a241f","ios":"levelo://app?vid=38e45496-8953-4d11-a58d-751f296a241f"},"vehicle_type_id":"4","last_reported":1678529227,"current_range_meters":27600,"station_id":"ce4bgl92rcd13ifvqbq0","pricing_plan_id":"free"},{"bike_id":"209d1147-70eb-4e09-8ddf-7e5fca6f4a12","system_id":"levelo_inurba_marseille","lat":43.312239,"lon":5.368562,"is_reserved":false,"is_disabled":false,"rental_uris":{"android":"levelo://app?vid=209d1147-70eb-4e09-8ddf-7e5fca6f4a12","ios":"levelo://app?vid=209d1147-70eb-4e09-8ddf-7e5fca6f4a12"},"vehicle_type_id":"4","last_reported":1678529227,"current_range_meters":30800,"station_id":"ce4bgl92rcd13ifvqbq0","pricing_plan_id":"free"},{"bike_id":"3e53e531-53dc-4aed-80d2-fbdaab165308","system_id":"levelo_inurba_marseille","lat":43.312239,"lon":5.368562,"is_reserved":false,"is_disabled":false,"rental_uris":{"android":"levelo://app?vid=3e53e531-53dc-4aed-80d2-fbdaab165308","ios":"levelo://app?vid=3e53e531-53dc-4aed-80d2-fbdaab165308"},"vehicle_type_id":"4","last_reported":1678529227,"current_range_meters":16400,"station_id":"ce4bgl92rcd13ifvqbq0","pricing_plan_id":"free"},{"bike_id":"e61de7a9-8007-4615-ada8-20e1ff4b00a3","system_id":"levelo_inurba_marseille","lat":43.312239,"lon":5.368562,"is_reserved":false,"is_disabled":false,"rental_uris":{"android":"levelo://app?vid=e61de7a9-8007-4615-ada8-20e1ff4b00a3","ios":"levelo://app?vid=e61de7a9-8007-4615-ada8-20e1ff4b00a3"},"vehicle_type_id":"4","last_reported":1678529227,"current_range_meters":26400,"station_id":"ce4bgl92rcd13ifvqbq0","pricing_plan_id":"free"},{"bike_id":"6a895a88-8511-4903-a028-4c15aa84fdf1","system_id":"levelo_inurba_marseille","lat":43.30908,"lon":5.36848,"is_reserved":false,"is_disabled":false,"rental_uris":{"android":"levelo://app?vid=6a895a88-8511-4903-a028-4c15aa84fdf1","ios":"levelo://app?vid=6a895a88-8511-4903-a028-4c15aa84fdf1"},"vehicle_type_id":"4","last_reported":1678529227,"current_range_meters":29200,"station_id":"ce4bgn92rcd13ifvqbvg","pricing_plan_id":"free"},{"bike_id":"e04f8320-e304-469c-8b82-53caf1f4b161","system_id":"levelo_inurba_marseille","lat":43.30903,"lon":5.36848,"is_reserved":false,"is_disabled":false,"rental_uris":{"android":"levelo://app?vid=e04f8320-e304-469c-8b82-53caf1f4b161","ios":"levelo://app?vid=e04f8320-e304-469c-8b82-53caf1f4b161"},"vehicle_type_id":"4","last_reported":1678529227,"current_range_meters":22000,"station_id":"ce4bgn92rcd13ifvqbvg","pricing_plan_id":"free"},{"bike_id":"0f36200e-0632-4e19-b249-45f3bcdcc2e7","system_id":"levelo_inurba_marseille","lat":43.30903,"lon":5.36852,"is_reserved":false,"is_disabled":false,"rental_uris":{"android":"levelo://app?vid=0f36200e-0632-4e19-b249-45f3bcdcc2e7","ios":"levelo://app?vid=0f36200e-0632-4e19-b249-45f3bcdcc2e7"},"vehicle_type_id":"4","last_reported":1678529227,"current_range_meters":12400,"station_id":"ce4bgn92rcd13ifvqbvg","pricing_plan_id":"free"},{"bike_id":"b385657b-1851-4329-acff-a603bce90585","system_id":"levelo_inurba_marseille","lat":43.30902,"lon":5.36853,"is_reserved":false,"is_disabled":false,"rental_uris":{"android":"levelo://app?vid=b385657b-1851-4329-acff-a603bce90585","ios":"levelo://app?vid=b385657b-1851-4329-acff-a603bce90585"},"vehicle_type_id":"4","last_reported":1678529227,"current_range_meters":3200,"station_id":"","pricing_plan_id":"free"},{"bike_id":"79e696dd-6abb-46d0-a9fb-be12eef7e9a7","system_id":"levelo_inurba_marseille","lat":43.30899,"lon":5.3685,"is_reserved":false,"is_disabled":false,"rental_uris":{"android":"levelo://app?vid=79e696dd-6abb-46d0-a9fb-be12eef7e9a7","ios":"levelo://app?vid=79e696dd-6abb-46d0-a9fb-be12eef7e9a7"},"vehicle_type_id":"4","last_reported":1678529227,"current_range_meters":9200,"station_id":"ce4bgn92rcd13ifvqbvg","pricing_plan_id":"free"},{"bike_id":"f8edda47-84ea-4677-97c7-2e2456aed61d","system_id":"levelo_inurba_marseille","lat":43.314811,"lon":5.373103,"is_reserved":false,"is_disabled":false,"rental_uris":{"android":"levelo://app?vid=f8edda47-84ea-4677-97c7-2e2456aed61d","ios":"levelo://app?vid=f8edda47-84ea-4677-97c7-2e2456aed61d"},"vehicle_type_id":"4","last_reported":1678529227,"current_range_meters":31200,"station_id":"ce4bgt12rcd13ifvqcd0","pricing_plan_id":"free"},{"bike_id":"0cd30444-a11d-4cde-add5-383efd6d9afe","system_id":"levelo_inurba_marseille","lat":43.314811,"lon":5.373103,"is_reserved":false,"is_disabled":false,"rental_uris":{"android":"levelo://app?vid=0cd30444-a11d-4cde-add5-383efd6d9afe","ios":"levelo://app?vid=0cd30444-a11d-4cde-add5-383efd6d9afe"},"vehicle_type_id":"4","last_reported":1678529227,"current_range_meters":28800,"station_id":"ce4bgt12rcd13ifvqcd0","pricing_plan_id":"free"},{"bike_id":"9028dd82-dacd-419c-a97c-fa8f0e7d3a2d","system_id":"levelo_inurba_marseille","lat":43.314811,"lon":5.373103,"is_reserved":false,"is_disabled":false,"rental_uris":{"android":"levelo://app?vid=9028dd82-dacd-419c-a97c-fa8f0e7d3a2d","ios":"levelo://app?vid=9028dd82-dacd-419c-a97c-fa8f0e7d3a2d"},"vehicle_type_id":"4","last_reported":1678529227,"current_range_meters":17200,"station_id":"ce4bgt12rcd13ifvqcd0","pricing_plan_id":"free"},{"bike_id":"4b318eb4-5ac1-4b68-8c58-d418ec5c6103","system_id":"levelo_inurba_marseille","lat":43.317882,"lon":5.368151,"is_reserved":false,"is_disabled":false,"rental_uris":{"android":"levelo://app?vid=4b318eb4-5ac1-4b68-8c58-d418ec5c6103","ios":"levelo://app?vid=4b318eb4-5ac1-4b68-8c58-d418ec5c6103"},"vehicle_type_id":"4","last_reported":1678529227,"current_range_meters":14800,"station_id":"","pricing_plan_id":"free"},{"bike_id":"ad3dc0ba-67b6-45bb-ac01-f21a16c9c863","system_id":"levelo_inurba_marseille","lat":43.308614,"lon":5.372098,"is_reserved":false,"is_disabled":false,"rental_uris":{"android":"levelo://app?vid=ad3dc0ba-67b6-45bb-ac01-f21a16c9c863","ios":"levelo://app?vid=ad3dc0ba-67b6-45bb-ac01-f21a16c9c863"},"vehicle_type_id":"4","last_reported":1678529227,"current_range_meters":13600,"station_id":"ce4bguh2rcd13ifvqckg","pricing_plan_id":"free"},{"bike_id":"79e634b5-1a20-4f23-a00c-af84fc998131","system_id":"levelo_inurba_marseille","lat":43.308865,"lon":5.37198,"is_reserved":false,"is_disabled":false,"rental_uris":{"android":"levelo://app?vid=79e634b5-1a20-4f23-a00c-af84fc998131","ios":"levelo://app?vid=79e634b5-1a20-4f23-a00c-af84fc998131"},"vehicle_type_id":"4","last_reported":1678529227,"current_range_meters":28800,"station_id":"","pricing_plan_id":"free"},{"bike_id":"03c01d00-5081-4558-9d7c-a25608f4f878","system_id":"levelo_inurba_marseille","lat":43.308614,"lon":5.372098,"is_reserved":false,"is_disabled":false,"rental_uris":{"android":"levelo://app?vid=03c01d00-5081-4558-9d7c-a25608f4f878","ios":"levelo://app?vid=03c01d00-5081-4558-9d7c-a25608f4f878"},"vehicle_type_id":"4","last_reported":1678529227,"current_range_meters":28000,"station_id":"ce4bguh2rcd13ifvqckg","pricing_plan_id":"free"},{"bike_id":"e911d57b-926f-4c89-b2b9-05d0afc179ff","system_id":"levelo_inurba_marseille","lat":43.308614,"lon":5.372098,"is_reserved":false,"is_disabled":false,"rental_uris":{"android":"levelo://app?vid=e911d57b-926f-4c89-b2b9-05d0afc179ff","ios":"levelo://app?vid=e911d57b-926f-4c89-b2b9-05d0afc179ff"},"vehicle_type_id":"4","last_reported":1678529227,"current_range_meters":22000,"station_id":"ce4bguh2rcd13ifvqckg","pricing_plan_id":"free"},{"bike_id":"0687f5f8-a309-44cb-baa9-ab49024f17e7","system_id":"levelo_inurba_marseille","lat":43.306086,"lon":5.372209,"is_reserved":false,"is_disabled":false,"rental_uris":{"android":"levelo://app?vid=0687f5f8-a309-44cb-baa9-ab49024f17e7","ios":"levelo://app?vid=0687f5f8-a309-44cb-baa9-ab49024f17e7"},"vehicle_type_id":"4","last_reported":1678529227,"current_range_meters":30800,"station_id":"","pricing_plan_id":"free"},{"bike_id":"cba20e49-7c2d-4d03-8283-3e58e14243e6","system_id":"levelo_inurba_marseille","lat":43.305989,"lon":5.37225,"is_reserved":false,"is_disabled":false,"rental_uris":{"android":"levelo://app?vid=cba20e49-7c2d-4d03-8283-3e58e14243e6","ios":"levelo://app?vid=cba20e49-7c2d-4d03-8283-3e58e14243e6"},"vehicle_type_id":"4","last_reported":1678529227,"current_range_meters":30800,"station_id":"ce4bgqh2rcd13ifvqc4g","pricing_plan_id":"free"},{"bike_id":"0094667f-7308-4b30-959e-ee3f3f2d3baa","system_id":"levelo_inurba_marseille","lat":43.305989,"lon":5.37225,"is_reserved":false,"is_disabled":false,"rental_uris":{"android":"levelo://app?vid=0094667f-7308-4b30-959e-ee3f3f2d3baa","ios":"levelo://app?vid=0094667f-7308-4b30-959e-ee3f3f2d3baa"},"vehicle_type_id":"4","last_reported":1678529227,"current_range_meters":28000,"station_id":"ce4bgqh2rcd13ifvqc4g","pricing_plan_id":"free"},{"bike_id":"64270dce-9b59-4a87-acf0-856299de31f3","system_id":"levelo_inurba_marseille","lat":43.317075,"lon":5.377367,"is_reserved":false,"is_disabled":false,"rental_uris":{"android":"levelo://app?vid=64270dce-9b59-4a87-acf0-856299de31f3","ios":"levelo://app?vid=64270dce-9b59-4a87-acf0-856299de31f3"},"vehicle_type_id":"4","last_reported":1678529227,"current_range_meters":15600,"station_id":"ce4bgth2rcd13ifvqch0","pricing_plan_id":"free"},{"bike_id":"cc386935-c204-4174-bafd-acc1d24e4fa9","system_id":"levelo_inurba_marseille","lat":43.30342,"lon":5.37255,"is_reserved":false,"is_disabled":false,"rental_uris":{"android":"levelo://app?vid=cc386935-c204-4174-bafd-acc1d24e4fa9","ios":"levelo://app?vid=cc386935-c204-4174-bafd-acc1d24e4fa9"},"vehicle_type_id":"4","last_reported":1678529227,"current_range_meters":1600,"station_id":"","pricing_plan_id":"free"},{"bike_id":"6b6d0dc5-ce5f-4962-a36f-34474a90c1c0","system_id":"levelo_inurba_marseille","lat":43.304606,"lon":5.379026,"is_reserved":false,"is_disabled":false,"rental_uris":{"android":"levelo://app?vid=6b6d0dc5-ce5f-4962-a36f-34474a90c1c0","ios":"levelo://app?vid=6b6d0dc5-ce5f-4962-a36f-34474a90c1c0"},"vehicle_type_id":"4","last_reported":1678529227,"current_range_meters":32000,"station_id":"ce4bgup2rcd13ifvqcn0","pricing_plan_id":"free"},{"bike_id":"0dd5fd81-9bc5-4a19-a53d-0a395414fee1","system_id":"levelo_inurba_marseille","lat":43.304606,"lon":5.379026,"is_reserved":false,"is_disabled":false,"rental_uris":{"android":"levelo://app?vid=0dd5fd81-9bc5-4a19-a53d-0a395414fee1","ios":"levelo://app?vid=0dd5fd81-9bc5-4a19-a53d-0a395414fee1"},"vehicle_type_id":"4","last_reported":1678529227,"current_range_meters":26000,"station_id":"ce4bgup2rcd13ifvqcn0","pricing_plan_id":"free"},{"bike_id":"dfa53992-1766-4cde-ae7c-3b8e73bbff46","system_id":"levelo_inurba_marseille","lat":43.304606,"lon":5.379026,"is_reserved":false,"is_disabled":false,"rental_uris":{"android":"levelo://app?vid=dfa53992-1766-4cde-ae7c-3b8e73bbff46","ios":"levelo://app?vid=dfa53992-1766-4cde-ae7c-3b8e73bbff46"},"vehicle_type_id":"4","last_reported":1678529227,"current_range_meters":29600,"station_id":"ce4bgup2rcd13ifvqcn0","pricing_plan_id":"free"},{"bike_id":"866bd550-c3dd-4959-a0fa-dc1ac821137f","system_id":"levelo_inurba_marseille","lat":43.304606,"lon":5.379026,"is_reserved":false,"is_disabled":false,"rental_uris":{"android":"levelo://app?vid=866bd550-c3dd-4959-a0fa-dc1ac821137f","ios":"levelo://app?vid=866bd550-c3dd-4959-a0fa-dc1ac821137f"},"vehicle_type_id":"4","last_reported":1678529227,"current_range_meters":29600,"station_id":"ce4bgup2rcd13ifvqcn0","pricing_plan_id":"free"},{"bike_id":"090fd4bb-475a-47f2-a07e-538d5ecba164","system_id":"levelo_inurba_marseille","lat":43.304606,"lon":5.379026,"is_reserved":false,"is_disabled":false,"rental_uris":{"android":"levelo://app?vid=090fd4bb-475a-47f2-a07e-538d5ecba164","ios":"levelo://app?vid=090fd4bb-475a-47f2-a07e-538d5ecba164"},"vehicle_type_id":"4","last_reported":1678529227,"current_range_meters":32000,"station_id":"ce4bgup2rcd13ifvqcn0","pricing_plan_id":"free"},{"bike_id":"f91319bf-dd4c-4338-b24b-098617e6e6b1","system_id":"levelo_inurba_marseille","lat":43.304606,"lon":5.379026,"is_reserved":false,"is_disabled":false,"rental_uris":{"android":"levelo://app?vid=f91319bf-dd4c-4338-b24b-098617e6e6b1","ios":"levelo://app?vid=f91319bf-dd4c-4338-b24b-098617e6e6b1"},"vehicle_type_id":"4","last_reported":1678529227,"current_range_meters":31600,"station_id":"ce4bgup2rcd13ifvqcn0","pricing_plan_id":"free"},{"bike_id":"d172c3b2-fdf2-461b-9843-a4758670c3d4","system_id":"levelo_inurba_marseille","lat":43.304606,"lon":5.379026,"is_reserved":false,"is_disabled":false,"rental_uris":{"android":"levelo://app?vid=d172c3b2-fdf2-461b-9843-a4758670c3d4","ios":"levelo://app?vid=d172c3b2-fdf2-461b-9843-a4758670c3d4"},"vehicle_type_id":"4","last_reported":1678529227,"current_range_meters":25200,"station_id":"ce4bgup2rcd13ifvqcn0","pricing_plan_id":"free"},{"bike_id":"5751592a-333e-4cb8-bd1d-aa5d4b82ee6d","system_id":"levelo_inurba_marseille","lat":43.30462,"lon":5.37907,"is_reserved":false,"is_disabled":false,"rental_uris":{"android":"levelo://app?vid=5751592a-333e-4cb8-bd1d-aa5d4b82ee6d","ios":"levelo://app?vid=5751592a-333e-4cb8-bd1d-aa5d4b82ee6d"},"vehicle_type_id":"4","last_reported":1678529227,"current_range_meters":0,"station_id":"ce4bgup2rcd13ifvqcn0","pricing_plan_id":"free"},{"bike_id":"6a74c7d4-5268-4adf-ba52-7c47c3e8b699","system_id":"levelo_inurba_marseille","lat":43.304606,"lon":5.379026,"is_reserved":false,"is_disabled":false,"rental_uris":{"android":"levelo://app?vid=6a74c7d4-5268-4adf-ba52-7c47c3e8b699","ios":"levelo://app?vid=6a74c7d4-5268-4adf-ba52-7c47c3e8b699"},"vehicle_type_id":"4","last_reported":1678529227,"current_range_meters":22400,"station_id":"ce4bgup2rcd13ifvqcn0","pricing_plan_id":"free"},{"bike_id":"c60bed40-ff6b-46ef-b6e2-c680ff11cce7","system_id":"levelo_inurba_marseille","lat":43.304606,"lon":5.379026,"is_reserved":false,"is_disabled":false,"rental_uris":{"android":"levelo://app?vid=c60bed40-ff6b-46ef-b6e2-c680ff11cce7","ios":"levelo://app?vid=c60bed40-ff6b-46ef-b6e2-c680ff11cce7"},"vehicle_type_id":"4","last_reported":1678529227,"current_range_meters":30000,"station_id":"ce4bgup2rcd13ifvqcn0","pricing_plan_id":"free"},{"bike_id":"82cfb591-fd75-4fcb-a064-83ce4bbd2ffa","system_id":"levelo_inurba_marseille","lat":43.304606,"lon":5.379026,"is_reserved":false,"is_disabled":false,"rental_uris":{"android":"levelo://app?vid=82cfb591-fd75-4fcb-a064-83ce4bbd2ffa","ios":"levelo://app?vid=82cfb591-fd75-4fcb-a064-83ce4bbd2ffa"},"vehicle_type_id":"4","last_reported":1678529227,"current_range_meters":28000,"station_id":"ce4bgup2rcd13ifvqcn0","pricing_plan_id":"free"},{"bike_id":"cc5c187e-388b-4d35-a472-7618069e4537","system_id":"levelo_inurba_marseille","lat":43.304606,"lon":5.379026,"is_reserved":false,"is_disabled":false,"rental_uris":{"android":"levelo://app?vid=cc5c187e-388b-4d35-a472-7618069e4537","ios":"levelo://app?vid=cc5c187e-388b-4d35-a472-7618069e4537"},"vehicle_type_id":"4","last_reported":1678529227,"current_range_meters":25600,"station_id":"ce4bgup2rcd13ifvqcn0","pricing_plan_id":"free"},{"bike_id":"554d0e16-1f80-46aa-98b2-aef36ef79589","system_id":"levelo_inurba_marseille","lat":43.304606,"lon":5.379026,"is_reserved":false,"is_disabled":false,"rental_uris":{"android":"levelo://app?vid=554d0e16-1f80-46aa-98b2-aef36ef79589","ios":"levelo://app?vid=554d0e16-1f80-46aa-98b2-aef36ef79589"},"vehicle_type_id":"4","last_reported":1678529227,"current_range_meters":29200,"station_id":"ce4bgup2rcd13ifvqcn0","pricing_plan_id":"free"},{"bike_id":"98c24663-55db-4fa3-be96-b7c0d635f9fb","system_id":"levelo_inurba_marseille","lat":43.304606,"lon":5.379026,"is_reserved":false,"is_disabled":false,"rental_uris":{"android":"levelo://app?vid=98c24663-55db-4fa3-be96-b7c0d635f9fb","ios":"levelo://app?vid=98c24663-55db-4fa3-be96-b7c0d635f9fb"},"vehicle_type_id":"4","last_reported":1678529227,"current_range_meters":18400,"station_id":"ce4bgup2rcd13ifvqcn0","pricing_plan_id":"free"},{"bike_id":"8c4a88b3-ca33-4220-8e69-f4a290a49348","system_id":"levelo_inurba_marseille","lat":43.304606,"lon":5.379026,"is_reserved":false,"is_disabled":false,"rental_uris":{"android":"levelo://app?vid=8c4a88b3-ca33-4220-8e69-f4a290a49348","ios":"levelo://app?vid=8c4a88b3-ca33-4220-8e69-f4a290a49348"},"vehicle_type_id":"4","last_reported":1678529227,"current_range_meters":26800,"station_id":"ce4bgup2rcd13ifvqcn0","pricing_plan_id":"free"},{"bike_id":"43c86b82-f39f-472a-9b82-e5cca2872737","system_id":"levelo_inurba_marseille","lat":43.304606,"lon":5.379026,"is_reserved":false,"is_disabled":false,"rental_uris":{"android":"levelo://app?vid=43c86b82-f39f-472a-9b82-e5cca2872737","ios":"levelo://app?vid=43c86b82-f39f-472a-9b82-e5cca2872737"},"vehicle_type_id":"4","last_reported":1678529227,"current_range_meters":30400,"station_id":"ce4bgup2rcd13ifvqcn0","pricing_plan_id":"free"},{"bike_id":"ef46702b-7425-44f0-9b8f-fcdc2ad73d0e","system_id":"levelo_inurba_marseille","lat":43.304606,"lon":5.379026,"is_reserved":false,"is_disabled":false,"rental_uris":{"android":"levelo://app?vid=ef46702b-7425-44f0-9b8f-fcdc2ad73d0e","ios":"levelo://app?vid=ef46702b-7425-44f0-9b8f-fcdc2ad73d0e"},"vehicle_type_id":"4","last_reported":1678529227,"current_range_meters":29600,"station_id":"ce4bgup2rcd13ifvqcn0","pricing_plan_id":"free"},{"bike_id":"27cb96f7-f8bb-4d7d-8a80-8aa89d61821e","system_id":"levelo_inurba_marseille","lat":43.304606,"lon":5.379026,"is_reserved":false,"is_disabled":false,"rental_uris":{"android":"levelo://app?vid=27cb96f7-f8bb-4d7d-8a80-8aa89d61821e","ios":"levelo://app?vid=27cb96f7-f8bb-4d7d-8a80-8aa89d61821e"},"vehicle_type_id":"4","last_reported":1678529227,"current_range_meters":21200,"station_id":"ce4bgup2rcd13ifvqcn0","pricing_plan_id":"free"},{"bike_id":"03f04302-9400-4ca5-b91c-faa28a26d11a","system_id":"levelo_inurba_marseille","lat":43.304606,"lon":5.379026,"is_reserved":false,"is_disabled":false,"rental_uris":{"android":"levelo://app?vid=03f04302-9400-4ca5-b91c-faa28a26d11a","ios":"levelo://app?vid=03f04302-9400-4ca5-b91c-faa28a26d11a"},"vehicle_type_id":"4","last_reported":1678529227,"current_range_meters":31200,"station_id":"ce4bgup2rcd13ifvqcn0","pricing_plan_id":"free"},{"bike_id":"ee590099-3bee-4e9e-92da-4b04869a6c8f","system_id":"levelo_inurba_marseille","lat":43.304606,"lon":5.379026,"is_reserved":false,"is_disabled":false,"rental_uris":{"android":"levelo://app?vid=ee590099-3bee-4e9e-92da-4b04869a6c8f","ios":"levelo://app?vid=ee590099-3bee-4e9e-92da-4b04869a6c8f"},"vehicle_type_id":"4","last_reported":1678529227,"current_range_meters":28000,"station_id":"ce4bgup2rcd13ifvqcn0","pricing_plan_id":"free"},{"bike_id":"744834cf-4618-4434-88d7-60fe3472c663","system_id":"levelo_inurba_marseille","lat":43.301429,"lon":5.37413,"is_reserved":false,"is_disabled":false,"rental_uris":{"android":"levelo://app?vid=744834cf-4618-4434-88d7-60fe3472c663","ios":"levelo://app?vid=744834cf-4618-4434-88d7-60fe3472c663"},"vehicle_type_id":"4","last_reported":1678529227,"current_range_meters":19600,"station_id":"ce4bgs92rcd13ifvqcc0","pricing_plan_id":"free"},{"bike_id":"375f2c40-2fe2-4c7c-a598-f4e5c6c0dcfe","system_id":"levelo_inurba_marseille","lat":43.301429,"lon":5.37413,"is_reserved":false,"is_disabled":false,"rental_uris":{"android":"levelo://app?vid=375f2c40-2fe2-4c7c-a598-f4e5c6c0dcfe","ios":"levelo://app?vid=375f2c40-2fe2-4c7c-a598-f4e5c6c0dcfe"},"vehicle_type_id":"4","last_reported":1678529227,"current_range_meters":400,"station_id":"ce4bgs92rcd13ifvqcc0","pricing_plan_id":"free"},{"bike_id":"4a6bf3aa-bb16-4433-a9f8-20412b06ee87","system_id":"levelo_inurba_marseille","lat":43.301429,"lon":5.37413,"is_reserved":false,"is_disabled":false,"rental_uris":{"android":"levelo://app?vid=4a6bf3aa-bb16-4433-a9f8-20412b06ee87","ios":"levelo://app?vid=4a6bf3aa-bb16-4433-a9f8-20412b06ee87"},"vehicle_type_id":"4","last_reported":1678529227,"current_range_meters":30400,"station_id":"ce4bgs92rcd13ifvqcc0","pricing_plan_id":"free"},{"bike_id":"e661f504-9600-4723-b48a-fa7c51084833","system_id":"levelo_inurba_marseille","lat":43.313571,"lon":5.384829,"is_reserved":false,"is_disabled":false,"rental_uris":{"android":"levelo://app?vid=e661f504-9600-4723-b48a-fa7c51084833","ios":"levelo://app?vid=e661f504-9600-4723-b48a-fa7c51084833"},"vehicle_type_id":"4","last_reported":1678529227,"current_range_meters":22800,"station_id":"ce4bgt92rcd13ifvqcf0","pricing_plan_id":"free"},{"bike_id":"54328a01-0835-40f3-95b2-228848ef1e83","system_id":"levelo_inurba_marseille","lat":43.298433,"lon":5.362774,"is_reserved":false,"is_disabled":false,"rental_uris":{"android":"levelo://app?vid=54328a01-0835-40f3-95b2-228848ef1e83","ios":"levelo://app?vid=54328a01-0835-40f3-95b2-228848ef1e83"},"vehicle_type_id":"4","last_reported":1678529227,"current_range_meters":28000,"station_id":"ce4bgpp2rcd13ifvqc3g","pricing_plan_id":"free"},{"bike_id":"1e86f115-3751-4ba0-b0e0-b8ae823ed58f","system_id":"levelo_inurba_marseille","lat":43.298433,"lon":5.362774,"is_reserved":false,"is_disabled":false,"rental_uris":{"android":"levelo://app?vid=1e86f115-3751-4ba0-b0e0-b8ae823ed58f","ios":"levelo://app?vid=1e86f115-3751-4ba0-b0e0-b8ae823ed58f"},"vehicle_type_id":"4","last_reported":1678529227,"current_range_meters":16800,"station_id":"ce4bgpp2rcd13ifvqc3g","pricing_plan_id":"free"},{"bike_id":"bc2f096d-2c4f-45c7-9639-39eae53dc40f","system_id":"levelo_inurba_marseille","lat":43.298433,"lon":5.362774,"is_reserved":false,"is_disabled":false,"rental_uris":{"android":"levelo://app?vid=bc2f096d-2c4f-45c7-9639-39eae53dc40f","ios":"levelo://app?vid=bc2f096d-2c4f-45c7-9639-39eae53dc40f"},"vehicle_type_id":"4","last_reported":1678529227,"current_range_meters":10000,"station_id":"ce4bgpp2rcd13ifvqc3g","pricing_plan_id":"free"},{"bike_id":"9af3d937-70c7-4318-969d-47b300185710","system_id":"levelo_inurba_marseille","lat":43.298433,"lon":5.362774,"is_reserved":false,"is_disabled":false,"rental_uris":{"android":"levelo://app?vid=9af3d937-70c7-4318-969d-47b300185710","ios":"levelo://app?vid=9af3d937-70c7-4318-969d-47b300185710"},"vehicle_type_id":"4","last_reported":1678529227,"current_range_meters":28000,"station_id":"ce4bgpp2rcd13ifvqc3g","pricing_plan_id":"free"},{"bike_id":"bedd2eb2-a14e-473f-9a34-fa0124b6d1ae","system_id":"levelo_inurba_marseille","lat":43.305364,"lon":5.384119,"is_reserved":false,"is_disabled":false,"rental_uris":{"android":"levelo://app?vid=bedd2eb2-a14e-473f-9a34-fa0124b6d1ae","ios":"levelo://app?vid=bedd2eb2-a14e-473f-9a34-fa0124b6d1ae"},"vehicle_type_id":"4","last_reported":1678529227,"current_range_meters":23200,"station_id":"ce4bgg92rcd13ifvqb30","pricing_plan_id":"free"},{"bike_id":"ad3699b8-f297-4867-b839-28f8ad7ebe3b","system_id":"levelo_inurba_marseille","lat":43.29844,"lon":5.36273,"is_reserved":false,"is_disabled":false,"rental_uris":{"android":"levelo://app?vid=ad3699b8-f297-4867-b839-28f8ad7ebe3b","ios":"levelo://app?vid=ad3699b8-f297-4867-b839-28f8ad7ebe3b"},"vehicle_type_id":"4","last_reported":1678529227,"current_range_meters":7600,"station_id":"ce4bgpp2rcd13ifvqc3g","pricing_plan_id":"free"},{"bike_id":"53c5663f-f1a5-4538-aeea-461969e0433b","system_id":"levelo_inurba_marseille","lat":43.298433,"lon":5.362774,"is_reserved":false,"is_disabled":false,"rental_uris":{"android":"levelo://app?vid=53c5663f-f1a5-4538-aeea-461969e0433b","ios":"levelo://app?vid=53c5663f-f1a5-4538-aeea-461969e0433b"},"vehicle_type_id":"4","last_reported":1678529227,"current_range_meters":1600,"station_id":"ce4bgpp2rcd13ifvqc3g","pricing_plan_id":"free"},{"bike_id":"13db6c69-5f6f-4e23-9b7b-6c2c36f5e057","system_id":"levelo_inurba_marseille","lat":43.298433,"lon":5.362774,"is_reserved":false,"is_disabled":false,"rental_uris":{"android":"levelo://app?vid=13db6c69-5f6f-4e23-9b7b-6c2c36f5e057","ios":"levelo://app?vid=13db6c69-5f6f-4e23-9b7b-6c2c36f5e057"},"vehicle_type_id":"4","last_reported":1678529227,"current_range_meters":12800,"station_id":"ce4bgpp2rcd13ifvqc3g","pricing_plan_id":"free"},{"bike_id":"1a1fdeee-5b34-4de6-934d-51ca1a1935fe","system_id":"levelo_inurba_marseille","lat":43.30539,"lon":5.38436,"is_reserved":false,"is_disabled":false,"rental_uris":{"android":"levelo://app?vid=1a1fdeee-5b34-4de6-934d-51ca1a1935fe","ios":"levelo://app?vid=1a1fdeee-5b34-4de6-934d-51ca1a1935fe"},"vehicle_type_id":"4","last_reported":1678529227,"current_range_meters":5600,"station_id":"ce4bgg92rcd13ifvqb30","pricing_plan_id":"free"},{"bike_id":"0eb28556-d687-44e1-919e-5fb003b6be92","system_id":"levelo_inurba_marseille","lat":43.2984,"lon":5.36272,"is_reserved":false,"is_disabled":false,"rental_uris":{"android":"levelo://app?vid=0eb28556-d687-44e1-919e-5fb003b6be92","ios":"levelo://app?vid=0eb28556-d687-44e1-919e-5fb003b6be92"},"vehicle_type_id":"4","last_reported":1678529227,"current_range_meters":29600,"station_id":"","pricing_plan_id":"free"},{"bike_id":"e8413b8e-23a3-4e73-aaaa-af1adfe70880","system_id":"levelo_inurba_marseille","lat":43.298433,"lon":5.362774,"is_reserved":false,"is_disabled":false,"rental_uris":{"android":"levelo://app?vid=e8413b8e-23a3-4e73-aaaa-af1adfe70880","ios":"levelo://app?vid=e8413b8e-23a3-4e73-aaaa-af1adfe70880"},"vehicle_type_id":"4","last_reported":1678529227,"current_range_meters":31200,"station_id":"ce4bgpp2rcd13ifvqc3g","pricing_plan_id":"free"},{"bike_id":"2c5c3217-f41e-4311-b431-c89f0f5093aa","system_id":"levelo_inurba_marseille","lat":43.328371,"lon":5.366909,"is_reserved":false,"is_disabled":false,"rental_uris":{"android":"levelo://app?vid=2c5c3217-f41e-4311-b431-c89f0f5093aa","ios":"levelo://app?vid=2c5c3217-f41e-4311-b431-c89f0f5093aa"},"vehicle_type_id":"4","last_reported":1678529227,"current_range_meters":20800,"station_id":"ce4bhs92rcd13ifvqi0g","pricing_plan_id":"free"},{"bike_id":"7718c0d8-a5a3-4718-afdc-b5dfb54c87e1","system_id":"levelo_inurba_marseille","lat":43.328371,"lon":5.366909,"is_reserved":false,"is_disabled":false,"rental_uris":{"android":"levelo://app?vid=7718c0d8-a5a3-4718-afdc-b5dfb54c87e1","ios":"levelo://app?vid=7718c0d8-a5a3-4718-afdc-b5dfb54c87e1"},"vehicle_type_id":"4","last_reported":1678529227,"current_range_meters":27200,"station_id":"ce4bhs92rcd13ifvqi0g","pricing_plan_id":"free"},{"bike_id":"6fe66641-9def-4b81-9e84-a3ab32f24f76","system_id":"levelo_inurba_marseille","lat":43.328371,"lon":5.366909,"is_reserved":false,"is_disabled":false,"rental_uris":{"android":"levelo://app?vid=6fe66641-9def-4b81-9e84-a3ab32f24f76","ios":"levelo://app?vid=6fe66641-9def-4b81-9e84-a3ab32f24f76"},"vehicle_type_id":"4","last_reported":1678529227,"current_range_meters":10400,"station_id":"ce4bhs92rcd13ifvqi0g","pricing_plan_id":"free"},{"bike_id":"c461ea74-97bf-4b08-8c33-8ce312bbe742","system_id":"levelo_inurba_marseille","lat":43.328371,"lon":5.366909,"is_reserved":false,"is_disabled":false,"rental_uris":{"android":"levelo://app?vid=c461ea74-97bf-4b08-8c33-8ce312bbe742","ios":"levelo://app?vid=c461ea74-97bf-4b08-8c33-8ce312bbe742"},"vehicle_type_id":"4","last_reported":1678529227,"current_range_meters":28000,"station_id":"ce4bhs92rcd13ifvqi0g","pricing_plan_id":"free"},{"bike_id":"fefff64e-d41d-44a2-9f0f-3c756f096689","system_id":"levelo_inurba_marseille","lat":43.328371,"lon":5.366909,"is_reserved":false,"is_disabled":false,"rental_uris":{"android":"levelo://app?vid=fefff64e-d41d-44a2-9f0f-3c756f096689","ios":"levelo://app?vid=fefff64e-d41d-44a2-9f0f-3c756f096689"},"vehicle_type_id":"4","last_reported":1678529227,"current_range_meters":31600,"station_id":"ce4bhs92rcd13ifvqi0g","pricing_plan_id":"free"},{"bike_id":"84370daf-a9d8-46ae-9f74-bb49748464ed","system_id":"levelo_inurba_marseille","lat":43.328371,"lon":5.366909,"is_reserved":false,"is_disabled":false,"rental_uris":{"android":"levelo://app?vid=84370daf-a9d8-46ae-9f74-bb49748464ed","ios":"levelo://app?vid=84370daf-a9d8-46ae-9f74-bb49748464ed"},"vehicle_type_id":"4","last_reported":1678529227,"current_range_meters":23200,"station_id":"ce4bhs92rcd13ifvqi0g","pricing_plan_id":"free"},{"bike_id":"38ac62c5-1121-4e03-8039-215141469d6d","system_id":"levelo_inurba_marseille","lat":43.328371,"lon":5.366909,"is_reserved":false,"is_disabled":false,"rental_uris":{"android":"levelo://app?vid=38ac62c5-1121-4e03-8039-215141469d6d","ios":"levelo://app?vid=38ac62c5-1121-4e03-8039-215141469d6d"},"vehicle_type_id":"4","last_reported":1678529227,"current_range_meters":31200,"station_id":"ce4bhs92rcd13ifvqi0g","pricing_plan_id":"free"},{"bike_id":"e559e30d-10be-4be0-b67a-3d0b565ffa7e","system_id":"levelo_inurba_marseille","lat":43.328371,"lon":5.366909,"is_reserved":false,"is_disabled":false,"rental_uris":{"android":"levelo://app?vid=e559e30d-10be-4be0-b67a-3d0b565ffa7e","ios":"levelo://app?vid=e559e30d-10be-4be0-b67a-3d0b565ffa7e"},"vehicle_type_id":"4","last_reported":1678529227,"current_range_meters":30400,"station_id":"ce4bhs92rcd13ifvqi0g","pricing_plan_id":"free"},{"bike_id":"f2571945-374b-42a8-ae7e-8e29368d9e34","system_id":"levelo_inurba_marseille","lat":43.328371,"lon":5.366909,"is_reserved":false,"is_disabled":false,"rental_uris":{"android":"levelo://app?vid=f2571945-374b-42a8-ae7e-8e29368d9e34","ios":"levelo://app?vid=f2571945-374b-42a8-ae7e-8e29368d9e34"},"vehicle_type_id":"4","last_reported":1678529227,"current_range_meters":31200,"station_id":"ce4bhs92rcd13ifvqi0g","pricing_plan_id":"free"},{"bike_id":"cbeb4ab6-fc4b-45a6-be91-76b7e0b54803","system_id":"levelo_inurba_marseille","lat":43.328371,"lon":5.366909,"is_reserved":false,"is_disabled":false,"rental_uris":{"android":"levelo://app?vid=cbeb4ab6-fc4b-45a6-be91-76b7e0b54803","ios":"levelo://app?vid=cbeb4ab6-fc4b-45a6-be91-76b7e0b54803"},"vehicle_type_id":"4","last_reported":1678529227,"current_range_meters":30400,"station_id":"ce4bhs92rcd13ifvqi0g","pricing_plan_id":"free"},{"bike_id":"95cbf81a-20d0-46c6-8719-f9b04d191e4c","system_id":"levelo_inurba_marseille","lat":43.328371,"lon":5.366909,"is_reserved":false,"is_disabled":false,"rental_uris":{"android":"levelo://app?vid=95cbf81a-20d0-46c6-8719-f9b04d191e4c","ios":"levelo://app?vid=95cbf81a-20d0-46c6-8719-f9b04d191e4c"},"vehicle_type_id":"4","last_reported":1678529227,"current_range_meters":30000,"station_id":"ce4bhs92rcd13ifvqi0g","pricing_plan_id":"free"},{"bike_id":"66c9f54d-b66b-4bfb-bdb9-99e719be1bc9","system_id":"levelo_inurba_marseille","lat":43.328371,"lon":5.366909,"is_reserved":false,"is_disabled":false,"rental_uris":{"android":"levelo://app?vid=66c9f54d-b66b-4bfb-bdb9-99e719be1bc9","ios":"levelo://app?vid=66c9f54d-b66b-4bfb-bdb9-99e719be1bc9"},"vehicle_type_id":"4","last_reported":1678529227,"current_range_meters":31600,"station_id":"ce4bhs92rcd13ifvqi0g","pricing_plan_id":"free"},{"bike_id":"0b012e63-7b16-425f-9dc0-3c2470d3ee78","system_id":"levelo_inurba_marseille","lat":43.328371,"lon":5.366909,"is_reserved":false,"is_disabled":false,"rental_uris":{"android":"levelo://app?vid=0b012e63-7b16-425f-9dc0-3c2470d3ee78","ios":"levelo://app?vid=0b012e63-7b16-425f-9dc0-3c2470d3ee78"},"vehicle_type_id":"4","last_reported":1678529227,"current_range_meters":31600,"station_id":"ce4bhs92rcd13ifvqi0g","pricing_plan_id":"free"},{"bike_id":"1b6de25a-a7f4-45db-895b-0fd3f258a241","system_id":"levelo_inurba_marseille","lat":43.296131,"lon":5.370791,"is_reserved":false,"is_disabled":false,"rental_uris":{"android":"levelo://app?vid=1b6de25a-a7f4-45db-895b-0fd3f258a241","ios":"levelo://app?vid=1b6de25a-a7f4-45db-895b-0fd3f258a241"},"vehicle_type_id":"4","last_reported":1678529227,"current_range_meters":28400,"station_id":"ce4bgnh2rcd13ifvqc0g","pricing_plan_id":"free"},{"bike_id":"282c1724-f978-4d65-b750-8821a16b4d1c","system_id":"levelo_inurba_marseille","lat":43.291671,"lon":5.371575,"is_reserved":false,"is_disabled":false,"rental_uris":{"android":"levelo://app?vid=282c1724-f978-4d65-b750-8821a16b4d1c","ios":"levelo://app?vid=282c1724-f978-4d65-b750-8821a16b4d1c"},"vehicle_type_id":"4","last_reported":1678529227,"current_range_meters":24800,"station_id":"ce4bha92rcd13ifvqeh0","pricing_plan_id":"free"},{"bike_id":"bcb07c19-dc3b-4291-8a16-7d7ae3c978c3","system_id":"levelo_inurba_marseille","lat":43.29578,"lon":5.36741,"is_reserved":false,"is_disabled":false,"rental_uris":{"android":"levelo://app?vid=bcb07c19-dc3b-4291-8a16-7d7ae3c978c3","ios":"levelo://app?vid=bcb07c19-dc3b-4291-8a16-7d7ae3c978c3"},"vehicle_type_id":"4","last_reported":1678529227,"current_range_meters":20800,"station_id":"ce4bgph2rcd13ifvqc2g","pricing_plan_id":"free"},{"bike_id":"a4fac1e7-7777-4193-8762-7e9c3b018485","system_id":"levelo_inurba_marseille","lat":43.296277,"lon":5.377108,"is_reserved":false,"is_disabled":false,"rental_uris":{"android":"levelo://app?vid=a4fac1e7-7777-4193-8762-7e9c3b018485","ios":"levelo://app?vid=a4fac1e7-7777-4193-8762-7e9c3b018485"},"vehicle_type_id":"4","last_reported":1678529227,"current_range_meters":10000,"station_id":"ce4bgi92rcd13ifvqb90","pricing_plan_id":"free"},{"bike_id":"0c6edfe9-285e-408e-9da3-0bdd173084ac","system_id":"levelo_inurba_marseille","lat":43.299028,"lon":5.381509,"is_reserved":false,"is_disabled":false,"rental_uris":{"android":"levelo://app?vid=0c6edfe9-285e-408e-9da3-0bdd173084ac","ios":"levelo://app?vid=0c6edfe9-285e-408e-9da3-0bdd173084ac"},"vehicle_type_id":"4","last_reported":1678529227,"current_range_meters":29200,"station_id":"ce4bgj12rcd13ifvqbc0","pricing_plan_id":"free"},{"bike_id":"310ea278-cd59-4472-9998-16eeb98c07eb","system_id":"levelo_inurba_marseille","lat":43.309589,"lon":5.390258,"is_reserved":false,"is_disabled":false,"rental_uris":{"android":"levelo://app?vid=310ea278-cd59-4472-9998-16eeb98c07eb","ios":"levelo://app?vid=310ea278-cd59-4472-9998-16eeb98c07eb"},"vehicle_type_id":"4","last_reported":1678529227,"current_range_meters":4400,"station_id":"ce4bgup2rcd13ifvqco0","pricing_plan_id":"free"},{"bike_id":"79d84336-b1ee-42bb-a0cc-9e229ad0927b","system_id":"levelo_inurba_marseille","lat":43.317557,"lon":5.390173,"is_reserved":false,"is_disabled":false,"rental_uris":{"android":"levelo://app?vid=79d84336-b1ee-42bb-a0cc-9e229ad0927b","ios":"levelo://app?vid=79d84336-b1ee-42bb-a0cc-9e229ad0927b"},"vehicle_type_id":"4","last_reported":1678529227,"current_range_meters":29200,"station_id":"ce4bhqp2rcd13ifvqhng","pricing_plan_id":"free"},{"bike_id":"d00222d7-bf50-4cd8-bdff-c73869bc52df","system_id":"levelo_inurba_marseille","lat":43.317557,"lon":5.390173,"is_reserved":false,"is_disabled":false,"rental_uris":{"android":"levelo://app?vid=d00222d7-bf50-4cd8-bdff-c73869bc52df","ios":"levelo://app?vid=d00222d7-bf50-4cd8-bdff-c73869bc52df"},"vehicle_type_id":"4","last_reported":1678529227,"current_range_meters":31600,"station_id":"ce4bhqp2rcd13ifvqhng","pricing_plan_id":"free"},{"bike_id":"5480a0b5-d185-4dd4-8821-54090040ce7f","system_id":"levelo_inurba_marseille","lat":43.317557,"lon":5.390173,"is_reserved":false,"is_disabled":false,"rental_uris":{"android":"levelo://app?vid=5480a0b5-d185-4dd4-8821-54090040ce7f","ios":"levelo://app?vid=5480a0b5-d185-4dd4-8821-54090040ce7f"},"vehicle_type_id":"4","last_reported":1678529227,"current_range_meters":0,"station_id":"ce4bhqp2rcd13ifvqhng","pricing_plan_id":"free"},{"bike_id":"b156b7a5-3d5e-4828-afac-052c76ec132a","system_id":"levelo_inurba_marseille","lat":43.317557,"lon":5.390173,"is_reserved":false,"is_disabled":false,"rental_uris":{"android":"levelo://app?vid=b156b7a5-3d5e-4828-afac-052c76ec132a","ios":"levelo://app?vid=b156b7a5-3d5e-4828-afac-052c76ec132a"},"vehicle_type_id":"4","last_reported":1678529227,"current_range_meters":27200,"station_id":"ce4bhqp2rcd13ifvqhng","pricing_plan_id":"free"},{"bike_id":"508f1836-e0e8-469b-89cd-a6a32720545d","system_id":"levelo_inurba_marseille","lat":43.317557,"lon":5.390173,"is_reserved":false,"is_disabled":false,"rental_uris":{"android":"levelo://app?vid=508f1836-e0e8-469b-89cd-a6a32720545d","ios":"levelo://app?vid=508f1836-e0e8-469b-89cd-a6a32720545d"},"vehicle_type_id":"4","last_reported":1678529227,"current_range_meters":29600,"station_id":"ce4bhqp2rcd13ifvqhng","pricing_plan_id":"free"},{"bike_id":"4a559a02-471e-4b1c-85a2-c4e83c0d25a8","system_id":"levelo_inurba_marseille","lat":43.296911,"lon":5.377542,"is_reserved":false,"is_disabled":false,"rental_uris":{"android":"levelo://app?vid=4a559a02-471e-4b1c-85a2-c4e83c0d25a8","ios":"levelo://app?vid=4a559a02-471e-4b1c-85a2-c4e83c0d25a8"},"vehicle_type_id":"4","last_reported":1678529227,"current_range_meters":0,"station_id":"","pricing_plan_id":"free"},{"bike_id":"a24f0e0d-9424-428a-a6c7-46b8925355d0","system_id":"levelo_inurba_marseille","lat":43.317514,"lon":5.390234,"is_reserved":false,"is_disabled":false,"rental_uris":{"android":"levelo://app?vid=a24f0e0d-9424-428a-a6c7-46b8925355d0","ios":"levelo://app?vid=a24f0e0d-9424-428a-a6c7-46b8925355d0"},"vehicle_type_id":"4","last_reported":1678529227,"current_range_meters":11600,"station_id":"ce4bhqp2rcd13ifvqhng","pricing_plan_id":"free"},{"bike_id":"67ecba48-cbe0-45d2-a604-3d22d6e6eded","system_id":"levelo_inurba_marseille","lat":43.317557,"lon":5.390173,"is_reserved":false,"is_disabled":false,"rental_uris":{"android":"levelo://app?vid=67ecba48-cbe0-45d2-a604-3d22d6e6eded","ios":"levelo://app?vid=67ecba48-cbe0-45d2-a604-3d22d6e6eded"},"vehicle_type_id":"4","last_reported":1678529227,"current_range_meters":0,"station_id":"ce4bhqp2rcd13ifvqhng","pricing_plan_id":"free"},{"bike_id":"b3d7f0c5-190f-4fc8-a47a-e56ae6dbb1d4","system_id":"levelo_inurba_marseille","lat":43.304361,"lon":5.388942,"is_reserved":false,"is_disabled":false,"rental_uris":{"android":"levelo://app?vid=b3d7f0c5-190f-4fc8-a47a-e56ae6dbb1d4","ios":"levelo://app?vid=b3d7f0c5-190f-4fc8-a47a-e56ae6dbb1d4"},"vehicle_type_id":"4","last_reported":1678529227,"current_range_meters":22400,"station_id":"ce4bgk12rcd13ifvqbi0","pricing_plan_id":"free"},{"bike_id":"cc7d2b80-5f3c-49a9-81c9-e82c99c8528f","system_id":"levelo_inurba_marseille","lat":43.304274,"lon":5.388873,"is_reserved":false,"is_disabled":false,"rental_uris":{"android":"levelo://app?vid=cc7d2b80-5f3c-49a9-81c9-e82c99c8528f","ios":"levelo://app?vid=cc7d2b80-5f3c-49a9-81c9-e82c99c8528f"},"vehicle_type_id":"4","last_reported":1678529227,"current_range_meters":29600,"station_id":"ce4bgk12rcd13ifvqbi0","pricing_plan_id":"free"},{"bike_id":"91e3154f-8ff7-40ff-ba10-e87fe0b1214f","system_id":"levelo_inurba_marseille","lat":43.295748,"lon":5.37522,"is_reserved":false,"is_disabled":false,"rental_uris":{"android":"levelo://app?vid=91e3154f-8ff7-40ff-ba10-e87fe0b1214f","ios":"levelo://app?vid=91e3154f-8ff7-40ff-ba10-e87fe0b1214f"},"vehicle_type_id":"4","last_reported":1678529227,"current_range_meters":26000,"station_id":"ce4bgh92rcd13ifvqb50","pricing_plan_id":"free"},{"bike_id":"4f989df4-b66c-41d4-82f4-10c544d5517c","system_id":"levelo_inurba_marseille","lat":43.29536,"lon":5.37507,"is_reserved":false,"is_disabled":false,"rental_uris":{"android":"levelo://app?vid=4f989df4-b66c-41d4-82f4-10c544d5517c","ios":"levelo://app?vid=4f989df4-b66c-41d4-82f4-10c544d5517c"},"vehicle_type_id":"4","last_reported":1678529227,"current_range_meters":1600,"station_id":"ce4bgkp2rcd13ifvqbmg","pricing_plan_id":"free"},{"bike_id":"a47f9ed7-5f97-4854-9a19-f9e0aea7b812","system_id":"levelo_inurba_marseille","lat":43.29983,"lon":5.38493,"is_reserved":false,"is_disabled":false,"rental_uris":{"android":"levelo://app?vid=a47f9ed7-5f97-4854-9a19-f9e0aea7b812","ios":"levelo://app?vid=a47f9ed7-5f97-4854-9a19-f9e0aea7b812"},"vehicle_type_id":"4","last_reported":1678529227,"current_range_meters":20800,"station_id":"","pricing_plan_id":"free"},{"bike_id":"ede8ac36-f1b4-47ab-9b24-035035e95c65","system_id":"levelo_inurba_marseille","lat":43.29975,"lon":5.38492,"is_reserved":false,"is_disabled":false,"rental_uris":{"android":"levelo://app?vid=ede8ac36-f1b4-47ab-9b24-035035e95c65","ios":"levelo://app?vid=ede8ac36-f1b4-47ab-9b24-035035e95c65"},"vehicle_type_id":"4","last_reported":1678529227,"current_range_meters":4400,"station_id":"","pricing_plan_id":"free"},{"bike_id":"10a7a346-96dc-4a95-9193-3132cf05a3c2","system_id":"levelo_inurba_marseille","lat":43.2952,"lon":5.375103,"is_reserved":false,"is_disabled":false,"rental_uris":{"android":"levelo://app?vid=10a7a346-96dc-4a95-9193-3132cf05a3c2","ios":"levelo://app?vid=10a7a346-96dc-4a95-9193-3132cf05a3c2"},"vehicle_type_id":"4","last_reported":1678529227,"current_range_meters":30800,"station_id":"ce4bgkp2rcd13ifvqbmg","pricing_plan_id":"free"},{"bike_id":"f837d9ce-e2c9-43b5-a86f-0d0ca5fbda3e","system_id":"levelo_inurba_marseille","lat":43.323636,"lon":5.388832,"is_reserved":false,"is_disabled":false,"rental_uris":{"android":"levelo://app?vid=f837d9ce-e2c9-43b5-a86f-0d0ca5fbda3e","ios":"levelo://app?vid=f837d9ce-e2c9-43b5-a86f-0d0ca5fbda3e"},"vehicle_type_id":"4","last_reported":1678529227,"current_range_meters":7600,"station_id":"","pricing_plan_id":"free"},{"bike_id":"8989befa-7149-4aeb-b5b3-d57afccf9fe2","system_id":"levelo_inurba_marseille","lat":43.32367,"lon":5.388836,"is_reserved":false,"is_disabled":false,"rental_uris":{"android":"levelo://app?vid=8989befa-7149-4aeb-b5b3-d57afccf9fe2","ios":"levelo://app?vid=8989befa-7149-4aeb-b5b3-d57afccf9fe2"},"vehicle_type_id":"4","last_reported":1678529227,"current_range_meters":2400,"station_id":"ce4bhqp2rcd13ifvqhog","pricing_plan_id":"free"},{"bike_id":"67329fa4-4e2e-45d8-bd87-598da0f72818","system_id":"levelo_inurba_marseille","lat":43.31282,"lon":5.39421,"is_reserved":false,"is_disabled":false,"rental_uris":{"android":"levelo://app?vid=67329fa4-4e2e-45d8-bd87-598da0f72818","ios":"levelo://app?vid=67329fa4-4e2e-45d8-bd87-598da0f72818"},"vehicle_type_id":"4","last_reported":1678529227,"current_range_meters":0,"station_id":"","pricing_plan_id":"free"},{"bike_id":"95105821-d3ce-49be-8d44-04fffd405094","system_id":"levelo_inurba_marseille","lat":43.293007,"lon":5.371806,"is_reserved":false,"is_disabled":false,"rental_uris":{"android":"levelo://app?vid=95105821-d3ce-49be-8d44-04fffd405094","ios":"levelo://app?vid=95105821-d3ce-49be-8d44-04fffd405094"},"vehicle_type_id":"4","last_reported":1678529227,"current_range_meters":22800,"station_id":"ce4bha92rcd13ifvqeh0","pricing_plan_id":"free"},{"bike_id":"b6a25bc0-8b6f-4aca-bba3-66365b452112","system_id":"levelo_inurba_marseille","lat":43.293009,"lon":5.374584,"is_reserved":false,"is_disabled":false,"rental_uris":{"android":"levelo://app?vid=b6a25bc0-8b6f-4aca-bba3-66365b452112","ios":"levelo://app?vid=b6a25bc0-8b6f-4aca-bba3-66365b452112"},"vehicle_type_id":"4","last_reported":1678529227,"current_range_meters":31200,"station_id":"ce4bgi12rcd13ifvqb70","pricing_plan_id":"free"},{"bike_id":"90894d74-1f3a-4a0e-ab35-59770392d836","system_id":"levelo_inurba_marseille","lat":43.29371,"lon":5.37829,"is_reserved":false,"is_disabled":false,"rental_uris":{"android":"levelo://app?vid=90894d74-1f3a-4a0e-ab35-59770392d836","ios":"levelo://app?vid=90894d74-1f3a-4a0e-ab35-59770392d836"},"vehicle_type_id":"4","last_reported":1678529227,"current_range_meters":16800,"station_id":"","pricing_plan_id":"free"},{"bike_id":"79c2d74d-4ac5-4502-9cae-4df2a0374296","system_id":"levelo_inurba_marseille","lat":43.2936,"lon":5.37835,"is_reserved":false,"is_disabled":false,"rental_uris":{"android":"levelo://app?vid=79c2d74d-4ac5-4502-9cae-4df2a0374296","ios":"levelo://app?vid=79c2d74d-4ac5-4502-9cae-4df2a0374296"},"vehicle_type_id":"4","last_reported":1678529227,"current_range_meters":31600,"station_id":"ce4bgjh2rcd13ifvqbf0","pricing_plan_id":"free"},{"bike_id":"7f66da60-550a-49fb-895d-30453777017b","system_id":"levelo_inurba_marseille","lat":43.2936,"lon":5.37835,"is_reserved":false,"is_disabled":false,"rental_uris":{"android":"levelo://app?vid=7f66da60-550a-49fb-895d-30453777017b","ios":"levelo://app?vid=7f66da60-550a-49fb-895d-30453777017b"},"vehicle_type_id":"4","last_reported":1678529227,"current_range_meters":5200,"station_id":"ce4bgjh2rcd13ifvqbf0","pricing_plan_id":"free"},{"bike_id":"316abe8b-012e-4fcf-a59f-097386bc8791","system_id":"levelo_inurba_marseille","lat":43.2936,"lon":5.37835,"is_reserved":false,"is_disabled":false,"rental_uris":{"android":"levelo://app?vid=316abe8b-012e-4fcf-a59f-097386bc8791","ios":"levelo://app?vid=316abe8b-012e-4fcf-a59f-097386bc8791"},"vehicle_type_id":"4","last_reported":1678529227,"current_range_meters":27600,"station_id":"ce4bgjh2rcd13ifvqbf0","pricing_plan_id":"free"},{"bike_id":"5816a64f-9037-4817-8bdd-43bf0b659972","system_id":"levelo_inurba_marseille","lat":43.2936,"lon":5.37835,"is_reserved":false,"is_disabled":false,"rental_uris":{"android":"levelo://app?vid=5816a64f-9037-4817-8bdd-43bf0b659972","ios":"levelo://app?vid=5816a64f-9037-4817-8bdd-43bf0b659972"},"vehicle_type_id":"4","last_reported":1678529227,"current_range_meters":28400,"station_id":"ce4bgjh2rcd13ifvqbf0","pricing_plan_id":"free"},{"bike_id":"47aae016-455b-44c4-82af-96133f94e3fa","system_id":"levelo_inurba_marseille","lat":43.2936,"lon":5.37835,"is_reserved":false,"is_disabled":false,"rental_uris":{"android":"levelo://app?vid=47aae016-455b-44c4-82af-96133f94e3fa","ios":"levelo://app?vid=47aae016-455b-44c4-82af-96133f94e3fa"},"vehicle_type_id":"4","last_reported":1678529227,"current_range_meters":31600,"station_id":"ce4bgjh2rcd13ifvqbf0","pricing_plan_id":"free"},{"bike_id":"bbee8a07-c2aa-44a3-9857-ce0ead5a7312","system_id":"levelo_inurba_marseille","lat":43.298764,"lon":5.388973,"is_reserved":false,"is_disabled":false,"rental_uris":{"android":"levelo://app?vid=bbee8a07-c2aa-44a3-9857-ce0ead5a7312","ios":"levelo://app?vid=bbee8a07-c2aa-44a3-9857-ce0ead5a7312"},"vehicle_type_id":"4","last_reported":1678529227,"current_range_meters":0,"station_id":"ce4bh392rcd13ifvqdl0","pricing_plan_id":"free"},{"bike_id":"0ccbc7c3-9a46-4062-bdcc-84ca24fe27c2","system_id":"levelo_inurba_marseille","lat":43.29529,"lon":5.385581,"is_reserved":false,"is_disabled":false,"rental_uris":{"android":"levelo://app?vid=0ccbc7c3-9a46-4062-bdcc-84ca24fe27c2","ios":"levelo://app?vid=0ccbc7c3-9a46-4062-bdcc-84ca24fe27c2"},"vehicle_type_id":"4","last_reported":1678529227,"current_range_meters":19200,"station_id":"ce4bgih2rcd13ifvqba0","pricing_plan_id":"free"},{"bike_id":"8fccd644-54f2-4e78-bf91-9d949d39dcc2","system_id":"levelo_inurba_marseille","lat":43.322546,"lon":5.394768,"is_reserved":false,"is_disabled":false,"rental_uris":{"android":"levelo://app?vid=8fccd644-54f2-4e78-bf91-9d949d39dcc2","ios":"levelo://app?vid=8fccd644-54f2-4e78-bf91-9d949d39dcc2"},"vehicle_type_id":"4","last_reported":1678529227,"current_range_meters":0,"station_id":"","pricing_plan_id":"free"},{"bike_id":"a9e3025c-5ba2-4b81-bd4f-4308ecd02191","system_id":"levelo_inurba_marseille","lat":43.290319,"lon":5.375732,"is_reserved":false,"is_disabled":false,"rental_uris":{"android":"levelo://app?vid=a9e3025c-5ba2-4b81-bd4f-4308ecd02191","ios":"levelo://app?vid=a9e3025c-5ba2-4b81-bd4f-4308ecd02191"},"vehicle_type_id":"4","last_reported":1678529227,"current_range_meters":27600,"station_id":"ce4bh692rcd13ifvqe90","pricing_plan_id":"free"},{"bike_id":"3eb7f8a0-5b27-4519-a62a-32fa3d391f7a","system_id":"levelo_inurba_marseille","lat":43.290327,"lon":5.375711,"is_reserved":false,"is_disabled":false,"rental_uris":{"android":"levelo://app?vid=3eb7f8a0-5b27-4519-a62a-32fa3d391f7a","ios":"levelo://app?vid=3eb7f8a0-5b27-4519-a62a-32fa3d391f7a"},"vehicle_type_id":"4","last_reported":1678529227,"current_range_meters":30800,"station_id":"ce4bh692rcd13ifvqe90","pricing_plan_id":"free"},{"bike_id":"fd695445-174a-46fe-bbda-4ccd62d8effa","system_id":"levelo_inurba_marseille","lat":43.290327,"lon":5.375711,"is_reserved":false,"is_disabled":false,"rental_uris":{"android":"levelo://app?vid=fd695445-174a-46fe-bbda-4ccd62d8effa","ios":"levelo://app?vid=fd695445-174a-46fe-bbda-4ccd62d8effa"},"vehicle_type_id":"4","last_reported":1678529227,"current_range_meters":18800,"station_id":"ce4bh692rcd13ifvqe90","pricing_plan_id":"free"},{"bike_id":"4b73eaa3-0c3e-4fb4-a6c3-ec9987120461","system_id":"levelo_inurba_marseille","lat":43.28937,"lon":5.36684,"is_reserved":false,"is_disabled":false,"rental_uris":{"android":"levelo://app?vid=4b73eaa3-0c3e-4fb4-a6c3-ec9987120461","ios":"levelo://app?vid=4b73eaa3-0c3e-4fb4-a6c3-ec9987120461"},"vehicle_type_id":"4","last_reported":1678529227,"current_range_meters":0,"station_id":"ce4bhap2rcd13ifvqek0","pricing_plan_id":"free"},{"bike_id":"231d23f4-63d4-4c91-952f-22d5267c7678","system_id":"levelo_inurba_marseille","lat":43.28937,"lon":5.36643,"is_reserved":false,"is_disabled":false,"rental_uris":{"android":"levelo://app?vid=231d23f4-63d4-4c91-952f-22d5267c7678","ios":"levelo://app?vid=231d23f4-63d4-4c91-952f-22d5267c7678"},"vehicle_type_id":"4","last_reported":1678529227,"current_range_meters":17600,"station_id":"ce4bhap2rcd13ifvqek0","pricing_plan_id":"free"},{"bike_id":"f088487d-61da-49b0-bac0-ed8388b07c94","system_id":"levelo_inurba_marseille","lat":43.28936,"lon":5.36632,"is_reserved":false,"is_disabled":false,"rental_uris":{"android":"levelo://app?vid=f088487d-61da-49b0-bac0-ed8388b07c94","ios":"levelo://app?vid=f088487d-61da-49b0-bac0-ed8388b07c94"},"vehicle_type_id":"4","last_reported":1678529227,"current_range_meters":1600,"station_id":"ce4bhap2rcd13ifvqek0","pricing_plan_id":"free"},{"bike_id":"569ce7ca-b165-4b1d-9311-a327396d2e05","system_id":"levelo_inurba_marseille","lat":43.2896,"lon":5.37174,"is_reserved":false,"is_disabled":false,"rental_uris":{"android":"levelo://app?vid=569ce7ca-b165-4b1d-9311-a327396d2e05","ios":"levelo://app?vid=569ce7ca-b165-4b1d-9311-a327396d2e05"},"vehicle_type_id":"4","last_reported":1678529227,"current_range_meters":7600,"station_id":"","pricing_plan_id":"free"},{"bike_id":"37f2853d-9018-47cb-be3d-af36dfb0ca9f","system_id":"levelo_inurba_marseille","lat":43.28934,"lon":5.36627,"is_reserved":false,"is_disabled":false,"rental_uris":{"android":"levelo://app?vid=37f2853d-9018-47cb-be3d-af36dfb0ca9f","ios":"levelo://app?vid=37f2853d-9018-47cb-be3d-af36dfb0ca9f"},"vehicle_type_id":"4","last_reported":1678529227,"current_range_meters":800,"station_id":"ce4bhap2rcd13ifvqek0","pricing_plan_id":"free"},{"bike_id":"d73fc8d6-a25b-4bce-96a5-0f44999ff654","system_id":"levelo_inurba_marseille","lat":43.292615,"lon":5.384449,"is_reserved":false,"is_disabled":false,"rental_uris":{"android":"levelo://app?vid=d73fc8d6-a25b-4bce-96a5-0f44999ff654","ios":"levelo://app?vid=d73fc8d6-a25b-4bce-96a5-0f44999ff654"},"vehicle_type_id":"4","last_reported":1678529227,"current_range_meters":0,"station_id":"ce4bh692rcd13ifvqea0","pricing_plan_id":"free"},{"bike_id":"47c11c15-1cea-437e-93a0-8d4a1b7727ba","system_id":"levelo_inurba_marseille","lat":43.292614,"lon":5.38448,"is_reserved":false,"is_disabled":false,"rental_uris":{"android":"levelo://app?vid=47c11c15-1cea-437e-93a0-8d4a1b7727ba","ios":"levelo://app?vid=47c11c15-1cea-437e-93a0-8d4a1b7727ba"},"vehicle_type_id":"4","last_reported":1678529227,"current_range_meters":0,"station_id":"ce4bh692rcd13ifvqea0","pricing_plan_id":"free"},{"bike_id":"c26e5911-0744-4f51-b992-a72f52f2b771","system_id":"levelo_inurba_marseille","lat":43.292627,"lon":5.384508,"is_reserved":false,"is_disabled":false,"rental_uris":{"android":"levelo://app?vid=c26e5911-0744-4f51-b992-a72f52f2b771","ios":"levelo://app?vid=c26e5911-0744-4f51-b992-a72f52f2b771"},"vehicle_type_id":"4","last_reported":1678529227,"current_range_meters":0,"station_id":"ce4bh692rcd13ifvqea0","pricing_plan_id":"free"},{"bike_id":"87b129da-7b2d-49fa-94bc-29b2b162babe","system_id":"levelo_inurba_marseille","lat":43.330442,"lon":5.389148,"is_reserved":false,"is_disabled":false,"rental_uris":{"android":"levelo://app?vid=87b129da-7b2d-49fa-94bc-29b2b162babe","ios":"levelo://app?vid=87b129da-7b2d-49fa-94bc-29b2b162babe"},"vehicle_type_id":"4","last_reported":1678529227,"current_range_meters":23600,"station_id":"ce4bhr92rcd13ifvqhrg","pricing_plan_id":"free"},{"bike_id":"0037ae0a-6165-4289-8c3e-49ef67b6b3ea","system_id":"levelo_inurba_marseille","lat":43.330381,"lon":5.389208,"is_reserved":false,"is_disabled":false,"rental_uris":{"android":"levelo://app?vid=0037ae0a-6165-4289-8c3e-49ef67b6b3ea","ios":"levelo://app?vid=0037ae0a-6165-4289-8c3e-49ef67b6b3ea"},"vehicle_type_id":"4","last_reported":1678529227,"current_range_meters":15200,"station_id":"ce4bhr92rcd13ifvqhrg","pricing_plan_id":"free"},{"bike_id":"153c5ef8-3ec2-4ed2-94f0-25591d281d8e","system_id":"levelo_inurba_marseille","lat":43.33046,"lon":5.38909,"is_reserved":false,"is_disabled":false,"rental_uris":{"android":"levelo://app?vid=153c5ef8-3ec2-4ed2-94f0-25591d281d8e","ios":"levelo://app?vid=153c5ef8-3ec2-4ed2-94f0-25591d281d8e"},"vehicle_type_id":"4","last_reported":1678529227,"current_range_meters":23600,"station_id":"ce4bhr92rcd13ifvqhrg","pricing_plan_id":"free"},{"bike_id":"693499c9-c39b-44af-9f35-2c590bd87c81","system_id":"levelo_inurba_marseille","lat":43.330442,"lon":5.389148,"is_reserved":false,"is_disabled":false,"rental_uris":{"android":"levelo://app?vid=693499c9-c39b-44af-9f35-2c590bd87c81","ios":"levelo://app?vid=693499c9-c39b-44af-9f35-2c590bd87c81"},"vehicle_type_id":"4","last_reported":1678529227,"current_range_meters":8400,"station_id":"ce4bhr92rcd13ifvqhrg","pricing_plan_id":"free"},{"bike_id":"aa206919-e247-4f55-aaa4-91ee5b1e7373","system_id":"levelo_inurba_marseille","lat":43.33042,"lon":5.38918,"is_reserved":false,"is_disabled":false,"rental_uris":{"android":"levelo://app?vid=aa206919-e247-4f55-aaa4-91ee5b1e7373","ios":"levelo://app?vid=aa206919-e247-4f55-aaa4-91ee5b1e7373"},"vehicle_type_id":"4","last_reported":1678529227,"current_range_meters":15200,"station_id":"ce4bhr92rcd13ifvqhrg","pricing_plan_id":"free"},{"bike_id":"6aa4d43d-d3cb-44c3-b8ca-d718d20e335b","system_id":"levelo_inurba_marseille","lat":43.330442,"lon":5.389148,"is_reserved":false,"is_disabled":false,"rental_uris":{"android":"levelo://app?vid=6aa4d43d-d3cb-44c3-b8ca-d718d20e335b","ios":"levelo://app?vid=6aa4d43d-d3cb-44c3-b8ca-d718d20e335b"},"vehicle_type_id":"4","last_reported":1678529227,"current_range_meters":19600,"station_id":"ce4bhr92rcd13ifvqhrg","pricing_plan_id":"free"},{"bike_id":"b2c84c7b-6edf-4e2e-8760-4def01da6594","system_id":"levelo_inurba_marseille","lat":43.33042,"lon":5.3892,"is_reserved":false,"is_disabled":false,"rental_uris":{"android":"levelo://app?vid=b2c84c7b-6edf-4e2e-8760-4def01da6594","ios":"levelo://app?vid=b2c84c7b-6edf-4e2e-8760-4def01da6594"},"vehicle_type_id":"4","last_reported":1678529227,"current_range_meters":27600,"station_id":"ce4bhr92rcd13ifvqhrg","pricing_plan_id":"free"},{"bike_id":"427a5da5-2804-4106-b83c-1684b0002f43","system_id":"levelo_inurba_marseille","lat":43.330442,"lon":5.389148,"is_reserved":false,"is_disabled":false,"rental_uris":{"android":"levelo://app?vid=427a5da5-2804-4106-b83c-1684b0002f43","ios":"levelo://app?vid=427a5da5-2804-4106-b83c-1684b0002f43"},"vehicle_type_id":"4","last_reported":1678529227,"current_range_meters":24800,"station_id":"ce4bhr92rcd13ifvqhrg","pricing_plan_id":"free"},{"bike_id":"8c8eb10b-e9fb-4f65-ab68-a33fe156a3a0","system_id":"levelo_inurba_marseille","lat":43.330431,"lon":5.389194,"is_reserved":false,"is_disabled":false,"rental_uris":{"android":"levelo://app?vid=8c8eb10b-e9fb-4f65-ab68-a33fe156a3a0","ios":"levelo://app?vid=8c8eb10b-e9fb-4f65-ab68-a33fe156a3a0"},"vehicle_type_id":"4","last_reported":1678529227,"current_range_meters":22800,"station_id":"ce4bhr92rcd13ifvqhrg","pricing_plan_id":"free"},{"bike_id":"32bab2d7-fc00-4769-a759-afa0281bfd61","system_id":"levelo_inurba_marseille","lat":43.33042,"lon":5.38921,"is_reserved":false,"is_disabled":false,"rental_uris":{"android":"levelo://app?vid=32bab2d7-fc00-4769-a759-afa0281bfd61","ios":"levelo://app?vid=32bab2d7-fc00-4769-a759-afa0281bfd61"},"vehicle_type_id":"4","last_reported":1678529227,"current_range_meters":22400,"station_id":"ce4bhr92rcd13ifvqhrg","pricing_plan_id":"free"},{"bike_id":"7dff76f5-3fd3-4128-944d-2f31f4ea06fb","system_id":"levelo_inurba_marseille","lat":43.330442,"lon":5.389148,"is_reserved":false,"is_disabled":false,"rental_uris":{"android":"levelo://app?vid=7dff76f5-3fd3-4128-944d-2f31f4ea06fb","ios":"levelo://app?vid=7dff76f5-3fd3-4128-944d-2f31f4ea06fb"},"vehicle_type_id":"4","last_reported":1678529227,"current_range_meters":2800,"station_id":"ce4bhr92rcd13ifvqhrg","pricing_plan_id":"free"},{"bike_id":"5f2973a9-97af-4ee1-bce5-ec772f2442a6","system_id":"levelo_inurba_marseille","lat":43.301429,"lon":5.37413,"is_reserved":false,"is_disabled":false,"rental_uris":{"android":"levelo://app?vid=5f2973a9-97af-4ee1-bce5-ec772f2442a6","ios":"levelo://app?vid=5f2973a9-97af-4ee1-bce5-ec772f2442a6"},"vehicle_type_id":"4","last_reported":1678529227,"current_range_meters":5600,"station_id":"ce4bgs92rcd13ifvqcc0","pricing_plan_id":"free"},{"bike_id":"a0b5a7a5-ed90-4867-ab18-7101a63f568b","system_id":"levelo_inurba_marseille","lat":43.330442,"lon":5.389148,"is_reserved":false,"is_disabled":false,"rental_uris":{"android":"levelo://app?vid=a0b5a7a5-ed90-4867-ab18-7101a63f568b","ios":"levelo://app?vid=a0b5a7a5-ed90-4867-ab18-7101a63f568b"},"vehicle_type_id":"4","last_reported":1678529227,"current_range_meters":30000,"station_id":"ce4bhr92rcd13ifvqhrg","pricing_plan_id":"free"},{"bike_id":"dfa3acba-d41d-423d-a7de-2dfc2e123dc8","system_id":"levelo_inurba_marseille","lat":43.33045,"lon":5.38919,"is_reserved":false,"is_disabled":false,"rental_uris":{"android":"levelo://app?vid=dfa3acba-d41d-423d-a7de-2dfc2e123dc8","ios":"levelo://app?vid=dfa3acba-d41d-423d-a7de-2dfc2e123dc8"},"vehicle_type_id":"4","last_reported":1678529227,"current_range_meters":6400,"station_id":"ce4bhr92rcd13ifvqhrg","pricing_plan_id":"free"},{"bike_id":"d1b48164-49c0-49c5-afad-93b319d98d9a","system_id":"levelo_inurba_marseille","lat":43.330448,"lon":5.389195,"is_reserved":false,"is_disabled":false,"rental_uris":{"android":"levelo://app?vid=d1b48164-49c0-49c5-afad-93b319d98d9a","ios":"levelo://app?vid=d1b48164-49c0-49c5-afad-93b319d98d9a"},"vehicle_type_id":"4","last_reported":1678529227,"current_range_meters":17200,"station_id":"ce4bhr92rcd13ifvqhrg","pricing_plan_id":"free"},{"bike_id":"c69d6939-70c3-41a5-8dfd-6279d4d6a7f9","system_id":"levelo_inurba_marseille","lat":43.289992,"lon":5.356174,"is_reserved":false,"is_disabled":false,"rental_uris":{"android":"levelo://app?vid=c69d6939-70c3-41a5-8dfd-6279d4d6a7f9","ios":"levelo://app?vid=c69d6939-70c3-41a5-8dfd-6279d4d6a7f9"},"vehicle_type_id":"4","last_reported":1678529227,"current_range_meters":0,"station_id":"ce4bhb92rcd13ifvqen0","pricing_plan_id":"free"},{"bike_id":"10f0f3a2-4d98-4ecc-97fa-0ee62cca1ab1","system_id":"levelo_inurba_marseille","lat":43.290995,"lon":5.381361,"is_reserved":false,"is_disabled":false,"rental_uris":{"android":"levelo://app?vid=10f0f3a2-4d98-4ecc-97fa-0ee62cca1ab1","ios":"levelo://app?vid=10f0f3a2-4d98-4ecc-97fa-0ee62cca1ab1"},"vehicle_type_id":"4","last_reported":1678529227,"current_range_meters":19600,"station_id":"ce4bh512rcd13ifvqe2g","pricing_plan_id":"free"},{"bike_id":"59295688-3d95-4a10-ab17-c6f0f1a6b453","system_id":"levelo_inurba_marseille","lat":43.289741,"lon":5.378306,"is_reserved":false,"is_disabled":false,"rental_uris":{"android":"levelo://app?vid=59295688-3d95-4a10-ab17-c6f0f1a6b453","ios":"levelo://app?vid=59295688-3d95-4a10-ab17-c6f0f1a6b453"},"vehicle_type_id":"4","last_reported":1678529227,"current_range_meters":25600,"station_id":"ce4bh9p2rcd13ifvqed0","pricing_plan_id":"free"},{"bike_id":"71745b73-2760-4483-b043-3e027f3370ce","system_id":"levelo_inurba_marseille","lat":43.289741,"lon":5.378306,"is_reserved":false,"is_disabled":false,"rental_uris":{"android":"levelo://app?vid=71745b73-2760-4483-b043-3e027f3370ce","ios":"levelo://app?vid=71745b73-2760-4483-b043-3e027f3370ce"},"vehicle_type_id":"4","last_reported":1678529227,"current_range_meters":22400,"station_id":"ce4bh9p2rcd13ifvqed0","pricing_plan_id":"free"},{"bike_id":"630a84a1-dcc6-43db-8f83-ce83a39b5c7d","system_id":"levelo_inurba_marseille","lat":43.289741,"lon":5.378306,"is_reserved":false,"is_disabled":false,"rental_uris":{"android":"levelo://app?vid=630a84a1-dcc6-43db-8f83-ce83a39b5c7d","ios":"levelo://app?vid=630a84a1-dcc6-43db-8f83-ce83a39b5c7d"},"vehicle_type_id":"4","last_reported":1678529227,"current_range_meters":14800,"station_id":"ce4bh9p2rcd13ifvqed0","pricing_plan_id":"free"},{"bike_id":"188045bd-566e-4d6e-89ad-25e3bf1554de","system_id":"levelo_inurba_marseille","lat":43.289741,"lon":5.378306,"is_reserved":false,"is_disabled":false,"rental_uris":{"android":"levelo://app?vid=188045bd-566e-4d6e-89ad-25e3bf1554de","ios":"levelo://app?vid=188045bd-566e-4d6e-89ad-25e3bf1554de"},"vehicle_type_id":"4","last_reported":1678529227,"current_range_meters":30000,"station_id":"ce4bh9p2rcd13ifvqed0","pricing_plan_id":"free"},{"bike_id":"e412a1a4-1065-4d6a-9eb8-a2e88cfdaa49","system_id":"levelo_inurba_marseille","lat":43.289741,"lon":5.378306,"is_reserved":false,"is_disabled":false,"rental_uris":{"android":"levelo://app?vid=e412a1a4-1065-4d6a-9eb8-a2e88cfdaa49","ios":"levelo://app?vid=e412a1a4-1065-4d6a-9eb8-a2e88cfdaa49"},"vehicle_type_id":"4","last_reported":1678529227,"current_range_meters":24800,"station_id":"ce4bh9p2rcd13ifvqed0","pricing_plan_id":"free"},{"bike_id":"3a214f9e-16f9-4d9d-942b-8e1c3d567813","system_id":"levelo_inurba_marseille","lat":43.3065,"lon":5.40093,"is_reserved":false,"is_disabled":false,"rental_uris":{"android":"levelo://app?vid=3a214f9e-16f9-4d9d-942b-8e1c3d567813","ios":"levelo://app?vid=3a214f9e-16f9-4d9d-942b-8e1c3d567813"},"vehicle_type_id":"4","last_reported":1678529227,"current_range_meters":31600,"station_id":"ce4bh112rcd13ifvqda0","pricing_plan_id":"free"},{"bike_id":"3f50719c-78cb-43ba-8beb-6bef50579ef8","system_id":"levelo_inurba_marseille","lat":43.29534,"lon":5.39399,"is_reserved":false,"is_disabled":false,"rental_uris":{"android":"levelo://app?vid=3f50719c-78cb-43ba-8beb-6bef50579ef8","ios":"levelo://app?vid=3f50719c-78cb-43ba-8beb-6bef50579ef8"},"vehicle_type_id":"4","last_reported":1678529227,"current_range_meters":29200,"station_id":"ce4bh212rcd13ifvqde0","pricing_plan_id":"free"},{"bike_id":"43d3d931-7c6f-4c75-b8a1-475f1c9311e9","system_id":"levelo_inurba_marseille","lat":43.295091,"lon":5.394067,"is_reserved":false,"is_disabled":false,"rental_uris":{"android":"levelo://app?vid=43d3d931-7c6f-4c75-b8a1-475f1c9311e9","ios":"levelo://app?vid=43d3d931-7c6f-4c75-b8a1-475f1c9311e9"},"vehicle_type_id":"4","last_reported":1678529227,"current_range_meters":4000,"station_id":"ce4bh212rcd13ifvqde0","pricing_plan_id":"free"},{"bike_id":"12c6b691-df2e-43b1-8ab5-363644e80452","system_id":"levelo_inurba_marseille","lat":43.286143,"lon":5.370583,"is_reserved":false,"is_disabled":false,"rental_uris":{"android":"levelo://app?vid=12c6b691-df2e-43b1-8ab5-363644e80452","ios":"levelo://app?vid=12c6b691-df2e-43b1-8ab5-363644e80452"},"vehicle_type_id":"4","last_reported":1678529227,"current_range_meters":12400,"station_id":"ce4bht12rcd13ifvqi60","pricing_plan_id":"free"},{"bike_id":"108489c4-8d17-4860-bd70-7964d633246c","system_id":"levelo_inurba_marseille","lat":43.28612,"lon":5.37061,"is_reserved":false,"is_disabled":false,"rental_uris":{"android":"levelo://app?vid=108489c4-8d17-4860-bd70-7964d633246c","ios":"levelo://app?vid=108489c4-8d17-4860-bd70-7964d633246c"},"vehicle_type_id":"4","last_reported":1678529227,"current_range_meters":27600,"station_id":"ce4bht12rcd13ifvqi60","pricing_plan_id":"free"},{"bike_id":"746d902c-a499-4dc0-81e2-e4606e2512d5","system_id":"levelo_inurba_marseille","lat":43.286039,"lon":5.370679,"is_reserved":false,"is_disabled":false,"rental_uris":{"android":"levelo://app?vid=746d902c-a499-4dc0-81e2-e4606e2512d5","ios":"levelo://app?vid=746d902c-a499-4dc0-81e2-e4606e2512d5"},"vehicle_type_id":"4","last_reported":1678529227,"current_range_meters":19600,"station_id":"ce4bht12rcd13ifvqi60","pricing_plan_id":"free"},{"bike_id":"33411fb2-ad94-416a-9d1c-af4b9fe2e6bb","system_id":"levelo_inurba_marseille","lat":43.28608,"lon":5.37066,"is_reserved":false,"is_disabled":false,"rental_uris":{"android":"levelo://app?vid=33411fb2-ad94-416a-9d1c-af4b9fe2e6bb","ios":"levelo://app?vid=33411fb2-ad94-416a-9d1c-af4b9fe2e6bb"},"vehicle_type_id":"4","last_reported":1678529227,"current_range_meters":25200,"station_id":"ce4bht12rcd13ifvqi60","pricing_plan_id":"free"},{"bike_id":"e5ac2f6f-68f9-41fc-817e-9e6f33a3dd31","system_id":"levelo_inurba_marseille","lat":43.28607,"lon":5.37061,"is_reserved":false,"is_disabled":false,"rental_uris":{"android":"levelo://app?vid=e5ac2f6f-68f9-41fc-817e-9e6f33a3dd31","ios":"levelo://app?vid=e5ac2f6f-68f9-41fc-817e-9e6f33a3dd31"},"vehicle_type_id":"4","last_reported":1678529227,"current_range_meters":18400,"station_id":"ce4bht12rcd13ifvqi60","pricing_plan_id":"free"},{"bike_id":"f9f747a2-62ec-4432-b4f5-26faaca9193d","system_id":"levelo_inurba_marseille","lat":43.28607,"lon":5.37064,"is_reserved":false,"is_disabled":false,"rental_uris":{"android":"levelo://app?vid=f9f747a2-62ec-4432-b4f5-26faaca9193d","ios":"levelo://app?vid=f9f747a2-62ec-4432-b4f5-26faaca9193d"},"vehicle_type_id":"4","last_reported":1678529227,"current_range_meters":19200,"station_id":"ce4bht12rcd13ifvqi60","pricing_plan_id":"free"},{"bike_id":"b0a911c6-3210-4baa-b7bf-230a5d5d509d","system_id":"levelo_inurba_marseille","lat":43.28606,"lon":5.37066,"is_reserved":false,"is_disabled":false,"rental_uris":{"android":"levelo://app?vid=b0a911c6-3210-4baa-b7bf-230a5d5d509d","ios":"levelo://app?vid=b0a911c6-3210-4baa-b7bf-230a5d5d509d"},"vehicle_type_id":"4","last_reported":1678529227,"current_range_meters":7600,"station_id":"ce4bht12rcd13ifvqi60","pricing_plan_id":"free"},{"bike_id":"afdc4a69-0bb2-4c71-b95f-a6e852c3ebff","system_id":"levelo_inurba_marseille","lat":43.28604,"lon":5.37066,"is_reserved":false,"is_disabled":false,"rental_uris":{"android":"levelo://app?vid=afdc4a69-0bb2-4c71-b95f-a6e852c3ebff","ios":"levelo://app?vid=afdc4a69-0bb2-4c71-b95f-a6e852c3ebff"},"vehicle_type_id":"4","last_reported":1678529227,"current_range_meters":18400,"station_id":"ce4bht12rcd13ifvqi60","pricing_plan_id":"free"},{"bike_id":"834e1c9b-decb-437a-89a0-d27ea572a0ab","system_id":"levelo_inurba_marseille","lat":43.287185,"lon":5.379373,"is_reserved":false,"is_disabled":false,"rental_uris":{"android":"levelo://app?vid=834e1c9b-decb-437a-89a0-d27ea572a0ab","ios":"levelo://app?vid=834e1c9b-decb-437a-89a0-d27ea572a0ab"},"vehicle_type_id":"4","last_reported":1678529227,"current_range_meters":19600,"station_id":"ce4bh9p2rcd13ifvqec0","pricing_plan_id":"free"},{"bike_id":"4a531354-3cda-427b-b4d1-efcbdbcd2bf0","system_id":"levelo_inurba_marseille","lat":43.287185,"lon":5.379373,"is_reserved":false,"is_disabled":false,"rental_uris":{"android":"levelo://app?vid=4a531354-3cda-427b-b4d1-efcbdbcd2bf0","ios":"levelo://app?vid=4a531354-3cda-427b-b4d1-efcbdbcd2bf0"},"vehicle_type_id":"4","last_reported":1678529227,"current_range_meters":25600,"station_id":"ce4bh9p2rcd13ifvqec0","pricing_plan_id":"free"},{"bike_id":"bda3c94c-751f-43df-9b55-e3aaa00af757","system_id":"levelo_inurba_marseille","lat":43.316517,"lon":5.404375,"is_reserved":false,"is_disabled":false,"rental_uris":{"android":"levelo://app?vid=bda3c94c-751f-43df-9b55-e3aaa00af757","ios":"levelo://app?vid=bda3c94c-751f-43df-9b55-e3aaa00af757"},"vehicle_type_id":"4","last_reported":1678529227,"current_range_meters":26800,"station_id":"ce4bh012rcd13ifvqd00","pricing_plan_id":"free"},{"bike_id":"283482ec-b1e6-4292-89f6-5c041a892a04","system_id":"levelo_inurba_marseille","lat":43.316517,"lon":5.404375,"is_reserved":false,"is_disabled":false,"rental_uris":{"android":"levelo://app?vid=283482ec-b1e6-4292-89f6-5c041a892a04","ios":"levelo://app?vid=283482ec-b1e6-4292-89f6-5c041a892a04"},"vehicle_type_id":"4","last_reported":1678529227,"current_range_meters":22800,"station_id":"ce4bh012rcd13ifvqd00","pricing_plan_id":"free"},{"bike_id":"92e4c49a-8f22-44f5-8b29-54caa999db77","system_id":"levelo_inurba_marseille","lat":43.316517,"lon":5.404375,"is_reserved":false,"is_disabled":false,"rental_uris":{"android":"levelo://app?vid=92e4c49a-8f22-44f5-8b29-54caa999db77","ios":"levelo://app?vid=92e4c49a-8f22-44f5-8b29-54caa999db77"},"vehicle_type_id":"4","last_reported":1678529227,"current_range_meters":28000,"station_id":"ce4bh012rcd13ifvqd00","pricing_plan_id":"free"},{"bike_id":"233cd70f-ae07-490a-b850-5c0890c6266d","system_id":"levelo_inurba_marseille","lat":43.316517,"lon":5.404375,"is_reserved":false,"is_disabled":false,"rental_uris":{"android":"levelo://app?vid=233cd70f-ae07-490a-b850-5c0890c6266d","ios":"levelo://app?vid=233cd70f-ae07-490a-b850-5c0890c6266d"},"vehicle_type_id":"4","last_reported":1678529227,"current_range_meters":30800,"station_id":"ce4bh012rcd13ifvqd00","pricing_plan_id":"free"},{"bike_id":"8359ec29-81cd-454e-86db-315925141fb1","system_id":"levelo_inurba_marseille","lat":43.316517,"lon":5.404375,"is_reserved":false,"is_disabled":false,"rental_uris":{"android":"levelo://app?vid=8359ec29-81cd-454e-86db-315925141fb1","ios":"levelo://app?vid=8359ec29-81cd-454e-86db-315925141fb1"},"vehicle_type_id":"4","last_reported":1678529227,"current_range_meters":31200,"station_id":"ce4bh012rcd13ifvqd00","pricing_plan_id":"free"},{"bike_id":"05e792dc-7cea-4599-accc-f9da832b4c05","system_id":"levelo_inurba_marseille","lat":43.316517,"lon":5.404375,"is_reserved":false,"is_disabled":false,"rental_uris":{"android":"levelo://app?vid=05e792dc-7cea-4599-accc-f9da832b4c05","ios":"levelo://app?vid=05e792dc-7cea-4599-accc-f9da832b4c05"},"vehicle_type_id":"4","last_reported":1678529227,"current_range_meters":27600,"station_id":"ce4bh012rcd13ifvqd00","pricing_plan_id":"free"},{"bike_id":"87c30a4a-db18-4376-8743-ea756f27b14b","system_id":"levelo_inurba_marseille","lat":43.316517,"lon":5.404375,"is_reserved":false,"is_disabled":false,"rental_uris":{"android":"levelo://app?vid=87c30a4a-db18-4376-8743-ea756f27b14b","ios":"levelo://app?vid=87c30a4a-db18-4376-8743-ea756f27b14b"},"vehicle_type_id":"4","last_reported":1678529227,"current_range_meters":31600,"station_id":"ce4bh012rcd13ifvqd00","pricing_plan_id":"free"},{"bike_id":"fc59079e-5199-4fd5-ba77-f84ed1d5976f","system_id":"levelo_inurba_marseille","lat":43.316517,"lon":5.404375,"is_reserved":false,"is_disabled":false,"rental_uris":{"android":"levelo://app?vid=fc59079e-5199-4fd5-ba77-f84ed1d5976f","ios":"levelo://app?vid=fc59079e-5199-4fd5-ba77-f84ed1d5976f"},"vehicle_type_id":"4","last_reported":1678529227,"current_range_meters":26400,"station_id":"ce4bh012rcd13ifvqd00","pricing_plan_id":"free"},{"bike_id":"24e96cae-6e15-400c-a9f2-7ee73713f185","system_id":"levelo_inurba_marseille","lat":43.316517,"lon":5.404375,"is_reserved":false,"is_disabled":false,"rental_uris":{"android":"levelo://app?vid=24e96cae-6e15-400c-a9f2-7ee73713f185","ios":"levelo://app?vid=24e96cae-6e15-400c-a9f2-7ee73713f185"},"vehicle_type_id":"4","last_reported":1678529227,"current_range_meters":29200,"station_id":"ce4bh012rcd13ifvqd00","pricing_plan_id":"free"},{"bike_id":"add5150c-4f18-48dd-af62-a5992cab0a58","system_id":"levelo_inurba_marseille","lat":43.316517,"lon":5.404375,"is_reserved":false,"is_disabled":false,"rental_uris":{"android":"levelo://app?vid=add5150c-4f18-48dd-af62-a5992cab0a58","ios":"levelo://app?vid=add5150c-4f18-48dd-af62-a5992cab0a58"},"vehicle_type_id":"4","last_reported":1678529227,"current_range_meters":31600,"station_id":"ce4bh012rcd13ifvqd00","pricing_plan_id":"free"},{"bike_id":"1b81e5f2-4ab7-4b94-98f1-0e01bc09ad8b","system_id":"levelo_inurba_marseille","lat":43.316517,"lon":5.404375,"is_reserved":false,"is_disabled":false,"rental_uris":{"android":"levelo://app?vid=1b81e5f2-4ab7-4b94-98f1-0e01bc09ad8b","ios":"levelo://app?vid=1b81e5f2-4ab7-4b94-98f1-0e01bc09ad8b"},"vehicle_type_id":"4","last_reported":1678529227,"current_range_meters":800,"station_id":"ce4bh012rcd13ifvqd00","pricing_plan_id":"free"},{"bike_id":"883a3bdf-7544-4e7c-8715-65a2d99f57a9","system_id":"levelo_inurba_marseille","lat":43.28465,"lon":5.35886,"is_reserved":false,"is_disabled":false,"rental_uris":{"android":"levelo://app?vid=883a3bdf-7544-4e7c-8715-65a2d99f57a9","ios":"levelo://app?vid=883a3bdf-7544-4e7c-8715-65a2d99f57a9"},"vehicle_type_id":"4","last_reported":1678529227,"current_range_meters":22800,"station_id":"","pricing_plan_id":"free"},{"bike_id":"76847b6d-11ba-4923-bbdd-3a1229493e58","system_id":"levelo_inurba_marseille","lat":43.337168,"lon":5.391825,"is_reserved":false,"is_disabled":false,"rental_uris":{"android":"levelo://app?vid=76847b6d-11ba-4923-bbdd-3a1229493e58","ios":"levelo://app?vid=76847b6d-11ba-4923-bbdd-3a1229493e58"},"vehicle_type_id":"4","last_reported":1678529227,"current_range_meters":24000,"station_id":"ce4bhr92rcd13ifvqhsg","pricing_plan_id":"free"},{"bike_id":"9f00a16a-14f0-41e0-b020-55e96a55cc34","system_id":"levelo_inurba_marseille","lat":43.32336,"lon":5.40616,"is_reserved":false,"is_disabled":false,"rental_uris":{"android":"levelo://app?vid=9f00a16a-14f0-41e0-b020-55e96a55cc34","ios":"levelo://app?vid=9f00a16a-14f0-41e0-b020-55e96a55cc34"},"vehicle_type_id":"4","last_reported":1678529227,"current_range_meters":0,"station_id":"","pricing_plan_id":"free"},{"bike_id":"eb0f8dfa-4b5c-41b0-b9cc-aa168d8462bd","system_id":"levelo_inurba_marseille","lat":43.337168,"lon":5.391825,"is_reserved":false,"is_disabled":false,"rental_uris":{"android":"levelo://app?vid=eb0f8dfa-4b5c-41b0-b9cc-aa168d8462bd","ios":"levelo://app?vid=eb0f8dfa-4b5c-41b0-b9cc-aa168d8462bd"},"vehicle_type_id":"4","last_reported":1678529227,"current_range_meters":13200,"station_id":"ce4bhr92rcd13ifvqhsg","pricing_plan_id":"free"},{"bike_id":"7fe7ded2-595f-4c37-a50b-7f9a866a9b94","system_id":"levelo_inurba_marseille","lat":43.32338,"lon":5.4062,"is_reserved":false,"is_disabled":false,"rental_uris":{"android":"levelo://app?vid=7fe7ded2-595f-4c37-a50b-7f9a866a9b94","ios":"levelo://app?vid=7fe7ded2-595f-4c37-a50b-7f9a866a9b94"},"vehicle_type_id":"4","last_reported":1678529227,"current_range_meters":8800,"station_id":"","pricing_plan_id":"free"},{"bike_id":"0974b96d-f8a5-42ee-ada1-9213f022573f","system_id":"levelo_inurba_marseille","lat":43.32334,"lon":5.40624,"is_reserved":false,"is_disabled":false,"rental_uris":{"android":"levelo://app?vid=0974b96d-f8a5-42ee-ada1-9213f022573f","ios":"levelo://app?vid=0974b96d-f8a5-42ee-ada1-9213f022573f"},"vehicle_type_id":"4","last_reported":1678529227,"current_range_meters":20400,"station_id":"ce4bhq92rcd13ifvqhjg","pricing_plan_id":"free"},{"bike_id":"2f587577-e724-4d6c-b766-df0c92c3d293","system_id":"levelo_inurba_marseille","lat":43.323417,"lon":5.406201,"is_reserved":false,"is_disabled":false,"rental_uris":{"android":"levelo://app?vid=2f587577-e724-4d6c-b766-df0c92c3d293","ios":"levelo://app?vid=2f587577-e724-4d6c-b766-df0c92c3d293"},"vehicle_type_id":"4","last_reported":1678529227,"current_range_meters":0,"station_id":"ce4bhq92rcd13ifvqhjg","pricing_plan_id":"free"},{"bike_id":"634a0d6a-292b-43cb-8ab2-3e28936bd75e","system_id":"levelo_inurba_marseille","lat":43.285714,"lon":5.386509,"is_reserved":false,"is_disabled":false,"rental_uris":{"android":"levelo://app?vid=634a0d6a-292b-43cb-8ab2-3e28936bd75e","ios":"levelo://app?vid=634a0d6a-292b-43cb-8ab2-3e28936bd75e"},"vehicle_type_id":"4","last_reported":1678529227,"current_range_meters":0,"station_id":"","pricing_plan_id":"free"},{"bike_id":"48b6cead-6b1b-49b1-a9c0-5a7d9e5cb522","system_id":"levelo_inurba_marseille","lat":43.284787,"lon":5.384116,"is_reserved":false,"is_disabled":false,"rental_uris":{"android":"levelo://app?vid=48b6cead-6b1b-49b1-a9c0-5a7d9e5cb522","ios":"levelo://app?vid=48b6cead-6b1b-49b1-a9c0-5a7d9e5cb522"},"vehicle_type_id":"4","last_reported":1678529227,"current_range_meters":20400,"station_id":"ce4bh512rcd13ifvqe3g","pricing_plan_id":"free"},{"bike_id":"99d42e2f-1279-49e5-a569-52cda2cf6225","system_id":"levelo_inurba_marseille","lat":43.284782,"lon":5.384066,"is_reserved":false,"is_disabled":false,"rental_uris":{"android":"levelo://app?vid=99d42e2f-1279-49e5-a569-52cda2cf6225","ios":"levelo://app?vid=99d42e2f-1279-49e5-a569-52cda2cf6225"},"vehicle_type_id":"4","last_reported":1678529227,"current_range_meters":0,"station_id":"","pricing_plan_id":"free"},{"bike_id":"3b97dff0-10bd-408b-91ef-9f8771f80a14","system_id":"levelo_inurba_marseille","lat":43.284797,"lon":5.384215,"is_reserved":false,"is_disabled":false,"rental_uris":{"android":"levelo://app?vid=3b97dff0-10bd-408b-91ef-9f8771f80a14","ios":"levelo://app?vid=3b97dff0-10bd-408b-91ef-9f8771f80a14"},"vehicle_type_id":"4","last_reported":1678529227,"current_range_meters":31200,"station_id":"","pricing_plan_id":"free"},{"bike_id":"07976f46-a8e8-47dc-bd31-27b580d62459","system_id":"levelo_inurba_marseille","lat":43.284793,"lon":5.384119,"is_reserved":false,"is_disabled":false,"rental_uris":{"android":"levelo://app?vid=07976f46-a8e8-47dc-bd31-27b580d62459","ios":"levelo://app?vid=07976f46-a8e8-47dc-bd31-27b580d62459"},"vehicle_type_id":"4","last_reported":1678529227,"current_range_meters":20800,"station_id":"ce4bh512rcd13ifvqe3g","pricing_plan_id":"free"},{"bike_id":"f6ecc885-5119-4625-b330-db04a5966ee8","system_id":"levelo_inurba_marseille","lat":43.28477,"lon":5.38427,"is_reserved":false,"is_disabled":false,"rental_uris":{"android":"levelo://app?vid=f6ecc885-5119-4625-b330-db04a5966ee8","ios":"levelo://app?vid=f6ecc885-5119-4625-b330-db04a5966ee8"},"vehicle_type_id":"4","last_reported":1678529227,"current_range_meters":30800,"station_id":"ce4bh512rcd13ifvqe3g","pricing_plan_id":"free"},{"bike_id":"eb3d2440-9c0d-4027-bd50-023d1e52dfb7","system_id":"levelo_inurba_marseille","lat":43.284793,"lon":5.384119,"is_reserved":false,"is_disabled":false,"rental_uris":{"android":"levelo://app?vid=eb3d2440-9c0d-4027-bd50-023d1e52dfb7","ios":"levelo://app?vid=eb3d2440-9c0d-4027-bd50-023d1e52dfb7"},"vehicle_type_id":"4","last_reported":1678529227,"current_range_meters":19200,"station_id":"ce4bh512rcd13ifvqe3g","pricing_plan_id":"free"},{"bike_id":"bb9d38c6-b21b-43ea-a2e4-d794ae7e1a0f","system_id":"levelo_inurba_marseille","lat":43.284787,"lon":5.384116,"is_reserved":false,"is_disabled":false,"rental_uris":{"android":"levelo://app?vid=bb9d38c6-b21b-43ea-a2e4-d794ae7e1a0f","ios":"levelo://app?vid=bb9d38c6-b21b-43ea-a2e4-d794ae7e1a0f"},"vehicle_type_id":"4","last_reported":1678529227,"current_range_meters":31200,"station_id":"ce4bh512rcd13ifvqe3g","pricing_plan_id":"free"},{"bike_id":"a24e8b09-cc47-477d-ae3f-0b139eeda507","system_id":"levelo_inurba_marseille","lat":43.288497,"lon":5.393089,"is_reserved":false,"is_disabled":false,"rental_uris":{"android":"levelo://app?vid=a24e8b09-cc47-477d-ae3f-0b139eeda507","ios":"levelo://app?vid=a24e8b09-cc47-477d-ae3f-0b139eeda507"},"vehicle_type_id":"4","last_reported":1678529227,"current_range_meters":24400,"station_id":"ce4bh2p2rcd13ifvqdi0","pricing_plan_id":"free"},{"bike_id":"611d4963-3ce3-422a-a6f3-618ae055b1ca","system_id":"levelo_inurba_marseille","lat":43.284191,"lon":5.349798,"is_reserved":false,"is_disabled":false,"rental_uris":{"android":"levelo://app?vid=611d4963-3ce3-422a-a6f3-618ae055b1ca","ios":"levelo://app?vid=611d4963-3ce3-422a-a6f3-618ae055b1ca"},"vehicle_type_id":"4","last_reported":1678529227,"current_range_meters":0,"station_id":"","pricing_plan_id":"free"},{"bike_id":"d643d077-1c05-489c-9fd4-f388cb48123f","system_id":"levelo_inurba_marseille","lat":43.289363,"lon":5.396322,"is_reserved":false,"is_disabled":false,"rental_uris":{"android":"levelo://app?vid=d643d077-1c05-489c-9fd4-f388cb48123f","ios":"levelo://app?vid=d643d077-1c05-489c-9fd4-f388cb48123f"},"vehicle_type_id":"4","last_reported":1678529227,"current_range_meters":31600,"station_id":"ce4bh3h2rcd13ifvqdn0","pricing_plan_id":"free"},{"bike_id":"e68f860d-affc-48ef-a729-279f34630165","system_id":"levelo_inurba_marseille","lat":43.289363,"lon":5.396322,"is_reserved":false,"is_disabled":false,"rental_uris":{"android":"levelo://app?vid=e68f860d-affc-48ef-a729-279f34630165","ios":"levelo://app?vid=e68f860d-affc-48ef-a729-279f34630165"},"vehicle_type_id":"4","last_reported":1678529227,"current_range_meters":24800,"station_id":"ce4bh3h2rcd13ifvqdn0","pricing_plan_id":"free"},{"bike_id":"8b98e011-4a3c-4f8a-a509-832ce7cd1416","system_id":"levelo_inurba_marseille","lat":43.289363,"lon":5.396322,"is_reserved":false,"is_disabled":false,"rental_uris":{"android":"levelo://app?vid=8b98e011-4a3c-4f8a-a509-832ce7cd1416","ios":"levelo://app?vid=8b98e011-4a3c-4f8a-a509-832ce7cd1416"},"vehicle_type_id":"4","last_reported":1678529227,"current_range_meters":19600,"station_id":"ce4bh3h2rcd13ifvqdn0","pricing_plan_id":"free"},{"bike_id":"ce465a31-318f-4aff-a9ca-595c6e0a09d1","system_id":"levelo_inurba_marseille","lat":43.292724,"lon":5.401131,"is_reserved":false,"is_disabled":false,"rental_uris":{"android":"levelo://app?vid=ce465a31-318f-4aff-a9ca-595c6e0a09d1","ios":"levelo://app?vid=ce465a31-318f-4aff-a9ca-595c6e0a09d1"},"vehicle_type_id":"4","last_reported":1678529227,"current_range_meters":12400,"station_id":"ce4bh312rcd13ifvqdk0","pricing_plan_id":"free"},{"bike_id":"02505ec4-771a-441d-88c9-16c7b6f4131e","system_id":"levelo_inurba_marseille","lat":43.282744,"lon":5.350533,"is_reserved":false,"is_disabled":false,"rental_uris":{"android":"levelo://app?vid=02505ec4-771a-441d-88c9-16c7b6f4131e","ios":"levelo://app?vid=02505ec4-771a-441d-88c9-16c7b6f4131e"},"vehicle_type_id":"4","last_reported":1678529227,"current_range_meters":0,"station_id":"ce4bhbp2rcd13ifvqerg","pricing_plan_id":"free"},{"bike_id":"7ad30399-4753-4078-96bd-704855f8b440","system_id":"levelo_inurba_marseille","lat":43.282718,"lon":5.350708,"is_reserved":false,"is_disabled":false,"rental_uris":{"android":"levelo://app?vid=7ad30399-4753-4078-96bd-704855f8b440","ios":"levelo://app?vid=7ad30399-4753-4078-96bd-704855f8b440"},"vehicle_type_id":"4","last_reported":1678529227,"current_range_meters":0,"station_id":"ce4bhbp2rcd13ifvqerg","pricing_plan_id":"free"},{"bike_id":"0d81887e-014f-4fd6-abb5-55ef89135ba9","system_id":"levelo_inurba_marseille","lat":43.283502,"lon":5.386471,"is_reserved":false,"is_disabled":false,"rental_uris":{"android":"levelo://app?vid=0d81887e-014f-4fd6-abb5-55ef89135ba9","ios":"levelo://app?vid=0d81887e-014f-4fd6-abb5-55ef89135ba9"},"vehicle_type_id":"4","last_reported":1678529227,"current_range_meters":27600,"station_id":"ce4bh492rcd13ifvqdvg","pricing_plan_id":"free"},{"bike_id":"7aa385db-5ce3-42e5-b766-cc2f6418ae4e","system_id":"levelo_inurba_marseille","lat":43.282695,"lon":5.350657,"is_reserved":false,"is_disabled":false,"rental_uris":{"android":"levelo://app?vid=7aa385db-5ce3-42e5-b766-cc2f6418ae4e","ios":"levelo://app?vid=7aa385db-5ce3-42e5-b766-cc2f6418ae4e"},"vehicle_type_id":"4","last_reported":1678529227,"current_range_meters":0,"station_id":"ce4bhbp2rcd13ifvqerg","pricing_plan_id":"free"},{"bike_id":"8527549d-b655-4c8e-b7c1-e1b3d5c46407","system_id":"levelo_inurba_marseille","lat":43.2804,"lon":5.36945,"is_reserved":false,"is_disabled":false,"rental_uris":{"android":"levelo://app?vid=8527549d-b655-4c8e-b7c1-e1b3d5c46407","ios":"levelo://app?vid=8527549d-b655-4c8e-b7c1-e1b3d5c46407"},"vehicle_type_id":"4","last_reported":1678529227,"current_range_meters":22000,"station_id":"","pricing_plan_id":"free"},{"bike_id":"1b00de04-7acb-4fc1-aed2-c879ed5003aa","system_id":"levelo_inurba_marseille","lat":43.280317,"lon":5.36938,"is_reserved":false,"is_disabled":false,"rental_uris":{"android":"levelo://app?vid=1b00de04-7acb-4fc1-aed2-c879ed5003aa","ios":"levelo://app?vid=1b00de04-7acb-4fc1-aed2-c879ed5003aa"},"vehicle_type_id":"4","last_reported":1678529227,"current_range_meters":0,"station_id":"","pricing_plan_id":"free"},{"bike_id":"0e64f7b3-2fd0-4303-acf8-3706b1daadd6","system_id":"levelo_inurba_marseille","lat":43.281044,"lon":5.378308,"is_reserved":false,"is_disabled":false,"rental_uris":{"android":"levelo://app?vid=0e64f7b3-2fd0-4303-acf8-3706b1daadd6","ios":"levelo://app?vid=0e64f7b3-2fd0-4303-acf8-3706b1daadd6"},"vehicle_type_id":"4","last_reported":1678529227,"current_range_meters":18400,"station_id":"ce4bha12rcd13ifvqee0","pricing_plan_id":"free"},{"bike_id":"dd009eab-93ac-4c41-951b-45c78eb95178","system_id":"levelo_inurba_marseille","lat":43.296336,"lon":5.405992,"is_reserved":false,"is_disabled":false,"rental_uris":{"android":"levelo://app?vid=dd009eab-93ac-4c41-951b-45c78eb95178","ios":"levelo://app?vid=dd009eab-93ac-4c41-951b-45c78eb95178"},"vehicle_type_id":"4","last_reported":1678529227,"current_range_meters":0,"station_id":"ce4bh0h2rcd13ifvqd60","pricing_plan_id":"free"},{"bike_id":"7a2a8535-f45d-4cce-918c-8f6b60f833cc","system_id":"levelo_inurba_marseille","lat":43.28099,"lon":5.37853,"is_reserved":false,"is_disabled":false,"rental_uris":{"android":"levelo://app?vid=7a2a8535-f45d-4cce-918c-8f6b60f833cc","ios":"levelo://app?vid=7a2a8535-f45d-4cce-918c-8f6b60f833cc"},"vehicle_type_id":"4","last_reported":1678529227,"current_range_meters":24800,"station_id":"ce4bha12rcd13ifvqee0","pricing_plan_id":"free"},{"bike_id":"9547b3b0-3278-4b16-8da9-8ed37da777fb","system_id":"levelo_inurba_marseille","lat":43.281044,"lon":5.378308,"is_reserved":false,"is_disabled":false,"rental_uris":{"android":"levelo://app?vid=9547b3b0-3278-4b16-8da9-8ed37da777fb","ios":"levelo://app?vid=9547b3b0-3278-4b16-8da9-8ed37da777fb"},"vehicle_type_id":"4","last_reported":1678529227,"current_range_meters":0,"station_id":"ce4bha12rcd13ifvqee0","pricing_plan_id":"free"},{"bike_id":"02ead1b4-5cee-4d3d-a579-8c97cd06bc0e","system_id":"levelo_inurba_marseille","lat":43.284462,"lon":5.392121,"is_reserved":false,"is_disabled":false,"rental_uris":{"android":"levelo://app?vid=02ead1b4-5cee-4d3d-a579-8c97cd06bc0e","ios":"levelo://app?vid=02ead1b4-5cee-4d3d-a579-8c97cd06bc0e"},"vehicle_type_id":"4","last_reported":1678529227,"current_range_meters":14800,"station_id":"ce4bhoh2rcd13ifvqh5g","pricing_plan_id":"free"},{"bike_id":"74802502-096c-4e8c-b119-b5b4e1845bea","system_id":"levelo_inurba_marseille","lat":43.284462,"lon":5.392121,"is_reserved":false,"is_disabled":false,"rental_uris":{"android":"levelo://app?vid=74802502-096c-4e8c-b119-b5b4e1845bea","ios":"levelo://app?vid=74802502-096c-4e8c-b119-b5b4e1845bea"},"vehicle_type_id":"4","last_reported":1678529227,"current_range_meters":23600,"station_id":"ce4bhoh2rcd13ifvqh5g","pricing_plan_id":"free"},{"bike_id":"e736322b-db1a-4bd8-bea1-662a7464c523","system_id":"levelo_inurba_marseille","lat":43.286345,"lon":5.39955,"is_reserved":false,"is_disabled":false,"rental_uris":{"android":"levelo://app?vid=e736322b-db1a-4bd8-bea1-662a7464c523","ios":"levelo://app?vid=e736322b-db1a-4bd8-bea1-662a7464c523"},"vehicle_type_id":"4","last_reported":1678529227,"current_range_meters":0,"station_id":"","pricing_plan_id":"free"},{"bike_id":"9398ed13-19f9-4818-8990-e991eea7c425","system_id":"levelo_inurba_marseille","lat":43.32536,"lon":5.41256,"is_reserved":false,"is_disabled":false,"rental_uris":{"android":"levelo://app?vid=9398ed13-19f9-4818-8990-e991eea7c425","ios":"levelo://app?vid=9398ed13-19f9-4818-8990-e991eea7c425"},"vehicle_type_id":"4","last_reported":1678529227,"current_range_meters":0,"station_id":"","pricing_plan_id":"free"},{"bike_id":"3a832705-2d3e-4441-b40d-06d4c11b3c1d","system_id":"levelo_inurba_marseille","lat":43.299579,"lon":5.413255,"is_reserved":false,"is_disabled":false,"rental_uris":{"android":"levelo://app?vid=3a832705-2d3e-4441-b40d-06d4c11b3c1d","ios":"levelo://app?vid=3a832705-2d3e-4441-b40d-06d4c11b3c1d"},"vehicle_type_id":"4","last_reported":1678529227,"current_range_meters":22000,"station_id":"ce4bhp12rcd13ifvqh9g","pricing_plan_id":"free"},{"bike_id":"5fdfa939-adf7-4321-a16e-1b354e084d2c","system_id":"levelo_inurba_marseille","lat":43.320045,"lon":5.415048,"is_reserved":false,"is_disabled":false,"rental_uris":{"android":"levelo://app?vid=5fdfa939-adf7-4321-a16e-1b354e084d2c","ios":"levelo://app?vid=5fdfa939-adf7-4321-a16e-1b354e084d2c"},"vehicle_type_id":"4","last_reported":1678529227,"current_range_meters":17200,"station_id":"ce4bhq92rcd13ifvqhkg","pricing_plan_id":"free"},{"bike_id":"fbdbd213-9638-4fd4-bc9a-9d79c36f6648","system_id":"levelo_inurba_marseille","lat":43.27962,"lon":5.38713,"is_reserved":false,"is_disabled":false,"rental_uris":{"android":"levelo://app?vid=fbdbd213-9638-4fd4-bc9a-9d79c36f6648","ios":"levelo://app?vid=fbdbd213-9638-4fd4-bc9a-9d79c36f6648"},"vehicle_type_id":"4","last_reported":1678529227,"current_range_meters":10000,"station_id":"ce4bhg12rcd13ifvqf80","pricing_plan_id":"free"},{"bike_id":"23601da8-8c4b-4350-9995-9f56e4986b7d","system_id":"levelo_inurba_marseille","lat":43.2796,"lon":5.387124,"is_reserved":false,"is_disabled":false,"rental_uris":{"android":"levelo://app?vid=23601da8-8c4b-4350-9995-9f56e4986b7d","ios":"levelo://app?vid=23601da8-8c4b-4350-9995-9f56e4986b7d"},"vehicle_type_id":"4","last_reported":1678529227,"current_range_meters":30000,"station_id":"ce4bhg12rcd13ifvqf80","pricing_plan_id":"free"},{"bike_id":"f3701f72-777e-4adb-a643-fb3413e6c0bf","system_id":"levelo_inurba_marseille","lat":43.279598,"lon":5.387158,"is_reserved":false,"is_disabled":false,"rental_uris":{"android":"levelo://app?vid=f3701f72-777e-4adb-a643-fb3413e6c0bf","ios":"levelo://app?vid=f3701f72-777e-4adb-a643-fb3413e6c0bf"},"vehicle_type_id":"4","last_reported":1678529227,"current_range_meters":31600,"station_id":"ce4bhg12rcd13ifvqf80","pricing_plan_id":"free"},{"bike_id":"752392a3-8b3d-47c7-8499-0ec626caa87c","system_id":"levelo_inurba_marseille","lat":43.279552,"lon":5.387045,"is_reserved":false,"is_disabled":false,"rental_uris":{"android":"levelo://app?vid=752392a3-8b3d-47c7-8499-0ec626caa87c","ios":"levelo://app?vid=752392a3-8b3d-47c7-8499-0ec626caa87c"},"vehicle_type_id":"4","last_reported":1678529227,"current_range_meters":27200,"station_id":"ce4bhg12rcd13ifvqf80","pricing_plan_id":"free"},{"bike_id":"1a174151-1a22-4d28-90cd-781999a62f9a","system_id":"levelo_inurba_marseille","lat":43.279546,"lon":5.387092,"is_reserved":false,"is_disabled":false,"rental_uris":{"android":"levelo://app?vid=1a174151-1a22-4d28-90cd-781999a62f9a","ios":"levelo://app?vid=1a174151-1a22-4d28-90cd-781999a62f9a"},"vehicle_type_id":"4","last_reported":1678529227,"current_range_meters":26400,"station_id":"ce4bhg12rcd13ifvqf80","pricing_plan_id":"free"},{"bike_id":"fcc52d20-60ba-49b9-9acc-557ad4e9e97b","system_id":"levelo_inurba_marseille","lat":43.276187,"lon":5.361136,"is_reserved":false,"is_disabled":false,"rental_uris":{"android":"levelo://app?vid=fcc52d20-60ba-49b9-9acc-557ad4e9e97b","ios":"levelo://app?vid=fcc52d20-60ba-49b9-9acc-557ad4e9e97b"},"vehicle_type_id":"4","last_reported":1678529227,"current_range_meters":0,"station_id":"ce4bgj92rcd13ifvqbe0","pricing_plan_id":"free"},{"bike_id":"76c009d3-d68d-40ef-9f50-72c3556e8400","system_id":"levelo_inurba_marseille","lat":43.33598,"lon":5.409921,"is_reserved":false,"is_disabled":false,"rental_uris":{"android":"levelo://app?vid=76c009d3-d68d-40ef-9f50-72c3556e8400","ios":"levelo://app?vid=76c009d3-d68d-40ef-9f50-72c3556e8400"},"vehicle_type_id":"4","last_reported":1678529227,"current_range_meters":26800,"station_id":"","pricing_plan_id":"free"},{"bike_id":"ae6f9ace-4f55-46fb-8a36-ffffc7f8e2b2","system_id":"levelo_inurba_marseille","lat":43.27379,"lon":5.362504,"is_reserved":false,"is_disabled":false,"rental_uris":{"android":"levelo://app?vid=ae6f9ace-4f55-46fb-8a36-ffffc7f8e2b2","ios":"levelo://app?vid=ae6f9ace-4f55-46fb-8a36-ffffc7f8e2b2"},"vehicle_type_id":"4","last_reported":1678529227,"current_range_meters":0,"station_id":"ce4bhbh2rcd13ifvqeo0","pricing_plan_id":"free"},{"bike_id":"7d3a1e4b-58a6-4494-a80c-8c4f4ef04af8","system_id":"levelo_inurba_marseille","lat":43.33612,"lon":5.410321,"is_reserved":false,"is_disabled":false,"rental_uris":{"android":"levelo://app?vid=7d3a1e4b-58a6-4494-a80c-8c4f4ef04af8","ios":"levelo://app?vid=7d3a1e4b-58a6-4494-a80c-8c4f4ef04af8"},"vehicle_type_id":"4","last_reported":1678529227,"current_range_meters":26800,"station_id":"ce4bhqh2rcd13ifvqhmg","pricing_plan_id":"free"},{"bike_id":"a28aa652-2fd7-4c75-81e1-9e734eb8c0d3","system_id":"levelo_inurba_marseille","lat":43.33612,"lon":5.410321,"is_reserved":false,"is_disabled":false,"rental_uris":{"android":"levelo://app?vid=a28aa652-2fd7-4c75-81e1-9e734eb8c0d3","ios":"levelo://app?vid=a28aa652-2fd7-4c75-81e1-9e734eb8c0d3"},"vehicle_type_id":"4","last_reported":1678529227,"current_range_meters":20800,"station_id":"ce4bhqh2rcd13ifvqhmg","pricing_plan_id":"free"},{"bike_id":"cc25412d-692f-472d-8dc6-c0bdca783751","system_id":"levelo_inurba_marseille","lat":43.336148,"lon":5.410349,"is_reserved":false,"is_disabled":false,"rental_uris":{"android":"levelo://app?vid=cc25412d-692f-472d-8dc6-c0bdca783751","ios":"levelo://app?vid=cc25412d-692f-472d-8dc6-c0bdca783751"},"vehicle_type_id":"4","last_reported":1678529227,"current_range_meters":21200,"station_id":"ce4bhqh2rcd13ifvqhmg","pricing_plan_id":"free"},{"bike_id":"d8ee8fb5-0f04-44b2-a85e-67decd8c0010","system_id":"levelo_inurba_marseille","lat":43.33612,"lon":5.410321,"is_reserved":false,"is_disabled":false,"rental_uris":{"android":"levelo://app?vid=d8ee8fb5-0f04-44b2-a85e-67decd8c0010","ios":"levelo://app?vid=d8ee8fb5-0f04-44b2-a85e-67decd8c0010"},"vehicle_type_id":"4","last_reported":1678529227,"current_range_meters":20400,"station_id":"ce4bhqh2rcd13ifvqhmg","pricing_plan_id":"free"},{"bike_id":"79a6d6f7-9848-4c28-9755-9126a2d1ef53","system_id":"levelo_inurba_marseille","lat":43.336015,"lon":5.410253,"is_reserved":false,"is_disabled":false,"rental_uris":{"android":"levelo://app?vid=79a6d6f7-9848-4c28-9755-9126a2d1ef53","ios":"levelo://app?vid=79a6d6f7-9848-4c28-9755-9126a2d1ef53"},"vehicle_type_id":"4","last_reported":1678529227,"current_range_meters":24000,"station_id":"","pricing_plan_id":"free"},{"bike_id":"be6321f3-6439-48bc-b19b-90a05fe235b7","system_id":"levelo_inurba_marseille","lat":43.33612,"lon":5.410321,"is_reserved":false,"is_disabled":false,"rental_uris":{"android":"levelo://app?vid=be6321f3-6439-48bc-b19b-90a05fe235b7","ios":"levelo://app?vid=be6321f3-6439-48bc-b19b-90a05fe235b7"},"vehicle_type_id":"4","last_reported":1678529227,"current_range_meters":31600,"station_id":"ce4bhqh2rcd13ifvqhmg","pricing_plan_id":"free"},{"bike_id":"ea9082ca-9453-4eee-ba32-5187a8e8d3c2","system_id":"levelo_inurba_marseille","lat":43.336148,"lon":5.410349,"is_reserved":false,"is_disabled":false,"rental_uris":{"android":"levelo://app?vid=ea9082ca-9453-4eee-ba32-5187a8e8d3c2","ios":"levelo://app?vid=ea9082ca-9453-4eee-ba32-5187a8e8d3c2"},"vehicle_type_id":"4","last_reported":1678529227,"current_range_meters":27600,"station_id":"ce4bhqh2rcd13ifvqhmg","pricing_plan_id":"free"},{"bike_id":"d0dbd069-bf22-4df8-b15c-1f2f60538f33","system_id":"levelo_inurba_marseille","lat":43.33612,"lon":5.410321,"is_reserved":false,"is_disabled":false,"rental_uris":{"android":"levelo://app?vid=d0dbd069-bf22-4df8-b15c-1f2f60538f33","ios":"levelo://app?vid=d0dbd069-bf22-4df8-b15c-1f2f60538f33"},"vehicle_type_id":"4","last_reported":1678529227,"current_range_meters":17200,"station_id":"ce4bhqh2rcd13ifvqhmg","pricing_plan_id":"free"},{"bike_id":"9125830e-f968-4976-a4a0-cbfa76a7fd96","system_id":"levelo_inurba_marseille","lat":43.33612,"lon":5.410321,"is_reserved":false,"is_disabled":false,"rental_uris":{"android":"levelo://app?vid=9125830e-f968-4976-a4a0-cbfa76a7fd96","ios":"levelo://app?vid=9125830e-f968-4976-a4a0-cbfa76a7fd96"},"vehicle_type_id":"4","last_reported":1678529227,"current_range_meters":4800,"station_id":"ce4bhqh2rcd13ifvqhmg","pricing_plan_id":"free"},{"bike_id":"4886aa5f-1330-4874-b921-972c56b3d9c0","system_id":"levelo_inurba_marseille","lat":43.336134,"lon":5.410341,"is_reserved":false,"is_disabled":false,"rental_uris":{"android":"levelo://app?vid=4886aa5f-1330-4874-b921-972c56b3d9c0","ios":"levelo://app?vid=4886aa5f-1330-4874-b921-972c56b3d9c0"},"vehicle_type_id":"4","last_reported":1678529227,"current_range_meters":13600,"station_id":"ce4bhqh2rcd13ifvqhmg","pricing_plan_id":"free"},{"bike_id":"e8a41a3d-de80-47e0-91a9-bf7b54906bd7","system_id":"levelo_inurba_marseille","lat":43.336134,"lon":5.410341,"is_reserved":false,"is_disabled":false,"rental_uris":{"android":"levelo://app?vid=e8a41a3d-de80-47e0-91a9-bf7b54906bd7","ios":"levelo://app?vid=e8a41a3d-de80-47e0-91a9-bf7b54906bd7"},"vehicle_type_id":"4","last_reported":1678529227,"current_range_meters":28800,"station_id":"ce4bhqh2rcd13ifvqhmg","pricing_plan_id":"free"},{"bike_id":"15c09e9d-7e57-486f-8afa-2a479ff732d2","system_id":"levelo_inurba_marseille","lat":43.336134,"lon":5.410341,"is_reserved":false,"is_disabled":false,"rental_uris":{"android":"levelo://app?vid=15c09e9d-7e57-486f-8afa-2a479ff732d2","ios":"levelo://app?vid=15c09e9d-7e57-486f-8afa-2a479ff732d2"},"vehicle_type_id":"4","last_reported":1678529227,"current_range_meters":26400,"station_id":"ce4bhqh2rcd13ifvqhmg","pricing_plan_id":"free"},{"bike_id":"818692db-4365-49eb-8666-d3de504c07a4","system_id":"levelo_inurba_marseille","lat":43.33608,"lon":5.41025,"is_reserved":false,"is_disabled":false,"rental_uris":{"android":"levelo://app?vid=818692db-4365-49eb-8666-d3de504c07a4","ios":"levelo://app?vid=818692db-4365-49eb-8666-d3de504c07a4"},"vehicle_type_id":"4","last_reported":1678529227,"current_range_meters":19200,"station_id":"ce4bhqh2rcd13ifvqhmg","pricing_plan_id":"free"},{"bike_id":"a048064c-fef9-4616-af3e-1124450e4e07","system_id":"levelo_inurba_marseille","lat":43.336134,"lon":5.410341,"is_reserved":false,"is_disabled":false,"rental_uris":{"android":"levelo://app?vid=a048064c-fef9-4616-af3e-1124450e4e07","ios":"levelo://app?vid=a048064c-fef9-4616-af3e-1124450e4e07"},"vehicle_type_id":"4","last_reported":1678529227,"current_range_meters":5600,"station_id":"ce4bhqh2rcd13ifvqhmg","pricing_plan_id":"free"},{"bike_id":"0f279910-81ea-459b-9d8b-0e275b1faea5","system_id":"levelo_inurba_marseille","lat":43.336148,"lon":5.410349,"is_reserved":false,"is_disabled":false,"rental_uris":{"android":"levelo://app?vid=0f279910-81ea-459b-9d8b-0e275b1faea5","ios":"levelo://app?vid=0f279910-81ea-459b-9d8b-0e275b1faea5"},"vehicle_type_id":"4","last_reported":1678529227,"current_range_meters":28000,"station_id":"ce4bhqh2rcd13ifvqhmg","pricing_plan_id":"free"},{"bike_id":"58988db0-4fd6-420e-b2e5-e4ccdf258bc5","system_id":"levelo_inurba_marseille","lat":43.336134,"lon":5.410341,"is_reserved":false,"is_disabled":false,"rental_uris":{"android":"levelo://app?vid=58988db0-4fd6-420e-b2e5-e4ccdf258bc5","ios":"levelo://app?vid=58988db0-4fd6-420e-b2e5-e4ccdf258bc5"},"vehicle_type_id":"4","last_reported":1678529227,"current_range_meters":12400,"station_id":"ce4bhqh2rcd13ifvqhmg","pricing_plan_id":"free"},{"bike_id":"4321ece3-93bb-430d-a40d-c8319fcf3b50","system_id":"levelo_inurba_marseille","lat":43.336148,"lon":5.410349,"is_reserved":false,"is_disabled":false,"rental_uris":{"android":"levelo://app?vid=4321ece3-93bb-430d-a40d-c8319fcf3b50","ios":"levelo://app?vid=4321ece3-93bb-430d-a40d-c8319fcf3b50"},"vehicle_type_id":"4","last_reported":1678529227,"current_range_meters":21600,"station_id":"ce4bhqh2rcd13ifvqhmg","pricing_plan_id":"free"},{"bike_id":"39244527-13b0-4387-881a-0b995a7a76b4","system_id":"levelo_inurba_marseille","lat":43.33612,"lon":5.410321,"is_reserved":false,"is_disabled":false,"rental_uris":{"android":"levelo://app?vid=39244527-13b0-4387-881a-0b995a7a76b4","ios":"levelo://app?vid=39244527-13b0-4387-881a-0b995a7a76b4"},"vehicle_type_id":"4","last_reported":1678529227,"current_range_meters":31600,"station_id":"ce4bhqh2rcd13ifvqhmg","pricing_plan_id":"free"},{"bike_id":"d15870ce-a9d9-4e00-9bf4-acf0ebdfe9c7","system_id":"levelo_inurba_marseille","lat":43.3361,"lon":5.41029,"is_reserved":false,"is_disabled":false,"rental_uris":{"android":"levelo://app?vid=d15870ce-a9d9-4e00-9bf4-acf0ebdfe9c7","ios":"levelo://app?vid=d15870ce-a9d9-4e00-9bf4-acf0ebdfe9c7"},"vehicle_type_id":"4","last_reported":1678529227,"current_range_meters":12400,"station_id":"","pricing_plan_id":"free"},