{"last_updated":1746067528,"ttl":60,"version":"2.2","data":{"bikes":[{"bike_id":"0fdf0803-0111-47b1-b7f4-dbd0e8798285","system_id":"levelo_inurba_marseille","lat":43.30719,"lon":5.40567,"is_reserved":false,"is_disabled":false,"rental_uris":{"android":"levelo://app?vid=0fdf0803-0111-47b1-b7f4-dbd0e8798285","ios":"levelo://app?vid=0fdf0803-0111-47b1-b7f4-dbd0e8798285"},"vehicle_type_id":"4","last_reported":1746067528,"current_range_meters":2800,"station_id":"","pricing_plan_id":"cebpf4jnsgd1na2vs0mg"},{"bike_id":"d8834ec9-5a9c-4825-8f0d-cdf93fa7aaf0","system_id":"levelo_inurba_marseille","lat":43.29615,"lon":5.37311,"is_reserved":false,"is_disabled":false,"rental_uris":{"android":"levelo://app?vid=d8834ec9-5a9c-4825-8f0d-cdf93fa7aaf0","ios":"levelo://app?vid=d8834ec9-5a9c-4825-8f0d-cdf93fa7aaf0"},"vehicle_type_id":"4","last_reported":1746067528,"current_range_meters":2800,"station_id":"","pricing_plan_id":"cebpf4jnsgd1na2vs0mg"},{"bike_id":"06bb3fbc-1701-4a06-9cc8-e6b4858e3eeb","system_id":"levelo_inurba_marseille","lat":43.295507,"lon":5.365162,"is_reserved":false,"is_disabled":false,"rental_uris":{"android":"levelo://app?vid=06bb3fbc-1701-4a06-9cc8-e6b4858e3eeb","ios":"levelo://app?vid=06bb3fbc-1701-4a06-9cc8-e6b4858e3eeb"},"vehicle_type_id":"4","last_reported":1746067528,"current_range_meters":3200,"station_id":"","pricing_plan_id":"cebpf4jnsgd1na2vs0mg"},{"bike_id":"5862d793-8af5-4231-8310-25d2f6e51ddf","system_id":"levelo_inurba_marseille","lat":43.307952,"lon":5.381673,"is_reserved":false,"is_disabled":false,"rental_uris":{"android":"levelo://app?vid=5862d793-8af5-4231-8310-25d2f6e51ddf","ios":"levelo://app?vid=5862d793-8af5-4231-8310-25d2f6e51ddf"},"vehicle_type_id":"4","last_reported":1746067528,"current_range_meters":3200,"station_id":"ce4bgt12rcd13ifvqce0","pricing_plan_id":"cebpf4jnsgd1na2vs0mg"},{"bike_id":"957db6d5-acc4-42ed-8580-1ffeee99ab4f","system_id":"levelo_inurba_marseille","lat":43.27968,"lon":5.38744,"is_reserved":false,"is_disabled":false,"rental_uris":{"android":"levelo://app?vid=957db6d5-acc4-42ed-8580-1ffeee99ab4f","ios":"levelo://app?vid=957db6d5-acc4-42ed-8580-1ffeee99ab4f"},"vehicle_type_id":"4","last_reported":1746067528,"current_range_meters":3200,"station_id":"ce4bhg12rcd13ifvqf80","pricing_plan_id":"cebpf4jnsgd1na2vs0mg"},{"bike_id":"7277521c-6e81-4afa-8525-ce183bafa14d","system_id":"levelo_inurba_marseille","lat":43.292557,"lon":5.409118,"is_reserved":false,"is_disabled":false,"rental_uris":{"android":"levelo://app?vid=7277521c-6e81-4afa-8525-ce183bafa14d","ios":"levelo://app?vid=7277521c-6e81-4afa-8525-ce183bafa14d"},"vehicle_type_id":"4","last_reported":1746067528,"current_range_meters":3600,"station_id":"ce4bh192rcd13ifvqdc0","pricing_plan_id":"cebpf4jnsgd1na2vs0mg"},{"bike_id":"e9c2fe2d-b2f2-4936-898c-27e02650cfa8","system_id":"levelo_inurba_marseille","lat":43.24999,"lon":5.38927,"is_reserved":false,"is_disabled":false,"rental_uris":{"android":"levelo://app?vid=e9c2fe2d-b2f2-4936-898c-27e02650cfa8","ios":"levelo://app?vid=e9c2fe2d-b2f2-4936-898c-27e02650cfa8"},"vehicle_type_id":"4","last_reported":1746067528,"current_range_meters":3600,"station_id":"ce4bhgp2rcd13ifvqfd0","pricing_plan_id":"cebpf4jnsgd1na2vs0mg"},{"bike_id":"0983f18e-7e35-41f1-9b6b-48698a991ea9","system_id":"levelo_inurba_marseille","lat":43.23152,"lon":5.437263,"is_reserved":false,"is_disabled":false,"rental_uris":{"android":"levelo://app?vid=0983f18e-7e35-41f1-9b6b-48698a991ea9","ios":"levelo://app?vid=0983f18e-7e35-41f1-9b6b-48698a991ea9"},"vehicle_type_id":"4","last_reported":1746067528,"current_range_meters":2000,"station_id":"ce4bhmp2rcd13ifvqgog","pricing_plan_id":"cebpf4jnsgd1na2vs0mg"},{"bike_id":"1cb2d693-b299-4ee1-afcd-d499133b7a18","system_id":"levelo_inurba_marseille","lat":43.29629,"lon":5.40648,"is_reserved":false,"is_disabled":false,"rental_uris":{"android":"levelo://app?vid=1cb2d693-b299-4ee1-afcd-d499133b7a18","ios":"levelo://app?vid=1cb2d693-b299-4ee1-afcd-d499133b7a18"},"vehicle_type_id":"4","last_reported":1746067528,"current_range_meters":4000,"station_id":"ce4bh0h2rcd13ifvqd60","pricing_plan_id":"cebpf4jnsgd1na2vs0mg"},{"bike_id":"e3676e90-152e-48a7-80da-6baae6b20546","system_id":"levelo_inurba_marseille","lat":43.30272,"lon":5.37778,"is_reserved":false,"is_disabled":false,"rental_uris":{"android":"levelo://app?vid=e3676e90-152e-48a7-80da-6baae6b20546","ios":"levelo://app?vid=e3676e90-152e-48a7-80da-6baae6b20546"},"vehicle_type_id":"4","last_reported":1746067528,"current_range_meters":4000,"station_id":"","pricing_plan_id":"cebpf4jnsgd1na2vs0mg"},{"bike_id":"1c96d0bf-e240-43fb-bcdb-c9f810fef4f3","system_id":"levelo_inurba_marseille","lat":43.231867,"lon":5.399863,"is_reserved":false,"is_disabled":false,"rental_uris":{"android":"levelo://app?vid=1c96d0bf-e240-43fb-bcdb-c9f810fef4f3","ios":"levelo://app?vid=1c96d0bf-e240-43fb-bcdb-c9f810fef4f3"},"vehicle_type_id":"4","last_reported":1746067528,"current_range_meters":4400,"station_id":"ce4bhn12rcd13ifvqgqg","pricing_plan_id":"cebpf4jnsgd1na2vs0mg"},{"bike_id":"00efbeb5-872a-4078-9994-9640cb88c828","system_id":"levelo_inurba_marseille","lat":43.25713,"lon":5.4112,"is_reserved":false,"is_disabled":false,"rental_uris":{"android":"levelo://app?vid=00efbeb5-872a-4078-9994-9640cb88c828","ios":"levelo://app?vid=00efbeb5-872a-4078-9994-9640cb88c828"},"vehicle_type_id":"4","last_reported":1746067528,"current_range_meters":5600,"station_id":"ce4bhkp2rcd13ifvqgd0","pricing_plan_id":"cebpf4jnsgd1na2vs0mg"},{"bike_id":"f846c90e-97b1-463d-8557-1c0000c1d287","system_id":"levelo_inurba_marseille","lat":43.288551,"lon":5.393194,"is_reserved":false,"is_disabled":false,"rental_uris":{"android":"levelo://app?vid=f846c90e-97b1-463d-8557-1c0000c1d287","ios":"levelo://app?vid=f846c90e-97b1-463d-8557-1c0000c1d287"},"vehicle_type_id":"4","last_reported":1746067528,"current_range_meters":5600,"station_id":"ce4bh2p2rcd13ifvqdi0","pricing_plan_id":"cebpf4jnsgd1na2vs0mg"},{"bike_id":"abbaab27-89eb-406d-9f60-0fafede2ff71","system_id":"levelo_inurba_marseille","lat":43.30659,"lon":5.40093,"is_reserved":false,"is_disabled":false,"rental_uris":{"android":"levelo://app?vid=abbaab27-89eb-406d-9f60-0fafede2ff71","ios":"levelo://app?vid=abbaab27-89eb-406d-9f60-0fafede2ff71"},"vehicle_type_id":"4","last_reported":1746067528,"current_range_meters":5600,"station_id":"ce4bh112rcd13ifvqda0","pricing_plan_id":"cebpf4jnsgd1na2vs0mg"},{"bike_id":"22145396-54b0-4ea1-90f0-03e75f46867f","system_id":"levelo_inurba_marseille","lat":43.2406,"lon":5.37764,"is_reserved":false,"is_disabled":false,"rental_uris":{"android":"levelo://app?vid=22145396-54b0-4ea1-90f0-03e75f46867f","ios":"levelo://app?vid=22145396-54b0-4ea1-90f0-03e75f46867f"},"vehicle_type_id":"4","last_reported":1746067528,"current_range_meters":5600,"station_id":"ce4bhnp2rcd13ifvqgvg","pricing_plan_id":"cebpf4jnsgd1na2vs0mg"},{"bike_id":"673a0c3f-8ece-48df-a2aa-4780ac191d8f","system_id":"levelo_inurba_marseille","lat":43.32042,"lon":5.41613,"is_reserved":false,"is_disabled":false,"rental_uris":{"android":"levelo://app?vid=673a0c3f-8ece-48df-a2aa-4780ac191d8f","ios":"levelo://app?vid=673a0c3f-8ece-48df-a2aa-4780ac191d8f"},"vehicle_type_id":"4","last_reported":1746067528,"current_range_meters":5600,"station_id":"ce4bhq92rcd13ifvqhkg","pricing_plan_id":"cebpf4jnsgd1na2vs0mg"},{"bike_id":"e06e3ad6-0e5a-49f2-98bb-d0b7ffaaf745","system_id":"levelo_inurba_marseille","lat":43.233865,"lon":5.361057,"is_reserved":false,"is_disabled":false,"rental_uris":{"android":"levelo://app?vid=e06e3ad6-0e5a-49f2-98bb-d0b7ffaaf745","ios":"levelo://app?vid=e06e3ad6-0e5a-49f2-98bb-d0b7ffaaf745"},"vehicle_type_id":"4","last_reported":1746067528,"current_range_meters":5600,"station_id":"","pricing_plan_id":"cebpf4jnsgd1na2vs0mg"},{"bike_id":"16224d15-cfd5-4ad6-8985-36c67148782b","system_id":"levelo_inurba_marseille","lat":43.27797,"lon":5.39214,"is_reserved":false,"is_disabled":false,"rental_uris":{"android":"levelo://app?vid=16224d15-cfd5-4ad6-8985-36c67148782b","ios":"levelo://app?vid=16224d15-cfd5-4ad6-8985-36c67148782b"},"vehicle_type_id":"4","last_reported":1746067528,"current_range_meters":5600,"station_id":"ce4bhjp2rcd13ifvqga0","pricing_plan_id":"cebpf4jnsgd1na2vs0mg"},{"bike_id":"0bf0e341-72dd-4b17-81c6-3fa2d42f0e6b","system_id":"levelo_inurba_marseille","lat":43.2835,"lon":5.381029,"is_reserved":false,"is_disabled":false,"rental_uris":{"android":"levelo://app?vid=0bf0e341-72dd-4b17-81c6-3fa2d42f0e6b","ios":"levelo://app?vid=0bf0e341-72dd-4b17-81c6-3fa2d42f0e6b"},"vehicle_type_id":"4","last_reported":1746067528,"current_range_meters":6000,"station_id":"ce4bh412rcd13ifvqdr0","pricing_plan_id":"cebpf4jnsgd1na2vs0mg"},{"bike_id":"2d0fea3e-041c-4d20-aeb7-63739e3d5c27","system_id":"levelo_inurba_marseille","lat":43.30666,"lon":5.36608,"is_reserved":false,"is_disabled":false,"rental_uris":{"android":"levelo://app?vid=2d0fea3e-041c-4d20-aeb7-63739e3d5c27","ios":"levelo://app?vid=2d0fea3e-041c-4d20-aeb7-63739e3d5c27"},"vehicle_type_id":"4","last_reported":1746067528,"current_range_meters":6000,"station_id":"","pricing_plan_id":"cebpf4jnsgd1na2vs0mg"},{"bike_id":"387bc5ea-7c2b-41e1-a1e6-3b4cc71c9638","system_id":"levelo_inurba_marseille","lat":43.24151,"lon":5.3972,"is_reserved":false,"is_disabled":false,"rental_uris":{"android":"levelo://app?vid=387bc5ea-7c2b-41e1-a1e6-3b4cc71c9638","ios":"levelo://app?vid=387bc5ea-7c2b-41e1-a1e6-3b4cc71c9638"},"vehicle_type_id":"4","last_reported":1746067528,"current_range_meters":6000,"station_id":"ce4bhn12rcd13ifvqgpg","pricing_plan_id":"cebpf4jnsgd1na2vs0mg"},{"bike_id":"ecabf132-ae10-448a-ae31-cffe7acaedc2","system_id":"levelo_inurba_marseille","lat":43.274307,"lon":5.394192,"is_reserved":false,"is_disabled":false,"rental_uris":{"android":"levelo://app?vid=ecabf132-ae10-448a-ae31-cffe7acaedc2","ios":"levelo://app?vid=ecabf132-ae10-448a-ae31-cffe7acaedc2"},"vehicle_type_id":"4","last_reported":1746067528,"current_range_meters":6400,"station_id":"ce4bhdp2rcd13ifvqf20","pricing_plan_id":"cebpf4jnsgd1na2vs0mg"},{"bike_id":"97d372a4-7499-4980-ad60-515b98299387","system_id":"levelo_inurba_marseille","lat":43.305377,"lon":5.384272,"is_reserved":false,"is_disabled":false,"rental_uris":{"android":"levelo://app?vid=97d372a4-7499-4980-ad60-515b98299387","ios":"levelo://app?vid=97d372a4-7499-4980-ad60-515b98299387"},"vehicle_type_id":"4","last_reported":1746067528,"current_range_meters":6400,"station_id":"ce4bgg92rcd13ifvqb30","pricing_plan_id":"cebpf4jnsgd1na2vs0mg"},{"bike_id":"bc1d975a-af42-46ea-a9c7-0b3364dd6004","system_id":"levelo_inurba_marseille","lat":43.284157,"lon":5.375142,"is_reserved":false,"is_disabled":false,"rental_uris":{"android":"levelo://app?vid=bc1d975a-af42-46ea-a9c7-0b3364dd6004","ios":"levelo://app?vid=bc1d975a-af42-46ea-a9c7-0b3364dd6004"},"vehicle_type_id":"4","last_reported":1746067528,"current_range_meters":6400,"station_id":"ce4bh412rcd13ifvqds0","pricing_plan_id":"cebpf4jnsgd1na2vs0mg"},{"bike_id":"ed01b2d3-e777-4cde-b001-4acf8ff4f995","system_id":"levelo_inurba_marseille","lat":43.335993,"lon":5.410182,"is_reserved":false,"is_disabled":false,"rental_uris":{"android":"levelo://app?vid=ed01b2d3-e777-4cde-b001-4acf8ff4f995","ios":"levelo://app?vid=ed01b2d3-e777-4cde-b001-4acf8ff4f995"},"vehicle_type_id":"4","last_reported":1746067528,"current_range_meters":6400,"station_id":"ce4bhqh2rcd13ifvqhmg","pricing_plan_id":"cebpf4jnsgd1na2vs0mg"},{"bike_id":"0ad3bba1-4bc4-479c-8461-1db3bb0761ed","system_id":"levelo_inurba_marseille","lat":43.31337,"lon":5.39719,"is_reserved":false,"is_disabled":false,"rental_uris":{"android":"levelo://app?vid=0ad3bba1-4bc4-479c-8461-1db3bb0761ed","ios":"levelo://app?vid=0ad3bba1-4bc4-479c-8461-1db3bb0761ed"},"vehicle_type_id":"4","last_reported":1746067528,"current_range_meters":6400,"station_id":"ce4bgvp2rcd13ifvqcu0","pricing_plan_id":"cebpf4jnsgd1na2vs0mg"},{"bike_id":"c96b0a8f-9953-4bb5-86bc-5c506b380c2c","system_id":"levelo_inurba_marseille","lat":43.3032,"lon":5.4044,"is_reserved":false,"is_disabled":false,"rental_uris":{"android":"levelo://app?vid=c96b0a8f-9953-4bb5-86bc-5c506b380c2c","ios":"levelo://app?vid=c96b0a8f-9953-4bb5-86bc-5c506b380c2c"},"vehicle_type_id":"4","last_reported":1746067528,"current_range_meters":6400,"station_id":"ce4bh012rcd13ifvqd10","pricing_plan_id":"cebpf4jnsgd1na2vs0mg"},{"bike_id":"dd750a5b-938c-43eb-a8dc-ec6bdc5aeb0e","system_id":"levelo_inurba_marseille","lat":43.29625,"lon":5.40598,"is_reserved":false,"is_disabled":false,"rental_uris":{"android":"levelo://app?vid=dd750a5b-938c-43eb-a8dc-ec6bdc5aeb0e","ios":"levelo://app?vid=dd750a5b-938c-43eb-a8dc-ec6bdc5aeb0e"},"vehicle_type_id":"4","last_reported":1746067528,"current_range_meters":6800,"station_id":"ce4bh0h2rcd13ifvqd60","pricing_plan_id":"cebpf4jnsgd1na2vs0mg"},{"bike_id":"00d6f668-ccb9-47ae-b8ce-c39b1f313b6e","system_id":"levelo_inurba_marseille","lat":43.293036,"lon":5.371786,"is_reserved":false,"is_disabled":true,"rental_uris":{"android":"levelo://app?vid=00d6f668-ccb9-47ae-b8ce-c39b1f313b6e","ios":"levelo://app?vid=00d6f668-ccb9-47ae-b8ce-c39b1f313b6e"},"vehicle_type_id":"4","last_reported":1746067528,"current_range_meters":6800,"station_id":"ce4bgh92rcd13ifvqb40","pricing_plan_id":"cebpf4jnsgd1na2vs0mg"},{"bike_id":"29004581-500e-4cc8-8d9f-f7ba87082b36","system_id":"levelo_inurba_marseille","lat":43.30807,"lon":5.38165,"is_reserved":false,"is_disabled":false,"rental_uris":{"android":"levelo://app?vid=29004581-500e-4cc8-8d9f-f7ba87082b36","ios":"levelo://app?vid=29004581-500e-4cc8-8d9f-f7ba87082b36"},"vehicle_type_id":"4","last_reported":1746067528,"current_range_meters":6800,"station_id":"ce4bgt12rcd13ifvqce0","pricing_plan_id":"cebpf4jnsgd1na2vs0mg"},{"bike_id":"4441e734-dc78-4371-80f0-82ca88aaf54d","system_id":"levelo_inurba_marseille","lat":43.304747,"lon":5.37903,"is_reserved":false,"is_disabled":false,"rental_uris":{"android":"levelo://app?vid=4441e734-dc78-4371-80f0-82ca88aaf54d","ios":"levelo://app?vid=4441e734-dc78-4371-80f0-82ca88aaf54d"},"vehicle_type_id":"4","last_reported":1746067528,"current_range_meters":6800,"station_id":"ce4bgup2rcd13ifvqcn0","pricing_plan_id":"cebpf4jnsgd1na2vs0mg"},{"bike_id":"76a9cd10-fdd4-4a05-acce-121be760d6db","system_id":"levelo_inurba_marseille","lat":43.273166,"lon":5.39096,"is_reserved":false,"is_disabled":true,"rental_uris":{"android":"levelo://app?vid=76a9cd10-fdd4-4a05-acce-121be760d6db","ios":"levelo://app?vid=76a9cd10-fdd4-4a05-acce-121be760d6db"},"vehicle_type_id":"4","last_reported":1746067528,"current_range_meters":6800,"station_id":"ce4bhgp2rcd13ifvqfe0","pricing_plan_id":"cebpf4jnsgd1na2vs0mg"},{"bike_id":"38888685-ecee-457f-b7f2-6a456f769de8","system_id":"levelo_inurba_marseille","lat":43.323634,"lon":5.388805,"is_reserved":false,"is_disabled":false,"rental_uris":{"android":"levelo://app?vid=38888685-ecee-457f-b7f2-6a456f769de8","ios":"levelo://app?vid=38888685-ecee-457f-b7f2-6a456f769de8"},"vehicle_type_id":"4","last_reported":1746067528,"current_range_meters":7200,"station_id":"ce4bhqp2rcd13ifvqhog","pricing_plan_id":"cebpf4jnsgd1na2vs0mg"},{"bike_id":"5824506f-80f6-4578-b8d9-963493773cb7","system_id":"levelo_inurba_marseille","lat":43.25726,"lon":5.41119,"is_reserved":false,"is_disabled":false,"rental_uris":{"android":"levelo://app?vid=5824506f-80f6-4578-b8d9-963493773cb7","ios":"levelo://app?vid=5824506f-80f6-4578-b8d9-963493773cb7"},"vehicle_type_id":"4","last_reported":1746067528,"current_range_meters":7200,"station_id":"ce4bhkp2rcd13ifvqgd0","pricing_plan_id":"cebpf4jnsgd1na2vs0mg"},{"bike_id":"489415b8-9254-45c1-b00c-e7554d56755c","system_id":"levelo_inurba_marseille","lat":43.245198,"lon":5.412175,"is_reserved":false,"is_disabled":false,"rental_uris":{"android":"levelo://app?vid=489415b8-9254-45c1-b00c-e7554d56755c","ios":"levelo://app?vid=489415b8-9254-45c1-b00c-e7554d56755c"},"vehicle_type_id":"4","last_reported":1746067528,"current_range_meters":7200,"station_id":"","pricing_plan_id":"cebpf4jnsgd1na2vs0mg"},{"bike_id":"2806b558-e7ec-472b-9609-45e5c29e99f3","system_id":"levelo_inurba_marseille","lat":43.287583,"lon":5.376955,"is_reserved":false,"is_disabled":false,"rental_uris":{"android":"levelo://app?vid=2806b558-e7ec-472b-9609-45e5c29e99f3","ios":"levelo://app?vid=2806b558-e7ec-472b-9609-45e5c29e99f3"},"vehicle_type_id":"4","last_reported":1746067528,"current_range_meters":7200,"station_id":"","pricing_plan_id":"cebpf4jnsgd1na2vs0mg"},{"bike_id":"af45928f-99f5-4c10-8488-a1690bf972d2","system_id":"levelo_inurba_marseille","lat":43.294421,"lon":5.397521,"is_reserved":false,"is_disabled":true,"rental_uris":{"android":"levelo://app?vid=af45928f-99f5-4c10-8488-a1690bf972d2","ios":"levelo://app?vid=af45928f-99f5-4c10-8488-a1690bf972d2"},"vehicle_type_id":"4","last_reported":1746067528,"current_range_meters":7200,"station_id":"ce4bh3h2rcd13ifvqdo0","pricing_plan_id":"cebpf4jnsgd1na2vs0mg"},{"bike_id":"c0d51e25-cc6b-457e-9554-a69beaa8f332","system_id":"levelo_inurba_marseille","lat":43.306378,"lon":5.400681,"is_reserved":false,"is_disabled":false,"rental_uris":{"android":"levelo://app?vid=c0d51e25-cc6b-457e-9554-a69beaa8f332","ios":"levelo://app?vid=c0d51e25-cc6b-457e-9554-a69beaa8f332"},"vehicle_type_id":"4","last_reported":1746067528,"current_range_meters":7200,"station_id":"ce4bh112rcd13ifvqda0","pricing_plan_id":"cebpf4jnsgd1na2vs0mg"},{"bike_id":"9965e496-e128-48a0-9487-d7af7b498698","system_id":"levelo_inurba_marseille","lat":43.2919,"lon":5.39316,"is_reserved":false,"is_disabled":true,"rental_uris":{"android":"levelo://app?vid=9965e496-e128-48a0-9487-d7af7b498698","ios":"levelo://app?vid=9965e496-e128-48a0-9487-d7af7b498698"},"vehicle_type_id":"4","last_reported":1746067528,"current_range_meters":7200,"station_id":"ce4bh192rcd13ifvqdd0","pricing_plan_id":"cebpf4jnsgd1na2vs0mg"},{"bike_id":"8fe0cc0b-a043-4280-a5e4-0783063c5830","system_id":"levelo_inurba_marseille","lat":43.317591,"lon":5.390129,"is_reserved":false,"is_disabled":false,"rental_uris":{"android":"levelo://app?vid=8fe0cc0b-a043-4280-a5e4-0783063c5830","ios":"levelo://app?vid=8fe0cc0b-a043-4280-a5e4-0783063c5830"},"vehicle_type_id":"4","last_reported":1746067528,"current_range_meters":7200,"station_id":"ce4bhqp2rcd13ifvqhng","pricing_plan_id":"cebpf4jnsgd1na2vs0mg"},{"bike_id":"06d4aaca-eadb-4fef-91cf-7d39ca5b048c","system_id":"levelo_inurba_marseille","lat":43.323313,"lon":5.406263,"is_reserved":false,"is_disabled":false,"rental_uris":{"android":"levelo://app?vid=06d4aaca-eadb-4fef-91cf-7d39ca5b048c","ios":"levelo://app?vid=06d4aaca-eadb-4fef-91cf-7d39ca5b048c"},"vehicle_type_id":"4","last_reported":1746067528,"current_range_meters":7200,"station_id":"ce4bhq92rcd13ifvqhjg","pricing_plan_id":"cebpf4jnsgd1na2vs0mg"},{"bike_id":"05bc1beb-7322-4b6e-ac33-cb496e469d14","system_id":"levelo_inurba_marseille","lat":43.298748,"lon":5.397275,"is_reserved":false,"is_disabled":false,"rental_uris":{"android":"levelo://app?vid=05bc1beb-7322-4b6e-ac33-cb496e469d14","ios":"levelo://app?vid=05bc1beb-7322-4b6e-ac33-cb496e469d14"},"vehicle_type_id":"4","last_reported":1746067528,"current_range_meters":8000,"station_id":"ce4bh0h2rcd13ifvqd50","pricing_plan_id":"cebpf4jnsgd1na2vs0mg"},{"bike_id":"be72c957-5086-45b5-b164-09f800df4fff","system_id":"levelo_inurba_marseille","lat":43.268074,"lon":5.40276,"is_reserved":false,"is_disabled":false,"rental_uris":{"android":"levelo://app?vid=be72c957-5086-45b5-b164-09f800df4fff","ios":"levelo://app?vid=be72c957-5086-45b5-b164-09f800df4fff"},"vehicle_type_id":"4","last_reported":1746067528,"current_range_meters":8000,"station_id":"ce501612rcd8frsf0b60","pricing_plan_id":"cebpf4jnsgd1na2vs0mg"},{"bike_id":"c4df782d-c1f5-4d8f-9d6a-dce65b2d2735","system_id":"levelo_inurba_marseille","lat":43.30799,"lon":5.38145,"is_reserved":false,"is_disabled":false,"rental_uris":{"android":"levelo://app?vid=c4df782d-c1f5-4d8f-9d6a-dce65b2d2735","ios":"levelo://app?vid=c4df782d-c1f5-4d8f-9d6a-dce65b2d2735"},"vehicle_type_id":"4","last_reported":1746067528,"current_range_meters":8000,"station_id":"ce4bgt12rcd13ifvqce0","pricing_plan_id":"cebpf4jnsgd1na2vs0mg"},{"bike_id":"07edfd45-c3fa-4b57-b865-cf1bf9963264","system_id":"levelo_inurba_marseille","lat":43.233984,"lon":5.364274,"is_reserved":false,"is_disabled":false,"rental_uris":{"android":"levelo://app?vid=07edfd45-c3fa-4b57-b865-cf1bf9963264","ios":"levelo://app?vid=07edfd45-c3fa-4b57-b865-cf1bf9963264"},"vehicle_type_id":"4","last_reported":1746067528,"current_range_meters":8000,"station_id":"","pricing_plan_id":"cebpf4jnsgd1na2vs0mg"},{"bike_id":"889a915c-f47a-4de4-90a2-2757e7236dee","system_id":"levelo_inurba_marseille","lat":43.28696,"lon":5.39978,"is_reserved":false,"is_disabled":false,"rental_uris":{"android":"levelo://app?vid=889a915c-f47a-4de4-90a2-2757e7236dee","ios":"levelo://app?vid=889a915c-f47a-4de4-90a2-2757e7236dee"},"vehicle_type_id":"4","last_reported":1746067528,"current_range_meters":8000,"station_id":"ce4bho92rcd13ifvqh3g","pricing_plan_id":"cebpf4jnsgd1na2vs0mg"},{"bike_id":"a15c0eb7-aafe-4062-a243-640408d7b8d9","system_id":"levelo_inurba_marseille","lat":43.304148,"lon":5.413012,"is_reserved":false,"is_disabled":false,"rental_uris":{"android":"levelo://app?vid=a15c0eb7-aafe-4062-a243-640408d7b8d9","ios":"levelo://app?vid=a15c0eb7-aafe-4062-a243-640408d7b8d9"},"vehicle_type_id":"4","last_reported":1746067528,"current_range_meters":8000,"station_id":"ce4bhop2rcd13ifvqh8g","pricing_plan_id":"cebpf4jnsgd1na2vs0mg"},{"bike_id":"306fca60-4da8-4cfc-8533-1d1bffc14093","system_id":"levelo_inurba_marseille","lat":43.308885,"lon":5.396739,"is_reserved":false,"is_disabled":false,"rental_uris":{"android":"levelo://app?vid=306fca60-4da8-4cfc-8533-1d1bffc14093","ios":"levelo://app?vid=306fca60-4da8-4cfc-8533-1d1bffc14093"},"vehicle_type_id":"4","last_reported":1746067528,"current_range_meters":8000,"station_id":"ce4bh012rcd13ifvqcv0","pricing_plan_id":"cebpf4jnsgd1na2vs0mg"},{"bike_id":"24fe4670-2cfb-49d4-a3ec-2dd67a898c28","system_id":"levelo_inurba_marseille","lat":43.25692,"lon":5.41118,"is_reserved":false,"is_disabled":false,"rental_uris":{"android":"levelo://app?vid=24fe4670-2cfb-49d4-a3ec-2dd67a898c28","ios":"levelo://app?vid=24fe4670-2cfb-49d4-a3ec-2dd67a898c28"},"vehicle_type_id":"4","last_reported":1746067528,"current_range_meters":8000,"station_id":"ce4bhkp2rcd13ifvqgd0","pricing_plan_id":"cebpf4jnsgd1na2vs0mg"},{"bike_id":"1017aff5-1f73-4103-b379-a20915353f27","system_id":"levelo_inurba_marseille","lat":43.25106,"lon":5.40342,"is_reserved":false,"is_disabled":false,"rental_uris":{"android":"levelo://app?vid=1017aff5-1f73-4103-b379-a20915353f27","ios":"levelo://app?vid=1017aff5-1f73-4103-b379-a20915353f27"},"vehicle_type_id":"4","last_reported":1746067528,"current_range_meters":8000,"station_id":"ce4bhlh2rcd13ifvqgig","pricing_plan_id":"cebpf4jnsgd1na2vs0mg"},{"bike_id":"c89af82b-d8de-4524-ac1f-cc5e38330d5b","system_id":"levelo_inurba_marseille","lat":43.3247,"lon":5.365825,"is_reserved":false,"is_disabled":false,"rental_uris":{"android":"levelo://app?vid=c89af82b-d8de-4524-ac1f-cc5e38330d5b","ios":"levelo://app?vid=c89af82b-d8de-4524-ac1f-cc5e38330d5b"},"vehicle_type_id":"4","last_reported":1746067528,"current_range_meters":8400,"station_id":"ce4bhs12rcd13ifvqhvg","pricing_plan_id":"cebpf4jnsgd1na2vs0mg"},{"bike_id":"7d981a24-ab9c-4d5b-b5fc-9f4e27dadc31","system_id":"levelo_inurba_marseille","lat":43.31689,"lon":5.40467,"is_reserved":false,"is_disabled":false,"rental_uris":{"android":"levelo://app?vid=7d981a24-ab9c-4d5b-b5fc-9f4e27dadc31","ios":"levelo://app?vid=7d981a24-ab9c-4d5b-b5fc-9f4e27dadc31"},"vehicle_type_id":"4","last_reported":1746067528,"current_range_meters":8400,"station_id":"ce4bh012rcd13ifvqd00","pricing_plan_id":"cebpf4jnsgd1na2vs0mg"},{"bike_id":"9302c8f6-2254-4b52-bb8b-c5acfff44a93","system_id":"levelo_inurba_marseille","lat":43.299563,"lon":5.370238,"is_reserved":false,"is_disabled":false,"rental_uris":{"android":"levelo://app?vid=9302c8f6-2254-4b52-bb8b-c5acfff44a93","ios":"levelo://app?vid=9302c8f6-2254-4b52-bb8b-c5acfff44a93"},"vehicle_type_id":"4","last_reported":1746067528,"current_range_meters":8400,"station_id":"","pricing_plan_id":"cebpf4jnsgd1na2vs0mg"},{"bike_id":"06d2d3c8-9fc9-4d69-a070-0ce5daa9cb28","system_id":"levelo_inurba_marseille","lat":43.269434,"lon":5.402626,"is_reserved":false,"is_disabled":true,"rental_uris":{"android":"levelo://app?vid=06d2d3c8-9fc9-4d69-a070-0ce5daa9cb28","ios":"levelo://app?vid=06d2d3c8-9fc9-4d69-a070-0ce5daa9cb28"},"vehicle_type_id":"4","last_reported":1746067528,"current_range_meters":8400,"station_id":"cjm6bp8fraef2m0cb0m0","pricing_plan_id":"cebpf4jnsgd1na2vs0mg"},{"bike_id":"7bca0793-1176-4b81-940e-92a4b7af9ae5","system_id":"levelo_inurba_marseille","lat":43.280809,"lon":5.396565,"is_reserved":false,"is_disabled":false,"rental_uris":{"android":"levelo://app?vid=7bca0793-1176-4b81-940e-92a4b7af9ae5","ios":"levelo://app?vid=7bca0793-1176-4b81-940e-92a4b7af9ae5"},"vehicle_type_id":"4","last_reported":1746067528,"current_range_meters":8400,"station_id":"ce4bho12rcd13ifvqh2g","pricing_plan_id":"cebpf4jnsgd1na2vs0mg"},{"bike_id":"605a12db-4145-42a5-877a-b4a375a7cf38","system_id":"levelo_inurba_marseille","lat":43.31679,"lon":5.40453,"is_reserved":false,"is_disabled":false,"rental_uris":{"android":"levelo://app?vid=605a12db-4145-42a5-877a-b4a375a7cf38","ios":"levelo://app?vid=605a12db-4145-42a5-877a-b4a375a7cf38"},"vehicle_type_id":"4","last_reported":1746067528,"current_range_meters":8400,"station_id":"ce4bh012rcd13ifvqd00","pricing_plan_id":"cebpf4jnsgd1na2vs0mg"},{"bike_id":"bcfca232-e37d-4b20-84a4-30ed88596c85","system_id":"levelo_inurba_marseille","lat":43.29874,"lon":5.39743,"is_reserved":false,"is_disabled":false,"rental_uris":{"android":"levelo://app?vid=bcfca232-e37d-4b20-84a4-30ed88596c85","ios":"levelo://app?vid=bcfca232-e37d-4b20-84a4-30ed88596c85"},"vehicle_type_id":"4","last_reported":1746067528,"current_range_meters":8400,"station_id":"ce4bh0h2rcd13ifvqd50","pricing_plan_id":"cebpf4jnsgd1na2vs0mg"},{"bike_id":"34f06e52-bc26-4cc3-b234-f05efbf4d35e","system_id":"levelo_inurba_marseille","lat":43.240369,"lon":5.377813,"is_reserved":false,"is_disabled":false,"rental_uris":{"android":"levelo://app?vid=34f06e52-bc26-4cc3-b234-f05efbf4d35e","ios":"levelo://app?vid=34f06e52-bc26-4cc3-b234-f05efbf4d35e"},"vehicle_type_id":"4","last_reported":1746067528,"current_range_meters":8400,"station_id":"ce4bhnp2rcd13ifvqgvg","pricing_plan_id":"cebpf4jnsgd1na2vs0mg"},{"bike_id":"b35319f1-b87e-4db8-ab3a-f11a22b07a4b","system_id":"levelo_inurba_marseille","lat":43.24669,"lon":5.38151,"is_reserved":false,"is_disabled":true,"rental_uris":{"android":"levelo://app?vid=b35319f1-b87e-4db8-ab3a-f11a22b07a4b","ios":"levelo://app?vid=b35319f1-b87e-4db8-ab3a-f11a22b07a4b"},"vehicle_type_id":"4","last_reported":1746067528,"current_range_meters":8800,"station_id":"ce4bhih2rcd13ifvqfr0","pricing_plan_id":"cebpf4jnsgd1na2vs0mg"},{"bike_id":"c2359eb2-9d58-4285-8df1-ee95701995ba","system_id":"levelo_inurba_marseille","lat":43.314857,"lon":5.373056,"is_reserved":false,"is_disabled":false,"rental_uris":{"android":"levelo://app?vid=c2359eb2-9d58-4285-8df1-ee95701995ba","ios":"levelo://app?vid=c2359eb2-9d58-4285-8df1-ee95701995ba"},"vehicle_type_id":"4","last_reported":1746067528,"current_range_meters":8800,"station_id":"ce4bgt12rcd13ifvqcd0","pricing_plan_id":"cebpf4jnsgd1na2vs0mg"},{"bike_id":"cb799d30-a786-4212-8461-e5560b5b16ef","system_id":"levelo_inurba_marseille","lat":43.32084,"lon":5.44117,"is_reserved":false,"is_disabled":false,"rental_uris":{"android":"levelo://app?vid=cb799d30-a786-4212-8461-e5560b5b16ef","ios":"levelo://app?vid=cb799d30-a786-4212-8461-e5560b5b16ef"},"vehicle_type_id":"4","last_reported":1746067528,"current_range_meters":8800,"station_id":"","pricing_plan_id":"cebpf4jnsgd1na2vs0mg"},{"bike_id":"81e05ebe-9199-4b84-be27-50b827829ce3","system_id":"levelo_inurba_marseille","lat":43.2841,"lon":5.3753,"is_reserved":false,"is_disabled":false,"rental_uris":{"android":"levelo://app?vid=81e05ebe-9199-4b84-be27-50b827829ce3","ios":"levelo://app?vid=81e05ebe-9199-4b84-be27-50b827829ce3"},"vehicle_type_id":"4","last_reported":1746067528,"current_range_meters":8800,"station_id":"ce4bh412rcd13ifvqds0","pricing_plan_id":"cebpf4jnsgd1na2vs0mg"},{"bike_id":"3b22bb4e-9110-45e4-a369-fb929b53ca61","system_id":"levelo_inurba_marseille","lat":43.302578,"lon":5.400579,"is_reserved":false,"is_disabled":false,"rental_uris":{"android":"levelo://app?vid=3b22bb4e-9110-45e4-a369-fb929b53ca61","ios":"levelo://app?vid=3b22bb4e-9110-45e4-a369-fb929b53ca61"},"vehicle_type_id":"4","last_reported":1746067528,"current_range_meters":9200,"station_id":"ce4bgvh2rcd13ifvqcs0","pricing_plan_id":"cebpf4jnsgd1na2vs0mg"},{"bike_id":"21cb5785-6ae9-4cbc-800b-5b27fca2d337","system_id":"levelo_inurba_marseille","lat":43.30877,"lon":5.39647,"is_reserved":false,"is_disabled":false,"rental_uris":{"android":"levelo://app?vid=21cb5785-6ae9-4cbc-800b-5b27fca2d337","ios":"levelo://app?vid=21cb5785-6ae9-4cbc-800b-5b27fca2d337"},"vehicle_type_id":"4","last_reported":1746067528,"current_range_meters":9200,"station_id":"ce4bh012rcd13ifvqcv0","pricing_plan_id":"cebpf4jnsgd1na2vs0mg"},{"bike_id":"4ff0db05-be29-471d-80d9-4fc345b5a0ff","system_id":"levelo_inurba_marseille","lat":43.30656,"lon":5.40092,"is_reserved":false,"is_disabled":false,"rental_uris":{"android":"levelo://app?vid=4ff0db05-be29-471d-80d9-4fc345b5a0ff","ios":"levelo://app?vid=4ff0db05-be29-471d-80d9-4fc345b5a0ff"},"vehicle_type_id":"4","last_reported":1746067528,"current_range_meters":9200,"station_id":"ce4bh112rcd13ifvqda0","pricing_plan_id":"cebpf4jnsgd1na2vs0mg"},{"bike_id":"94c67595-7de3-4443-ab76-ab1b2a1e805b","system_id":"levelo_inurba_marseille","lat":43.284166,"lon":5.375016,"is_reserved":false,"is_disabled":false,"rental_uris":{"android":"levelo://app?vid=94c67595-7de3-4443-ab76-ab1b2a1e805b","ios":"levelo://app?vid=94c67595-7de3-4443-ab76-ab1b2a1e805b"},"vehicle_type_id":"4","last_reported":1746067528,"current_range_meters":9200,"station_id":"ce4bh412rcd13ifvqds0","pricing_plan_id":"cebpf4jnsgd1na2vs0mg"},{"bike_id":"8a08109b-abba-4662-b984-893ba2719fa3","system_id":"levelo_inurba_marseille","lat":43.24679,"lon":5.38144,"is_reserved":false,"is_disabled":false,"rental_uris":{"android":"levelo://app?vid=8a08109b-abba-4662-b984-893ba2719fa3","ios":"levelo://app?vid=8a08109b-abba-4662-b984-893ba2719fa3"},"vehicle_type_id":"4","last_reported":1746067528,"current_range_meters":9200,"station_id":"ce4bhih2rcd13ifvqfr0","pricing_plan_id":"cebpf4jnsgd1na2vs0mg"},{"bike_id":"dfc94822-a1b6-48c6-802a-ca3521f0f26c","system_id":"levelo_inurba_marseille","lat":43.26575,"lon":5.39012,"is_reserved":false,"is_disabled":false,"rental_uris":{"android":"levelo://app?vid=dfc94822-a1b6-48c6-802a-ca3521f0f26c","ios":"levelo://app?vid=dfc94822-a1b6-48c6-802a-ca3521f0f26c"},"vehicle_type_id":"4","last_reported":1746067528,"current_range_meters":9200,"station_id":"ce4bhe12rcd13ifvqf30","pricing_plan_id":"cebpf4jnsgd1na2vs0mg"},{"bike_id":"c2822950-d0b4-4023-8870-6743aa9d2122","system_id":"levelo_inurba_marseille","lat":43.26773,"lon":5.39461,"is_reserved":false,"is_disabled":false,"rental_uris":{"android":"levelo://app?vid=c2822950-d0b4-4023-8870-6743aa9d2122","ios":"levelo://app?vid=c2822950-d0b4-4023-8870-6743aa9d2122"},"vehicle_type_id":"4","last_reported":1746067528,"current_range_meters":9200,"station_id":"","pricing_plan_id":"cebpf4jnsgd1na2vs0mg"},{"bike_id":"7f770ba9-2e48-47c9-8bb4-942855273bad","system_id":"levelo_inurba_marseille","lat":43.25271,"lon":5.4262,"is_reserved":false,"is_disabled":false,"rental_uris":{"android":"levelo://app?vid=7f770ba9-2e48-47c9-8bb4-942855273bad","ios":"levelo://app?vid=7f770ba9-2e48-47c9-8bb4-942855273bad"},"vehicle_type_id":"4","last_reported":1746067528,"current_range_meters":9200,"station_id":"","pricing_plan_id":"cebpf4jnsgd1na2vs0mg"},{"bike_id":"afb3d955-a6d0-4e5a-acd8-3c4556dfba0a","system_id":"levelo_inurba_marseille","lat":43.28917,"lon":5.36868,"is_reserved":false,"is_disabled":false,"rental_uris":{"android":"levelo://app?vid=afb3d955-a6d0-4e5a-acd8-3c4556dfba0a","ios":"levelo://app?vid=afb3d955-a6d0-4e5a-acd8-3c4556dfba0a"},"vehicle_type_id":"4","last_reported":1746067528,"current_range_meters":9600,"station_id":"","pricing_plan_id":"cebpf4jnsgd1na2vs0mg"},{"bike_id":"f31bf073-e687-4787-90ee-691c464f7f3e","system_id":"levelo_inurba_marseille","lat":43.2572,"lon":5.41128,"is_reserved":false,"is_disabled":false,"rental_uris":{"android":"levelo://app?vid=f31bf073-e687-4787-90ee-691c464f7f3e","ios":"levelo://app?vid=f31bf073-e687-4787-90ee-691c464f7f3e"},"vehicle_type_id":"4","last_reported":1746067528,"current_range_meters":9600,"station_id":"ce4bhkp2rcd13ifvqgd0","pricing_plan_id":"cebpf4jnsgd1na2vs0mg"},{"bike_id":"7924b638-6bb2-4d04-8752-d92a7a4ba43a","system_id":"levelo_inurba_marseille","lat":43.241702,"lon":5.397375,"is_reserved":false,"is_disabled":false,"rental_uris":{"android":"levelo://app?vid=7924b638-6bb2-4d04-8752-d92a7a4ba43a","ios":"levelo://app?vid=7924b638-6bb2-4d04-8752-d92a7a4ba43a"},"vehicle_type_id":"4","last_reported":1746067528,"current_range_meters":9600,"station_id":"ce4bhn12rcd13ifvqgpg","pricing_plan_id":"cebpf4jnsgd1na2vs0mg"},{"bike_id":"9d004dc2-56ed-43f9-8dc5-314920e1f545","system_id":"levelo_inurba_marseille","lat":43.28853,"lon":5.35845,"is_reserved":false,"is_disabled":false,"rental_uris":{"android":"levelo://app?vid=9d004dc2-56ed-43f9-8dc5-314920e1f545","ios":"levelo://app?vid=9d004dc2-56ed-43f9-8dc5-314920e1f545"},"vehicle_type_id":"4","last_reported":1746067528,"current_range_meters":9600,"station_id":"ce4bhb12rcd13ifvqem0","pricing_plan_id":"cebpf4jnsgd1na2vs0mg"},{"bike_id":"678a7352-ff19-4e60-a122-b9191974b846","system_id":"levelo_inurba_marseille","lat":43.292571,"lon":5.409133,"is_reserved":false,"is_disabled":false,"rental_uris":{"android":"levelo://app?vid=678a7352-ff19-4e60-a122-b9191974b846","ios":"levelo://app?vid=678a7352-ff19-4e60-a122-b9191974b846"},"vehicle_type_id":"4","last_reported":1746067528,"current_range_meters":9600,"station_id":"ce4bh192rcd13ifvqdc0","pricing_plan_id":"cebpf4jnsgd1na2vs0mg"},{"bike_id":"b81bdc80-7137-4a07-8c63-52664b4472d6","system_id":"levelo_inurba_marseille","lat":43.27979,"lon":5.38753,"is_reserved":false,"is_disabled":false,"rental_uris":{"android":"levelo://app?vid=b81bdc80-7137-4a07-8c63-52664b4472d6","ios":"levelo://app?vid=b81bdc80-7137-4a07-8c63-52664b4472d6"},"vehicle_type_id":"4","last_reported":1746067528,"current_range_meters":9600,"station_id":"ce4bhg12rcd13ifvqf80","pricing_plan_id":"cebpf4jnsgd1na2vs0mg"},{"bike_id":"405fa080-f811-46f3-8582-d87d58738f3b","system_id":"levelo_inurba_marseille","lat":43.257166,"lon":5.418132,"is_reserved":false,"is_disabled":false,"rental_uris":{"android":"levelo://app?vid=405fa080-f811-46f3-8582-d87d58738f3b","ios":"levelo://app?vid=405fa080-f811-46f3-8582-d87d58738f3b"},"vehicle_type_id":"4","last_reported":1746067528,"current_range_meters":9600,"station_id":"","pricing_plan_id":"cebpf4jnsgd1na2vs0mg"},{"bike_id":"e5e92a64-e709-4b1a-a9b1-cbffe85789ca","system_id":"levelo_inurba_marseille","lat":43.255427,"lon":5.381411,"is_reserved":false,"is_disabled":false,"rental_uris":{"android":"levelo://app?vid=e5e92a64-e709-4b1a-a9b1-cbffe85789ca","ios":"levelo://app?vid=e5e92a64-e709-4b1a-a9b1-cbffe85789ca"},"vehicle_type_id":"4","last_reported":1746067528,"current_range_meters":9600,"station_id":"","pricing_plan_id":"cebpf4jnsgd1na2vs0mg"},{"bike_id":"9f7dcf3b-5de8-4203-b8f3-1867275b9acd","system_id":"levelo_inurba_marseille","lat":43.316894,"lon":5.404577,"is_reserved":false,"is_disabled":false,"rental_uris":{"android":"levelo://app?vid=9f7dcf3b-5de8-4203-b8f3-1867275b9acd","ios":"levelo://app?vid=9f7dcf3b-5de8-4203-b8f3-1867275b9acd"},"vehicle_type_id":"4","last_reported":1746067528,"current_range_meters":9600,"station_id":"ce4bh012rcd13ifvqd00","pricing_plan_id":"cebpf4jnsgd1na2vs0mg"},{"bike_id":"8261973d-7fd9-4c15-8fb8-294a251b0456","system_id":"levelo_inurba_marseille","lat":43.29216,"lon":5.38598,"is_reserved":false,"is_disabled":false,"rental_uris":{"android":"levelo://app?vid=8261973d-7fd9-4c15-8fb8-294a251b0456","ios":"levelo://app?vid=8261973d-7fd9-4c15-8fb8-294a251b0456"},"vehicle_type_id":"4","last_reported":1746067528,"current_range_meters":9600,"station_id":"","pricing_plan_id":"cebpf4jnsgd1na2vs0mg"},{"bike_id":"3d16fab9-3e9f-42e6-8c77-6750333018dd","system_id":"levelo_inurba_marseille","lat":43.31104,"lon":5.37764,"is_reserved":false,"is_disabled":false,"rental_uris":{"android":"levelo://app?vid=3d16fab9-3e9f-42e6-8c77-6750333018dd","ios":"levelo://app?vid=3d16fab9-3e9f-42e6-8c77-6750333018dd"},"vehicle_type_id":"4","last_reported":1746067528,"current_range_meters":10000,"station_id":"ce4bgt92rcd13ifvqcg0","pricing_plan_id":"cebpf4jnsgd1na2vs0mg"},{"bike_id":"be092d90-d758-448b-8700-7b4f045f6ddf","system_id":"levelo_inurba_marseille","lat":43.30143,"lon":5.3742,"is_reserved":false,"is_disabled":false,"rental_uris":{"android":"levelo://app?vid=be092d90-d758-448b-8700-7b4f045f6ddf","ios":"levelo://app?vid=be092d90-d758-448b-8700-7b4f045f6ddf"},"vehicle_type_id":"4","last_reported":1746067528,"current_range_meters":10000,"station_id":"ce4bgs92rcd13ifvqcc0","pricing_plan_id":"cebpf4jnsgd1na2vs0mg"},{"bike_id":"281f95ef-0e55-4a78-9d18-fa56583d1c72","system_id":"levelo_inurba_marseille","lat":43.28443,"lon":5.35892,"is_reserved":false,"is_disabled":false,"rental_uris":{"android":"levelo://app?vid=281f95ef-0e55-4a78-9d18-fa56583d1c72","ios":"levelo://app?vid=281f95ef-0e55-4a78-9d18-fa56583d1c72"},"vehicle_type_id":"4","last_reported":1746067528,"current_range_meters":10000,"station_id":"ce4bhah2rcd13ifvqei0","pricing_plan_id":"cebpf4jnsgd1na2vs0mg"},{"bike_id":"fa0013e1-384c-4a43-9dc8-c63fff3d2b7e","system_id":"levelo_inurba_marseille","lat":43.23188,"lon":5.3998,"is_reserved":false,"is_disabled":false,"rental_uris":{"android":"levelo://app?vid=fa0013e1-384c-4a43-9dc8-c63fff3d2b7e","ios":"levelo://app?vid=fa0013e1-384c-4a43-9dc8-c63fff3d2b7e"},"vehicle_type_id":"4","last_reported":1746067528,"current_range_meters":10000,"station_id":"ce4bhn12rcd13ifvqgqg","pricing_plan_id":"cebpf4jnsgd1na2vs0mg"},{"bike_id":"912c7719-28e0-48e1-8454-fa465c703922","system_id":"levelo_inurba_marseille","lat":43.29503,"lon":5.37389,"is_reserved":false,"is_disabled":false,"rental_uris":{"android":"levelo://app?vid=912c7719-28e0-48e1-8454-fa465c703922","ios":"levelo://app?vid=912c7719-28e0-48e1-8454-fa465c703922"},"vehicle_type_id":"4","last_reported":1746067528,"current_range_meters":10000,"station_id":"","pricing_plan_id":"cebpf4jnsgd1na2vs0mg"},{"bike_id":"c1cbc237-cfab-474a-aa26-81a87506105a","system_id":"levelo_inurba_marseille","lat":43.21735,"lon":5.34633,"is_reserved":false,"is_disabled":false,"rental_uris":{"android":"levelo://app?vid=c1cbc237-cfab-474a-aa26-81a87506105a","ios":"levelo://app?vid=c1cbc237-cfab-474a-aa26-81a87506105a"},"vehicle_type_id":"4","last_reported":1746067528,"current_range_meters":10000,"station_id":"st_cvj6r9ubvosntc0bgbag","pricing_plan_id":"cebpf4jnsgd1na2vs0mg"},{"bike_id":"f77b66dc-df98-4767-bb4a-b3fb2fb7880b","system_id":"levelo_inurba_marseille","lat":43.29873,"lon":5.39756,"is_reserved":false,"is_disabled":false,"rental_uris":{"android":"levelo://app?vid=f77b66dc-df98-4767-bb4a-b3fb2fb7880b","ios":"levelo://app?vid=f77b66dc-df98-4767-bb4a-b3fb2fb7880b"},"vehicle_type_id":"4","last_reported":1746067528,"current_range_meters":10000,"station_id":"ce4bh0h2rcd13ifvqd50","pricing_plan_id":"cebpf4jnsgd1na2vs0mg"},{"bike_id":"fca9dc8b-9c20-4eab-83ff-17d0ce9a6922","system_id":"levelo_inurba_marseille","lat":43.26024,"lon":5.41735,"is_reserved":false,"is_disabled":false,"rental_uris":{"android":"levelo://app?vid=fca9dc8b-9c20-4eab-83ff-17d0ce9a6922","ios":"levelo://app?vid=fca9dc8b-9c20-4eab-83ff-17d0ce9a6922"},"vehicle_type_id":"4","last_reported":1746067528,"current_range_meters":10800,"station_id":"","pricing_plan_id":"cebpf4jnsgd1na2vs0mg"},{"bike_id":"097d13a1-9558-4a72-b7ec-8017bd0f0a59","system_id":"levelo_inurba_marseille","lat":43.3061,"lon":5.40209,"is_reserved":false,"is_disabled":false,"rental_uris":{"android":"levelo://app?vid=097d13a1-9558-4a72-b7ec-8017bd0f0a59","ios":"levelo://app?vid=097d13a1-9558-4a72-b7ec-8017bd0f0a59"},"vehicle_type_id":"4","last_reported":1746067528,"current_range_meters":10800,"station_id":"","pricing_plan_id":"cebpf4jnsgd1na2vs0mg"},{"bike_id":"e724090f-9f5a-4859-894c-1a62cb509fd4","system_id":"levelo_inurba_marseille","lat":43.24544,"lon":5.39536,"is_reserved":false,"is_disabled":false,"rental_uris":{"android":"levelo://app?vid=e724090f-9f5a-4859-894c-1a62cb509fd4","ios":"levelo://app?vid=e724090f-9f5a-4859-894c-1a62cb509fd4"},"vehicle_type_id":"4","last_reported":1746067528,"current_range_meters":10800,"station_id":"ce4bhlp2rcd13ifvqgjg","pricing_plan_id":"cebpf4jnsgd1na2vs0mg"},{"bike_id":"c5552acd-50fa-4b0d-95c7-8f6dc5626569","system_id":"levelo_inurba_marseille","lat":43.280792,"lon":5.396571,"is_reserved":false,"is_disabled":false,"rental_uris":{"android":"levelo://app?vid=c5552acd-50fa-4b0d-95c7-8f6dc5626569","ios":"levelo://app?vid=c5552acd-50fa-4b0d-95c7-8f6dc5626569"},"vehicle_type_id":"4","last_reported":1746067528,"current_range_meters":10800,"station_id":"ce4bho12rcd13ifvqh2g","pricing_plan_id":"cebpf4jnsgd1na2vs0mg"},{"bike_id":"33d7baf9-357c-4d1f-ab8e-6d638d620a34","system_id":"levelo_inurba_marseille","lat":43.291023,"lon":5.381633,"is_reserved":false,"is_disabled":false,"rental_uris":{"android":"levelo://app?vid=33d7baf9-357c-4d1f-ab8e-6d638d620a34","ios":"levelo://app?vid=33d7baf9-357c-4d1f-ab8e-6d638d620a34"},"vehicle_type_id":"4","last_reported":1746067528,"current_range_meters":10800,"station_id":"ce4bh512rcd13ifvqe2g","pricing_plan_id":"cebpf4jnsgd1na2vs0mg"},{"bike_id":"77942475-b9df-43a6-af61-b22087b935d2","system_id":"levelo_inurba_marseille","lat":43.29251,"lon":5.384408,"is_reserved":false,"is_disabled":true,"rental_uris":{"android":"levelo://app?vid=77942475-b9df-43a6-af61-b22087b935d2","ios":"levelo://app?vid=77942475-b9df-43a6-af61-b22087b935d2"},"vehicle_type_id":"4","last_reported":1746067528,"current_range_meters":10800,"station_id":"ce4bh692rcd13ifvqea0","pricing_plan_id":"cebpf4jnsgd1na2vs0mg"},{"bike_id":"c326b9f7-c1e6-44d5-a0fe-0e3f0a410abd","system_id":"levelo_inurba_marseille","lat":43.27555,"lon":5.38408,"is_reserved":false,"is_disabled":false,"rental_uris":{"android":"levelo://app?vid=c326b9f7-c1e6-44d5-a0fe-0e3f0a410abd","ios":"levelo://app?vid=c326b9f7-c1e6-44d5-a0fe-0e3f0a410abd"},"vehicle_type_id":"4","last_reported":1746067528,"current_range_meters":10800,"station_id":"ce4bhh92rcd13ifvqfi0","pricing_plan_id":"cebpf4jnsgd1na2vs0mg"},{"bike_id":"379b8933-bc6e-4164-9d36-daaf2941e50f","system_id":"levelo_inurba_marseille","lat":43.30772,"lon":5.37475,"is_reserved":false,"is_disabled":false,"rental_uris":{"android":"levelo://app?vid=379b8933-bc6e-4164-9d36-daaf2941e50f","ios":"levelo://app?vid=379b8933-bc6e-4164-9d36-daaf2941e50f"},"vehicle_type_id":"4","last_reported":1746067528,"current_range_meters":10800,"station_id":"","pricing_plan_id":"cebpf4jnsgd1na2vs0mg"},{"bike_id":"605f87fe-8a7b-4678-bf49-f6ba1d2f7071","system_id":"levelo_inurba_marseille","lat":43.30122,"lon":5.39884,"is_reserved":false,"is_disabled":false,"rental_uris":{"android":"levelo://app?vid=605f87fe-8a7b-4678-bf49-f6ba1d2f7071","ios":"levelo://app?vid=605f87fe-8a7b-4678-bf49-f6ba1d2f7071"},"vehicle_type_id":"4","last_reported":1746067528,"current_range_meters":10800,"station_id":"ce4bh0h2rcd13ifvqd40","pricing_plan_id":"cebpf4jnsgd1na2vs0mg"},{"bike_id":"3ce5a6a0-7c75-4b93-962c-2dd6ababc3c9","system_id":"levelo_inurba_marseille","lat":43.22497,"lon":5.3477,"is_reserved":false,"is_disabled":false,"rental_uris":{"android":"levelo://app?vid=3ce5a6a0-7c75-4b93-962c-2dd6ababc3c9","ios":"levelo://app?vid=3ce5a6a0-7c75-4b93-962c-2dd6ababc3c9"},"vehicle_type_id":"4","last_reported":1746067528,"current_range_meters":10800,"station_id":"st_cvj5dfep6f1abm77gieg","pricing_plan_id":"cebpf4jnsgd1na2vs0mg"},{"bike_id":"d08fe425-042c-4938-b862-c3dc2ac034aa","system_id":"levelo_inurba_marseille","lat":43.323621,"lon":5.388794,"is_reserved":false,"is_disabled":false,"rental_uris":{"android":"levelo://app?vid=d08fe425-042c-4938-b862-c3dc2ac034aa","ios":"levelo://app?vid=d08fe425-042c-4938-b862-c3dc2ac034aa"},"vehicle_type_id":"4","last_reported":1746067528,"current_range_meters":10800,"station_id":"ce4bhqp2rcd13ifvqhog","pricing_plan_id":"cebpf4jnsgd1na2vs0mg"},{"bike_id":"032564e3-7c6f-4dae-8fee-5f63b3bd85c6","system_id":"levelo_inurba_marseille","lat":43.269426,"lon":5.402676,"is_reserved":false,"is_disabled":false,"rental_uris":{"android":"levelo://app?vid=032564e3-7c6f-4dae-8fee-5f63b3bd85c6","ios":"levelo://app?vid=032564e3-7c6f-4dae-8fee-5f63b3bd85c6"},"vehicle_type_id":"4","last_reported":1746067528,"current_range_meters":11200,"station_id":"cjm6bp8fraef2m0cb0m0","pricing_plan_id":"cebpf4jnsgd1na2vs0mg"},{"bike_id":"a076933d-3a98-414c-b7e5-30c1a775a06f","system_id":"levelo_inurba_marseille","lat":43.3137,"lon":5.39094,"is_reserved":false,"is_disabled":false,"rental_uris":{"android":"levelo://app?vid=a076933d-3a98-414c-b7e5-30c1a775a06f","ios":"levelo://app?vid=a076933d-3a98-414c-b7e5-30c1a775a06f"},"vehicle_type_id":"4","last_reported":1746067528,"current_range_meters":11200,"station_id":"","pricing_plan_id":"cebpf4jnsgd1na2vs0mg"},{"bike_id":"ec4066d2-10e8-47a7-9fae-05d45bed3d89","system_id":"levelo_inurba_marseille","lat":43.29625,"lon":5.40591,"is_reserved":false,"is_disabled":false,"rental_uris":{"android":"levelo://app?vid=ec4066d2-10e8-47a7-9fae-05d45bed3d89","ios":"levelo://app?vid=ec4066d2-10e8-47a7-9fae-05d45bed3d89"},"vehicle_type_id":"4","last_reported":1746067528,"current_range_meters":11200,"station_id":"ce4bh0h2rcd13ifvqd60","pricing_plan_id":"cebpf4jnsgd1na2vs0mg"},{"bike_id":"8ab8f219-1642-4a0d-af2a-eaa8ea6c816f","system_id":"levelo_inurba_marseille","lat":43.317627,"lon":5.390276,"is_reserved":false,"is_disabled":false,"rental_uris":{"android":"levelo://app?vid=8ab8f219-1642-4a0d-af2a-eaa8ea6c816f","ios":"levelo://app?vid=8ab8f219-1642-4a0d-af2a-eaa8ea6c816f"},"vehicle_type_id":"4","last_reported":1746067528,"current_range_meters":11200,"station_id":"ce4bhqp2rcd13ifvqhng","pricing_plan_id":"cebpf4jnsgd1na2vs0mg"},{"bike_id":"df93e2e5-6077-4d47-ac12-eb3362d865a5","system_id":"levelo_inurba_marseille","lat":43.28412,"lon":5.37532,"is_reserved":false,"is_disabled":false,"rental_uris":{"android":"levelo://app?vid=df93e2e5-6077-4d47-ac12-eb3362d865a5","ios":"levelo://app?vid=df93e2e5-6077-4d47-ac12-eb3362d865a5"},"vehicle_type_id":"4","last_reported":1746067528,"current_range_meters":11200,"station_id":"ce4bh412rcd13ifvqds0","pricing_plan_id":"cebpf4jnsgd1na2vs0mg"},{"bike_id":"58ea75ac-ba33-486d-953a-cfa6f13eb988","system_id":"levelo_inurba_marseille","lat":43.28407,"lon":5.37516,"is_reserved":false,"is_disabled":false,"rental_uris":{"android":"levelo://app?vid=58ea75ac-ba33-486d-953a-cfa6f13eb988","ios":"levelo://app?vid=58ea75ac-ba33-486d-953a-cfa6f13eb988"},"vehicle_type_id":"4","last_reported":1746067528,"current_range_meters":11200,"station_id":"ce4bh412rcd13ifvqds0","pricing_plan_id":"cebpf4jnsgd1na2vs0mg"},{"bike_id":"9f87d872-9836-4a68-a4bb-b0ab837e0461","system_id":"levelo_inurba_marseille","lat":43.30492,"lon":5.36705,"is_reserved":false,"is_disabled":true,"rental_uris":{"android":"levelo://app?vid=9f87d872-9836-4a68-a4bb-b0ab837e0461","ios":"levelo://app?vid=9f87d872-9836-4a68-a4bb-b0ab837e0461"},"vehicle_type_id":"4","last_reported":1746067528,"current_range_meters":11200,"station_id":"ce4bgrp2rcd13ifvqc9g","pricing_plan_id":"cebpf4jnsgd1na2vs0mg"},{"bike_id":"f42eda28-9fde-4d5b-8620-08d7e10a74c2","system_id":"levelo_inurba_marseille","lat":43.30929,"lon":5.40143,"is_reserved":false,"is_disabled":false,"rental_uris":{"android":"levelo://app?vid=f42eda28-9fde-4d5b-8620-08d7e10a74c2","ios":"levelo://app?vid=f42eda28-9fde-4d5b-8620-08d7e10a74c2"},"vehicle_type_id":"4","last_reported":1746067528,"current_range_meters":11200,"station_id":"ce4bgvp2rcd13ifvqct0","pricing_plan_id":"cebpf4jnsgd1na2vs0mg"},{"bike_id":"303d897b-9142-4bca-9812-1950e13a7b17","system_id":"levelo_inurba_marseille","lat":43.308865,"lon":5.396516,"is_reserved":false,"is_disabled":false,"rental_uris":{"android":"levelo://app?vid=303d897b-9142-4bca-9812-1950e13a7b17","ios":"levelo://app?vid=303d897b-9142-4bca-9812-1950e13a7b17"},"vehicle_type_id":"4","last_reported":1746067528,"current_range_meters":11200,"station_id":"ce4bh012rcd13ifvqcv0","pricing_plan_id":"cebpf4jnsgd1na2vs0mg"},{"bike_id":"42979274-76ae-42a2-b009-8dde9f74aa65","system_id":"levelo_inurba_marseille","lat":43.33026,"lon":5.39036,"is_reserved":false,"is_disabled":false,"rental_uris":{"android":"levelo://app?vid=42979274-76ae-42a2-b009-8dde9f74aa65","ios":"levelo://app?vid=42979274-76ae-42a2-b009-8dde9f74aa65"},"vehicle_type_id":"4","last_reported":1746067528,"current_range_meters":11600,"station_id":"ce4bhr92rcd13ifvqhrg","pricing_plan_id":"cebpf4jnsgd1na2vs0mg"},{"bike_id":"b8feccfa-4923-4995-84ae-609fa42fd20c","system_id":"levelo_inurba_marseille","lat":43.28007,"lon":5.39996,"is_reserved":false,"is_disabled":false,"rental_uris":{"android":"levelo://app?vid=b8feccfa-4923-4995-84ae-609fa42fd20c","ios":"levelo://app?vid=b8feccfa-4923-4995-84ae-609fa42fd20c"},"vehicle_type_id":"4","last_reported":1746067528,"current_range_meters":11600,"station_id":"ce4bho92rcd13ifvqh4g","pricing_plan_id":"cebpf4jnsgd1na2vs0mg"},{"bike_id":"80651a87-6c3b-4ad8-a524-9ca686ad66c6","system_id":"levelo_inurba_marseille","lat":43.33006,"lon":5.39052,"is_reserved":false,"is_disabled":false,"rental_uris":{"android":"levelo://app?vid=80651a87-6c3b-4ad8-a524-9ca686ad66c6","ios":"levelo://app?vid=80651a87-6c3b-4ad8-a524-9ca686ad66c6"},"vehicle_type_id":"4","last_reported":1746067528,"current_range_meters":11600,"station_id":"ce4bhr92rcd13ifvqhrg","pricing_plan_id":"cebpf4jnsgd1na2vs0mg"},{"bike_id":"562276dc-22b8-4d74-876e-58926664ab2e","system_id":"levelo_inurba_marseille","lat":43.289972,"lon":5.356174,"is_reserved":false,"is_disabled":true,"rental_uris":{"android":"levelo://app?vid=562276dc-22b8-4d74-876e-58926664ab2e","ios":"levelo://app?vid=562276dc-22b8-4d74-876e-58926664ab2e"},"vehicle_type_id":"4","last_reported":1746067528,"current_range_meters":11600,"station_id":"ce4bhb92rcd13ifvqen0","pricing_plan_id":"cebpf4jnsgd1na2vs0mg"},{"bike_id":"171cdde1-553e-41d8-ad20-22097af17faf","system_id":"levelo_inurba_marseille","lat":43.2657,"lon":5.39067,"is_reserved":false,"is_disabled":false,"rental_uris":{"android":"levelo://app?vid=171cdde1-553e-41d8-ad20-22097af17faf","ios":"levelo://app?vid=171cdde1-553e-41d8-ad20-22097af17faf"},"vehicle_type_id":"4","last_reported":1746067528,"current_range_meters":12000,"station_id":"ce4bhe12rcd13ifvqf30","pricing_plan_id":"cebpf4jnsgd1na2vs0mg"},{"bike_id":"22da4027-4f6f-45d1-9334-006a58311cd1","system_id":"levelo_inurba_marseille","lat":43.240624,"lon":5.367894,"is_reserved":false,"is_disabled":false,"rental_uris":{"android":"levelo://app?vid=22da4027-4f6f-45d1-9334-006a58311cd1","ios":"levelo://app?vid=22da4027-4f6f-45d1-9334-006a58311cd1"},"vehicle_type_id":"4","last_reported":1746067528,"current_range_meters":12000,"station_id":"","pricing_plan_id":"cebpf4jnsgd1na2vs0mg"},{"bike_id":"4f86a978-1faa-41c3-8974-e1b31a2703b5","system_id":"levelo_inurba_marseille","lat":43.2511,"lon":5.40347,"is_reserved":false,"is_disabled":false,"rental_uris":{"android":"levelo://app?vid=4f86a978-1faa-41c3-8974-e1b31a2703b5","ios":"levelo://app?vid=4f86a978-1faa-41c3-8974-e1b31a2703b5"},"vehicle_type_id":"4","last_reported":1746067528,"current_range_meters":12000,"station_id":"ce4bhlh2rcd13ifvqgig","pricing_plan_id":"cebpf4jnsgd1na2vs0mg"},{"bike_id":"b983b707-143e-405f-94bd-4a18f56428a4","system_id":"levelo_inurba_marseille","lat":43.29628,"lon":5.4059,"is_reserved":false,"is_disabled":false,"rental_uris":{"android":"levelo://app?vid=b983b707-143e-405f-94bd-4a18f56428a4","ios":"levelo://app?vid=b983b707-143e-405f-94bd-4a18f56428a4"},"vehicle_type_id":"4","last_reported":1746067528,"current_range_meters":12000,"station_id":"ce4bh0h2rcd13ifvqd60","pricing_plan_id":"cebpf4jnsgd1na2vs0mg"},{"bike_id":"8342b424-d284-4c41-bc53-b34605de4fb2","system_id":"levelo_inurba_marseille","lat":43.24076,"lon":5.37757,"is_reserved":false,"is_disabled":false,"rental_uris":{"android":"levelo://app?vid=8342b424-d284-4c41-bc53-b34605de4fb2","ios":"levelo://app?vid=8342b424-d284-4c41-bc53-b34605de4fb2"},"vehicle_type_id":"4","last_reported":1746067528,"current_range_meters":12000,"station_id":"ce4bhnp2rcd13ifvqgvg","pricing_plan_id":"cebpf4jnsgd1na2vs0mg"},{"bike_id":"d81abb63-9e29-43ff-affe-f5dd120de981","system_id":"levelo_inurba_marseille","lat":43.32364,"lon":5.38915,"is_reserved":false,"is_disabled":false,"rental_uris":{"android":"levelo://app?vid=d81abb63-9e29-43ff-affe-f5dd120de981","ios":"levelo://app?vid=d81abb63-9e29-43ff-affe-f5dd120de981"},"vehicle_type_id":"4","last_reported":1746067528,"current_range_meters":12000,"station_id":"ce4bhqp2rcd13ifvqhog","pricing_plan_id":"cebpf4jnsgd1na2vs0mg"},{"bike_id":"1c45135d-b3e0-422a-98e4-bf166d4da74a","system_id":"levelo_inurba_marseille","lat":43.30147,"lon":5.38089,"is_reserved":false,"is_disabled":false,"rental_uris":{"android":"levelo://app?vid=1c45135d-b3e0-422a-98e4-bf166d4da74a","ios":"levelo://app?vid=1c45135d-b3e0-422a-98e4-bf166d4da74a"},"vehicle_type_id":"4","last_reported":1746067528,"current_range_meters":12400,"station_id":"ce4bgjp2rcd13ifvqbh0","pricing_plan_id":"cebpf4jnsgd1na2vs0mg"},{"bike_id":"54f016eb-d4f2-4464-a9b5-1bd215f5c09b","system_id":"levelo_inurba_marseille","lat":43.32366,"lon":5.38888,"is_reserved":false,"is_disabled":false,"rental_uris":{"android":"levelo://app?vid=54f016eb-d4f2-4464-a9b5-1bd215f5c09b","ios":"levelo://app?vid=54f016eb-d4f2-4464-a9b5-1bd215f5c09b"},"vehicle_type_id":"4","last_reported":1746067528,"current_range_meters":12400,"station_id":"ce4bhqp2rcd13ifvqhog","pricing_plan_id":"cebpf4jnsgd1na2vs0mg"},{"bike_id":"568e8226-15e0-4a16-bfa2-70ee45a44145","system_id":"levelo_inurba_marseille","lat":43.336,"lon":5.41007,"is_reserved":false,"is_disabled":false,"rental_uris":{"android":"levelo://app?vid=568e8226-15e0-4a16-bfa2-70ee45a44145","ios":"levelo://app?vid=568e8226-15e0-4a16-bfa2-70ee45a44145"},"vehicle_type_id":"4","last_reported":1746067528,"current_range_meters":12400,"station_id":"ce4bhqh2rcd13ifvqhmg","pricing_plan_id":"cebpf4jnsgd1na2vs0mg"},{"bike_id":"74e43ab7-c22e-4e7e-9af4-ef7676b145b6","system_id":"levelo_inurba_marseille","lat":43.2571,"lon":5.41132,"is_reserved":false,"is_disabled":false,"rental_uris":{"android":"levelo://app?vid=74e43ab7-c22e-4e7e-9af4-ef7676b145b6","ios":"levelo://app?vid=74e43ab7-c22e-4e7e-9af4-ef7676b145b6"},"vehicle_type_id":"4","last_reported":1746067528,"current_range_meters":12400,"station_id":"ce4bhkp2rcd13ifvqgd0","pricing_plan_id":"cebpf4jnsgd1na2vs0mg"},{"bike_id":"da557341-b4a1-447e-9606-415e0f9c6127","system_id":"levelo_inurba_marseille","lat":43.30468,"lon":5.378936,"is_reserved":false,"is_disabled":true,"rental_uris":{"android":"levelo://app?vid=da557341-b4a1-447e-9606-415e0f9c6127","ios":"levelo://app?vid=da557341-b4a1-447e-9606-415e0f9c6127"},"vehicle_type_id":"4","last_reported":1746067528,"current_range_meters":12400,"station_id":"ce4bgup2rcd13ifvqcn0","pricing_plan_id":"cebpf4jnsgd1na2vs0mg"},{"bike_id":"890276df-dbf3-4624-95c0-7bfd9c7f8e8a","system_id":"levelo_inurba_marseille","lat":43.279541,"lon":5.387363,"is_reserved":false,"is_disabled":false,"rental_uris":{"android":"levelo://app?vid=890276df-dbf3-4624-95c0-7bfd9c7f8e8a","ios":"levelo://app?vid=890276df-dbf3-4624-95c0-7bfd9c7f8e8a"},"vehicle_type_id":"4","last_reported":1746067528,"current_range_meters":12400,"station_id":"ce4bhg12rcd13ifvqf80","pricing_plan_id":"cebpf4jnsgd1na2vs0mg"},{"bike_id":"8fead5b8-7d9b-4e9f-8d43-79e6b1d90d86","system_id":"levelo_inurba_marseille","lat":43.30249,"lon":5.40057,"is_reserved":false,"is_disabled":false,"rental_uris":{"android":"levelo://app?vid=8fead5b8-7d9b-4e9f-8d43-79e6b1d90d86","ios":"levelo://app?vid=8fead5b8-7d9b-4e9f-8d43-79e6b1d90d86"},"vehicle_type_id":"4","last_reported":1746067528,"current_range_meters":12400,"station_id":"ce4bgvh2rcd13ifvqcs0","pricing_plan_id":"cebpf4jnsgd1na2vs0mg"},{"bike_id":"2651b4a1-13e1-4235-9053-4ff760306dc9","system_id":"levelo_inurba_marseille","lat":43.30295,"lon":5.40459,"is_reserved":false,"is_disabled":false,"rental_uris":{"android":"levelo://app?vid=2651b4a1-13e1-4235-9053-4ff760306dc9","ios":"levelo://app?vid=2651b4a1-13e1-4235-9053-4ff760306dc9"},"vehicle_type_id":"4","last_reported":1746067528,"current_range_meters":12400,"station_id":"ce4bh012rcd13ifvqd10","pricing_plan_id":"cebpf4jnsgd1na2vs0mg"},{"bike_id":"bded5638-5663-46d5-b164-b8214836c3ea","system_id":"levelo_inurba_marseille","lat":43.273025,"lon":5.392033,"is_reserved":false,"is_disabled":false,"rental_uris":{"android":"levelo://app?vid=bded5638-5663-46d5-b164-b8214836c3ea","ios":"levelo://app?vid=bded5638-5663-46d5-b164-b8214836c3ea"},"vehicle_type_id":"4","last_reported":1746067528,"current_range_meters":12800,"station_id":"","pricing_plan_id":"cebpf4jnsgd1na2vs0mg"},{"bike_id":"ca5f449a-1b49-4061-8873-7462fef94966","system_id":"levelo_inurba_marseille","lat":43.25862,"lon":5.39931,"is_reserved":false,"is_disabled":false,"rental_uris":{"android":"levelo://app?vid=ca5f449a-1b49-4061-8873-7462fef94966","ios":"levelo://app?vid=ca5f449a-1b49-4061-8873-7462fef94966"},"vehicle_type_id":"4","last_reported":1746067528,"current_range_meters":12800,"station_id":"ce4bhl92rcd13ifvqghg","pricing_plan_id":"cebpf4jnsgd1na2vs0mg"},{"bike_id":"a732b3d6-472a-46b2-b5fc-7d86a14ed2fc","system_id":"levelo_inurba_marseille","lat":43.330226,"lon":5.390421,"is_reserved":false,"is_disabled":false,"rental_uris":{"android":"levelo://app?vid=a732b3d6-472a-46b2-b5fc-7d86a14ed2fc","ios":"levelo://app?vid=a732b3d6-472a-46b2-b5fc-7d86a14ed2fc"},"vehicle_type_id":"4","last_reported":1746067528,"current_range_meters":12800,"station_id":"ce4bhr92rcd13ifvqhrg","pricing_plan_id":"cebpf4jnsgd1na2vs0mg"},{"bike_id":"fd427e05-8ad1-4dac-ba3a-e42fe8245eb3","system_id":"levelo_inurba_marseille","lat":43.28415,"lon":5.34991,"is_reserved":false,"is_disabled":true,"rental_uris":{"android":"levelo://app?vid=fd427e05-8ad1-4dac-ba3a-e42fe8245eb3","ios":"levelo://app?vid=fd427e05-8ad1-4dac-ba3a-e42fe8245eb3"},"vehicle_type_id":"4","last_reported":1746067528,"current_range_meters":12800,"station_id":"ce4bhbh2rcd13ifvqepg","pricing_plan_id":"cebpf4jnsgd1na2vs0mg"},{"bike_id":"39df689c-ab87-4f4a-bd01-ff7e217b5f18","system_id":"levelo_inurba_marseille","lat":43.26283,"lon":5.4044,"is_reserved":false,"is_disabled":false,"rental_uris":{"android":"levelo://app?vid=39df689c-ab87-4f4a-bd01-ff7e217b5f18","ios":"levelo://app?vid=39df689c-ab87-4f4a-bd01-ff7e217b5f18"},"vehicle_type_id":"4","last_reported":1746067528,"current_range_meters":12800,"station_id":"ce4bhmh2rcd13ifvqgmg","pricing_plan_id":"cebpf4jnsgd1na2vs0mg"},{"bike_id":"0b5053cc-1f6f-4dc9-a71a-b19b641e4ecc","system_id":"levelo_inurba_marseille","lat":43.29035,"lon":5.35919,"is_reserved":false,"is_disabled":false,"rental_uris":{"android":"levelo://app?vid=0b5053cc-1f6f-4dc9-a71a-b19b641e4ecc","ios":"levelo://app?vid=0b5053cc-1f6f-4dc9-a71a-b19b641e4ecc"},"vehicle_type_id":"4","last_reported":1746067528,"current_range_meters":12400,"station_id":"ce4bha92rcd13ifvqeg0","pricing_plan_id":"cebpf4jnsgd1na2vs0mg"},{"bike_id":"a688b131-ae29-4f11-8812-f85f61aa6706","system_id":"levelo_inurba_marseille","lat":43.292101,"lon":5.393194,"is_reserved":false,"is_disabled":true,"rental_uris":{"android":"levelo://app?vid=a688b131-ae29-4f11-8812-f85f61aa6706","ios":"levelo://app?vid=a688b131-ae29-4f11-8812-f85f61aa6706"},"vehicle_type_id":"4","last_reported":1746067528,"current_range_meters":13600,"station_id":"ce4bhbh2rcd13ifvqeo0","pricing_plan_id":"cebpf4jnsgd1na2vs0mg"},{"bike_id":"c0bc13c3-6f34-4e19-9ba6-af51c97f668d","system_id":"levelo_inurba_marseille","lat":43.30143,"lon":5.38073,"is_reserved":false,"is_disabled":false,"rental_uris":{"android":"levelo://app?vid=c0bc13c3-6f34-4e19-9ba6-af51c97f668d","ios":"levelo://app?vid=c0bc13c3-6f34-4e19-9ba6-af51c97f668d"},"vehicle_type_id":"4","last_reported":1746067528,"current_range_meters":13600,"station_id":"ce4bgjp2rcd13ifvqbh0","pricing_plan_id":"cebpf4jnsgd1na2vs0mg"},{"bike_id":"34b484ab-c0f1-4e55-b51a-e2bafdafb63e","system_id":"levelo_inurba_marseille","lat":43.230508,"lon":5.355012,"is_reserved":false,"is_disabled":false,"rental_uris":{"android":"levelo://app?vid=34b484ab-c0f1-4e55-b51a-e2bafdafb63e","ios":"levelo://app?vid=34b484ab-c0f1-4e55-b51a-e2bafdafb63e"},"vehicle_type_id":"4","last_reported":1746067528,"current_range_meters":13600,"station_id":"cpo3342slgdg3j2ifvpg","pricing_plan_id":"cebpf4jnsgd1na2vs0mg"},{"bike_id":"467050e6-9cdd-49b2-9d0d-8d0ce79691a3","system_id":"levelo_inurba_marseille","lat":43.279167,"lon":5.395863,"is_reserved":false,"is_disabled":false,"rental_uris":{"android":"levelo://app?vid=467050e6-9cdd-49b2-9d0d-8d0ce79691a3","ios":"levelo://app?vid=467050e6-9cdd-49b2-9d0d-8d0ce79691a3"},"vehicle_type_id":"4","last_reported":1746067528,"current_range_meters":13600,"station_id":"ce4bhf92rcd13ifvqf40","pricing_plan_id":"cebpf4jnsgd1na2vs0mg"},{"bike_id":"ff871a21-68c1-40d8-a5e8-eabe2ee6fb5b","system_id":"levelo_inurba_marseille","lat":43.30107,"lon":5.39891,"is_reserved":false,"is_disabled":false,"rental_uris":{"android":"levelo://app?vid=ff871a21-68c1-40d8-a5e8-eabe2ee6fb5b","ios":"levelo://app?vid=ff871a21-68c1-40d8-a5e8-eabe2ee6fb5b"},"vehicle_type_id":"4","last_reported":1746067528,"current_range_meters":13600,"station_id":"ce4bh0h2rcd13ifvqd40","pricing_plan_id":"cebpf4jnsgd1na2vs0mg"},{"bike_id":"4fc13aab-47ec-41bf-ba18-3346f7c81d19","system_id":"levelo_inurba_marseille","lat":43.33595,"lon":5.40968,"is_reserved":false,"is_disabled":false,"rental_uris":{"android":"levelo://app?vid=4fc13aab-47ec-41bf-ba18-3346f7c81d19","ios":"levelo://app?vid=4fc13aab-47ec-41bf-ba18-3346f7c81d19"},"vehicle_type_id":"4","last_reported":1746067528,"current_range_meters":14000,"station_id":"","pricing_plan_id":"cebpf4jnsgd1na2vs0mg"},{"bike_id":"d8f69332-d7da-463e-98da-8052c52b547e","system_id":"levelo_inurba_marseille","lat":43.27807,"lon":5.40733,"is_reserved":false,"is_disabled":false,"rental_uris":{"android":"levelo://app?vid=d8f69332-d7da-463e-98da-8052c52b547e","ios":"levelo://app?vid=d8f69332-d7da-463e-98da-8052c52b547e"},"vehicle_type_id":"4","last_reported":1746067528,"current_range_meters":14000,"station_id":"ce4bhnh2rcd13ifvqgtg","pricing_plan_id":"cebpf4jnsgd1na2vs0mg"},{"bike_id":"083163f5-e2fd-40d2-9e4f-7b3d2d85df31","system_id":"levelo_inurba_marseille","lat":43.269981,"lon":5.387505,"is_reserved":false,"is_disabled":true,"rental_uris":{"android":"levelo://app?vid=083163f5-e2fd-40d2-9e4f-7b3d2d85df31","ios":"levelo://app?vid=083163f5-e2fd-40d2-9e4f-7b3d2d85df31"},"vehicle_type_id":"4","last_reported":1746067528,"current_range_meters":14000,"station_id":"","pricing_plan_id":"cebpf4jnsgd1na2vs0mg"},{"bike_id":"b425e77b-7cee-420d-9947-f4d46aad0831","system_id":"levelo_inurba_marseille","lat":43.29432,"lon":5.39749,"is_reserved":false,"is_disabled":false,"rental_uris":{"android":"levelo://app?vid=b425e77b-7cee-420d-9947-f4d46aad0831","ios":"levelo://app?vid=b425e77b-7cee-420d-9947-f4d46aad0831"},"vehicle_type_id":"4","last_reported":1746067528,"current_range_meters":14000,"station_id":"ce4bh3h2rcd13ifvqdo0","pricing_plan_id":"cebpf4jnsgd1na2vs0mg"},{"bike_id":"7940bc1b-eaa7-4f49-a435-46dc9391f6a1","system_id":"levelo_inurba_marseille","lat":43.211974,"lon":5.350619,"is_reserved":false,"is_disabled":false,"rental_uris":{"android":"levelo://app?vid=7940bc1b-eaa7-4f49-a435-46dc9391f6a1","ios":"levelo://app?vid=7940bc1b-eaa7-4f49-a435-46dc9391f6a1"},"vehicle_type_id":"4","last_reported":1746067528,"current_range_meters":14000,"station_id":"st_cvj6sg6p6f1abm77japg","pricing_plan_id":"cebpf4jnsgd1na2vs0mg"},{"bike_id":"4215e336-130f-4e4e-ac75-ab1f2791ea4d","system_id":"levelo_inurba_marseille","lat":43.316815,"lon":5.404676,"is_reserved":false,"is_disabled":false,"rental_uris":{"android":"levelo://app?vid=4215e336-130f-4e4e-ac75-ab1f2791ea4d","ios":"levelo://app?vid=4215e336-130f-4e4e-ac75-ab1f2791ea4d"},"vehicle_type_id":"4","last_reported":1746067528,"current_range_meters":14000,"station_id":"ce4bh012rcd13ifvqd00","pricing_plan_id":"cebpf4jnsgd1na2vs0mg"},{"bike_id":"a0da20fc-88e0-400b-8360-717e1e8d72f2","system_id":"levelo_inurba_marseille","lat":43.309337,"lon":5.401363,"is_reserved":false,"is_disabled":false,"rental_uris":{"android":"levelo://app?vid=a0da20fc-88e0-400b-8360-717e1e8d72f2","ios":"levelo://app?vid=a0da20fc-88e0-400b-8360-717e1e8d72f2"},"vehicle_type_id":"4","last_reported":1746067528,"current_range_meters":14400,"station_id":"ce4bgvp2rcd13ifvqct0","pricing_plan_id":"cebpf4jnsgd1na2vs0mg"},{"bike_id":"07541a4c-711f-473d-acfe-1eb9b677008b","system_id":"levelo_inurba_marseille","lat":43.324828,"lon":5.365675,"is_reserved":false,"is_disabled":true,"rental_uris":{"android":"levelo://app?vid=07541a4c-711f-473d-acfe-1eb9b677008b","ios":"levelo://app?vid=07541a4c-711f-473d-acfe-1eb9b677008b"},"vehicle_type_id":"4","last_reported":1746067528,"current_range_meters":14400,"station_id":"ce4bhs12rcd13ifvqhvg","pricing_plan_id":"cebpf4jnsgd1na2vs0mg"},{"bike_id":"fe9083d3-036c-45c9-9372-5aa64c224af0","system_id":"levelo_inurba_marseille","lat":43.30891,"lon":5.371992,"is_reserved":false,"is_disabled":false,"rental_uris":{"android":"levelo://app?vid=fe9083d3-036c-45c9-9372-5aa64c224af0","ios":"levelo://app?vid=fe9083d3-036c-45c9-9372-5aa64c224af0"},"vehicle_type_id":"4","last_reported":1746067528,"current_range_meters":14400,"station_id":"ce4bguh2rcd13ifvqckg","pricing_plan_id":"cebpf4jnsgd1na2vs0mg"},{"bike_id":"fd7875a1-1cd0-47f8-880b-6ef58a6b7e2e","system_id":"levelo_inurba_marseille","lat":43.22936,"lon":5.35404,"is_reserved":false,"is_disabled":false,"rental_uris":{"android":"levelo://app?vid=fd7875a1-1cd0-47f8-880b-6ef58a6b7e2e","ios":"levelo://app?vid=fd7875a1-1cd0-47f8-880b-6ef58a6b7e2e"},"vehicle_type_id":"4","last_reported":1746067528,"current_range_meters":14400,"station_id":"cpo3532slgdg3j2ikp40","pricing_plan_id":"cebpf4jnsgd1na2vs0mg"},{"bike_id":"28a8c1f4-124d-40e1-8608-855ff83aa7e8","system_id":"levelo_inurba_marseille","lat":43.24068,"lon":5.37767,"is_reserved":false,"is_disabled":false,"rental_uris":{"android":"levelo://app?vid=28a8c1f4-124d-40e1-8608-855ff83aa7e8","ios":"levelo://app?vid=28a8c1f4-124d-40e1-8608-855ff83aa7e8"},"vehicle_type_id":"4","last_reported":1746067528,"current_range_meters":14400,"station_id":"ce4bhnp2rcd13ifvqgvg","pricing_plan_id":"cebpf4jnsgd1na2vs0mg"},{"bike_id":"66cf9de5-17de-4e38-9ee0-8d2cef3b4ab3","system_id":"levelo_inurba_marseille","lat":43.306761,"lon":5.400869,"is_reserved":false,"is_disabled":true,"rental_uris":{"android":"levelo://app?vid=66cf9de5-17de-4e38-9ee0-8d2cef3b4ab3","ios":"levelo://app?vid=66cf9de5-17de-4e38-9ee0-8d2cef3b4ab3"},"vehicle_type_id":"4","last_reported":1746067528,"current_range_meters":14400,"station_id":"ce4bh112rcd13ifvqda0","pricing_plan_id":"cebpf4jnsgd1na2vs0mg"},{"bike_id":"734c3611-7469-46e4-9c45-70060c2c0e34","system_id":"levelo_inurba_marseille","lat":43.27903,"lon":5.38013,"is_reserved":false,"is_disabled":false,"rental_uris":{"android":"levelo://app?vid=734c3611-7469-46e4-9c45-70060c2c0e34","ios":"levelo://app?vid=734c3611-7469-46e4-9c45-70060c2c0e34"},"vehicle_type_id":"4","last_reported":1746067528,"current_range_meters":17200,"station_id":"ce4bhf92rcd13ifvqf50","pricing_plan_id":"cebpf4jnsgd1na2vs0mg"},{"bike_id":"14e901af-0e1a-46e5-89c8-85cacaa053a9","system_id":"levelo_inurba_marseille","lat":43.270546,"lon":5.402637,"is_reserved":false,"is_disabled":false,"rental_uris":{"android":"levelo://app?vid=14e901af-0e1a-46e5-89c8-85cacaa053a9","ios":"levelo://app?vid=14e901af-0e1a-46e5-89c8-85cacaa053a9"},"vehicle_type_id":"4","last_reported":1746067528,"current_range_meters":14800,"station_id":"ce4bhk92rcd13ifvqgc0","pricing_plan_id":"cebpf4jnsgd1na2vs0mg"},{"bike_id":"da62e04f-aabf-4f2b-9e7f-761fdf6d967b","system_id":"levelo_inurba_marseille","lat":43.28398,"lon":5.37518,"is_reserved":false,"is_disabled":false,"rental_uris":{"android":"levelo://app?vid=da62e04f-aabf-4f2b-9e7f-761fdf6d967b","ios":"levelo://app?vid=da62e04f-aabf-4f2b-9e7f-761fdf6d967b"},"vehicle_type_id":"4","last_reported":1746067528,"current_range_meters":14800,"station_id":"ce4bh412rcd13ifvqds0","pricing_plan_id":"cebpf4jnsgd1na2vs0mg"},{"bike_id":"9349d600-e511-4a0e-b3a3-3194a21ed526","system_id":"levelo_inurba_marseille","lat":43.32487,"lon":5.3655,"is_reserved":false,"is_disabled":false,"rental_uris":{"android":"levelo://app?vid=9349d600-e511-4a0e-b3a3-3194a21ed526","ios":"levelo://app?vid=9349d600-e511-4a0e-b3a3-3194a21ed526"},"vehicle_type_id":"4","last_reported":1746067528,"current_range_meters":14800,"station_id":"ce4bhs12rcd13ifvqhvg","pricing_plan_id":"cebpf4jnsgd1na2vs0mg"},{"bike_id":"5a2a0acc-2638-483b-bd73-f0bad1b88542","system_id":"levelo_inurba_marseille","lat":43.27976,"lon":5.38703,"is_reserved":false,"is_disabled":false,"rental_uris":{"android":"levelo://app?vid=5a2a0acc-2638-483b-bd73-f0bad1b88542","ios":"levelo://app?vid=5a2a0acc-2638-483b-bd73-f0bad1b88542"},"vehicle_type_id":"4","last_reported":1746067528,"current_range_meters":14800,"station_id":"ce4bhg12rcd13ifvqf80","pricing_plan_id":"cebpf4jnsgd1na2vs0mg"},{"bike_id":"8b701ac5-8484-4ea3-b4c5-7320a44997a6","system_id":"levelo_inurba_marseille","lat":43.2867,"lon":5.38654,"is_reserved":false,"is_disabled":false,"rental_uris":{"android":"levelo://app?vid=8b701ac5-8484-4ea3-b4c5-7320a44997a6","ios":"levelo://app?vid=8b701ac5-8484-4ea3-b4c5-7320a44997a6"},"vehicle_type_id":"4","last_reported":1746067528,"current_range_meters":14800,"station_id":"ce4bh492rcd13ifvqdug","pricing_plan_id":"cebpf4jnsgd1na2vs0mg"},{"bike_id":"dfd685e2-5571-4ab9-8dba-04a38b46622f","system_id":"levelo_inurba_marseille","lat":43.28443,"lon":5.39188,"is_reserved":false,"is_disabled":false,"rental_uris":{"android":"levelo://app?vid=dfd685e2-5571-4ab9-8dba-04a38b46622f","ios":"levelo://app?vid=dfd685e2-5571-4ab9-8dba-04a38b46622f"},"vehicle_type_id":"4","last_reported":1746067528,"current_range_meters":15200,"station_id":"ce4bhoh2rcd13ifvqh5g","pricing_plan_id":"cebpf4jnsgd1na2vs0mg"},{"bike_id":"fc768298-b508-473d-9b53-e3864081a2bb","system_id":"levelo_inurba_marseille","lat":43.28565,"lon":5.39502,"is_reserved":false,"is_disabled":false,"rental_uris":{"android":"levelo://app?vid=fc768298-b508-473d-9b53-e3864081a2bb","ios":"levelo://app?vid=fc768298-b508-473d-9b53-e3864081a2bb"},"vehicle_type_id":"4","last_reported":1746067528,"current_range_meters":15200,"station_id":"ce4bh292rcd13ifvqdg0","pricing_plan_id":"cebpf4jnsgd1na2vs0mg"},{"bike_id":"1130c3af-831f-4180-a824-77b5ac50d0ae","system_id":"levelo_inurba_marseille","lat":43.308782,"lon":5.396546,"is_reserved":false,"is_disabled":false,"rental_uris":{"android":"levelo://app?vid=1130c3af-831f-4180-a824-77b5ac50d0ae","ios":"levelo://app?vid=1130c3af-831f-4180-a824-77b5ac50d0ae"},"vehicle_type_id":"4","last_reported":1746067528,"current_range_meters":15200,"station_id":"ce4bh012rcd13ifvqcv0","pricing_plan_id":"cebpf4jnsgd1na2vs0mg"},{"bike_id":"4ffe68dc-9b65-4e2d-b4e8-a4f7bb971b84","system_id":"levelo_inurba_marseille","lat":43.28354,"lon":5.38101,"is_reserved":false,"is_disabled":false,"rental_uris":{"android":"levelo://app?vid=4ffe68dc-9b65-4e2d-b4e8-a4f7bb971b84","ios":"levelo://app?vid=4ffe68dc-9b65-4e2d-b4e8-a4f7bb971b84"},"vehicle_type_id":"4","last_reported":1746067528,"current_range_meters":15200,"station_id":"ce4bh412rcd13ifvqdr0","pricing_plan_id":"cebpf4jnsgd1na2vs0mg"},{"bike_id":"68387bcf-91b9-4d94-9345-8087e5f6d466","system_id":"levelo_inurba_marseille","lat":43.31333,"lon":5.36771,"is_reserved":false,"is_disabled":true,"rental_uris":{"android":"levelo://app?vid=68387bcf-91b9-4d94-9345-8087e5f6d466","ios":"levelo://app?vid=68387bcf-91b9-4d94-9345-8087e5f6d466"},"vehicle_type_id":"4","last_reported":1746067528,"current_range_meters":16000,"station_id":"","pricing_plan_id":"cebpf4jnsgd1na2vs0mg"},{"bike_id":"a80efe56-7ec7-41b2-959d-a20ff548881b","system_id":"levelo_inurba_marseille","lat":43.32362,"lon":5.38879,"is_reserved":false,"is_disabled":false,"rental_uris":{"android":"levelo://app?vid=a80efe56-7ec7-41b2-959d-a20ff548881b","ios":"levelo://app?vid=a80efe56-7ec7-41b2-959d-a20ff548881b"},"vehicle_type_id":"4","last_reported":1746067528,"current_range_meters":16000,"station_id":"ce4bhqp2rcd13ifvqhog","pricing_plan_id":"cebpf4jnsgd1na2vs0mg"},{"bike_id":"d13198bf-44ec-4da7-acff-e922f2680bbe","system_id":"levelo_inurba_marseille","lat":43.33603,"lon":5.41032,"is_reserved":false,"is_disabled":false,"rental_uris":{"android":"levelo://app?vid=d13198bf-44ec-4da7-acff-e922f2680bbe","ios":"levelo://app?vid=d13198bf-44ec-4da7-acff-e922f2680bbe"},"vehicle_type_id":"4","last_reported":1746067528,"current_range_meters":16000,"station_id":"ce4bhqh2rcd13ifvqhmg","pricing_plan_id":"cebpf4jnsgd1na2vs0mg"},{"bike_id":"67f401c7-2b4b-4a1a-a6f0-da56056a14a5","system_id":"levelo_inurba_marseille","lat":43.29275,"lon":5.4012,"is_reserved":false,"is_disabled":false,"rental_uris":{"android":"levelo://app?vid=67f401c7-2b4b-4a1a-a6f0-da56056a14a5","ios":"levelo://app?vid=67f401c7-2b4b-4a1a-a6f0-da56056a14a5"},"vehicle_type_id":"4","last_reported":1746067528,"current_range_meters":16000,"station_id":"ce4bh312rcd13ifvqdk0","pricing_plan_id":"cebpf4jnsgd1na2vs0mg"},{"bike_id":"b58385b2-d1b2-4ecc-af75-eb7cf4772905","system_id":"levelo_inurba_marseille","lat":43.230529,"lon":5.35506,"is_reserved":false,"is_disabled":false,"rental_uris":{"android":"levelo://app?vid=b58385b2-d1b2-4ecc-af75-eb7cf4772905","ios":"levelo://app?vid=b58385b2-d1b2-4ecc-af75-eb7cf4772905"},"vehicle_type_id":"4","last_reported":1746067528,"current_range_meters":16000,"station_id":"cpo3342slgdg3j2ifvpg","pricing_plan_id":"cebpf4jnsgd1na2vs0mg"},{"bike_id":"cc6a794a-1920-4684-9d23-fbdf841a48dd","system_id":"levelo_inurba_marseille","lat":43.32333,"lon":5.40625,"is_reserved":false,"is_disabled":false,"rental_uris":{"android":"levelo://app?vid=cc6a794a-1920-4684-9d23-fbdf841a48dd","ios":"levelo://app?vid=cc6a794a-1920-4684-9d23-fbdf841a48dd"},"vehicle_type_id":"4","last_reported":1746067528,"current_range_meters":16000,"station_id":"ce4bhq92rcd13ifvqhjg","pricing_plan_id":"cebpf4jnsgd1na2vs0mg"},{"bike_id":"7818a440-bc3e-4a22-8952-d19c5bddaa38","system_id":"levelo_inurba_marseille","lat":43.30266,"lon":5.400686,"is_reserved":false,"is_disabled":false,"rental_uris":{"android":"levelo://app?vid=7818a440-bc3e-4a22-8952-d19c5bddaa38","ios":"levelo://app?vid=7818a440-bc3e-4a22-8952-d19c5bddaa38"},"vehicle_type_id":"4","last_reported":1746067528,"current_range_meters":16000,"station_id":"ce4bgvh2rcd13ifvqcs0","pricing_plan_id":"cebpf4jnsgd1na2vs0mg"},{"bike_id":"6daaf168-bfa9-48eb-82e8-fce6c84467fb","system_id":"levelo_inurba_marseille","lat":43.2585,"lon":5.39907,"is_reserved":false,"is_disabled":false,"rental_uris":{"android":"levelo://app?vid=6daaf168-bfa9-48eb-82e8-fce6c84467fb","ios":"levelo://app?vid=6daaf168-bfa9-48eb-82e8-fce6c84467fb"},"vehicle_type_id":"4","last_reported":1746067528,"current_range_meters":16000,"station_id":"ce4bhl92rcd13ifvqghg","pricing_plan_id":"cebpf4jnsgd1na2vs0mg"},{"bike_id":"dc2dfdc7-73a2-4f18-837a-0677b3a23fbe","system_id":"levelo_inurba_marseille","lat":43.33597,"lon":5.4104,"is_reserved":false,"is_disabled":false,"rental_uris":{"android":"levelo://app?vid=dc2dfdc7-73a2-4f18-837a-0677b3a23fbe","ios":"levelo://app?vid=dc2dfdc7-73a2-4f18-837a-0677b3a23fbe"},"vehicle_type_id":"4","last_reported":1746067528,"current_range_meters":16000,"station_id":"ce4bhqh2rcd13ifvqhmg","pricing_plan_id":"cebpf4jnsgd1na2vs0mg"},{"bike_id":"1276ff5c-0e07-4a84-8274-86c8fab8119b","system_id":"levelo_inurba_marseille","lat":43.290264,"lon":5.3865,"is_reserved":false,"is_disabled":true,"rental_uris":{"android":"levelo://app?vid=1276ff5c-0e07-4a84-8274-86c8fab8119b","ios":"levelo://app?vid=1276ff5c-0e07-4a84-8274-86c8fab8119b"},"vehicle_type_id":"4","last_reported":1746067528,"current_range_meters":16000,"station_id":"ce4bh4p2rcd13ifvqe0g","pricing_plan_id":"cebpf4jnsgd1na2vs0mg"},{"bike_id":"58e61467-50db-4ef1-a23a-155c99fb9f5b","system_id":"levelo_inurba_marseille","lat":43.31497,"lon":5.37299,"is_reserved":false,"is_disabled":false,"rental_uris":{"android":"levelo://app?vid=58e61467-50db-4ef1-a23a-155c99fb9f5b","ios":"levelo://app?vid=58e61467-50db-4ef1-a23a-155c99fb9f5b"},"vehicle_type_id":"4","last_reported":1746067528,"current_range_meters":16400,"station_id":"ce4bgt12rcd13ifvqcd0","pricing_plan_id":"cebpf4jnsgd1na2vs0mg"},{"bike_id":"51fab5ef-a00d-4e32-90af-91019d86dee9","system_id":"levelo_inurba_marseille","lat":43.319935,"lon":5.381293,"is_reserved":false,"is_disabled":true,"rental_uris":{"android":"levelo://app?vid=51fab5ef-a00d-4e32-90af-91019d86dee9","ios":"levelo://app?vid=51fab5ef-a00d-4e32-90af-91019d86dee9"},"vehicle_type_id":"4","last_reported":1746067528,"current_range_meters":16400,"station_id":"ce4bhr12rcd13ifvqhpg","pricing_plan_id":"cebpf4jnsgd1na2vs0mg"},{"bike_id":"65a2dd0e-863d-4f48-a66f-a7dc7ac359c2","system_id":"levelo_inurba_marseille","lat":43.30885,"lon":5.37189,"is_reserved":false,"is_disabled":false,"rental_uris":{"android":"levelo://app?vid=65a2dd0e-863d-4f48-a66f-a7dc7ac359c2","ios":"levelo://app?vid=65a2dd0e-863d-4f48-a66f-a7dc7ac359c2"},"vehicle_type_id":"4","last_reported":1746067528,"current_range_meters":16400,"station_id":"ce4bguh2rcd13ifvqckg","pricing_plan_id":"cebpf4jnsgd1na2vs0mg"},{"bike_id":"9ac44a7d-7a1b-425a-b08d-137b9e23d8ca","system_id":"levelo_inurba_marseille","lat":43.30935,"lon":5.40137,"is_reserved":false,"is_disabled":false,"rental_uris":{"android":"levelo://app?vid=9ac44a7d-7a1b-425a-b08d-137b9e23d8ca","ios":"levelo://app?vid=9ac44a7d-7a1b-425a-b08d-137b9e23d8ca"},"vehicle_type_id":"4","last_reported":1746067528,"current_range_meters":16800,"station_id":"ce4bgvp2rcd13ifvqct0","pricing_plan_id":"cebpf4jnsgd1na2vs0mg"},{"bike_id":"b6370aa6-1cc0-4a8b-9774-235e8c2f66a8","system_id":"levelo_inurba_marseille","lat":43.31706,"lon":5.43708,"is_reserved":false,"is_disabled":false,"rental_uris":{"android":"levelo://app?vid=b6370aa6-1cc0-4a8b-9774-235e8c2f66a8","ios":"levelo://app?vid=b6370aa6-1cc0-4a8b-9774-235e8c2f66a8"},"vehicle_type_id":"4","last_reported":1746067528,"current_range_meters":16800,"station_id":"ce4bhp92rcd13ifvqhcg","pricing_plan_id":"cebpf4jnsgd1na2vs0mg"},{"bike_id":"05825b73-8b61-408c-adbe-9f8e614f5e84","system_id":"levelo_inurba_marseille","lat":43.30927,"lon":5.4016,"is_reserved":false,"is_disabled":false,"rental_uris":{"android":"levelo://app?vid=05825b73-8b61-408c-adbe-9f8e614f5e84","ios":"levelo://app?vid=05825b73-8b61-408c-adbe-9f8e614f5e84"},"vehicle_type_id":"4","last_reported":1746067528,"current_range_meters":16800,"station_id":"ce4bgvp2rcd13ifvqct0","pricing_plan_id":"cebpf4jnsgd1na2vs0mg"},{"bike_id":"0c2fd97a-a68c-4bff-8f09-402b6ba070c9","system_id":"levelo_inurba_marseille","lat":43.33599,"lon":5.41024,"is_reserved":false,"is_disabled":false,"rental_uris":{"android":"levelo://app?vid=0c2fd97a-a68c-4bff-8f09-402b6ba070c9","ios":"levelo://app?vid=0c2fd97a-a68c-4bff-8f09-402b6ba070c9"},"vehicle_type_id":"4","last_reported":1746067528,"current_range_meters":16800,"station_id":"ce4bhqh2rcd13ifvqhmg","pricing_plan_id":"cebpf4jnsgd1na2vs0mg"},{"bike_id":"1b70a640-606c-42fc-9572-4c4a8466575d","system_id":"levelo_inurba_marseille","lat":43.29266,"lon":5.38438,"is_reserved":false,"is_disabled":false,"rental_uris":{"android":"levelo://app?vid=1b70a640-606c-42fc-9572-4c4a8466575d","ios":"levelo://app?vid=1b70a640-606c-42fc-9572-4c4a8466575d"},"vehicle_type_id":"4","last_reported":1746067528,"current_range_meters":17200,"station_id":"ce4bh692rcd13ifvqea0","pricing_plan_id":"cebpf4jnsgd1na2vs0mg"},{"bike_id":"df480c1b-bcc1-450a-bb5f-942d30b09ccb","system_id":"levelo_inurba_marseille","lat":43.3131,"lon":5.39722,"is_reserved":false,"is_disabled":false,"rental_uris":{"android":"levelo://app?vid=df480c1b-bcc1-450a-bb5f-942d30b09ccb","ios":"levelo://app?vid=df480c1b-bcc1-450a-bb5f-942d30b09ccb"},"vehicle_type_id":"4","last_reported":1746067528,"current_range_meters":17200,"station_id":"ce4bgvp2rcd13ifvqcu0","pricing_plan_id":"cebpf4jnsgd1na2vs0mg"},{"bike_id":"d32a64f6-9000-467e-98fd-c83514f49197","system_id":"levelo_inurba_marseille","lat":43.313263,"lon":5.396938,"is_reserved":false,"is_disabled":false,"rental_uris":{"android":"levelo://app?vid=d32a64f6-9000-467e-98fd-c83514f49197","ios":"levelo://app?vid=d32a64f6-9000-467e-98fd-c83514f49197"},"vehicle_type_id":"4","last_reported":1746067528,"current_range_meters":17200,"station_id":"ce4bgvp2rcd13ifvqcu0","pricing_plan_id":"cebpf4jnsgd1na2vs0mg"},{"bike_id":"3aba1d0c-e797-40ac-b0dc-2022445cb907","system_id":"levelo_inurba_marseille","lat":43.2511,"lon":5.40325,"is_reserved":false,"is_disabled":false,"rental_uris":{"android":"levelo://app?vid=3aba1d0c-e797-40ac-b0dc-2022445cb907","ios":"levelo://app?vid=3aba1d0c-e797-40ac-b0dc-2022445cb907"},"vehicle_type_id":"4","last_reported":1746067528,"current_range_meters":17200,"station_id":"ce4bhlh2rcd13ifvqgig","pricing_plan_id":"cebpf4jnsgd1na2vs0mg"},{"bike_id":"b1b4d74f-092b-476b-abae-f60870c92748","system_id":"levelo_inurba_marseille","lat":43.25083,"lon":5.39564,"is_reserved":false,"is_disabled":false,"rental_uris":{"android":"levelo://app?vid=b1b4d74f-092b-476b-abae-f60870c92748","ios":"levelo://app?vid=b1b4d74f-092b-476b-abae-f60870c92748"},"vehicle_type_id":"4","last_reported":1746067528,"current_range_meters":17200,"station_id":"ce4bhm12rcd13ifvqgkg","pricing_plan_id":"cebpf4jnsgd1na2vs0mg"},{"bike_id":"c29e36ac-2727-4e24-a089-8ad710d53619","system_id":"levelo_inurba_marseille","lat":43.309295,"lon":5.401454,"is_reserved":false,"is_disabled":false,"rental_uris":{"android":"levelo://app?vid=c29e36ac-2727-4e24-a089-8ad710d53619","ios":"levelo://app?vid=c29e36ac-2727-4e24-a089-8ad710d53619"},"vehicle_type_id":"4","last_reported":1746067528,"current_range_meters":17200,"station_id":"ce4bgvp2rcd13ifvqct0","pricing_plan_id":"cebpf4jnsgd1na2vs0mg"},{"bike_id":"5a92311b-afc6-484e-ba35-449afe75ce34","system_id":"levelo_inurba_marseille","lat":43.297809,"lon":5.381101,"is_reserved":false,"is_disabled":true,"rental_uris":{"android":"levelo://app?vid=5a92311b-afc6-484e-ba35-449afe75ce34","ios":"levelo://app?vid=5a92311b-afc6-484e-ba35-449afe75ce34"},"vehicle_type_id":"4","last_reported":1746067528,"current_range_meters":17200,"station_id":"ce4bgip2rcd13ifvqbb0","pricing_plan_id":"cebpf4jnsgd1na2vs0mg"},{"bike_id":"0b9ac188-19a7-4ad4-8279-34f1318ce56d","system_id":"levelo_inurba_marseille","lat":43.312826,"lon":5.377538,"is_reserved":false,"is_disabled":false,"rental_uris":{"android":"levelo://app?vid=0b9ac188-19a7-4ad4-8279-34f1318ce56d","ios":"levelo://app?vid=0b9ac188-19a7-4ad4-8279-34f1318ce56d"},"vehicle_type_id":"4","last_reported":1746067528,"current_range_meters":17200,"station_id":"","pricing_plan_id":"cebpf4jnsgd1na2vs0mg"},{"bike_id":"9c78cad3-1291-42d6-811d-5bf41bfc6c8a","system_id":"levelo_inurba_marseille","lat":43.24173,"lon":5.39737,"is_reserved":false,"is_disabled":false,"rental_uris":{"android":"levelo://app?vid=9c78cad3-1291-42d6-811d-5bf41bfc6c8a","ios":"levelo://app?vid=9c78cad3-1291-42d6-811d-5bf41bfc6c8a"},"vehicle_type_id":"4","last_reported":1746067528,"current_range_meters":17200,"station_id":"ce4bhn12rcd13ifvqgpg","pricing_plan_id":"cebpf4jnsgd1na2vs0mg"},{"bike_id":"c8581763-0ce2-4bab-ab9e-b4108eaa2ed7","system_id":"levelo_inurba_marseille","lat":43.3237,"lon":5.3888,"is_reserved":false,"is_disabled":false,"rental_uris":{"android":"levelo://app?vid=c8581763-0ce2-4bab-ab9e-b4108eaa2ed7","ios":"levelo://app?vid=c8581763-0ce2-4bab-ab9e-b4108eaa2ed7"},"vehicle_type_id":"4","last_reported":1746067528,"current_range_meters":17200,"station_id":"ce4bhqp2rcd13ifvqhog","pricing_plan_id":"cebpf4jnsgd1na2vs0mg"},{"bike_id":"2e1ce04f-74c7-4d68-a96b-b9dc1d6897ee","system_id":"levelo_inurba_marseille","lat":43.322891,"lon":5.382647,"is_reserved":false,"is_disabled":false,"rental_uris":{"android":"levelo://app?vid=2e1ce04f-74c7-4d68-a96b-b9dc1d6897ee","ios":"levelo://app?vid=2e1ce04f-74c7-4d68-a96b-b9dc1d6897ee"},"vehicle_type_id":"4","last_reported":1746067528,"current_range_meters":17200,"station_id":"ce4bhr12rcd13ifvqhqg","pricing_plan_id":"cebpf4jnsgd1na2vs0mg"},{"bike_id":"e7ffe102-def9-44df-ab08-bcf2bfb76907","system_id":"levelo_inurba_marseille","lat":43.29616,"lon":5.3775,"is_reserved":false,"is_disabled":true,"rental_uris":{"android":"levelo://app?vid=e7ffe102-def9-44df-ab08-bcf2bfb76907","ios":"levelo://app?vid=e7ffe102-def9-44df-ab08-bcf2bfb76907"},"vehicle_type_id":"4","last_reported":1746067528,"current_range_meters":17200,"station_id":"ce4bgi92rcd13ifvqb90","pricing_plan_id":"cebpf4jnsgd1na2vs0mg"},{"bike_id":"314c570d-d342-4e1f-93ca-be55bfbed314","system_id":"levelo_inurba_marseille","lat":43.307325,"lon":5.424363,"is_reserved":false,"is_disabled":false,"rental_uris":{"android":"levelo://app?vid=314c570d-d342-4e1f-93ca-be55bfbed314","ios":"levelo://app?vid=314c570d-d342-4e1f-93ca-be55bfbed314"},"vehicle_type_id":"4","last_reported":1746067528,"current_range_meters":17200,"station_id":"st_cvj6ca6bvosntc0bfgr0","pricing_plan_id":"cebpf4jnsgd1na2vs0mg"},{"bike_id":"0c7f2d70-b849-486d-bca2-848a564f0867","system_id":"levelo_inurba_marseille","lat":43.27996,"lon":5.40047,"is_reserved":false,"is_disabled":false,"rental_uris":{"android":"levelo://app?vid=0c7f2d70-b849-486d-bca2-848a564f0867","ios":"levelo://app?vid=0c7f2d70-b849-486d-bca2-848a564f0867"},"vehicle_type_id":"4","last_reported":1746067528,"current_range_meters":17600,"station_id":"ce4bho92rcd13ifvqh4g","pricing_plan_id":"cebpf4jnsgd1na2vs0mg"},{"bike_id":"d5dadec6-6d43-4080-8d17-bc655a9d07ff","system_id":"levelo_inurba_marseille","lat":43.28404,"lon":5.37514,"is_reserved":false,"is_disabled":false,"rental_uris":{"android":"levelo://app?vid=d5dadec6-6d43-4080-8d17-bc655a9d07ff","ios":"levelo://app?vid=d5dadec6-6d43-4080-8d17-bc655a9d07ff"},"vehicle_type_id":"4","last_reported":1746067528,"current_range_meters":17600,"station_id":"ce4bh412rcd13ifvqds0","pricing_plan_id":"cebpf4jnsgd1na2vs0mg"},{"bike_id":"8d17b367-8061-4c82-8409-5df859a79302","system_id":"levelo_inurba_marseille","lat":43.319985,"lon":5.381562,"is_reserved":false,"is_disabled":false,"rental_uris":{"android":"levelo://app?vid=8d17b367-8061-4c82-8409-5df859a79302","ios":"levelo://app?vid=8d17b367-8061-4c82-8409-5df859a79302"},"vehicle_type_id":"4","last_reported":1746067528,"current_range_meters":17600,"station_id":"ce4bhr12rcd13ifvqhpg","pricing_plan_id":"cebpf4jnsgd1na2vs0mg"},{"bike_id":"251e9dd1-1ef6-4d68-a53b-07ad88490391","system_id":"levelo_inurba_marseille","lat":43.30936,"lon":5.40172,"is_reserved":false,"is_disabled":false,"rental_uris":{"android":"levelo://app?vid=251e9dd1-1ef6-4d68-a53b-07ad88490391","ios":"levelo://app?vid=251e9dd1-1ef6-4d68-a53b-07ad88490391"},"vehicle_type_id":"4","last_reported":1746067528,"current_range_meters":17600,"station_id":"ce4bgvp2rcd13ifvqct0","pricing_plan_id":"cebpf4jnsgd1na2vs0mg"},{"bike_id":"1b5ee16c-1220-41a3-b71b-0bf601a3bc0a","system_id":"levelo_inurba_marseille","lat":43.300995,"lon":5.390835,"is_reserved":false,"is_disabled":true,"rental_uris":{"android":"levelo://app?vid=1b5ee16c-1220-41a3-b71b-0bf601a3bc0a","ios":"levelo://app?vid=1b5ee16c-1220-41a3-b71b-0bf601a3bc0a"},"vehicle_type_id":"4","last_reported":1746067528,"current_range_meters":17600,"station_id":"ce4bh192rcd13ifvqdb0","pricing_plan_id":"cebpf4jnsgd1na2vs0mg"},{"bike_id":"beb1d927-2520-405b-a87d-c20cf401f42b","system_id":"levelo_inurba_marseille","lat":43.28403,"lon":5.37522,"is_reserved":false,"is_disabled":false,"rental_uris":{"android":"levelo://app?vid=beb1d927-2520-405b-a87d-c20cf401f42b","ios":"levelo://app?vid=beb1d927-2520-405b-a87d-c20cf401f42b"},"vehicle_type_id":"4","last_reported":1746067528,"current_range_meters":17600,"station_id":"ce4bh412rcd13ifvqds0","pricing_plan_id":"cebpf4jnsgd1na2vs0mg"},{"bike_id":"2563fea3-52d0-44d5-9e81-426c0ee1385b","system_id":"levelo_inurba_marseille","lat":43.297929,"lon":5.393488,"is_reserved":false,"is_disabled":false,"rental_uris":{"android":"levelo://app?vid=2563fea3-52d0-44d5-9e81-426c0ee1385b","ios":"levelo://app?vid=2563fea3-52d0-44d5-9e81-426c0ee1385b"},"vehicle_type_id":"4","last_reported":1746067528,"current_range_meters":18000,"station_id":"chh1huq6cuj3fo74tm60","pricing_plan_id":"cebpf4jnsgd1na2vs0mg"},{"bike_id":"7b4ac271-3d33-4c11-8bfd-2a1bbfc82d7b","system_id":"levelo_inurba_marseille","lat":43.33598,"lon":5.41029,"is_reserved":false,"is_disabled":false,"rental_uris":{"android":"levelo://app?vid=7b4ac271-3d33-4c11-8bfd-2a1bbfc82d7b","ios":"levelo://app?vid=7b4ac271-3d33-4c11-8bfd-2a1bbfc82d7b"},"vehicle_type_id":"4","last_reported":1746067528,"current_range_meters":18000,"station_id":"ce4bhqh2rcd13ifvqhmg","pricing_plan_id":"cebpf4jnsgd1na2vs0mg"},{"bike_id":"5fc9a54d-ad5d-469b-807b-10c5d20729b5","system_id":"levelo_inurba_marseille","lat":43.30806,"lon":5.38256,"is_reserved":false,"is_disabled":false,"rental_uris":{"android":"levelo://app?vid=5fc9a54d-ad5d-469b-807b-10c5d20729b5","ios":"levelo://app?vid=5fc9a54d-ad5d-469b-807b-10c5d20729b5"},"vehicle_type_id":"4","last_reported":1746067528,"current_range_meters":18000,"station_id":"","pricing_plan_id":"cebpf4jnsgd1na2vs0mg"},{"bike_id":"8da083c1-7866-4de2-bb4b-eefda8ea0d2e","system_id":"levelo_inurba_marseille","lat":43.29274,"lon":5.40112,"is_reserved":false,"is_disabled":false,"rental_uris":{"android":"levelo://app?vid=8da083c1-7866-4de2-bb4b-eefda8ea0d2e","ios":"levelo://app?vid=8da083c1-7866-4de2-bb4b-eefda8ea0d2e"},"vehicle_type_id":"4","last_reported":1746067528,"current_range_meters":18000,"station_id":"ce4bh312rcd13ifvqdk0","pricing_plan_id":"cebpf4jnsgd1na2vs0mg"},{"bike_id":"8a108257-ba62-40f1-b151-5864796d192a","system_id":"levelo_inurba_marseille","lat":43.21744,"lon":5.34615,"is_reserved":false,"is_disabled":false,"rental_uris":{"android":"levelo://app?vid=8a108257-ba62-40f1-b151-5864796d192a","ios":"levelo://app?vid=8a108257-ba62-40f1-b151-5864796d192a"},"vehicle_type_id":"4","last_reported":1746067528,"current_range_meters":18000,"station_id":"st_cvj6r9ubvosntc0bgbag","pricing_plan_id":"cebpf4jnsgd1na2vs0mg"},{"bike_id":"99d136e0-36cb-4c24-a429-a3b459c32192","system_id":"levelo_inurba_marseille","lat":43.231513,"lon":5.437158,"is_reserved":false,"is_disabled":false,"rental_uris":{"android":"levelo://app?vid=99d136e0-36cb-4c24-a429-a3b459c32192","ios":"levelo://app?vid=99d136e0-36cb-4c24-a429-a3b459c32192"},"vehicle_type_id":"4","last_reported":1746067528,"current_range_meters":18000,"station_id":"ce4bhmp2rcd13ifvqgog","pricing_plan_id":"cebpf4jnsgd1na2vs0mg"},{"bike_id":"a0be4085-5aa1-4e70-8872-c0d0d5166c1f","system_id":"levelo_inurba_marseille","lat":43.32452,"lon":5.36605,"is_reserved":false,"is_disabled":false,"rental_uris":{"android":"levelo://app?vid=a0be4085-5aa1-4e70-8872-c0d0d5166c1f","ios":"levelo://app?vid=a0be4085-5aa1-4e70-8872-c0d0d5166c1f"},"vehicle_type_id":"4","last_reported":1746067528,"current_range_meters":18800,"station_id":"ce4bhs12rcd13ifvqhvg","pricing_plan_id":"cebpf4jnsgd1na2vs0mg"},{"bike_id":"b59f9ea1-ffd2-46de-a377-e32331e5f122","system_id":"levelo_inurba_marseille","lat":43.315343,"lon":5.380332,"is_reserved":false,"is_disabled":false,"rental_uris":{"android":"levelo://app?vid=b59f9ea1-ffd2-46de-a377-e32331e5f122","ios":"levelo://app?vid=b59f9ea1-ffd2-46de-a377-e32331e5f122"},"vehicle_type_id":"4","last_reported":1746067528,"current_range_meters":18800,"station_id":"ce4bhsp2rcd13ifvqi50","pricing_plan_id":"cebpf4jnsgd1na2vs0mg"},{"bike_id":"07214b02-7029-4133-a28c-ccc1c590b16a","system_id":"levelo_inurba_marseille","lat":43.291687,"lon":5.399999,"is_reserved":false,"is_disabled":false,"rental_uris":{"android":"levelo://app?vid=07214b02-7029-4133-a28c-ccc1c590b16a","ios":"levelo://app?vid=07214b02-7029-4133-a28c-ccc1c590b16a"},"vehicle_type_id":"4","last_reported":1746067528,"current_range_meters":18800,"station_id":"","pricing_plan_id":"cebpf4jnsgd1na2vs0mg"},{"bike_id":"3386a9f8-477b-4ccc-8e99-feb51686ef62","system_id":"levelo_inurba_marseille","lat":43.307915,"lon":5.381542,"is_reserved":false,"is_disabled":false,"rental_uris":{"android":"levelo://app?vid=3386a9f8-477b-4ccc-8e99-feb51686ef62","ios":"levelo://app?vid=3386a9f8-477b-4ccc-8e99-feb51686ef62"},"vehicle_type_id":"4","last_reported":1746067528,"current_range_meters":19200,"station_id":"ce4bgt12rcd13ifvqce0","pricing_plan_id":"cebpf4jnsgd1na2vs0mg"},{"bike_id":"bc8f7e55-9e9d-451b-9595-68418bc9fee2","system_id":"levelo_inurba_marseille","lat":43.25584,"lon":5.38198,"is_reserved":false,"is_disabled":false,"rental_uris":{"android":"levelo://app?vid=bc8f7e55-9e9d-451b-9595-68418bc9fee2","ios":"levelo://app?vid=bc8f7e55-9e9d-451b-9595-68418bc9fee2"},"vehicle_type_id":"4","last_reported":1746067528,"current_range_meters":19200,"station_id":"ce4bhih2rcd13ifvqfs0","pricing_plan_id":"cebpf4jnsgd1na2vs0mg"},{"bike_id":"39a36b60-c2d4-4632-8340-484cbd184797","system_id":"levelo_inurba_marseille","lat":43.32468,"lon":5.36591,"is_reserved":false,"is_disabled":false,"rental_uris":{"android":"levelo://app?vid=39a36b60-c2d4-4632-8340-484cbd184797","ios":"levelo://app?vid=39a36b60-c2d4-4632-8340-484cbd184797"},"vehicle_type_id":"4","last_reported":1746067528,"current_range_meters":19200,"station_id":"ce4bhs12rcd13ifvqhvg","pricing_plan_id":"cebpf4jnsgd1na2vs0mg"},{"bike_id":"c7b75ff6-c0be-4f80-94ba-f7afc11fa6b7","system_id":"levelo_inurba_marseille","lat":43.217463,"lon":5.346004,"is_reserved":false,"is_disabled":false,"rental_uris":{"android":"levelo://app?vid=c7b75ff6-c0be-4f80-94ba-f7afc11fa6b7","ios":"levelo://app?vid=c7b75ff6-c0be-4f80-94ba-f7afc11fa6b7"},"vehicle_type_id":"4","last_reported":1746067528,"current_range_meters":19200,"station_id":"st_cvj6r9ubvosntc0bgbag","pricing_plan_id":"cebpf4jnsgd1na2vs0mg"},{"bike_id":"329c3696-3b65-4403-9120-8a0256aadd4a","system_id":"levelo_inurba_marseille","lat":43.308901,"lon":5.396531,"is_reserved":false,"is_disabled":false,"rental_uris":{"android":"levelo://app?vid=329c3696-3b65-4403-9120-8a0256aadd4a","ios":"levelo://app?vid=329c3696-3b65-4403-9120-8a0256aadd4a"},"vehicle_type_id":"4","last_reported":1746067528,"current_range_meters":19200,"station_id":"ce4bh012rcd13ifvqcv0","pricing_plan_id":"cebpf4jnsgd1na2vs0mg"},{"bike_id":"23907ad2-9548-49ee-9832-e26111821cf4","system_id":"levelo_inurba_marseille","lat":43.29433,"lon":5.39736,"is_reserved":false,"is_disabled":false,"rental_uris":{"android":"levelo://app?vid=23907ad2-9548-49ee-9832-e26111821cf4","ios":"levelo://app?vid=23907ad2-9548-49ee-9832-e26111821cf4"},"vehicle_type_id":"4","last_reported":1746067528,"current_range_meters":19200,"station_id":"ce4bh3h2rcd13ifvqdo0","pricing_plan_id":"cebpf4jnsgd1na2vs0mg"},{"bike_id":"4fec10d1-ef71-4b58-8320-d49a3806ed8a","system_id":"levelo_inurba_marseille","lat":43.31996,"lon":5.381415,"is_reserved":false,"is_disabled":false,"rental_uris":{"android":"levelo://app?vid=4fec10d1-ef71-4b58-8320-d49a3806ed8a","ios":"levelo://app?vid=4fec10d1-ef71-4b58-8320-d49a3806ed8a"},"vehicle_type_id":"4","last_reported":1746067528,"current_range_meters":19600,"station_id":"ce4bhr12rcd13ifvqhpg","pricing_plan_id":"cebpf4jnsgd1na2vs0mg"},{"bike_id":"7c6dc1bf-0fa8-4cea-bdd8-7824d54eb30f","system_id":"levelo_inurba_marseille","lat":43.29889,"lon":5.43664,"is_reserved":false,"is_disabled":false,"rental_uris":{"android":"levelo://app?vid=7c6dc1bf-0fa8-4cea-bdd8-7824d54eb30f","ios":"levelo://app?vid=7c6dc1bf-0fa8-4cea-bdd8-7824d54eb30f"},"vehicle_type_id":"4","last_reported":1746067528,"current_range_meters":19600,"station_id":"ce4bhpp2rcd13ifvqhfg","pricing_plan_id":"cebpf4jnsgd1na2vs0mg"},{"bike_id":"c695bac2-0581-4a6a-b9c9-eb8e0d8673ed","system_id":"levelo_inurba_marseille","lat":43.33712,"lon":5.39214,"is_reserved":false,"is_disabled":false,"rental_uris":{"android":"levelo://app?vid=c695bac2-0581-4a6a-b9c9-eb8e0d8673ed","ios":"levelo://app?vid=c695bac2-0581-4a6a-b9c9-eb8e0d8673ed"},"vehicle_type_id":"4","last_reported":1746067528,"current_range_meters":19600,"station_id":"ce4bhr92rcd13ifvqhsg","pricing_plan_id":"cebpf4jnsgd1na2vs0mg"},{"bike_id":"c8a69ee3-f3c1-472d-8f00-464978aa5e1e","system_id":"levelo_inurba_marseille","lat":43.265654,"lon":5.390057,"is_reserved":false,"is_disabled":false,"rental_uris":{"android":"levelo://app?vid=c8a69ee3-f3c1-472d-8f00-464978aa5e1e","ios":"levelo://app?vid=c8a69ee3-f3c1-472d-8f00-464978aa5e1e"},"vehicle_type_id":"4","last_reported":1746067528,"current_range_meters":19600,"station_id":"ce4bhe12rcd13ifvqf30","pricing_plan_id":"cebpf4jnsgd1na2vs0mg"},{"bike_id":"dbcdc79b-b3d2-4afc-9d54-e9c42c7937e6","system_id":"levelo_inurba_marseille","lat":43.27955,"lon":5.41051,"is_reserved":false,"is_disabled":false,"rental_uris":{"android":"levelo://app?vid=dbcdc79b-b3d2-4afc-9d54-e9c42c7937e6","ios":"levelo://app?vid=dbcdc79b-b3d2-4afc-9d54-e9c42c7937e6"},"vehicle_type_id":"4","last_reported":1746067528,"current_range_meters":19600,"station_id":"ce4bhnp2rcd13ifvqh0g","pricing_plan_id":"cebpf4jnsgd1na2vs0mg"},{"bike_id":"54300751-9d38-435b-8eb0-ae7dc904eeb3","system_id":"levelo_inurba_marseille","lat":43.298009,"lon":5.404052,"is_reserved":false,"is_disabled":false,"rental_uris":{"android":"levelo://app?vid=54300751-9d38-435b-8eb0-ae7dc904eeb3","ios":"levelo://app?vid=54300751-9d38-435b-8eb0-ae7dc904eeb3"},"vehicle_type_id":"4","last_reported":1746067528,"current_range_meters":19600,"station_id":"ce4bh112rcd13ifvqd90","pricing_plan_id":"cebpf4jnsgd1na2vs0mg"},{"bike_id":"3aeb961f-88b6-47fd-986a-c7b2a855fefd","system_id":"levelo_inurba_marseille","lat":43.230671,"lon":5.354954,"is_reserved":false,"is_disabled":false,"rental_uris":{"android":"levelo://app?vid=3aeb961f-88b6-47fd-986a-c7b2a855fefd","ios":"levelo://app?vid=3aeb961f-88b6-47fd-986a-c7b2a855fefd"},"vehicle_type_id":"4","last_reported":1746067528,"current_range_meters":19600,"station_id":"cpo3342slgdg3j2ifvpg","pricing_plan_id":"cebpf4jnsgd1na2vs0mg"},{"bike_id":"677a381b-b527-42a3-b987-992902b9ea2d","system_id":"levelo_inurba_marseille","lat":43.23061,"lon":5.35501,"is_reserved":false,"is_disabled":false,"rental_uris":{"android":"levelo://app?vid=677a381b-b527-42a3-b987-992902b9ea2d","ios":"levelo://app?vid=677a381b-b527-42a3-b987-992902b9ea2d"},"vehicle_type_id":"4","last_reported":1746067528,"current_range_meters":19600,"station_id":"cpo3342slgdg3j2ifvpg","pricing_plan_id":"cebpf4jnsgd1na2vs0mg"},{"bike_id":"5bf1014c-0b0c-47d5-acac-c5042744773e","system_id":"levelo_inurba_marseille","lat":43.25485,"lon":5.37646,"is_reserved":false,"is_disabled":true,"rental_uris":{"android":"levelo://app?vid=5bf1014c-0b0c-47d5-acac-c5042744773e","ios":"levelo://app?vid=5bf1014c-0b0c-47d5-acac-c5042744773e"},"vehicle_type_id":"4","last_reported":1746067528,"current_range_meters":19600,"station_id":"ce4bhh12rcd13ifvqff0","pricing_plan_id":"cebpf4jnsgd1na2vs0mg"},{"bike_id":"5a2ea205-e07f-44c7-a090-aba81eadb867","system_id":"levelo_inurba_marseille","lat":43.284161,"lon":5.375259,"is_reserved":false,"is_disabled":false,"rental_uris":{"android":"levelo://app?vid=5a2ea205-e07f-44c7-a090-aba81eadb867","ios":"levelo://app?vid=5a2ea205-e07f-44c7-a090-aba81eadb867"},"vehicle_type_id":"4","last_reported":1746067528,"current_range_meters":19600,"station_id":"ce4bh412rcd13ifvqds0","pricing_plan_id":"cebpf4jnsgd1na2vs0mg"},{"bike_id":"2b633bb9-83a5-4d1e-8e12-e220dd22e2c0","system_id":"levelo_inurba_marseille","lat":43.324741,"lon":5.365645,"is_reserved":false,"is_disabled":false,"rental_uris":{"android":"levelo://app?vid=2b633bb9-83a5-4d1e-8e12-e220dd22e2c0","ios":"levelo://app?vid=2b633bb9-83a5-4d1e-8e12-e220dd22e2c0"},