{"last_updated":1758139831,"ttl":60,"version":"2.2","data":{"bikes":[{"bike_id":"322c1f5a-85db-4ef6-bcd4-1b5c417c8ee0","system_id":"levelo_inurba_marseille","lat":43.3377,"lon":5.37488,"is_reserved":false,"is_disabled":false,"rental_uris":{"android":"levelo://app?vid=322c1f5a-85db-4ef6-bcd4-1b5c417c8ee0","ios":"levelo://app?vid=322c1f5a-85db-4ef6-bcd4-1b5c417c8ee0"},"vehicle_type_id":"4","last_reported":1758139831,"current_range_meters":2800,"station_id":"","pricing_plan_id":"cebpf4jnsgd1na2vs0mg"},{"bike_id":"a288ee11-20da-4354-b5b0-83a3653d6a00","system_id":"levelo_inurba_marseille","lat":43.22488,"lon":5.34802,"is_reserved":false,"is_disabled":false,"rental_uris":{"android":"levelo://app?vid=a288ee11-20da-4354-b5b0-83a3653d6a00","ios":"levelo://app?vid=a288ee11-20da-4354-b5b0-83a3653d6a00"},"vehicle_type_id":"4","last_reported":1758139831,"current_range_meters":2800,"station_id":"","pricing_plan_id":"cebpf4jnsgd1na2vs0mg"},{"bike_id":"bf1f0dd3-5093-434c-b641-1612bc54d8d4","system_id":"levelo_inurba_marseille","lat":43.24711,"lon":5.3996,"is_reserved":false,"is_disabled":false,"rental_uris":{"android":"levelo://app?vid=bf1f0dd3-5093-434c-b641-1612bc54d8d4","ios":"levelo://app?vid=bf1f0dd3-5093-434c-b641-1612bc54d8d4"},"vehicle_type_id":"4","last_reported":1758139831,"current_range_meters":2800,"station_id":"","pricing_plan_id":"cebpf4jnsgd1na2vs0mg"},{"bike_id":"979ff122-7c9e-4b0a-b11f-87ce9ea6569b","system_id":"levelo_inurba_marseille","lat":43.31693,"lon":5.39945,"is_reserved":false,"is_disabled":false,"rental_uris":{"android":"levelo://app?vid=979ff122-7c9e-4b0a-b11f-87ce9ea6569b","ios":"levelo://app?vid=979ff122-7c9e-4b0a-b11f-87ce9ea6569b"},"vehicle_type_id":"4","last_reported":1758139831,"current_range_meters":2800,"station_id":"","pricing_plan_id":"cebpf4jnsgd1na2vs0mg"},{"bike_id":"8676129a-c3d6-40bd-ba7e-0091b21c981b","system_id":"levelo_inurba_marseille","lat":43.2495,"lon":5.40493,"is_reserved":false,"is_disabled":false,"rental_uris":{"android":"levelo://app?vid=8676129a-c3d6-40bd-ba7e-0091b21c981b","ios":"levelo://app?vid=8676129a-c3d6-40bd-ba7e-0091b21c981b"},"vehicle_type_id":"4","last_reported":1758139831,"current_range_meters":2800,"station_id":"st_d2ngiaodas8pm72gd1h0","pricing_plan_id":"cebpf4jnsgd1na2vs0mg"},{"bike_id":"690b2ad9-2bc6-4024-95d1-95b998ee6573","system_id":"levelo_inurba_marseille","lat":43.31723,"lon":5.42401,"is_reserved":false,"is_disabled":false,"rental_uris":{"android":"levelo://app?vid=690b2ad9-2bc6-4024-95d1-95b998ee6573","ios":"levelo://app?vid=690b2ad9-2bc6-4024-95d1-95b998ee6573"},"vehicle_type_id":"4","last_reported":1758139831,"current_range_meters":3200,"station_id":"ce4bhp92rcd13ifvqhbg","pricing_plan_id":"cebpf4jnsgd1na2vs0mg"},{"bike_id":"9b2bb1a5-bc4f-4a7d-9102-1acdc9c69064","system_id":"levelo_inurba_marseille","lat":43.33049,"lon":5.390493,"is_reserved":false,"is_disabled":false,"rental_uris":{"android":"levelo://app?vid=9b2bb1a5-bc4f-4a7d-9102-1acdc9c69064","ios":"levelo://app?vid=9b2bb1a5-bc4f-4a7d-9102-1acdc9c69064"},"vehicle_type_id":"4","last_reported":1758139831,"current_range_meters":3200,"station_id":"ce4bhr92rcd13ifvqhrg","pricing_plan_id":"cebpf4jnsgd1na2vs0mg"},{"bike_id":"c4e35617-9855-4c70-8d8e-0f14fdd7f639","system_id":"levelo_inurba_marseille","lat":43.31367,"lon":5.38309,"is_reserved":false,"is_disabled":false,"rental_uris":{"android":"levelo://app?vid=c4e35617-9855-4c70-8d8e-0f14fdd7f639","ios":"levelo://app?vid=c4e35617-9855-4c70-8d8e-0f14fdd7f639"},"vehicle_type_id":"4","last_reported":1758139831,"current_range_meters":3200,"station_id":"","pricing_plan_id":"cebpf4jnsgd1na2vs0mg"},{"bike_id":"2c47b2fe-9bd3-4b06-87c2-e0bb79835411","system_id":"levelo_inurba_marseille","lat":43.2835,"lon":5.38113,"is_reserved":false,"is_disabled":false,"rental_uris":{"android":"levelo://app?vid=2c47b2fe-9bd3-4b06-87c2-e0bb79835411","ios":"levelo://app?vid=2c47b2fe-9bd3-4b06-87c2-e0bb79835411"},"vehicle_type_id":"4","last_reported":1758139831,"current_range_meters":3600,"station_id":"ce4bh412rcd13ifvqdr0","pricing_plan_id":"cebpf4jnsgd1na2vs0mg"},{"bike_id":"c3ad4594-4e4a-42f9-93e2-c25c45a735b2","system_id":"levelo_inurba_marseille","lat":43.2886,"lon":5.4252,"is_reserved":false,"is_disabled":false,"rental_uris":{"android":"levelo://app?vid=c3ad4594-4e4a-42f9-93e2-c25c45a735b2","ios":"levelo://app?vid=c3ad4594-4e4a-42f9-93e2-c25c45a735b2"},"vehicle_type_id":"4","last_reported":1758139831,"current_range_meters":3600,"station_id":"","pricing_plan_id":"cebpf4jnsgd1na2vs0mg"},{"bike_id":"fdb5d2ab-b69b-4de8-9332-4894165d0254","system_id":"levelo_inurba_marseille","lat":43.290347,"lon":5.375568,"is_reserved":false,"is_disabled":false,"rental_uris":{"android":"levelo://app?vid=fdb5d2ab-b69b-4de8-9332-4894165d0254","ios":"levelo://app?vid=fdb5d2ab-b69b-4de8-9332-4894165d0254"},"vehicle_type_id":"4","last_reported":1758139831,"current_range_meters":4000,"station_id":"ce4bh692rcd13ifvqe90","pricing_plan_id":"cebpf4jnsgd1na2vs0mg"},{"bike_id":"d8743062-bb39-48ba-85c3-0ff17148df7f","system_id":"levelo_inurba_marseille","lat":43.27182,"lon":5.40987,"is_reserved":false,"is_disabled":false,"rental_uris":{"android":"levelo://app?vid=d8743062-bb39-48ba-85c3-0ff17148df7f","ios":"levelo://app?vid=d8743062-bb39-48ba-85c3-0ff17148df7f"},"vehicle_type_id":"4","last_reported":1758139831,"current_range_meters":4000,"station_id":"ce4bhl12rcd13ifvqgf0","pricing_plan_id":"cebpf4jnsgd1na2vs0mg"},{"bike_id":"c07e7a2d-d8a6-4efd-8723-e965be4d1a74","system_id":"levelo_inurba_marseille","lat":43.22533,"lon":5.348367,"is_reserved":false,"is_disabled":false,"rental_uris":{"android":"levelo://app?vid=c07e7a2d-d8a6-4efd-8723-e965be4d1a74","ios":"levelo://app?vid=c07e7a2d-d8a6-4efd-8723-e965be4d1a74"},"vehicle_type_id":"4","last_reported":1758139831,"current_range_meters":4000,"station_id":"","pricing_plan_id":"cebpf4jnsgd1na2vs0mg"},{"bike_id":"adbc9331-c017-4bd2-8dc5-4c0ba326f5e4","system_id":"levelo_inurba_marseille","lat":43.32368,"lon":5.388846,"is_reserved":false,"is_disabled":false,"rental_uris":{"android":"levelo://app?vid=adbc9331-c017-4bd2-8dc5-4c0ba326f5e4","ios":"levelo://app?vid=adbc9331-c017-4bd2-8dc5-4c0ba326f5e4"},"vehicle_type_id":"4","last_reported":1758139831,"current_range_meters":4000,"station_id":"ce4bhqp2rcd13ifvqhog","pricing_plan_id":"cebpf4jnsgd1na2vs0mg"},{"bike_id":"c016eb2b-c422-4578-b962-4fcec351148d","system_id":"levelo_inurba_marseille","lat":43.31362,"lon":5.38511,"is_reserved":false,"is_disabled":false,"rental_uris":{"android":"levelo://app?vid=c016eb2b-c422-4578-b962-4fcec351148d","ios":"levelo://app?vid=c016eb2b-c422-4578-b962-4fcec351148d"},"vehicle_type_id":"4","last_reported":1758139831,"current_range_meters":4400,"station_id":"ce4bgt92rcd13ifvqcf0","pricing_plan_id":"cebpf4jnsgd1na2vs0mg"},{"bike_id":"f4763a02-ab1a-47dc-a398-08558d8ddf99","system_id":"levelo_inurba_marseille","lat":43.31755,"lon":5.39027,"is_reserved":false,"is_disabled":false,"rental_uris":{"android":"levelo://app?vid=f4763a02-ab1a-47dc-a398-08558d8ddf99","ios":"levelo://app?vid=f4763a02-ab1a-47dc-a398-08558d8ddf99"},"vehicle_type_id":"4","last_reported":1758139831,"current_range_meters":4400,"station_id":"ce4bhqp2rcd13ifvqhng","pricing_plan_id":"cebpf4jnsgd1na2vs0mg"},{"bike_id":"ee09b7e8-92bb-48b7-8845-18e9587b38d3","system_id":"levelo_inurba_marseille","lat":43.31882,"lon":5.40736,"is_reserved":false,"is_disabled":false,"rental_uris":{"android":"levelo://app?vid=ee09b7e8-92bb-48b7-8845-18e9587b38d3","ios":"levelo://app?vid=ee09b7e8-92bb-48b7-8845-18e9587b38d3"},"vehicle_type_id":"4","last_reported":1758139831,"current_range_meters":4800,"station_id":"ce4bhq12rcd13ifvqhig","pricing_plan_id":"cebpf4jnsgd1na2vs0mg"},{"bike_id":"840c8a9d-a202-4523-bf6d-fc843787aebb","system_id":"levelo_inurba_marseille","lat":43.29308,"lon":5.3718,"is_reserved":false,"is_disabled":false,"rental_uris":{"android":"levelo://app?vid=840c8a9d-a202-4523-bf6d-fc843787aebb","ios":"levelo://app?vid=840c8a9d-a202-4523-bf6d-fc843787aebb"},"vehicle_type_id":"4","last_reported":1758139831,"current_range_meters":4800,"station_id":"","pricing_plan_id":"cebpf4jnsgd1na2vs0mg"},{"bike_id":"7bae9277-8944-495e-aed8-5dc079ebe544","system_id":"levelo_inurba_marseille","lat":43.301789,"lon":5.366283,"is_reserved":false,"is_disabled":false,"rental_uris":{"android":"levelo://app?vid=7bae9277-8944-495e-aed8-5dc079ebe544","ios":"levelo://app?vid=7bae9277-8944-495e-aed8-5dc079ebe544"},"vehicle_type_id":"4","last_reported":1758139831,"current_range_meters":5600,"station_id":"ce4bgrh2rcd13ifvqc8g","pricing_plan_id":"cebpf4jnsgd1na2vs0mg"},{"bike_id":"1b3f836a-e487-4379-9816-c2e2a0ecbe70","system_id":"levelo_inurba_marseille","lat":43.32488,"lon":5.36566,"is_reserved":false,"is_disabled":false,"rental_uris":{"android":"levelo://app?vid=1b3f836a-e487-4379-9816-c2e2a0ecbe70","ios":"levelo://app?vid=1b3f836a-e487-4379-9816-c2e2a0ecbe70"},"vehicle_type_id":"4","last_reported":1758139831,"current_range_meters":6000,"station_id":"ce4bhs12rcd13ifvqhvg","pricing_plan_id":"cebpf4jnsgd1na2vs0mg"},{"bike_id":"39d9aa9c-e156-49fd-9749-8a0f833a3b2c","system_id":"levelo_inurba_marseille","lat":43.26212,"lon":5.37443,"is_reserved":false,"is_disabled":false,"rental_uris":{"android":"levelo://app?vid=39d9aa9c-e156-49fd-9749-8a0f833a3b2c","ios":"levelo://app?vid=39d9aa9c-e156-49fd-9749-8a0f833a3b2c"},"vehicle_type_id":"4","last_reported":1758139831,"current_range_meters":6000,"station_id":"ce4bhgp2rcd13ifvqfc0","pricing_plan_id":"cebpf4jnsgd1na2vs0mg"},{"bike_id":"d7c40c53-da69-4a07-93a9-8f1b27d39bb5","system_id":"levelo_inurba_marseille","lat":43.28667,"lon":5.36361,"is_reserved":false,"is_disabled":false,"rental_uris":{"android":"levelo://app?vid=d7c40c53-da69-4a07-93a9-8f1b27d39bb5","ios":"levelo://app?vid=d7c40c53-da69-4a07-93a9-8f1b27d39bb5"},"vehicle_type_id":"4","last_reported":1758139831,"current_range_meters":6000,"station_id":"ce4bhah2rcd13ifvqej0","pricing_plan_id":"cebpf4jnsgd1na2vs0mg"},{"bike_id":"32ca9d94-8781-4edc-b80f-cdc9cf1fb9fc","system_id":"levelo_inurba_marseille","lat":43.21753,"lon":5.34603,"is_reserved":false,"is_disabled":true,"rental_uris":{"android":"levelo://app?vid=32ca9d94-8781-4edc-b80f-cdc9cf1fb9fc","ios":"levelo://app?vid=32ca9d94-8781-4edc-b80f-cdc9cf1fb9fc"},"vehicle_type_id":"4","last_reported":1758139831,"current_range_meters":6000,"station_id":"st_cvj6r9ubvosntc0bgbag","pricing_plan_id":"cebpf4jnsgd1na2vs0mg"},{"bike_id":"13d4eea8-9844-42fe-8267-eaf155e127a2","system_id":"levelo_inurba_marseille","lat":43.29977,"lon":5.37206,"is_reserved":false,"is_disabled":true,"rental_uris":{"android":"levelo://app?vid=13d4eea8-9844-42fe-8267-eaf155e127a2","ios":"levelo://app?vid=13d4eea8-9844-42fe-8267-eaf155e127a2"},"vehicle_type_id":"4","last_reported":1758139831,"current_range_meters":6400,"station_id":"","pricing_plan_id":"cebpf4jnsgd1na2vs0mg"},{"bike_id":"363e72e3-8004-4153-b103-0682022d8551","system_id":"levelo_inurba_marseille","lat":43.29932,"lon":5.36558,"is_reserved":false,"is_disabled":false,"rental_uris":{"android":"levelo://app?vid=363e72e3-8004-4153-b103-0682022d8551","ios":"levelo://app?vid=363e72e3-8004-4153-b103-0682022d8551"},"vehicle_type_id":"4","last_reported":1758139831,"current_range_meters":6800,"station_id":"ce4bgm92rcd13ifvqbr0","pricing_plan_id":"cebpf4jnsgd1na2vs0mg"},{"bike_id":"e183c86e-9482-49c3-8502-016dc2a33f16","system_id":"levelo_inurba_marseille","lat":43.31992,"lon":5.38166,"is_reserved":false,"is_disabled":false,"rental_uris":{"android":"levelo://app?vid=e183c86e-9482-49c3-8502-016dc2a33f16","ios":"levelo://app?vid=e183c86e-9482-49c3-8502-016dc2a33f16"},"vehicle_type_id":"4","last_reported":1758139831,"current_range_meters":6800,"station_id":"ce4bhr12rcd13ifvqhpg","pricing_plan_id":"cebpf4jnsgd1na2vs0mg"},{"bike_id":"f895eb90-d970-4448-b096-5a166a903f92","system_id":"levelo_inurba_marseille","lat":43.265529,"lon":5.372939,"is_reserved":false,"is_disabled":true,"rental_uris":{"android":"levelo://app?vid=f895eb90-d970-4448-b096-5a166a903f92","ios":"levelo://app?vid=f895eb90-d970-4448-b096-5a166a903f92"},"vehicle_type_id":"4","last_reported":1758139831,"current_range_meters":7200,"station_id":"ce4bhg12rcd13ifvqf70","pricing_plan_id":"cebpf4jnsgd1na2vs0mg"},{"bike_id":"9ea1fc8a-2fd5-4ba6-bb69-ae0c1d2eae63","system_id":"levelo_inurba_marseille","lat":43.28852,"lon":5.35851,"is_reserved":false,"is_disabled":false,"rental_uris":{"android":"levelo://app?vid=9ea1fc8a-2fd5-4ba6-bb69-ae0c1d2eae63","ios":"levelo://app?vid=9ea1fc8a-2fd5-4ba6-bb69-ae0c1d2eae63"},"vehicle_type_id":"4","last_reported":1758139831,"current_range_meters":6800,"station_id":"ce4bhb12rcd13ifvqem0","pricing_plan_id":"cebpf4jnsgd1na2vs0mg"},{"bike_id":"e43372f5-aa5b-4f9a-bab1-6d8798bf6753","system_id":"levelo_inurba_marseille","lat":43.27981,"lon":5.41659,"is_reserved":false,"is_disabled":false,"rental_uris":{"android":"levelo://app?vid=e43372f5-aa5b-4f9a-bab1-6d8798bf6753","ios":"levelo://app?vid=e43372f5-aa5b-4f9a-bab1-6d8798bf6753"},"vehicle_type_id":"4","last_reported":1758139831,"current_range_meters":7200,"station_id":"ce4bho12rcd13ifvqh1g","pricing_plan_id":"cebpf4jnsgd1na2vs0mg"},{"bike_id":"33230291-31ce-440d-8708-4f36a87b8bf8","system_id":"levelo_inurba_marseille","lat":43.27917,"lon":5.3958,"is_reserved":false,"is_disabled":false,"rental_uris":{"android":"levelo://app?vid=33230291-31ce-440d-8708-4f36a87b8bf8","ios":"levelo://app?vid=33230291-31ce-440d-8708-4f36a87b8bf8"},"vehicle_type_id":"4","last_reported":1758139831,"current_range_meters":7200,"station_id":"ce4bhf92rcd13ifvqf40","pricing_plan_id":"cebpf4jnsgd1na2vs0mg"},{"bike_id":"b8ff3a2d-3aaa-4430-b2d1-0c87a6780eed","system_id":"levelo_inurba_marseille","lat":43.30283,"lon":5.37699,"is_reserved":false,"is_disabled":false,"rental_uris":{"android":"levelo://app?vid=b8ff3a2d-3aaa-4430-b2d1-0c87a6780eed","ios":"levelo://app?vid=b8ff3a2d-3aaa-4430-b2d1-0c87a6780eed"},"vehicle_type_id":"4","last_reported":1758139831,"current_range_meters":8000,"station_id":"ce4bguh2rcd13ifvqcj0","pricing_plan_id":"cebpf4jnsgd1na2vs0mg"},{"bike_id":"1b6a995d-34ac-45d5-9528-44d2f8bbd183","system_id":"levelo_inurba_marseille","lat":43.28507,"lon":5.35909,"is_reserved":false,"is_disabled":false,"rental_uris":{"android":"levelo://app?vid=1b6a995d-34ac-45d5-9528-44d2f8bbd183","ios":"levelo://app?vid=1b6a995d-34ac-45d5-9528-44d2f8bbd183"},"vehicle_type_id":"4","last_reported":1758139831,"current_range_meters":8000,"station_id":"","pricing_plan_id":"cebpf4jnsgd1na2vs0mg"},{"bike_id":"3b26aa0d-3679-4b4c-9b55-1096f6d08a9d","system_id":"levelo_inurba_marseille","lat":43.31321,"lon":5.39441,"is_reserved":false,"is_disabled":false,"rental_uris":{"android":"levelo://app?vid=3b26aa0d-3679-4b4c-9b55-1096f6d08a9d","ios":"levelo://app?vid=3b26aa0d-3679-4b4c-9b55-1096f6d08a9d"},"vehicle_type_id":"4","last_reported":1758139831,"current_range_meters":8000,"station_id":"","pricing_plan_id":"cebpf4jnsgd1na2vs0mg"},{"bike_id":"9023d84f-8ef9-4749-9cb8-a2ef6b71e57a","system_id":"levelo_inurba_marseille","lat":43.27953,"lon":5.41055,"is_reserved":false,"is_disabled":true,"rental_uris":{"android":"levelo://app?vid=9023d84f-8ef9-4749-9cb8-a2ef6b71e57a","ios":"levelo://app?vid=9023d84f-8ef9-4749-9cb8-a2ef6b71e57a"},"vehicle_type_id":"4","last_reported":1758139831,"current_range_meters":8000,"station_id":"ce4bhnp2rcd13ifvqh0g","pricing_plan_id":"cebpf4jnsgd1na2vs0mg"},{"bike_id":"71a2ca06-43e0-422b-a0b6-9580a40eb8e5","system_id":"levelo_inurba_marseille","lat":43.2792,"lon":5.39579,"is_reserved":false,"is_disabled":false,"rental_uris":{"android":"levelo://app?vid=71a2ca06-43e0-422b-a0b6-9580a40eb8e5","ios":"levelo://app?vid=71a2ca06-43e0-422b-a0b6-9580a40eb8e5"},"vehicle_type_id":"4","last_reported":1758139831,"current_range_meters":8000,"station_id":"ce4bhf92rcd13ifvqf40","pricing_plan_id":"cebpf4jnsgd1na2vs0mg"},{"bike_id":"a1bccc3e-30ae-4af5-b7fb-fa51d9ba8e5f","system_id":"levelo_inurba_marseille","lat":43.2257,"lon":5.41629,"is_reserved":false,"is_disabled":false,"rental_uris":{"android":"levelo://app?vid=a1bccc3e-30ae-4af5-b7fb-fa51d9ba8e5f","ios":"levelo://app?vid=a1bccc3e-30ae-4af5-b7fb-fa51d9ba8e5f"},"vehicle_type_id":"4","last_reported":1758139831,"current_range_meters":8000,"station_id":"st_d2o4gvlbi1j2169b742g","pricing_plan_id":"cebpf4jnsgd1na2vs0mg"},{"bike_id":"c9b88a72-3212-493b-a037-c2afa6a727a9","system_id":"levelo_inurba_marseille","lat":43.25118,"lon":5.40318,"is_reserved":false,"is_disabled":false,"rental_uris":{"android":"levelo://app?vid=c9b88a72-3212-493b-a037-c2afa6a727a9","ios":"levelo://app?vid=c9b88a72-3212-493b-a037-c2afa6a727a9"},"vehicle_type_id":"4","last_reported":1758139831,"current_range_meters":8400,"station_id":"ce4bhlh2rcd13ifvqgig","pricing_plan_id":"cebpf4jnsgd1na2vs0mg"},{"bike_id":"2509bff6-3e7c-4487-b062-ebcf90d4210f","system_id":"levelo_inurba_marseille","lat":43.31369,"lon":5.38495,"is_reserved":false,"is_disabled":false,"rental_uris":{"android":"levelo://app?vid=2509bff6-3e7c-4487-b062-ebcf90d4210f","ios":"levelo://app?vid=2509bff6-3e7c-4487-b062-ebcf90d4210f"},"vehicle_type_id":"4","last_reported":1758139831,"current_range_meters":8400,"station_id":"ce4bgt92rcd13ifvqcf0","pricing_plan_id":"cebpf4jnsgd1na2vs0mg"},{"bike_id":"77021058-82f2-40c1-bba6-c67ae8cb8764","system_id":"levelo_inurba_marseille","lat":43.30331,"lon":5.4044,"is_reserved":false,"is_disabled":false,"rental_uris":{"android":"levelo://app?vid=77021058-82f2-40c1-bba6-c67ae8cb8764","ios":"levelo://app?vid=77021058-82f2-40c1-bba6-c67ae8cb8764"},"vehicle_type_id":"4","last_reported":1758139831,"current_range_meters":8400,"station_id":"ce4bh012rcd13ifvqd10","pricing_plan_id":"cebpf4jnsgd1na2vs0mg"},{"bike_id":"64f3a07c-3e66-4a38-a1a6-63f92ebdbeff","system_id":"levelo_inurba_marseille","lat":43.30964,"lon":5.39056,"is_reserved":false,"is_disabled":false,"rental_uris":{"android":"levelo://app?vid=64f3a07c-3e66-4a38-a1a6-63f92ebdbeff","ios":"levelo://app?vid=64f3a07c-3e66-4a38-a1a6-63f92ebdbeff"},"vehicle_type_id":"4","last_reported":1758139831,"current_range_meters":8400,"station_id":"ce4bgup2rcd13ifvqco0","pricing_plan_id":"cebpf4jnsgd1na2vs0mg"},{"bike_id":"b878969e-0167-4bb0-b49f-f2c086c9b3d9","system_id":"levelo_inurba_marseille","lat":43.26873,"lon":5.40675,"is_reserved":false,"is_disabled":false,"rental_uris":{"android":"levelo://app?vid=b878969e-0167-4bb0-b49f-f2c086c9b3d9","ios":"levelo://app?vid=b878969e-0167-4bb0-b49f-f2c086c9b3d9"},"vehicle_type_id":"4","last_reported":1758139831,"current_range_meters":8400,"station_id":"","pricing_plan_id":"cebpf4jnsgd1na2vs0mg"},{"bike_id":"0ede21be-37d9-4495-b672-80274a6292be","system_id":"levelo_inurba_marseille","lat":43.35069,"lon":5.34097,"is_reserved":false,"is_disabled":false,"rental_uris":{"android":"levelo://app?vid=0ede21be-37d9-4495-b672-80274a6292be","ios":"levelo://app?vid=0ede21be-37d9-4495-b672-80274a6292be"},"vehicle_type_id":"4","last_reported":1758139831,"current_range_meters":8400,"station_id":"","pricing_plan_id":"cebpf4jnsgd1na2vs0mg"},{"bike_id":"6ed574d4-ae23-4ee3-8cb5-72f4a68b9719","system_id":"levelo_inurba_marseille","lat":43.30909,"lon":5.37187,"is_reserved":false,"is_disabled":false,"rental_uris":{"android":"levelo://app?vid=6ed574d4-ae23-4ee3-8cb5-72f4a68b9719","ios":"levelo://app?vid=6ed574d4-ae23-4ee3-8cb5-72f4a68b9719"},"vehicle_type_id":"4","last_reported":1758139831,"current_range_meters":8800,"station_id":"ce4bguh2rcd13ifvqckg","pricing_plan_id":"cebpf4jnsgd1na2vs0mg"},{"bike_id":"336c74d9-d9c9-46d7-a94b-134b36ad023a","system_id":"levelo_inurba_marseille","lat":43.298539,"lon":5.37842,"is_reserved":false,"is_disabled":false,"rental_uris":{"android":"levelo://app?vid=336c74d9-d9c9-46d7-a94b-134b36ad023a","ios":"levelo://app?vid=336c74d9-d9c9-46d7-a94b-134b36ad023a"},"vehicle_type_id":"4","last_reported":1758139831,"current_range_meters":8800,"station_id":"","pricing_plan_id":"cebpf4jnsgd1na2vs0mg"},{"bike_id":"d3148670-c107-47f9-a7ca-65ee89238850","system_id":"levelo_inurba_marseille","lat":43.279765,"lon":5.416426,"is_reserved":false,"is_disabled":false,"rental_uris":{"android":"levelo://app?vid=d3148670-c107-47f9-a7ca-65ee89238850","ios":"levelo://app?vid=d3148670-c107-47f9-a7ca-65ee89238850"},"vehicle_type_id":"4","last_reported":1758139831,"current_range_meters":8800,"station_id":"ce4bho12rcd13ifvqh1g","pricing_plan_id":"cebpf4jnsgd1na2vs0mg"},{"bike_id":"5553c083-0368-4c5e-bf2e-56a1ed80b2d2","system_id":"levelo_inurba_marseille","lat":43.296236,"lon":5.377335,"is_reserved":false,"is_disabled":false,"rental_uris":{"android":"levelo://app?vid=5553c083-0368-4c5e-bf2e-56a1ed80b2d2","ios":"levelo://app?vid=5553c083-0368-4c5e-bf2e-56a1ed80b2d2"},"vehicle_type_id":"4","last_reported":1758139831,"current_range_meters":8800,"station_id":"ce4bgi92rcd13ifvqb90","pricing_plan_id":"cebpf4jnsgd1na2vs0mg"},{"bike_id":"003515e8-8117-44bb-979d-5f47e8d50fda","system_id":"levelo_inurba_marseille","lat":43.30625,"lon":5.37583,"is_reserved":false,"is_disabled":false,"rental_uris":{"android":"levelo://app?vid=003515e8-8117-44bb-979d-5f47e8d50fda","ios":"levelo://app?vid=003515e8-8117-44bb-979d-5f47e8d50fda"},"vehicle_type_id":"4","last_reported":1758139831,"current_range_meters":9200,"station_id":"","pricing_plan_id":"cebpf4jnsgd1na2vs0mg"},{"bike_id":"775af279-8ac9-4585-9121-809be9b13265","system_id":"levelo_inurba_marseille","lat":43.33762,"lon":5.37436,"is_reserved":false,"is_disabled":false,"rental_uris":{"android":"levelo://app?vid=775af279-8ac9-4585-9121-809be9b13265","ios":"levelo://app?vid=775af279-8ac9-4585-9121-809be9b13265"},"vehicle_type_id":"4","last_reported":1758139831,"current_range_meters":9200,"station_id":"","pricing_plan_id":"cebpf4jnsgd1na2vs0mg"},{"bike_id":"58c085a1-8ec3-4ab4-9898-c8465b5a02a4","system_id":"levelo_inurba_marseille","lat":43.29629,"lon":5.40595,"is_reserved":false,"is_disabled":false,"rental_uris":{"android":"levelo://app?vid=58c085a1-8ec3-4ab4-9898-c8465b5a02a4","ios":"levelo://app?vid=58c085a1-8ec3-4ab4-9898-c8465b5a02a4"},"vehicle_type_id":"4","last_reported":1758139831,"current_range_meters":8800,"station_id":"ce4bh0h2rcd13ifvqd60","pricing_plan_id":"cebpf4jnsgd1na2vs0mg"},{"bike_id":"50df05c5-9e78-4a32-8c15-ea1e068d3278","system_id":"levelo_inurba_marseille","lat":43.26944,"lon":5.38645,"is_reserved":false,"is_disabled":true,"rental_uris":{"android":"levelo://app?vid=50df05c5-9e78-4a32-8c15-ea1e068d3278","ios":"levelo://app?vid=50df05c5-9e78-4a32-8c15-ea1e068d3278"},"vehicle_type_id":"4","last_reported":1758139831,"current_range_meters":9200,"station_id":"ce4bhh92rcd13ifvqfh0","pricing_plan_id":"cebpf4jnsgd1na2vs0mg"},{"bike_id":"20b179a7-ee36-4a93-ba9e-1ac65156c9c7","system_id":"levelo_inurba_marseille","lat":43.29602,"lon":5.38105,"is_reserved":false,"is_disabled":false,"rental_uris":{"android":"levelo://app?vid=20b179a7-ee36-4a93-ba9e-1ac65156c9c7","ios":"levelo://app?vid=20b179a7-ee36-4a93-ba9e-1ac65156c9c7"},"vehicle_type_id":"4","last_reported":1758139831,"current_range_meters":9200,"station_id":"","pricing_plan_id":"cebpf4jnsgd1na2vs0mg"},{"bike_id":"5c589142-a0d9-4e8b-bad3-d809953d0838","system_id":"levelo_inurba_marseille","lat":43.23069,"lon":5.3549,"is_reserved":false,"is_disabled":false,"rental_uris":{"android":"levelo://app?vid=5c589142-a0d9-4e8b-bad3-d809953d0838","ios":"levelo://app?vid=5c589142-a0d9-4e8b-bad3-d809953d0838"},"vehicle_type_id":"4","last_reported":1758139831,"current_range_meters":9200,"station_id":"cpo3342slgdg3j2ifvpg","pricing_plan_id":"cebpf4jnsgd1na2vs0mg"},{"bike_id":"6bc80f0e-70d7-4e43-96c5-93127d72ecbc","system_id":"levelo_inurba_marseille","lat":43.31481,"lon":5.37311,"is_reserved":false,"is_disabled":false,"rental_uris":{"android":"levelo://app?vid=6bc80f0e-70d7-4e43-96c5-93127d72ecbc","ios":"levelo://app?vid=6bc80f0e-70d7-4e43-96c5-93127d72ecbc"},"vehicle_type_id":"4","last_reported":1758139831,"current_range_meters":9600,"station_id":"ce4bgt12rcd13ifvqcd0","pricing_plan_id":"cebpf4jnsgd1na2vs0mg"},{"bike_id":"97ddb518-2f89-4102-881c-a6ae70a37814","system_id":"levelo_inurba_marseille","lat":43.31533,"lon":5.38031,"is_reserved":false,"is_disabled":false,"rental_uris":{"android":"levelo://app?vid=97ddb518-2f89-4102-881c-a6ae70a37814","ios":"levelo://app?vid=97ddb518-2f89-4102-881c-a6ae70a37814"},"vehicle_type_id":"4","last_reported":1758139831,"current_range_meters":9600,"station_id":"ce4bhsp2rcd13ifvqi50","pricing_plan_id":"cebpf4jnsgd1na2vs0mg"},{"bike_id":"e575c663-7741-455c-94df-d8928b47f9a9","system_id":"levelo_inurba_marseille","lat":43.2962,"lon":5.3772,"is_reserved":false,"is_disabled":false,"rental_uris":{"android":"levelo://app?vid=e575c663-7741-455c-94df-d8928b47f9a9","ios":"levelo://app?vid=e575c663-7741-455c-94df-d8928b47f9a9"},"vehicle_type_id":"4","last_reported":1758139831,"current_range_meters":9600,"station_id":"ce4bgi92rcd13ifvqb90","pricing_plan_id":"cebpf4jnsgd1na2vs0mg"},{"bike_id":"05eeda8d-199a-458b-89bc-f4007da7d881","system_id":"levelo_inurba_marseille","lat":43.29329,"lon":5.37163,"is_reserved":false,"is_disabled":false,"rental_uris":{"android":"levelo://app?vid=05eeda8d-199a-458b-89bc-f4007da7d881","ios":"levelo://app?vid=05eeda8d-199a-458b-89bc-f4007da7d881"},"vehicle_type_id":"4","last_reported":1758139831,"current_range_meters":10000,"station_id":"ce4bgh92rcd13ifvqb40","pricing_plan_id":"cebpf4jnsgd1na2vs0mg"},{"bike_id":"fcd56ccc-f0ab-49ef-a538-8c498b5ecd49","system_id":"levelo_inurba_marseille","lat":43.22552,"lon":5.41632,"is_reserved":false,"is_disabled":false,"rental_uris":{"android":"levelo://app?vid=fcd56ccc-f0ab-49ef-a538-8c498b5ecd49","ios":"levelo://app?vid=fcd56ccc-f0ab-49ef-a538-8c498b5ecd49"},"vehicle_type_id":"4","last_reported":1758139831,"current_range_meters":10000,"station_id":"st_d2o4gvlbi1j2169b742g","pricing_plan_id":"cebpf4jnsgd1na2vs0mg"},{"bike_id":"59609b2b-2ce7-4bb8-bcfb-1b9d236a0aed","system_id":"levelo_inurba_marseille","lat":43.28712,"lon":5.3739,"is_reserved":false,"is_disabled":false,"rental_uris":{"android":"levelo://app?vid=59609b2b-2ce7-4bb8-bcfb-1b9d236a0aed","ios":"levelo://app?vid=59609b2b-2ce7-4bb8-bcfb-1b9d236a0aed"},"vehicle_type_id":"4","last_reported":1758139831,"current_range_meters":10000,"station_id":"ce4bh3p2rcd13ifvqdq0","pricing_plan_id":"cebpf4jnsgd1na2vs0mg"},{"bike_id":"5cebaa99-7be9-4a3f-9cc0-5cdfdaef03f0","system_id":"levelo_inurba_marseille","lat":43.225319,"lon":5.348348,"is_reserved":false,"is_disabled":false,"rental_uris":{"android":"levelo://app?vid=5cebaa99-7be9-4a3f-9cc0-5cdfdaef03f0","ios":"levelo://app?vid=5cebaa99-7be9-4a3f-9cc0-5cdfdaef03f0"},"vehicle_type_id":"4","last_reported":1758139831,"current_range_meters":10000,"station_id":"","pricing_plan_id":"cebpf4jnsgd1na2vs0mg"},{"bike_id":"dc056a5f-dd0c-437c-bb54-187cc2a010ce","system_id":"levelo_inurba_marseille","lat":43.29799,"lon":5.39361,"is_reserved":false,"is_disabled":true,"rental_uris":{"android":"levelo://app?vid=dc056a5f-dd0c-437c-bb54-187cc2a010ce","ios":"levelo://app?vid=dc056a5f-dd0c-437c-bb54-187cc2a010ce"},"vehicle_type_id":"4","last_reported":1758139831,"current_range_meters":10000,"station_id":"chh1huq6cuj3fo74tm60","pricing_plan_id":"cebpf4jnsgd1na2vs0mg"},{"bike_id":"97360e61-16c6-4a96-84e4-c775c5391376","system_id":"levelo_inurba_marseille","lat":43.278075,"lon":5.410036,"is_reserved":false,"is_disabled":false,"rental_uris":{"android":"levelo://app?vid=97360e61-16c6-4a96-84e4-c775c5391376","ios":"levelo://app?vid=97360e61-16c6-4a96-84e4-c775c5391376"},"vehicle_type_id":"4","last_reported":1758139831,"current_range_meters":10800,"station_id":"ce4bhnp2rcd13ifvqh0g","pricing_plan_id":"cebpf4jnsgd1na2vs0mg"},{"bike_id":"d2d21405-7d84-46d6-9542-57aa659023fa","system_id":"levelo_inurba_marseille","lat":43.33116,"lon":5.37888,"is_reserved":false,"is_disabled":false,"rental_uris":{"android":"levelo://app?vid=d2d21405-7d84-46d6-9542-57aa659023fa","ios":"levelo://app?vid=d2d21405-7d84-46d6-9542-57aa659023fa"},"vehicle_type_id":"4","last_reported":1758139831,"current_range_meters":10800,"station_id":"","pricing_plan_id":"cebpf4jnsgd1na2vs0mg"},{"bike_id":"97fac187-45a1-4e8f-be9b-a5c24559a733","system_id":"levelo_inurba_marseille","lat":43.21754,"lon":5.34615,"is_reserved":false,"is_disabled":false,"rental_uris":{"android":"levelo://app?vid=97fac187-45a1-4e8f-be9b-a5c24559a733","ios":"levelo://app?vid=97fac187-45a1-4e8f-be9b-a5c24559a733"},"vehicle_type_id":"4","last_reported":1758139831,"current_range_meters":11200,"station_id":"st_cvj6r9ubvosntc0bgbag","pricing_plan_id":"cebpf4jnsgd1na2vs0mg"},{"bike_id":"ca5a1340-d41e-49f3-95f8-599734e0a36c","system_id":"levelo_inurba_marseille","lat":43.225336,"lon":5.348339,"is_reserved":false,"is_disabled":false,"rental_uris":{"android":"levelo://app?vid=ca5a1340-d41e-49f3-95f8-599734e0a36c","ios":"levelo://app?vid=ca5a1340-d41e-49f3-95f8-599734e0a36c"},"vehicle_type_id":"4","last_reported":1758139831,"current_range_meters":11200,"station_id":"","pricing_plan_id":"cebpf4jnsgd1na2vs0mg"},{"bike_id":"2a5e641a-ca90-4f3a-9350-63bb94d9cebf","system_id":"levelo_inurba_marseille","lat":43.25543,"lon":5.39194,"is_reserved":false,"is_disabled":false,"rental_uris":{"android":"levelo://app?vid=2a5e641a-ca90-4f3a-9350-63bb94d9cebf","ios":"levelo://app?vid=2a5e641a-ca90-4f3a-9350-63bb94d9cebf"},"vehicle_type_id":"4","last_reported":1758139831,"current_range_meters":11200,"station_id":"","pricing_plan_id":"cebpf4jnsgd1na2vs0mg"},{"bike_id":"8134acd7-6950-4fcb-834e-9926fc09da98","system_id":"levelo_inurba_marseille","lat":43.3059,"lon":5.39354,"is_reserved":false,"is_disabled":false,"rental_uris":{"android":"levelo://app?vid=8134acd7-6950-4fcb-834e-9926fc09da98","ios":"levelo://app?vid=8134acd7-6950-4fcb-834e-9926fc09da98"},"vehicle_type_id":"4","last_reported":1758139831,"current_range_meters":11200,"station_id":"ce4bh0p2rcd13ifvqd80","pricing_plan_id":"cebpf4jnsgd1na2vs0mg"},{"bike_id":"0d7ca626-8625-454e-802b-45ee8808ba54","system_id":"levelo_inurba_marseille","lat":43.279453,"lon":5.410559,"is_reserved":false,"is_disabled":false,"rental_uris":{"android":"levelo://app?vid=0d7ca626-8625-454e-802b-45ee8808ba54","ios":"levelo://app?vid=0d7ca626-8625-454e-802b-45ee8808ba54"},"vehicle_type_id":"4","last_reported":1758139831,"current_range_meters":11200,"station_id":"ce4bhnp2rcd13ifvqh0g","pricing_plan_id":"cebpf4jnsgd1na2vs0mg"},{"bike_id":"ea2b8cb5-3aaa-4102-9089-ab6f9d168c5a","system_id":"levelo_inurba_marseille","lat":43.29035,"lon":5.37548,"is_reserved":false,"is_disabled":false,"rental_uris":{"android":"levelo://app?vid=ea2b8cb5-3aaa-4102-9089-ab6f9d168c5a","ios":"levelo://app?vid=ea2b8cb5-3aaa-4102-9089-ab6f9d168c5a"},"vehicle_type_id":"4","last_reported":1758139831,"current_range_meters":11600,"station_id":"ce4bh692rcd13ifvqe90","pricing_plan_id":"cebpf4jnsgd1na2vs0mg"},{"bike_id":"0a2e2756-8bf6-4279-a120-8478c237834b","system_id":"levelo_inurba_marseille","lat":43.26489,"lon":5.39554,"is_reserved":false,"is_disabled":true,"rental_uris":{"android":"levelo://app?vid=0a2e2756-8bf6-4279-a120-8478c237834b","ios":"levelo://app?vid=0a2e2756-8bf6-4279-a120-8478c237834b"},"vehicle_type_id":"4","last_reported":1758139831,"current_range_meters":11600,"station_id":"ce4bhi12rcd13ifvqfq0","pricing_plan_id":"cebpf4jnsgd1na2vs0mg"},{"bike_id":"e9505376-9085-4a23-8133-b98bc3589ca5","system_id":"levelo_inurba_marseille","lat":43.2953,"lon":5.38543,"is_reserved":false,"is_disabled":false,"rental_uris":{"android":"levelo://app?vid=e9505376-9085-4a23-8133-b98bc3589ca5","ios":"levelo://app?vid=e9505376-9085-4a23-8133-b98bc3589ca5"},"vehicle_type_id":"4","last_reported":1758139831,"current_range_meters":11600,"station_id":"ce4bgih2rcd13ifvqba0","pricing_plan_id":"cebpf4jnsgd1na2vs0mg"},{"bike_id":"5108822b-74ae-4dd9-9b4f-b157447bee86","system_id":"levelo_inurba_marseille","lat":43.30791,"lon":5.37656,"is_reserved":false,"is_disabled":false,"rental_uris":{"android":"levelo://app?vid=5108822b-74ae-4dd9-9b4f-b157447bee86","ios":"levelo://app?vid=5108822b-74ae-4dd9-9b4f-b157447bee86"},"vehicle_type_id":"4","last_reported":1758139831,"current_range_meters":11600,"station_id":"ce4bgv92rcd13ifvqcq0","pricing_plan_id":"cebpf4jnsgd1na2vs0mg"},{"bike_id":"09734f56-1274-4913-8cd9-7e86f641ab44","system_id":"levelo_inurba_marseille","lat":43.29497,"lon":5.38559,"is_reserved":false,"is_disabled":true,"rental_uris":{"android":"levelo://app?vid=09734f56-1274-4913-8cd9-7e86f641ab44","ios":"levelo://app?vid=09734f56-1274-4913-8cd9-7e86f641ab44"},"vehicle_type_id":"4","last_reported":1758139831,"current_range_meters":12000,"station_id":"ce4bgih2rcd13ifvqba0","pricing_plan_id":"cebpf4jnsgd1na2vs0mg"},{"bike_id":"62ad0034-2f00-484d-b4a7-d0313ae59052","system_id":"levelo_inurba_marseille","lat":43.28162,"lon":5.42656,"is_reserved":false,"is_disabled":false,"rental_uris":{"android":"levelo://app?vid=62ad0034-2f00-484d-b4a7-d0313ae59052","ios":"levelo://app?vid=62ad0034-2f00-484d-b4a7-d0313ae59052"},"vehicle_type_id":"4","last_reported":1758139831,"current_range_meters":12000,"station_id":"ce4bhnh2rcd13ifvqgug","pricing_plan_id":"cebpf4jnsgd1na2vs0mg"},{"bike_id":"be7e6a52-5f32-4f5d-ab19-09bbc34d35a2","system_id":"levelo_inurba_marseille","lat":43.21192,"lon":5.35085,"is_reserved":false,"is_disabled":false,"rental_uris":{"android":"levelo://app?vid=be7e6a52-5f32-4f5d-ab19-09bbc34d35a2","ios":"levelo://app?vid=be7e6a52-5f32-4f5d-ab19-09bbc34d35a2"},"vehicle_type_id":"4","last_reported":1758139831,"current_range_meters":12000,"station_id":"st_cvj6sg6p6f1abm77japg","pricing_plan_id":"cebpf4jnsgd1na2vs0mg"},{"bike_id":"b7a9be1c-6745-4e91-a42a-7e1c96585cec","system_id":"levelo_inurba_marseille","lat":43.29307,"lon":5.37171,"is_reserved":false,"is_disabled":false,"rental_uris":{"android":"levelo://app?vid=b7a9be1c-6745-4e91-a42a-7e1c96585cec","ios":"levelo://app?vid=b7a9be1c-6745-4e91-a42a-7e1c96585cec"},"vehicle_type_id":"4","last_reported":1758139831,"current_range_meters":12000,"station_id":"","pricing_plan_id":"cebpf4jnsgd1na2vs0mg"},{"bike_id":"84f82454-6e88-4cf3-b74a-5cecbebdbad8","system_id":"levelo_inurba_marseille","lat":43.30804,"lon":5.38168,"is_reserved":false,"is_disabled":false,"rental_uris":{"android":"levelo://app?vid=84f82454-6e88-4cf3-b74a-5cecbebdbad8","ios":"levelo://app?vid=84f82454-6e88-4cf3-b74a-5cecbebdbad8"},"vehicle_type_id":"4","last_reported":1758139831,"current_range_meters":12000,"station_id":"ce4bgt12rcd13ifvqce0","pricing_plan_id":"cebpf4jnsgd1na2vs0mg"},{"bike_id":"5701fe9c-3e98-4b9f-a910-5eb395d4e5d3","system_id":"levelo_inurba_marseille","lat":43.305389,"lon":5.384223,"is_reserved":false,"is_disabled":false,"rental_uris":{"android":"levelo://app?vid=5701fe9c-3e98-4b9f-a910-5eb395d4e5d3","ios":"levelo://app?vid=5701fe9c-3e98-4b9f-a910-5eb395d4e5d3"},"vehicle_type_id":"4","last_reported":1758139831,"current_range_meters":12000,"station_id":"ce4bgg92rcd13ifvqb30","pricing_plan_id":"cebpf4jnsgd1na2vs0mg"},{"bike_id":"d84cf51b-62fe-4fa2-b41b-4160ba8b3c3a","system_id":"levelo_inurba_marseille","lat":43.28941,"lon":5.36408,"is_reserved":false,"is_disabled":false,"rental_uris":{"android":"levelo://app?vid=d84cf51b-62fe-4fa2-b41b-4160ba8b3c3a","ios":"levelo://app?vid=d84cf51b-62fe-4fa2-b41b-4160ba8b3c3a"},"vehicle_type_id":"4","last_reported":1758139831,"current_range_meters":12000,"station_id":"ce4bhc92rcd13ifvqetg","pricing_plan_id":"cebpf4jnsgd1na2vs0mg"},{"bike_id":"64acb283-bd81-40af-8bdf-b2630965db81","system_id":"levelo_inurba_marseille","lat":43.27493,"lon":5.42443,"is_reserved":false,"is_disabled":false,"rental_uris":{"android":"levelo://app?vid=64acb283-bd81-40af-8bdf-b2630965db81","ios":"levelo://app?vid=64acb283-bd81-40af-8bdf-b2630965db81"},"vehicle_type_id":"4","last_reported":1758139831,"current_range_meters":12000,"station_id":"ce4bhn92rcd13ifvqgrg","pricing_plan_id":"cebpf4jnsgd1na2vs0mg"},{"bike_id":"e51d0a08-ed72-438f-87cb-8f9f8f6dcd31","system_id":"levelo_inurba_marseille","lat":43.25079,"lon":5.39535,"is_reserved":false,"is_disabled":false,"rental_uris":{"android":"levelo://app?vid=e51d0a08-ed72-438f-87cb-8f9f8f6dcd31","ios":"levelo://app?vid=e51d0a08-ed72-438f-87cb-8f9f8f6dcd31"},"vehicle_type_id":"4","last_reported":1758139831,"current_range_meters":12400,"station_id":"ce4bhm12rcd13ifvqgkg","pricing_plan_id":"cebpf4jnsgd1na2vs0mg"},{"bike_id":"629e0471-618f-471b-940a-455e6d8e15db","system_id":"levelo_inurba_marseille","lat":43.31759,"lon":5.39019,"is_reserved":false,"is_disabled":false,"rental_uris":{"android":"levelo://app?vid=629e0471-618f-471b-940a-455e6d8e15db","ios":"levelo://app?vid=629e0471-618f-471b-940a-455e6d8e15db"},"vehicle_type_id":"4","last_reported":1758139831,"current_range_meters":12400,"station_id":"ce4bhqp2rcd13ifvqhng","pricing_plan_id":"cebpf4jnsgd1na2vs0mg"},{"bike_id":"a2cc1c2f-1d11-48db-982e-b4e7fb30e192","system_id":"levelo_inurba_marseille","lat":43.32484,"lon":5.36573,"is_reserved":false,"is_disabled":false,"rental_uris":{"android":"levelo://app?vid=a2cc1c2f-1d11-48db-982e-b4e7fb30e192","ios":"levelo://app?vid=a2cc1c2f-1d11-48db-982e-b4e7fb30e192"},"vehicle_type_id":"4","last_reported":1758139831,"current_range_meters":12400,"station_id":"ce4bhs12rcd13ifvqhvg","pricing_plan_id":"cebpf4jnsgd1na2vs0mg"},{"bike_id":"bb5418dd-b7cf-480b-b140-df3c2fab3330","system_id":"levelo_inurba_marseille","lat":43.307699,"lon":5.381529,"is_reserved":false,"is_disabled":false,"rental_uris":{"android":"levelo://app?vid=bb5418dd-b7cf-480b-b140-df3c2fab3330","ios":"levelo://app?vid=bb5418dd-b7cf-480b-b140-df3c2fab3330"},"vehicle_type_id":"4","last_reported":1758139831,"current_range_meters":12400,"station_id":"ce4bgt12rcd13ifvqce0","pricing_plan_id":"cebpf4jnsgd1na2vs0mg"},{"bike_id":"0d87766e-fd61-4973-868b-93e59d269f56","system_id":"levelo_inurba_marseille","lat":43.28983,"lon":5.39602,"is_reserved":false,"is_disabled":false,"rental_uris":{"android":"levelo://app?vid=0d87766e-fd61-4973-868b-93e59d269f56","ios":"levelo://app?vid=0d87766e-fd61-4973-868b-93e59d269f56"},"vehicle_type_id":"4","last_reported":1758139831,"current_range_meters":12400,"station_id":"","pricing_plan_id":"cebpf4jnsgd1na2vs0mg"},{"bike_id":"7c53e1e0-9efc-4c15-9c29-668d4dac4c59","system_id":"levelo_inurba_marseille","lat":43.22511,"lon":5.34848,"is_reserved":false,"is_disabled":false,"rental_uris":{"android":"levelo://app?vid=7c53e1e0-9efc-4c15-9c29-668d4dac4c59","ios":"levelo://app?vid=7c53e1e0-9efc-4c15-9c29-668d4dac4c59"},"vehicle_type_id":"4","last_reported":1758139831,"current_range_meters":12400,"station_id":"","pricing_plan_id":"cebpf4jnsgd1na2vs0mg"},{"bike_id":"133ab78f-1a02-4dcd-a782-21de73841da9","system_id":"levelo_inurba_marseille","lat":43.30887,"lon":5.37187,"is_reserved":false,"is_disabled":false,"rental_uris":{"android":"levelo://app?vid=133ab78f-1a02-4dcd-a782-21de73841da9","ios":"levelo://app?vid=133ab78f-1a02-4dcd-a782-21de73841da9"},"vehicle_type_id":"4","last_reported":1758139831,"current_range_meters":12400,"station_id":"ce4bguh2rcd13ifvqckg","pricing_plan_id":"cebpf4jnsgd1na2vs0mg"},{"bike_id":"d87a2287-81e9-47af-9ec2-cc0db426763b","system_id":"levelo_inurba_marseille","lat":43.30321,"lon":5.36901,"is_reserved":false,"is_disabled":false,"rental_uris":{"android":"levelo://app?vid=d87a2287-81e9-47af-9ec2-cc0db426763b","ios":"levelo://app?vid=d87a2287-81e9-47af-9ec2-cc0db426763b"},"vehicle_type_id":"4","last_reported":1758139831,"current_range_meters":12800,"station_id":"","pricing_plan_id":"cebpf4jnsgd1na2vs0mg"},{"bike_id":"65854fe7-484f-4538-8c9b-93eeb0063f0f","system_id":"levelo_inurba_marseille","lat":43.25338,"lon":5.42178,"is_reserved":false,"is_disabled":false,"rental_uris":{"android":"levelo://app?vid=65854fe7-484f-4538-8c9b-93eeb0063f0f","ios":"levelo://app?vid=65854fe7-484f-4538-8c9b-93eeb0063f0f"},"vehicle_type_id":"4","last_reported":1758139831,"current_range_meters":12800,"station_id":"st_d2m65c5bi1j21697t3ng","pricing_plan_id":"cebpf4jnsgd1na2vs0mg"},{"bike_id":"2cb40913-0575-47ae-a31e-5936e0178a59","system_id":"levelo_inurba_marseille","lat":43.29031,"lon":5.37573,"is_reserved":false,"is_disabled":false,"rental_uris":{"android":"levelo://app?vid=2cb40913-0575-47ae-a31e-5936e0178a59","ios":"levelo://app?vid=2cb40913-0575-47ae-a31e-5936e0178a59"},"vehicle_type_id":"4","last_reported":1758139831,"current_range_meters":12800,"station_id":"ce4bh692rcd13ifvqe90","pricing_plan_id":"cebpf4jnsgd1na2vs0mg"},{"bike_id":"c100395f-884e-4f6f-a534-e757b0caf64e","system_id":"levelo_inurba_marseille","lat":43.30128,"lon":5.38803,"is_reserved":false,"is_disabled":false,"rental_uris":{"android":"levelo://app?vid=c100395f-884e-4f6f-a534-e757b0caf64e","ios":"levelo://app?vid=c100395f-884e-4f6f-a534-e757b0caf64e"},"vehicle_type_id":"4","last_reported":1758139831,"current_range_meters":12400,"station_id":"ce4bghh2rcd13ifvqb60","pricing_plan_id":"cebpf4jnsgd1na2vs0mg"},{"bike_id":"ec1dd5a4-3e01-4152-822c-84a34b24fbe4","system_id":"levelo_inurba_marseille","lat":43.2846,"lon":5.35898,"is_reserved":false,"is_disabled":false,"rental_uris":{"android":"levelo://app?vid=ec1dd5a4-3e01-4152-822c-84a34b24fbe4","ios":"levelo://app?vid=ec1dd5a4-3e01-4152-822c-84a34b24fbe4"},"vehicle_type_id":"4","last_reported":1758139831,"current_range_meters":12400,"station_id":"ce4bhah2rcd13ifvqei0","pricing_plan_id":"cebpf4jnsgd1na2vs0mg"},{"bike_id":"72c7110c-217a-46a5-98b2-4bafd9eee0fd","system_id":"levelo_inurba_marseille","lat":43.29512,"lon":5.39042,"is_reserved":false,"is_disabled":false,"rental_uris":{"android":"levelo://app?vid=72c7110c-217a-46a5-98b2-4bafd9eee0fd","ios":"levelo://app?vid=72c7110c-217a-46a5-98b2-4bafd9eee0fd"},"vehicle_type_id":"4","last_reported":1758139831,"current_range_meters":12800,"station_id":"ce4bh3p2rcd13ifvqdp0","pricing_plan_id":"cebpf4jnsgd1na2vs0mg"},{"bike_id":"b3032b2f-5fa4-4654-99a8-de4f3dfe8a60","system_id":"levelo_inurba_marseille","lat":43.29268,"lon":5.408797,"is_reserved":false,"is_disabled":false,"rental_uris":{"android":"levelo://app?vid=b3032b2f-5fa4-4654-99a8-de4f3dfe8a60","ios":"levelo://app?vid=b3032b2f-5fa4-4654-99a8-de4f3dfe8a60"},"vehicle_type_id":"4","last_reported":1758139831,"current_range_meters":12400,"station_id":"ce4bh192rcd13ifvqdc0","pricing_plan_id":"cebpf4jnsgd1na2vs0mg"},{"bike_id":"53923efc-dde2-4b83-9b67-8acec49fce5b","system_id":"levelo_inurba_marseille","lat":43.29499,"lon":5.39062,"is_reserved":false,"is_disabled":false,"rental_uris":{"android":"levelo://app?vid=53923efc-dde2-4b83-9b67-8acec49fce5b","ios":"levelo://app?vid=53923efc-dde2-4b83-9b67-8acec49fce5b"},"vehicle_type_id":"4","last_reported":1758139831,"current_range_meters":12800,"station_id":"ce4bh3p2rcd13ifvqdp0","pricing_plan_id":"cebpf4jnsgd1na2vs0mg"},{"bike_id":"33b5ab3c-82b1-4157-9b09-14a9ba6f5323","system_id":"levelo_inurba_marseille","lat":43.31196,"lon":5.36889,"is_reserved":false,"is_disabled":false,"rental_uris":{"android":"levelo://app?vid=33b5ab3c-82b1-4157-9b09-14a9ba6f5323","ios":"levelo://app?vid=33b5ab3c-82b1-4157-9b09-14a9ba6f5323"},"vehicle_type_id":"4","last_reported":1758139831,"current_range_meters":12800,"station_id":"ce4bgl92rcd13ifvqbq0","pricing_plan_id":"cebpf4jnsgd1na2vs0mg"},{"bike_id":"046ba709-b940-4fa3-9690-1d81db536e4b","system_id":"levelo_inurba_marseille","lat":43.22556,"lon":5.41621,"is_reserved":false,"is_disabled":false,"rental_uris":{"android":"levelo://app?vid=046ba709-b940-4fa3-9690-1d81db536e4b","ios":"levelo://app?vid=046ba709-b940-4fa3-9690-1d81db536e4b"},"vehicle_type_id":"4","last_reported":1758139831,"current_range_meters":13600,"station_id":"st_d2o4gvlbi1j2169b742g","pricing_plan_id":"cebpf4jnsgd1na2vs0mg"},{"bike_id":"99ea5b04-a1d4-49cf-ad67-e58228257d32","system_id":"levelo_inurba_marseille","lat":43.31697,"lon":5.43702,"is_reserved":false,"is_disabled":false,"rental_uris":{"android":"levelo://app?vid=99ea5b04-a1d4-49cf-ad67-e58228257d32","ios":"levelo://app?vid=99ea5b04-a1d4-49cf-ad67-e58228257d32"},"vehicle_type_id":"4","last_reported":1758139831,"current_range_meters":13600,"station_id":"ce4bhp92rcd13ifvqhcg","pricing_plan_id":"cebpf4jnsgd1na2vs0mg"},{"bike_id":"335f12e9-618b-4092-bce8-c94e434d846c","system_id":"levelo_inurba_marseille","lat":43.25331,"lon":5.42167,"is_reserved":false,"is_disabled":false,"rental_uris":{"android":"levelo://app?vid=335f12e9-618b-4092-bce8-c94e434d846c","ios":"levelo://app?vid=335f12e9-618b-4092-bce8-c94e434d846c"},"vehicle_type_id":"4","last_reported":1758139831,"current_range_meters":13600,"station_id":"st_d2m65c5bi1j21697t3ng","pricing_plan_id":"cebpf4jnsgd1na2vs0mg"},{"bike_id":"c99b6713-7403-4fdf-8afe-2c146097a93c","system_id":"levelo_inurba_marseille","lat":43.29307,"lon":5.37153,"is_reserved":false,"is_disabled":false,"rental_uris":{"android":"levelo://app?vid=c99b6713-7403-4fdf-8afe-2c146097a93c","ios":"levelo://app?vid=c99b6713-7403-4fdf-8afe-2c146097a93c"},"vehicle_type_id":"4","last_reported":1758139831,"current_range_meters":13600,"station_id":"","pricing_plan_id":"cebpf4jnsgd1na2vs0mg"},{"bike_id":"dc87237e-bb10-4f17-be98-ba5eae548f2e","system_id":"levelo_inurba_marseille","lat":43.32366,"lon":5.38881,"is_reserved":false,"is_disabled":false,"rental_uris":{"android":"levelo://app?vid=dc87237e-bb10-4f17-be98-ba5eae548f2e","ios":"levelo://app?vid=dc87237e-bb10-4f17-be98-ba5eae548f2e"},"vehicle_type_id":"4","last_reported":1758139831,"current_range_meters":13600,"station_id":"ce4bhqp2rcd13ifvqhog","pricing_plan_id":"cebpf4jnsgd1na2vs0mg"},{"bike_id":"f33a9d92-dc72-4c87-9b78-06427efada63","system_id":"levelo_inurba_marseille","lat":43.29976,"lon":5.38476,"is_reserved":false,"is_disabled":false,"rental_uris":{"android":"levelo://app?vid=f33a9d92-dc72-4c87-9b78-06427efada63","ios":"levelo://app?vid=f33a9d92-dc72-4c87-9b78-06427efada63"},"vehicle_type_id":"4","last_reported":1758139831,"current_range_meters":14000,"station_id":"","pricing_plan_id":"cebpf4jnsgd1na2vs0mg"},{"bike_id":"55dfb17a-dc13-4669-82ac-2c676d600c2d","system_id":"levelo_inurba_marseille","lat":43.31351,"lon":5.37936,"is_reserved":false,"is_disabled":false,"rental_uris":{"android":"levelo://app?vid=55dfb17a-dc13-4669-82ac-2c676d600c2d","ios":"levelo://app?vid=55dfb17a-dc13-4669-82ac-2c676d600c2d"},"vehicle_type_id":"4","last_reported":1758139831,"current_range_meters":14000,"station_id":"","pricing_plan_id":"cebpf4jnsgd1na2vs0mg"},{"bike_id":"95921934-0a3c-4866-a2b3-2f37de1ec8a5","system_id":"levelo_inurba_marseille","lat":43.31389,"lon":5.40492,"is_reserved":false,"is_disabled":false,"rental_uris":{"android":"levelo://app?vid=95921934-0a3c-4866-a2b3-2f37de1ec8a5","ios":"levelo://app?vid=95921934-0a3c-4866-a2b3-2f37de1ec8a5"},"vehicle_type_id":"4","last_reported":1758139831,"current_range_meters":14000,"station_id":"","pricing_plan_id":"cebpf4jnsgd1na2vs0mg"},{"bike_id":"c7279ad0-4b36-46e5-8a86-ef8448520cbd","system_id":"levelo_inurba_marseille","lat":43.29529,"lon":5.38559,"is_reserved":false,"is_disabled":false,"rental_uris":{"android":"levelo://app?vid=c7279ad0-4b36-46e5-8a86-ef8448520cbd","ios":"levelo://app?vid=c7279ad0-4b36-46e5-8a86-ef8448520cbd"},"vehicle_type_id":"4","last_reported":1758139831,"current_range_meters":14000,"station_id":"ce4bgih2rcd13ifvqba0","pricing_plan_id":"cebpf4jnsgd1na2vs0mg"},{"bike_id":"f7254990-f51d-45fe-83e3-57aceffccbc4","system_id":"levelo_inurba_marseille","lat":43.22583,"lon":5.41637,"is_reserved":false,"is_disabled":false,"rental_uris":{"android":"levelo://app?vid=f7254990-f51d-45fe-83e3-57aceffccbc4","ios":"levelo://app?vid=f7254990-f51d-45fe-83e3-57aceffccbc4"},"vehicle_type_id":"4","last_reported":1758139831,"current_range_meters":14400,"station_id":"st_d2o4gvlbi1j2169b742g","pricing_plan_id":"cebpf4jnsgd1na2vs0mg"},{"bike_id":"dc2aaeef-9171-40f7-bf54-f62d256a3558","system_id":"levelo_inurba_marseille","lat":43.30847,"lon":5.37204,"is_reserved":false,"is_disabled":false,"rental_uris":{"android":"levelo://app?vid=dc2aaeef-9171-40f7-bf54-f62d256a3558","ios":"levelo://app?vid=dc2aaeef-9171-40f7-bf54-f62d256a3558"},"vehicle_type_id":"4","last_reported":1758139831,"current_range_meters":14400,"station_id":"ce4bguh2rcd13ifvqckg","pricing_plan_id":"cebpf4jnsgd1na2vs0mg"},{"bike_id":"abf410dc-9736-4942-8cb9-4ee307ce1557","system_id":"levelo_inurba_marseille","lat":43.24653,"lon":5.38167,"is_reserved":false,"is_disabled":false,"rental_uris":{"android":"levelo://app?vid=abf410dc-9736-4942-8cb9-4ee307ce1557","ios":"levelo://app?vid=abf410dc-9736-4942-8cb9-4ee307ce1557"},"vehicle_type_id":"4","last_reported":1758139831,"current_range_meters":14400,"station_id":"ce4bhih2rcd13ifvqfr0","pricing_plan_id":"cebpf4jnsgd1na2vs0mg"},{"bike_id":"d1ea0547-112d-422c-8dcf-cbc064802e4e","system_id":"levelo_inurba_marseille","lat":43.2919,"lon":5.37151,"is_reserved":false,"is_disabled":false,"rental_uris":{"android":"levelo://app?vid=d1ea0547-112d-422c-8dcf-cbc064802e4e","ios":"levelo://app?vid=d1ea0547-112d-422c-8dcf-cbc064802e4e"},"vehicle_type_id":"4","last_reported":1758139831,"current_range_meters":14000,"station_id":"ce4bha92rcd13ifvqeh0","pricing_plan_id":"cebpf4jnsgd1na2vs0mg"},{"bike_id":"0a714f01-7287-46f8-bbb6-81d9c8aaefe2","system_id":"levelo_inurba_marseille","lat":43.29693,"lon":5.3916,"is_reserved":false,"is_disabled":false,"rental_uris":{"android":"levelo://app?vid=0a714f01-7287-46f8-bbb6-81d9c8aaefe2","ios":"levelo://app?vid=0a714f01-7287-46f8-bbb6-81d9c8aaefe2"},"vehicle_type_id":"4","last_reported":1758139831,"current_range_meters":14400,"station_id":"","pricing_plan_id":"cebpf4jnsgd1na2vs0mg"},{"bike_id":"4a9f1525-bb38-489e-be29-d6e9a5dc713e","system_id":"levelo_inurba_marseille","lat":43.27493,"lon":5.42454,"is_reserved":false,"is_disabled":false,"rental_uris":{"android":"levelo://app?vid=4a9f1525-bb38-489e-be29-d6e9a5dc713e","ios":"levelo://app?vid=4a9f1525-bb38-489e-be29-d6e9a5dc713e"},"vehicle_type_id":"4","last_reported":1758139831,"current_range_meters":14400,"station_id":"ce4bhn92rcd13ifvqgrg","pricing_plan_id":"cebpf4jnsgd1na2vs0mg"},{"bike_id":"768476b5-7ea4-41a5-a929-881376389800","system_id":"levelo_inurba_marseille","lat":43.29277,"lon":5.36842,"is_reserved":false,"is_disabled":false,"rental_uris":{"android":"levelo://app?vid=768476b5-7ea4-41a5-a929-881376389800","ios":"levelo://app?vid=768476b5-7ea4-41a5-a929-881376389800"},"vehicle_type_id":"4","last_reported":1758139831,"current_range_meters":14400,"station_id":"ce4bhbp2rcd13ifvqesg","pricing_plan_id":"cebpf4jnsgd1na2vs0mg"},{"bike_id":"963eafaf-b355-4d34-83c6-b1fe8d990f92","system_id":"levelo_inurba_marseille","lat":43.319304,"lon":5.408054,"is_reserved":false,"is_disabled":false,"rental_uris":{"android":"levelo://app?vid=963eafaf-b355-4d34-83c6-b1fe8d990f92","ios":"levelo://app?vid=963eafaf-b355-4d34-83c6-b1fe8d990f92"},"vehicle_type_id":"4","last_reported":1758139831,"current_range_meters":14400,"station_id":"ce4bhq12rcd13ifvqhig","pricing_plan_id":"cebpf4jnsgd1na2vs0mg"},{"bike_id":"49230824-e0b0-4942-b254-aed72b06d282","system_id":"levelo_inurba_marseille","lat":43.26957,"lon":5.4052,"is_reserved":false,"is_disabled":false,"rental_uris":{"android":"levelo://app?vid=49230824-e0b0-4942-b254-aed72b06d282","ios":"levelo://app?vid=49230824-e0b0-4942-b254-aed72b06d282"},"vehicle_type_id":"4","last_reported":1758139831,"current_range_meters":14800,"station_id":"","pricing_plan_id":"cebpf4jnsgd1na2vs0mg"},{"bike_id":"2fcc52b3-83bc-4b17-ac5c-0695077c4514","system_id":"levelo_inurba_marseille","lat":43.29627,"lon":5.37732,"is_reserved":false,"is_disabled":false,"rental_uris":{"android":"levelo://app?vid=2fcc52b3-83bc-4b17-ac5c-0695077c4514","ios":"levelo://app?vid=2fcc52b3-83bc-4b17-ac5c-0695077c4514"},"vehicle_type_id":"4","last_reported":1758139831,"current_range_meters":14800,"station_id":"","pricing_plan_id":"cebpf4jnsgd1na2vs0mg"},{"bike_id":"df2c6ce1-3df7-4976-bcc8-22b068fb0f46","system_id":"levelo_inurba_marseille","lat":43.29311,"lon":5.37175,"is_reserved":false,"is_disabled":false,"rental_uris":{"android":"levelo://app?vid=df2c6ce1-3df7-4976-bcc8-22b068fb0f46","ios":"levelo://app?vid=df2c6ce1-3df7-4976-bcc8-22b068fb0f46"},"vehicle_type_id":"4","last_reported":1758139831,"current_range_meters":14800,"station_id":"","pricing_plan_id":"cebpf4jnsgd1na2vs0mg"},{"bike_id":"f686b32f-0a3c-4732-a2f2-3df8c0c22d86","system_id":"levelo_inurba_marseille","lat":43.24682,"lon":5.3816,"is_reserved":false,"is_disabled":false,"rental_uris":{"android":"levelo://app?vid=f686b32f-0a3c-4732-a2f2-3df8c0c22d86","ios":"levelo://app?vid=f686b32f-0a3c-4732-a2f2-3df8c0c22d86"},"vehicle_type_id":"4","last_reported":1758139831,"current_range_meters":14800,"station_id":"ce4bhih2rcd13ifvqfr0","pricing_plan_id":"cebpf4jnsgd1na2vs0mg"},{"bike_id":"22f0687d-25d3-4094-9c4a-293a61e189a6","system_id":"levelo_inurba_marseille","lat":43.24711,"lon":5.3977,"is_reserved":false,"is_disabled":false,"rental_uris":{"android":"levelo://app?vid=22f0687d-25d3-4094-9c4a-293a61e189a6","ios":"levelo://app?vid=22f0687d-25d3-4094-9c4a-293a61e189a6"},"vehicle_type_id":"4","last_reported":1758139831,"current_range_meters":14800,"station_id":"","pricing_plan_id":"cebpf4jnsgd1na2vs0mg"},{"bike_id":"7617e3ba-453f-4a44-be41-7dfc5fc946b4","system_id":"levelo_inurba_marseille","lat":43.3149,"lon":5.37296,"is_reserved":false,"is_disabled":false,"rental_uris":{"android":"levelo://app?vid=7617e3ba-453f-4a44-be41-7dfc5fc946b4","ios":"levelo://app?vid=7617e3ba-453f-4a44-be41-7dfc5fc946b4"},"vehicle_type_id":"4","last_reported":1758139831,"current_range_meters":14800,"station_id":"ce4bgt12rcd13ifvqcd0","pricing_plan_id":"cebpf4jnsgd1na2vs0mg"},{"bike_id":"8896123d-fa58-4a8c-8e0c-938af8d18587","system_id":"levelo_inurba_marseille","lat":43.2749,"lon":5.4246,"is_reserved":false,"is_disabled":false,"rental_uris":{"android":"levelo://app?vid=8896123d-fa58-4a8c-8e0c-938af8d18587","ios":"levelo://app?vid=8896123d-fa58-4a8c-8e0c-938af8d18587"},"vehicle_type_id":"4","last_reported":1758139831,"current_range_meters":15200,"station_id":"ce4bhn92rcd13ifvqgrg","pricing_plan_id":"cebpf4jnsgd1na2vs0mg"},{"bike_id":"fdd16b86-7e6c-48ea-8b27-58bf7d929358","system_id":"levelo_inurba_marseille","lat":43.30537,"lon":5.38428,"is_reserved":false,"is_disabled":false,"rental_uris":{"android":"levelo://app?vid=fdd16b86-7e6c-48ea-8b27-58bf7d929358","ios":"levelo://app?vid=fdd16b86-7e6c-48ea-8b27-58bf7d929358"},"vehicle_type_id":"4","last_reported":1758139831,"current_range_meters":15200,"station_id":"ce4bgg92rcd13ifvqb30","pricing_plan_id":"cebpf4jnsgd1na2vs0mg"},{"bike_id":"4ef0b159-701b-41d0-bae6-b8fb6694df08","system_id":"levelo_inurba_marseille","lat":43.31045,"lon":5.38558,"is_reserved":false,"is_disabled":false,"rental_uris":{"android":"levelo://app?vid=4ef0b159-701b-41d0-bae6-b8fb6694df08","ios":"levelo://app?vid=4ef0b159-701b-41d0-bae6-b8fb6694df08"},"vehicle_type_id":"4","last_reported":1758139831,"current_range_meters":15200,"station_id":"","pricing_plan_id":"cebpf4jnsgd1na2vs0mg"},{"bike_id":"2ed0296a-0b53-4da9-9ae7-01aa1e30049e","system_id":"levelo_inurba_marseille","lat":43.24654,"lon":5.38163,"is_reserved":false,"is_disabled":false,"rental_uris":{"android":"levelo://app?vid=2ed0296a-0b53-4da9-9ae7-01aa1e30049e","ios":"levelo://app?vid=2ed0296a-0b53-4da9-9ae7-01aa1e30049e"},"vehicle_type_id":"4","last_reported":1758139831,"current_range_meters":16000,"station_id":"ce4bhih2rcd13ifvqfr0","pricing_plan_id":"cebpf4jnsgd1na2vs0mg"},{"bike_id":"3d158815-0ba1-449f-90dd-2b69cf190d13","system_id":"levelo_inurba_marseille","lat":43.32952,"lon":5.3927,"is_reserved":false,"is_disabled":false,"rental_uris":{"android":"levelo://app?vid=3d158815-0ba1-449f-90dd-2b69cf190d13","ios":"levelo://app?vid=3d158815-0ba1-449f-90dd-2b69cf190d13"},"vehicle_type_id":"4","last_reported":1758139831,"current_range_meters":16000,"station_id":"","pricing_plan_id":"cebpf4jnsgd1na2vs0mg"},{"bike_id":"67e391bd-c9ee-4557-a108-56f7f6b7084d","system_id":"levelo_inurba_marseille","lat":43.29579,"lon":5.38104,"is_reserved":false,"is_disabled":false,"rental_uris":{"android":"levelo://app?vid=67e391bd-c9ee-4557-a108-56f7f6b7084d","ios":"levelo://app?vid=67e391bd-c9ee-4557-a108-56f7f6b7084d"},"vehicle_type_id":"4","last_reported":1758139831,"current_range_meters":16000,"station_id":"","pricing_plan_id":"cebpf4jnsgd1na2vs0mg"},{"bike_id":"152b725d-6f61-44b0-bc66-f31437aa6fe9","system_id":"levelo_inurba_marseille","lat":43.2256,"lon":5.41626,"is_reserved":false,"is_disabled":false,"rental_uris":{"android":"levelo://app?vid=152b725d-6f61-44b0-bc66-f31437aa6fe9","ios":"levelo://app?vid=152b725d-6f61-44b0-bc66-f31437aa6fe9"},"vehicle_type_id":"4","last_reported":1758139831,"current_range_meters":16000,"station_id":"st_d2o4gvlbi1j2169b742g","pricing_plan_id":"cebpf4jnsgd1na2vs0mg"},{"bike_id":"80332322-52bb-49f4-b738-0ea587c53538","system_id":"levelo_inurba_marseille","lat":43.225357,"lon":5.34837,"is_reserved":false,"is_disabled":false,"rental_uris":{"android":"levelo://app?vid=80332322-52bb-49f4-b738-0ea587c53538","ios":"levelo://app?vid=80332322-52bb-49f4-b738-0ea587c53538"},"vehicle_type_id":"4","last_reported":1758139831,"current_range_meters":16000,"station_id":"","pricing_plan_id":"cebpf4jnsgd1na2vs0mg"},{"bike_id":"9d181f5a-58ca-49a0-bbcc-8286d3ed3228","system_id":"levelo_inurba_marseille","lat":43.3136,"lon":5.38366,"is_reserved":false,"is_disabled":false,"rental_uris":{"android":"levelo://app?vid=9d181f5a-58ca-49a0-bbcc-8286d3ed3228","ios":"levelo://app?vid=9d181f5a-58ca-49a0-bbcc-8286d3ed3228"},"vehicle_type_id":"4","last_reported":1758139831,"current_range_meters":16000,"station_id":"","pricing_plan_id":"cebpf4jnsgd1na2vs0mg"},{"bike_id":"d1788760-0706-4b90-8999-db00a9e42210","system_id":"levelo_inurba_marseille","lat":43.32797,"lon":5.41011,"is_reserved":false,"is_disabled":false,"rental_uris":{"android":"levelo://app?vid=d1788760-0706-4b90-8999-db00a9e42210","ios":"levelo://app?vid=d1788760-0706-4b90-8999-db00a9e42210"},"vehicle_type_id":"4","last_reported":1758139831,"current_range_meters":16000,"station_id":"","pricing_plan_id":"cebpf4jnsgd1na2vs0mg"},{"bike_id":"30365912-7779-4a70-9afc-f32986e831b1","system_id":"levelo_inurba_marseille","lat":43.31889,"lon":5.4073,"is_reserved":false,"is_disabled":false,"rental_uris":{"android":"levelo://app?vid=30365912-7779-4a70-9afc-f32986e831b1","ios":"levelo://app?vid=30365912-7779-4a70-9afc-f32986e831b1"},"vehicle_type_id":"4","last_reported":1758139831,"current_range_meters":16000,"station_id":"ce4bhq12rcd13ifvqhig","pricing_plan_id":"cebpf4jnsgd1na2vs0mg"},{"bike_id":"4e6f9d08-fb5c-42d2-a817-8c4ec2eafe7a","system_id":"levelo_inurba_marseille","lat":43.293091,"lon":5.371771,"is_reserved":false,"is_disabled":false,"rental_uris":{"android":"levelo://app?vid=4e6f9d08-fb5c-42d2-a817-8c4ec2eafe7a","ios":"levelo://app?vid=4e6f9d08-fb5c-42d2-a817-8c4ec2eafe7a"},"vehicle_type_id":"4","last_reported":1758139831,"current_range_meters":16000,"station_id":"","pricing_plan_id":"cebpf4jnsgd1na2vs0mg"},{"bike_id":"2dae5327-390a-481f-ba9f-5b26d663f259","system_id":"levelo_inurba_marseille","lat":43.27952,"lon":5.41044,"is_reserved":false,"is_disabled":false,"rental_uris":{"android":"levelo://app?vid=2dae5327-390a-481f-ba9f-5b26d663f259","ios":"levelo://app?vid=2dae5327-390a-481f-ba9f-5b26d663f259"},"vehicle_type_id":"4","last_reported":1758139831,"current_range_meters":16400,"station_id":"ce4bhnp2rcd13ifvqh0g","pricing_plan_id":"cebpf4jnsgd1na2vs0mg"},{"bike_id":"387c8295-5c1a-4e62-91c6-560b703e4279","system_id":"levelo_inurba_marseille","lat":43.3244,"lon":5.42693,"is_reserved":false,"is_disabled":false,"rental_uris":{"android":"levelo://app?vid=387c8295-5c1a-4e62-91c6-560b703e4279","ios":"levelo://app?vid=387c8295-5c1a-4e62-91c6-560b703e4279"},"vehicle_type_id":"4","last_reported":1758139831,"current_range_meters":16400,"station_id":"","pricing_plan_id":"cebpf4jnsgd1na2vs0mg"},{"bike_id":"3a5880cd-3aaa-45e3-acd9-2ccd914d29dd","system_id":"levelo_inurba_marseille","lat":43.24072,"lon":5.37765,"is_reserved":false,"is_disabled":false,"rental_uris":{"android":"levelo://app?vid=3a5880cd-3aaa-45e3-acd9-2ccd914d29dd","ios":"levelo://app?vid=3a5880cd-3aaa-45e3-acd9-2ccd914d29dd"},"vehicle_type_id":"4","last_reported":1758139831,"current_range_meters":16400,"station_id":"ce4bhnp2rcd13ifvqgvg","pricing_plan_id":"cebpf4jnsgd1na2vs0mg"},{"bike_id":"08128352-d0a0-4f5f-a684-879e4974aa4c","system_id":"levelo_inurba_marseille","lat":43.22569,"lon":5.41646,"is_reserved":false,"is_disabled":false,"rental_uris":{"android":"levelo://app?vid=08128352-d0a0-4f5f-a684-879e4974aa4c","ios":"levelo://app?vid=08128352-d0a0-4f5f-a684-879e4974aa4c"},"vehicle_type_id":"4","last_reported":1758139831,"current_range_meters":16400,"station_id":"st_d2o4gvlbi1j2169b742g","pricing_plan_id":"cebpf4jnsgd1na2vs0mg"},{"bike_id":"f7ef7296-362b-4e90-aecd-6adc5ae2b0e5","system_id":"levelo_inurba_marseille","lat":43.312022,"lon":5.387113,"is_reserved":false,"is_disabled":false,"rental_uris":{"android":"levelo://app?vid=f7ef7296-362b-4e90-aecd-6adc5ae2b0e5","ios":"levelo://app?vid=f7ef7296-362b-4e90-aecd-6adc5ae2b0e5"},"vehicle_type_id":"4","last_reported":1758139831,"current_range_meters":16400,"station_id":"ce4bgv12rcd13ifvqcp0","pricing_plan_id":"cebpf4jnsgd1na2vs0mg"},{"bike_id":"dde2e91e-5084-4b39-b78f-82b1ce36a209","system_id":"levelo_inurba_marseille","lat":43.21193,"lon":5.35075,"is_reserved":false,"is_disabled":false,"rental_uris":{"android":"levelo://app?vid=dde2e91e-5084-4b39-b78f-82b1ce36a209","ios":"levelo://app?vid=dde2e91e-5084-4b39-b78f-82b1ce36a209"},"vehicle_type_id":"4","last_reported":1758139831,"current_range_meters":16400,"station_id":"","pricing_plan_id":"cebpf4jnsgd1na2vs0mg"},{"bike_id":"5a08afc6-e248-4f35-ab95-79a67e40c1d5","system_id":"levelo_inurba_marseille","lat":43.29186,"lon":5.39326,"is_reserved":false,"is_disabled":false,"rental_uris":{"android":"levelo://app?vid=5a08afc6-e248-4f35-ab95-79a67e40c1d5","ios":"levelo://app?vid=5a08afc6-e248-4f35-ab95-79a67e40c1d5"},"vehicle_type_id":"4","last_reported":1758139831,"current_range_meters":16800,"station_id":"ce4bh192rcd13ifvqdd0","pricing_plan_id":"cebpf4jnsgd1na2vs0mg"},{"bike_id":"162dbf71-41d9-4795-a794-84df6b34b338","system_id":"levelo_inurba_marseille","lat":43.30793,"lon":5.43538,"is_reserved":false,"is_disabled":false,"rental_uris":{"android":"levelo://app?vid=162dbf71-41d9-4795-a794-84df6b34b338","ios":"levelo://app?vid=162dbf71-41d9-4795-a794-84df6b34b338"},"vehicle_type_id":"4","last_reported":1758139831,"current_range_meters":16800,"station_id":"ce4bhph2rcd13ifvqheg","pricing_plan_id":"cebpf4jnsgd1na2vs0mg"},{"bike_id":"49d4fb44-f6d7-4f7e-8d12-1f5c2564eda4","system_id":"levelo_inurba_marseille","lat":43.30541,"lon":5.36562,"is_reserved":false,"is_disabled":false,"rental_uris":{"android":"levelo://app?vid=49d4fb44-f6d7-4f7e-8d12-1f5c2564eda4","ios":"levelo://app?vid=49d4fb44-f6d7-4f7e-8d12-1f5c2564eda4"},"vehicle_type_id":"4","last_reported":1758139831,"current_range_meters":16400,"station_id":"ce4bgs12rcd13ifvqcag","pricing_plan_id":"cebpf4jnsgd1na2vs0mg"},{"bike_id":"62510ba5-f768-4e81-a639-2081f5965833","system_id":"levelo_inurba_marseille","lat":43.31756,"lon":5.3902,"is_reserved":false,"is_disabled":false,"rental_uris":{"android":"levelo://app?vid=62510ba5-f768-4e81-a639-2081f5965833","ios":"levelo://app?vid=62510ba5-f768-4e81-a639-2081f5965833"},"vehicle_type_id":"4","last_reported":1758139831,"current_range_meters":16800,"station_id":"ce4bhqp2rcd13ifvqhng","pricing_plan_id":"cebpf4jnsgd1na2vs0mg"},{"bike_id":"b3ebf77d-e528-4094-8021-576f6cd25d13","system_id":"levelo_inurba_marseille","lat":43.243065,"lon":5.375261,"is_reserved":false,"is_disabled":false,"rental_uris":{"android":"levelo://app?vid=b3ebf77d-e528-4094-8021-576f6cd25d13","ios":"levelo://app?vid=b3ebf77d-e528-4094-8021-576f6cd25d13"},"vehicle_type_id":"4","last_reported":1758139831,"current_range_meters":16800,"station_id":"","pricing_plan_id":"cebpf4jnsgd1na2vs0mg"},{"bike_id":"c9e11afa-71ee-4147-9198-080ec95d5bc1","system_id":"levelo_inurba_marseille","lat":43.29515,"lon":5.39036,"is_reserved":false,"is_disabled":false,"rental_uris":{"android":"levelo://app?vid=c9e11afa-71ee-4147-9198-080ec95d5bc1","ios":"levelo://app?vid=c9e11afa-71ee-4147-9198-080ec95d5bc1"},"vehicle_type_id":"4","last_reported":1758139831,"current_range_meters":16800,"station_id":"ce4bh3p2rcd13ifvqdp0","pricing_plan_id":"cebpf4jnsgd1na2vs0mg"},{"bike_id":"b6277ee4-fb44-447d-93d5-1fc243d094d7","system_id":"levelo_inurba_marseille","lat":43.27309,"lon":5.39068,"is_reserved":false,"is_disabled":false,"rental_uris":{"android":"levelo://app?vid=b6277ee4-fb44-447d-93d5-1fc243d094d7","ios":"levelo://app?vid=b6277ee4-fb44-447d-93d5-1fc243d094d7"},"vehicle_type_id":"4","last_reported":1758139831,"current_range_meters":16800,"station_id":"ce4bhgp2rcd13ifvqfe0","pricing_plan_id":"cebpf4jnsgd1na2vs0mg"},{"bike_id":"d8d6852d-0f25-4834-8761-c6f6fed24019","system_id":"levelo_inurba_marseille","lat":43.28379,"lon":5.38638,"is_reserved":false,"is_disabled":false,"rental_uris":{"android":"levelo://app?vid=d8d6852d-0f25-4834-8761-c6f6fed24019","ios":"levelo://app?vid=d8d6852d-0f25-4834-8761-c6f6fed24019"},"vehicle_type_id":"4","last_reported":1758139831,"current_range_meters":17200,"station_id":"ce4bh492rcd13ifvqdvg","pricing_plan_id":"cebpf4jnsgd1na2vs0mg"},{"bike_id":"bcd6c9be-0506-49a6-a9e4-308b9d314b85","system_id":"levelo_inurba_marseille","lat":43.2959,"lon":5.38111,"is_reserved":false,"is_disabled":false,"rental_uris":{"android":"levelo://app?vid=bcd6c9be-0506-49a6-a9e4-308b9d314b85","ios":"levelo://app?vid=bcd6c9be-0506-49a6-a9e4-308b9d314b85"},"vehicle_type_id":"4","last_reported":1758139831,"current_range_meters":17200,"station_id":"","pricing_plan_id":"cebpf4jnsgd1na2vs0mg"},{"bike_id":"7ec57675-dc29-4d09-9bc3-594f4a4d9f75","system_id":"levelo_inurba_marseille","lat":43.28156,"lon":5.42644,"is_reserved":false,"is_disabled":false,"rental_uris":{"android":"levelo://app?vid=7ec57675-dc29-4d09-9bc3-594f4a4d9f75","ios":"levelo://app?vid=7ec57675-dc29-4d09-9bc3-594f4a4d9f75"},"vehicle_type_id":"4","last_reported":1758139831,"current_range_meters":17200,"station_id":"ce4bhnh2rcd13ifvqgug","pricing_plan_id":"cebpf4jnsgd1na2vs0mg"},{"bike_id":"47a98e22-c1d4-4476-ace0-3c1d2af66031","system_id":"levelo_inurba_marseille","lat":43.28146,"lon":5.42663,"is_reserved":false,"is_disabled":false,"rental_uris":{"android":"levelo://app?vid=47a98e22-c1d4-4476-ace0-3c1d2af66031","ios":"levelo://app?vid=47a98e22-c1d4-4476-ace0-3c1d2af66031"},"vehicle_type_id":"4","last_reported":1758139831,"current_range_meters":17200,"station_id":"ce4bhnh2rcd13ifvqgug","pricing_plan_id":"cebpf4jnsgd1na2vs0mg"},{"bike_id":"cf66592a-d8fa-4c6c-9927-5d7a9fef5026","system_id":"levelo_inurba_marseille","lat":43.26267,"lon":5.39874,"is_reserved":false,"is_disabled":false,"rental_uris":{"android":"levelo://app?vid=cf66592a-d8fa-4c6c-9927-5d7a9fef5026","ios":"levelo://app?vid=cf66592a-d8fa-4c6c-9927-5d7a9fef5026"},"vehicle_type_id":"4","last_reported":1758139831,"current_range_meters":17200,"station_id":"","pricing_plan_id":"cebpf4jnsgd1na2vs0mg"},{"bike_id":"b2c799b6-987a-4afd-98ce-a4bfccab9b02","system_id":"levelo_inurba_marseille","lat":43.31891,"lon":5.40728,"is_reserved":false,"is_disabled":false,"rental_uris":{"android":"levelo://app?vid=b2c799b6-987a-4afd-98ce-a4bfccab9b02","ios":"levelo://app?vid=b2c799b6-987a-4afd-98ce-a4bfccab9b02"},"vehicle_type_id":"4","last_reported":1758139831,"current_range_meters":17200,"station_id":"ce4bhq12rcd13ifvqhig","pricing_plan_id":"cebpf4jnsgd1na2vs0mg"},{"bike_id":"88254472-5dcf-422a-bafd-1dd31a4f452f","system_id":"levelo_inurba_marseille","lat":43.24954,"lon":5.40488,"is_reserved":false,"is_disabled":false,"rental_uris":{"android":"levelo://app?vid=88254472-5dcf-422a-bafd-1dd31a4f452f","ios":"levelo://app?vid=88254472-5dcf-422a-bafd-1dd31a4f452f"},"vehicle_type_id":"4","last_reported":1758139831,"current_range_meters":17200,"station_id":"st_d2ngiaodas8pm72gd1h0","pricing_plan_id":"cebpf4jnsgd1na2vs0mg"},{"bike_id":"1f813e93-735c-40a4-9f57-b9151f8c001c","system_id":"levelo_inurba_marseille","lat":43.29728,"lon":5.37296,"is_reserved":false,"is_disabled":false,"rental_uris":{"android":"levelo://app?vid=1f813e93-735c-40a4-9f57-b9151f8c001c","ios":"levelo://app?vid=1f813e93-735c-40a4-9f57-b9151f8c001c"},"vehicle_type_id":"4","last_reported":1758139831,"current_range_meters":17200,"station_id":"","pricing_plan_id":"cebpf4jnsgd1na2vs0mg"},{"bike_id":"64cfea9d-6d9f-4b90-b0ed-affc41cdf238","system_id":"levelo_inurba_marseille","lat":43.26203,"lon":5.37456,"is_reserved":false,"is_disabled":false,"rental_uris":{"android":"levelo://app?vid=64cfea9d-6d9f-4b90-b0ed-affc41cdf238","ios":"levelo://app?vid=64cfea9d-6d9f-4b90-b0ed-affc41cdf238"},"vehicle_type_id":"4","last_reported":1758139831,"current_range_meters":17200,"station_id":"ce4bhgp2rcd13ifvqfc0","pricing_plan_id":"cebpf4jnsgd1na2vs0mg"},{"bike_id":"2df53390-f30d-4dd5-bf90-f9f633826418","system_id":"levelo_inurba_marseille","lat":43.29525,"lon":5.3905,"is_reserved":false,"is_disabled":false,"rental_uris":{"android":"levelo://app?vid=2df53390-f30d-4dd5-bf90-f9f633826418","ios":"levelo://app?vid=2df53390-f30d-4dd5-bf90-f9f633826418"},"vehicle_type_id":"4","last_reported":1758139831,"current_range_meters":17200,"station_id":"ce4bh3p2rcd13ifvqdp0","pricing_plan_id":"cebpf4jnsgd1na2vs0mg"},{"bike_id":"80a9a218-f77f-42ce-8136-b0dceb9fc366","system_id":"levelo_inurba_marseille","lat":43.267867,"lon":5.394102,"is_reserved":false,"is_disabled":true,"rental_uris":{"android":"levelo://app?vid=80a9a218-f77f-42ce-8136-b0dceb9fc366","ios":"levelo://app?vid=80a9a218-f77f-42ce-8136-b0dceb9fc366"},"vehicle_type_id":"4","last_reported":1758139831,"current_range_meters":17600,"station_id":"ce4bhh12rcd13ifvqfg0","pricing_plan_id":"cebpf4jnsgd1na2vs0mg"},{"bike_id":"2bd90493-36a5-4c5f-9b5c-d158f6e7b764","system_id":"levelo_inurba_marseille","lat":43.25119,"lon":5.40315,"is_reserved":false,"is_disabled":false,"rental_uris":{"android":"levelo://app?vid=2bd90493-36a5-4c5f-9b5c-d158f6e7b764","ios":"levelo://app?vid=2bd90493-36a5-4c5f-9b5c-d158f6e7b764"},"vehicle_type_id":"4","last_reported":1758139831,"current_range_meters":17600,"station_id":"ce4bhlh2rcd13ifvqgig","pricing_plan_id":"cebpf4jnsgd1na2vs0mg"},{"bike_id":"955f3838-1ddf-420c-8698-964707ba9ca8","system_id":"levelo_inurba_marseille","lat":43.30806,"lon":5.38159,"is_reserved":false,"is_disabled":false,"rental_uris":{"android":"levelo://app?vid=955f3838-1ddf-420c-8698-964707ba9ca8","ios":"levelo://app?vid=955f3838-1ddf-420c-8698-964707ba9ca8"},"vehicle_type_id":"4","last_reported":1758139831,"current_range_meters":17200,"station_id":"ce4bgt12rcd13ifvqce0","pricing_plan_id":"cebpf4jnsgd1na2vs0mg"},{"bike_id":"a64e8bf9-4a6e-408f-b29d-cfffa9f92850","system_id":"levelo_inurba_marseille","lat":43.2809,"lon":5.37857,"is_reserved":false,"is_disabled":false,"rental_uris":{"android":"levelo://app?vid=a64e8bf9-4a6e-408f-b29d-cfffa9f92850","ios":"levelo://app?vid=a64e8bf9-4a6e-408f-b29d-cfffa9f92850"},"vehicle_type_id":"4","last_reported":1758139831,"current_range_meters":17600,"station_id":"ce4bha12rcd13ifvqee0","pricing_plan_id":"cebpf4jnsgd1na2vs0mg"},{"bike_id":"d9f0ae84-d732-44f5-b420-064e325a0d60","system_id":"levelo_inurba_marseille","lat":43.320183,"lon":5.381343,"is_reserved":false,"is_disabled":false,"rental_uris":{"android":"levelo://app?vid=d9f0ae84-d732-44f5-b420-064e325a0d60","ios":"levelo://app?vid=d9f0ae84-d732-44f5-b420-064e325a0d60"},"vehicle_type_id":"4","last_reported":1758139831,"current_range_meters":17600,"station_id":"","pricing_plan_id":"cebpf4jnsgd1na2vs0mg"},{"bike_id":"8b911268-c055-48aa-a297-584fd3a9cf6e","system_id":"levelo_inurba_marseille","lat":43.28422,"lon":5.34988,"is_reserved":false,"is_disabled":true,"rental_uris":{"android":"levelo://app?vid=8b911268-c055-48aa-a297-584fd3a9cf6e","ios":"levelo://app?vid=8b911268-c055-48aa-a297-584fd3a9cf6e"},"vehicle_type_id":"4","last_reported":1758139831,"current_range_meters":17600,"station_id":"ce4bhbh2rcd13ifvqepg","pricing_plan_id":"cebpf4jnsgd1na2vs0mg"},{"bike_id":"a1143759-cff7-4b60-845a-0624c236e0e2","system_id":"levelo_inurba_marseille","lat":43.25336,"lon":5.42176,"is_reserved":false,"is_disabled":false,"rental_uris":{"android":"levelo://app?vid=a1143759-cff7-4b60-845a-0624c236e0e2","ios":"levelo://app?vid=a1143759-cff7-4b60-845a-0624c236e0e2"},"vehicle_type_id":"4","last_reported":1758139831,"current_range_meters":17600,"station_id":"st_d2m65c5bi1j21697t3ng","pricing_plan_id":"cebpf4jnsgd1na2vs0mg"},{"bike_id":"42323a1a-489c-43cb-90ae-c675b27444d5","system_id":"levelo_inurba_marseille","lat":43.21645,"lon":5.34373,"is_reserved":false,"is_disabled":false,"rental_uris":{"android":"levelo://app?vid=42323a1a-489c-43cb-90ae-c675b27444d5","ios":"levelo://app?vid=42323a1a-489c-43cb-90ae-c675b27444d5"},"vehicle_type_id":"4","last_reported":1758139831,"current_range_meters":17600,"station_id":"","pricing_plan_id":"cebpf4jnsgd1na2vs0mg"},{"bike_id":"c9e40109-3dfe-4aad-b491-bd93fd00d81a","system_id":"levelo_inurba_marseille","lat":43.29185,"lon":5.39331,"is_reserved":false,"is_disabled":false,"rental_uris":{"android":"levelo://app?vid=c9e40109-3dfe-4aad-b491-bd93fd00d81a","ios":"levelo://app?vid=c9e40109-3dfe-4aad-b491-bd93fd00d81a"},"vehicle_type_id":"4","last_reported":1758139831,"current_range_meters":17600,"station_id":"ce4bh192rcd13ifvqdd0","pricing_plan_id":"cebpf4jnsgd1na2vs0mg"},{"bike_id":"40495e59-b743-486e-987c-cb0c3ab2f191","system_id":"levelo_inurba_marseille","lat":43.332,"lon":5.41075,"is_reserved":false,"is_disabled":false,"rental_uris":{"android":"levelo://app?vid=40495e59-b743-486e-987c-cb0c3ab2f191","ios":"levelo://app?vid=40495e59-b743-486e-987c-cb0c3ab2f191"},"vehicle_type_id":"4","last_reported":1758139831,"current_range_meters":17600,"station_id":"","pricing_plan_id":"cebpf4jnsgd1na2vs0mg"},{"bike_id":"be9ee84b-9ec1-497c-800c-5907ad1418ae","system_id":"levelo_inurba_marseille","lat":43.22569,"lon":5.41639,"is_reserved":false,"is_disabled":false,"rental_uris":{"android":"levelo://app?vid=be9ee84b-9ec1-497c-800c-5907ad1418ae","ios":"levelo://app?vid=be9ee84b-9ec1-497c-800c-5907ad1418ae"},"vehicle_type_id":"4","last_reported":1758139831,"current_range_meters":17600,"station_id":"st_d2o4gvlbi1j2169b742g","pricing_plan_id":"cebpf4jnsgd1na2vs0mg"},{"bike_id":"adf19941-6925-49e3-b023-4f911ffc887f","system_id":"levelo_inurba_marseille","lat":43.3236,"lon":5.367452,"is_reserved":false,"is_disabled":true,"rental_uris":{"android":"levelo://app?vid=adf19941-6925-49e3-b023-4f911ffc887f","ios":"levelo://app?vid=adf19941-6925-49e3-b023-4f911ffc887f"},"vehicle_type_id":"4","last_reported":1758139831,"current_range_meters":17600,"station_id":"ce4bhsh2rcd13ifvqi2g","pricing_plan_id":"cebpf4jnsgd1na2vs0mg"},{"bike_id":"7b48fe56-d8f6-4bb4-babf-2c24152427a2","system_id":"levelo_inurba_marseille","lat":43.27997,"lon":5.41665,"is_reserved":false,"is_disabled":false,"rental_uris":{"android":"levelo://app?vid=7b48fe56-d8f6-4bb4-babf-2c24152427a2","ios":"levelo://app?vid=7b48fe56-d8f6-4bb4-babf-2c24152427a2"},"vehicle_type_id":"4","last_reported":1758139831,"current_range_meters":17600,"station_id":"ce4bho12rcd13ifvqh1g","pricing_plan_id":"cebpf4jnsgd1na2vs0mg"},{"bike_id":"3f2c6202-9595-4451-8652-5117cdf6b3f2","system_id":"levelo_inurba_marseille","lat":43.29614,"lon":5.37721,"is_reserved":false,"is_disabled":false,"rental_uris":{"android":"levelo://app?vid=3f2c6202-9595-4451-8652-5117cdf6b3f2","ios":"levelo://app?vid=3f2c6202-9595-4451-8652-5117cdf6b3f2"},"vehicle_type_id":"4","last_reported":1758139831,"current_range_meters":18000,"station_id":"ce4bgi92rcd13ifvqb90","pricing_plan_id":"cebpf4jnsgd1na2vs0mg"},{"bike_id":"a66b8944-6cea-4817-8024-8e532f57f1cc","system_id":"levelo_inurba_marseille","lat":43.27989,"lon":5.41666,"is_reserved":false,"is_disabled":false,"rental_uris":{"android":"levelo://app?vid=a66b8944-6cea-4817-8024-8e532f57f1cc","ios":"levelo://app?vid=a66b8944-6cea-4817-8024-8e532f57f1cc"},"vehicle_type_id":"4","last_reported":1758139831,"current_range_meters":18000,"station_id":"ce4bho12rcd13ifvqh1g","pricing_plan_id":"cebpf4jnsgd1na2vs0mg"},{"bike_id":"5849d8b6-8404-4786-af98-7b16ec962cdd","system_id":"levelo_inurba_marseille","lat":43.29382,"lon":5.37836,"is_reserved":false,"is_disabled":false,"rental_uris":{"android":"levelo://app?vid=5849d8b6-8404-4786-af98-7b16ec962cdd","ios":"levelo://app?vid=5849d8b6-8404-4786-af98-7b16ec962cdd"},"vehicle_type_id":"4","last_reported":1758139831,"current_range_meters":18000,"station_id":"ce4bgjh2rcd13ifvqbf0","pricing_plan_id":"cebpf4jnsgd1na2vs0mg"},{"bike_id":"17e32bd2-1c59-42b3-819b-651708de8579","system_id":"levelo_inurba_marseille","lat":43.28336,"lon":5.38115,"is_reserved":false,"is_disabled":true,"rental_uris":{"android":"levelo://app?vid=17e32bd2-1c59-42b3-819b-651708de8579","ios":"levelo://app?vid=17e32bd2-1c59-42b3-819b-651708de8579"},"vehicle_type_id":"4","last_reported":1758139831,"current_range_meters":18000,"station_id":"ce4bh412rcd13ifvqdr0","pricing_plan_id":"cebpf4jnsgd1na2vs0mg"},{"bike_id":"d93f6aec-282b-42a6-9be0-fe23bad38a2b","system_id":"levelo_inurba_marseille","lat":43.24629,"lon":5.43176,"is_reserved":false,"is_disabled":true,"rental_uris":{"android":"levelo://app?vid=d93f6aec-282b-42a6-9be0-fe23bad38a2b","ios":"levelo://app?vid=d93f6aec-282b-42a6-9be0-fe23bad38a2b"},"vehicle_type_id":"4","last_reported":1758139831,"current_range_meters":18000,"station_id":"st_d2m6c4gdas8pm72e190g","pricing_plan_id":"cebpf4jnsgd1na2vs0mg"},{"bike_id":"478ffcac-f465-465f-ad81-ab0f21b7764b","system_id":"levelo_inurba_marseille","lat":43.278383,"lon":5.392108,"is_reserved":false,"is_disabled":false,"rental_uris":{"android":"levelo://app?vid=478ffcac-f465-465f-ad81-ab0f21b7764b","ios":"levelo://app?vid=478ffcac-f465-465f-ad81-ab0f21b7764b"},"vehicle_type_id":"4","last_reported":1758139831,"current_range_meters":18000,"station_id":"ce4bhjp2rcd13ifvqga0","pricing_plan_id":"cebpf4jnsgd1na2vs0mg"},{"bike_id":"a4faa1fd-62ee-404a-aff8-b79ea6b6b5d2","system_id":"levelo_inurba_marseille","lat":43.32986,"lon":5.39245,"is_reserved":false,"is_disabled":false,"rental_uris":{"android":"levelo://app?vid=a4faa1fd-62ee-404a-aff8-b79ea6b6b5d2","ios":"levelo://app?vid=a4faa1fd-62ee-404a-aff8-b79ea6b6b5d2"},"vehicle_type_id":"4","last_reported":1758139831,"current_range_meters":18000,"station_id":"","pricing_plan_id":"cebpf4jnsgd1na2vs0mg"},{"bike_id":"afe79d6d-c49d-47af-b5c5-eeb8d907b68d","system_id":"levelo_inurba_marseille","lat":43.31122,"lon":5.3777,"is_reserved":false,"is_disabled":false,"rental_uris":{"android":"levelo://app?vid=afe79d6d-c49d-47af-b5c5-eeb8d907b68d","ios":"levelo://app?vid=afe79d6d-c49d-47af-b5c5-eeb8d907b68d"},"vehicle_type_id":"4","last_reported":1758139831,"current_range_meters":18000,"station_id":"ce4bgt92rcd13ifvqcg0","pricing_plan_id":"cebpf4jnsgd1na2vs0mg"},{"bike_id":"1977b5c6-dba9-4a16-b32b-37129b48ac88","system_id":"levelo_inurba_marseille","lat":43.29516,"lon":5.39052,"is_reserved":false,"is_disabled":false,"rental_uris":{"android":"levelo://app?vid=1977b5c6-dba9-4a16-b32b-37129b48ac88","ios":"levelo://app?vid=1977b5c6-dba9-4a16-b32b-37129b48ac88"},"vehicle_type_id":"4","last_reported":1758139831,"current_range_meters":18000,"station_id":"ce4bh3p2rcd13ifvqdp0","pricing_plan_id":"cebpf4jnsgd1na2vs0mg"},{"bike_id":"fa0847a4-8d8b-47a2-9c0d-c16fe7a48c9b","system_id":"levelo_inurba_marseille","lat":43.330285,"lon":5.390556,"is_reserved":false,"is_disabled":false,"rental_uris":{"android":"levelo://app?vid=fa0847a4-8d8b-47a2-9c0d-c16fe7a48c9b","ios":"levelo://app?vid=fa0847a4-8d8b-47a2-9c0d-c16fe7a48c9b"},"vehicle_type_id":"4","last_reported":1758139831,"current_range_meters":18000,"station_id":"","pricing_plan_id":"cebpf4jnsgd1na2vs0mg"},{"bike_id":"afe70e2b-719c-46d8-9038-a65b93765c73","system_id":"levelo_inurba_marseille","lat":43.281551,"lon":5.426412,"is_reserved":false,"is_disabled":false,"rental_uris":{"android":"levelo://app?vid=afe70e2b-719c-46d8-9038-a65b93765c73","ios":"levelo://app?vid=afe70e2b-719c-46d8-9038-a65b93765c73"},"vehicle_type_id":"4","last_reported":1758139831,"current_range_meters":18000,"station_id":"ce4bhnh2rcd13ifvqgug","pricing_plan_id":"cebpf4jnsgd1na2vs0mg"},{"bike_id":"6499745b-7b8b-4d81-afa4-ba9c05652a7b","system_id":"levelo_inurba_marseille","lat":43.28549,"lon":5.37782,"is_reserved":false,"is_disabled":false,"rental_uris":{"android":"levelo://app?vid=6499745b-7b8b-4d81-afa4-ba9c05652a7b","ios":"levelo://app?vid=6499745b-7b8b-4d81-afa4-ba9c05652a7b"},"vehicle_type_id":"4","last_reported":1758139831,"current_range_meters":18000,"station_id":"","pricing_plan_id":"cebpf4jnsgd1na2vs0mg"},{"bike_id":"a5908f4d-3c90-4b88-bcaa-6b79279fb4f3","system_id":"levelo_inurba_marseille","lat":43.292676,"lon":5.408608,"is_reserved":false,"is_disabled":false,"rental_uris":{"android":"levelo://app?vid=a5908f4d-3c90-4b88-bcaa-6b79279fb4f3","ios":"levelo://app?vid=a5908f4d-3c90-4b88-bcaa-6b79279fb4f3"},"vehicle_type_id":"4","last_reported":1758139831,"current_range_meters":18000,"station_id":"ce4bh192rcd13ifvqdc0","pricing_plan_id":"cebpf4jnsgd1na2vs0mg"},{"bike_id":"e1f51025-1404-4cca-96b7-273119670d5f","system_id":"levelo_inurba_marseille","lat":43.25246,"lon":5.42851,"is_reserved":false,"is_disabled":false,"rental_uris":{"android":"levelo://app?vid=e1f51025-1404-4cca-96b7-273119670d5f","ios":"levelo://app?vid=e1f51025-1404-4cca-96b7-273119670d5f"},"vehicle_type_id":"4","last_reported":1758139831,"current_range_meters":18000,"station_id":"","pricing_plan_id":"cebpf4jnsgd1na2vs0mg"},{"bike_id":"acfec73f-5435-48eb-a869-eeb3dc5252c8","system_id":"levelo_inurba_marseille","lat":43.31297,"lon":5.37867,"is_reserved":false,"is_disabled":false,"rental_uris":{"android":"levelo://app?vid=acfec73f-5435-48eb-a869-eeb3dc5252c8","ios":"levelo://app?vid=acfec73f-5435-48eb-a869-eeb3dc5252c8"},"vehicle_type_id":"4","last_reported":1758139831,"current_range_meters":18000,"station_id":"","pricing_plan_id":"cebpf4jnsgd1na2vs0mg"},{"bike_id":"1da37b3a-d772-478a-a85c-fb719c8bc7a9","system_id":"levelo_inurba_marseille","lat":43.26574,"lon":5.39642,"is_reserved":false,"is_disabled":false,"rental_uris":{"android":"levelo://app?vid=1da37b3a-d772-478a-a85c-fb719c8bc7a9","ios":"levelo://app?vid=1da37b3a-d772-478a-a85c-fb719c8bc7a9"},"vehicle_type_id":"4","last_reported":1758139831,"current_range_meters":18000,"station_id":"","pricing_plan_id":"cebpf4jnsgd1na2vs0mg"},{"bike_id":"0a68362e-f5d3-40c2-8eb6-58b476c1e495","system_id":"levelo_inurba_marseille","lat":43.27755,"lon":5.41026,"is_reserved":false,"is_disabled":false,"rental_uris":{"android":"levelo://app?vid=0a68362e-f5d3-40c2-8eb6-58b476c1e495","ios":"levelo://app?vid=0a68362e-f5d3-40c2-8eb6-58b476c1e495"},"vehicle_type_id":"4","last_reported":1758139831,"current_range_meters":18800,"station_id":"","pricing_plan_id":"cebpf4jnsgd1na2vs0mg"},{"bike_id":"ba58613a-9255-41ff-936d-c7269e6271b4","system_id":"levelo_inurba_marseille","lat":43.280024,"lon":5.416654,"is_reserved":false,"is_disabled":false,"rental_uris":{"android":"levelo://app?vid=ba58613a-9255-41ff-936d-c7269e6271b4","ios":"levelo://app?vid=ba58613a-9255-41ff-936d-c7269e6271b4"},"vehicle_type_id":"4","last_reported":1758139831,"current_range_meters":18800,"station_id":"ce4bho12rcd13ifvqh1g","pricing_plan_id":"cebpf4jnsgd1na2vs0mg"},{"bike_id":"439f2b82-4183-4fb2-af26-b0cd846b69d2","system_id":"levelo_inurba_marseille","lat":43.27893,"lon":5.38015,"is_reserved":false,"is_disabled":false,"rental_uris":{"android":"levelo://app?vid=439f2b82-4183-4fb2-af26-b0cd846b69d2","ios":"levelo://app?vid=439f2b82-4183-4fb2-af26-b0cd846b69d2"},"vehicle_type_id":"4","last_reported":1758139831,"current_range_meters":18800,"station_id":"ce4bhf92rcd13ifvqf50","pricing_plan_id":"cebpf4jnsgd1na2vs0mg"},{"bike_id":"75a9e85d-efd5-4b0e-bcdc-7e9ef68092e3","system_id":"levelo_inurba_marseille","lat":43.2925,"lon":5.38456,"is_reserved":false,"is_disabled":false,"rental_uris":{"android":"levelo://app?vid=75a9e85d-efd5-4b0e-bcdc-7e9ef68092e3","ios":"levelo://app?vid=75a9e85d-efd5-4b0e-bcdc-7e9ef68092e3"},"vehicle_type_id":"4","last_reported":1758139831,"current_range_meters":18800,"station_id":"ce4bh692rcd13ifvqea0","pricing_plan_id":"cebpf4jnsgd1na2vs0mg"},{"bike_id":"8c28d726-40ee-44cb-871f-c030e17382ee","system_id":"levelo_inurba_marseille","lat":43.29314,"lon":5.37163,"is_reserved":false,"is_disabled":false,"rental_uris":{"android":"levelo://app?vid=8c28d726-40ee-44cb-871f-c030e17382ee","ios":"levelo://app?vid=8c28d726-40ee-44cb-871f-c030e17382ee"},"vehicle_type_id":"4","last_reported":1758139831,"current_range_meters":18800,"station_id":"","pricing_plan_id":"cebpf4jnsgd1na2vs0mg"},{"bike_id":"ffc80177-756d-4188-b7f0-9e2b899fa204","system_id":"levelo_inurba_marseille","lat":43.29038,"lon":5.39968,"is_reserved":false,"is_disabled":false,"rental_uris":{"android":"levelo://app?vid=ffc80177-756d-4188-b7f0-9e2b899fa204","ios":"levelo://app?vid=ffc80177-756d-4188-b7f0-9e2b899fa204"},"vehicle_type_id":"4","last_reported":1758139831,"current_range_meters":18800,"station_id":"ce4bh392rcd13ifvqdm0","pricing_plan_id":"cebpf4jnsgd1na2vs0mg"},{"bike_id":"bd185fbb-729f-4221-8aa9-562ca885c1f5","system_id":"levelo_inurba_marseille","lat":43.22569,"lon":5.4163,"is_reserved":false,"is_disabled":false,"rental_uris":{"android":"levelo://app?vid=bd185fbb-729f-4221-8aa9-562ca885c1f5","ios":"levelo://app?vid=bd185fbb-729f-4221-8aa9-562ca885c1f5"},"vehicle_type_id":"4","last_reported":1758139831,"current_range_meters":18800,"station_id":"st_d2o4gvlbi1j2169b742g","pricing_plan_id":"cebpf4jnsgd1na2vs0mg"},{"bike_id":"bb0d0efa-d3e1-4082-9cce-5548c09ec57c","system_id":"levelo_inurba_marseille","lat":43.279419,"lon":5.410468,"is_reserved":false,"is_disabled":false,"rental_uris":{"android":"levelo://app?vid=bb0d0efa-d3e1-4082-9cce-5548c09ec57c","ios":"levelo://app?vid=bb0d0efa-d3e1-4082-9cce-5548c09ec57c"},"vehicle_type_id":"4","last_reported":1758139831,"current_range_meters":18800,"station_id":"ce4bhnp2rcd13ifvqh0g","pricing_plan_id":"cebpf4jnsgd1na2vs0mg"},{"bike_id":"45f6ceba-3123-4bb2-a6a1-083f1e953c55","system_id":"levelo_inurba_marseille","lat":43.30793,"lon":5.43534,"is_reserved":false,"is_disabled":false,"rental_uris":{"android":"levelo://app?vid=45f6ceba-3123-4bb2-a6a1-083f1e953c55","ios":"levelo://app?vid=45f6ceba-3123-4bb2-a6a1-083f1e953c55"},"vehicle_type_id":"4","last_reported":1758139831,"current_range_meters":19200,"station_id":"ce4bhph2rcd13ifvqheg","pricing_plan_id":"cebpf4jnsgd1na2vs0mg"},{"bike_id":"c6afa512-0c48-4856-b166-b8114279719b","system_id":"levelo_inurba_marseille","lat":43.29775,"lon":5.38087,"is_reserved":false,"is_disabled":false,"rental_uris":{"android":"levelo://app?vid=c6afa512-0c48-4856-b166-b8114279719b","ios":"levelo://app?vid=c6afa512-0c48-4856-b166-b8114279719b"},"vehicle_type_id":"4","last_reported":1758139831,"current_range_meters":19200,"station_id":"","pricing_plan_id":"cebpf4jnsgd1na2vs0mg"},{"bike_id":"2629186d-091d-4262-b45e-1bc42bdd62e9","system_id":"levelo_inurba_marseille","lat":43.29099,"lon":5.38163,"is_reserved":false,"is_disabled":true,"rental_uris":{"android":"levelo://app?vid=2629186d-091d-4262-b45e-1bc42bdd62e9","ios":"levelo://app?vid=2629186d-091d-4262-b45e-1bc42bdd62e9"},"vehicle_type_id":"4","last_reported":1758139831,"current_range_meters":19200,"station_id":"ce4bh512rcd13ifvqe2g","pricing_plan_id":"cebpf4jnsgd1na2vs0mg"},{"bike_id":"542cf6d5-f641-4ad4-bfb1-fbc78618f0a3","system_id":"levelo_inurba_marseille","lat":43.29032,"lon":5.37565,"is_reserved":false,"is_disabled":false,"rental_uris":{"android":"levelo://app?vid=542cf6d5-f641-4ad4-bfb1-fbc78618f0a3","ios":"levelo://app?vid=542cf6d5-f641-4ad4-bfb1-fbc78618f0a3"},"vehicle_type_id":"4","last_reported":1758139831,"current_range_meters":19200,"station_id":"ce4bh692rcd13ifvqe90","pricing_plan_id":"cebpf4jnsgd1na2vs0mg"},{"bike_id":"e5845098-9707-4e32-b6bb-4185750b43eb","system_id":"levelo_inurba_marseille","lat":43.31347,"lon":5.38507,"is_reserved":false,"is_disabled":false,"rental_uris":{"android":"levelo://app?vid=e5845098-9707-4e32-b6bb-4185750b43eb","ios":"levelo://app?vid=e5845098-9707-4e32-b6bb-4185750b43eb"},"vehicle_type_id":"4","last_reported":1758139831,"current_range_meters":19600,"station_id":"ce4bgt92rcd13ifvqcf0","pricing_plan_id":"cebpf4jnsgd1na2vs0mg"},{"bike_id":"e942f984-8fe7-48d1-8f04-3806656b9996","system_id":"levelo_inurba_marseille","lat":43.33601,"lon":5.37943,"is_reserved":false,"is_disabled":false,"rental_uris":{"android":"levelo://app?vid=e942f984-8fe7-48d1-8f04-3806656b9996","ios":"levelo://app?vid=e942f984-8fe7-48d1-8f04-3806656b9996"},"vehicle_type_id":"4","last_reported":1758139831,"current_range_meters":19600,"station_id":"","pricing_plan_id":"cebpf4jnsgd1na2vs0mg"},{"bike_id":"7eed94c4-182d-4460-826b-78b4ef60c719","system_id":"levelo_inurba_marseille","lat":43.295859,"lon":5.375163,"is_reserved":false,"is_disabled":false,"rental_uris":{"android":"levelo://app?vid=7eed94c4-182d-4460-826b-78b4ef60c719","ios":"levelo://app?vid=7eed94c4-182d-4460-826b-78b4ef60c719"},"vehicle_type_id":"4","last_reported":1758139831,"current_range_meters":19600,"station_id":"","pricing_plan_id":"cebpf4jnsgd1na2vs0mg"},{"bike_id":"c5f67484-bb34-45a9-af44-433760a4ded7","system_id":"levelo_inurba_marseille","lat":43.31365,"lon":5.38498,"is_reserved":false,"is_disabled":false,"rental_uris":{"android":"levelo://app?vid=c5f67484-bb34-45a9-af44-433760a4ded7","ios":"levelo://app?vid=c5f67484-bb34-45a9-af44-433760a4ded7"},"vehicle_type_id":"4","last_reported":1758139831,"current_range_meters":19600,"station_id":"ce4bgt92rcd13ifvqcf0","pricing_plan_id":"cebpf4jnsgd1na2vs0mg"},{"bike_id":"f9418cc9-c64d-43d9-9060-3aeedd69cdee","system_id":"levelo_inurba_marseille","lat":43.33078,"lon":5.37859,"is_reserved":false,"is_disabled":false,"rental_uris":{"android":"levelo://app?vid=f9418cc9-c64d-43d9-9060-3aeedd69cdee","ios":"levelo://app?vid=f9418cc9-c64d-43d9-9060-3aeedd69cdee"},"vehicle_type_id":"4","last_reported":1758139831,"current_range_meters":19600,"station_id":"","pricing_plan_id":"cebpf4jnsgd1na2vs0mg"},{"bike_id":"46ea44a3-16d5-484f-bb22-ccdade8c2fea","system_id":"levelo_inurba_marseille","lat":43.28422,"lon":5.37529,"is_reserved":false,"is_disabled":false,"rental_uris":{"android":"levelo://app?vid=46ea44a3-16d5-484f-bb22-ccdade8c2fea","ios":"levelo://app?vid=46ea44a3-16d5-484f-bb22-ccdade8c2fea"},"vehicle_type_id":"4","last_reported":1758139831,"current_range_meters":20000,"station_id":"ce4bh412rcd13ifvqds0","pricing_plan_id":"cebpf4jnsgd1na2vs0mg"},{"bike_id":"6471f460-dcce-41b1-8ed4-6c3429473dad","system_id":"levelo_inurba_marseille","lat":43.30601,"lon":5.37225,"is_reserved":false,"is_disabled":false,"rental_uris":{"android":"levelo://app?vid=6471f460-dcce-41b1-8ed4-6c3429473dad","ios":"levelo://app?vid=6471f460-dcce-41b1-8ed4-6c3429473dad"},"vehicle_type_id":"4","last_reported":1758139831,"current_range_meters":20000,"station_id":"ce4bgqh2rcd13ifvqc4g","pricing_plan_id":"cebpf4jnsgd1na2vs0mg"},{"bike_id":"fc407023-5868-46e8-85cf-edd69ce1aa39","system_id":"levelo_inurba_marseille","lat":43.273105,"lon":5.390725,"is_reserved":false,"is_disabled":true,"rental_uris":{"android":"levelo://app?vid=fc407023-5868-46e8-85cf-edd69ce1aa39","ios":"levelo://app?vid=fc407023-5868-46e8-85cf-edd69ce1aa39"},"vehicle_type_id":"4","last_reported":1758139831,"current_range_meters":20000,"station_id":"","pricing_plan_id":"cebpf4jnsgd1na2vs0mg"},{"bike_id":"eef07bdc-2592-47ec-b693-e0c4be9c19ff","system_id":"levelo_inurba_marseille","lat":43.258198,"lon":5.39441,"is_reserved":false,"is_disabled":false,"rental_uris":{"android":"levelo://app?vid=eef07bdc-2592-47ec-b693-e0c4be9c19ff","ios":"levelo://app?vid=eef07bdc-2592-47ec-b693-e0c4be9c19ff"},"vehicle_type_id":"4","last_reported":1758139831,"current_range_meters":20000,"station_id":"","pricing_plan_id":"cebpf4jnsgd1na2vs0mg"},{"bike_id":"b69333fb-c85e-41fc-b0d7-837153896f4b","system_id":"levelo_inurba_marseille","lat":43.239612,"lon":5.366193,"is_reserved":false,"is_disabled":false,"rental_uris":{"android":"levelo://app?vid=b69333fb-c85e-41fc-b0d7-837153896f4b","ios":"levelo://app?vid=b69333fb-c85e-41fc-b0d7-837153896f4b"},"vehicle_type_id":"4","last_reported":1758139831,"current_range_meters":20000,"station_id":"ce4bhi12rcd13ifvqfp0","pricing_plan_id":"cebpf4jnsgd1na2vs0mg"},{"bike_id":"6b116da7-dc15-4b7b-92c7-5c84b524f72b","system_id":"levelo_inurba_marseille","lat":43.28104,"lon":5.37865,"is_reserved":false,"is_disabled":true,"rental_uris":{"android":"levelo://app?vid=6b116da7-dc15-4b7b-92c7-5c84b524f72b","ios":"levelo://app?vid=6b116da7-dc15-4b7b-92c7-5c84b524f72b"},"vehicle_type_id":"4","last_reported":1758139831,"current_range_meters":20000,"station_id":"ce4bha12rcd13ifvqee0","pricing_plan_id":"cebpf4jnsgd1na2vs0mg"},{"bike_id":"2c734c36-442f-468e-ab47-e34ad5183e32","system_id":"levelo_inurba_marseille","lat":43.27256,"lon":5.38008,"is_reserved":false,"is_disabled":false,"rental_uris":{"android":"levelo://app?vid=2c734c36-442f-468e-ab47-e34ad5183e32","ios":"levelo://app?vid=2c734c36-442f-468e-ab47-e34ad5183e32"},"vehicle_type_id":"4","last_reported":1758139831,"current_range_meters":20400,"station_id":"","pricing_plan_id":"cebpf4jnsgd1na2vs0mg"},{"bike_id":"03a31ce9-befb-4f08-aaa5-15f365488712","system_id":"levelo_inurba_marseille","lat":43.28415,"lon":5.37519,"is_reserved":false,"is_disabled":false,"rental_uris":{"android":"levelo://app?vid=03a31ce9-befb-4f08-aaa5-15f365488712","ios":"levelo://app?vid=03a31ce9-befb-4f08-aaa5-15f365488712"},"vehicle_type_id":"4","last_reported":1758139831,"current_range_meters":20400,"station_id":"ce4bh412rcd13ifvqds0","pricing_plan_id":"cebpf4jnsgd1na2vs0mg"},{"bike_id":"5b60f418-ddf1-41cd-bea3-aa20e3e752a0","system_id":"levelo_inurba_marseille","lat":43.290995,"lon":5.381435,"is_reserved":false,"is_disabled":false,"rental_uris":{"android":"levelo://app?vid=5b60f418-ddf1-41cd-bea3-aa20e3e752a0","ios":"levelo://app?vid=5b60f418-ddf1-41cd-bea3-aa20e3e752a0"},"vehicle_type_id":"4","last_reported":1758139831,"current_range_meters":20400,"station_id":"","pricing_plan_id":"cebpf4jnsgd1na2vs0mg"},{"bike_id":"bf6e6d27-c09e-4725-9fbc-20073fd5a515","system_id":"levelo_inurba_marseille","lat":43.289376,"lon":5.396214,"is_reserved":false,"is_disabled":false,"rental_uris":{"android":"levelo://app?vid=bf6e6d27-c09e-4725-9fbc-20073fd5a515","ios":"levelo://app?vid=bf6e6d27-c09e-4725-9fbc-20073fd5a515"},"vehicle_type_id":"4","last_reported":1758139831,"current_range_meters":20400,"station_id":"","pricing_plan_id":"cebpf4jnsgd1na2vs0mg"},{"bike_id":"3d64e5b3-77ca-4595-a533-a7846cbe1d1e","system_id":"levelo_inurba_marseille","lat":43.29778,"lon":5.38112,"is_reserved":false,"is_disabled":false,"rental_uris":{"android":"levelo://app?vid=3d64e5b3-77ca-4595-a533-a7846cbe1d1e","ios":"levelo://app?vid=3d64e5b3-77ca-4595-a533-a7846cbe1d1e"},"vehicle_type_id":"4","last_reported":1758139831,"current_range_meters":20400,"station_id":"","pricing_plan_id":"cebpf4jnsgd1na2vs0mg"},{"bike_id":"0960e3dd-c358-4474-bd10-8223758e1f6b","system_id":"levelo_inurba_marseille","lat":43.296996,"lon":5.376855,"is_reserved":false,"is_disabled":false,"rental_uris":{"android":"levelo://app?vid=0960e3dd-c358-4474-bd10-8223758e1f6b","ios":"levelo://app?vid=0960e3dd-c358-4474-bd10-8223758e1f6b"},"vehicle_type_id":"4","last_reported":1758139831,"current_range_meters":20400,"station_id":"","pricing_plan_id":"cebpf4jnsgd1na2vs0mg"},{"bike_id":"f8feb033-a0f1-43c5-876b-ed2dfdaee594","system_id":"levelo_inurba_marseille","lat":43.29032,"lon":5.39965,"is_reserved":false,"is_disabled":false,"rental_uris":{"android":"levelo://app?vid=f8feb033-a0f1-43c5-876b-ed2dfdaee594","ios":"levelo://app?vid=f8feb033-a0f1-43c5-876b-ed2dfdaee594"},"vehicle_type_id":"4","last_reported":1758139831,"current_range_meters":20400,"station_id":"ce4bh392rcd13ifvqdm0","pricing_plan_id":"cebpf4jnsgd1na2vs0mg"},{"bike_id":"672c7880-b730-4690-a272-390d6b5fa3f8","system_id":"levelo_inurba_marseille","lat":43.29031,"lon":5.37561,"is_reserved":false,"is_disabled":true,"rental_uris":{"android":"levelo://app?vid=672c7880-b730-4690-a272-390d6b5fa3f8","ios":"levelo://app?vid=672c7880-b730-4690-a272-390d6b5fa3f8"},"vehicle_type_id":"4","last_reported":1758139831,"current_range_meters":20400,"station_id":"ce4bh692rcd13ifvqe90","pricing_plan_id":"cebpf4jnsgd1na2vs0mg"},{"bike_id":"553f8368-9fc7-4fab-ab6b-4ab64407d3bf","system_id":"levelo_inurba_marseille","lat":43.288631,"lon":5.425154,"is_reserved":false,"is_disabled":false,"rental_uris":{"android":"levelo://app?vid=553f8368-9fc7-4fab-ab6b-4ab64407d3bf","ios":"levelo://app?vid=553f8368-9fc7-4fab-ab6b-4ab64407d3bf"},"vehicle_type_id":"4","last_reported":1758139831,"current_range_meters":20400,"station_id":"ce4bhg12rcd13ifvqf80","pricing_plan_id":"cebpf4jnsgd1na2vs0mg"},{"bike_id":"7699d164-c759-4f3d-8290-22c6d405865f","system_id":"levelo_inurba_marseille","lat":43.29556,"lon":5.37517,"is_reserved":false,"is_disabled":false,"rental_uris":{"android":"levelo://app?vid=7699d164-c759-4f3d-8290-22c6d405865f","ios":"levelo://app?vid=7699d164-c759-4f3d-8290-22c6d405865f"},"vehicle_type_id":"4","last_reported":1758139831,"current_range_meters":20400,"station_id":"","pricing_plan_id":"cebpf4jnsgd1na2vs0mg"},{"bike_id":"19272925-0643-4789-bebe-8d389d0f1d20","system_id":"levelo_inurba_marseille","lat":43.293006,"lon":5.371808,"is_reserved":false,"is_disabled":false,"rental_uris":{"android":"levelo://app?vid=19272925-0643-4789-bebe-8d389d0f1d20","ios":"levelo://app?vid=19272925-0643-4789-bebe-8d389d0f1d20"},"vehicle_type_id":"4","last_reported":1758139831,"current_range_meters":20800,"station_id":"","pricing_plan_id":"cebpf4jnsgd1na2vs0mg"},{"bike_id":"e9621b87-72e4-43ca-a692-9d66e4048fce","system_id":"levelo_inurba_marseille","lat":43.29521,"lon":5.3904,"is_reserved":false,"is_disabled":false,"rental_uris":{"android":"levelo://app?vid=e9621b87-72e4-43ca-a692-9d66e4048fce","ios":"levelo://app?vid=e9621b87-72e4-43ca-a692-9d66e4048fce"},"vehicle_type_id":"4","last_reported":1758139831,"current_range_meters":20800,"station_id":"ce4bh3p2rcd13ifvqdp0","pricing_plan_id":"cebpf4jnsgd1na2vs0mg"},{"bike_id":"03778afd-f9d6-46d3-b4b5-3a82ca073e7a","system_id":"levelo_inurba_marseille","lat":43.26214,"lon":5.40466,"is_reserved":false,"is_disabled":false,"rental_uris":{"android":"levelo://app?vid=03778afd-f9d6-46d3-b4b5-3a82ca073e7a","ios":"levelo://app?vid=03778afd-f9d6-46d3-b4b5-3a82ca073e7a"},"vehicle_type_id":"4","last_reported":1758139831,"current_range_meters":20800,"station_id":"ce4bhmh2rcd13ifvqgmg","pricing_plan_id":"cebpf4jnsgd1na2vs0mg"},{"bike_id":"b815993c-10df-45b2-8b19-94ded1caf3b9","system_id":"levelo_inurba_marseille","lat":43.33605,"lon":5.41039,"is_reserved":false,"is_disabled":false,"rental_uris":{"android":"levelo://app?vid=b815993c-10df-45b2-8b19-94ded1caf3b9","ios":"levelo://app?vid=b815993c-10df-45b2-8b19-94ded1caf3b9"},"vehicle_type_id":"4","last_reported":1758139831,"current_range_meters":20800,"station_id":"ce4bhqh2rcd13ifvqhmg","pricing_plan_id":"cebpf4jnsgd1na2vs0mg"},{"bike_id":"0b7db8a6-1008-4a42-929f-d5771952e9da","system_id":"levelo_inurba_marseille","lat":43.2919,"lon":5.35808,"is_reserved":false,"is_disabled":false,"rental_uris":{"android":"levelo://app?vid=0b7db8a6-1008-4a42-929f-d5771952e9da","ios":"levelo://app?vid=0b7db8a6-1008-4a42-929f-d5771952e9da"},"vehicle_type_id":"4","last_reported":1758139831,"current_range_meters":20800,"station_id":"ce4bhb12rcd13ifvqel0","pricing_plan_id":"cebpf4jnsgd1na2vs0mg"},{"bike_id":"9d8b4944-013e-4958-9415-40d7b5ee9701","system_id":"levelo_inurba_marseille","lat":43.31545,"lon":5.38023,"is_reserved":false,"is_disabled":false,"rental_uris":{"android":"levelo://app?vid=9d8b4944-013e-4958-9415-40d7b5ee9701","ios":"levelo://app?vid=9d8b4944-013e-4958-9415-40d7b5ee9701"},"vehicle_type_id":"4","last_reported":1758139831,"current_range_meters":20800,"station_id":"ce4bhsp2rcd13ifvqi50","pricing_plan_id":"cebpf4jnsgd1na2vs0mg"},{"bike_id":"673144ea-23fd-4794-937a-d87bf833eac2","system_id":"levelo_inurba_marseille","lat":43.292893,"lon":5.371785,"is_reserved":false,"is_disabled":false,"rental_uris":{"android":"levelo://app?vid=673144ea-23fd-4794-937a-d87bf833eac2","ios":"levelo://app?vid=673144ea-23fd-4794-937a-d87bf833eac2"},