{"last_updated":1758712104,"ttl":60,"version":"2.2","data":{"bikes":[{"bike_id":"a050a8bf-5274-4b2e-adb5-e80609d7030b","system_id":"levelo_inurba_marseille","lat":43.27995,"lon":5.40007,"is_reserved":false,"is_disabled":false,"rental_uris":{"android":"levelo://app?vid=a050a8bf-5274-4b2e-adb5-e80609d7030b","ios":"levelo://app?vid=a050a8bf-5274-4b2e-adb5-e80609d7030b"},"vehicle_type_id":"4","last_reported":1758712104,"current_range_meters":2800,"station_id":"ce4bho92rcd13ifvqh4g","pricing_plan_id":"cebpf4jnsgd1na2vs0mg"},{"bike_id":"555f0b1a-1a49-4ca0-b00d-8bc95390f95d","system_id":"levelo_inurba_marseille","lat":43.31182,"lon":5.38709,"is_reserved":false,"is_disabled":false,"rental_uris":{"android":"levelo://app?vid=555f0b1a-1a49-4ca0-b00d-8bc95390f95d","ios":"levelo://app?vid=555f0b1a-1a49-4ca0-b00d-8bc95390f95d"},"vehicle_type_id":"4","last_reported":1758712104,"current_range_meters":3200,"station_id":"ce4bgv12rcd13ifvqcp0","pricing_plan_id":"cebpf4jnsgd1na2vs0mg"},{"bike_id":"d24426fc-1850-43c7-96d0-bd3334ac6d5d","system_id":"levelo_inurba_marseille","lat":43.29007,"lon":5.35591,"is_reserved":false,"is_disabled":false,"rental_uris":{"android":"levelo://app?vid=d24426fc-1850-43c7-96d0-bd3334ac6d5d","ios":"levelo://app?vid=d24426fc-1850-43c7-96d0-bd3334ac6d5d"},"vehicle_type_id":"4","last_reported":1758712104,"current_range_meters":3200,"station_id":"ce4bhb92rcd13ifvqen0","pricing_plan_id":"cebpf4jnsgd1na2vs0mg"},{"bike_id":"071f0a9a-7340-48fb-9fdd-87883f0d6396","system_id":"levelo_inurba_marseille","lat":43.28938,"lon":5.36635,"is_reserved":false,"is_disabled":false,"rental_uris":{"android":"levelo://app?vid=071f0a9a-7340-48fb-9fdd-87883f0d6396","ios":"levelo://app?vid=071f0a9a-7340-48fb-9fdd-87883f0d6396"},"vehicle_type_id":"4","last_reported":1758712104,"current_range_meters":2800,"station_id":"ce4bhap2rcd13ifvqek0","pricing_plan_id":"cebpf4jnsgd1na2vs0mg"},{"bike_id":"ede9d2a6-c54e-47d7-89c6-03586f4eb9cd","system_id":"levelo_inurba_marseille","lat":43.29271,"lon":5.37628,"is_reserved":false,"is_disabled":false,"rental_uris":{"android":"levelo://app?vid=ede9d2a6-c54e-47d7-89c6-03586f4eb9cd","ios":"levelo://app?vid=ede9d2a6-c54e-47d7-89c6-03586f4eb9cd"},"vehicle_type_id":"4","last_reported":1758712104,"current_range_meters":3600,"station_id":"ce4bgi12rcd13ifvqb80","pricing_plan_id":"cebpf4jnsgd1na2vs0mg"},{"bike_id":"8db1c1ec-9c95-42b9-b222-706cd3e8280c","system_id":"levelo_inurba_marseille","lat":43.29553,"lon":5.38161,"is_reserved":false,"is_disabled":false,"rental_uris":{"android":"levelo://app?vid=8db1c1ec-9c95-42b9-b222-706cd3e8280c","ios":"levelo://app?vid=8db1c1ec-9c95-42b9-b222-706cd3e8280c"},"vehicle_type_id":"4","last_reported":1758712104,"current_range_meters":4000,"station_id":"","pricing_plan_id":"cebpf4jnsgd1na2vs0mg"},{"bike_id":"213937f4-0cd9-48b8-9d64-0b73c37bc721","system_id":"levelo_inurba_marseille","lat":43.29558,"lon":5.38174,"is_reserved":false,"is_disabled":false,"rental_uris":{"android":"levelo://app?vid=213937f4-0cd9-48b8-9d64-0b73c37bc721","ios":"levelo://app?vid=213937f4-0cd9-48b8-9d64-0b73c37bc721"},"vehicle_type_id":"4","last_reported":1758712104,"current_range_meters":3600,"station_id":"","pricing_plan_id":"cebpf4jnsgd1na2vs0mg"},{"bike_id":"d25fe0ce-95ac-44cd-adb6-9b477cfcb65f","system_id":"levelo_inurba_marseille","lat":43.225364,"lon":5.348375,"is_reserved":false,"is_disabled":false,"rental_uris":{"android":"levelo://app?vid=d25fe0ce-95ac-44cd-adb6-9b477cfcb65f","ios":"levelo://app?vid=d25fe0ce-95ac-44cd-adb6-9b477cfcb65f"},"vehicle_type_id":"4","last_reported":1758712104,"current_range_meters":3600,"station_id":"","pricing_plan_id":"cebpf4jnsgd1na2vs0mg"},{"bike_id":"c01f598a-4b24-467c-b8ab-a113dd4a438b","system_id":"levelo_inurba_marseille","lat":43.266044,"lon":5.37317,"is_reserved":false,"is_disabled":false,"rental_uris":{"android":"levelo://app?vid=c01f598a-4b24-467c-b8ab-a113dd4a438b","ios":"levelo://app?vid=c01f598a-4b24-467c-b8ab-a113dd4a438b"},"vehicle_type_id":"4","last_reported":1758712104,"current_range_meters":3600,"station_id":"ce4bhg12rcd13ifvqf70","pricing_plan_id":"cebpf4jnsgd1na2vs0mg"},{"bike_id":"0a1ab1a5-b85e-4ac3-936e-fe171b7ebe82","system_id":"levelo_inurba_marseille","lat":43.296295,"lon":5.381289,"is_reserved":false,"is_disabled":false,"rental_uris":{"android":"levelo://app?vid=0a1ab1a5-b85e-4ac3-936e-fe171b7ebe82","ios":"levelo://app?vid=0a1ab1a5-b85e-4ac3-936e-fe171b7ebe82"},"vehicle_type_id":"4","last_reported":1758712104,"current_range_meters":4000,"station_id":"","pricing_plan_id":"cebpf4jnsgd1na2vs0mg"},{"bike_id":"068f4775-5a1e-4ce6-a7e1-ad200b4b4975","system_id":"levelo_inurba_marseille","lat":43.30935,"lon":5.40135,"is_reserved":false,"is_disabled":false,"rental_uris":{"android":"levelo://app?vid=068f4775-5a1e-4ce6-a7e1-ad200b4b4975","ios":"levelo://app?vid=068f4775-5a1e-4ce6-a7e1-ad200b4b4975"},"vehicle_type_id":"4","last_reported":1758712104,"current_range_meters":4000,"station_id":"ce4bgvp2rcd13ifvqct0","pricing_plan_id":"cebpf4jnsgd1na2vs0mg"},{"bike_id":"c3ccbf09-5bbf-4439-ab62-cd1f4f69efb3","system_id":"levelo_inurba_marseille","lat":43.33616,"lon":5.40974,"is_reserved":false,"is_disabled":false,"rental_uris":{"android":"levelo://app?vid=c3ccbf09-5bbf-4439-ab62-cd1f4f69efb3","ios":"levelo://app?vid=c3ccbf09-5bbf-4439-ab62-cd1f4f69efb3"},"vehicle_type_id":"4","last_reported":1758712104,"current_range_meters":4000,"station_id":"ce4bhqh2rcd13ifvqhmg","pricing_plan_id":"cebpf4jnsgd1na2vs0mg"},{"bike_id":"786f6451-791b-4ac8-9799-7450bff20051","system_id":"levelo_inurba_marseille","lat":43.29566,"lon":5.37529,"is_reserved":false,"is_disabled":false,"rental_uris":{"android":"levelo://app?vid=786f6451-791b-4ac8-9799-7450bff20051","ios":"levelo://app?vid=786f6451-791b-4ac8-9799-7450bff20051"},"vehicle_type_id":"4","last_reported":1758712104,"current_range_meters":4400,"station_id":"ce4bgh92rcd13ifvqb50","pricing_plan_id":"cebpf4jnsgd1na2vs0mg"},{"bike_id":"1efddf8d-578f-4e4c-8c3f-e3a8bd592ba4","system_id":"levelo_inurba_marseille","lat":43.29969,"lon":5.3739,"is_reserved":false,"is_disabled":false,"rental_uris":{"android":"levelo://app?vid=1efddf8d-578f-4e4c-8c3f-e3a8bd592ba4","ios":"levelo://app?vid=1efddf8d-578f-4e4c-8c3f-e3a8bd592ba4"},"vehicle_type_id":"4","last_reported":1758712104,"current_range_meters":4400,"station_id":"","pricing_plan_id":"cebpf4jnsgd1na2vs0mg"},{"bike_id":"abb3d8dd-e6f0-4e7e-bb20-9fc9dd7a901c","system_id":"levelo_inurba_marseille","lat":43.257,"lon":5.4113,"is_reserved":false,"is_disabled":false,"rental_uris":{"android":"levelo://app?vid=abb3d8dd-e6f0-4e7e-bb20-9fc9dd7a901c","ios":"levelo://app?vid=abb3d8dd-e6f0-4e7e-bb20-9fc9dd7a901c"},"vehicle_type_id":"4","last_reported":1758712104,"current_range_meters":4400,"station_id":"ce4bhkp2rcd13ifvqgd0","pricing_plan_id":"cebpf4jnsgd1na2vs0mg"},{"bike_id":"61e6b46d-4224-42d1-91fa-78a48f5d0e6a","system_id":"levelo_inurba_marseille","lat":43.326611,"lon":5.409906,"is_reserved":false,"is_disabled":false,"rental_uris":{"android":"levelo://app?vid=61e6b46d-4224-42d1-91fa-78a48f5d0e6a","ios":"levelo://app?vid=61e6b46d-4224-42d1-91fa-78a48f5d0e6a"},"vehicle_type_id":"4","last_reported":1758712104,"current_range_meters":4800,"station_id":"","pricing_plan_id":"cebpf4jnsgd1na2vs0mg"},{"bike_id":"5c0013ac-44bd-492e-a26d-059d237d54f3","system_id":"levelo_inurba_marseille","lat":43.2315,"lon":5.4372,"is_reserved":false,"is_disabled":false,"rental_uris":{"android":"levelo://app?vid=5c0013ac-44bd-492e-a26d-059d237d54f3","ios":"levelo://app?vid=5c0013ac-44bd-492e-a26d-059d237d54f3"},"vehicle_type_id":"4","last_reported":1758712104,"current_range_meters":4800,"station_id":"ce4bhmp2rcd13ifvqgog","pricing_plan_id":"cebpf4jnsgd1na2vs0mg"},{"bike_id":"7268a6d9-c21e-464f-9c51-a6b68cb5c775","system_id":"levelo_inurba_marseille","lat":43.2606,"lon":5.393953,"is_reserved":false,"is_disabled":false,"rental_uris":{"android":"levelo://app?vid=7268a6d9-c21e-464f-9c51-a6b68cb5c775","ios":"levelo://app?vid=7268a6d9-c21e-464f-9c51-a6b68cb5c775"},"vehicle_type_id":"4","last_reported":1758712104,"current_range_meters":4800,"station_id":"ce4bhh92rcd13ifvqfj0","pricing_plan_id":"cebpf4jnsgd1na2vs0mg"},{"bike_id":"a3048e01-97cd-4146-89e4-84edece52328","system_id":"levelo_inurba_marseille","lat":43.29026,"lon":5.38638,"is_reserved":false,"is_disabled":false,"rental_uris":{"android":"levelo://app?vid=a3048e01-97cd-4146-89e4-84edece52328","ios":"levelo://app?vid=a3048e01-97cd-4146-89e4-84edece52328"},"vehicle_type_id":"4","last_reported":1758712104,"current_range_meters":4800,"station_id":"ce4bh4p2rcd13ifvqe0g","pricing_plan_id":"cebpf4jnsgd1na2vs0mg"},{"bike_id":"82304ba4-71d4-444b-a52b-5e234edb762c","system_id":"levelo_inurba_marseille","lat":43.22945,"lon":5.35374,"is_reserved":false,"is_disabled":false,"rental_uris":{"android":"levelo://app?vid=82304ba4-71d4-444b-a52b-5e234edb762c","ios":"levelo://app?vid=82304ba4-71d4-444b-a52b-5e234edb762c"},"vehicle_type_id":"4","last_reported":1758712104,"current_range_meters":4800,"station_id":"","pricing_plan_id":"cebpf4jnsgd1na2vs0mg"},{"bike_id":"4431a79c-450a-45b0-9fcd-1e25286b687c","system_id":"levelo_inurba_marseille","lat":43.3009,"lon":5.39073,"is_reserved":false,"is_disabled":false,"rental_uris":{"android":"levelo://app?vid=4431a79c-450a-45b0-9fcd-1e25286b687c","ios":"levelo://app?vid=4431a79c-450a-45b0-9fcd-1e25286b687c"},"vehicle_type_id":"4","last_reported":1758712104,"current_range_meters":5600,"station_id":"ce4bh192rcd13ifvqdb0","pricing_plan_id":"cebpf4jnsgd1na2vs0mg"},{"bike_id":"023538a4-c74d-41b7-b52d-a9cf1f022cec","system_id":"levelo_inurba_marseille","lat":43.30927,"lon":5.37907,"is_reserved":false,"is_disabled":false,"rental_uris":{"android":"levelo://app?vid=023538a4-c74d-41b7-b52d-a9cf1f022cec","ios":"levelo://app?vid=023538a4-c74d-41b7-b52d-a9cf1f022cec"},"vehicle_type_id":"4","last_reported":1758712104,"current_range_meters":5600,"station_id":"","pricing_plan_id":"cebpf4jnsgd1na2vs0mg"},{"bike_id":"c73aaf1d-7865-4ada-93fb-ea5263114a47","system_id":"levelo_inurba_marseille","lat":43.28231,"lon":5.39072,"is_reserved":false,"is_disabled":false,"rental_uris":{"android":"levelo://app?vid=c73aaf1d-7865-4ada-93fb-ea5263114a47","ios":"levelo://app?vid=c73aaf1d-7865-4ada-93fb-ea5263114a47"},"vehicle_type_id":"4","last_reported":1758712104,"current_range_meters":6000,"station_id":"ce4bhn92rcd13ifvqgsg","pricing_plan_id":"cebpf4jnsgd1na2vs0mg"},{"bike_id":"946adb24-179d-4a2a-9697-9e927a252549","system_id":"levelo_inurba_marseille","lat":43.29217,"lon":5.39327,"is_reserved":false,"is_disabled":false,"rental_uris":{"android":"levelo://app?vid=946adb24-179d-4a2a-9697-9e927a252549","ios":"levelo://app?vid=946adb24-179d-4a2a-9697-9e927a252549"},"vehicle_type_id":"4","last_reported":1758712104,"current_range_meters":6000,"station_id":"ce4bh192rcd13ifvqdd0","pricing_plan_id":"cebpf4jnsgd1na2vs0mg"},{"bike_id":"962b15bf-a341-4469-9450-c0428eb337e2","system_id":"levelo_inurba_marseille","lat":43.23155,"lon":5.43709,"is_reserved":false,"is_disabled":false,"rental_uris":{"android":"levelo://app?vid=962b15bf-a341-4469-9450-c0428eb337e2","ios":"levelo://app?vid=962b15bf-a341-4469-9450-c0428eb337e2"},"vehicle_type_id":"4","last_reported":1758712104,"current_range_meters":6000,"station_id":"ce4bhmp2rcd13ifvqgog","pricing_plan_id":"cebpf4jnsgd1na2vs0mg"},{"bike_id":"cb6bf7d2-2ed1-47c4-b0a7-9c935f0ebf1a","system_id":"levelo_inurba_marseille","lat":43.26847,"lon":5.40688,"is_reserved":false,"is_disabled":false,"rental_uris":{"android":"levelo://app?vid=cb6bf7d2-2ed1-47c4-b0a7-9c935f0ebf1a","ios":"levelo://app?vid=cb6bf7d2-2ed1-47c4-b0a7-9c935f0ebf1a"},"vehicle_type_id":"4","last_reported":1758712104,"current_range_meters":6000,"station_id":"","pricing_plan_id":"cebpf4jnsgd1na2vs0mg"},{"bike_id":"31a8d1e7-3b9f-4241-9bdf-bbd8cdb797a9","system_id":"levelo_inurba_marseille","lat":43.25584,"lon":5.38232,"is_reserved":false,"is_disabled":false,"rental_uris":{"android":"levelo://app?vid=31a8d1e7-3b9f-4241-9bdf-bbd8cdb797a9","ios":"levelo://app?vid=31a8d1e7-3b9f-4241-9bdf-bbd8cdb797a9"},"vehicle_type_id":"4","last_reported":1758712104,"current_range_meters":6000,"station_id":"ce4bhih2rcd13ifvqfs0","pricing_plan_id":"cebpf4jnsgd1na2vs0mg"},{"bike_id":"c42810f2-f26b-4a27-a5d0-5e539e9d86c4","system_id":"levelo_inurba_marseille","lat":43.287075,"lon":5.37383,"is_reserved":false,"is_disabled":false,"rental_uris":{"android":"levelo://app?vid=c42810f2-f26b-4a27-a5d0-5e539e9d86c4","ios":"levelo://app?vid=c42810f2-f26b-4a27-a5d0-5e539e9d86c4"},"vehicle_type_id":"4","last_reported":1758712104,"current_range_meters":6400,"station_id":"","pricing_plan_id":"cebpf4jnsgd1na2vs0mg"},{"bike_id":"983bf0e4-9317-4bbd-ac14-9c2a72edaab9","system_id":"levelo_inurba_marseille","lat":43.33009,"lon":5.39036,"is_reserved":false,"is_disabled":false,"rental_uris":{"android":"levelo://app?vid=983bf0e4-9317-4bbd-ac14-9c2a72edaab9","ios":"levelo://app?vid=983bf0e4-9317-4bbd-ac14-9c2a72edaab9"},"vehicle_type_id":"4","last_reported":1758712104,"current_range_meters":6400,"station_id":"ce4bhr92rcd13ifvqhrg","pricing_plan_id":"cebpf4jnsgd1na2vs0mg"},{"bike_id":"7158818d-5d45-48e6-841a-3a2b3bc11103","system_id":"levelo_inurba_marseille","lat":43.29962,"lon":5.38501,"is_reserved":false,"is_disabled":false,"rental_uris":{"android":"levelo://app?vid=7158818d-5d45-48e6-841a-3a2b3bc11103","ios":"levelo://app?vid=7158818d-5d45-48e6-841a-3a2b3bc11103"},"vehicle_type_id":"4","last_reported":1758712104,"current_range_meters":6400,"station_id":"ce4bgj92rcd13ifvqbd0","pricing_plan_id":"cebpf4jnsgd1na2vs0mg"},{"bike_id":"c049b8af-bf19-4cb3-a300-7e2f83d58d97","system_id":"levelo_inurba_marseille","lat":43.28475,"lon":5.38421,"is_reserved":false,"is_disabled":false,"rental_uris":{"android":"levelo://app?vid=c049b8af-bf19-4cb3-a300-7e2f83d58d97","ios":"levelo://app?vid=c049b8af-bf19-4cb3-a300-7e2f83d58d97"},"vehicle_type_id":"4","last_reported":1758712104,"current_range_meters":6800,"station_id":"ce4bh512rcd13ifvqe3g","pricing_plan_id":"cebpf4jnsgd1na2vs0mg"},{"bike_id":"a08d4ec1-4b16-405d-be9c-79e00d1fb453","system_id":"levelo_inurba_marseille","lat":43.24635,"lon":5.4315,"is_reserved":false,"is_disabled":false,"rental_uris":{"android":"levelo://app?vid=a08d4ec1-4b16-405d-be9c-79e00d1fb453","ios":"levelo://app?vid=a08d4ec1-4b16-405d-be9c-79e00d1fb453"},"vehicle_type_id":"4","last_reported":1758712104,"current_range_meters":6800,"station_id":"st_d2m6c4gdas8pm72e190g","pricing_plan_id":"cebpf4jnsgd1na2vs0mg"},{"bike_id":"c95e0c05-dd94-491f-8092-9c7978400114","system_id":"levelo_inurba_marseille","lat":43.33505,"lon":5.36241,"is_reserved":false,"is_disabled":false,"rental_uris":{"android":"levelo://app?vid=c95e0c05-dd94-491f-8092-9c7978400114","ios":"levelo://app?vid=c95e0c05-dd94-491f-8092-9c7978400114"},"vehicle_type_id":"4","last_reported":1758712104,"current_range_meters":7200,"station_id":"ce4bhs12rcd13ifvqhvg","pricing_plan_id":"cebpf4jnsgd1na2vs0mg"},{"bike_id":"1f68c59d-2b56-4ce2-bbbe-18a3e58d8983","system_id":"levelo_inurba_marseille","lat":43.2315,"lon":5.43712,"is_reserved":false,"is_disabled":false,"rental_uris":{"android":"levelo://app?vid=1f68c59d-2b56-4ce2-bbbe-18a3e58d8983","ios":"levelo://app?vid=1f68c59d-2b56-4ce2-bbbe-18a3e58d8983"},"vehicle_type_id":"4","last_reported":1758712104,"current_range_meters":7200,"station_id":"ce4bhmp2rcd13ifvqgog","pricing_plan_id":"cebpf4jnsgd1na2vs0mg"},{"bike_id":"314600e1-8c06-48d8-93b2-0e07b118a015","system_id":"levelo_inurba_marseille","lat":43.21187,"lon":5.35081,"is_reserved":false,"is_disabled":false,"rental_uris":{"android":"levelo://app?vid=314600e1-8c06-48d8-93b2-0e07b118a015","ios":"levelo://app?vid=314600e1-8c06-48d8-93b2-0e07b118a015"},"vehicle_type_id":"4","last_reported":1758712104,"current_range_meters":7200,"station_id":"st_cvj6sg6p6f1abm77japg","pricing_plan_id":"cebpf4jnsgd1na2vs0mg"},{"bike_id":"65756bd9-8c54-4ec5-99d8-8de01d66ed61","system_id":"levelo_inurba_marseille","lat":43.29601,"lon":5.38102,"is_reserved":false,"is_disabled":false,"rental_uris":{"android":"levelo://app?vid=65756bd9-8c54-4ec5-99d8-8de01d66ed61","ios":"levelo://app?vid=65756bd9-8c54-4ec5-99d8-8de01d66ed61"},"vehicle_type_id":"4","last_reported":1758712104,"current_range_meters":8000,"station_id":"ce4bgl12rcd13ifvqbo0","pricing_plan_id":"cebpf4jnsgd1na2vs0mg"},{"bike_id":"5b2fec9d-3c73-4089-9434-8c3d58d85716","system_id":"levelo_inurba_marseille","lat":43.23056,"lon":5.35484,"is_reserved":false,"is_disabled":false,"rental_uris":{"android":"levelo://app?vid=5b2fec9d-3c73-4089-9434-8c3d58d85716","ios":"levelo://app?vid=5b2fec9d-3c73-4089-9434-8c3d58d85716"},"vehicle_type_id":"4","last_reported":1758712104,"current_range_meters":8000,"station_id":"cpo3342slgdg3j2ifvpg","pricing_plan_id":"cebpf4jnsgd1na2vs0mg"},{"bike_id":"59332951-160a-4458-8b5a-46d3821ad3d6","system_id":"levelo_inurba_marseille","lat":43.29842,"lon":5.36269,"is_reserved":false,"is_disabled":false,"rental_uris":{"android":"levelo://app?vid=59332951-160a-4458-8b5a-46d3821ad3d6","ios":"levelo://app?vid=59332951-160a-4458-8b5a-46d3821ad3d6"},"vehicle_type_id":"4","last_reported":1758712104,"current_range_meters":8400,"station_id":"ce4bgpp2rcd13ifvqc3g","pricing_plan_id":"cebpf4jnsgd1na2vs0mg"},{"bike_id":"35bbfefc-47ed-4896-9ec2-3aa35bb3796a","system_id":"levelo_inurba_marseille","lat":43.28225,"lon":5.39073,"is_reserved":false,"is_disabled":false,"rental_uris":{"android":"levelo://app?vid=35bbfefc-47ed-4896-9ec2-3aa35bb3796a","ios":"levelo://app?vid=35bbfefc-47ed-4896-9ec2-3aa35bb3796a"},"vehicle_type_id":"4","last_reported":1758712104,"current_range_meters":8400,"station_id":"ce4bhn92rcd13ifvqgsg","pricing_plan_id":"cebpf4jnsgd1na2vs0mg"},{"bike_id":"3f063478-5721-4205-8add-0d048402357b","system_id":"levelo_inurba_marseille","lat":43.2904,"lon":5.37563,"is_reserved":false,"is_disabled":false,"rental_uris":{"android":"levelo://app?vid=3f063478-5721-4205-8add-0d048402357b","ios":"levelo://app?vid=3f063478-5721-4205-8add-0d048402357b"},"vehicle_type_id":"4","last_reported":1758712104,"current_range_meters":8400,"station_id":"ce4bh692rcd13ifvqe90","pricing_plan_id":"cebpf4jnsgd1na2vs0mg"},{"bike_id":"e49dc799-22d6-4461-a287-3b56e17be205","system_id":"levelo_inurba_marseille","lat":43.33602,"lon":5.41022,"is_reserved":false,"is_disabled":false,"rental_uris":{"android":"levelo://app?vid=e49dc799-22d6-4461-a287-3b56e17be205","ios":"levelo://app?vid=e49dc799-22d6-4461-a287-3b56e17be205"},"vehicle_type_id":"4","last_reported":1758712104,"current_range_meters":8400,"station_id":"ce4bhqh2rcd13ifvqhmg","pricing_plan_id":"cebpf4jnsgd1na2vs0mg"},{"bike_id":"2357d2b0-122b-4dfe-8078-02ca83ca8e48","system_id":"levelo_inurba_marseille","lat":43.31351,"lon":5.36707,"is_reserved":false,"is_disabled":false,"rental_uris":{"android":"levelo://app?vid=2357d2b0-122b-4dfe-8078-02ca83ca8e48","ios":"levelo://app?vid=2357d2b0-122b-4dfe-8078-02ca83ca8e48"},"vehicle_type_id":"4","last_reported":1758712104,"current_range_meters":8400,"station_id":"ce4bgr92rcd13ifvqc6g","pricing_plan_id":"cebpf4jnsgd1na2vs0mg"},{"bike_id":"025c2ffb-be99-435a-bf72-9402d44d9cf9","system_id":"levelo_inurba_marseille","lat":43.29003,"lon":5.35614,"is_reserved":false,"is_disabled":false,"rental_uris":{"android":"levelo://app?vid=025c2ffb-be99-435a-bf72-9402d44d9cf9","ios":"levelo://app?vid=025c2ffb-be99-435a-bf72-9402d44d9cf9"},"vehicle_type_id":"4","last_reported":1758712104,"current_range_meters":8400,"station_id":"ce4bhb92rcd13ifvqen0","pricing_plan_id":"cebpf4jnsgd1na2vs0mg"},{"bike_id":"b625c577-d550-4dd4-a075-0263997a7ed5","system_id":"levelo_inurba_marseille","lat":43.30938,"lon":5.39049,"is_reserved":false,"is_disabled":false,"rental_uris":{"android":"levelo://app?vid=b625c577-d550-4dd4-a075-0263997a7ed5","ios":"levelo://app?vid=b625c577-d550-4dd4-a075-0263997a7ed5"},"vehicle_type_id":"4","last_reported":1758712104,"current_range_meters":8800,"station_id":"ce4bgup2rcd13ifvqco0","pricing_plan_id":"cebpf4jnsgd1na2vs0mg"},{"bike_id":"e8e953ff-cf06-48c0-9eb6-692317dadc43","system_id":"levelo_inurba_marseille","lat":43.23965,"lon":5.36636,"is_reserved":false,"is_disabled":false,"rental_uris":{"android":"levelo://app?vid=e8e953ff-cf06-48c0-9eb6-692317dadc43","ios":"levelo://app?vid=e8e953ff-cf06-48c0-9eb6-692317dadc43"},"vehicle_type_id":"4","last_reported":1758712104,"current_range_meters":8800,"station_id":"ce4bhi12rcd13ifvqfp0","pricing_plan_id":"cebpf4jnsgd1na2vs0mg"},{"bike_id":"0b7efb08-01a1-4745-845e-91e90f6b6ec2","system_id":"levelo_inurba_marseille","lat":43.26689,"lon":5.3827,"is_reserved":false,"is_disabled":true,"rental_uris":{"android":"levelo://app?vid=0b7efb08-01a1-4745-845e-91e90f6b6ec2","ios":"levelo://app?vid=0b7efb08-01a1-4745-845e-91e90f6b6ec2"},"vehicle_type_id":"4","last_reported":1758712104,"current_range_meters":8800,"station_id":"ce4bhg92rcd13ifvqf90","pricing_plan_id":"cebpf4jnsgd1na2vs0mg"},{"bike_id":"c12ba6c2-e9cb-498f-9a07-a5faf7db5748","system_id":"levelo_inurba_marseille","lat":43.30643,"lon":5.40096,"is_reserved":false,"is_disabled":false,"rental_uris":{"android":"levelo://app?vid=c12ba6c2-e9cb-498f-9a07-a5faf7db5748","ios":"levelo://app?vid=c12ba6c2-e9cb-498f-9a07-a5faf7db5748"},"vehicle_type_id":"4","last_reported":1758712104,"current_range_meters":8400,"station_id":"ce4bh112rcd13ifvqda0","pricing_plan_id":"cebpf4jnsgd1na2vs0mg"},{"bike_id":"3a67dd4e-fb83-461d-9857-1da42ae82607","system_id":"levelo_inurba_marseille","lat":43.262047,"lon":5.379324,"is_reserved":false,"is_disabled":false,"rental_uris":{"android":"levelo://app?vid=3a67dd4e-fb83-461d-9857-1da42ae82607","ios":"levelo://app?vid=3a67dd4e-fb83-461d-9857-1da42ae82607"},"vehicle_type_id":"4","last_reported":1758712104,"current_range_meters":8800,"station_id":"ce4bhjp2rcd13ifvqg90","pricing_plan_id":"cebpf4jnsgd1na2vs0mg"},{"bike_id":"68e63c4f-cf4d-4e38-ad42-8c1b2322a9ea","system_id":"levelo_inurba_marseille","lat":43.30254,"lon":5.40076,"is_reserved":false,"is_disabled":false,"rental_uris":{"android":"levelo://app?vid=68e63c4f-cf4d-4e38-ad42-8c1b2322a9ea","ios":"levelo://app?vid=68e63c4f-cf4d-4e38-ad42-8c1b2322a9ea"},"vehicle_type_id":"4","last_reported":1758712104,"current_range_meters":8800,"station_id":"ce4bgvh2rcd13ifvqcs0","pricing_plan_id":"cebpf4jnsgd1na2vs0mg"},{"bike_id":"e8daccbc-a3d4-40b2-8367-e37e67534364","system_id":"levelo_inurba_marseille","lat":43.295951,"lon":5.380962,"is_reserved":false,"is_disabled":false,"rental_uris":{"android":"levelo://app?vid=e8daccbc-a3d4-40b2-8367-e37e67534364","ios":"levelo://app?vid=e8daccbc-a3d4-40b2-8367-e37e67534364"},"vehicle_type_id":"4","last_reported":1758712104,"current_range_meters":9200,"station_id":"ce4bgl12rcd13ifvqbo0","pricing_plan_id":"cebpf4jnsgd1na2vs0mg"},{"bike_id":"eef3b31f-fb46-429f-a7cc-dce97300e7f5","system_id":"levelo_inurba_marseille","lat":43.27676,"lon":5.38873,"is_reserved":false,"is_disabled":false,"rental_uris":{"android":"levelo://app?vid=eef3b31f-fb46-429f-a7cc-dce97300e7f5","ios":"levelo://app?vid=eef3b31f-fb46-429f-a7cc-dce97300e7f5"},"vehicle_type_id":"4","last_reported":1758712104,"current_range_meters":8400,"station_id":"ce4bhi12rcd13ifvqfo0","pricing_plan_id":"cebpf4jnsgd1na2vs0mg"},{"bike_id":"1f245d0b-a243-4473-a434-d74cae53f5e3","system_id":"levelo_inurba_marseille","lat":43.320994,"lon":5.367683,"is_reserved":false,"is_disabled":false,"rental_uris":{"android":"levelo://app?vid=1f245d0b-a243-4473-a434-d74cae53f5e3","ios":"levelo://app?vid=1f245d0b-a243-4473-a434-d74cae53f5e3"},"vehicle_type_id":"4","last_reported":1758712104,"current_range_meters":9200,"station_id":"ce4bhrh2rcd13ifvqhug","pricing_plan_id":"cebpf4jnsgd1na2vs0mg"},{"bike_id":"93d09efc-3d5a-4572-a77e-388981ded0df","system_id":"levelo_inurba_marseille","lat":43.27947,"lon":5.41046,"is_reserved":false,"is_disabled":false,"rental_uris":{"android":"levelo://app?vid=93d09efc-3d5a-4572-a77e-388981ded0df","ios":"levelo://app?vid=93d09efc-3d5a-4572-a77e-388981ded0df"},"vehicle_type_id":"4","last_reported":1758712104,"current_range_meters":9200,"station_id":"ce4bhnp2rcd13ifvqh0g","pricing_plan_id":"cebpf4jnsgd1na2vs0mg"},{"bike_id":"ec34986a-cccf-44bb-b99e-7f02caf21754","system_id":"levelo_inurba_marseille","lat":43.29554,"lon":5.42297,"is_reserved":false,"is_disabled":false,"rental_uris":{"android":"levelo://app?vid=ec34986a-cccf-44bb-b99e-7f02caf21754","ios":"levelo://app?vid=ec34986a-cccf-44bb-b99e-7f02caf21754"},"vehicle_type_id":"4","last_reported":1758712104,"current_range_meters":8800,"station_id":"ce4bhph2rcd13ifvqhdg","pricing_plan_id":"cebpf4jnsgd1na2vs0mg"},{"bike_id":"06c6549a-b96f-4671-ba61-6bc10b1d2750","system_id":"levelo_inurba_marseille","lat":43.25106,"lon":5.40319,"is_reserved":false,"is_disabled":false,"rental_uris":{"android":"levelo://app?vid=06c6549a-b96f-4671-ba61-6bc10b1d2750","ios":"levelo://app?vid=06c6549a-b96f-4671-ba61-6bc10b1d2750"},"vehicle_type_id":"4","last_reported":1758712104,"current_range_meters":9200,"station_id":"ce4bhlh2rcd13ifvqgig","pricing_plan_id":"cebpf4jnsgd1na2vs0mg"},{"bike_id":"9c4a7bdb-c552-4dfd-8efb-40b9e0b0b147","system_id":"levelo_inurba_marseille","lat":43.30909,"lon":5.36724,"is_reserved":false,"is_disabled":false,"rental_uris":{"android":"levelo://app?vid=9c4a7bdb-c552-4dfd-8efb-40b9e0b0b147","ios":"levelo://app?vid=9c4a7bdb-c552-4dfd-8efb-40b9e0b0b147"},"vehicle_type_id":"4","last_reported":1758712104,"current_range_meters":9600,"station_id":"","pricing_plan_id":"cebpf4jnsgd1na2vs0mg"},{"bike_id":"6a62f114-81bb-482e-af7a-07f3b084f5b6","system_id":"levelo_inurba_marseille","lat":43.32339,"lon":5.40619,"is_reserved":false,"is_disabled":false,"rental_uris":{"android":"levelo://app?vid=6a62f114-81bb-482e-af7a-07f3b084f5b6","ios":"levelo://app?vid=6a62f114-81bb-482e-af7a-07f3b084f5b6"},"vehicle_type_id":"4","last_reported":1758712104,"current_range_meters":9600,"station_id":"ce4bhq92rcd13ifvqhjg","pricing_plan_id":"cebpf4jnsgd1na2vs0mg"},{"bike_id":"37276248-83f2-4deb-984e-36df024a89dc","system_id":"levelo_inurba_marseille","lat":43.32359,"lon":5.38879,"is_reserved":false,"is_disabled":false,"rental_uris":{"android":"levelo://app?vid=37276248-83f2-4deb-984e-36df024a89dc","ios":"levelo://app?vid=37276248-83f2-4deb-984e-36df024a89dc"},"vehicle_type_id":"4","last_reported":1758712104,"current_range_meters":9600,"station_id":"ce4bhqp2rcd13ifvqhog","pricing_plan_id":"cebpf4jnsgd1na2vs0mg"},{"bike_id":"7c0482c3-9253-4d1b-b4f3-be55cdb7721d","system_id":"levelo_inurba_marseille","lat":43.33757,"lon":5.37466,"is_reserved":false,"is_disabled":false,"rental_uris":{"android":"levelo://app?vid=7c0482c3-9253-4d1b-b4f3-be55cdb7721d","ios":"levelo://app?vid=7c0482c3-9253-4d1b-b4f3-be55cdb7721d"},"vehicle_type_id":"4","last_reported":1758712104,"current_range_meters":10000,"station_id":"","pricing_plan_id":"cebpf4jnsgd1na2vs0mg"},{"bike_id":"4ce67155-9f15-4130-9400-f86685d8ecda","system_id":"levelo_inurba_marseille","lat":43.29764,"lon":5.36527,"is_reserved":false,"is_disabled":false,"rental_uris":{"android":"levelo://app?vid=4ce67155-9f15-4130-9400-f86685d8ecda","ios":"levelo://app?vid=4ce67155-9f15-4130-9400-f86685d8ecda"},"vehicle_type_id":"4","last_reported":1758712104,"current_range_meters":10000,"station_id":"","pricing_plan_id":"cebpf4jnsgd1na2vs0mg"},{"bike_id":"79ca3ff2-60bc-4a73-8c65-c7621a2a79a8","system_id":"levelo_inurba_marseille","lat":43.29517,"lon":5.39039,"is_reserved":false,"is_disabled":false,"rental_uris":{"android":"levelo://app?vid=79ca3ff2-60bc-4a73-8c65-c7621a2a79a8","ios":"levelo://app?vid=79ca3ff2-60bc-4a73-8c65-c7621a2a79a8"},"vehicle_type_id":"4","last_reported":1758712104,"current_range_meters":10000,"station_id":"ce4bh3p2rcd13ifvqdp0","pricing_plan_id":"cebpf4jnsgd1na2vs0mg"},{"bike_id":"c131d37e-f0da-4839-861a-fde6cc241b09","system_id":"levelo_inurba_marseille","lat":43.23964,"lon":5.3663,"is_reserved":false,"is_disabled":false,"rental_uris":{"android":"levelo://app?vid=c131d37e-f0da-4839-861a-fde6cc241b09","ios":"levelo://app?vid=c131d37e-f0da-4839-861a-fde6cc241b09"},"vehicle_type_id":"4","last_reported":1758712104,"current_range_meters":10000,"station_id":"ce4bhi12rcd13ifvqfp0","pricing_plan_id":"cebpf4jnsgd1na2vs0mg"},{"bike_id":"179b8016-f0e7-4658-9b61-371f87de5f2e","system_id":"levelo_inurba_marseille","lat":43.28364,"lon":5.38097,"is_reserved":false,"is_disabled":false,"rental_uris":{"android":"levelo://app?vid=179b8016-f0e7-4658-9b61-371f87de5f2e","ios":"levelo://app?vid=179b8016-f0e7-4658-9b61-371f87de5f2e"},"vehicle_type_id":"4","last_reported":1758712104,"current_range_meters":9600,"station_id":"ce4bh412rcd13ifvqdr0","pricing_plan_id":"cebpf4jnsgd1na2vs0mg"},{"bike_id":"ee324131-7f1e-4c44-8cd4-8facf81a76e2","system_id":"levelo_inurba_marseille","lat":43.27991,"lon":5.40017,"is_reserved":false,"is_disabled":false,"rental_uris":{"android":"levelo://app?vid=ee324131-7f1e-4c44-8cd4-8facf81a76e2","ios":"levelo://app?vid=ee324131-7f1e-4c44-8cd4-8facf81a76e2"},"vehicle_type_id":"4","last_reported":1758712104,"current_range_meters":10000,"station_id":"ce4bho92rcd13ifvqh4g","pricing_plan_id":"cebpf4jnsgd1na2vs0mg"},{"bike_id":"e4756cce-94b2-490b-8276-81f615569afe","system_id":"levelo_inurba_marseille","lat":43.28419,"lon":5.34978,"is_reserved":false,"is_disabled":false,"rental_uris":{"android":"levelo://app?vid=e4756cce-94b2-490b-8276-81f615569afe","ios":"levelo://app?vid=e4756cce-94b2-490b-8276-81f615569afe"},"vehicle_type_id":"4","last_reported":1758712104,"current_range_meters":10000,"station_id":"ce4bhbh2rcd13ifvqepg","pricing_plan_id":"cebpf4jnsgd1na2vs0mg"},{"bike_id":"43d57fd4-047e-4ac8-97e5-ec9b96239472","system_id":"levelo_inurba_marseille","lat":43.33231,"lon":5.39821,"is_reserved":false,"is_disabled":false,"rental_uris":{"android":"levelo://app?vid=43d57fd4-047e-4ac8-97e5-ec9b96239472","ios":"levelo://app?vid=43d57fd4-047e-4ac8-97e5-ec9b96239472"},"vehicle_type_id":"4","last_reported":1758712104,"current_range_meters":10000,"station_id":"","pricing_plan_id":"cebpf4jnsgd1na2vs0mg"},{"bike_id":"ed340c06-1861-413c-8dbc-67bc58d79581","system_id":"levelo_inurba_marseille","lat":43.258957,"lon":5.394176,"is_reserved":false,"is_disabled":false,"rental_uris":{"android":"levelo://app?vid=ed340c06-1861-413c-8dbc-67bc58d79581","ios":"levelo://app?vid=ed340c06-1861-413c-8dbc-67bc58d79581"},"vehicle_type_id":"4","last_reported":1758712104,"current_range_meters":10000,"station_id":"ce4bhip2rcd13ifvqft0","pricing_plan_id":"cebpf4jnsgd1na2vs0mg"},{"bike_id":"7d1799fc-a65f-471c-8700-21b8d80e898c","system_id":"levelo_inurba_marseille","lat":43.26776,"lon":5.39421,"is_reserved":false,"is_disabled":false,"rental_uris":{"android":"levelo://app?vid=7d1799fc-a65f-471c-8700-21b8d80e898c","ios":"levelo://app?vid=7d1799fc-a65f-471c-8700-21b8d80e898c"},"vehicle_type_id":"4","last_reported":1758712104,"current_range_meters":10000,"station_id":"ce4bhh12rcd13ifvqfg0","pricing_plan_id":"cebpf4jnsgd1na2vs0mg"},{"bike_id":"f746730a-01df-4aaf-8b03-2432ec0f5a0e","system_id":"levelo_inurba_marseille","lat":43.25926,"lon":5.40852,"is_reserved":false,"is_disabled":false,"rental_uris":{"android":"levelo://app?vid=f746730a-01df-4aaf-8b03-2432ec0f5a0e","ios":"levelo://app?vid=f746730a-01df-4aaf-8b03-2432ec0f5a0e"},"vehicle_type_id":"4","last_reported":1758712104,"current_range_meters":10800,"station_id":"ce4bhm92rcd13ifvqglg","pricing_plan_id":"cebpf4jnsgd1na2vs0mg"},{"bike_id":"4c0b651b-953c-4759-a0f7-0074f59a45eb","system_id":"levelo_inurba_marseille","lat":43.2577,"lon":5.39249,"is_reserved":false,"is_disabled":false,"rental_uris":{"android":"levelo://app?vid=4c0b651b-953c-4759-a0f7-0074f59a45eb","ios":"levelo://app?vid=4c0b651b-953c-4759-a0f7-0074f59a45eb"},"vehicle_type_id":"4","last_reported":1758712104,"current_range_meters":10800,"station_id":"","pricing_plan_id":"cebpf4jnsgd1na2vs0mg"},{"bike_id":"d2cb4480-e6a8-4e9f-a524-876fba0f35c7","system_id":"levelo_inurba_marseille","lat":43.25115,"lon":5.40318,"is_reserved":false,"is_disabled":false,"rental_uris":{"android":"levelo://app?vid=d2cb4480-e6a8-4e9f-a524-876fba0f35c7","ios":"levelo://app?vid=d2cb4480-e6a8-4e9f-a524-876fba0f35c7"},"vehicle_type_id":"4","last_reported":1758712104,"current_range_meters":10800,"station_id":"ce4bhlh2rcd13ifvqgig","pricing_plan_id":"cebpf4jnsgd1na2vs0mg"},{"bike_id":"b3ec3379-5c3f-4624-9266-6edb4f07b01e","system_id":"levelo_inurba_marseille","lat":43.30283,"lon":5.37697,"is_reserved":false,"is_disabled":false,"rental_uris":{"android":"levelo://app?vid=b3ec3379-5c3f-4624-9266-6edb4f07b01e","ios":"levelo://app?vid=b3ec3379-5c3f-4624-9266-6edb4f07b01e"},"vehicle_type_id":"4","last_reported":1758712104,"current_range_meters":10800,"station_id":"ce4bguh2rcd13ifvqcj0","pricing_plan_id":"cebpf4jnsgd1na2vs0mg"},{"bike_id":"e35dc3d8-0dfe-4bd4-87f7-5d3ca8bee4e5","system_id":"levelo_inurba_marseille","lat":43.25076,"lon":5.42621,"is_reserved":false,"is_disabled":false,"rental_uris":{"android":"levelo://app?vid=e35dc3d8-0dfe-4bd4-87f7-5d3ca8bee4e5","ios":"levelo://app?vid=e35dc3d8-0dfe-4bd4-87f7-5d3ca8bee4e5"},"vehicle_type_id":"4","last_reported":1758712104,"current_range_meters":10800,"station_id":"","pricing_plan_id":"cebpf4jnsgd1na2vs0mg"},{"bike_id":"05c71d1b-93ca-41b5-9e26-6b92b9d131f5","system_id":"levelo_inurba_marseille","lat":43.30531,"lon":5.36544,"is_reserved":false,"is_disabled":false,"rental_uris":{"android":"levelo://app?vid=05c71d1b-93ca-41b5-9e26-6b92b9d131f5","ios":"levelo://app?vid=05c71d1b-93ca-41b5-9e26-6b92b9d131f5"},"vehicle_type_id":"4","last_reported":1758712104,"current_range_meters":11200,"station_id":"ce4bgs12rcd13ifvqcag","pricing_plan_id":"cebpf4jnsgd1na2vs0mg"},{"bike_id":"14e17926-57d9-43b8-8d51-0fc63c8d038d","system_id":"levelo_inurba_marseille","lat":43.284716,"lon":5.384113,"is_reserved":false,"is_disabled":false,"rental_uris":{"android":"levelo://app?vid=14e17926-57d9-43b8-8d51-0fc63c8d038d","ios":"levelo://app?vid=14e17926-57d9-43b8-8d51-0fc63c8d038d"},"vehicle_type_id":"4","last_reported":1758712104,"current_range_meters":11200,"station_id":"ce4bh512rcd13ifvqe3g","pricing_plan_id":"cebpf4jnsgd1na2vs0mg"},{"bike_id":"06a24bce-028d-4b4a-b4a3-d45296145db5","system_id":"levelo_inurba_marseille","lat":43.28425,"lon":5.34991,"is_reserved":false,"is_disabled":true,"rental_uris":{"android":"levelo://app?vid=06a24bce-028d-4b4a-b4a3-d45296145db5","ios":"levelo://app?vid=06a24bce-028d-4b4a-b4a3-d45296145db5"},"vehicle_type_id":"4","last_reported":1758712104,"current_range_meters":11200,"station_id":"ce4bhch2rcd13ifvqeug","pricing_plan_id":"cebpf4jnsgd1na2vs0mg"},{"bike_id":"e126e767-1a0a-4e38-ac54-6666b09239b8","system_id":"levelo_inurba_marseille","lat":43.284194,"lon":5.392018,"is_reserved":false,"is_disabled":false,"rental_uris":{"android":"levelo://app?vid=e126e767-1a0a-4e38-ac54-6666b09239b8","ios":"levelo://app?vid=e126e767-1a0a-4e38-ac54-6666b09239b8"},"vehicle_type_id":"4","last_reported":1758712104,"current_range_meters":10800,"station_id":"ce4bhoh2rcd13ifvqh5g","pricing_plan_id":"cebpf4jnsgd1na2vs0mg"},{"bike_id":"0dc8c7c3-84cd-4e36-aa7c-e01b81bb379e","system_id":"levelo_inurba_marseille","lat":43.28854,"lon":5.35866,"is_reserved":false,"is_disabled":false,"rental_uris":{"android":"levelo://app?vid=0dc8c7c3-84cd-4e36-aa7c-e01b81bb379e","ios":"levelo://app?vid=0dc8c7c3-84cd-4e36-aa7c-e01b81bb379e"},"vehicle_type_id":"4","last_reported":1758712104,"current_range_meters":11600,"station_id":"ce4bhb12rcd13ifvqem0","pricing_plan_id":"cebpf4jnsgd1na2vs0mg"},{"bike_id":"2884e01e-e8e5-4f64-839a-a54c238e1ae3","system_id":"levelo_inurba_marseille","lat":43.22531,"lon":5.34825,"is_reserved":false,"is_disabled":false,"rental_uris":{"android":"levelo://app?vid=2884e01e-e8e5-4f64-839a-a54c238e1ae3","ios":"levelo://app?vid=2884e01e-e8e5-4f64-839a-a54c238e1ae3"},"vehicle_type_id":"4","last_reported":1758712104,"current_range_meters":11600,"station_id":"","pricing_plan_id":"cebpf4jnsgd1na2vs0mg"},{"bike_id":"a97c5f3a-89d2-4741-940f-600f22b16835","system_id":"levelo_inurba_marseille","lat":43.24175,"lon":5.39734,"is_reserved":false,"is_disabled":false,"rental_uris":{"android":"levelo://app?vid=a97c5f3a-89d2-4741-940f-600f22b16835","ios":"levelo://app?vid=a97c5f3a-89d2-4741-940f-600f22b16835"},"vehicle_type_id":"4","last_reported":1758712104,"current_range_meters":11600,"station_id":"ce4bhn12rcd13ifvqgpg","pricing_plan_id":"cebpf4jnsgd1na2vs0mg"},{"bike_id":"ac84aaae-c3eb-4db9-972a-fd754e485c90","system_id":"levelo_inurba_marseille","lat":43.32048,"lon":5.41559,"is_reserved":false,"is_disabled":false,"rental_uris":{"android":"levelo://app?vid=ac84aaae-c3eb-4db9-972a-fd754e485c90","ios":"levelo://app?vid=ac84aaae-c3eb-4db9-972a-fd754e485c90"},"vehicle_type_id":"4","last_reported":1758712104,"current_range_meters":11600,"station_id":"ce4bhq92rcd13ifvqhkg","pricing_plan_id":"cebpf4jnsgd1na2vs0mg"},{"bike_id":"06e1ebdb-28d9-4300-a1c6-bc47e9491d52","system_id":"levelo_inurba_marseille","lat":43.33603,"lon":5.4103,"is_reserved":false,"is_disabled":false,"rental_uris":{"android":"levelo://app?vid=06e1ebdb-28d9-4300-a1c6-bc47e9491d52","ios":"levelo://app?vid=06e1ebdb-28d9-4300-a1c6-bc47e9491d52"},"vehicle_type_id":"4","last_reported":1758712104,"current_range_meters":11600,"station_id":"ce4bhqh2rcd13ifvqhmg","pricing_plan_id":"cebpf4jnsgd1na2vs0mg"},{"bike_id":"67966a20-5bbe-498c-9cbc-cccb2881c540","system_id":"levelo_inurba_marseille","lat":43.274212,"lon":5.394198,"is_reserved":false,"is_disabled":false,"rental_uris":{"android":"levelo://app?vid=67966a20-5bbe-498c-9cbc-cccb2881c540","ios":"levelo://app?vid=67966a20-5bbe-498c-9cbc-cccb2881c540"},"vehicle_type_id":"4","last_reported":1758712104,"current_range_meters":11600,"station_id":"ce4bhdp2rcd13ifvqf20","pricing_plan_id":"cebpf4jnsgd1na2vs0mg"},{"bike_id":"7981bd57-1a91-436b-8601-50130d20e8be","system_id":"levelo_inurba_marseille","lat":43.21191,"lon":5.35063,"is_reserved":false,"is_disabled":false,"rental_uris":{"android":"levelo://app?vid=7981bd57-1a91-436b-8601-50130d20e8be","ios":"levelo://app?vid=7981bd57-1a91-436b-8601-50130d20e8be"},"vehicle_type_id":"4","last_reported":1758712104,"current_range_meters":12000,"station_id":"st_cvj6sg6p6f1abm77japg","pricing_plan_id":"cebpf4jnsgd1na2vs0mg"},{"bike_id":"f39c8213-2807-4342-af71-41d4cddbed00","system_id":"levelo_inurba_marseille","lat":43.28713,"lon":5.37388,"is_reserved":false,"is_disabled":false,"rental_uris":{"android":"levelo://app?vid=f39c8213-2807-4342-af71-41d4cddbed00","ios":"levelo://app?vid=f39c8213-2807-4342-af71-41d4cddbed00"},"vehicle_type_id":"4","last_reported":1758712104,"current_range_meters":12000,"station_id":"ce4bh3p2rcd13ifvqdq0","pricing_plan_id":"cebpf4jnsgd1na2vs0mg"},{"bike_id":"a60abba9-f9b8-477b-8786-175fc2b6218b","system_id":"levelo_inurba_marseille","lat":43.30882,"lon":5.37161,"is_reserved":false,"is_disabled":false,"rental_uris":{"android":"levelo://app?vid=a60abba9-f9b8-477b-8786-175fc2b6218b","ios":"levelo://app?vid=a60abba9-f9b8-477b-8786-175fc2b6218b"},"vehicle_type_id":"4","last_reported":1758712104,"current_range_meters":12000,"station_id":"ce4bguh2rcd13ifvqckg","pricing_plan_id":"cebpf4jnsgd1na2vs0mg"},{"bike_id":"398f8059-124f-4af5-a235-338d9f242d77","system_id":"levelo_inurba_marseille","lat":43.29898,"lon":5.38145,"is_reserved":false,"is_disabled":false,"rental_uris":{"android":"levelo://app?vid=398f8059-124f-4af5-a235-338d9f242d77","ios":"levelo://app?vid=398f8059-124f-4af5-a235-338d9f242d77"},"vehicle_type_id":"4","last_reported":1758712104,"current_range_meters":12000,"station_id":"ce4bgj12rcd13ifvqbc0","pricing_plan_id":"cebpf4jnsgd1na2vs0mg"},{"bike_id":"5d93178e-9df8-409e-9875-7e68c6516015","system_id":"levelo_inurba_marseille","lat":43.337444,"lon":5.374475,"is_reserved":false,"is_disabled":false,"rental_uris":{"android":"levelo://app?vid=5d93178e-9df8-409e-9875-7e68c6516015","ios":"levelo://app?vid=5d93178e-9df8-409e-9875-7e68c6516015"},"vehicle_type_id":"4","last_reported":1758712104,"current_range_meters":12000,"station_id":"","pricing_plan_id":"cebpf4jnsgd1na2vs0mg"},{"bike_id":"ef6558a1-aae9-4158-9d1e-a03efb171c32","system_id":"levelo_inurba_marseille","lat":43.31223,"lon":5.36857,"is_reserved":false,"is_disabled":false,"rental_uris":{"android":"levelo://app?vid=ef6558a1-aae9-4158-9d1e-a03efb171c32","ios":"levelo://app?vid=ef6558a1-aae9-4158-9d1e-a03efb171c32"},"vehicle_type_id":"4","last_reported":1758712104,"current_range_meters":12000,"station_id":"ce4bgl92rcd13ifvqbq0","pricing_plan_id":"cebpf4jnsgd1na2vs0mg"},{"bike_id":"d25ea62f-67e4-45a8-83f3-4e59e22ad782","system_id":"levelo_inurba_marseille","lat":43.2931,"lon":5.3746,"is_reserved":false,"is_disabled":false,"rental_uris":{"android":"levelo://app?vid=d25ea62f-67e4-45a8-83f3-4e59e22ad782","ios":"levelo://app?vid=d25ea62f-67e4-45a8-83f3-4e59e22ad782"},"vehicle_type_id":"4","last_reported":1758712104,"current_range_meters":12000,"station_id":"ce4bgi12rcd13ifvqb70","pricing_plan_id":"cebpf4jnsgd1na2vs0mg"},{"bike_id":"42ae4382-5d1b-4502-8f2e-feb316cb2891","system_id":"levelo_inurba_marseille","lat":43.26778,"lon":5.39416,"is_reserved":false,"is_disabled":false,"rental_uris":{"android":"levelo://app?vid=42ae4382-5d1b-4502-8f2e-feb316cb2891","ios":"levelo://app?vid=42ae4382-5d1b-4502-8f2e-feb316cb2891"},"vehicle_type_id":"4","last_reported":1758712104,"current_range_meters":12400,"station_id":"ce4bhh12rcd13ifvqfg0","pricing_plan_id":"cebpf4jnsgd1na2vs0mg"},{"bike_id":"bea0e490-cd1e-42c8-a1ae-1001d5011c65","system_id":"levelo_inurba_marseille","lat":43.25336,"lon":5.42169,"is_reserved":false,"is_disabled":false,"rental_uris":{"android":"levelo://app?vid=bea0e490-cd1e-42c8-a1ae-1001d5011c65","ios":"levelo://app?vid=bea0e490-cd1e-42c8-a1ae-1001d5011c65"},"vehicle_type_id":"4","last_reported":1758712104,"current_range_meters":12400,"station_id":"st_d2m65c5bi1j21697t3ng","pricing_plan_id":"cebpf4jnsgd1na2vs0mg"},{"bike_id":"a740e6c6-76f8-48cb-b6fe-e70d48f6ba79","system_id":"levelo_inurba_marseille","lat":43.291988,"lon":5.393192,"is_reserved":false,"is_disabled":true,"rental_uris":{"android":"levelo://app?vid=a740e6c6-76f8-48cb-b6fe-e70d48f6ba79","ios":"levelo://app?vid=a740e6c6-76f8-48cb-b6fe-e70d48f6ba79"},"vehicle_type_id":"4","last_reported":1758712104,"current_range_meters":12400,"station_id":"ce4bh192rcd13ifvqdd0","pricing_plan_id":"cebpf4jnsgd1na2vs0mg"},{"bike_id":"bfd1dd8a-aa9f-42e9-8d53-87689f115227","system_id":"levelo_inurba_marseille","lat":43.31271,"lon":5.40174,"is_reserved":false,"is_disabled":false,"rental_uris":{"android":"levelo://app?vid=bfd1dd8a-aa9f-42e9-8d53-87689f115227","ios":"levelo://app?vid=bfd1dd8a-aa9f-42e9-8d53-87689f115227"},"vehicle_type_id":"4","last_reported":1758712104,"current_range_meters":12000,"station_id":"ce4bh092rcd13ifvqd30","pricing_plan_id":"cebpf4jnsgd1na2vs0mg"},{"bike_id":"d45e55fd-bdef-4148-a4fe-c963d9428301","system_id":"levelo_inurba_marseille","lat":43.259252,"lon":5.409005,"is_reserved":false,"is_disabled":false,"rental_uris":{"android":"levelo://app?vid=d45e55fd-bdef-4148-a4fe-c963d9428301","ios":"levelo://app?vid=d45e55fd-bdef-4148-a4fe-c963d9428301"},"vehicle_type_id":"4","last_reported":1758712104,"current_range_meters":12400,"station_id":"ce4bhm92rcd13ifvqglg","pricing_plan_id":"cebpf4jnsgd1na2vs0mg"},{"bike_id":"a1a78799-9f46-47a2-a431-f4abebea482a","system_id":"levelo_inurba_marseille","lat":43.2465,"lon":5.38155,"is_reserved":false,"is_disabled":false,"rental_uris":{"android":"levelo://app?vid=a1a78799-9f46-47a2-a431-f4abebea482a","ios":"levelo://app?vid=a1a78799-9f46-47a2-a431-f4abebea482a"},"vehicle_type_id":"4","last_reported":1758712104,"current_range_meters":12400,"station_id":"ce4bhih2rcd13ifvqfr0","pricing_plan_id":"cebpf4jnsgd1na2vs0mg"},{"bike_id":"1f8d6478-65dc-4441-8c70-9cf9b7b436ab","system_id":"levelo_inurba_marseille","lat":43.30539,"lon":5.38441,"is_reserved":false,"is_disabled":false,"rental_uris":{"android":"levelo://app?vid=1f8d6478-65dc-4441-8c70-9cf9b7b436ab","ios":"levelo://app?vid=1f8d6478-65dc-4441-8c70-9cf9b7b436ab"},"vehicle_type_id":"4","last_reported":1758712104,"current_range_meters":12400,"station_id":"ce4bgg92rcd13ifvqb30","pricing_plan_id":"cebpf4jnsgd1na2vs0mg"},{"bike_id":"0f1650fe-7e07-4db9-9c9e-440f7f5b47d4","system_id":"levelo_inurba_marseille","lat":43.21189,"lon":5.350727,"is_reserved":false,"is_disabled":false,"rental_uris":{"android":"levelo://app?vid=0f1650fe-7e07-4db9-9c9e-440f7f5b47d4","ios":"levelo://app?vid=0f1650fe-7e07-4db9-9c9e-440f7f5b47d4"},"vehicle_type_id":"4","last_reported":1758712104,"current_range_meters":12400,"station_id":"st_cvj6sg6p6f1abm77japg","pricing_plan_id":"cebpf4jnsgd1na2vs0mg"},{"bike_id":"6b5244cf-fef9-4f88-880b-b539d5d511e6","system_id":"levelo_inurba_marseille","lat":43.298793,"lon":5.389101,"is_reserved":false,"is_disabled":false,"rental_uris":{"android":"levelo://app?vid=6b5244cf-fef9-4f88-880b-b539d5d511e6","ios":"levelo://app?vid=6b5244cf-fef9-4f88-880b-b539d5d511e6"},"vehicle_type_id":"4","last_reported":1758712104,"current_range_meters":12400,"station_id":"ce4bh392rcd13ifvqdl0","pricing_plan_id":"cebpf4jnsgd1na2vs0mg"},{"bike_id":"9feb0e0f-24fa-4463-b0f3-30472830c043","system_id":"levelo_inurba_marseille","lat":43.31757,"lon":5.39002,"is_reserved":false,"is_disabled":false,"rental_uris":{"android":"levelo://app?vid=9feb0e0f-24fa-4463-b0f3-30472830c043","ios":"levelo://app?vid=9feb0e0f-24fa-4463-b0f3-30472830c043"},"vehicle_type_id":"4","last_reported":1758712104,"current_range_meters":12800,"station_id":"ce4bhqp2rcd13ifvqhng","pricing_plan_id":"cebpf4jnsgd1na2vs0mg"},{"bike_id":"775d2ad5-89ec-4ca2-aad6-292d6d92b011","system_id":"levelo_inurba_marseille","lat":43.3248,"lon":5.36557,"is_reserved":false,"is_disabled":false,"rental_uris":{"android":"levelo://app?vid=775d2ad5-89ec-4ca2-aad6-292d6d92b011","ios":"levelo://app?vid=775d2ad5-89ec-4ca2-aad6-292d6d92b011"},"vehicle_type_id":"4","last_reported":1758712104,"current_range_meters":12800,"station_id":"ce4bhs12rcd13ifvqhvg","pricing_plan_id":"cebpf4jnsgd1na2vs0mg"},{"bike_id":"1957c4b0-fd49-4fb5-8847-4d999f8d7a43","system_id":"levelo_inurba_marseille","lat":43.28968,"lon":5.37837,"is_reserved":false,"is_disabled":false,"rental_uris":{"android":"levelo://app?vid=1957c4b0-fd49-4fb5-8847-4d999f8d7a43","ios":"levelo://app?vid=1957c4b0-fd49-4fb5-8847-4d999f8d7a43"},"vehicle_type_id":"4","last_reported":1758712104,"current_range_meters":12800,"station_id":"ce4bh9p2rcd13ifvqed0","pricing_plan_id":"cebpf4jnsgd1na2vs0mg"},{"bike_id":"6fc2c705-7f42-4b0a-a53a-f7331de27ea1","system_id":"levelo_inurba_marseille","lat":43.29584,"lon":5.37495,"is_reserved":false,"is_disabled":false,"rental_uris":{"android":"levelo://app?vid=6fc2c705-7f42-4b0a-a53a-f7331de27ea1","ios":"levelo://app?vid=6fc2c705-7f42-4b0a-a53a-f7331de27ea1"},"vehicle_type_id":"4","last_reported":1758712104,"current_range_meters":12800,"station_id":"ce4bgh92rcd13ifvqb50","pricing_plan_id":"cebpf4jnsgd1na2vs0mg"},{"bike_id":"438ead59-de14-4fa0-a61d-03a70a4122ae","system_id":"levelo_inurba_marseille","lat":43.97269,"lon":4.89111,"is_reserved":false,"is_disabled":true,"rental_uris":{"android":"levelo://app?vid=438ead59-de14-4fa0-a61d-03a70a4122ae","ios":"levelo://app?vid=438ead59-de14-4fa0-a61d-03a70a4122ae"},"vehicle_type_id":"4","last_reported":1758712104,"current_range_meters":12800,"station_id":"","pricing_plan_id":"cebpf4jnsgd1na2vs0mg"},{"bike_id":"4ea71d83-c74b-45e0-95a5-e4c77af55e88","system_id":"levelo_inurba_marseille","lat":43.32114,"lon":5.36773,"is_reserved":false,"is_disabled":false,"rental_uris":{"android":"levelo://app?vid=4ea71d83-c74b-45e0-95a5-e4c77af55e88","ios":"levelo://app?vid=4ea71d83-c74b-45e0-95a5-e4c77af55e88"},"vehicle_type_id":"4","last_reported":1758712104,"current_range_meters":13600,"station_id":"ce4bhrh2rcd13ifvqhug","pricing_plan_id":"cebpf4jnsgd1na2vs0mg"},{"bike_id":"b5097eea-9912-4be2-9cf9-14c224c5fab6","system_id":"levelo_inurba_marseille","lat":43.23199,"lon":5.35532,"is_reserved":false,"is_disabled":false,"rental_uris":{"android":"levelo://app?vid=b5097eea-9912-4be2-9cf9-14c224c5fab6","ios":"levelo://app?vid=b5097eea-9912-4be2-9cf9-14c224c5fab6"},"vehicle_type_id":"4","last_reported":1758712104,"current_range_meters":13600,"station_id":"ce4bhu92rcd13ifvqi70","pricing_plan_id":"cebpf4jnsgd1na2vs0mg"},{"bike_id":"06c10839-75c7-457b-804b-f341157fb4f3","system_id":"levelo_inurba_marseille","lat":43.25065,"lon":5.40404,"is_reserved":false,"is_disabled":false,"rental_uris":{"android":"levelo://app?vid=06c10839-75c7-457b-804b-f341157fb4f3","ios":"levelo://app?vid=06c10839-75c7-457b-804b-f341157fb4f3"},"vehicle_type_id":"4","last_reported":1758712104,"current_range_meters":13600,"station_id":"","pricing_plan_id":"cebpf4jnsgd1na2vs0mg"},{"bike_id":"256d7e8b-6f10-45e7-998f-21b1a7616e67","system_id":"levelo_inurba_marseille","lat":43.29819,"lon":5.38085,"is_reserved":false,"is_disabled":false,"rental_uris":{"android":"levelo://app?vid=256d7e8b-6f10-45e7-998f-21b1a7616e67","ios":"levelo://app?vid=256d7e8b-6f10-45e7-998f-21b1a7616e67"},"vehicle_type_id":"4","last_reported":1758712104,"current_range_meters":13600,"station_id":"ce4bgip2rcd13ifvqbb0","pricing_plan_id":"cebpf4jnsgd1na2vs0mg"},{"bike_id":"90531cf1-c3c6-4374-9d7f-da4a9ea7fd92","system_id":"levelo_inurba_marseille","lat":43.29518,"lon":5.37534,"is_reserved":false,"is_disabled":false,"rental_uris":{"android":"levelo://app?vid=90531cf1-c3c6-4374-9d7f-da4a9ea7fd92","ios":"levelo://app?vid=90531cf1-c3c6-4374-9d7f-da4a9ea7fd92"},"vehicle_type_id":"4","last_reported":1758712104,"current_range_meters":13600,"station_id":"ce4bgkp2rcd13ifvqbmg","pricing_plan_id":"cebpf4jnsgd1na2vs0mg"},{"bike_id":"d68b9cdd-055c-48e6-b5c7-c6c683b923e5","system_id":"levelo_inurba_marseille","lat":43.28617,"lon":5.35106,"is_reserved":false,"is_disabled":true,"rental_uris":{"android":"levelo://app?vid=d68b9cdd-055c-48e6-b5c7-c6c683b923e5","ios":"levelo://app?vid=d68b9cdd-055c-48e6-b5c7-c6c683b923e5"},"vehicle_type_id":"4","last_reported":1758712104,"current_range_meters":13600,"station_id":"ce4bhch2rcd13ifvqeug","pricing_plan_id":"cebpf4jnsgd1na2vs0mg"},{"bike_id":"4db1eca4-1186-4a05-b235-77648f9355b8","system_id":"levelo_inurba_marseille","lat":43.308979,"lon":5.371897,"is_reserved":false,"is_disabled":false,"rental_uris":{"android":"levelo://app?vid=4db1eca4-1186-4a05-b235-77648f9355b8","ios":"levelo://app?vid=4db1eca4-1186-4a05-b235-77648f9355b8"},"vehicle_type_id":"4","last_reported":1758712104,"current_range_meters":13600,"station_id":"ce4bguh2rcd13ifvqckg","pricing_plan_id":"cebpf4jnsgd1na2vs0mg"},{"bike_id":"d09f6804-8dba-4b4d-a8bd-b85bcda5b37b","system_id":"levelo_inurba_marseille","lat":43.29028,"lon":5.38128,"is_reserved":false,"is_disabled":false,"rental_uris":{"android":"levelo://app?vid=d09f6804-8dba-4b4d-a8bd-b85bcda5b37b","ios":"levelo://app?vid=d09f6804-8dba-4b4d-a8bd-b85bcda5b37b"},"vehicle_type_id":"4","last_reported":1758712104,"current_range_meters":12800,"station_id":"ce4bh4p2rcd13ifvqe1g","pricing_plan_id":"cebpf4jnsgd1na2vs0mg"},{"bike_id":"8c0227e3-55e8-4994-aa0c-9b6ee99b7e26","system_id":"levelo_inurba_marseille","lat":43.23056,"lon":5.35494,"is_reserved":false,"is_disabled":false,"rental_uris":{"android":"levelo://app?vid=8c0227e3-55e8-4994-aa0c-9b6ee99b7e26","ios":"levelo://app?vid=8c0227e3-55e8-4994-aa0c-9b6ee99b7e26"},"vehicle_type_id":"4","last_reported":1758712104,"current_range_meters":14000,"station_id":"cpo3342slgdg3j2ifvpg","pricing_plan_id":"cebpf4jnsgd1na2vs0mg"},{"bike_id":"2d4006e7-21c9-43f0-a094-fcaaa7f929b9","system_id":"levelo_inurba_marseille","lat":43.30546,"lon":5.36534,"is_reserved":false,"is_disabled":false,"rental_uris":{"android":"levelo://app?vid=2d4006e7-21c9-43f0-a094-fcaaa7f929b9","ios":"levelo://app?vid=2d4006e7-21c9-43f0-a094-fcaaa7f929b9"},"vehicle_type_id":"4","last_reported":1758712104,"current_range_meters":14000,"station_id":"ce4bgs12rcd13ifvqcag","pricing_plan_id":"cebpf4jnsgd1na2vs0mg"},{"bike_id":"7016a36e-53af-46e1-9db4-753ecc7f313e","system_id":"levelo_inurba_marseille","lat":43.23172,"lon":5.39994,"is_reserved":false,"is_disabled":false,"rental_uris":{"android":"levelo://app?vid=7016a36e-53af-46e1-9db4-753ecc7f313e","ios":"levelo://app?vid=7016a36e-53af-46e1-9db4-753ecc7f313e"},"vehicle_type_id":"4","last_reported":1758712104,"current_range_meters":14000,"station_id":"ce4bhn12rcd13ifvqgqg","pricing_plan_id":"cebpf4jnsgd1na2vs0mg"},{"bike_id":"528c3ca2-6e69-4088-b13a-99bd3c7e415f","system_id":"levelo_inurba_marseille","lat":43.23194,"lon":5.3997,"is_reserved":false,"is_disabled":false,"rental_uris":{"android":"levelo://app?vid=528c3ca2-6e69-4088-b13a-99bd3c7e415f","ios":"levelo://app?vid=528c3ca2-6e69-4088-b13a-99bd3c7e415f"},"vehicle_type_id":"4","last_reported":1758712104,"current_range_meters":14000,"station_id":"ce4bhn12rcd13ifvqgqg","pricing_plan_id":"cebpf4jnsgd1na2vs0mg"},{"bike_id":"42df90c8-bd87-437c-acd9-41fef02b6120","system_id":"levelo_inurba_marseille","lat":43.29578,"lon":5.36746,"is_reserved":false,"is_disabled":false,"rental_uris":{"android":"levelo://app?vid=42df90c8-bd87-437c-acd9-41fef02b6120","ios":"levelo://app?vid=42df90c8-bd87-437c-acd9-41fef02b6120"},"vehicle_type_id":"4","last_reported":1758712104,"current_range_meters":13600,"station_id":"ce4bgph2rcd13ifvqc2g","pricing_plan_id":"cebpf4jnsgd1na2vs0mg"},{"bike_id":"52094713-4280-421b-b417-fe5c844f4daa","system_id":"levelo_inurba_marseille","lat":43.25109,"lon":5.40321,"is_reserved":false,"is_disabled":false,"rental_uris":{"android":"levelo://app?vid=52094713-4280-421b-b417-fe5c844f4daa","ios":"levelo://app?vid=52094713-4280-421b-b417-fe5c844f4daa"},"vehicle_type_id":"4","last_reported":1758712104,"current_range_meters":14400,"station_id":"ce4bhlh2rcd13ifvqgig","pricing_plan_id":"cebpf4jnsgd1na2vs0mg"},{"bike_id":"51e1a42c-84f4-4314-bbde-85d95d9cc645","system_id":"levelo_inurba_marseille","lat":43.253487,"lon":5.421853,"is_reserved":false,"is_disabled":false,"rental_uris":{"android":"levelo://app?vid=51e1a42c-84f4-4314-bbde-85d95d9cc645","ios":"levelo://app?vid=51e1a42c-84f4-4314-bbde-85d95d9cc645"},"vehicle_type_id":"4","last_reported":1758712104,"current_range_meters":14400,"station_id":"st_d2m65c5bi1j21697t3ng","pricing_plan_id":"cebpf4jnsgd1na2vs0mg"},{"bike_id":"b48e70b2-53f1-4641-819c-a53cac59b8ed","system_id":"levelo_inurba_marseille","lat":43.258241,"lon":5.39439,"is_reserved":false,"is_disabled":false,"rental_uris":{"android":"levelo://app?vid=b48e70b2-53f1-4641-819c-a53cac59b8ed","ios":"levelo://app?vid=b48e70b2-53f1-4641-819c-a53cac59b8ed"},"vehicle_type_id":"4","last_reported":1758712104,"current_range_meters":14400,"station_id":"ce4bhip2rcd13ifvqft0","pricing_plan_id":"cebpf4jnsgd1na2vs0mg"},{"bike_id":"398fef7f-c52c-464b-b837-db7db0e2602a","system_id":"levelo_inurba_marseille","lat":43.25334,"lon":5.42175,"is_reserved":false,"is_disabled":false,"rental_uris":{"android":"levelo://app?vid=398fef7f-c52c-464b-b837-db7db0e2602a","ios":"levelo://app?vid=398fef7f-c52c-464b-b837-db7db0e2602a"},"vehicle_type_id":"4","last_reported":1758712104,"current_range_meters":14400,"station_id":"st_d2m65c5bi1j21697t3ng","pricing_plan_id":"cebpf4jnsgd1na2vs0mg"},{"bike_id":"36b070bb-df09-4433-b99c-aab79ada22d5","system_id":"levelo_inurba_marseille","lat":43.29287,"lon":5.3744,"is_reserved":false,"is_disabled":false,"rental_uris":{"android":"levelo://app?vid=36b070bb-df09-4433-b99c-aab79ada22d5","ios":"levelo://app?vid=36b070bb-df09-4433-b99c-aab79ada22d5"},"vehicle_type_id":"4","last_reported":1758712104,"current_range_meters":14400,"station_id":"","pricing_plan_id":"cebpf4jnsgd1na2vs0mg"},{"bike_id":"8c28d318-3390-424f-8782-21566cc89608","system_id":"levelo_inurba_marseille","lat":43.28625,"lon":5.35104,"is_reserved":false,"is_disabled":false,"rental_uris":{"android":"levelo://app?vid=8c28d318-3390-424f-8782-21566cc89608","ios":"levelo://app?vid=8c28d318-3390-424f-8782-21566cc89608"},"vehicle_type_id":"4","last_reported":1758712104,"current_range_meters":14800,"station_id":"ce4bhch2rcd13ifvqeug","pricing_plan_id":"cebpf4jnsgd1na2vs0mg"},{"bike_id":"ef00c611-56e3-4d87-83a8-6fad9627913a","system_id":"levelo_inurba_marseille","lat":43.308894,"lon":5.371943,"is_reserved":false,"is_disabled":false,"rental_uris":{"android":"levelo://app?vid=ef00c611-56e3-4d87-83a8-6fad9627913a","ios":"levelo://app?vid=ef00c611-56e3-4d87-83a8-6fad9627913a"},"vehicle_type_id":"4","last_reported":1758712104,"current_range_meters":14800,"station_id":"ce4bguh2rcd13ifvqckg","pricing_plan_id":"cebpf4jnsgd1na2vs0mg"},{"bike_id":"76370433-af30-4cf1-b20d-bbfe094b2f65","system_id":"levelo_inurba_marseille","lat":43.28349,"lon":5.38632,"is_reserved":false,"is_disabled":false,"rental_uris":{"android":"levelo://app?vid=76370433-af30-4cf1-b20d-bbfe094b2f65","ios":"levelo://app?vid=76370433-af30-4cf1-b20d-bbfe094b2f65"},"vehicle_type_id":"4","last_reported":1758712104,"current_range_meters":14800,"station_id":"ce4bh492rcd13ifvqdvg","pricing_plan_id":"cebpf4jnsgd1na2vs0mg"},{"bike_id":"fa32ac66-1868-4621-9603-33ed57153ba3","system_id":"levelo_inurba_marseille","lat":43.29991,"lon":5.40109,"is_reserved":false,"is_disabled":false,"rental_uris":{"android":"levelo://app?vid=fa32ac66-1868-4621-9603-33ed57153ba3","ios":"levelo://app?vid=fa32ac66-1868-4621-9603-33ed57153ba3"},"vehicle_type_id":"4","last_reported":1758712104,"current_range_meters":14800,"station_id":"","pricing_plan_id":"cebpf4jnsgd1na2vs0mg"},{"bike_id":"a851cae0-b395-441e-9dd1-21300baf3396","system_id":"levelo_inurba_marseille","lat":43.31512,"lon":5.3871,"is_reserved":false,"is_disabled":false,"rental_uris":{"android":"levelo://app?vid=a851cae0-b395-441e-9dd1-21300baf3396","ios":"levelo://app?vid=a851cae0-b395-441e-9dd1-21300baf3396"},"vehicle_type_id":"4","last_reported":1758712104,"current_range_meters":14800,"station_id":"","pricing_plan_id":"cebpf4jnsgd1na2vs0mg"},{"bike_id":"212de2eb-8bbc-413c-b204-9fe1facd76e8","system_id":"levelo_inurba_marseille","lat":43.31288,"lon":5.3776,"is_reserved":false,"is_disabled":false,"rental_uris":{"android":"levelo://app?vid=212de2eb-8bbc-413c-b204-9fe1facd76e8","ios":"levelo://app?vid=212de2eb-8bbc-413c-b204-9fe1facd76e8"},"vehicle_type_id":"4","last_reported":1758712104,"current_range_meters":14800,"station_id":"","pricing_plan_id":"cebpf4jnsgd1na2vs0mg"},{"bike_id":"6087dc09-59ce-426a-9057-b3f19c230263","system_id":"levelo_inurba_marseille","lat":43.30299,"lon":5.39215,"is_reserved":false,"is_disabled":false,"rental_uris":{"android":"levelo://app?vid=6087dc09-59ce-426a-9057-b3f19c230263","ios":"levelo://app?vid=6087dc09-59ce-426a-9057-b3f19c230263"},"vehicle_type_id":"4","last_reported":1758712104,"current_range_meters":15200,"station_id":"ce4bgkh2rcd13ifvqbk0","pricing_plan_id":"cebpf4jnsgd1na2vs0mg"},{"bike_id":"0a20d804-6f6a-4973-92f6-3477bb40124f","system_id":"levelo_inurba_marseille","lat":43.29166,"lon":5.37156,"is_reserved":false,"is_disabled":false,"rental_uris":{"android":"levelo://app?vid=0a20d804-6f6a-4973-92f6-3477bb40124f","ios":"levelo://app?vid=0a20d804-6f6a-4973-92f6-3477bb40124f"},"vehicle_type_id":"4","last_reported":1758712104,"current_range_meters":14800,"station_id":"ce4bha92rcd13ifvqeh0","pricing_plan_id":"cebpf4jnsgd1na2vs0mg"},{"bike_id":"b13cd453-3918-4f63-b150-c7c4848f3598","system_id":"levelo_inurba_marseille","lat":43.29537,"lon":5.39043,"is_reserved":false,"is_disabled":false,"rental_uris":{"android":"levelo://app?vid=b13cd453-3918-4f63-b150-c7c4848f3598","ios":"levelo://app?vid=b13cd453-3918-4f63-b150-c7c4848f3598"},"vehicle_type_id":"4","last_reported":1758712104,"current_range_meters":15200,"station_id":"ce4bh3p2rcd13ifvqdp0","pricing_plan_id":"cebpf4jnsgd1na2vs0mg"},{"bike_id":"471d428b-a1cc-48cc-aa9b-ee0de71e0d1c","system_id":"levelo_inurba_marseille","lat":43.30539,"lon":5.36544,"is_reserved":false,"is_disabled":false,"rental_uris":{"android":"levelo://app?vid=471d428b-a1cc-48cc-aa9b-ee0de71e0d1c","ios":"levelo://app?vid=471d428b-a1cc-48cc-aa9b-ee0de71e0d1c"},"vehicle_type_id":"4","last_reported":1758712104,"current_range_meters":16000,"station_id":"ce4bgs12rcd13ifvqcag","pricing_plan_id":"cebpf4jnsgd1na2vs0mg"},{"bike_id":"3cb1dae7-6bcd-41e5-b1b7-c1d25c751a99","system_id":"levelo_inurba_marseille","lat":43.337594,"lon":5.374419,"is_reserved":false,"is_disabled":false,"rental_uris":{"android":"levelo://app?vid=3cb1dae7-6bcd-41e5-b1b7-c1d25c751a99","ios":"levelo://app?vid=3cb1dae7-6bcd-41e5-b1b7-c1d25c751a99"},"vehicle_type_id":"4","last_reported":1758712104,"current_range_meters":16000,"station_id":"","pricing_plan_id":"cebpf4jnsgd1na2vs0mg"},{"bike_id":"57b14c92-2a17-45b3-beb1-cbb460ef441b","system_id":"levelo_inurba_marseille","lat":43.23199,"lon":5.39992,"is_reserved":false,"is_disabled":false,"rental_uris":{"android":"levelo://app?vid=57b14c92-2a17-45b3-beb1-cbb460ef441b","ios":"levelo://app?vid=57b14c92-2a17-45b3-beb1-cbb460ef441b"},"vehicle_type_id":"4","last_reported":1758712104,"current_range_meters":16000,"station_id":"ce4bhn12rcd13ifvqgqg","pricing_plan_id":"cebpf4jnsgd1na2vs0mg"},{"bike_id":"3263e4cb-8aa9-4e97-bfdf-a630561b5c61","system_id":"levelo_inurba_marseille","lat":43.29343,"lon":5.37846,"is_reserved":false,"is_disabled":false,"rental_uris":{"android":"levelo://app?vid=3263e4cb-8aa9-4e97-bfdf-a630561b5c61","ios":"levelo://app?vid=3263e4cb-8aa9-4e97-bfdf-a630561b5c61"},"vehicle_type_id":"4","last_reported":1758712104,"current_range_meters":16000,"station_id":"ce4bgjh2rcd13ifvqbf0","pricing_plan_id":"cebpf4jnsgd1na2vs0mg"},{"bike_id":"e19472f1-87e0-4943-97f3-e785d2a10054","system_id":"levelo_inurba_marseille","lat":43.28868,"lon":5.42519,"is_reserved":false,"is_disabled":false,"rental_uris":{"android":"levelo://app?vid=e19472f1-87e0-4943-97f3-e785d2a10054","ios":"levelo://app?vid=e19472f1-87e0-4943-97f3-e785d2a10054"},"vehicle_type_id":"4","last_reported":1758712104,"current_range_meters":16000,"station_id":"","pricing_plan_id":"cebpf4jnsgd1na2vs0mg"},{"bike_id":"2101ae46-8462-4c6e-915a-2b94ae7aab06","system_id":"levelo_inurba_marseille","lat":43.28977,"lon":5.37837,"is_reserved":false,"is_disabled":false,"rental_uris":{"android":"levelo://app?vid=2101ae46-8462-4c6e-915a-2b94ae7aab06","ios":"levelo://app?vid=2101ae46-8462-4c6e-915a-2b94ae7aab06"},"vehicle_type_id":"4","last_reported":1758712104,"current_range_meters":16000,"station_id":"ce4bh9p2rcd13ifvqed0","pricing_plan_id":"cebpf4jnsgd1na2vs0mg"},{"bike_id":"e2017298-7010-4fcc-9644-9ccfb0f46125","system_id":"levelo_inurba_marseille","lat":43.30113,"lon":5.41518,"is_reserved":false,"is_disabled":false,"rental_uris":{"android":"levelo://app?vid=e2017298-7010-4fcc-9644-9ccfb0f46125","ios":"levelo://app?vid=e2017298-7010-4fcc-9644-9ccfb0f46125"},"vehicle_type_id":"4","last_reported":1758712104,"current_range_meters":16000,"station_id":"","pricing_plan_id":"cebpf4jnsgd1na2vs0mg"},{"bike_id":"5b3f4679-a01b-4c59-917e-d9b1ffc85347","system_id":"levelo_inurba_marseille","lat":43.292962,"lon":5.374675,"is_reserved":false,"is_disabled":false,"rental_uris":{"android":"levelo://app?vid=5b3f4679-a01b-4c59-917e-d9b1ffc85347","ios":"levelo://app?vid=5b3f4679-a01b-4c59-917e-d9b1ffc85347"},"vehicle_type_id":"4","last_reported":1758712104,"current_range_meters":16400,"station_id":"ce4bgi12rcd13ifvqb70","pricing_plan_id":"cebpf4jnsgd1na2vs0mg"},{"bike_id":"d9e1888b-5c06-4823-924b-a03611151086","system_id":"levelo_inurba_marseille","lat":43.28655,"lon":5.35058,"is_reserved":false,"is_disabled":false,"rental_uris":{"android":"levelo://app?vid=d9e1888b-5c06-4823-924b-a03611151086","ios":"levelo://app?vid=d9e1888b-5c06-4823-924b-a03611151086"},"vehicle_type_id":"4","last_reported":1758712104,"current_range_meters":16400,"station_id":"ce4bhch2rcd13ifvqeug","pricing_plan_id":"cebpf4jnsgd1na2vs0mg"},{"bike_id":"4f783a2b-1099-4a06-a797-a2a6ae84343d","system_id":"levelo_inurba_marseille","lat":43.27673,"lon":5.38873,"is_reserved":false,"is_disabled":false,"rental_uris":{"android":"levelo://app?vid=4f783a2b-1099-4a06-a797-a2a6ae84343d","ios":"levelo://app?vid=4f783a2b-1099-4a06-a797-a2a6ae84343d"},"vehicle_type_id":"4","last_reported":1758712104,"current_range_meters":16400,"station_id":"ce4bhi12rcd13ifvqfo0","pricing_plan_id":"cebpf4jnsgd1na2vs0mg"},{"bike_id":"002673c7-e49b-40c2-82da-6cf2f4393eb8","system_id":"levelo_inurba_marseille","lat":43.30461,"lon":5.37901,"is_reserved":false,"is_disabled":true,"rental_uris":{"android":"levelo://app?vid=002673c7-e49b-40c2-82da-6cf2f4393eb8","ios":"levelo://app?vid=002673c7-e49b-40c2-82da-6cf2f4393eb8"},"vehicle_type_id":"4","last_reported":1758712104,"current_range_meters":16400,"station_id":"ce4bgup2rcd13ifvqcn0","pricing_plan_id":"cebpf4jnsgd1na2vs0mg"},{"bike_id":"178af37d-dd54-4cf7-b80a-b996e0f2a163","system_id":"levelo_inurba_marseille","lat":43.21208,"lon":5.35079,"is_reserved":false,"is_disabled":false,"rental_uris":{"android":"levelo://app?vid=178af37d-dd54-4cf7-b80a-b996e0f2a163","ios":"levelo://app?vid=178af37d-dd54-4cf7-b80a-b996e0f2a163"},"vehicle_type_id":"4","last_reported":1758712104,"current_range_meters":16400,"station_id":"st_cvj6sg6p6f1abm77japg","pricing_plan_id":"cebpf4jnsgd1na2vs0mg"},{"bike_id":"50c03ce7-6089-4ca2-9f23-f4c8c568a597","system_id":"levelo_inurba_marseille","lat":43.33783,"lon":5.37419,"is_reserved":false,"is_disabled":false,"rental_uris":{"android":"levelo://app?vid=50c03ce7-6089-4ca2-9f23-f4c8c568a597","ios":"levelo://app?vid=50c03ce7-6089-4ca2-9f23-f4c8c568a597"},"vehicle_type_id":"4","last_reported":1758712104,"current_range_meters":16400,"station_id":"","pricing_plan_id":"cebpf4jnsgd1na2vs0mg"},{"bike_id":"d2be082e-bd73-4203-addb-18871b3a9587","system_id":"levelo_inurba_marseille","lat":43.29427,"lon":5.37475,"is_reserved":false,"is_disabled":false,"rental_uris":{"android":"levelo://app?vid=d2be082e-bd73-4203-addb-18871b3a9587","ios":"levelo://app?vid=d2be082e-bd73-4203-addb-18871b3a9587"},"vehicle_type_id":"4","last_reported":1758712104,"current_range_meters":16400,"station_id":"","pricing_plan_id":"cebpf4jnsgd1na2vs0mg"},{"bike_id":"61dac284-ed12-40f7-87d4-2a4b14a01811","system_id":"levelo_inurba_marseille","lat":43.30147,"lon":5.38072,"is_reserved":false,"is_disabled":false,"rental_uris":{"android":"levelo://app?vid=61dac284-ed12-40f7-87d4-2a4b14a01811","ios":"levelo://app?vid=61dac284-ed12-40f7-87d4-2a4b14a01811"},"vehicle_type_id":"4","last_reported":1758712104,"current_range_meters":16400,"station_id":"ce4bgjp2rcd13ifvqbh0","pricing_plan_id":"cebpf4jnsgd1na2vs0mg"},{"bike_id":"b35e17b5-5146-4002-8489-7191bbb0b4d8","system_id":"levelo_inurba_marseille","lat":43.23159,"lon":5.43691,"is_reserved":false,"is_disabled":false,"rental_uris":{"android":"levelo://app?vid=b35e17b5-5146-4002-8489-7191bbb0b4d8","ios":"levelo://app?vid=b35e17b5-5146-4002-8489-7191bbb0b4d8"},"vehicle_type_id":"4","last_reported":1758712104,"current_range_meters":16400,"station_id":"ce4bhmp2rcd13ifvqgog","pricing_plan_id":"cebpf4jnsgd1na2vs0mg"},{"bike_id":"c7f6a08b-c655-4213-b2ba-7d02e7f382fe","system_id":"levelo_inurba_marseille","lat":43.27988,"lon":5.39483,"is_reserved":false,"is_disabled":false,"rental_uris":{"android":"levelo://app?vid=c7f6a08b-c655-4213-b2ba-7d02e7f382fe","ios":"levelo://app?vid=c7f6a08b-c655-4213-b2ba-7d02e7f382fe"},"vehicle_type_id":"4","last_reported":1758712104,"current_range_meters":16400,"station_id":"","pricing_plan_id":"cebpf4jnsgd1na2vs0mg"},{"bike_id":"8c29ed20-d3eb-4ff9-b2fb-332a4c6e32f4","system_id":"levelo_inurba_marseille","lat":43.26679,"lon":5.38266,"is_reserved":false,"is_disabled":false,"rental_uris":{"android":"levelo://app?vid=8c29ed20-d3eb-4ff9-b2fb-332a4c6e32f4","ios":"levelo://app?vid=8c29ed20-d3eb-4ff9-b2fb-332a4c6e32f4"},"vehicle_type_id":"4","last_reported":1758712104,"current_range_meters":16800,"station_id":"ce4bhg92rcd13ifvqf90","pricing_plan_id":"cebpf4jnsgd1na2vs0mg"},{"bike_id":"6e28c473-43c7-4359-9768-11e494b67b04","system_id":"levelo_inurba_marseille","lat":43.27085,"lon":5.42254,"is_reserved":false,"is_disabled":false,"rental_uris":{"android":"levelo://app?vid=6e28c473-43c7-4359-9768-11e494b67b04","ios":"levelo://app?vid=6e28c473-43c7-4359-9768-11e494b67b04"},"vehicle_type_id":"4","last_reported":1758712104,"current_range_meters":16800,"station_id":"ce4bhk92rcd13ifvqgb0","pricing_plan_id":"cebpf4jnsgd1na2vs0mg"},{"bike_id":"8eae954c-dab6-4303-94f5-569e1c483f62","system_id":"levelo_inurba_marseille","lat":43.29445,"lon":5.40746,"is_reserved":false,"is_disabled":false,"rental_uris":{"android":"levelo://app?vid=8eae954c-dab6-4303-94f5-569e1c483f62","ios":"levelo://app?vid=8eae954c-dab6-4303-94f5-569e1c483f62"},"vehicle_type_id":"4","last_reported":1758712104,"current_range_meters":16800,"station_id":"","pricing_plan_id":"cebpf4jnsgd1na2vs0mg"},{"bike_id":"e3c3ba7e-cc3d-4c3b-859d-d06270b85562","system_id":"levelo_inurba_marseille","lat":43.27213,"lon":5.39156,"is_reserved":false,"is_disabled":false,"rental_uris":{"android":"levelo://app?vid=e3c3ba7e-cc3d-4c3b-859d-d06270b85562","ios":"levelo://app?vid=e3c3ba7e-cc3d-4c3b-859d-d06270b85562"},"vehicle_type_id":"4","last_reported":1758712104,"current_range_meters":16800,"station_id":"ce4bhhp2rcd13ifvqfm0","pricing_plan_id":"cebpf4jnsgd1na2vs0mg"},{"bike_id":"129c8450-4cca-4e9f-b9f6-538b0080ad49","system_id":"levelo_inurba_marseille","lat":43.3255,"lon":5.38909,"is_reserved":false,"is_disabled":false,"rental_uris":{"android":"levelo://app?vid=129c8450-4cca-4e9f-b9f6-538b0080ad49","ios":"levelo://app?vid=129c8450-4cca-4e9f-b9f6-538b0080ad49"},"vehicle_type_id":"4","last_reported":1758712104,"current_range_meters":16800,"station_id":"","pricing_plan_id":"cebpf4jnsgd1na2vs0mg"},{"bike_id":"c18fce12-59e3-4601-ad93-bc3439adec6d","system_id":"levelo_inurba_marseille","lat":43.28844,"lon":5.388755,"is_reserved":false,"is_disabled":false,"rental_uris":{"android":"levelo://app?vid=c18fce12-59e3-4601-ad93-bc3439adec6d","ios":"levelo://app?vid=c18fce12-59e3-4601-ad93-bc3439adec6d"},"vehicle_type_id":"4","last_reported":1758712104,"current_range_meters":16800,"station_id":"","pricing_plan_id":"cebpf4jnsgd1na2vs0mg"},{"bike_id":"9a61de29-401d-4fe5-a955-dcca833da3d6","system_id":"levelo_inurba_marseille","lat":43.28156,"lon":5.42646,"is_reserved":false,"is_disabled":false,"rental_uris":{"android":"levelo://app?vid=9a61de29-401d-4fe5-a955-dcca833da3d6","ios":"levelo://app?vid=9a61de29-401d-4fe5-a955-dcca833da3d6"},"vehicle_type_id":"4","last_reported":1758712104,"current_range_meters":16800,"station_id":"ce4bhnh2rcd13ifvqgug","pricing_plan_id":"cebpf4jnsgd1na2vs0mg"},{"bike_id":"8d866a0f-e0cb-47c2-aa24-8abc9656ee3b","system_id":"levelo_inurba_marseille","lat":43.32365,"lon":5.38889,"is_reserved":false,"is_disabled":false,"rental_uris":{"android":"levelo://app?vid=8d866a0f-e0cb-47c2-aa24-8abc9656ee3b","ios":"levelo://app?vid=8d866a0f-e0cb-47c2-aa24-8abc9656ee3b"},"vehicle_type_id":"4","last_reported":1758712104,"current_range_meters":16800,"station_id":"ce4bhqp2rcd13ifvqhog","pricing_plan_id":"cebpf4jnsgd1na2vs0mg"},{"bike_id":"9694f9de-f975-4398-9649-a0c6eaf0b55c","system_id":"levelo_inurba_marseille","lat":43.31057,"lon":5.38361,"is_reserved":false,"is_disabled":false,"rental_uris":{"android":"levelo://app?vid=9694f9de-f975-4398-9649-a0c6eaf0b55c","ios":"levelo://app?vid=9694f9de-f975-4398-9649-a0c6eaf0b55c"},"vehicle_type_id":"4","last_reported":1758712104,"current_range_meters":17200,"station_id":"ce4bgv92rcd13ifvqcr0","pricing_plan_id":"cebpf4jnsgd1na2vs0mg"},{"bike_id":"c466a28d-fba0-4329-ba12-a130eb482e2c","system_id":"levelo_inurba_marseille","lat":43.30143,"lon":5.38067,"is_reserved":false,"is_disabled":false,"rental_uris":{"android":"levelo://app?vid=c466a28d-fba0-4329-ba12-a130eb482e2c","ios":"levelo://app?vid=c466a28d-fba0-4329-ba12-a130eb482e2c"},"vehicle_type_id":"4","last_reported":1758712104,"current_range_meters":17200,"station_id":"ce4bgjp2rcd13ifvqbh0","pricing_plan_id":"cebpf4jnsgd1na2vs0mg"},{"bike_id":"0e9ca394-4351-4bf8-a641-f4e5215baf20","system_id":"levelo_inurba_marseille","lat":43.2829,"lon":5.35059,"is_reserved":false,"is_disabled":false,"rental_uris":{"android":"levelo://app?vid=0e9ca394-4351-4bf8-a641-f4e5215baf20","ios":"levelo://app?vid=0e9ca394-4351-4bf8-a641-f4e5215baf20"},"vehicle_type_id":"4","last_reported":1758712104,"current_range_meters":17200,"station_id":"ce4bhbp2rcd13ifvqerg","pricing_plan_id":"cebpf4jnsgd1na2vs0mg"},{"bike_id":"16a3e31e-14e7-462a-a681-b9bd4b981754","system_id":"levelo_inurba_marseille","lat":43.30561,"lon":5.36521,"is_reserved":false,"is_disabled":false,"rental_uris":{"android":"levelo://app?vid=16a3e31e-14e7-462a-a681-b9bd4b981754","ios":"levelo://app?vid=16a3e31e-14e7-462a-a681-b9bd4b981754"},"vehicle_type_id":"4","last_reported":1758712104,"current_range_meters":17200,"station_id":"ce4bgs12rcd13ifvqcag","pricing_plan_id":"cebpf4jnsgd1na2vs0mg"},{"bike_id":"8a828295-28e2-4f47-bc01-1374c80f32a1","system_id":"levelo_inurba_marseille","lat":43.23948,"lon":5.3664,"is_reserved":false,"is_disabled":false,"rental_uris":{"android":"levelo://app?vid=8a828295-28e2-4f47-bc01-1374c80f32a1","ios":"levelo://app?vid=8a828295-28e2-4f47-bc01-1374c80f32a1"},"vehicle_type_id":"4","last_reported":1758712104,"current_range_meters":17600,"station_id":"ce4bhi12rcd13ifvqfp0","pricing_plan_id":"cebpf4jnsgd1na2vs0mg"},{"bike_id":"cdd9250b-20c0-48e2-b45b-56204b8135aa","system_id":"levelo_inurba_marseille","lat":43.30257,"lon":5.37678,"is_reserved":false,"is_disabled":false,"rental_uris":{"android":"levelo://app?vid=cdd9250b-20c0-48e2-b45b-56204b8135aa","ios":"levelo://app?vid=cdd9250b-20c0-48e2-b45b-56204b8135aa"},"vehicle_type_id":"4","last_reported":1758712104,"current_range_meters":17600,"station_id":"ce4bguh2rcd13ifvqcj0","pricing_plan_id":"cebpf4jnsgd1na2vs0mg"},{"bike_id":"9394b8e5-d5ae-4b30-867f-3e4de076758b","system_id":"levelo_inurba_marseille","lat":43.29939,"lon":5.36549,"is_reserved":false,"is_disabled":false,"rental_uris":{"android":"levelo://app?vid=9394b8e5-d5ae-4b30-867f-3e4de076758b","ios":"levelo://app?vid=9394b8e5-d5ae-4b30-867f-3e4de076758b"},"vehicle_type_id":"4","last_reported":1758712104,"current_range_meters":17600,"station_id":"ce4bgm92rcd13ifvqbr0","pricing_plan_id":"cebpf4jnsgd1na2vs0mg"},{"bike_id":"3bc4dd19-2936-4604-833a-f2eefdabc743","system_id":"levelo_inurba_marseille","lat":43.28697,"lon":5.3999,"is_reserved":false,"is_disabled":false,"rental_uris":{"android":"levelo://app?vid=3bc4dd19-2936-4604-833a-f2eefdabc743","ios":"levelo://app?vid=3bc4dd19-2936-4604-833a-f2eefdabc743"},"vehicle_type_id":"4","last_reported":1758712104,"current_range_meters":17600,"station_id":"ce4bho92rcd13ifvqh3g","pricing_plan_id":"cebpf4jnsgd1na2vs0mg"},{"bike_id":"2bd2a176-8590-4e06-8b8c-a96b49b7b36a","system_id":"levelo_inurba_marseille","lat":43.262237,"lon":5.404538,"is_reserved":false,"is_disabled":false,"rental_uris":{"android":"levelo://app?vid=2bd2a176-8590-4e06-8b8c-a96b49b7b36a","ios":"levelo://app?vid=2bd2a176-8590-4e06-8b8c-a96b49b7b36a"},"vehicle_type_id":"4","last_reported":1758712104,"current_range_meters":17600,"station_id":"","pricing_plan_id":"cebpf4jnsgd1na2vs0mg"},{"bike_id":"6ce97256-6e29-4ee4-b817-ac92bdd5aea1","system_id":"levelo_inurba_marseille","lat":43.22534,"lon":5.34835,"is_reserved":false,"is_disabled":false,"rental_uris":{"android":"levelo://app?vid=6ce97256-6e29-4ee4-b817-ac92bdd5aea1","ios":"levelo://app?vid=6ce97256-6e29-4ee4-b817-ac92bdd5aea1"},"vehicle_type_id":"4","last_reported":1758712104,"current_range_meters":17600,"station_id":"","pricing_plan_id":"cebpf4jnsgd1na2vs0mg"},{"bike_id":"16d9a464-95f6-4241-939a-8d28eb548d4d","system_id":"levelo_inurba_marseille","lat":43.28634,"lon":5.35093,"is_reserved":false,"is_disabled":true,"rental_uris":{"android":"levelo://app?vid=16d9a464-95f6-4241-939a-8d28eb548d4d","ios":"levelo://app?vid=16d9a464-95f6-4241-939a-8d28eb548d4d"},"vehicle_type_id":"4","last_reported":1758712104,"current_range_meters":17600,"station_id":"ce4bhch2rcd13ifvqeug","pricing_plan_id":"cebpf4jnsgd1na2vs0mg"},{"bike_id":"16ab9aa7-4870-4134-9047-a35462a181f4","system_id":"levelo_inurba_marseille","lat":43.30951,"lon":5.39042,"is_reserved":false,"is_disabled":false,"rental_uris":{"android":"levelo://app?vid=16ab9aa7-4870-4134-9047-a35462a181f4","ios":"levelo://app?vid=16ab9aa7-4870-4134-9047-a35462a181f4"},"vehicle_type_id":"4","last_reported":1758712104,"current_range_meters":17600,"station_id":"ce4bgup2rcd13ifvqco0","pricing_plan_id":"cebpf4jnsgd1na2vs0mg"},{"bike_id":"c5e35d50-1334-4251-9e23-b568a1a449ad","system_id":"levelo_inurba_marseille","lat":43.30301,"lon":5.37703,"is_reserved":false,"is_disabled":false,"rental_uris":{"android":"levelo://app?vid=c5e35d50-1334-4251-9e23-b568a1a449ad","ios":"levelo://app?vid=c5e35d50-1334-4251-9e23-b568a1a449ad"},"vehicle_type_id":"4","last_reported":1758712104,"current_range_meters":17600,"station_id":"ce4bguh2rcd13ifvqcj0","pricing_plan_id":"cebpf4jnsgd1na2vs0mg"},{"bike_id":"a6ad0c6c-868d-42f3-ba54-573e1a175a36","system_id":"levelo_inurba_marseille","lat":43.26258,"lon":5.41307,"is_reserved":false,"is_disabled":false,"rental_uris":{"android":"levelo://app?vid=a6ad0c6c-868d-42f3-ba54-573e1a175a36","ios":"levelo://app?vid=a6ad0c6c-868d-42f3-ba54-573e1a175a36"},"vehicle_type_id":"4","last_reported":1758712104,"current_range_meters":17600,"station_id":"","pricing_plan_id":"cebpf4jnsgd1na2vs0mg"},{"bike_id":"01e07cf5-8211-444c-b3c6-74aa7d15ada5","system_id":"levelo_inurba_marseille","lat":43.26576,"lon":5.38968,"is_reserved":false,"is_disabled":false,"rental_uris":{"android":"levelo://app?vid=01e07cf5-8211-444c-b3c6-74aa7d15ada5","ios":"levelo://app?vid=01e07cf5-8211-444c-b3c6-74aa7d15ada5"},"vehicle_type_id":"4","last_reported":1758712104,"current_range_meters":17600,"station_id":"ce4bhe12rcd13ifvqf30","pricing_plan_id":"cebpf4jnsgd1na2vs0mg"},{"bike_id":"ebbf5e87-efd9-496f-837e-e5eba67f4bb7","system_id":"levelo_inurba_marseille","lat":43.28976,"lon":5.37844,"is_reserved":false,"is_disabled":false,"rental_uris":{"android":"levelo://app?vid=ebbf5e87-efd9-496f-837e-e5eba67f4bb7","ios":"levelo://app?vid=ebbf5e87-efd9-496f-837e-e5eba67f4bb7"},"vehicle_type_id":"4","last_reported":1758712104,"current_range_meters":18000,"station_id":"ce4bh9p2rcd13ifvqed0","pricing_plan_id":"cebpf4jnsgd1na2vs0mg"},{"bike_id":"003515e8-8117-44bb-979d-5f47e8d50fda","system_id":"levelo_inurba_marseille","lat":43.3063,"lon":5.37558,"is_reserved":false,"is_disabled":false,"rental_uris":{"android":"levelo://app?vid=003515e8-8117-44bb-979d-5f47e8d50fda","ios":"levelo://app?vid=003515e8-8117-44bb-979d-5f47e8d50fda"},"vehicle_type_id":"4","last_reported":1758712104,"current_range_meters":18000,"station_id":"","pricing_plan_id":"cebpf4jnsgd1na2vs0mg"},{"bike_id":"5b2e4301-8a04-44b6-bb74-5f97ee4e1633","system_id":"levelo_inurba_marseille","lat":43.25935,"lon":5.40882,"is_reserved":false,"is_disabled":false,"rental_uris":{"android":"levelo://app?vid=5b2e4301-8a04-44b6-bb74-5f97ee4e1633","ios":"levelo://app?vid=5b2e4301-8a04-44b6-bb74-5f97ee4e1633"},"vehicle_type_id":"4","last_reported":1758712104,"current_range_meters":18000,"station_id":"ce4bhm92rcd13ifvqglg","pricing_plan_id":"cebpf4jnsgd1na2vs0mg"},{"bike_id":"e8e0a80f-25dc-47ab-ae8b-3cbce8fbad61","system_id":"levelo_inurba_marseille","lat":43.24161,"lon":5.3972,"is_reserved":false,"is_disabled":false,"rental_uris":{"android":"levelo://app?vid=e8e0a80f-25dc-47ab-ae8b-3cbce8fbad61","ios":"levelo://app?vid=e8e0a80f-25dc-47ab-ae8b-3cbce8fbad61"},"vehicle_type_id":"4","last_reported":1758712104,"current_range_meters":18000,"station_id":"ce4bhn12rcd13ifvqgpg","pricing_plan_id":"cebpf4jnsgd1na2vs0mg"},{"bike_id":"7f26efef-5bca-4964-9649-a135cb9baf4f","system_id":"levelo_inurba_marseille","lat":43.25092,"lon":5.39506,"is_reserved":false,"is_disabled":false,"rental_uris":{"android":"levelo://app?vid=7f26efef-5bca-4964-9649-a135cb9baf4f","ios":"levelo://app?vid=7f26efef-5bca-4964-9649-a135cb9baf4f"},"vehicle_type_id":"4","last_reported":1758712104,"current_range_meters":18000,"station_id":"ce4bhm12rcd13ifvqgkg","pricing_plan_id":"cebpf4jnsgd1na2vs0mg"},{"bike_id":"5f4d0142-afdf-4341-bf7d-225c7379b41f","system_id":"levelo_inurba_marseille","lat":43.25113,"lon":5.40317,"is_reserved":false,"is_disabled":false,"rental_uris":{"android":"levelo://app?vid=5f4d0142-afdf-4341-bf7d-225c7379b41f","ios":"levelo://app?vid=5f4d0142-afdf-4341-bf7d-225c7379b41f"},"vehicle_type_id":"4","last_reported":1758712104,"current_range_meters":18000,"station_id":"ce4bhlh2rcd13ifvqgig","pricing_plan_id":"cebpf4jnsgd1na2vs0mg"},{"bike_id":"cab8b0f8-7fec-4a3b-9238-724bf6307a1b","system_id":"levelo_inurba_marseille","lat":43.292,"lon":5.39325,"is_reserved":false,"is_disabled":false,"rental_uris":{"android":"levelo://app?vid=cab8b0f8-7fec-4a3b-9238-724bf6307a1b","ios":"levelo://app?vid=cab8b0f8-7fec-4a3b-9238-724bf6307a1b"},"vehicle_type_id":"4","last_reported":1758712104,"current_range_meters":18000,"station_id":"ce4bh192rcd13ifvqdd0","pricing_plan_id":"cebpf4jnsgd1na2vs0mg"},{"bike_id":"87ca8a08-9855-4e9c-97d7-ec2808660ba6","system_id":"levelo_inurba_marseille","lat":43.27205,"lon":5.39177,"is_reserved":false,"is_disabled":false,"rental_uris":{"android":"levelo://app?vid=87ca8a08-9855-4e9c-97d7-ec2808660ba6","ios":"levelo://app?vid=87ca8a08-9855-4e9c-97d7-ec2808660ba6"},"vehicle_type_id":"4","last_reported":1758712104,"current_range_meters":18000,"station_id":"ce4bhhp2rcd13ifvqfm0","pricing_plan_id":"cebpf4jnsgd1na2vs0mg"},{"bike_id":"861af838-a847-419c-b196-06e72dc2b2d5","system_id":"levelo_inurba_marseille","lat":43.28504,"lon":5.3861,"is_reserved":false,"is_disabled":false,"rental_uris":{"android":"levelo://app?vid=861af838-a847-419c-b196-06e72dc2b2d5","ios":"levelo://app?vid=861af838-a847-419c-b196-06e72dc2b2d5"},"vehicle_type_id":"4","last_reported":1758712104,"current_range_meters":18000,"station_id":"ce4bh8p2rcd13ifvqeb0","pricing_plan_id":"cebpf4jnsgd1na2vs0mg"},{"bike_id":"35df137d-db71-4a29-840b-7fe04f06c753","system_id":"levelo_inurba_marseille","lat":43.289813,"lon":5.378403,"is_reserved":false,"is_disabled":false,"rental_uris":{"android":"levelo://app?vid=35df137d-db71-4a29-840b-7fe04f06c753","ios":"levelo://app?vid=35df137d-db71-4a29-840b-7fe04f06c753"},"vehicle_type_id":"4","last_reported":1758712104,"current_range_meters":18800,"station_id":"ce4bh9p2rcd13ifvqed0","pricing_plan_id":"cebpf4jnsgd1na2vs0mg"},{"bike_id":"53812b58-9ac3-431d-9ae0-cf5a2600f457","system_id":"levelo_inurba_marseille","lat":43.28421,"lon":5.34989,"is_reserved":false,"is_disabled":false,"rental_uris":{"android":"levelo://app?vid=53812b58-9ac3-431d-9ae0-cf5a2600f457","ios":"levelo://app?vid=53812b58-9ac3-431d-9ae0-cf5a2600f457"},"vehicle_type_id":"4","last_reported":1758712104,"current_range_meters":18800,"station_id":"ce4bhbh2rcd13ifvqepg","pricing_plan_id":"cebpf4jnsgd1na2vs0mg"},{"bike_id":"68b006af-0f08-4dde-8a72-68122299322b","system_id":"levelo_inurba_marseille","lat":43.25494,"lon":5.37647,"is_reserved":false,"is_disabled":false,"rental_uris":{"android":"levelo://app?vid=68b006af-0f08-4dde-8a72-68122299322b","ios":"levelo://app?vid=68b006af-0f08-4dde-8a72-68122299322b"},"vehicle_type_id":"4","last_reported":1758712104,"current_range_meters":18000,"station_id":"ce4bhh12rcd13ifvqff0","pricing_plan_id":"cebpf4jnsgd1na2vs0mg"},{"bike_id":"b6171b2d-49a8-4555-999d-d6c2df532e49","system_id":"levelo_inurba_marseille","lat":43.23194,"lon":5.35552,"is_reserved":false,"is_disabled":false,"rental_uris":{"android":"levelo://app?vid=b6171b2d-49a8-4555-999d-d6c2df532e49","ios":"levelo://app?vid=b6171b2d-49a8-4555-999d-d6c2df532e49"},"vehicle_type_id":"4","last_reported":1758712104,"current_range_meters":18800,"station_id":"ce4bhu92rcd13ifvqi70","pricing_plan_id":"cebpf4jnsgd1na2vs0mg"},{"bike_id":"b33afcb9-323b-4b25-b34a-d7ff770bee10","system_id":"levelo_inurba_marseille","lat":43.25924,"lon":5.40872,"is_reserved":false,"is_disabled":false,"rental_uris":{"android":"levelo://app?vid=b33afcb9-323b-4b25-b34a-d7ff770bee10","ios":"levelo://app?vid=b33afcb9-323b-4b25-b34a-d7ff770bee10"},"vehicle_type_id":"4","last_reported":1758712104,"current_range_meters":18800,"station_id":"ce4bhm92rcd13ifvqglg","pricing_plan_id":"cebpf4jnsgd1na2vs0mg"},{"bike_id":"429b97eb-f7cc-4d35-b219-e8e26e3f47e0","system_id":"levelo_inurba_marseille","lat":43.2593,"lon":5.40857,"is_reserved":false,"is_disabled":false,"rental_uris":{"android":"levelo://app?vid=429b97eb-f7cc-4d35-b219-e8e26e3f47e0","ios":"levelo://app?vid=429b97eb-f7cc-4d35-b219-e8e26e3f47e0"},"vehicle_type_id":"4","last_reported":1758712104,"current_range_meters":18800,"station_id":"ce4bhm92rcd13ifvqglg","pricing_plan_id":"cebpf4jnsgd1na2vs0mg"},{"bike_id":"f897d300-643c-4c7a-951b-f56d70ef23ca","system_id":"levelo_inurba_marseille","lat":43.30331,"lon":5.39076,"is_reserved":false,"is_disabled":false,"rental_uris":{"android":"levelo://app?vid=f897d300-643c-4c7a-951b-f56d70ef23ca","ios":"levelo://app?vid=f897d300-643c-4c7a-951b-f56d70ef23ca"},"vehicle_type_id":"4","last_reported":1758712104,"current_range_meters":18800,"station_id":"","pricing_plan_id":"cebpf4jnsgd1na2vs0mg"},{"bike_id":"35081881-f7cb-4bc0-97df-e1dda7f9c349","system_id":"levelo_inurba_marseille","lat":43.29572,"lon":5.3752,"is_reserved":false,"is_disabled":false,"rental_uris":{"android":"levelo://app?vid=35081881-f7cb-4bc0-97df-e1dda7f9c349","ios":"levelo://app?vid=35081881-f7cb-4bc0-97df-e1dda7f9c349"},"vehicle_type_id":"4","last_reported":1758712104,"current_range_meters":18800,"station_id":"ce4bgh92rcd13ifvqb50","pricing_plan_id":"cebpf4jnsgd1na2vs0mg"},{"bike_id":"64910c69-dba9-4a19-ae62-9c321b126474","system_id":"levelo_inurba_marseille","lat":43.306,"lon":5.39357,"is_reserved":false,"is_disabled":false,"rental_uris":{"android":"levelo://app?vid=64910c69-dba9-4a19-ae62-9c321b126474","ios":"levelo://app?vid=64910c69-dba9-4a19-ae62-9c321b126474"},"vehicle_type_id":"4","last_reported":1758712104,"current_range_meters":18800,"station_id":"ce4bh0p2rcd13ifvqd80","pricing_plan_id":"cebpf4jnsgd1na2vs0mg"},{"bike_id":"3603f0d4-2db8-48fe-a384-4a028bf2de94","system_id":"levelo_inurba_marseille","lat":43.29305,"lon":5.37446,"is_reserved":false,"is_disabled":false,"rental_uris":{"android":"levelo://app?vid=3603f0d4-2db8-48fe-a384-4a028bf2de94","ios":"levelo://app?vid=3603f0d4-2db8-48fe-a384-4a028bf2de94"},"vehicle_type_id":"4","last_reported":1758712104,"current_range_meters":18800,"station_id":"","pricing_plan_id":"cebpf4jnsgd1na2vs0mg"},{"bike_id":"327c041e-5c9e-4b0d-a97c-a2dbaab036ae","system_id":"levelo_inurba_marseille","lat":43.3281,"lon":5.41125,"is_reserved":false,"is_disabled":false,"rental_uris":{"android":"levelo://app?vid=327c041e-5c9e-4b0d-a97c-a2dbaab036ae","ios":"levelo://app?vid=327c041e-5c9e-4b0d-a97c-a2dbaab036ae"},"vehicle_type_id":"4","last_reported":1758712104,"current_range_meters":19200,"station_id":"","pricing_plan_id":"cebpf4jnsgd1na2vs0mg"},{"bike_id":"8593f6f1-da98-4ee8-840e-2da905dcda38","system_id":"levelo_inurba_marseille","lat":43.31286,"lon":5.37039,"is_reserved":false,"is_disabled":false,"rental_uris":{"android":"levelo://app?vid=8593f6f1-da98-4ee8-840e-2da905dcda38","ios":"levelo://app?vid=8593f6f1-da98-4ee8-840e-2da905dcda38"},"vehicle_type_id":"4","last_reported":1758712104,"current_range_meters":19200,"station_id":"","pricing_plan_id":"cebpf4jnsgd1na2vs0mg"},{"bike_id":"28c88dbd-9da7-4de2-8d6f-292480000a32","system_id":"levelo_inurba_marseille","lat":43.31064,"lon":5.3835,"is_reserved":false,"is_disabled":true,"rental_uris":{"android":"levelo://app?vid=28c88dbd-9da7-4de2-8d6f-292480000a32","ios":"levelo://app?vid=28c88dbd-9da7-4de2-8d6f-292480000a32"},"vehicle_type_id":"4","last_reported":1758712104,"current_range_meters":19200,"station_id":"ce4bgv92rcd13ifvqcr0","pricing_plan_id":"cebpf4jnsgd1na2vs0mg"},{"bike_id":"a3e1dc40-0740-4524-92fa-88ecdc74b24d","system_id":"levelo_inurba_marseille","lat":43.28274,"lon":5.3506,"is_reserved":false,"is_disabled":false,"rental_uris":{"android":"levelo://app?vid=a3e1dc40-0740-4524-92fa-88ecdc74b24d","ios":"levelo://app?vid=a3e1dc40-0740-4524-92fa-88ecdc74b24d"},"vehicle_type_id":"4","last_reported":1758712104,"current_range_meters":18800,"station_id":"ce4bhbp2rcd13ifvqerg","pricing_plan_id":"cebpf4jnsgd1na2vs0mg"},{"bike_id":"e36db1cf-e24d-4169-9bb9-2be9d199371d","system_id":"levelo_inurba_marseille","lat":43.245485,"lon":5.3953,"is_reserved":false,"is_disabled":false,"rental_uris":{"android":"levelo://app?vid=e36db1cf-e24d-4169-9bb9-2be9d199371d","ios":"levelo://app?vid=e36db1cf-e24d-4169-9bb9-2be9d199371d"},"vehicle_type_id":"4","last_reported":1758712104,"current_range_meters":19200,"station_id":"ce4bhlp2rcd13ifvqgjg","pricing_plan_id":"cebpf4jnsgd1na2vs0mg"},{"bike_id":"8df507d4-d5b3-467d-9d53-a044c60beebb","system_id":"levelo_inurba_marseille","lat":43.28938,"lon":5.38386,"is_reserved":false,"is_disabled":false,"rental_uris":{"android":"levelo://app?vid=8df507d4-d5b3-467d-9d53-a044c60beebb","ios":"levelo://app?vid=8df507d4-d5b3-467d-9d53-a044c60beebb"},"vehicle_type_id":"4","last_reported":1758712104,"current_range_meters":19200,"station_id":"ce4bh612rcd13ifvqe6g","pricing_plan_id":"cebpf4jnsgd1na2vs0mg"},{"bike_id":"344f590f-c240-4165-9441-6ca9ff3a0e6f","system_id":"levelo_inurba_marseille","lat":43.30526,"lon":5.36688,"is_reserved":false,"is_disabled":false,"rental_uris":{"android":"levelo://app?vid=344f590f-c240-4165-9441-6ca9ff3a0e6f","ios":"levelo://app?vid=344f590f-c240-4165-9441-6ca9ff3a0e6f"},"vehicle_type_id":"4","last_reported":1758712104,"current_range_meters":19600,"station_id":"ce4bgrp2rcd13ifvqc9g","pricing_plan_id":"cebpf4jnsgd1na2vs0mg"},{"bike_id":"8b5a14e6-9489-4ef6-89c7-760a14cd40e2","system_id":"levelo_inurba_marseille","lat":43.28691,"lon":5.37395,"is_reserved":false,"is_disabled":false,"rental_uris":{"android":"levelo://app?vid=8b5a14e6-9489-4ef6-89c7-760a14cd40e2","ios":"levelo://app?vid=8b5a14e6-9489-4ef6-89c7-760a14cd40e2"},"vehicle_type_id":"4","last_reported":1758712104,"current_range_meters":19600,"station_id":"ce4bh3p2rcd13ifvqdq0","pricing_plan_id":"cebpf4jnsgd1na2vs0mg"},{"bike_id":"725b1ff1-3894-44f1-a38e-91bc39cbab7e","system_id":"levelo_inurba_marseille","lat":43.24653,"lon":5.43136,"is_reserved":false,"is_disabled":false,"rental_uris":{"android":"levelo://app?vid=725b1ff1-3894-44f1-a38e-91bc39cbab7e","ios":"levelo://app?vid=725b1ff1-3894-44f1-a38e-91bc39cbab7e"},"vehicle_type_id":"4","last_reported":1758712104,"current_range_meters":19600,"station_id":"st_d2m6c4gdas8pm72e190g","pricing_plan_id":"cebpf4jnsgd1na2vs0mg"},{"bike_id":"175760d5-253d-4692-91bd-1ac0c3f225e0","system_id":"levelo_inurba_marseille","lat":43.30888,"lon":5.39638,"is_reserved":false,"is_disabled":false,"rental_uris":{"android":"levelo://app?vid=175760d5-253d-4692-91bd-1ac0c3f225e0","ios":"levelo://app?vid=175760d5-253d-4692-91bd-1ac0c3f225e0"},"vehicle_type_id":"4","last_reported":1758712104,"current_range_meters":19600,"station_id":"ce4bh012rcd13ifvqcv0","pricing_plan_id":"cebpf4jnsgd1na2vs0mg"},{"bike_id":"d31d856a-933d-49cf-948f-ce03657dfc74","system_id":"levelo_inurba_marseille","lat":43.28425,"lon":5.34982,"is_reserved":false,"is_disabled":false,"rental_uris":{"android":"levelo://app?vid=d31d856a-933d-49cf-948f-ce03657dfc74","ios":"levelo://app?vid=d31d856a-933d-49cf-948f-ce03657dfc74"},"vehicle_type_id":"4","last_reported":1758712104,"current_range_meters":19600,"station_id":"ce4bhbh2rcd13ifvqepg","pricing_plan_id":"cebpf4jnsgd1na2vs0mg"},{"bike_id":"3f9b1775-5d55-481e-be79-078d38b09814","system_id":"levelo_inurba_marseille","lat":43.25706,"lon":5.41076,"is_reserved":false,"is_disabled":false,"rental_uris":{"android":"levelo://app?vid=3f9b1775-5d55-481e-be79-078d38b09814","ios":"levelo://app?vid=3f9b1775-5d55-481e-be79-078d38b09814"},"vehicle_type_id":"4","last_reported":1758712104,"current_range_meters":19600,"station_id":"ce4bhkp2rcd13ifvqgd0","pricing_plan_id":"cebpf4jnsgd1na2vs0mg"},{"bike_id":"de0eea11-a5e4-4ebf-86bf-884879cd5dfa","system_id":"levelo_inurba_marseille","lat":43.26559,"lon":5.37285,"is_reserved":false,"is_disabled":false,"rental_uris":{"android":"levelo://app?vid=de0eea11-a5e4-4ebf-86bf-884879cd5dfa","ios":"levelo://app?vid=de0eea11-a5e4-4ebf-86bf-884879cd5dfa"},"vehicle_type_id":"4","last_reported":1758712104,"current_range_meters":19600,"station_id":"ce4bhg12rcd13ifvqf70","pricing_plan_id":"cebpf4jnsgd1na2vs0mg"},{"bike_id":"d55f7cff-ce18-4107-992e-8cb8fb12b05f","system_id":"levelo_inurba_marseille","lat":43.23192,"lon":5.35549,"is_reserved":false,"is_disabled":false,"rental_uris":{"android":"levelo://app?vid=d55f7cff-ce18-4107-992e-8cb8fb12b05f","ios":"levelo://app?vid=d55f7cff-ce18-4107-992e-8cb8fb12b05f"},"vehicle_type_id":"4","last_reported":1758712104,"current_range_meters":20000,"station_id":"ce4bhu92rcd13ifvqi70","pricing_plan_id":"cebpf4jnsgd1na2vs0mg"},{"bike_id":"0c16ac8a-a536-4d89-a0b4-2803631fd83e","system_id":"levelo_inurba_marseille","lat":43.25001,"lon":5.38931,"is_reserved":false,"is_disabled":false,"rental_uris":{"android":"levelo://app?vid=0c16ac8a-a536-4d89-a0b4-2803631fd83e","ios":"levelo://app?vid=0c16ac8a-a536-4d89-a0b4-2803631fd83e"},"vehicle_type_id":"4","last_reported":1758712104,"current_range_meters":20000,"station_id":"ce4bhgp2rcd13ifvqfd0","pricing_plan_id":"cebpf4jnsgd1na2vs0mg"},{"bike_id":"3289a129-b2f6-4eaa-abc8-5541cde073f5","system_id":"levelo_inurba_marseille","lat":43.23153,"lon":5.43718,"is_reserved":false,"is_disabled":false,"rental_uris":{"android":"levelo://app?vid=3289a129-b2f6-4eaa-abc8-5541cde073f5","ios":"levelo://app?vid=3289a129-b2f6-4eaa-abc8-5541cde073f5"},"vehicle_type_id":"4","last_reported":1758712104,"current_range_meters":20000,"station_id":"ce4bhmp2rcd13ifvqgog","pricing_plan_id":"cebpf4jnsgd1na2vs0mg"},{"bike_id":"e61c8def-f96c-4d08-8ae3-f14acb959181","system_id":"levelo_inurba_marseille","lat":43.29533,"lon":5.39039,"is_reserved":false,"is_disabled":false,"rental_uris":{"android":"levelo://app?vid=e61c8def-f96c-4d08-8ae3-f14acb959181","ios":"levelo://app?vid=e61c8def-f96c-4d08-8ae3-f14acb959181"},"vehicle_type_id":"4","last_reported":1758712104,"current_range_meters":20000,"station_id":"ce4bh3p2rcd13ifvqdp0","pricing_plan_id":"cebpf4jnsgd1na2vs0mg"},{"bike_id":"5421b11f-6375-4f74-ac12-c335a87fc8b3","system_id":"levelo_inurba_marseille","lat":43.31521,"lon":5.37298,"is_reserved":false,"is_disabled":false,"rental_uris":{"android":"levelo://app?vid=5421b11f-6375-4f74-ac12-c335a87fc8b3","ios":"levelo://app?vid=5421b11f-6375-4f74-ac12-c335a87fc8b3"},"vehicle_type_id":"4","last_reported":1758712104,"current_range_meters":20000,"station_id":"ce4bgt12rcd13ifvqcd0","pricing_plan_id":"cebpf4jnsgd1na2vs0mg"},{"bike_id":"041cd397-24ab-4e04-af23-07b961e161f4","system_id":"levelo_inurba_marseille","lat":43.337444,"lon":5.374475,"is_reserved":false,"is_disabled":false,"rental_uris":{"android":"levelo://app?vid=041cd397-24ab-4e04-af23-07b961e161f4","ios":"levelo://app?vid=041cd397-24ab-4e04-af23-07b961e161f4"},"vehicle_type_id":"4","last_reported":1758712104,"current_range_meters":20000,"station_id":"","pricing_plan_id":"cebpf4jnsgd1na2vs0mg"},{"bike_id":"16367185-ced5-4128-9547-82d2cbdb7062","system_id":"levelo_inurba_marseille","lat":43.31491,"lon":5.37299,"is_reserved":false,"is_disabled":false,"rental_uris":{"android":"levelo://app?vid=16367185-ced5-4128-9547-82d2cbdb7062","ios":"levelo://app?vid=16367185-ced5-4128-9547-82d2cbdb7062"},"vehicle_type_id":"4","last_reported":1758712104,"current_range_meters":20400,"station_id":"ce4bgt12rcd13ifvqcd0","pricing_plan_id":"cebpf4jnsgd1na2vs0mg"},{"bike_id":"5cb5e138-19e7-4f38-9fa9-5736e3f568ac","system_id":"levelo_inurba_marseille","lat":43.29903,"lon":5.381475,"is_reserved":false,"is_disabled":false,"rental_uris":{"android":"levelo://app?vid=5cb5e138-19e7-4f38-9fa9-5736e3f568ac","ios":"levelo://app?vid=5cb5e138-19e7-4f38-9fa9-5736e3f568ac"},"vehicle_type_id":"4","last_reported":1758712104,"current_range_meters":20400,"station_id":"ce4bgj12rcd13ifvqbc0","pricing_plan_id":"cebpf4jnsgd1na2vs0mg"},{"bike_id":"7a43f404-aaaf-4af5-879d-5864350902eb","system_id":"levelo_inurba_marseille","lat":43.29803,"lon":5.38085,"is_reserved":false,"is_disabled":false,"rental_uris":{"android":"levelo://app?vid=7a43f404-aaaf-4af5-879d-5864350902eb","ios":"levelo://app?vid=7a43f404-aaaf-4af5-879d-5864350902eb"},"vehicle_type_id":"4","last_reported":1758712104,"current_range_meters":20400,"station_id":"ce4bgip2rcd13ifvqbb0","pricing_plan_id":"cebpf4jnsgd1na2vs0mg"},{"bike_id":"dec5e3d0-16cf-4f61-8905-2078866bf757","system_id":"levelo_inurba_marseille","lat":43.25096,"lon":5.39526,"is_reserved":false,"is_disabled":false,"rental_uris":{"android":"levelo://app?vid=dec5e3d0-16cf-4f61-8905-2078866bf757","ios":"levelo://app?vid=dec5e3d0-16cf-4f61-8905-2078866bf757"},"vehicle_type_id":"4","last_reported":1758712104,"current_range_meters":20400,"station_id":"ce4bhm12rcd13ifvqgkg","pricing_plan_id":"cebpf4jnsgd1na2vs0mg"},{"bike_id":"22ae32b0-9965-4414-9918-39aa1248926a","system_id":"levelo_inurba_marseille","lat":43.298853,"lon":5.374699,"is_reserved":false,"is_disabled":false,"rental_uris":{"android":"levelo://app?vid=22ae32b0-9965-4414-9918-39aa1248926a","ios":"levelo://app?vid=22ae32b0-9965-4414-9918-39aa1248926a"},"vehicle_type_id":"4","last_reported":1758712104,"current_range_meters":20400,"station_id":"ce4bgjh2rcd13ifvqbg0","pricing_plan_id":"cebpf4jnsgd1na2vs0mg"},{"bike_id":"cafef244-62ba-4180-8d9d-5d95bfc9a964","system_id":"levelo_inurba_marseille","lat":43.31708,"lon":5.37757,"is_reserved":false,"is_disabled":false,"rental_uris":{"android":"levelo://app?vid=cafef244-62ba-4180-8d9d-5d95bfc9a964","ios":"levelo://app?vid=cafef244-62ba-4180-8d9d-5d95bfc9a964"},"vehicle_type_id":"4","last_reported":1758712104,"current_range_meters":20400,"station_id":"ce4bgth2rcd13ifvqch0","pricing_plan_id":"cebpf4jnsgd1na2vs0mg"},{"bike_id":"040d022b-8103-41f3-b92a-7415320a5c14","system_id":"levelo_inurba_marseille","lat":43.299672,"lon":5.371802,"is_reserved":false,"is_disabled":false,"rental_uris":{"android":"levelo://app?vid=040d022b-8103-41f3-b92a-7415320a5c14","ios":"levelo://app?vid=040d022b-8103-41f3-b92a-7415320a5c14"},"vehicle_type_id":"4","last_reported":1758712104,"current_range_meters":20400,"station_id":"ce4bgr92rcd13ifvqc7g","pricing_plan_id":"cebpf4jnsgd1na2vs0mg"},{"bike_id":"bb86958c-f1d1-41da-968c-5b6168e5959a","system_id":"levelo_inurba_marseille","lat":43.27074,"lon":5.4228,"is_reserved":false,"is_disabled":false,"rental_uris":{"android":"levelo://app?vid=bb86958c-f1d1-41da-968c-5b6168e5959a","ios":"levelo://app?vid=bb86958c-f1d1-41da-968c-5b6168e5959a"},"vehicle_type_id":"4","last_reported":1758712104,"current_range_meters":20400,"station_id":"ce4bhk92rcd13ifvqgb0","pricing_plan_id":"cebpf4jnsgd1na2vs0mg"},{"bike_id":"cf64f5a1-85bb-4012-acd5-309d066b1fe7","system_id":"levelo_inurba_marseille","lat":43.241805,"lon":5.397232,"is_reserved":false,"is_disabled":true,"rental_uris":{"android":"levelo://app?vid=cf64f5a1-85bb-4012-acd5-309d066b1fe7","ios":"levelo://app?vid=cf64f5a1-85bb-4012-acd5-309d066b1fe7"},"vehicle_type_id":"4","last_reported":1758712104,"current_range_meters":19600,"station_id":"ce4bhn12rcd13ifvqgpg","pricing_plan_id":"cebpf4jnsgd1na2vs0mg"},{"bike_id":"37039d9c-4484-49e6-b052-9edb44b8bedb","system_id":"levelo_inurba_marseille","lat":43.32359,"lon":5.36746,"is_reserved":false,"is_disabled":false,"rental_uris":{"android":"levelo://app?vid=37039d9c-4484-49e6-b052-9edb44b8bedb","ios":"levelo://app?vid=37039d9c-4484-49e6-b052-9edb44b8bedb"},"vehicle_type_id":"4","last_reported":1758712104,"current_range_meters":20800,"station_id":"ce4bhsh2rcd13ifvqi2g","pricing_plan_id":"cebpf4jnsgd1na2vs0mg"},{"bike_id":"cbffa1ac-98d6-4cc2-87a0-04642a871cda","system_id":"levelo_inurba_marseille","lat":43.30137,"lon":5.37422,"is_reserved":false,"is_disabled":false,"rental_uris":{"android":"levelo://app?vid=cbffa1ac-98d6-4cc2-87a0-04642a871cda","ios":"levelo://app?vid=cbffa1ac-98d6-4cc2-87a0-04642a871cda"},"vehicle_type_id":"4","last_reported":1758712104,"current_range_meters":20800,"station_id":"ce4bgs92rcd13ifvqcc0","pricing_plan_id":"cebpf4jnsgd1na2vs0mg"},