{"last_updated":1711213597,"ttl":30,"version":"2.2","data":{"bikes":[{"bike_id":"92e525f9-bc6a-458d-9b1b-c30aa3606525","system_id":"levelo_inurba_marseille","lat":43.312384,"lon":5.368538,"is_reserved":false,"is_disabled":false,"rental_uris":{"android":"levelo://app?vid=92e525f9-bc6a-458d-9b1b-c30aa3606525","ios":"levelo://app?vid=92e525f9-bc6a-458d-9b1b-c30aa3606525"},"vehicle_type_id":"4","last_reported":1711213597,"current_range_meters":8400,"station_id":"ce4bgl92rcd13ifvqbq0","pricing_plan_id":"cebpf4jnsgd1na2vs0mg"},{"bike_id":"45451f0d-71ce-4e67-bbb3-c28b7fd01f21","system_id":"levelo_inurba_marseille","lat":43.312239,"lon":5.368562,"is_reserved":false,"is_disabled":false,"rental_uris":{"android":"levelo://app?vid=45451f0d-71ce-4e67-bbb3-c28b7fd01f21","ios":"levelo://app?vid=45451f0d-71ce-4e67-bbb3-c28b7fd01f21"},"vehicle_type_id":"4","last_reported":1711213597,"current_range_meters":0,"station_id":"ce4bgl92rcd13ifvqbq0","pricing_plan_id":"cebpf4jnsgd1na2vs0mg"},{"bike_id":"90647ce9-7224-45d1-94b9-490cb63eea25","system_id":"levelo_inurba_marseille","lat":43.30909,"lon":5.36847,"is_reserved":false,"is_disabled":false,"rental_uris":{"android":"levelo://app?vid=90647ce9-7224-45d1-94b9-490cb63eea25","ios":"levelo://app?vid=90647ce9-7224-45d1-94b9-490cb63eea25"},"vehicle_type_id":"4","last_reported":1711213597,"current_range_meters":14000,"station_id":"ce4bgn92rcd13ifvqbvg","pricing_plan_id":"cebpf4jnsgd1na2vs0mg"},{"bike_id":"1a65909d-2149-4afd-b179-9904a7c87e2b","system_id":"levelo_inurba_marseille","lat":43.30906,"lon":5.3685,"is_reserved":false,"is_disabled":false,"rental_uris":{"android":"levelo://app?vid=1a65909d-2149-4afd-b179-9904a7c87e2b","ios":"levelo://app?vid=1a65909d-2149-4afd-b179-9904a7c87e2b"},"vehicle_type_id":"4","last_reported":1711213597,"current_range_meters":18000,"station_id":"ce4bgn92rcd13ifvqbvg","pricing_plan_id":"cebpf4jnsgd1na2vs0mg"},{"bike_id":"f2d787db-10c3-419e-9169-e09445b8cdbf","system_id":"levelo_inurba_marseille","lat":43.314811,"lon":5.373104,"is_reserved":false,"is_disabled":false,"rental_uris":{"android":"levelo://app?vid=f2d787db-10c3-419e-9169-e09445b8cdbf","ios":"levelo://app?vid=f2d787db-10c3-419e-9169-e09445b8cdbf"},"vehicle_type_id":"4","last_reported":1711213597,"current_range_meters":17600,"station_id":"ce4bgt12rcd13ifvqcd0","pricing_plan_id":"cebpf4jnsgd1na2vs0mg"},{"bike_id":"5a74f1f1-5cd9-425d-abbc-3a2c078dd656","system_id":"levelo_inurba_marseille","lat":43.314811,"lon":5.373104,"is_reserved":false,"is_disabled":false,"rental_uris":{"android":"levelo://app?vid=5a74f1f1-5cd9-425d-abbc-3a2c078dd656","ios":"levelo://app?vid=5a74f1f1-5cd9-425d-abbc-3a2c078dd656"},"vehicle_type_id":"4","last_reported":1711213597,"current_range_meters":14800,"station_id":"ce4bgt12rcd13ifvqcd0","pricing_plan_id":"cebpf4jnsgd1na2vs0mg"},{"bike_id":"f0e4183a-a3ca-4631-9b11-f39d3b7aff3e","system_id":"levelo_inurba_marseille","lat":43.292644,"lon":5.384257,"is_reserved":false,"is_disabled":false,"rental_uris":{"android":"levelo://app?vid=f0e4183a-a3ca-4631-9b11-f39d3b7aff3e","ios":"levelo://app?vid=f0e4183a-a3ca-4631-9b11-f39d3b7aff3e"},"vehicle_type_id":"4","last_reported":1711213597,"current_range_meters":3200,"station_id":"ce4bh692rcd13ifvqea0","pricing_plan_id":"cebpf4jnsgd1na2vs0mg"},{"bike_id":"62a01374-d692-4f1a-9dda-4cfca69fdb8c","system_id":"levelo_inurba_marseille","lat":43.305712,"lon":5.365641,"is_reserved":false,"is_disabled":false,"rental_uris":{"android":"levelo://app?vid=62a01374-d692-4f1a-9dda-4cfca69fdb8c","ios":"levelo://app?vid=62a01374-d692-4f1a-9dda-4cfca69fdb8c"},"vehicle_type_id":"4","last_reported":1711213597,"current_range_meters":14000,"station_id":"ce4bgs12rcd13ifvqcag","pricing_plan_id":"cebpf4jnsgd1na2vs0mg"},{"bike_id":"c086c74a-d4af-49cd-9824-657387a090ca","system_id":"levelo_inurba_marseille","lat":43.305714,"lon":5.365633,"is_reserved":false,"is_disabled":false,"rental_uris":{"android":"levelo://app?vid=c086c74a-d4af-49cd-9824-657387a090ca","ios":"levelo://app?vid=c086c74a-d4af-49cd-9824-657387a090ca"},"vehicle_type_id":"4","last_reported":1711213597,"current_range_meters":4400,"station_id":"ce4bgs12rcd13ifvqcag","pricing_plan_id":"cebpf4jnsgd1na2vs0mg"},{"bike_id":"7ffd416b-0c3c-4c0e-bb64-8e5124bdf828","system_id":"levelo_inurba_marseille","lat":43.30544,"lon":5.36538,"is_reserved":false,"is_disabled":false,"rental_uris":{"android":"levelo://app?vid=7ffd416b-0c3c-4c0e-bb64-8e5124bdf828","ios":"levelo://app?vid=7ffd416b-0c3c-4c0e-bb64-8e5124bdf828"},"vehicle_type_id":"4","last_reported":1711213597,"current_range_meters":0,"station_id":"ce4bgs12rcd13ifvqcag","pricing_plan_id":"cebpf4jnsgd1na2vs0mg"},{"bike_id":"06b5eaf1-4b3f-4740-9487-75cf36b8c851","system_id":"levelo_inurba_marseille","lat":43.311125,"lon":5.377624,"is_reserved":false,"is_disabled":false,"rental_uris":{"android":"levelo://app?vid=06b5eaf1-4b3f-4740-9487-75cf36b8c851","ios":"levelo://app?vid=06b5eaf1-4b3f-4740-9487-75cf36b8c851"},"vehicle_type_id":"4","last_reported":1711213597,"current_range_meters":14800,"station_id":"ce4bgt92rcd13ifvqcg0","pricing_plan_id":"cebpf4jnsgd1na2vs0mg"},{"bike_id":"e26334cf-680d-4741-8486-bfd92a3a63cd","system_id":"levelo_inurba_marseille","lat":43.311131,"lon":5.377651,"is_reserved":false,"is_disabled":false,"rental_uris":{"android":"levelo://app?vid=e26334cf-680d-4741-8486-bfd92a3a63cd","ios":"levelo://app?vid=e26334cf-680d-4741-8486-bfd92a3a63cd"},"vehicle_type_id":"4","last_reported":1711213597,"current_range_meters":25600,"station_id":"ce4bgt92rcd13ifvqcg0","pricing_plan_id":"cebpf4jnsgd1na2vs0mg"},{"bike_id":"b916e65d-9470-4670-a63f-7acc05595928","system_id":"levelo_inurba_marseille","lat":43.31933,"lon":5.37393,"is_reserved":false,"is_disabled":false,"rental_uris":{"android":"levelo://app?vid=b916e65d-9470-4670-a63f-7acc05595928","ios":"levelo://app?vid=b916e65d-9470-4670-a63f-7acc05595928"},"vehicle_type_id":"4","last_reported":1711213597,"current_range_meters":25200,"station_id":"","pricing_plan_id":"cebpf4jnsgd1na2vs0mg"},{"bike_id":"2df12b92-2545-4d65-88d1-dbdc61e0cf51","system_id":"levelo_inurba_marseille","lat":43.30783,"lon":5.37657,"is_reserved":false,"is_disabled":false,"rental_uris":{"android":"levelo://app?vid=2df12b92-2545-4d65-88d1-dbdc61e0cf51","ios":"levelo://app?vid=2df12b92-2545-4d65-88d1-dbdc61e0cf51"},"vehicle_type_id":"4","last_reported":1711213597,"current_range_meters":0,"station_id":"ce4bgv92rcd13ifvqcq0","pricing_plan_id":"cebpf4jnsgd1na2vs0mg"},{"bike_id":"1ef5275b-3bd7-46b1-bbd6-0527a7fc8c06","system_id":"levelo_inurba_marseille","lat":43.317075,"lon":5.377367,"is_reserved":false,"is_disabled":false,"rental_uris":{"android":"levelo://app?vid=1ef5275b-3bd7-46b1-bbd6-0527a7fc8c06","ios":"levelo://app?vid=1ef5275b-3bd7-46b1-bbd6-0527a7fc8c06"},"vehicle_type_id":"4","last_reported":1711213597,"current_range_meters":19600,"station_id":"ce4bgth2rcd13ifvqch0","pricing_plan_id":"cebpf4jnsgd1na2vs0mg"},{"bike_id":"9dba8faa-be30-4458-8d55-a2843a459800","system_id":"levelo_inurba_marseille","lat":43.317075,"lon":5.377367,"is_reserved":false,"is_disabled":false,"rental_uris":{"android":"levelo://app?vid=9dba8faa-be30-4458-8d55-a2843a459800","ios":"levelo://app?vid=9dba8faa-be30-4458-8d55-a2843a459800"},"vehicle_type_id":"4","last_reported":1711213597,"current_range_meters":9600,"station_id":"ce4bgth2rcd13ifvqch0","pricing_plan_id":"cebpf4jnsgd1na2vs0mg"},{"bike_id":"b3939d1e-9f3e-41ad-a01b-1a1a2653da87","system_id":"levelo_inurba_marseille","lat":43.317075,"lon":5.377367,"is_reserved":false,"is_disabled":false,"rental_uris":{"android":"levelo://app?vid=b3939d1e-9f3e-41ad-a01b-1a1a2653da87","ios":"levelo://app?vid=b3939d1e-9f3e-41ad-a01b-1a1a2653da87"},"vehicle_type_id":"4","last_reported":1711213597,"current_range_meters":6400,"station_id":"ce4bgth2rcd13ifvqch0","pricing_plan_id":"cebpf4jnsgd1na2vs0mg"},{"bike_id":"7692f021-ce8f-4596-9df3-d7eabbba993e","system_id":"levelo_inurba_marseille","lat":43.317089,"lon":5.377419,"is_reserved":false,"is_disabled":false,"rental_uris":{"android":"levelo://app?vid=7692f021-ce8f-4596-9df3-d7eabbba993e","ios":"levelo://app?vid=7692f021-ce8f-4596-9df3-d7eabbba993e"},"vehicle_type_id":"4","last_reported":1711213597,"current_range_meters":4800,"station_id":"ce4bgth2rcd13ifvqch0","pricing_plan_id":"cebpf4jnsgd1na2vs0mg"},{"bike_id":"92483286-dfec-4071-865e-71e94ecb6259","system_id":"levelo_inurba_marseille","lat":43.317075,"lon":5.377367,"is_reserved":false,"is_disabled":false,"rental_uris":{"android":"levelo://app?vid=92483286-dfec-4071-865e-71e94ecb6259","ios":"levelo://app?vid=92483286-dfec-4071-865e-71e94ecb6259"},"vehicle_type_id":"4","last_reported":1711213597,"current_range_meters":0,"station_id":"ce4bgth2rcd13ifvqch0","pricing_plan_id":"cebpf4jnsgd1na2vs0mg"},{"bike_id":"906fada8-05a5-4239-a0a4-5dd0eb20e1e2","system_id":"levelo_inurba_marseille","lat":43.317075,"lon":5.377367,"is_reserved":false,"is_disabled":false,"rental_uris":{"android":"levelo://app?vid=906fada8-05a5-4239-a0a4-5dd0eb20e1e2","ios":"levelo://app?vid=906fada8-05a5-4239-a0a4-5dd0eb20e1e2"},"vehicle_type_id":"4","last_reported":1711213597,"current_range_meters":6400,"station_id":"ce4bgth2rcd13ifvqch0","pricing_plan_id":"cebpf4jnsgd1na2vs0mg"},{"bike_id":"34ad4ab9-7307-4791-9845-37cc61049cfc","system_id":"levelo_inurba_marseille","lat":43.303046,"lon":5.368981,"is_reserved":false,"is_disabled":false,"rental_uris":{"android":"levelo://app?vid=34ad4ab9-7307-4791-9845-37cc61049cfc","ios":"levelo://app?vid=34ad4ab9-7307-4791-9845-37cc61049cfc"},"vehicle_type_id":"4","last_reported":1711213597,"current_range_meters":0,"station_id":"ce4bgqh2rcd13ifvqc5g","pricing_plan_id":"cebpf4jnsgd1na2vs0mg"},{"bike_id":"e3383ab1-7d02-4f72-a3df-5c2cc4407be4","system_id":"levelo_inurba_marseille","lat":43.31999,"lon":5.376198,"is_reserved":false,"is_disabled":false,"rental_uris":{"android":"levelo://app?vid=e3383ab1-7d02-4f72-a3df-5c2cc4407be4","ios":"levelo://app?vid=e3383ab1-7d02-4f72-a3df-5c2cc4407be4"},"vehicle_type_id":"4","last_reported":1711213597,"current_range_meters":22000,"station_id":"","pricing_plan_id":"cebpf4jnsgd1na2vs0mg"},{"bike_id":"9d270b5c-e58d-4466-bcce-5779c3b33742","system_id":"levelo_inurba_marseille","lat":43.303046,"lon":5.368981,"is_reserved":false,"is_disabled":false,"rental_uris":{"android":"levelo://app?vid=9d270b5c-e58d-4466-bcce-5779c3b33742","ios":"levelo://app?vid=9d270b5c-e58d-4466-bcce-5779c3b33742"},"vehicle_type_id":"4","last_reported":1711213597,"current_range_meters":10800,"station_id":"ce4bgqh2rcd13ifvqc5g","pricing_plan_id":"cebpf4jnsgd1na2vs0mg"},{"bike_id":"239f74d3-ea11-493a-acc9-0548924a6dfe","system_id":"levelo_inurba_marseille","lat":43.315289,"lon":5.380349,"is_reserved":false,"is_disabled":false,"rental_uris":{"android":"levelo://app?vid=239f74d3-ea11-493a-acc9-0548924a6dfe","ios":"levelo://app?vid=239f74d3-ea11-493a-acc9-0548924a6dfe"},"vehicle_type_id":"4","last_reported":1711213597,"current_range_meters":9600,"station_id":"ce4bhsp2rcd13ifvqi50","pricing_plan_id":"cebpf4jnsgd1na2vs0mg"},{"bike_id":"d2871816-2b21-48c9-af59-e8ce27dfd19b","system_id":"levelo_inurba_marseille","lat":43.315293,"lon":5.380349,"is_reserved":false,"is_disabled":false,"rental_uris":{"android":"levelo://app?vid=d2871816-2b21-48c9-af59-e8ce27dfd19b","ios":"levelo://app?vid=d2871816-2b21-48c9-af59-e8ce27dfd19b"},"vehicle_type_id":"4","last_reported":1711213597,"current_range_meters":20800,"station_id":"ce4bhsp2rcd13ifvqi50","pricing_plan_id":"cebpf4jnsgd1na2vs0mg"},{"bike_id":"f755c4d8-652b-4962-a47d-3cb089632066","system_id":"levelo_inurba_marseille","lat":43.292749,"lon":5.368398,"is_reserved":false,"is_disabled":false,"rental_uris":{"android":"levelo://app?vid=f755c4d8-652b-4962-a47d-3cb089632066","ios":"levelo://app?vid=f755c4d8-652b-4962-a47d-3cb089632066"},"vehicle_type_id":"4","last_reported":1711213597,"current_range_meters":20800,"station_id":"ce4bhbp2rcd13ifvqesg","pricing_plan_id":"cebpf4jnsgd1na2vs0mg"},{"bike_id":"f311aa5a-5fb0-453f-be4d-b9030225b070","system_id":"levelo_inurba_marseille","lat":43.30197,"lon":5.36609,"is_reserved":false,"is_disabled":false,"rental_uris":{"android":"levelo://app?vid=f311aa5a-5fb0-453f-be4d-b9030225b070","ios":"levelo://app?vid=f311aa5a-5fb0-453f-be4d-b9030225b070"},"vehicle_type_id":"4","last_reported":1711213597,"current_range_meters":800,"station_id":"ce4bgrh2rcd13ifvqc8g","pricing_plan_id":"cebpf4jnsgd1na2vs0mg"},{"bike_id":"4f006df7-4021-4894-a978-e7fbd68140e6","system_id":"levelo_inurba_marseille","lat":43.316146,"lon":5.381815,"is_reserved":false,"is_disabled":false,"rental_uris":{"android":"levelo://app?vid=4f006df7-4021-4894-a978-e7fbd68140e6","ios":"levelo://app?vid=4f006df7-4021-4894-a978-e7fbd68140e6"},"vehicle_type_id":"4","last_reported":1711213597,"current_range_meters":12000,"station_id":"","pricing_plan_id":"cebpf4jnsgd1na2vs0mg"},{"bike_id":"9f22161f-5e9d-441e-9760-fab8ff3f16f7","system_id":"levelo_inurba_marseille","lat":43.308012,"lon":5.381511,"is_reserved":false,"is_disabled":false,"rental_uris":{"android":"levelo://app?vid=9f22161f-5e9d-441e-9760-fab8ff3f16f7","ios":"levelo://app?vid=9f22161f-5e9d-441e-9760-fab8ff3f16f7"},"vehicle_type_id":"4","last_reported":1711213597,"current_range_meters":0,"station_id":"ce4bgt12rcd13ifvqce0","pricing_plan_id":"cebpf4jnsgd1na2vs0mg"},{"bike_id":"0a3f16e1-31ef-45ee-9eda-a4a63b6bca4b","system_id":"levelo_inurba_marseille","lat":43.308012,"lon":5.381511,"is_reserved":false,"is_disabled":false,"rental_uris":{"android":"levelo://app?vid=0a3f16e1-31ef-45ee-9eda-a4a63b6bca4b","ios":"levelo://app?vid=0a3f16e1-31ef-45ee-9eda-a4a63b6bca4b"},"vehicle_type_id":"4","last_reported":1711213597,"current_range_meters":14400,"station_id":"ce4bgt12rcd13ifvqce0","pricing_plan_id":"cebpf4jnsgd1na2vs0mg"},{"bike_id":"0a098d8f-96b2-4322-a799-e5d656ca7cb3","system_id":"levelo_inurba_marseille","lat":43.304606,"lon":5.379026,"is_reserved":false,"is_disabled":false,"rental_uris":{"android":"levelo://app?vid=0a098d8f-96b2-4322-a799-e5d656ca7cb3","ios":"levelo://app?vid=0a098d8f-96b2-4322-a799-e5d656ca7cb3"},"vehicle_type_id":"4","last_reported":1711213597,"current_range_meters":7600,"station_id":"ce4bgup2rcd13ifvqcn0","pricing_plan_id":"cebpf4jnsgd1na2vs0mg"},{"bike_id":"0056a5e8-83a9-426d-afd5-0e7d72061601","system_id":"levelo_inurba_marseille","lat":43.304606,"lon":5.379026,"is_reserved":false,"is_disabled":false,"rental_uris":{"android":"levelo://app?vid=0056a5e8-83a9-426d-afd5-0e7d72061601","ios":"levelo://app?vid=0056a5e8-83a9-426d-afd5-0e7d72061601"},"vehicle_type_id":"4","last_reported":1711213597,"current_range_meters":18800,"station_id":"ce4bgup2rcd13ifvqcn0","pricing_plan_id":"cebpf4jnsgd1na2vs0mg"},{"bike_id":"0f2de63e-53fc-48a2-9cbe-2a83bbbb0873","system_id":"levelo_inurba_marseille","lat":43.310804,"lon":5.38359,"is_reserved":false,"is_disabled":false,"rental_uris":{"android":"levelo://app?vid=0f2de63e-53fc-48a2-9cbe-2a83bbbb0873","ios":"levelo://app?vid=0f2de63e-53fc-48a2-9cbe-2a83bbbb0873"},"vehicle_type_id":"4","last_reported":1711213597,"current_range_meters":400,"station_id":"ce4bgv92rcd13ifvqcr0","pricing_plan_id":"cebpf4jnsgd1na2vs0mg"},{"bike_id":"7da53701-90d3-4a38-995f-79eab59d821c","system_id":"levelo_inurba_marseille","lat":43.324771,"lon":5.36557,"is_reserved":false,"is_disabled":false,"rental_uris":{"android":"levelo://app?vid=7da53701-90d3-4a38-995f-79eab59d821c","ios":"levelo://app?vid=7da53701-90d3-4a38-995f-79eab59d821c"},"vehicle_type_id":"4","last_reported":1711213597,"current_range_meters":800,"station_id":"ce4bhs12rcd13ifvqhvg","pricing_plan_id":"cebpf4jnsgd1na2vs0mg"},{"bike_id":"d7bbf469-0702-482a-9065-81a731bc5d18","system_id":"levelo_inurba_marseille","lat":43.324771,"lon":5.36557,"is_reserved":false,"is_disabled":false,"rental_uris":{"android":"levelo://app?vid=d7bbf469-0702-482a-9065-81a731bc5d18","ios":"levelo://app?vid=d7bbf469-0702-482a-9065-81a731bc5d18"},"vehicle_type_id":"4","last_reported":1711213597,"current_range_meters":2400,"station_id":"ce4bhs12rcd13ifvqhvg","pricing_plan_id":"cebpf4jnsgd1na2vs0mg"},{"bike_id":"4dd5e982-99eb-402b-9e42-7f84f6fe1ae1","system_id":"levelo_inurba_marseille","lat":43.32481,"lon":5.36566,"is_reserved":false,"is_disabled":false,"rental_uris":{"android":"levelo://app?vid=4dd5e982-99eb-402b-9e42-7f84f6fe1ae1","ios":"levelo://app?vid=4dd5e982-99eb-402b-9e42-7f84f6fe1ae1"},"vehicle_type_id":"4","last_reported":1711213597,"current_range_meters":10800,"station_id":"ce4bhs12rcd13ifvqhvg","pricing_plan_id":"cebpf4jnsgd1na2vs0mg"},{"bike_id":"ca7e6977-44ec-4b1f-8fe2-f0a04aa8303f","system_id":"levelo_inurba_marseille","lat":43.324771,"lon":5.36557,"is_reserved":false,"is_disabled":false,"rental_uris":{"android":"levelo://app?vid=ca7e6977-44ec-4b1f-8fe2-f0a04aa8303f","ios":"levelo://app?vid=ca7e6977-44ec-4b1f-8fe2-f0a04aa8303f"},"vehicle_type_id":"4","last_reported":1711213597,"current_range_meters":28800,"station_id":"ce4bhs12rcd13ifvqhvg","pricing_plan_id":"cebpf4jnsgd1na2vs0mg"},{"bike_id":"fa05d3e5-f409-4e05-ace7-f6f819e528e8","system_id":"levelo_inurba_marseille","lat":43.32482,"lon":5.365599,"is_reserved":false,"is_disabled":false,"rental_uris":{"android":"levelo://app?vid=fa05d3e5-f409-4e05-ace7-f6f819e528e8","ios":"levelo://app?vid=fa05d3e5-f409-4e05-ace7-f6f819e528e8"},"vehicle_type_id":"4","last_reported":1711213597,"current_range_meters":4800,"station_id":"ce4bhs12rcd13ifvqhvg","pricing_plan_id":"cebpf4jnsgd1na2vs0mg"},{"bike_id":"5c19b47d-2fdd-4cb6-831a-8449a36efd9b","system_id":"levelo_inurba_marseille","lat":43.324771,"lon":5.36557,"is_reserved":false,"is_disabled":false,"rental_uris":{"android":"levelo://app?vid=5c19b47d-2fdd-4cb6-831a-8449a36efd9b","ios":"levelo://app?vid=5c19b47d-2fdd-4cb6-831a-8449a36efd9b"},"vehicle_type_id":"4","last_reported":1711213597,"current_range_meters":9600,"station_id":"ce4bhs12rcd13ifvqhvg","pricing_plan_id":"cebpf4jnsgd1na2vs0mg"},{"bike_id":"b88553c7-39de-4a84-8d1f-6c11f9d43ddb","system_id":"levelo_inurba_marseille","lat":43.324771,"lon":5.36557,"is_reserved":false,"is_disabled":false,"rental_uris":{"android":"levelo://app?vid=b88553c7-39de-4a84-8d1f-6c11f9d43ddb","ios":"levelo://app?vid=b88553c7-39de-4a84-8d1f-6c11f9d43ddb"},"vehicle_type_id":"4","last_reported":1711213597,"current_range_meters":3200,"station_id":"ce4bhs12rcd13ifvqhvg","pricing_plan_id":"cebpf4jnsgd1na2vs0mg"},{"bike_id":"f5faf25f-fb90-4a21-8107-de16028ff217","system_id":"levelo_inurba_marseille","lat":43.32485,"lon":5.36565,"is_reserved":false,"is_disabled":false,"rental_uris":{"android":"levelo://app?vid=f5faf25f-fb90-4a21-8107-de16028ff217","ios":"levelo://app?vid=f5faf25f-fb90-4a21-8107-de16028ff217"},"vehicle_type_id":"4","last_reported":1711213597,"current_range_meters":3600,"station_id":"ce4bhs12rcd13ifvqhvg","pricing_plan_id":"cebpf4jnsgd1na2vs0mg"},{"bike_id":"6cc20f86-eab6-4635-8f90-6882d139dbf5","system_id":"levelo_inurba_marseille","lat":43.324771,"lon":5.36557,"is_reserved":false,"is_disabled":false,"rental_uris":{"android":"levelo://app?vid=6cc20f86-eab6-4635-8f90-6882d139dbf5","ios":"levelo://app?vid=6cc20f86-eab6-4635-8f90-6882d139dbf5"},"vehicle_type_id":"4","last_reported":1711213597,"current_range_meters":28000,"station_id":"ce4bhs12rcd13ifvqhvg","pricing_plan_id":"cebpf4jnsgd1na2vs0mg"},{"bike_id":"efb53d63-8279-44ee-bdda-dd538e60645b","system_id":"levelo_inurba_marseille","lat":43.310752,"lon":5.383575,"is_reserved":false,"is_disabled":false,"rental_uris":{"android":"levelo://app?vid=efb53d63-8279-44ee-bdda-dd538e60645b","ios":"levelo://app?vid=efb53d63-8279-44ee-bdda-dd538e60645b"},"vehicle_type_id":"4","last_reported":1711213597,"current_range_meters":0,"station_id":"ce4bgv92rcd13ifvqcr0","pricing_plan_id":"cebpf4jnsgd1na2vs0mg"},{"bike_id":"7b29bdda-199e-4f0a-a978-6b24d3758713","system_id":"levelo_inurba_marseille","lat":43.30146,"lon":5.37407,"is_reserved":false,"is_disabled":false,"rental_uris":{"android":"levelo://app?vid=7b29bdda-199e-4f0a-a978-6b24d3758713","ios":"levelo://app?vid=7b29bdda-199e-4f0a-a978-6b24d3758713"},"vehicle_type_id":"4","last_reported":1711213597,"current_range_meters":17200,"station_id":"ce4bgs92rcd13ifvqcc0","pricing_plan_id":"cebpf4jnsgd1na2vs0mg"},{"bike_id":"1baf0ae5-8fab-4076-9da1-317589d1291e","system_id":"levelo_inurba_marseille","lat":43.30142,"lon":5.37418,"is_reserved":false,"is_disabled":false,"rental_uris":{"android":"levelo://app?vid=1baf0ae5-8fab-4076-9da1-317589d1291e","ios":"levelo://app?vid=1baf0ae5-8fab-4076-9da1-317589d1291e"},"vehicle_type_id":"4","last_reported":1711213597,"current_range_meters":8000,"station_id":"ce4bgs92rcd13ifvqcc0","pricing_plan_id":"cebpf4jnsgd1na2vs0mg"},{"bike_id":"6b7cd499-ad5c-4c98-8db8-8114f3a580b9","system_id":"levelo_inurba_marseille","lat":43.302784,"lon":5.377158,"is_reserved":false,"is_disabled":false,"rental_uris":{"android":"levelo://app?vid=6b7cd499-ad5c-4c98-8db8-8114f3a580b9","ios":"levelo://app?vid=6b7cd499-ad5c-4c98-8db8-8114f3a580b9"},"vehicle_type_id":"4","last_reported":1711213597,"current_range_meters":6000,"station_id":"ce4bguh2rcd13ifvqcj0","pricing_plan_id":"cebpf4jnsgd1na2vs0mg"},{"bike_id":"1534fd6e-7f57-4891-9234-8239a9cf06f5","system_id":"levelo_inurba_marseille","lat":43.313571,"lon":5.384829,"is_reserved":false,"is_disabled":false,"rental_uris":{"android":"levelo://app?vid=1534fd6e-7f57-4891-9234-8239a9cf06f5","ios":"levelo://app?vid=1534fd6e-7f57-4891-9234-8239a9cf06f5"},"vehicle_type_id":"4","last_reported":1711213597,"current_range_meters":8800,"station_id":"ce4bgt92rcd13ifvqcf0","pricing_plan_id":"cebpf4jnsgd1na2vs0mg"},{"bike_id":"d3d3ecf6-c2e9-4877-8f7f-9e118ba93da5","system_id":"levelo_inurba_marseille","lat":43.299871,"lon":5.371825,"is_reserved":false,"is_disabled":false,"rental_uris":{"android":"levelo://app?vid=d3d3ecf6-c2e9-4877-8f7f-9e118ba93da5","ios":"levelo://app?vid=d3d3ecf6-c2e9-4877-8f7f-9e118ba93da5"},"vehicle_type_id":"4","last_reported":1711213597,"current_range_meters":0,"station_id":"ce4bgr92rcd13ifvqc7g","pricing_plan_id":"cebpf4jnsgd1na2vs0mg"},{"bike_id":"36c369c1-2c19-44b2-bf3e-69e898f2c712","system_id":"levelo_inurba_marseille","lat":43.299724,"lon":5.371829,"is_reserved":false,"is_disabled":false,"rental_uris":{"android":"levelo://app?vid=36c369c1-2c19-44b2-bf3e-69e898f2c712","ios":"levelo://app?vid=36c369c1-2c19-44b2-bf3e-69e898f2c712"},"vehicle_type_id":"4","last_reported":1711213597,"current_range_meters":0,"station_id":"ce4bgr92rcd13ifvqc7g","pricing_plan_id":"cebpf4jnsgd1na2vs0mg"},{"bike_id":"e511b406-dd8c-4075-91e9-08dad87e4342","system_id":"levelo_inurba_marseille","lat":43.299724,"lon":5.371829,"is_reserved":false,"is_disabled":false,"rental_uris":{"android":"levelo://app?vid=e511b406-dd8c-4075-91e9-08dad87e4342","ios":"levelo://app?vid=e511b406-dd8c-4075-91e9-08dad87e4342"},"vehicle_type_id":"4","last_reported":1711213597,"current_range_meters":11600,"station_id":"ce4bgr92rcd13ifvqc7g","pricing_plan_id":"cebpf4jnsgd1na2vs0mg"},{"bike_id":"a9d2e5e7-c1f7-44a8-96aa-a8f000a3a69b","system_id":"levelo_inurba_marseille","lat":43.299209,"lon":5.365547,"is_reserved":false,"is_disabled":false,"rental_uris":{"android":"levelo://app?vid=a9d2e5e7-c1f7-44a8-96aa-a8f000a3a69b","ios":"levelo://app?vid=a9d2e5e7-c1f7-44a8-96aa-a8f000a3a69b"},"vehicle_type_id":"4","last_reported":1711213597,"current_range_meters":1200,"station_id":"ce4bgm92rcd13ifvqbr0","pricing_plan_id":"cebpf4jnsgd1na2vs0mg"},{"bike_id":"f44f383c-fd8b-4cdb-8523-51d1f924247f","system_id":"levelo_inurba_marseille","lat":43.299724,"lon":5.371829,"is_reserved":false,"is_disabled":false,"rental_uris":{"android":"levelo://app?vid=f44f383c-fd8b-4cdb-8523-51d1f924247f","ios":"levelo://app?vid=f44f383c-fd8b-4cdb-8523-51d1f924247f"},"vehicle_type_id":"4","last_reported":1711213597,"current_range_meters":800,"station_id":"ce4bgr92rcd13ifvqc7g","pricing_plan_id":"cebpf4jnsgd1na2vs0mg"},{"bike_id":"953bc7ac-87b3-43e4-9d1c-910163739e9e","system_id":"levelo_inurba_marseille","lat":43.29855,"lon":5.36286,"is_reserved":false,"is_disabled":false,"rental_uris":{"android":"levelo://app?vid=953bc7ac-87b3-43e4-9d1c-910163739e9e","ios":"levelo://app?vid=953bc7ac-87b3-43e4-9d1c-910163739e9e"},"vehicle_type_id":"4","last_reported":1711213597,"current_range_meters":16800,"station_id":"ce4bgpp2rcd13ifvqc3g","pricing_plan_id":"cebpf4jnsgd1na2vs0mg"},{"bike_id":"0130f206-19b1-4a03-aaaa-f73905a69fe1","system_id":"levelo_inurba_marseille","lat":43.29853,"lon":5.36284,"is_reserved":false,"is_disabled":false,"rental_uris":{"android":"levelo://app?vid=0130f206-19b1-4a03-aaaa-f73905a69fe1","ios":"levelo://app?vid=0130f206-19b1-4a03-aaaa-f73905a69fe1"},"vehicle_type_id":"4","last_reported":1711213597,"current_range_meters":0,"station_id":"ce4bgpp2rcd13ifvqc3g","pricing_plan_id":"cebpf4jnsgd1na2vs0mg"},{"bike_id":"b142cf73-4906-42f7-a93e-b436539f5130","system_id":"levelo_inurba_marseille","lat":43.29847,"lon":5.36272,"is_reserved":false,"is_disabled":false,"rental_uris":{"android":"levelo://app?vid=b142cf73-4906-42f7-a93e-b436539f5130","ios":"levelo://app?vid=b142cf73-4906-42f7-a93e-b436539f5130"},"vehicle_type_id":"4","last_reported":1711213597,"current_range_meters":5200,"station_id":"ce4bgpp2rcd13ifvqc3g","pricing_plan_id":"cebpf4jnsgd1na2vs0mg"},{"bike_id":"e235379c-ad01-402f-b470-8155b6e5530f","system_id":"levelo_inurba_marseille","lat":43.305364,"lon":5.384119,"is_reserved":false,"is_disabled":false,"rental_uris":{"android":"levelo://app?vid=e235379c-ad01-402f-b470-8155b6e5530f","ios":"levelo://app?vid=e235379c-ad01-402f-b470-8155b6e5530f"},"vehicle_type_id":"4","last_reported":1711213597,"current_range_meters":16800,"station_id":"ce4bgg92rcd13ifvqb30","pricing_plan_id":"cebpf4jnsgd1na2vs0mg"},{"bike_id":"16540177-0f8b-46b6-b4a4-3821bff5dadd","system_id":"levelo_inurba_marseille","lat":43.322872,"lon":5.382756,"is_reserved":false,"is_disabled":false,"rental_uris":{"android":"levelo://app?vid=16540177-0f8b-46b6-b4a4-3821bff5dadd","ios":"levelo://app?vid=16540177-0f8b-46b6-b4a4-3821bff5dadd"},"vehicle_type_id":"4","last_reported":1711213597,"current_range_meters":0,"station_id":"ce4bhr12rcd13ifvqhqg","pricing_plan_id":"cebpf4jnsgd1na2vs0mg"},{"bike_id":"feead7e7-9cee-4c57-94a6-da647512767c","system_id":"levelo_inurba_marseille","lat":43.322896,"lon":5.382515,"is_reserved":false,"is_disabled":false,"rental_uris":{"android":"levelo://app?vid=feead7e7-9cee-4c57-94a6-da647512767c","ios":"levelo://app?vid=feead7e7-9cee-4c57-94a6-da647512767c"},"vehicle_type_id":"4","last_reported":1711213597,"current_range_meters":6400,"station_id":"ce4bhr12rcd13ifvqhqg","pricing_plan_id":"cebpf4jnsgd1na2vs0mg"},{"bike_id":"5e1a9ee3-8790-4b8a-a435-f6f8973fffe2","system_id":"levelo_inurba_marseille","lat":43.29781,"lon":5.371055,"is_reserved":false,"is_disabled":false,"rental_uris":{"android":"levelo://app?vid=5e1a9ee3-8790-4b8a-a435-f6f8973fffe2","ios":"levelo://app?vid=5e1a9ee3-8790-4b8a-a435-f6f8973fffe2"},"vehicle_type_id":"4","last_reported":1711213597,"current_range_meters":0,"station_id":"ce4bgop2rcd13ifvqc1g","pricing_plan_id":"cebpf4jnsgd1na2vs0mg"},{"bike_id":"36727d06-0af4-4c64-88de-4193d3d2494b","system_id":"levelo_inurba_marseille","lat":43.322873,"lon":5.382672,"is_reserved":false,"is_disabled":false,"rental_uris":{"android":"levelo://app?vid=36727d06-0af4-4c64-88de-4193d3d2494b","ios":"levelo://app?vid=36727d06-0af4-4c64-88de-4193d3d2494b"},"vehicle_type_id":"4","last_reported":1711213597,"current_range_meters":0,"station_id":"ce4bhr12rcd13ifvqhqg","pricing_plan_id":"cebpf4jnsgd1na2vs0mg"},{"bike_id":"5852ac4b-fdad-40b3-8c84-23902e63564b","system_id":"levelo_inurba_marseille","lat":43.322872,"lon":5.382756,"is_reserved":false,"is_disabled":false,"rental_uris":{"android":"levelo://app?vid=5852ac4b-fdad-40b3-8c84-23902e63564b","ios":"levelo://app?vid=5852ac4b-fdad-40b3-8c84-23902e63564b"},"vehicle_type_id":"4","last_reported":1711213597,"current_range_meters":6800,"station_id":"ce4bhr12rcd13ifvqhqg","pricing_plan_id":"cebpf4jnsgd1na2vs0mg"},{"bike_id":"8b004ee8-7400-4db7-97a8-7a3b78ef5c51","system_id":"levelo_inurba_marseille","lat":43.322923,"lon":5.38263,"is_reserved":false,"is_disabled":false,"rental_uris":{"android":"levelo://app?vid=8b004ee8-7400-4db7-97a8-7a3b78ef5c51","ios":"levelo://app?vid=8b004ee8-7400-4db7-97a8-7a3b78ef5c51"},"vehicle_type_id":"4","last_reported":1711213597,"current_range_meters":28400,"station_id":"ce4bhr12rcd13ifvqhqg","pricing_plan_id":"cebpf4jnsgd1na2vs0mg"},{"bike_id":"4f4a75fa-11e1-4b9c-9fc5-7e2938322638","system_id":"levelo_inurba_marseille","lat":43.32287,"lon":5.3827,"is_reserved":false,"is_disabled":false,"rental_uris":{"android":"levelo://app?vid=4f4a75fa-11e1-4b9c-9fc5-7e2938322638","ios":"levelo://app?vid=4f4a75fa-11e1-4b9c-9fc5-7e2938322638"},"vehicle_type_id":"4","last_reported":1711213597,"current_range_meters":11600,"station_id":"ce4bhr12rcd13ifvqhqg","pricing_plan_id":"cebpf4jnsgd1na2vs0mg"},{"bike_id":"6778861f-913f-46d7-9610-423069fb6471","system_id":"levelo_inurba_marseille","lat":43.32291,"lon":5.382652,"is_reserved":false,"is_disabled":false,"rental_uris":{"android":"levelo://app?vid=6778861f-913f-46d7-9610-423069fb6471","ios":"levelo://app?vid=6778861f-913f-46d7-9610-423069fb6471"},"vehicle_type_id":"4","last_reported":1711213597,"current_range_meters":8400,"station_id":"ce4bhr12rcd13ifvqhqg","pricing_plan_id":"cebpf4jnsgd1na2vs0mg"},{"bike_id":"0cb4c777-032d-44a5-be30-d516c5dd01ac","system_id":"levelo_inurba_marseille","lat":43.297794,"lon":5.370888,"is_reserved":false,"is_disabled":false,"rental_uris":{"android":"levelo://app?vid=0cb4c777-032d-44a5-be30-d516c5dd01ac","ios":"levelo://app?vid=0cb4c777-032d-44a5-be30-d516c5dd01ac"},"vehicle_type_id":"4","last_reported":1711213597,"current_range_meters":5600,"station_id":"ce4bgop2rcd13ifvqc1g","pricing_plan_id":"cebpf4jnsgd1na2vs0mg"},{"bike_id":"85d4d71c-b2c1-426a-b0b8-be8461195f7e","system_id":"levelo_inurba_marseille","lat":43.322872,"lon":5.382756,"is_reserved":false,"is_disabled":false,"rental_uris":{"android":"levelo://app?vid=85d4d71c-b2c1-426a-b0b8-be8461195f7e","ios":"levelo://app?vid=85d4d71c-b2c1-426a-b0b8-be8461195f7e"},"vehicle_type_id":"4","last_reported":1711213597,"current_range_meters":30800,"station_id":"ce4bhr12rcd13ifvqhqg","pricing_plan_id":"cebpf4jnsgd1na2vs0mg"},{"bike_id":"3ff125a5-dff1-4591-b6cc-449dc2424878","system_id":"levelo_inurba_marseille","lat":43.32293,"lon":5.38268,"is_reserved":false,"is_disabled":false,"rental_uris":{"android":"levelo://app?vid=3ff125a5-dff1-4591-b6cc-449dc2424878","ios":"levelo://app?vid=3ff125a5-dff1-4591-b6cc-449dc2424878"},"vehicle_type_id":"4","last_reported":1711213597,"current_range_meters":5600,"station_id":"ce4bhr12rcd13ifvqhqg","pricing_plan_id":"cebpf4jnsgd1na2vs0mg"},{"bike_id":"c38bb8e1-17a8-4ac5-94e4-07820104ea11","system_id":"levelo_inurba_marseille","lat":43.3229,"lon":5.38272,"is_reserved":false,"is_disabled":false,"rental_uris":{"android":"levelo://app?vid=c38bb8e1-17a8-4ac5-94e4-07820104ea11","ios":"levelo://app?vid=c38bb8e1-17a8-4ac5-94e4-07820104ea11"},"vehicle_type_id":"4","last_reported":1711213597,"current_range_meters":8400,"station_id":"","pricing_plan_id":"cebpf4jnsgd1na2vs0mg"},{"bike_id":"9607cebd-f2b1-4cda-94e6-b812c1eeae5d","system_id":"levelo_inurba_marseille","lat":43.322872,"lon":5.382756,"is_reserved":false,"is_disabled":false,"rental_uris":{"android":"levelo://app?vid=9607cebd-f2b1-4cda-94e6-b812c1eeae5d","ios":"levelo://app?vid=9607cebd-f2b1-4cda-94e6-b812c1eeae5d"},"vehicle_type_id":"4","last_reported":1711213597,"current_range_meters":24800,"station_id":"ce4bhr12rcd13ifvqhqg","pricing_plan_id":"cebpf4jnsgd1na2vs0mg"},{"bike_id":"d2132f33-8d37-458a-9c43-c14da6405c03","system_id":"levelo_inurba_marseille","lat":43.322872,"lon":5.382756,"is_reserved":false,"is_disabled":false,"rental_uris":{"android":"levelo://app?vid=d2132f33-8d37-458a-9c43-c14da6405c03","ios":"levelo://app?vid=d2132f33-8d37-458a-9c43-c14da6405c03"},"vehicle_type_id":"4","last_reported":1711213597,"current_range_meters":22800,"station_id":"ce4bhr12rcd13ifvqhqg","pricing_plan_id":"cebpf4jnsgd1na2vs0mg"},{"bike_id":"14c0cbae-33c0-40fc-9d91-9f7567f9e247","system_id":"levelo_inurba_marseille","lat":43.297703,"lon":5.371476,"is_reserved":false,"is_disabled":false,"rental_uris":{"android":"levelo://app?vid=14c0cbae-33c0-40fc-9d91-9f7567f9e247","ios":"levelo://app?vid=14c0cbae-33c0-40fc-9d91-9f7567f9e247"},"vehicle_type_id":"4","last_reported":1711213597,"current_range_meters":6400,"station_id":"ce4bgop2rcd13ifvqc1g","pricing_plan_id":"cebpf4jnsgd1na2vs0mg"},{"bike_id":"25d10225-bdc0-4b28-98f7-f8e722128a68","system_id":"levelo_inurba_marseille","lat":43.297226,"lon":5.366104,"is_reserved":false,"is_disabled":false,"rental_uris":{"android":"levelo://app?vid=25d10225-bdc0-4b28-98f7-f8e722128a68","ios":"levelo://app?vid=25d10225-bdc0-4b28-98f7-f8e722128a68"},"vehicle_type_id":"4","last_reported":1711213597,"current_range_meters":0,"station_id":"ce4bgn12rcd13ifvqbt0","pricing_plan_id":"cebpf4jnsgd1na2vs0mg"},{"bike_id":"3fbd1abd-a194-4657-b9f2-13b88f7cf31c","system_id":"levelo_inurba_marseille","lat":43.297163,"lon":5.365866,"is_reserved":false,"is_disabled":false,"rental_uris":{"android":"levelo://app?vid=3fbd1abd-a194-4657-b9f2-13b88f7cf31c","ios":"levelo://app?vid=3fbd1abd-a194-4657-b9f2-13b88f7cf31c"},"vehicle_type_id":"4","last_reported":1711213597,"current_range_meters":2000,"station_id":"ce4bgn12rcd13ifvqbt0","pricing_plan_id":"cebpf4jnsgd1na2vs0mg"},{"bike_id":"e9f5dce8-7178-453b-99f2-0bf25c515c7d","system_id":"levelo_inurba_marseille","lat":43.297163,"lon":5.365866,"is_reserved":false,"is_disabled":false,"rental_uris":{"android":"levelo://app?vid=e9f5dce8-7178-453b-99f2-0bf25c515c7d","ios":"levelo://app?vid=e9f5dce8-7178-453b-99f2-0bf25c515c7d"},"vehicle_type_id":"4","last_reported":1711213597,"current_range_meters":9600,"station_id":"ce4bgn12rcd13ifvqbt0","pricing_plan_id":"cebpf4jnsgd1na2vs0mg"},{"bike_id":"7e78787f-c901-402b-86cd-ec237cf652db","system_id":"levelo_inurba_marseille","lat":43.297163,"lon":5.365866,"is_reserved":false,"is_disabled":false,"rental_uris":{"android":"levelo://app?vid=7e78787f-c901-402b-86cd-ec237cf652db","ios":"levelo://app?vid=7e78787f-c901-402b-86cd-ec237cf652db"},"vehicle_type_id":"4","last_reported":1711213597,"current_range_meters":12800,"station_id":"ce4bgn12rcd13ifvqbt0","pricing_plan_id":"cebpf4jnsgd1na2vs0mg"},{"bike_id":"5b1440f3-bebd-4d07-9d2d-24faadb8f833","system_id":"levelo_inurba_marseille","lat":43.297163,"lon":5.365866,"is_reserved":false,"is_disabled":false,"rental_uris":{"android":"levelo://app?vid=5b1440f3-bebd-4d07-9d2d-24faadb8f833","ios":"levelo://app?vid=5b1440f3-bebd-4d07-9d2d-24faadb8f833"},"vehicle_type_id":"4","last_reported":1711213597,"current_range_meters":20800,"station_id":"ce4bgn12rcd13ifvqbt0","pricing_plan_id":"cebpf4jnsgd1na2vs0mg"},{"bike_id":"b000cf4e-edce-4f79-ac58-fbd3ca5f6fa9","system_id":"levelo_inurba_marseille","lat":43.2968,"lon":5.37291,"is_reserved":false,"is_disabled":false,"rental_uris":{"android":"levelo://app?vid=b000cf4e-edce-4f79-ac58-fbd3ca5f6fa9","ios":"levelo://app?vid=b000cf4e-edce-4f79-ac58-fbd3ca5f6fa9"},"vehicle_type_id":"4","last_reported":1711213597,"current_range_meters":1600,"station_id":"ce4bgk12rcd13ifvqbj0","pricing_plan_id":"cebpf4jnsgd1na2vs0mg"},{"bike_id":"15331b38-0166-46ca-8cb8-03ecf08c7f7d","system_id":"levelo_inurba_marseille","lat":43.2968,"lon":5.37291,"is_reserved":false,"is_disabled":false,"rental_uris":{"android":"levelo://app?vid=15331b38-0166-46ca-8cb8-03ecf08c7f7d","ios":"levelo://app?vid=15331b38-0166-46ca-8cb8-03ecf08c7f7d"},"vehicle_type_id":"4","last_reported":1711213597,"current_range_meters":4400,"station_id":"ce4bgk12rcd13ifvqbj0","pricing_plan_id":"cebpf4jnsgd1na2vs0mg"},{"bike_id":"478b0a2d-5b83-4a04-bf2d-4b892efe4378","system_id":"levelo_inurba_marseille","lat":43.296131,"lon":5.370791,"is_reserved":false,"is_disabled":false,"rental_uris":{"android":"levelo://app?vid=478b0a2d-5b83-4a04-bf2d-4b892efe4378","ios":"levelo://app?vid=478b0a2d-5b83-4a04-bf2d-4b892efe4378"},"vehicle_type_id":"4","last_reported":1711213597,"current_range_meters":2000,"station_id":"ce4bgnh2rcd13ifvqc0g","pricing_plan_id":"cebpf4jnsgd1na2vs0mg"},{"bike_id":"3e6754d1-f930-492b-ba7c-1c58f6a0c286","system_id":"levelo_inurba_marseille","lat":43.296131,"lon":5.370791,"is_reserved":false,"is_disabled":false,"rental_uris":{"android":"levelo://app?vid=3e6754d1-f930-492b-ba7c-1c58f6a0c286","ios":"levelo://app?vid=3e6754d1-f930-492b-ba7c-1c58f6a0c286"},"vehicle_type_id":"4","last_reported":1711213597,"current_range_meters":0,"station_id":"ce4bgnh2rcd13ifvqc0g","pricing_plan_id":"cebpf4jnsgd1na2vs0mg"},{"bike_id":"7a57c8b4-43c5-46fc-9ae2-a39d7b0c359f","system_id":"levelo_inurba_marseille","lat":43.296131,"lon":5.370773,"is_reserved":false,"is_disabled":false,"rental_uris":{"android":"levelo://app?vid=7a57c8b4-43c5-46fc-9ae2-a39d7b0c359f","ios":"levelo://app?vid=7a57c8b4-43c5-46fc-9ae2-a39d7b0c359f"},"vehicle_type_id":"4","last_reported":1711213597,"current_range_meters":1200,"station_id":"ce4bgnh2rcd13ifvqc0g","pricing_plan_id":"cebpf4jnsgd1na2vs0mg"},{"bike_id":"95f14ee6-7cfe-498d-80ea-64fe66bc4feb","system_id":"levelo_inurba_marseille","lat":43.29573,"lon":5.367355,"is_reserved":false,"is_disabled":false,"rental_uris":{"android":"levelo://app?vid=95f14ee6-7cfe-498d-80ea-64fe66bc4feb","ios":"levelo://app?vid=95f14ee6-7cfe-498d-80ea-64fe66bc4feb"},"vehicle_type_id":"4","last_reported":1711213597,"current_range_meters":10800,"station_id":"ce4bgph2rcd13ifvqc2g","pricing_plan_id":"cebpf4jnsgd1na2vs0mg"},{"bike_id":"31a4619e-f7d7-4eeb-aee5-744d8d25e8bc","system_id":"levelo_inurba_marseille","lat":43.309589,"lon":5.390258,"is_reserved":false,"is_disabled":false,"rental_uris":{"android":"levelo://app?vid=31a4619e-f7d7-4eeb-aee5-744d8d25e8bc","ios":"levelo://app?vid=31a4619e-f7d7-4eeb-aee5-744d8d25e8bc"},"vehicle_type_id":"4","last_reported":1711213597,"current_range_meters":23200,"station_id":"ce4bgup2rcd13ifvqco0","pricing_plan_id":"cebpf4jnsgd1na2vs0mg"},{"bike_id":"1db953f3-75a1-41ee-9bd8-7b78f6bcd45e","system_id":"levelo_inurba_marseille","lat":43.309589,"lon":5.390258,"is_reserved":false,"is_disabled":false,"rental_uris":{"android":"levelo://app?vid=1db953f3-75a1-41ee-9bd8-7b78f6bcd45e","ios":"levelo://app?vid=1db953f3-75a1-41ee-9bd8-7b78f6bcd45e"},"vehicle_type_id":"4","last_reported":1711213597,"current_range_meters":25600,"station_id":"ce4bgup2rcd13ifvqco0","pricing_plan_id":"cebpf4jnsgd1na2vs0mg"},{"bike_id":"44c3521e-fc6b-4941-9a42-9e55073c69b4","system_id":"levelo_inurba_marseille","lat":43.31759,"lon":5.39011,"is_reserved":false,"is_disabled":false,"rental_uris":{"android":"levelo://app?vid=44c3521e-fc6b-4941-9a42-9e55073c69b4","ios":"levelo://app?vid=44c3521e-fc6b-4941-9a42-9e55073c69b4"},"vehicle_type_id":"4","last_reported":1711213597,"current_range_meters":30400,"station_id":"ce4bhqp2rcd13ifvqhng","pricing_plan_id":"cebpf4jnsgd1na2vs0mg"},{"bike_id":"f094d01c-5a96-4449-a3c2-ca0ed18b8b5b","system_id":"levelo_inurba_marseille","lat":43.31754,"lon":5.39014,"is_reserved":false,"is_disabled":false,"rental_uris":{"android":"levelo://app?vid=f094d01c-5a96-4449-a3c2-ca0ed18b8b5b","ios":"levelo://app?vid=f094d01c-5a96-4449-a3c2-ca0ed18b8b5b"},"vehicle_type_id":"4","last_reported":1711213597,"current_range_meters":2800,"station_id":"ce4bhqp2rcd13ifvqhng","pricing_plan_id":"cebpf4jnsgd1na2vs0mg"},{"bike_id":"f5385803-60b9-40d4-a785-a682b56a87c7","system_id":"levelo_inurba_marseille","lat":43.31762,"lon":5.39011,"is_reserved":false,"is_disabled":false,"rental_uris":{"android":"levelo://app?vid=f5385803-60b9-40d4-a785-a682b56a87c7","ios":"levelo://app?vid=f5385803-60b9-40d4-a785-a682b56a87c7"},"vehicle_type_id":"4","last_reported":1711213597,"current_range_meters":10400,"station_id":"ce4bhqp2rcd13ifvqhng","pricing_plan_id":"cebpf4jnsgd1na2vs0mg"},{"bike_id":"7c6d33e7-ac90-4f9c-9622-3f081863d0a4","system_id":"levelo_inurba_marseille","lat":43.31769,"lon":5.3901,"is_reserved":false,"is_disabled":false,"rental_uris":{"android":"levelo://app?vid=7c6d33e7-ac90-4f9c-9622-3f081863d0a4","ios":"levelo://app?vid=7c6d33e7-ac90-4f9c-9622-3f081863d0a4"},"vehicle_type_id":"4","last_reported":1711213597,"current_range_meters":9600,"station_id":"ce4bhqp2rcd13ifvqhng","pricing_plan_id":"cebpf4jnsgd1na2vs0mg"},{"bike_id":"d18b1c8b-0b71-4df3-9eb4-55a046b3c33d","system_id":"levelo_inurba_marseille","lat":43.31762,"lon":5.39014,"is_reserved":false,"is_disabled":false,"rental_uris":{"android":"levelo://app?vid=d18b1c8b-0b71-4df3-9eb4-55a046b3c33d","ios":"levelo://app?vid=d18b1c8b-0b71-4df3-9eb4-55a046b3c33d"},"vehicle_type_id":"4","last_reported":1711213597,"current_range_meters":5200,"station_id":"ce4bhqp2rcd13ifvqhng","pricing_plan_id":"cebpf4jnsgd1na2vs0mg"},{"bike_id":"8eb80f4d-24dd-4242-9501-d98d7e9c909e","system_id":"levelo_inurba_marseille","lat":43.31761,"lon":5.39015,"is_reserved":false,"is_disabled":false,"rental_uris":{"android":"levelo://app?vid=8eb80f4d-24dd-4242-9501-d98d7e9c909e","ios":"levelo://app?vid=8eb80f4d-24dd-4242-9501-d98d7e9c909e"},"vehicle_type_id":"4","last_reported":1711213597,"current_range_meters":6000,"station_id":"ce4bhqp2rcd13ifvqhng","pricing_plan_id":"cebpf4jnsgd1na2vs0mg"},{"bike_id":"9bd5e674-e56c-4573-9c0d-85050958b0a0","system_id":"levelo_inurba_marseille","lat":43.317557,"lon":5.390173,"is_reserved":false,"is_disabled":false,"rental_uris":{"android":"levelo://app?vid=9bd5e674-e56c-4573-9c0d-85050958b0a0","ios":"levelo://app?vid=9bd5e674-e56c-4573-9c0d-85050958b0a0"},"vehicle_type_id":"4","last_reported":1711213597,"current_range_meters":21200,"station_id":"ce4bhqp2rcd13ifvqhng","pricing_plan_id":"cebpf4jnsgd1na2vs0mg"},{"bike_id":"64faaf0e-8299-47ab-9335-1274f7d2f7f6","system_id":"levelo_inurba_marseille","lat":43.317513,"lon":5.390203,"is_reserved":false,"is_disabled":false,"rental_uris":{"android":"levelo://app?vid=64faaf0e-8299-47ab-9335-1274f7d2f7f6","ios":"levelo://app?vid=64faaf0e-8299-47ab-9335-1274f7d2f7f6"},"vehicle_type_id":"4","last_reported":1711213597,"current_range_meters":11600,"station_id":"ce4bhqp2rcd13ifvqhng","pricing_plan_id":"cebpf4jnsgd1na2vs0mg"},{"bike_id":"d00e3f4c-1b6b-41b4-973f-d08fc1e3b345","system_id":"levelo_inurba_marseille","lat":43.31761,"lon":5.39018,"is_reserved":false,"is_disabled":false,"rental_uris":{"android":"levelo://app?vid=d00e3f4c-1b6b-41b4-973f-d08fc1e3b345","ios":"levelo://app?vid=d00e3f4c-1b6b-41b4-973f-d08fc1e3b345"},"vehicle_type_id":"4","last_reported":1711213597,"current_range_meters":2800,"station_id":"ce4bhqp2rcd13ifvqhng","pricing_plan_id":"cebpf4jnsgd1na2vs0mg"},{"bike_id":"a84494ff-e488-44c6-9347-0b89aeb12141","system_id":"levelo_inurba_marseille","lat":43.317557,"lon":5.390173,"is_reserved":false,"is_disabled":false,"rental_uris":{"android":"levelo://app?vid=a84494ff-e488-44c6-9347-0b89aeb12141","ios":"levelo://app?vid=a84494ff-e488-44c6-9347-0b89aeb12141"},"vehicle_type_id":"4","last_reported":1711213597,"current_range_meters":9200,"station_id":"ce4bhqp2rcd13ifvqhng","pricing_plan_id":"cebpf4jnsgd1na2vs0mg"},{"bike_id":"8038916e-1d0c-4aef-9319-ddb1489fca3e","system_id":"levelo_inurba_marseille","lat":43.31759,"lon":5.39023,"is_reserved":false,"is_disabled":false,"rental_uris":{"android":"levelo://app?vid=8038916e-1d0c-4aef-9319-ddb1489fca3e","ios":"levelo://app?vid=8038916e-1d0c-4aef-9319-ddb1489fca3e"},"vehicle_type_id":"4","last_reported":1711213597,"current_range_meters":2000,"station_id":"ce4bhqp2rcd13ifvqhng","pricing_plan_id":"cebpf4jnsgd1na2vs0mg"},{"bike_id":"8613e140-9742-4900-beb7-bb86bd73b07a","system_id":"levelo_inurba_marseille","lat":43.317557,"lon":5.390173,"is_reserved":false,"is_disabled":false,"rental_uris":{"android":"levelo://app?vid=8613e140-9742-4900-beb7-bb86bd73b07a","ios":"levelo://app?vid=8613e140-9742-4900-beb7-bb86bd73b07a"},"vehicle_type_id":"4","last_reported":1711213597,"current_range_meters":2400,"station_id":"ce4bhqp2rcd13ifvqhng","pricing_plan_id":"cebpf4jnsgd1na2vs0mg"},{"bike_id":"4e6c131f-d350-4083-b5f9-09f10650c82f","system_id":"levelo_inurba_marseille","lat":43.29809,"lon":5.381,"is_reserved":false,"is_disabled":false,"rental_uris":{"android":"levelo://app?vid=4e6c131f-d350-4083-b5f9-09f10650c82f","ios":"levelo://app?vid=4e6c131f-d350-4083-b5f9-09f10650c82f"},"vehicle_type_id":"4","last_reported":1711213597,"current_range_meters":0,"station_id":"ce4bgip2rcd13ifvqbb0","pricing_plan_id":"cebpf4jnsgd1na2vs0mg"},{"bike_id":"0da8862f-13a1-4b56-b918-a8d6dbf32490","system_id":"levelo_inurba_marseille","lat":43.29572,"lon":5.37509,"is_reserved":false,"is_disabled":false,"rental_uris":{"android":"levelo://app?vid=0da8862f-13a1-4b56-b918-a8d6dbf32490","ios":"levelo://app?vid=0da8862f-13a1-4b56-b918-a8d6dbf32490"},"vehicle_type_id":"4","last_reported":1711213597,"current_range_meters":0,"station_id":"ce4bgh92rcd13ifvqb50","pricing_plan_id":"cebpf4jnsgd1na2vs0mg"},{"bike_id":"d2655378-8de9-4c26-915a-e8ca37446f64","system_id":"levelo_inurba_marseille","lat":43.298037,"lon":5.381066,"is_reserved":false,"is_disabled":false,"rental_uris":{"android":"levelo://app?vid=d2655378-8de9-4c26-915a-e8ca37446f64","ios":"levelo://app?vid=d2655378-8de9-4c26-915a-e8ca37446f64"},"vehicle_type_id":"4","last_reported":1711213597,"current_range_meters":0,"station_id":"ce4bgip2rcd13ifvqbb0","pricing_plan_id":"cebpf4jnsgd1na2vs0mg"},{"bike_id":"4f3a3b7a-8223-40a9-ab19-f33eee9dad38","system_id":"levelo_inurba_marseille","lat":43.295695,"lon":5.375063,"is_reserved":false,"is_disabled":false,"rental_uris":{"android":"levelo://app?vid=4f3a3b7a-8223-40a9-ab19-f33eee9dad38","ios":"levelo://app?vid=4f3a3b7a-8223-40a9-ab19-f33eee9dad38"},"vehicle_type_id":"4","last_reported":1711213597,"current_range_meters":800,"station_id":"ce4bgh92rcd13ifvqb50","pricing_plan_id":"cebpf4jnsgd1na2vs0mg"},{"bike_id":"4f791474-da68-4067-a827-3b8a5cf2c5f2","system_id":"levelo_inurba_marseille","lat":43.29552,"lon":5.37477,"is_reserved":false,"is_disabled":false,"rental_uris":{"android":"levelo://app?vid=4f791474-da68-4067-a827-3b8a5cf2c5f2","ios":"levelo://app?vid=4f791474-da68-4067-a827-3b8a5cf2c5f2"},"vehicle_type_id":"4","last_reported":1711213597,"current_range_meters":0,"station_id":"ce4bgh92rcd13ifvqb50","pricing_plan_id":"cebpf4jnsgd1na2vs0mg"},{"bike_id":"945f74cc-ee55-4e1c-a723-39f7052c7d81","system_id":"levelo_inurba_marseille","lat":43.296192,"lon":5.377181,"is_reserved":false,"is_disabled":false,"rental_uris":{"android":"levelo://app?vid=945f74cc-ee55-4e1c-a723-39f7052c7d81","ios":"levelo://app?vid=945f74cc-ee55-4e1c-a723-39f7052c7d81"},"vehicle_type_id":"4","last_reported":1711213597,"current_range_meters":0,"station_id":"ce4bgi92rcd13ifvqb90","pricing_plan_id":"cebpf4jnsgd1na2vs0mg"},{"bike_id":"6d546e63-b0a5-4cf6-9428-e4d3b827d631","system_id":"levelo_inurba_marseille","lat":43.295279,"lon":5.375048,"is_reserved":false,"is_disabled":false,"rental_uris":{"android":"levelo://app?vid=6d546e63-b0a5-4cf6-9428-e4d3b827d631","ios":"levelo://app?vid=6d546e63-b0a5-4cf6-9428-e4d3b827d631"},"vehicle_type_id":"4","last_reported":1711213597,"current_range_meters":0,"station_id":"ce4bgkp2rcd13ifvqbmg","pricing_plan_id":"cebpf4jnsgd1na2vs0mg"},{"bike_id":"de06bcb5-74ba-4c88-affb-62f844713de2","system_id":"levelo_inurba_marseille","lat":43.295279,"lon":5.375048,"is_reserved":false,"is_disabled":false,"rental_uris":{"android":"levelo://app?vid=de06bcb5-74ba-4c88-affb-62f844713de2","ios":"levelo://app?vid=de06bcb5-74ba-4c88-affb-62f844713de2"},"vehicle_type_id":"4","last_reported":1711213597,"current_range_meters":4800,"station_id":"ce4bgkp2rcd13ifvqbmg","pricing_plan_id":"cebpf4jnsgd1na2vs0mg"},{"bike_id":"617b0e6f-676e-40f0-bbaf-c9395e5b4dcd","system_id":"levelo_inurba_marseille","lat":43.314603,"lon":5.392119,"is_reserved":false,"is_disabled":false,"rental_uris":{"android":"levelo://app?vid=617b0e6f-676e-40f0-bbaf-c9395e5b4dcd","ios":"levelo://app?vid=617b0e6f-676e-40f0-bbaf-c9395e5b4dcd"},"vehicle_type_id":"4","last_reported":1711213597,"current_range_meters":11200,"station_id":"","pricing_plan_id":"cebpf4jnsgd1na2vs0mg"},{"bike_id":"13147c1d-6739-4909-a3f3-0bfdee6ace64","system_id":"levelo_inurba_marseille","lat":43.304278,"lon":5.388868,"is_reserved":false,"is_disabled":false,"rental_uris":{"android":"levelo://app?vid=13147c1d-6739-4909-a3f3-0bfdee6ace64","ios":"levelo://app?vid=13147c1d-6739-4909-a3f3-0bfdee6ace64"},"vehicle_type_id":"4","last_reported":1711213597,"current_range_meters":8400,"station_id":"ce4bgk12rcd13ifvqbi0","pricing_plan_id":"cebpf4jnsgd1na2vs0mg"},{"bike_id":"06c6048d-d401-4b64-b0b2-2d5e7cab1f15","system_id":"levelo_inurba_marseille","lat":43.299724,"lon":5.384848,"is_reserved":false,"is_disabled":false,"rental_uris":{"android":"levelo://app?vid=06c6048d-d401-4b64-b0b2-2d5e7cab1f15","ios":"levelo://app?vid=06c6048d-d401-4b64-b0b2-2d5e7cab1f15"},"vehicle_type_id":"4","last_reported":1711213597,"current_range_meters":8800,"station_id":"ce4bgj92rcd13ifvqbd0","pricing_plan_id":"cebpf4jnsgd1na2vs0mg"},{"bike_id":"040812c2-1454-4e2f-baf4-3c3bb454cd9b","system_id":"levelo_inurba_marseille","lat":43.299717,"lon":5.384845,"is_reserved":false,"is_disabled":false,"rental_uris":{"android":"levelo://app?vid=040812c2-1454-4e2f-baf4-3c3bb454cd9b","ios":"levelo://app?vid=040812c2-1454-4e2f-baf4-3c3bb454cd9b"},"vehicle_type_id":"4","last_reported":1711213597,"current_range_meters":7200,"station_id":"ce4bgj92rcd13ifvqbd0","pricing_plan_id":"cebpf4jnsgd1na2vs0mg"},{"bike_id":"15ff85cf-f6c4-48f1-ba44-1045bcee451d","system_id":"levelo_inurba_marseille","lat":43.299707,"lon":5.384859,"is_reserved":false,"is_disabled":false,"rental_uris":{"android":"levelo://app?vid=15ff85cf-f6c4-48f1-ba44-1045bcee451d","ios":"levelo://app?vid=15ff85cf-f6c4-48f1-ba44-1045bcee451d"},"vehicle_type_id":"4","last_reported":1711213597,"current_range_meters":10800,"station_id":"ce4bgj92rcd13ifvqbd0","pricing_plan_id":"cebpf4jnsgd1na2vs0mg"},{"bike_id":"50c807cd-f79c-4f7f-9dbd-5ae996b3eb48","system_id":"levelo_inurba_marseille","lat":43.299724,"lon":5.384848,"is_reserved":false,"is_disabled":false,"rental_uris":{"android":"levelo://app?vid=50c807cd-f79c-4f7f-9dbd-5ae996b3eb48","ios":"levelo://app?vid=50c807cd-f79c-4f7f-9dbd-5ae996b3eb48"},"vehicle_type_id":"4","last_reported":1711213597,"current_range_meters":20000,"station_id":"ce4bgj92rcd13ifvqbd0","pricing_plan_id":"cebpf4jnsgd1na2vs0mg"},{"bike_id":"4b09b919-be7f-4a91-80cf-d03aa2494915","system_id":"levelo_inurba_marseille","lat":43.299724,"lon":5.384848,"is_reserved":false,"is_disabled":false,"rental_uris":{"android":"levelo://app?vid=4b09b919-be7f-4a91-80cf-d03aa2494915","ios":"levelo://app?vid=4b09b919-be7f-4a91-80cf-d03aa2494915"},"vehicle_type_id":"4","last_reported":1711213597,"current_range_meters":0,"station_id":"ce4bgj92rcd13ifvqbd0","pricing_plan_id":"cebpf4jnsgd1na2vs0mg"},{"bike_id":"a05f30ab-b918-4114-a377-e57f9ba1d06e","system_id":"levelo_inurba_marseille","lat":43.299707,"lon":5.384859,"is_reserved":false,"is_disabled":false,"rental_uris":{"android":"levelo://app?vid=a05f30ab-b918-4114-a377-e57f9ba1d06e","ios":"levelo://app?vid=a05f30ab-b918-4114-a377-e57f9ba1d06e"},"vehicle_type_id":"4","last_reported":1711213597,"current_range_meters":6000,"station_id":"ce4bgj92rcd13ifvqbd0","pricing_plan_id":"cebpf4jnsgd1na2vs0mg"},{"bike_id":"39a8ed10-4b15-4b30-9b47-d22bc88b3eda","system_id":"levelo_inurba_marseille","lat":43.299724,"lon":5.384848,"is_reserved":false,"is_disabled":false,"rental_uris":{"android":"levelo://app?vid=39a8ed10-4b15-4b30-9b47-d22bc88b3eda","ios":"levelo://app?vid=39a8ed10-4b15-4b30-9b47-d22bc88b3eda"},"vehicle_type_id":"4","last_reported":1711213597,"current_range_meters":10000,"station_id":"ce4bgj92rcd13ifvqbd0","pricing_plan_id":"cebpf4jnsgd1na2vs0mg"},{"bike_id":"cd3ad0dd-115f-4e17-bc69-39e1287d5727","system_id":"levelo_inurba_marseille","lat":43.32365,"lon":5.38882,"is_reserved":false,"is_disabled":false,"rental_uris":{"android":"levelo://app?vid=cd3ad0dd-115f-4e17-bc69-39e1287d5727","ios":"levelo://app?vid=cd3ad0dd-115f-4e17-bc69-39e1287d5727"},"vehicle_type_id":"4","last_reported":1711213597,"current_range_meters":6000,"station_id":"ce4bhqp2rcd13ifvqhog","pricing_plan_id":"cebpf4jnsgd1na2vs0mg"},{"bike_id":"69738a8d-1063-40c1-9fbe-d87a7e8c839f","system_id":"levelo_inurba_marseille","lat":43.32367,"lon":5.388836,"is_reserved":false,"is_disabled":false,"rental_uris":{"android":"levelo://app?vid=69738a8d-1063-40c1-9fbe-d87a7e8c839f","ios":"levelo://app?vid=69738a8d-1063-40c1-9fbe-d87a7e8c839f"},"vehicle_type_id":"4","last_reported":1711213597,"current_range_meters":10400,"station_id":"ce4bhqp2rcd13ifvqhog","pricing_plan_id":"cebpf4jnsgd1na2vs0mg"},{"bike_id":"0283b869-4093-47cb-b34f-d5e4a958e8e6","system_id":"levelo_inurba_marseille","lat":43.32368,"lon":5.38883,"is_reserved":false,"is_disabled":false,"rental_uris":{"android":"levelo://app?vid=0283b869-4093-47cb-b34f-d5e4a958e8e6","ios":"levelo://app?vid=0283b869-4093-47cb-b34f-d5e4a958e8e6"},"vehicle_type_id":"4","last_reported":1711213597,"current_range_meters":9600,"station_id":"ce4bhqp2rcd13ifvqhog","pricing_plan_id":"cebpf4jnsgd1na2vs0mg"},{"bike_id":"a368bc3d-af6a-4d93-af60-91f9ec726d7f","system_id":"levelo_inurba_marseille","lat":43.32367,"lon":5.388836,"is_reserved":false,"is_disabled":false,"rental_uris":{"android":"levelo://app?vid=a368bc3d-af6a-4d93-af60-91f9ec726d7f","ios":"levelo://app?vid=a368bc3d-af6a-4d93-af60-91f9ec726d7f"},"vehicle_type_id":"4","last_reported":1711213597,"current_range_meters":20400,"station_id":"ce4bhqp2rcd13ifvqhog","pricing_plan_id":"cebpf4jnsgd1na2vs0mg"},{"bike_id":"69377fc2-8b2a-4316-ae68-3664d4d5fc7e","system_id":"levelo_inurba_marseille","lat":43.32369,"lon":5.38885,"is_reserved":false,"is_disabled":false,"rental_uris":{"android":"levelo://app?vid=69377fc2-8b2a-4316-ae68-3664d4d5fc7e","ios":"levelo://app?vid=69377fc2-8b2a-4316-ae68-3664d4d5fc7e"},"vehicle_type_id":"4","last_reported":1711213597,"current_range_meters":7200,"station_id":"ce4bhqp2rcd13ifvqhog","pricing_plan_id":"cebpf4jnsgd1na2vs0mg"},{"bike_id":"f9f23bf2-f39b-48ab-bde5-deddb20735fe","system_id":"levelo_inurba_marseille","lat":43.32369,"lon":5.38889,"is_reserved":false,"is_disabled":false,"rental_uris":{"android":"levelo://app?vid=f9f23bf2-f39b-48ab-bde5-deddb20735fe","ios":"levelo://app?vid=f9f23bf2-f39b-48ab-bde5-deddb20735fe"},"vehicle_type_id":"4","last_reported":1711213597,"current_range_meters":400,"station_id":"ce4bhqp2rcd13ifvqhog","pricing_plan_id":"cebpf4jnsgd1na2vs0mg"},{"bike_id":"eb509a22-9432-4cd6-8344-10a2c9bd8ebe","system_id":"levelo_inurba_marseille","lat":43.29602,"lon":5.381084,"is_reserved":false,"is_disabled":false,"rental_uris":{"android":"levelo://app?vid=eb509a22-9432-4cd6-8344-10a2c9bd8ebe","ios":"levelo://app?vid=eb509a22-9432-4cd6-8344-10a2c9bd8ebe"},"vehicle_type_id":"4","last_reported":1711213597,"current_range_meters":0,"station_id":"ce4bgl12rcd13ifvqbo0","pricing_plan_id":"cebpf4jnsgd1na2vs0mg"},{"bike_id":"57423f4a-e7f6-4477-a4f9-95dd2ac8535a","system_id":"levelo_inurba_marseille","lat":43.29602,"lon":5.381084,"is_reserved":false,"is_disabled":false,"rental_uris":{"android":"levelo://app?vid=57423f4a-e7f6-4477-a4f9-95dd2ac8535a","ios":"levelo://app?vid=57423f4a-e7f6-4477-a4f9-95dd2ac8535a"},"vehicle_type_id":"4","last_reported":1711213597,"current_range_meters":15200,"station_id":"ce4bgl12rcd13ifvqbo0","pricing_plan_id":"cebpf4jnsgd1na2vs0mg"},{"bike_id":"e769f7f8-a819-4ed2-8f5f-7e0fa1addac6","system_id":"levelo_inurba_marseille","lat":43.293259,"lon":5.371586,"is_reserved":false,"is_disabled":false,"rental_uris":{"android":"levelo://app?vid=e769f7f8-a819-4ed2-8f5f-7e0fa1addac6","ios":"levelo://app?vid=e769f7f8-a819-4ed2-8f5f-7e0fa1addac6"},"vehicle_type_id":"4","last_reported":1711213597,"current_range_meters":20400,"station_id":"ce4bgh92rcd13ifvqb40","pricing_plan_id":"cebpf4jnsgd1na2vs0mg"},{"bike_id":"bb561750-99cb-422e-a24f-400545f88e9a","system_id":"levelo_inurba_marseille","lat":43.29309,"lon":5.37182,"is_reserved":false,"is_disabled":false,"rental_uris":{"android":"levelo://app?vid=bb561750-99cb-422e-a24f-400545f88e9a","ios":"levelo://app?vid=bb561750-99cb-422e-a24f-400545f88e9a"},"vehicle_type_id":"4","last_reported":1711213597,"current_range_meters":0,"station_id":"ce4bgh92rcd13ifvqb40","pricing_plan_id":"cebpf4jnsgd1na2vs0mg"},{"bike_id":"d808891e-fa90-4125-b9a2-e3063f3d00b1","system_id":"levelo_inurba_marseille","lat":43.293259,"lon":5.371586,"is_reserved":false,"is_disabled":false,"rental_uris":{"android":"levelo://app?vid=d808891e-fa90-4125-b9a2-e3063f3d00b1","ios":"levelo://app?vid=d808891e-fa90-4125-b9a2-e3063f3d00b1"},"vehicle_type_id":"4","last_reported":1711213597,"current_range_meters":30400,"station_id":"ce4bgh92rcd13ifvqb40","pricing_plan_id":"cebpf4jnsgd1na2vs0mg"},{"bike_id":"b7556c85-6976-4c3c-b752-09a73b62cf7b","system_id":"levelo_inurba_marseille","lat":43.29306,"lon":5.37186,"is_reserved":false,"is_disabled":false,"rental_uris":{"android":"levelo://app?vid=b7556c85-6976-4c3c-b752-09a73b62cf7b","ios":"levelo://app?vid=b7556c85-6976-4c3c-b752-09a73b62cf7b"},"vehicle_type_id":"4","last_reported":1711213597,"current_range_meters":0,"station_id":"ce4bgh92rcd13ifvqb40","pricing_plan_id":"cebpf4jnsgd1na2vs0mg"},{"bike_id":"d645f5c1-3ed6-4817-92e5-942ea27539ac","system_id":"levelo_inurba_marseille","lat":43.293259,"lon":5.371586,"is_reserved":false,"is_disabled":false,"rental_uris":{"android":"levelo://app?vid=d645f5c1-3ed6-4817-92e5-942ea27539ac","ios":"levelo://app?vid=d645f5c1-3ed6-4817-92e5-942ea27539ac"},"vehicle_type_id":"4","last_reported":1711213597,"current_range_meters":18400,"station_id":"ce4bgh92rcd13ifvqb40","pricing_plan_id":"cebpf4jnsgd1na2vs0mg"},{"bike_id":"92e25f5e-19cb-4bbc-8669-40c84b39c9e7","system_id":"levelo_inurba_marseille","lat":43.293009,"lon":5.374584,"is_reserved":false,"is_disabled":false,"rental_uris":{"android":"levelo://app?vid=92e25f5e-19cb-4bbc-8669-40c84b39c9e7","ios":"levelo://app?vid=92e25f5e-19cb-4bbc-8669-40c84b39c9e7"},"vehicle_type_id":"4","last_reported":1711213597,"current_range_meters":400,"station_id":"ce4bgi12rcd13ifvqb70","pricing_plan_id":"cebpf4jnsgd1na2vs0mg"},{"bike_id":"89df61d9-6a98-4593-9b28-30ce3b7c99e4","system_id":"levelo_inurba_marseille","lat":43.293009,"lon":5.374584,"is_reserved":false,"is_disabled":false,"rental_uris":{"android":"levelo://app?vid=89df61d9-6a98-4593-9b28-30ce3b7c99e4","ios":"levelo://app?vid=89df61d9-6a98-4593-9b28-30ce3b7c99e4"},"vehicle_type_id":"4","last_reported":1711213597,"current_range_meters":29200,"station_id":"ce4bgi12rcd13ifvqb70","pricing_plan_id":"cebpf4jnsgd1na2vs0mg"},{"bike_id":"8cd81ec1-7e5a-48d6-bde6-4357fe8a92f5","system_id":"levelo_inurba_marseille","lat":43.31809,"lon":5.39429,"is_reserved":false,"is_disabled":false,"rental_uris":{"android":"levelo://app?vid=8cd81ec1-7e5a-48d6-bde6-4357fe8a92f5","ios":"levelo://app?vid=8cd81ec1-7e5a-48d6-bde6-4357fe8a92f5"},"vehicle_type_id":"4","last_reported":1711213597,"current_range_meters":0,"station_id":"","pricing_plan_id":"cebpf4jnsgd1na2vs0mg"},{"bike_id":"2400b396-9972-43d3-b7da-cc03e3d3a3e1","system_id":"levelo_inurba_marseille","lat":43.303066,"lon":5.392069,"is_reserved":false,"is_disabled":false,"rental_uris":{"android":"levelo://app?vid=2400b396-9972-43d3-b7da-cc03e3d3a3e1","ios":"levelo://app?vid=2400b396-9972-43d3-b7da-cc03e3d3a3e1"},"vehicle_type_id":"4","last_reported":1711213597,"current_range_meters":0,"station_id":"ce4bgkh2rcd13ifvqbk0","pricing_plan_id":"cebpf4jnsgd1na2vs0mg"},{"bike_id":"0e6b091d-2b7f-49df-aeae-834a73fb37cc","system_id":"levelo_inurba_marseille","lat":43.303034,"lon":5.392151,"is_reserved":false,"is_disabled":false,"rental_uris":{"android":"levelo://app?vid=0e6b091d-2b7f-49df-aeae-834a73fb37cc","ios":"levelo://app?vid=0e6b091d-2b7f-49df-aeae-834a73fb37cc"},"vehicle_type_id":"4","last_reported":1711213597,"current_range_meters":0,"station_id":"ce4bgkh2rcd13ifvqbk0","pricing_plan_id":"cebpf4jnsgd1na2vs0mg"},{"bike_id":"6ade3cfa-882b-4d2c-a8a3-0cf1c1793aab","system_id":"levelo_inurba_marseille","lat":43.300852,"lon":5.390859,"is_reserved":false,"is_disabled":false,"rental_uris":{"android":"levelo://app?vid=6ade3cfa-882b-4d2c-a8a3-0cf1c1793aab","ios":"levelo://app?vid=6ade3cfa-882b-4d2c-a8a3-0cf1c1793aab"},"vehicle_type_id":"4","last_reported":1711213597,"current_range_meters":6400,"station_id":"ce4bh192rcd13ifvqdb0","pricing_plan_id":"cebpf4jnsgd1na2vs0mg"},{"bike_id":"7b856d52-cd72-432b-8582-8e4d25b07736","system_id":"levelo_inurba_marseille","lat":43.30085,"lon":5.390856,"is_reserved":false,"is_disabled":false,"rental_uris":{"android":"levelo://app?vid=7b856d52-cd72-432b-8582-8e4d25b07736","ios":"levelo://app?vid=7b856d52-cd72-432b-8582-8e4d25b07736"},"vehicle_type_id":"4","last_reported":1711213597,"current_range_meters":0,"station_id":"ce4bh192rcd13ifvqdb0","pricing_plan_id":"cebpf4jnsgd1na2vs0mg"},{"bike_id":"7d163bae-b447-416b-9965-3efa1ce8939a","system_id":"levelo_inurba_marseille","lat":43.292311,"lon":5.360731,"is_reserved":false,"is_disabled":false,"rental_uris":{"android":"levelo://app?vid=7d163bae-b447-416b-9965-3efa1ce8939a","ios":"levelo://app?vid=7d163bae-b447-416b-9965-3efa1ce8939a"},"vehicle_type_id":"4","last_reported":1711213597,"current_range_meters":24000,"station_id":"ce4bhbh2rcd13ifvqeqg","pricing_plan_id":"cebpf4jnsgd1na2vs0mg"},{"bike_id":"4bf91826-c6cb-4e9d-b20e-ef451e405533","system_id":"levelo_inurba_marseille","lat":43.292311,"lon":5.360731,"is_reserved":false,"is_disabled":false,"rental_uris":{"android":"levelo://app?vid=4bf91826-c6cb-4e9d-b20e-ef451e405533","ios":"levelo://app?vid=4bf91826-c6cb-4e9d-b20e-ef451e405533"},"vehicle_type_id":"4","last_reported":1711213597,"current_range_meters":0,"station_id":"ce4bhbh2rcd13ifvqeqg","pricing_plan_id":"cebpf4jnsgd1na2vs0mg"},{"bike_id":"420b725f-fe3c-4d5c-b059-83366fa69de3","system_id":"levelo_inurba_marseille","lat":43.292311,"lon":5.360731,"is_reserved":false,"is_disabled":false,"rental_uris":{"android":"levelo://app?vid=420b725f-fe3c-4d5c-b059-83366fa69de3","ios":"levelo://app?vid=420b725f-fe3c-4d5c-b059-83366fa69de3"},"vehicle_type_id":"4","last_reported":1711213597,"current_range_meters":12000,"station_id":"ce4bhbh2rcd13ifvqeqg","pricing_plan_id":"cebpf4jnsgd1na2vs0mg"},{"bike_id":"8dd7c07b-e3f4-4a13-abca-4e6a6438f9cc","system_id":"levelo_inurba_marseille","lat":43.293009,"lon":5.374584,"is_reserved":false,"is_disabled":false,"rental_uris":{"android":"levelo://app?vid=8dd7c07b-e3f4-4a13-abca-4e6a6438f9cc","ios":"levelo://app?vid=8dd7c07b-e3f4-4a13-abca-4e6a6438f9cc"},"vehicle_type_id":"4","last_reported":1711213597,"current_range_meters":15200,"station_id":"ce4bgi12rcd13ifvqb70","pricing_plan_id":"cebpf4jnsgd1na2vs0mg"},{"bike_id":"ae12149c-7a3c-4401-aefa-3f660f1e4ba9","system_id":"levelo_inurba_marseille","lat":43.313291,"lon":5.396838,"is_reserved":false,"is_disabled":false,"rental_uris":{"android":"levelo://app?vid=ae12149c-7a3c-4401-aefa-3f660f1e4ba9","ios":"levelo://app?vid=ae12149c-7a3c-4401-aefa-3f660f1e4ba9"},"vehicle_type_id":"4","last_reported":1711213597,"current_range_meters":14800,"station_id":"ce4bgvp2rcd13ifvqcu0","pricing_plan_id":"cebpf4jnsgd1na2vs0mg"},{"bike_id":"cf314dca-709a-46cb-a566-ac8bc3bcd8dd","system_id":"levelo_inurba_marseille","lat":43.291675,"lon":5.371583,"is_reserved":false,"is_disabled":false,"rental_uris":{"android":"levelo://app?vid=cf314dca-709a-46cb-a566-ac8bc3bcd8dd","ios":"levelo://app?vid=cf314dca-709a-46cb-a566-ac8bc3bcd8dd"},"vehicle_type_id":"4","last_reported":1711213597,"current_range_meters":0,"station_id":"ce4bha92rcd13ifvqeh0","pricing_plan_id":"cebpf4jnsgd1na2vs0mg"},{"bike_id":"a6fc6520-4621-40e5-8ef8-7426243e23f4","system_id":"levelo_inurba_marseille","lat":43.291675,"lon":5.371583,"is_reserved":false,"is_disabled":false,"rental_uris":{"android":"levelo://app?vid=a6fc6520-4621-40e5-8ef8-7426243e23f4","ios":"levelo://app?vid=a6fc6520-4621-40e5-8ef8-7426243e23f4"},"vehicle_type_id":"4","last_reported":1711213597,"current_range_meters":400,"station_id":"ce4bha92rcd13ifvqeh0","pricing_plan_id":"cebpf4jnsgd1na2vs0mg"},{"bike_id":"631cb30c-4d64-4b6d-9f56-6a9deeb1ccbc","system_id":"levelo_inurba_marseille","lat":43.291994,"lon":5.357886,"is_reserved":false,"is_disabled":false,"rental_uris":{"android":"levelo://app?vid=631cb30c-4d64-4b6d-9f56-6a9deeb1ccbc","ios":"levelo://app?vid=631cb30c-4d64-4b6d-9f56-6a9deeb1ccbc"},"vehicle_type_id":"4","last_reported":1711213597,"current_range_meters":24400,"station_id":"ce4bhb12rcd13ifvqel0","pricing_plan_id":"cebpf4jnsgd1na2vs0mg"},{"bike_id":"82b9cb93-e043-418f-8df4-0568f0580032","system_id":"levelo_inurba_marseille","lat":43.313291,"lon":5.396838,"is_reserved":false,"is_disabled":false,"rental_uris":{"android":"levelo://app?vid=82b9cb93-e043-418f-8df4-0568f0580032","ios":"levelo://app?vid=82b9cb93-e043-418f-8df4-0568f0580032"},"vehicle_type_id":"4","last_reported":1711213597,"current_range_meters":11600,"station_id":"ce4bgvp2rcd13ifvqcu0","pricing_plan_id":"cebpf4jnsgd1na2vs0mg"},{"bike_id":"f583ef1c-46d8-4cc0-9f6c-23f6e5dcbb24","system_id":"levelo_inurba_marseille","lat":43.313291,"lon":5.396838,"is_reserved":false,"is_disabled":false,"rental_uris":{"android":"levelo://app?vid=f583ef1c-46d8-4cc0-9f6c-23f6e5dcbb24","ios":"levelo://app?vid=f583ef1c-46d8-4cc0-9f6c-23f6e5dcbb24"},"vehicle_type_id":"4","last_reported":1711213597,"current_range_meters":2000,"station_id":"ce4bgvp2rcd13ifvqcu0","pricing_plan_id":"cebpf4jnsgd1na2vs0mg"},{"bike_id":"7385e206-2423-49ad-bf4b-ddcaec35a2a0","system_id":"levelo_inurba_marseille","lat":43.309047,"lon":5.396551,"is_reserved":false,"is_disabled":false,"rental_uris":{"android":"levelo://app?vid=7385e206-2423-49ad-bf4b-ddcaec35a2a0","ios":"levelo://app?vid=7385e206-2423-49ad-bf4b-ddcaec35a2a0"},"vehicle_type_id":"4","last_reported":1711213597,"current_range_meters":25200,"station_id":"ce4bh012rcd13ifvqcv0","pricing_plan_id":"cebpf4jnsgd1na2vs0mg"},{"bike_id":"01a17e6c-7e71-4598-a61f-878ae8fdf373","system_id":"levelo_inurba_marseille","lat":43.30887,"lon":5.39645,"is_reserved":false,"is_disabled":false,"rental_uris":{"android":"levelo://app?vid=01a17e6c-7e71-4598-a61f-878ae8fdf373","ios":"levelo://app?vid=01a17e6c-7e71-4598-a61f-878ae8fdf373"},"vehicle_type_id":"4","last_reported":1711213597,"current_range_meters":800,"station_id":"ce4bh012rcd13ifvqcv0","pricing_plan_id":"cebpf4jnsgd1na2vs0mg"},{"bike_id":"34c01f98-512e-4755-aa99-a0d0621ed6e8","system_id":"levelo_inurba_marseille","lat":43.313291,"lon":5.396838,"is_reserved":false,"is_disabled":false,"rental_uris":{"android":"levelo://app?vid=34c01f98-512e-4755-aa99-a0d0621ed6e8","ios":"levelo://app?vid=34c01f98-512e-4755-aa99-a0d0621ed6e8"},"vehicle_type_id":"4","last_reported":1711213597,"current_range_meters":8400,"station_id":"ce4bgvp2rcd13ifvqcu0","pricing_plan_id":"cebpf4jnsgd1na2vs0mg"},{"bike_id":"c4f4c193-f5bd-40e3-bc16-51e45e7eda27","system_id":"levelo_inurba_marseille","lat":43.309047,"lon":5.396551,"is_reserved":false,"is_disabled":false,"rental_uris":{"android":"levelo://app?vid=c4f4c193-f5bd-40e3-bc16-51e45e7eda27","ios":"levelo://app?vid=c4f4c193-f5bd-40e3-bc16-51e45e7eda27"},"vehicle_type_id":"4","last_reported":1711213597,"current_range_meters":10400,"station_id":"ce4bh012rcd13ifvqcv0","pricing_plan_id":"cebpf4jnsgd1na2vs0mg"},{"bike_id":"dc37a3a2-8420-4126-a4a9-cdf641b610b4","system_id":"levelo_inurba_marseille","lat":43.313291,"lon":5.396838,"is_reserved":false,"is_disabled":false,"rental_uris":{"android":"levelo://app?vid=dc37a3a2-8420-4126-a4a9-cdf641b610b4","ios":"levelo://app?vid=dc37a3a2-8420-4126-a4a9-cdf641b610b4"},"vehicle_type_id":"4","last_reported":1711213597,"current_range_meters":25200,"station_id":"ce4bgvp2rcd13ifvqcu0","pricing_plan_id":"cebpf4jnsgd1na2vs0mg"},{"bike_id":"c82ab3d4-5cd7-4a7a-8672-8d4be9d0bd3b","system_id":"levelo_inurba_marseille","lat":43.291994,"lon":5.357886,"is_reserved":false,"is_disabled":false,"rental_uris":{"android":"levelo://app?vid=c82ab3d4-5cd7-4a7a-8672-8d4be9d0bd3b","ios":"levelo://app?vid=c82ab3d4-5cd7-4a7a-8672-8d4be9d0bd3b"},"vehicle_type_id":"4","last_reported":1711213597,"current_range_meters":0,"station_id":"ce4bhb12rcd13ifvqel0","pricing_plan_id":"cebpf4jnsgd1na2vs0mg"},{"bike_id":"122d35a8-70be-4b92-a561-6e183d3b89a6","system_id":"levelo_inurba_marseille","lat":43.30879,"lon":5.39649,"is_reserved":false,"is_disabled":false,"rental_uris":{"android":"levelo://app?vid=122d35a8-70be-4b92-a561-6e183d3b89a6","ios":"levelo://app?vid=122d35a8-70be-4b92-a561-6e183d3b89a6"},"vehicle_type_id":"4","last_reported":1711213597,"current_range_meters":14000,"station_id":"ce4bh012rcd13ifvqcv0","pricing_plan_id":"cebpf4jnsgd1na2vs0mg"},{"bike_id":"ec6edefe-bc85-4a21-a45c-04b6f6780906","system_id":"levelo_inurba_marseille","lat":43.30882,"lon":5.39656,"is_reserved":false,"is_disabled":false,"rental_uris":{"android":"levelo://app?vid=ec6edefe-bc85-4a21-a45c-04b6f6780906","ios":"levelo://app?vid=ec6edefe-bc85-4a21-a45c-04b6f6780906"},"vehicle_type_id":"4","last_reported":1711213597,"current_range_meters":15600,"station_id":"ce4bh012rcd13ifvqcv0","pricing_plan_id":"cebpf4jnsgd1na2vs0mg"},{"bike_id":"80cf1bf8-3784-4499-9db1-a526b938a3c5","system_id":"levelo_inurba_marseille","lat":43.289307,"lon":5.38406,"is_reserved":false,"is_disabled":false,"rental_uris":{"android":"levelo://app?vid=80cf1bf8-3784-4499-9db1-a526b938a3c5","ios":"levelo://app?vid=80cf1bf8-3784-4499-9db1-a526b938a3c5"},"vehicle_type_id":"4","last_reported":1711213597,"current_range_meters":3600,"station_id":"ce4bh612rcd13ifvqe6g","pricing_plan_id":"cebpf4jnsgd1na2vs0mg"},{"bike_id":"e0c3b1c1-a299-4994-a29e-cac0efc0e3b5","system_id":"levelo_inurba_marseille","lat":43.290779,"lon":5.371482,"is_reserved":false,"is_disabled":false,"rental_uris":{"android":"levelo://app?vid=e0c3b1c1-a299-4994-a29e-cac0efc0e3b5","ios":"levelo://app?vid=e0c3b1c1-a299-4994-a29e-cac0efc0e3b5"},"vehicle_type_id":"4","last_reported":1711213597,"current_range_meters":4400,"station_id":"ce4bh5p2rcd13ifvqe4g","pricing_plan_id":"cebpf4jnsgd1na2vs0mg"},{"bike_id":"268b0aea-0787-4cf9-ac07-8cbba6df882f","system_id":"levelo_inurba_marseille","lat":43.286595,"lon":5.386795,"is_reserved":false,"is_disabled":false,"rental_uris":{"android":"levelo://app?vid=268b0aea-0787-4cf9-ac07-8cbba6df882f","ios":"levelo://app?vid=268b0aea-0787-4cf9-ac07-8cbba6df882f"},"vehicle_type_id":"4","last_reported":1711213597,"current_range_meters":2800,"station_id":"ce4bh492rcd13ifvqdug","pricing_plan_id":"cebpf4jnsgd1na2vs0mg"},{"bike_id":"8a2f4ad8-04c5-4877-8388-40fcadfa34b8","system_id":"levelo_inurba_marseille","lat":43.296375,"lon":5.387806,"is_reserved":false,"is_disabled":false,"rental_uris":{"android":"levelo://app?vid=8a2f4ad8-04c5-4877-8388-40fcadfa34b8","ios":"levelo://app?vid=8a2f4ad8-04c5-4877-8388-40fcadfa34b8"},"vehicle_type_id":"4","last_reported":1711213597,"current_range_meters":23200,"station_id":"","pricing_plan_id":"cebpf4jnsgd1na2vs0mg"},{"bike_id":"4a0605e1-2e8e-4e36-90cd-8b8c618e71fa","system_id":"levelo_inurba_marseille","lat":43.304606,"lon":5.379026,"is_reserved":false,"is_disabled":false,"rental_uris":{"android":"levelo://app?vid=4a0605e1-2e8e-4e36-90cd-8b8c618e71fa","ios":"levelo://app?vid=4a0605e1-2e8e-4e36-90cd-8b8c618e71fa"},"vehicle_type_id":"4","last_reported":1711213597,"current_range_meters":27600,"station_id":"ce4bgup2rcd13ifvqcn0","pricing_plan_id":"cebpf4jnsgd1na2vs0mg"},{"bike_id":"6b500c89-1139-4c5d-b975-89e4157bcb88","system_id":"levelo_inurba_marseille","lat":43.294153,"lon":5.386305,"is_reserved":false,"is_disabled":false,"rental_uris":{"android":"levelo://app?vid=6b500c89-1139-4c5d-b975-89e4157bcb88","ios":"levelo://app?vid=6b500c89-1139-4c5d-b975-89e4157bcb88"},"vehicle_type_id":"4","last_reported":1711213597,"current_range_meters":0,"station_id":"ce4bh2h2rcd13ifvqdh0","pricing_plan_id":"cebpf4jnsgd1na2vs0mg"},{"bike_id":"553be6ba-c65d-4cef-80a9-9bd5e9dea82e","system_id":"levelo_inurba_marseille","lat":43.32895,"lon":5.38892,"is_reserved":false,"is_disabled":false,"rental_uris":{"android":"levelo://app?vid=553be6ba-c65d-4cef-80a9-9bd5e9dea82e","ios":"levelo://app?vid=553be6ba-c65d-4cef-80a9-9bd5e9dea82e"},"vehicle_type_id":"4","last_reported":1711213597,"current_range_meters":30800,"station_id":"","pricing_plan_id":"cebpf4jnsgd1na2vs0mg"},{"bike_id":"9d92789a-3bdb-4a78-9a19-e235c866fbb6","system_id":"levelo_inurba_marseille","lat":43.294153,"lon":5.386305,"is_reserved":false,"is_disabled":false,"rental_uris":{"android":"levelo://app?vid=9d92789a-3bdb-4a78-9a19-e235c866fbb6","ios":"levelo://app?vid=9d92789a-3bdb-4a78-9a19-e235c866fbb6"},"vehicle_type_id":"4","last_reported":1711213597,"current_range_meters":8800,"station_id":"ce4bh2h2rcd13ifvqdh0","pricing_plan_id":"cebpf4jnsgd1na2vs0mg"},{"bike_id":"0d24e8c8-f9ec-46de-92ff-9f777f7da3f7","system_id":"levelo_inurba_marseille","lat":43.294153,"lon":5.386305,"is_reserved":false,"is_disabled":false,"rental_uris":{"android":"levelo://app?vid=0d24e8c8-f9ec-46de-92ff-9f777f7da3f7","ios":"levelo://app?vid=0d24e8c8-f9ec-46de-92ff-9f777f7da3f7"},"vehicle_type_id":"4","last_reported":1711213597,"current_range_meters":1600,"station_id":"ce4bh2h2rcd13ifvqdh0","pricing_plan_id":"cebpf4jnsgd1na2vs0mg"},{"bike_id":"3f483b4d-3047-4d18-95a4-45c9544a2f12","system_id":"levelo_inurba_marseille","lat":43.289184,"lon":5.366408,"is_reserved":false,"is_disabled":false,"rental_uris":{"android":"levelo://app?vid=3f483b4d-3047-4d18-95a4-45c9544a2f12","ios":"levelo://app?vid=3f483b4d-3047-4d18-95a4-45c9544a2f12"},"vehicle_type_id":"4","last_reported":1711213597,"current_range_meters":800,"station_id":"ce4bhap2rcd13ifvqek0","pricing_plan_id":"cebpf4jnsgd1na2vs0mg"},{"bike_id":"1ec76b4f-3286-48e3-9e47-20fabc96c3a1","system_id":"levelo_inurba_marseille","lat":43.289184,"lon":5.366408,"is_reserved":false,"is_disabled":false,"rental_uris":{"android":"levelo://app?vid=1ec76b4f-3286-48e3-9e47-20fabc96c3a1","ios":"levelo://app?vid=1ec76b4f-3286-48e3-9e47-20fabc96c3a1"},"vehicle_type_id":"4","last_reported":1711213597,"current_range_meters":6800,"station_id":"ce4bhap2rcd13ifvqek0","pricing_plan_id":"cebpf4jnsgd1na2vs0mg"},{"bike_id":"27d996fc-e042-459d-94e8-865e99f32864","system_id":"levelo_inurba_marseille","lat":43.289184,"lon":5.366408,"is_reserved":false,"is_disabled":false,"rental_uris":{"android":"levelo://app?vid=27d996fc-e042-459d-94e8-865e99f32864","ios":"levelo://app?vid=27d996fc-e042-459d-94e8-865e99f32864"},"vehicle_type_id":"4","last_reported":1711213597,"current_range_meters":14000,"station_id":"ce4bhap2rcd13ifvqek0","pricing_plan_id":"cebpf4jnsgd1na2vs0mg"},{"bike_id":"ae5d9bdc-d8c0-40d1-8256-a777249df505","system_id":"levelo_inurba_marseille","lat":43.289468,"lon":5.363719,"is_reserved":false,"is_disabled":false,"rental_uris":{"android":"levelo://app?vid=ae5d9bdc-d8c0-40d1-8256-a777249df505","ios":"levelo://app?vid=ae5d9bdc-d8c0-40d1-8256-a777249df505"},"vehicle_type_id":"4","last_reported":1711213597,"current_range_meters":17200,"station_id":"ce4bhc92rcd13ifvqetg","pricing_plan_id":"cebpf4jnsgd1na2vs0mg"},{"bike_id":"26290cc1-9919-4d80-ae91-22c86bbe8f8b","system_id":"levelo_inurba_marseille","lat":43.290319,"lon":5.375732,"is_reserved":false,"is_disabled":false,"rental_uris":{"android":"levelo://app?vid=26290cc1-9919-4d80-ae91-22c86bbe8f8b","ios":"levelo://app?vid=26290cc1-9919-4d80-ae91-22c86bbe8f8b"},"vehicle_type_id":"4","last_reported":1711213597,"current_range_meters":12000,"station_id":"ce4bh692rcd13ifvqe90","pricing_plan_id":"cebpf4jnsgd1na2vs0mg"},{"bike_id":"29eed108-5088-46c6-a8f4-51ab883a9377","system_id":"levelo_inurba_marseille","lat":43.29042,"lon":5.37767,"is_reserved":false,"is_disabled":false,"rental_uris":{"android":"levelo://app?vid=29eed108-5088-46c6-a8f4-51ab883a9377","ios":"levelo://app?vid=29eed108-5088-46c6-a8f4-51ab883a9377"},"vehicle_type_id":"4","last_reported":1711213597,"current_range_meters":0,"station_id":"","pricing_plan_id":"cebpf4jnsgd1na2vs0mg"},{"bike_id":"ae580d82-3c72-47b3-aff3-31dd62b23bb3","system_id":"levelo_inurba_marseille","lat":43.290104,"lon":5.356111,"is_reserved":false,"is_disabled":false,"rental_uris":{"android":"levelo://app?vid=ae580d82-3c72-47b3-aff3-31dd62b23bb3","ios":"levelo://app?vid=ae580d82-3c72-47b3-aff3-31dd62b23bb3"},"vehicle_type_id":"4","last_reported":1711213597,"current_range_meters":0,"station_id":"ce4bhb92rcd13ifvqen0","pricing_plan_id":"cebpf4jnsgd1na2vs0mg"},{"bike_id":"2e5fb0a9-51d6-477a-bccd-9f4cd0dd42af","system_id":"levelo_inurba_marseille","lat":43.298479,"lon":5.393495,"is_reserved":false,"is_disabled":false,"rental_uris":{"android":"levelo://app?vid=2e5fb0a9-51d6-477a-bccd-9f4cd0dd42af","ios":"levelo://app?vid=2e5fb0a9-51d6-477a-bccd-9f4cd0dd42af"},"vehicle_type_id":"4","last_reported":1711213597,"current_range_meters":0,"station_id":"chh1huq6cuj3fo74tm60","pricing_plan_id":"cebpf4jnsgd1na2vs0mg"},{"bike_id":"0eecc939-e900-448b-a97b-657043d1b1f2","system_id":"levelo_inurba_marseille","lat":43.289743,"lon":5.378304,"is_reserved":false,"is_disabled":false,"rental_uris":{"android":"levelo://app?vid=0eecc939-e900-448b-a97b-657043d1b1f2","ios":"levelo://app?vid=0eecc939-e900-448b-a97b-657043d1b1f2"},"vehicle_type_id":"4","last_reported":1711213597,"current_range_meters":2400,"station_id":"ce4bh9p2rcd13ifvqed0","pricing_plan_id":"cebpf4jnsgd1na2vs0mg"},{"bike_id":"2106a0c8-052d-4e77-8306-9ffb615e5c29","system_id":"levelo_inurba_marseille","lat":43.289741,"lon":5.378306,"is_reserved":false,"is_disabled":false,"rental_uris":{"android":"levelo://app?vid=2106a0c8-052d-4e77-8306-9ffb615e5c29","ios":"levelo://app?vid=2106a0c8-052d-4e77-8306-9ffb615e5c29"},"vehicle_type_id":"4","last_reported":1711213597,"current_range_meters":25600,"station_id":"ce4bh9p2rcd13ifvqed0","pricing_plan_id":"cebpf4jnsgd1na2vs0mg"},{"bike_id":"2dd0f2e7-a63d-4fea-8db8-fcdbebad34bf","system_id":"levelo_inurba_marseille","lat":43.295169,"lon":5.390426,"is_reserved":false,"is_disabled":false,"rental_uris":{"android":"levelo://app?vid=2dd0f2e7-a63d-4fea-8db8-fcdbebad34bf","ios":"levelo://app?vid=2dd0f2e7-a63d-4fea-8db8-fcdbebad34bf"},"vehicle_type_id":"4","last_reported":1711213597,"current_range_meters":3600,"station_id":"ce4bh3p2rcd13ifvqdp0","pricing_plan_id":"cebpf4jnsgd1na2vs0mg"},{"bike_id":"0b2f4508-179c-4d5d-8097-aacdb687a53b","system_id":"levelo_inurba_marseille","lat":43.330442,"lon":5.389148,"is_reserved":false,"is_disabled":false,"rental_uris":{"android":"levelo://app?vid=0b2f4508-179c-4d5d-8097-aacdb687a53b","ios":"levelo://app?vid=0b2f4508-179c-4d5d-8097-aacdb687a53b"},"vehicle_type_id":"4","last_reported":1711213597,"current_range_meters":24800,"station_id":"ce4bhr92rcd13ifvqhrg","pricing_plan_id":"cebpf4jnsgd1na2vs0mg"},{"bike_id":"0455c195-d15b-4a9c-8875-0468a93fe05e","system_id":"levelo_inurba_marseille","lat":43.28856,"lon":5.358371,"is_reserved":false,"is_disabled":false,"rental_uris":{"android":"levelo://app?vid=0455c195-d15b-4a9c-8875-0468a93fe05e","ios":"levelo://app?vid=0455c195-d15b-4a9c-8875-0468a93fe05e"},"vehicle_type_id":"4","last_reported":1711213597,"current_range_meters":22800,"station_id":"ce4bhb12rcd13ifvqem0","pricing_plan_id":"cebpf4jnsgd1na2vs0mg"},{"bike_id":"19531422-5a95-420d-9006-87ae4d27fcd2","system_id":"levelo_inurba_marseille","lat":43.28856,"lon":5.358371,"is_reserved":false,"is_disabled":false,"rental_uris":{"android":"levelo://app?vid=19531422-5a95-420d-9006-87ae4d27fcd2","ios":"levelo://app?vid=19531422-5a95-420d-9006-87ae4d27fcd2"},"vehicle_type_id":"4","last_reported":1711213597,"current_range_meters":1200,"station_id":"ce4bhb12rcd13ifvqem0","pricing_plan_id":"cebpf4jnsgd1na2vs0mg"},{"bike_id":"8a831a6b-6ea1-4399-a87d-8743fabc1f08","system_id":"levelo_inurba_marseille","lat":43.295713,"lon":5.399639,"is_reserved":false,"is_disabled":false,"rental_uris":{"android":"levelo://app?vid=8a831a6b-6ea1-4399-a87d-8743fabc1f08","ios":"levelo://app?vid=8a831a6b-6ea1-4399-a87d-8743fabc1f08"},"vehicle_type_id":"4","last_reported":1711213597,"current_range_meters":400,"station_id":"ce4bh312rcd13ifvqdj0","pricing_plan_id":"cebpf4jnsgd1na2vs0mg"},{"bike_id":"158d6ca3-299e-419e-8939-7e2c1f84dbae","system_id":"levelo_inurba_marseille","lat":43.28856,"lon":5.358371,"is_reserved":false,"is_disabled":false,"rental_uris":{"android":"levelo://app?vid=158d6ca3-299e-419e-8939-7e2c1f84dbae","ios":"levelo://app?vid=158d6ca3-299e-419e-8939-7e2c1f84dbae"},"vehicle_type_id":"4","last_reported":1711213597,"current_range_meters":10800,"station_id":"ce4bhb12rcd13ifvqem0","pricing_plan_id":"cebpf4jnsgd1na2vs0mg"},{"bike_id":"1784b964-444c-4c3f-a5de-8c39569544c0","system_id":"levelo_inurba_marseille","lat":43.28856,"lon":5.358371,"is_reserved":false,"is_disabled":false,"rental_uris":{"android":"levelo://app?vid=1784b964-444c-4c3f-a5de-8c39569544c0","ios":"levelo://app?vid=1784b964-444c-4c3f-a5de-8c39569544c0"},"vehicle_type_id":"4","last_reported":1711213597,"current_range_meters":10400,"station_id":"ce4bhb12rcd13ifvqem0","pricing_plan_id":"cebpf4jnsgd1na2vs0mg"},{"bike_id":"da45059a-c023-4892-9f3d-e5605c2c85d9","system_id":"levelo_inurba_marseille","lat":43.29722,"lon":5.394112,"is_reserved":false,"is_disabled":false,"rental_uris":{"android":"levelo://app?vid=da45059a-c023-4892-9f3d-e5605c2c85d9","ios":"levelo://app?vid=da45059a-c023-4892-9f3d-e5605c2c85d9"},"vehicle_type_id":"4","last_reported":1711213597,"current_range_meters":6400,"station_id":"chh1huq6cuj3fo74tm60","pricing_plan_id":"cebpf4jnsgd1na2vs0mg"},{"bike_id":"d76987a0-8c84-4c10-bbc5-9cf45c42711e","system_id":"levelo_inurba_marseille","lat":43.312716,"lon":5.401583,"is_reserved":false,"is_disabled":false,"rental_uris":{"android":"levelo://app?vid=d76987a0-8c84-4c10-bbc5-9cf45c42711e","ios":"levelo://app?vid=d76987a0-8c84-4c10-bbc5-9cf45c42711e"},"vehicle_type_id":"4","last_reported":1711213597,"current_range_meters":0,"station_id":"ce4bh092rcd13ifvqd30","pricing_plan_id":"cebpf4jnsgd1na2vs0mg"},{"bike_id":"fcaaf5b3-ab7b-452c-bb70-75a8b3e196e0","system_id":"levelo_inurba_marseille","lat":43.312609,"lon":5.401662,"is_reserved":false,"is_disabled":false,"rental_uris":{"android":"levelo://app?vid=fcaaf5b3-ab7b-452c-bb70-75a8b3e196e0","ios":"levelo://app?vid=fcaaf5b3-ab7b-452c-bb70-75a8b3e196e0"},"vehicle_type_id":"4","last_reported":1711213597,"current_range_meters":15600,"station_id":"ce4bh092rcd13ifvqd30","pricing_plan_id":"cebpf4jnsgd1na2vs0mg"},{"bike_id":"126801db-e783-46c2-8686-d4a387116648","system_id":"levelo_inurba_marseille","lat":43.312609,"lon":5.401662,"is_reserved":false,"is_disabled":false,"rental_uris":{"android":"levelo://app?vid=126801db-e783-46c2-8686-d4a387116648","ios":"levelo://app?vid=126801db-e783-46c2-8686-d4a387116648"},"vehicle_type_id":"4","last_reported":1711213597,"current_range_meters":1200,"station_id":"ce4bh092rcd13ifvqd30","pricing_plan_id":"cebpf4jnsgd1na2vs0mg"},{"bike_id":"0a511bf8-403b-4835-a69d-8845b0587042","system_id":"levelo_inurba_marseille","lat":43.33743,"lon":5.37474,"is_reserved":false,"is_disabled":false,"rental_uris":{"android":"levelo://app?vid=0a511bf8-403b-4835-a69d-8845b0587042","ios":"levelo://app?vid=0a511bf8-403b-4835-a69d-8845b0587042"},"vehicle_type_id":"4","last_reported":1711213597,"current_range_meters":14400,"station_id":"","pricing_plan_id":"cebpf4jnsgd1na2vs0mg"},{"bike_id":"02ea7ced-ac3c-42e8-951a-e54cd665b7c7","system_id":"levelo_inurba_marseille","lat":43.301117,"lon":5.398795,"is_reserved":false,"is_disabled":false,"rental_uris":{"android":"levelo://app?vid=02ea7ced-ac3c-42e8-951a-e54cd665b7c7","ios":"levelo://app?vid=02ea7ced-ac3c-42e8-951a-e54cd665b7c7"},"vehicle_type_id":"4","last_reported":1711213597,"current_range_meters":3200,"station_id":"ce4bh0h2rcd13ifvqd40","pricing_plan_id":"cebpf4jnsgd1na2vs0mg"},{"bike_id":"374918cc-dbe7-4404-add1-36a62a86c254","system_id":"levelo_inurba_marseille","lat":43.3315,"lon":5.39138,"is_reserved":false,"is_disabled":false,"rental_uris":{"android":"levelo://app?vid=374918cc-dbe7-4404-add1-36a62a86c254","ios":"levelo://app?vid=374918cc-dbe7-4404-add1-36a62a86c254"},"vehicle_type_id":"4","last_reported":1711213597,"current_range_meters":30400,"station_id":"","pricing_plan_id":"cebpf4jnsgd1na2vs0mg"},{"bike_id":"5749f8ac-fb59-4a04-ba14-fe07ba19d6fc","system_id":"levelo_inurba_marseille","lat":43.28727,"lon":5.36078,"is_reserved":false,"is_disabled":false,"rental_uris":{"android":"levelo://app?vid=5749f8ac-fb59-4a04-ba14-fe07ba19d6fc","ios":"levelo://app?vid=5749f8ac-fb59-4a04-ba14-fe07ba19d6fc"},"vehicle_type_id":"4","last_reported":1711213597,"current_range_meters":8000,"station_id":"cki0cbj6b192h4jlfktg","pricing_plan_id":"cebpf4jnsgd1na2vs0mg"},{"bike_id":"61572fda-2882-4bc8-8d28-593670afa06c","system_id":"levelo_inurba_marseille","lat":43.286593,"lon":5.363346,"is_reserved":false,"is_disabled":false,"rental_uris":{"android":"levelo://app?vid=61572fda-2882-4bc8-8d28-593670afa06c","ios":"levelo://app?vid=61572fda-2882-4bc8-8d28-593670afa06c"},"vehicle_type_id":"4","last_reported":1711213597,"current_range_meters":23600,"station_id":"ce4bhah2rcd13ifvqej0","pricing_plan_id":"cebpf4jnsgd1na2vs0mg"},{"bike_id":"c3f66d8f-e45e-41ef-b16e-e29ec59d0f15","system_id":"levelo_inurba_marseille","lat":43.286961,"lon":5.373785,"is_reserved":false,"is_disabled":false,"rental_uris":{"android":"levelo://app?vid=c3f66d8f-e45e-41ef-b16e-e29ec59d0f15","ios":"levelo://app?vid=c3f66d8f-e45e-41ef-b16e-e29ec59d0f15"},"vehicle_type_id":"4","last_reported":1711213597,"current_range_meters":26000,"station_id":"ce4bh3p2rcd13ifvqdq0","pricing_plan_id":"cebpf4jnsgd1na2vs0mg"},{"bike_id":"a34648c8-f4d6-4d41-a953-964849849946","system_id":"levelo_inurba_marseille","lat":43.286591,"lon":5.363346,"is_reserved":false,"is_disabled":false,"rental_uris":{"android":"levelo://app?vid=a34648c8-f4d6-4d41-a953-964849849946","ios":"levelo://app?vid=a34648c8-f4d6-4d41-a953-964849849946"},"vehicle_type_id":"4","last_reported":1711213597,"current_range_meters":4400,"station_id":"ce4bhah2rcd13ifvqej0","pricing_plan_id":"cebpf4jnsgd1na2vs0mg"},{"bike_id":"f8efcb94-9679-4b97-ba8c-2d8726131e4b","system_id":"levelo_inurba_marseille","lat":43.30295,"lon":5.40054,"is_reserved":false,"is_disabled":false,"rental_uris":{"android":"levelo://app?vid=f8efcb94-9679-4b97-ba8c-2d8726131e4b","ios":"levelo://app?vid=f8efcb94-9679-4b97-ba8c-2d8726131e4b"},"vehicle_type_id":"4","last_reported":1711213597,"current_range_meters":0,"station_id":"ce4bgvh2rcd13ifvqcs0","pricing_plan_id":"cebpf4jnsgd1na2vs0mg"},{"bike_id":"b09e2a58-048d-4573-8343-0e98a8e669ab","system_id":"levelo_inurba_marseille","lat":43.295196,"lon":5.39397,"is_reserved":false,"is_disabled":false,"rental_uris":{"android":"levelo://app?vid=b09e2a58-048d-4573-8343-0e98a8e669ab","ios":"levelo://app?vid=b09e2a58-048d-4573-8343-0e98a8e669ab"},"vehicle_type_id":"4","last_reported":1711213597,"current_range_meters":6000,"station_id":"ce4bh292rcd13ifvqdf0","pricing_plan_id":"cebpf4jnsgd1na2vs0mg"},{"bike_id":"4dfdb7f7-0b0e-441e-ab7e-042a3f819514","system_id":"levelo_inurba_marseille","lat":43.290336,"lon":5.386425,"is_reserved":false,"is_disabled":false,"rental_uris":{"android":"levelo://app?vid=4dfdb7f7-0b0e-441e-ab7e-042a3f819514","ios":"levelo://app?vid=4dfdb7f7-0b0e-441e-ab7e-042a3f819514"},"vehicle_type_id":"4","last_reported":1711213597,"current_range_meters":24800,"station_id":"ce4bh4p2rcd13ifvqe0g","pricing_plan_id":"cebpf4jnsgd1na2vs0mg"},{"bike_id":"34629a38-510f-4778-a8c4-0887db761fe9","system_id":"levelo_inurba_marseille","lat":43.30232,"lon":5.40048,"is_reserved":false,"is_disabled":false,"rental_uris":{"android":"levelo://app?vid=34629a38-510f-4778-a8c4-0887db761fe9","ios":"levelo://app?vid=34629a38-510f-4778-a8c4-0887db761fe9"},"vehicle_type_id":"4","last_reported":1711213597,"current_range_meters":17600,"station_id":"","pricing_plan_id":"cebpf4jnsgd1na2vs0mg"},{"bike_id":"0d239c5e-7c04-421e-bfcf-dd3b139c16f6","system_id":"levelo_inurba_marseille","lat":43.29024,"lon":5.38642,"is_reserved":false,"is_disabled":false,"rental_uris":{"android":"levelo://app?vid=0d239c5e-7c04-421e-bfcf-dd3b139c16f6","ios":"levelo://app?vid=0d239c5e-7c04-421e-bfcf-dd3b139c16f6"},"vehicle_type_id":"4","last_reported":1711213597,"current_range_meters":0,"station_id":"ce4bh4p2rcd13ifvqe0g","pricing_plan_id":"cebpf4jnsgd1na2vs0mg"},{"bike_id":"ad53bce0-9692-4cc2-9075-8415404f6022","system_id":"levelo_inurba_marseille","lat":43.295169,"lon":5.390426,"is_reserved":false,"is_disabled":false,"rental_uris":{"android":"levelo://app?vid=ad53bce0-9692-4cc2-9075-8415404f6022","ios":"levelo://app?vid=ad53bce0-9692-4cc2-9075-8415404f6022"},"vehicle_type_id":"4","last_reported":1711213597,"current_range_meters":8000,"station_id":"ce4bh3p2rcd13ifvqdp0","pricing_plan_id":"cebpf4jnsgd1na2vs0mg"},{"bike_id":"d1992c01-7520-4a3a-9d2c-6c34f7818a5c","system_id":"levelo_inurba_marseille","lat":43.287185,"lon":5.379373,"is_reserved":false,"is_disabled":false,"rental_uris":{"android":"levelo://app?vid=d1992c01-7520-4a3a-9d2c-6c34f7818a5c","ios":"levelo://app?vid=d1992c01-7520-4a3a-9d2c-6c34f7818a5c"},"vehicle_type_id":"4","last_reported":1711213597,"current_range_meters":2800,"station_id":"ce4bh9p2rcd13ifvqec0","pricing_plan_id":"cebpf4jnsgd1na2vs0mg"},{"bike_id":"016a4206-312d-4176-8812-d7661c7828fe","system_id":"levelo_inurba_marseille","lat":43.291994,"lon":5.392907,"is_reserved":false,"is_disabled":false,"rental_uris":{"android":"levelo://app?vid=016a4206-312d-4176-8812-d7661c7828fe","ios":"levelo://app?vid=016a4206-312d-4176-8812-d7661c7828fe"},"vehicle_type_id":"4","last_reported":1711213597,"current_range_meters":18800,"station_id":"ce4bh192rcd13ifvqdd0","pricing_plan_id":"cebpf4jnsgd1na2vs0mg"},{"bike_id":"10b004b4-36c9-4453-9949-48d6f01c45b4","system_id":"levelo_inurba_marseille","lat":43.316828,"lon":5.404723,"is_reserved":false,"is_disabled":false,"rental_uris":{"android":"levelo://app?vid=10b004b4-36c9-4453-9949-48d6f01c45b4","ios":"levelo://app?vid=10b004b4-36c9-4453-9949-48d6f01c45b4"},"vehicle_type_id":"4","last_reported":1711213597,"current_range_meters":0,"station_id":"ce4bh012rcd13ifvqd00","pricing_plan_id":"cebpf4jnsgd1na2vs0mg"},{"bike_id":"8be05255-5627-4981-999a-032b2eed798b","system_id":"levelo_inurba_marseille","lat":43.316821,"lon":5.404737,"is_reserved":false,"is_disabled":false,"rental_uris":{"android":"levelo://app?vid=8be05255-5627-4981-999a-032b2eed798b","ios":"levelo://app?vid=8be05255-5627-4981-999a-032b2eed798b"},"vehicle_type_id":"4","last_reported":1711213597,"current_range_meters":4800,"station_id":"ce4bh012rcd13ifvqd00","pricing_plan_id":"cebpf4jnsgd1na2vs0mg"},{"bike_id":"ec7ea96f-4a90-4d97-ae53-723cf524af01","system_id":"levelo_inurba_marseille","lat":43.316821,"lon":5.404737,"is_reserved":false,"is_disabled":false,"rental_uris":{"android":"levelo://app?vid=ec7ea96f-4a90-4d97-ae53-723cf524af01","ios":"levelo://app?vid=ec7ea96f-4a90-4d97-ae53-723cf524af01"},"vehicle_type_id":"4","last_reported":1711213597,"current_range_meters":1200,"station_id":"ce4bh012rcd13ifvqd00","pricing_plan_id":"cebpf4jnsgd1na2vs0mg"},{"bike_id":"bd05d88b-03ab-462b-9ba3-e8feeca30f4d","system_id":"levelo_inurba_marseille","lat":43.28464,"lon":5.35898,"is_reserved":false,"is_disabled":false,"rental_uris":{"android":"levelo://app?vid=bd05d88b-03ab-462b-9ba3-e8feeca30f4d","ios":"levelo://app?vid=bd05d88b-03ab-462b-9ba3-e8feeca30f4d"},"vehicle_type_id":"4","last_reported":1711213597,"current_range_meters":11600,"station_id":"ce4bhah2rcd13ifvqei0","pricing_plan_id":"cebpf4jnsgd1na2vs0mg"},{"bike_id":"9262f56e-237f-4f0f-bdea-5a30e8ee07d0","system_id":"levelo_inurba_marseille","lat":43.28466,"lon":5.35884,"is_reserved":false,"is_disabled":false,"rental_uris":{"android":"levelo://app?vid=9262f56e-237f-4f0f-bdea-5a30e8ee07d0","ios":"levelo://app?vid=9262f56e-237f-4f0f-bdea-5a30e8ee07d0"},"vehicle_type_id":"4","last_reported":1711213597,"current_range_meters":7200,"station_id":"ce4bhah2rcd13ifvqei0","pricing_plan_id":"cebpf4jnsgd1na2vs0mg"},{"bike_id":"ddad9160-b205-4026-8f82-5b1799cb22df","system_id":"levelo_inurba_marseille","lat":43.284538,"lon":5.358657,"is_reserved":false,"is_disabled":false,"rental_uris":{"android":"levelo://app?vid=ddad9160-b205-4026-8f82-5b1799cb22df","ios":"levelo://app?vid=ddad9160-b205-4026-8f82-5b1799cb22df"},"vehicle_type_id":"4","last_reported":1711213597,"current_range_meters":11600,"station_id":"ce4bhah2rcd13ifvqei0","pricing_plan_id":"cebpf4jnsgd1na2vs0mg"},{"bike_id":"638ff2c2-a265-4670-8fca-2893ed8d01e4","system_id":"levelo_inurba_marseille","lat":43.28463,"lon":5.35893,"is_reserved":false,"is_disabled":false,"rental_uris":{"android":"levelo://app?vid=638ff2c2-a265-4670-8fca-2893ed8d01e4","ios":"levelo://app?vid=638ff2c2-a265-4670-8fca-2893ed8d01e4"},"vehicle_type_id":"4","last_reported":1711213597,"current_range_meters":10400,"station_id":"ce4bhah2rcd13ifvqei0","pricing_plan_id":"cebpf4jnsgd1na2vs0mg"},{"bike_id":"b21d5823-32fe-4c76-b34b-7f34f36b4505","system_id":"levelo_inurba_marseille","lat":43.294314,"lon":5.397498,"is_reserved":false,"is_disabled":false,"rental_uris":{"android":"levelo://app?vid=b21d5823-32fe-4c76-b34b-7f34f36b4505","ios":"levelo://app?vid=b21d5823-32fe-4c76-b34b-7f34f36b4505"},"vehicle_type_id":"4","last_reported":1711213597,"current_range_meters":11600,"station_id":"ce4bh3h2rcd13ifvqdo0","pricing_plan_id":"cebpf4jnsgd1na2vs0mg"},{"bike_id":"8b28f153-0ea8-4132-bce7-df1360574304","system_id":"levelo_inurba_marseille","lat":43.294314,"lon":5.397498,"is_reserved":false,"is_disabled":false,"rental_uris":{"android":"levelo://app?vid=8b28f153-0ea8-4132-bce7-df1360574304","ios":"levelo://app?vid=8b28f153-0ea8-4132-bce7-df1360574304"},"vehicle_type_id":"4","last_reported":1711213597,"current_range_meters":0,"station_id":"ce4bh3h2rcd13ifvqdo0","pricing_plan_id":"cebpf4jnsgd1na2vs0mg"},{"bike_id":"99984cf0-c695-4162-9777-5667108c8369","system_id":"levelo_inurba_marseille","lat":43.2862,"lon":5.35114,"is_reserved":false,"is_disabled":false,"rental_uris":{"android":"levelo://app?vid=99984cf0-c695-4162-9777-5667108c8369","ios":"levelo://app?vid=99984cf0-c695-4162-9777-5667108c8369"},"vehicle_type_id":"4","last_reported":1711213597,"current_range_meters":0,"station_id":"ce4bhch2rcd13ifvqeug","pricing_plan_id":"cebpf4jnsgd1na2vs0mg"},{"bike_id":"e8268c35-c9f8-412b-8d2a-f939f0691a3f","system_id":"levelo_inurba_marseille","lat":43.283998,"lon":5.375062,"is_reserved":false,"is_disabled":false,"rental_uris":{"android":"levelo://app?vid=e8268c35-c9f8-412b-8d2a-f939f0691a3f","ios":"levelo://app?vid=e8268c35-c9f8-412b-8d2a-f939f0691a3f"},"vehicle_type_id":"4","last_reported":1711213597,"current_range_meters":13200,"station_id":"ce4bh412rcd13ifvqds0","pricing_plan_id":"cebpf4jnsgd1na2vs0mg"},{"bike_id":"642a583a-57ba-4ccb-97db-7d7227ab8621","system_id":"levelo_inurba_marseille","lat":43.285856,"lon":5.350771,"is_reserved":false,"is_disabled":false,"rental_uris":{"android":"levelo://app?vid=642a583a-57ba-4ccb-97db-7d7227ab8621","ios":"levelo://app?vid=642a583a-57ba-4ccb-97db-7d7227ab8621"},"vehicle_type_id":"4","last_reported":1711213597,"current_range_meters":20000,"station_id":"ce4bhch2rcd13ifvqeug","pricing_plan_id":"cebpf4jnsgd1na2vs0mg"},{"bike_id":"18304991-314e-4adc-9231-5f2e86ef98af","system_id":"levelo_inurba_marseille","lat":43.28619,"lon":5.35104,"is_reserved":false,"is_disabled":false,"rental_uris":{"android":"levelo://app?vid=18304991-314e-4adc-9231-5f2e86ef98af","ios":"levelo://app?vid=18304991-314e-4adc-9231-5f2e86ef98af"},"vehicle_type_id":"4","last_reported":1711213597,"current_range_meters":26000,"station_id":"ce4bhch2rcd13ifvqeug","pricing_plan_id":"cebpf4jnsgd1na2vs0mg"},{"bike_id":"3ca60c12-97ed-4d8e-bc7f-1fe9ce4a8106","system_id":"levelo_inurba_marseille","lat":43.285856,"lon":5.350771,"is_reserved":false,"is_disabled":false,"rental_uris":{"android":"levelo://app?vid=3ca60c12-97ed-4d8e-bc7f-1fe9ce4a8106","ios":"levelo://app?vid=3ca60c12-97ed-4d8e-bc7f-1fe9ce4a8106"},"vehicle_type_id":"4","last_reported":1711213597,"current_range_meters":10400,"station_id":"ce4bhch2rcd13ifvqeug","pricing_plan_id":"cebpf4jnsgd1na2vs0mg"},{"bike_id":"0d74705a-9f4b-4dad-9e33-d0e782db3928","system_id":"levelo_inurba_marseille","lat":43.285856,"lon":5.350771,"is_reserved":false,"is_disabled":false,"rental_uris":{"android":"levelo://app?vid=0d74705a-9f4b-4dad-9e33-d0e782db3928","ios":"levelo://app?vid=0d74705a-9f4b-4dad-9e33-d0e782db3928"},"vehicle_type_id":"4","last_reported":1711213597,"current_range_meters":22000,"station_id":"ce4bhch2rcd13ifvqeug","pricing_plan_id":"cebpf4jnsgd1na2vs0mg"},{"bike_id":"38bfc955-9829-491c-9417-0bb790e4526a","system_id":"levelo_inurba_marseille","lat":43.286165,"lon":5.351025,"is_reserved":false,"is_disabled":false,"rental_uris":{"android":"levelo://app?vid=38bfc955-9829-491c-9417-0bb790e4526a","ios":"levelo://app?vid=38bfc955-9829-491c-9417-0bb790e4526a"},"vehicle_type_id":"4","last_reported":1711213597,"current_range_meters":400,"station_id":"ce4bhch2rcd13ifvqeug","pricing_plan_id":"cebpf4jnsgd1na2vs0mg"},{"bike_id":"380ad85c-143e-4204-b9f8-126099269478","system_id":"levelo_inurba_marseille","lat":43.28616,"lon":5.35104,"is_reserved":false,"is_disabled":false,"rental_uris":{"android":"levelo://app?vid=380ad85c-143e-4204-b9f8-126099269478","ios":"levelo://app?vid=380ad85c-143e-4204-b9f8-126099269478"},"vehicle_type_id":"4","last_reported":1711213597,"current_range_meters":11600,"station_id":"ce4bhch2rcd13ifvqeug","pricing_plan_id":"cebpf4jnsgd1na2vs0mg"},{"bike_id":"31fc3b1e-ba0d-4ad7-a578-3b1125eb35a1","system_id":"levelo_inurba_marseille","lat":43.285856,"lon":5.350771,"is_reserved":false,"is_disabled":false,"rental_uris":{"android":"levelo://app?vid=31fc3b1e-ba0d-4ad7-a578-3b1125eb35a1","ios":"levelo://app?vid=31fc3b1e-ba0d-4ad7-a578-3b1125eb35a1"},"vehicle_type_id":"4","last_reported":1711213597,"current_range_meters":22000,"station_id":"ce4bhch2rcd13ifvqeug","pricing_plan_id":"cebpf4jnsgd1na2vs0mg"},{"bike_id":"9d485720-b231-4efb-b5f6-37d449ff3c25","system_id":"levelo_inurba_marseille","lat":43.285856,"lon":5.350771,"is_reserved":false,"is_disabled":false,"rental_uris":{"android":"levelo://app?vid=9d485720-b231-4efb-b5f6-37d449ff3c25","ios":"levelo://app?vid=9d485720-b231-4efb-b5f6-37d449ff3c25"},"vehicle_type_id":"4","last_reported":1711213597,"current_range_meters":4400,"station_id":"ce4bhch2rcd13ifvqeug","pricing_plan_id":"cebpf4jnsgd1na2vs0mg"},{"bike_id":"f7d6cac1-9d55-41b5-979b-c1ea3aff204e","system_id":"levelo_inurba_marseille","lat":43.285856,"lon":5.350771,"is_reserved":false,"is_disabled":false,"rental_uris":{"android":"levelo://app?vid=f7d6cac1-9d55-41b5-979b-c1ea3aff204e","ios":"levelo://app?vid=f7d6cac1-9d55-41b5-979b-c1ea3aff204e"},"vehicle_type_id":"4","last_reported":1711213597,"current_range_meters":16000,"station_id":"ce4bhch2rcd13ifvqeug","pricing_plan_id":"cebpf4jnsgd1na2vs0mg"},{"bike_id":"b3a705af-e1ce-4453-bea6-0a25b4050266","system_id":"levelo_inurba_marseille","lat":43.286066,"lon":5.350955,"is_reserved":false,"is_disabled":false,"rental_uris":{"android":"levelo://app?vid=b3a705af-e1ce-4453-bea6-0a25b4050266","ios":"levelo://app?vid=b3a705af-e1ce-4453-bea6-0a25b4050266"},"vehicle_type_id":"4","last_reported":1711213597,"current_range_meters":26400,"station_id":"ce4bhch2rcd13ifvqeug","pricing_plan_id":"cebpf4jnsgd1na2vs0mg"},{"bike_id":"3b38f304-06ef-4a88-987f-97cc7ff84dd8","system_id":"levelo_inurba_marseille","lat":43.295713,"lon":5.399639,"is_reserved":false,"is_disabled":false,"rental_uris":{"android":"levelo://app?vid=3b38f304-06ef-4a88-987f-97cc7ff84dd8","ios":"levelo://app?vid=3b38f304-06ef-4a88-987f-97cc7ff84dd8"},"vehicle_type_id":"4","last_reported":1711213597,"current_range_meters":15200,"station_id":"ce4bh312rcd13ifvqdj0","pricing_plan_id":"cebpf4jnsgd1na2vs0mg"},{"bike_id":"57e4e66f-30d0-4b00-a754-62fdab6853be","system_id":"levelo_inurba_marseille","lat":43.283998,"lon":5.375062,"is_reserved":false,"is_disabled":false,"rental_uris":{"android":"levelo://app?vid=57e4e66f-30d0-4b00-a754-62fdab6853be","ios":"levelo://app?vid=57e4e66f-30d0-4b00-a754-62fdab6853be"},"vehicle_type_id":"4","last_reported":1711213597,"current_range_meters":2400,"station_id":"ce4bh412rcd13ifvqds0","pricing_plan_id":"cebpf4jnsgd1na2vs0mg"},