{"last_updated":1715979998,"ttl":30,"version":"2.2","data":{"bikes":[{"bike_id":"d3bc2334-2750-47f2-8d1b-97315f67a099","system_id":"levelo_inurba_marseille","lat":43.31341,"lon":5.367098,"is_reserved":false,"is_disabled":false,"rental_uris":{"android":"levelo://app?vid=d3bc2334-2750-47f2-8d1b-97315f67a099","ios":"levelo://app?vid=d3bc2334-2750-47f2-8d1b-97315f67a099"},"vehicle_type_id":"4","last_reported":1715979998,"current_range_meters":19200,"station_id":"ce4bgr92rcd13ifvqc6g","pricing_plan_id":"cebpf4jnsgd1na2vs0mg"},{"bike_id":"c29d184b-c0df-4d43-a13f-11626420b5ab","system_id":"levelo_inurba_marseille","lat":43.312239,"lon":5.368562,"is_reserved":false,"is_disabled":false,"rental_uris":{"android":"levelo://app?vid=c29d184b-c0df-4d43-a13f-11626420b5ab","ios":"levelo://app?vid=c29d184b-c0df-4d43-a13f-11626420b5ab"},"vehicle_type_id":"4","last_reported":1715979998,"current_range_meters":4000,"station_id":"ce4bgl92rcd13ifvqbq0","pricing_plan_id":"cebpf4jnsgd1na2vs0mg"},{"bike_id":"a32e7c60-0dbf-4aba-b7d2-e9e5de3198b2","system_id":"levelo_inurba_marseille","lat":43.312239,"lon":5.368562,"is_reserved":false,"is_disabled":false,"rental_uris":{"android":"levelo://app?vid=a32e7c60-0dbf-4aba-b7d2-e9e5de3198b2","ios":"levelo://app?vid=a32e7c60-0dbf-4aba-b7d2-e9e5de3198b2"},"vehicle_type_id":"4","last_reported":1715979998,"current_range_meters":25200,"station_id":"ce4bgl92rcd13ifvqbq0","pricing_plan_id":"cebpf4jnsgd1na2vs0mg"},{"bike_id":"d5efbf51-f10a-4696-8815-f2310a8ab3cd","system_id":"levelo_inurba_marseille","lat":43.312239,"lon":5.368562,"is_reserved":false,"is_disabled":false,"rental_uris":{"android":"levelo://app?vid=d5efbf51-f10a-4696-8815-f2310a8ab3cd","ios":"levelo://app?vid=d5efbf51-f10a-4696-8815-f2310a8ab3cd"},"vehicle_type_id":"4","last_reported":1715979998,"current_range_meters":0,"station_id":"ce4bgl92rcd13ifvqbq0","pricing_plan_id":"cebpf4jnsgd1na2vs0mg"},{"bike_id":"620ea23b-592e-412b-8fa6-16df47550cbf","system_id":"levelo_inurba_marseille","lat":43.312239,"lon":5.368562,"is_reserved":false,"is_disabled":false,"rental_uris":{"android":"levelo://app?vid=620ea23b-592e-412b-8fa6-16df47550cbf","ios":"levelo://app?vid=620ea23b-592e-412b-8fa6-16df47550cbf"},"vehicle_type_id":"4","last_reported":1715979998,"current_range_meters":6000,"station_id":"ce4bgl92rcd13ifvqbq0","pricing_plan_id":"cebpf4jnsgd1na2vs0mg"},{"bike_id":"67e7f24f-df65-4a99-83f9-490073e94ba7","system_id":"levelo_inurba_marseille","lat":43.309076,"lon":5.368465,"is_reserved":false,"is_disabled":false,"rental_uris":{"android":"levelo://app?vid=67e7f24f-df65-4a99-83f9-490073e94ba7","ios":"levelo://app?vid=67e7f24f-df65-4a99-83f9-490073e94ba7"},"vehicle_type_id":"4","last_reported":1715979998,"current_range_meters":15600,"station_id":"ce4bgn92rcd13ifvqbvg","pricing_plan_id":"cebpf4jnsgd1na2vs0mg"},{"bike_id":"b1495c46-7568-4e1c-a92e-67a156dbd2d0","system_id":"levelo_inurba_marseille","lat":43.309076,"lon":5.368465,"is_reserved":false,"is_disabled":false,"rental_uris":{"android":"levelo://app?vid=b1495c46-7568-4e1c-a92e-67a156dbd2d0","ios":"levelo://app?vid=b1495c46-7568-4e1c-a92e-67a156dbd2d0"},"vehicle_type_id":"4","last_reported":1715979998,"current_range_meters":0,"station_id":"ce4bgn92rcd13ifvqbvg","pricing_plan_id":"cebpf4jnsgd1na2vs0mg"},{"bike_id":"b6418600-0832-4b13-a093-9de397c031b7","system_id":"levelo_inurba_marseille","lat":43.31489,"lon":5.37307,"is_reserved":false,"is_disabled":false,"rental_uris":{"android":"levelo://app?vid=b6418600-0832-4b13-a093-9de397c031b7","ios":"levelo://app?vid=b6418600-0832-4b13-a093-9de397c031b7"},"vehicle_type_id":"4","last_reported":1715979998,"current_range_meters":18800,"station_id":"ce4bgt12rcd13ifvqcd0","pricing_plan_id":"cebpf4jnsgd1na2vs0mg"},{"bike_id":"45fff844-f789-4da9-9c40-930d5d1469c7","system_id":"levelo_inurba_marseille","lat":43.314811,"lon":5.373103,"is_reserved":false,"is_disabled":false,"rental_uris":{"android":"levelo://app?vid=45fff844-f789-4da9-9c40-930d5d1469c7","ios":"levelo://app?vid=45fff844-f789-4da9-9c40-930d5d1469c7"},"vehicle_type_id":"4","last_reported":1715979998,"current_range_meters":8000,"station_id":"ce4bgt12rcd13ifvqcd0","pricing_plan_id":"cebpf4jnsgd1na2vs0mg"},{"bike_id":"ea8fa979-6aa1-4fcf-bd1f-bfbf64d3638c","system_id":"levelo_inurba_marseille","lat":43.31489,"lon":5.37312,"is_reserved":false,"is_disabled":false,"rental_uris":{"android":"levelo://app?vid=ea8fa979-6aa1-4fcf-bd1f-bfbf64d3638c","ios":"levelo://app?vid=ea8fa979-6aa1-4fcf-bd1f-bfbf64d3638c"},"vehicle_type_id":"4","last_reported":1715979998,"current_range_meters":25200,"station_id":"ce4bgt12rcd13ifvqcd0","pricing_plan_id":"cebpf4jnsgd1na2vs0mg"},{"bike_id":"212bb422-17e3-48cb-909a-d33920361c99","system_id":"levelo_inurba_marseille","lat":43.31494,"lon":5.3731,"is_reserved":false,"is_disabled":false,"rental_uris":{"android":"levelo://app?vid=212bb422-17e3-48cb-909a-d33920361c99","ios":"levelo://app?vid=212bb422-17e3-48cb-909a-d33920361c99"},"vehicle_type_id":"4","last_reported":1715979998,"current_range_meters":30000,"station_id":"ce4bgt12rcd13ifvqcd0","pricing_plan_id":"cebpf4jnsgd1na2vs0mg"},{"bike_id":"2c8315d1-25ee-430e-a9a7-b255ed46e256","system_id":"levelo_inurba_marseille","lat":43.314811,"lon":5.373103,"is_reserved":false,"is_disabled":false,"rental_uris":{"android":"levelo://app?vid=2c8315d1-25ee-430e-a9a7-b255ed46e256","ios":"levelo://app?vid=2c8315d1-25ee-430e-a9a7-b255ed46e256"},"vehicle_type_id":"4","last_reported":1715979998,"current_range_meters":15200,"station_id":"ce4bgt12rcd13ifvqcd0","pricing_plan_id":"cebpf4jnsgd1na2vs0mg"},{"bike_id":"cf45c1dc-1666-442b-af97-5e093be8e4a0","system_id":"levelo_inurba_marseille","lat":43.314811,"lon":5.373104,"is_reserved":false,"is_disabled":false,"rental_uris":{"android":"levelo://app?vid=cf45c1dc-1666-442b-af97-5e093be8e4a0","ios":"levelo://app?vid=cf45c1dc-1666-442b-af97-5e093be8e4a0"},"vehicle_type_id":"4","last_reported":1715979998,"current_range_meters":14000,"station_id":"ce4bgt12rcd13ifvqcd0","pricing_plan_id":"cebpf4jnsgd1na2vs0mg"},{"bike_id":"635e54b6-95fb-4365-bfb4-91b7965e262c","system_id":"levelo_inurba_marseille","lat":43.309034,"lon":5.371783,"is_reserved":false,"is_disabled":false,"rental_uris":{"android":"levelo://app?vid=635e54b6-95fb-4365-bfb4-91b7965e262c","ios":"levelo://app?vid=635e54b6-95fb-4365-bfb4-91b7965e262c"},"vehicle_type_id":"4","last_reported":1715979998,"current_range_meters":2400,"station_id":"ce4bguh2rcd13ifvqckg","pricing_plan_id":"cebpf4jnsgd1na2vs0mg"},{"bike_id":"92c3ab40-e049-419e-86e6-3a8c74db6a13","system_id":"levelo_inurba_marseille","lat":43.309039,"lon":5.371797,"is_reserved":false,"is_disabled":false,"rental_uris":{"android":"levelo://app?vid=92c3ab40-e049-419e-86e6-3a8c74db6a13","ios":"levelo://app?vid=92c3ab40-e049-419e-86e6-3a8c74db6a13"},"vehicle_type_id":"4","last_reported":1715979998,"current_range_meters":2800,"station_id":"ce4bguh2rcd13ifvqckg","pricing_plan_id":"cebpf4jnsgd1na2vs0mg"},{"bike_id":"abcef819-84a9-4956-83f4-f421c45ac34e","system_id":"levelo_inurba_marseille","lat":43.309034,"lon":5.371783,"is_reserved":false,"is_disabled":false,"rental_uris":{"android":"levelo://app?vid=abcef819-84a9-4956-83f4-f421c45ac34e","ios":"levelo://app?vid=abcef819-84a9-4956-83f4-f421c45ac34e"},"vehicle_type_id":"4","last_reported":1715979998,"current_range_meters":26000,"station_id":"ce4bguh2rcd13ifvqckg","pricing_plan_id":"cebpf4jnsgd1na2vs0mg"},{"bike_id":"65ddc67f-7158-4d39-afe9-e32f8b5ad0a2","system_id":"levelo_inurba_marseille","lat":43.305712,"lon":5.365641,"is_reserved":false,"is_disabled":false,"rental_uris":{"android":"levelo://app?vid=65ddc67f-7158-4d39-afe9-e32f8b5ad0a2","ios":"levelo://app?vid=65ddc67f-7158-4d39-afe9-e32f8b5ad0a2"},"vehicle_type_id":"4","last_reported":1715979998,"current_range_meters":31200,"station_id":"ce4bgs12rcd13ifvqcag","pricing_plan_id":"cebpf4jnsgd1na2vs0mg"},{"bike_id":"c8c072ac-7330-4c36-aa42-f635e4bb3a4e","system_id":"levelo_inurba_marseille","lat":43.305712,"lon":5.365641,"is_reserved":false,"is_disabled":false,"rental_uris":{"android":"levelo://app?vid=c8c072ac-7330-4c36-aa42-f635e4bb3a4e","ios":"levelo://app?vid=c8c072ac-7330-4c36-aa42-f635e4bb3a4e"},"vehicle_type_id":"4","last_reported":1715979998,"current_range_meters":24400,"station_id":"ce4bgs12rcd13ifvqcag","pricing_plan_id":"cebpf4jnsgd1na2vs0mg"},{"bike_id":"053a9f19-12b6-4f15-bb0e-535eb36f7e76","system_id":"levelo_inurba_marseille","lat":43.305368,"lon":5.367343,"is_reserved":false,"is_disabled":false,"rental_uris":{"android":"levelo://app?vid=053a9f19-12b6-4f15-bb0e-535eb36f7e76","ios":"levelo://app?vid=053a9f19-12b6-4f15-bb0e-535eb36f7e76"},"vehicle_type_id":"4","last_reported":1715979998,"current_range_meters":2400,"station_id":"ce4bgrp2rcd13ifvqc9g","pricing_plan_id":"cebpf4jnsgd1na2vs0mg"},{"bike_id":"46813d0f-e576-4994-a8ff-3b59758b8b05","system_id":"levelo_inurba_marseille","lat":43.305706,"lon":5.365654,"is_reserved":false,"is_disabled":false,"rental_uris":{"android":"levelo://app?vid=46813d0f-e576-4994-a8ff-3b59758b8b05","ios":"levelo://app?vid=46813d0f-e576-4994-a8ff-3b59758b8b05"},"vehicle_type_id":"4","last_reported":1715979998,"current_range_meters":16400,"station_id":"ce4bgs12rcd13ifvqcag","pricing_plan_id":"cebpf4jnsgd1na2vs0mg"},{"bike_id":"8dc36b6c-e363-4789-83fe-071d3cbb8240","system_id":"levelo_inurba_marseille","lat":43.305989,"lon":5.37225,"is_reserved":false,"is_disabled":false,"rental_uris":{"android":"levelo://app?vid=8dc36b6c-e363-4789-83fe-071d3cbb8240","ios":"levelo://app?vid=8dc36b6c-e363-4789-83fe-071d3cbb8240"},"vehicle_type_id":"4","last_reported":1715979998,"current_range_meters":13600,"station_id":"ce4bgqh2rcd13ifvqc4g","pricing_plan_id":"cebpf4jnsgd1na2vs0mg"},{"bike_id":"f24f5f18-e0a6-4ad3-baf5-fb007f3d4cad","system_id":"levelo_inurba_marseille","lat":43.311125,"lon":5.377624,"is_reserved":false,"is_disabled":false,"rental_uris":{"android":"levelo://app?vid=f24f5f18-e0a6-4ad3-baf5-fb007f3d4cad","ios":"levelo://app?vid=f24f5f18-e0a6-4ad3-baf5-fb007f3d4cad"},"vehicle_type_id":"4","last_reported":1715979998,"current_range_meters":26800,"station_id":"ce4bgt92rcd13ifvqcg0","pricing_plan_id":"cebpf4jnsgd1na2vs0mg"},{"bike_id":"de1b5feb-8140-4483-b107-46e53888597f","system_id":"levelo_inurba_marseille","lat":43.311125,"lon":5.377624,"is_reserved":false,"is_disabled":false,"rental_uris":{"android":"levelo://app?vid=de1b5feb-8140-4483-b107-46e53888597f","ios":"levelo://app?vid=de1b5feb-8140-4483-b107-46e53888597f"},"vehicle_type_id":"4","last_reported":1715979998,"current_range_meters":12400,"station_id":"ce4bgt92rcd13ifvqcg0","pricing_plan_id":"cebpf4jnsgd1na2vs0mg"},{"bike_id":"ae95a27f-1119-4416-86f1-cfadd48f3a4a","system_id":"levelo_inurba_marseille","lat":43.317075,"lon":5.377367,"is_reserved":false,"is_disabled":false,"rental_uris":{"android":"levelo://app?vid=ae95a27f-1119-4416-86f1-cfadd48f3a4a","ios":"levelo://app?vid=ae95a27f-1119-4416-86f1-cfadd48f3a4a"},"vehicle_type_id":"4","last_reported":1715979998,"current_range_meters":6000,"station_id":"ce4bgth2rcd13ifvqch0","pricing_plan_id":"cebpf4jnsgd1na2vs0mg"},{"bike_id":"a77e3aed-b9b7-4d66-8681-2883eb43fadc","system_id":"levelo_inurba_marseille","lat":43.311131,"lon":5.377651,"is_reserved":false,"is_disabled":false,"rental_uris":{"android":"levelo://app?vid=a77e3aed-b9b7-4d66-8681-2883eb43fadc","ios":"levelo://app?vid=a77e3aed-b9b7-4d66-8681-2883eb43fadc"},"vehicle_type_id":"4","last_reported":1715979998,"current_range_meters":15600,"station_id":"ce4bgt92rcd13ifvqcg0","pricing_plan_id":"cebpf4jnsgd1na2vs0mg"},{"bike_id":"f673e677-d4c8-421e-9042-9eff9f34ccae","system_id":"levelo_inurba_marseille","lat":43.317068,"lon":5.377474,"is_reserved":false,"is_disabled":false,"rental_uris":{"android":"levelo://app?vid=f673e677-d4c8-421e-9042-9eff9f34ccae","ios":"levelo://app?vid=f673e677-d4c8-421e-9042-9eff9f34ccae"},"vehicle_type_id":"4","last_reported":1715979998,"current_range_meters":0,"station_id":"ce4bgth2rcd13ifvqch0","pricing_plan_id":"cebpf4jnsgd1na2vs0mg"},{"bike_id":"84b12753-80bf-47af-9502-f8e46524e089","system_id":"levelo_inurba_marseille","lat":43.317127,"lon":5.377643,"is_reserved":false,"is_disabled":false,"rental_uris":{"android":"levelo://app?vid=84b12753-80bf-47af-9502-f8e46524e089","ios":"levelo://app?vid=84b12753-80bf-47af-9502-f8e46524e089"},"vehicle_type_id":"4","last_reported":1715979998,"current_range_meters":4800,"station_id":"ce4bgth2rcd13ifvqch0","pricing_plan_id":"cebpf4jnsgd1na2vs0mg"},{"bike_id":"2a6ea533-bd90-44ae-90c1-df129b91a35a","system_id":"levelo_inurba_marseille","lat":43.30304,"lon":5.368987,"is_reserved":false,"is_disabled":false,"rental_uris":{"android":"levelo://app?vid=2a6ea533-bd90-44ae-90c1-df129b91a35a","ios":"levelo://app?vid=2a6ea533-bd90-44ae-90c1-df129b91a35a"},"vehicle_type_id":"4","last_reported":1715979998,"current_range_meters":25600,"station_id":"ce4bgqh2rcd13ifvqc5g","pricing_plan_id":"cebpf4jnsgd1na2vs0mg"},{"bike_id":"1ec53050-4ef0-4ddd-8896-0b93a91c5a16","system_id":"levelo_inurba_marseille","lat":43.3153,"lon":5.38032,"is_reserved":false,"is_disabled":false,"rental_uris":{"android":"levelo://app?vid=1ec53050-4ef0-4ddd-8896-0b93a91c5a16","ios":"levelo://app?vid=1ec53050-4ef0-4ddd-8896-0b93a91c5a16"},"vehicle_type_id":"4","last_reported":1715979998,"current_range_meters":8400,"station_id":"ce4bhsp2rcd13ifvqi50","pricing_plan_id":"cebpf4jnsgd1na2vs0mg"},{"bike_id":"dae36f3f-60c1-4434-b2c9-513bd7afe340","system_id":"levelo_inurba_marseille","lat":43.315308,"lon":5.380322,"is_reserved":false,"is_disabled":false,"rental_uris":{"android":"levelo://app?vid=dae36f3f-60c1-4434-b2c9-513bd7afe340","ios":"levelo://app?vid=dae36f3f-60c1-4434-b2c9-513bd7afe340"},"vehicle_type_id":"4","last_reported":1715979998,"current_range_meters":2400,"station_id":"ce4bhsp2rcd13ifvqi50","pricing_plan_id":"cebpf4jnsgd1na2vs0mg"},{"bike_id":"b371731d-6772-4ca8-ac35-70c7ac9c1109","system_id":"levelo_inurba_marseille","lat":43.301939,"lon":5.366286,"is_reserved":false,"is_disabled":false,"rental_uris":{"android":"levelo://app?vid=b371731d-6772-4ca8-ac35-70c7ac9c1109","ios":"levelo://app?vid=b371731d-6772-4ca8-ac35-70c7ac9c1109"},"vehicle_type_id":"4","last_reported":1715979998,"current_range_meters":8800,"station_id":"ce4bgrh2rcd13ifvqc8g","pricing_plan_id":"cebpf4jnsgd1na2vs0mg"},{"bike_id":"b4b5bc16-5ab9-49e8-9b05-7f371fc34e8e","system_id":"levelo_inurba_marseille","lat":43.308012,"lon":5.381511,"is_reserved":false,"is_disabled":false,"rental_uris":{"android":"levelo://app?vid=b4b5bc16-5ab9-49e8-9b05-7f371fc34e8e","ios":"levelo://app?vid=b4b5bc16-5ab9-49e8-9b05-7f371fc34e8e"},"vehicle_type_id":"4","last_reported":1715979998,"current_range_meters":11200,"station_id":"ce4bgt12rcd13ifvqce0","pricing_plan_id":"cebpf4jnsgd1na2vs0mg"},{"bike_id":"d021ae88-d833-4763-b76f-950b194ee758","system_id":"levelo_inurba_marseille","lat":43.308012,"lon":5.381511,"is_reserved":false,"is_disabled":false,"rental_uris":{"android":"levelo://app?vid=d021ae88-d833-4763-b76f-950b194ee758","ios":"levelo://app?vid=d021ae88-d833-4763-b76f-950b194ee758"},"vehicle_type_id":"4","last_reported":1715979998,"current_range_meters":6000,"station_id":"ce4bgt12rcd13ifvqce0","pricing_plan_id":"cebpf4jnsgd1na2vs0mg"},{"bike_id":"dcd6d415-8b53-4d0a-91f5-7109ebe54b93","system_id":"levelo_inurba_marseille","lat":43.310804,"lon":5.38359,"is_reserved":false,"is_disabled":false,"rental_uris":{"android":"levelo://app?vid=dcd6d415-8b53-4d0a-91f5-7109ebe54b93","ios":"levelo://app?vid=dcd6d415-8b53-4d0a-91f5-7109ebe54b93"},"vehicle_type_id":"4","last_reported":1715979998,"current_range_meters":2800,"station_id":"ce4bgv92rcd13ifvqcr0","pricing_plan_id":"cebpf4jnsgd1na2vs0mg"},{"bike_id":"9d8f7ee6-be7b-4b2e-ba1c-92986d40dc97","system_id":"levelo_inurba_marseille","lat":43.304606,"lon":5.379026,"is_reserved":false,"is_disabled":false,"rental_uris":{"android":"levelo://app?vid=9d8f7ee6-be7b-4b2e-ba1c-92986d40dc97","ios":"levelo://app?vid=9d8f7ee6-be7b-4b2e-ba1c-92986d40dc97"},"vehicle_type_id":"4","last_reported":1715979998,"current_range_meters":2400,"station_id":"ce4bgup2rcd13ifvqcn0","pricing_plan_id":"cebpf4jnsgd1na2vs0mg"},{"bike_id":"7522fd6a-8a27-4544-97ec-c630c74fb350","system_id":"levelo_inurba_marseille","lat":43.304606,"lon":5.379026,"is_reserved":false,"is_disabled":false,"rental_uris":{"android":"levelo://app?vid=7522fd6a-8a27-4544-97ec-c630c74fb350","ios":"levelo://app?vid=7522fd6a-8a27-4544-97ec-c630c74fb350"},"vehicle_type_id":"4","last_reported":1715979998,"current_range_meters":0,"station_id":"ce4bgup2rcd13ifvqcn0","pricing_plan_id":"cebpf4jnsgd1na2vs0mg"},{"bike_id":"58d52356-6fe8-41fe-8b76-f112b8c7aca0","system_id":"levelo_inurba_marseille","lat":43.324771,"lon":5.36557,"is_reserved":false,"is_disabled":false,"rental_uris":{"android":"levelo://app?vid=58d52356-6fe8-41fe-8b76-f112b8c7aca0","ios":"levelo://app?vid=58d52356-6fe8-41fe-8b76-f112b8c7aca0"},"vehicle_type_id":"4","last_reported":1715979998,"current_range_meters":31200,"station_id":"ce4bhs12rcd13ifvqhvg","pricing_plan_id":"cebpf4jnsgd1na2vs0mg"},{"bike_id":"9c1f7e62-096c-495b-a21f-f5bf00cc381b","system_id":"levelo_inurba_marseille","lat":43.324771,"lon":5.36557,"is_reserved":false,"is_disabled":false,"rental_uris":{"android":"levelo://app?vid=9c1f7e62-096c-495b-a21f-f5bf00cc381b","ios":"levelo://app?vid=9c1f7e62-096c-495b-a21f-f5bf00cc381b"},"vehicle_type_id":"4","last_reported":1715979998,"current_range_meters":28000,"station_id":"ce4bhs12rcd13ifvqhvg","pricing_plan_id":"cebpf4jnsgd1na2vs0mg"},{"bike_id":"7e0f5720-6220-4adb-979a-5e49b2333554","system_id":"levelo_inurba_marseille","lat":43.324771,"lon":5.36557,"is_reserved":false,"is_disabled":false,"rental_uris":{"android":"levelo://app?vid=7e0f5720-6220-4adb-979a-5e49b2333554","ios":"levelo://app?vid=7e0f5720-6220-4adb-979a-5e49b2333554"},"vehicle_type_id":"4","last_reported":1715979998,"current_range_meters":14400,"station_id":"ce4bhs12rcd13ifvqhvg","pricing_plan_id":"cebpf4jnsgd1na2vs0mg"},{"bike_id":"b6d3d4c3-48f1-44f6-88f4-a78216be9c29","system_id":"levelo_inurba_marseille","lat":43.324771,"lon":5.36557,"is_reserved":false,"is_disabled":false,"rental_uris":{"android":"levelo://app?vid=b6d3d4c3-48f1-44f6-88f4-a78216be9c29","ios":"levelo://app?vid=b6d3d4c3-48f1-44f6-88f4-a78216be9c29"},"vehicle_type_id":"4","last_reported":1715979998,"current_range_meters":4800,"station_id":"ce4bhs12rcd13ifvqhvg","pricing_plan_id":"cebpf4jnsgd1na2vs0mg"},{"bike_id":"bf44b839-a72e-457a-a95b-a061a3b96cf8","system_id":"levelo_inurba_marseille","lat":43.32487,"lon":5.36558,"is_reserved":false,"is_disabled":false,"rental_uris":{"android":"levelo://app?vid=bf44b839-a72e-457a-a95b-a061a3b96cf8","ios":"levelo://app?vid=bf44b839-a72e-457a-a95b-a061a3b96cf8"},"vehicle_type_id":"4","last_reported":1715979998,"current_range_meters":6800,"station_id":"ce4bhs12rcd13ifvqhvg","pricing_plan_id":"cebpf4jnsgd1na2vs0mg"},{"bike_id":"f4ef172b-707a-40ee-8b9e-e12bc02e346a","system_id":"levelo_inurba_marseille","lat":43.310707,"lon":5.383577,"is_reserved":false,"is_disabled":false,"rental_uris":{"android":"levelo://app?vid=f4ef172b-707a-40ee-8b9e-e12bc02e346a","ios":"levelo://app?vid=f4ef172b-707a-40ee-8b9e-e12bc02e346a"},"vehicle_type_id":"4","last_reported":1715979998,"current_range_meters":10400,"station_id":"ce4bgv92rcd13ifvqcr0","pricing_plan_id":"cebpf4jnsgd1na2vs0mg"},{"bike_id":"248887c3-9032-4972-a69a-11b34fb82767","system_id":"levelo_inurba_marseille","lat":43.310804,"lon":5.38359,"is_reserved":false,"is_disabled":false,"rental_uris":{"android":"levelo://app?vid=248887c3-9032-4972-a69a-11b34fb82767","ios":"levelo://app?vid=248887c3-9032-4972-a69a-11b34fb82767"},"vehicle_type_id":"4","last_reported":1715979998,"current_range_meters":0,"station_id":"ce4bgv92rcd13ifvqcr0","pricing_plan_id":"cebpf4jnsgd1na2vs0mg"},{"bike_id":"be3b362d-8db0-4dc3-8993-5464767265e6","system_id":"levelo_inurba_marseille","lat":43.30143,"lon":5.37413,"is_reserved":false,"is_disabled":false,"rental_uris":{"android":"levelo://app?vid=be3b362d-8db0-4dc3-8993-5464767265e6","ios":"levelo://app?vid=be3b362d-8db0-4dc3-8993-5464767265e6"},"vehicle_type_id":"4","last_reported":1715979998,"current_range_meters":8800,"station_id":"ce4bgs92rcd13ifvqcc0","pricing_plan_id":"cebpf4jnsgd1na2vs0mg"},{"bike_id":"7ca4b76a-d3e8-4273-abcf-20ee737cf28e","system_id":"levelo_inurba_marseille","lat":43.319935,"lon":5.381699,"is_reserved":false,"is_disabled":false,"rental_uris":{"android":"levelo://app?vid=7ca4b76a-d3e8-4273-abcf-20ee737cf28e","ios":"levelo://app?vid=7ca4b76a-d3e8-4273-abcf-20ee737cf28e"},"vehicle_type_id":"4","last_reported":1715979998,"current_range_meters":15600,"station_id":"ce4bhr12rcd13ifvqhpg","pricing_plan_id":"cebpf4jnsgd1na2vs0mg"},{"bike_id":"56651f4f-b3ab-4a79-a8f0-becc3dc17146","system_id":"levelo_inurba_marseille","lat":43.313571,"lon":5.384829,"is_reserved":false,"is_disabled":false,"rental_uris":{"android":"levelo://app?vid=56651f4f-b3ab-4a79-a8f0-becc3dc17146","ios":"levelo://app?vid=56651f4f-b3ab-4a79-a8f0-becc3dc17146"},"vehicle_type_id":"4","last_reported":1715979998,"current_range_meters":10000,"station_id":"ce4bgt92rcd13ifvqcf0","pricing_plan_id":"cebpf4jnsgd1na2vs0mg"},{"bike_id":"169e429d-e471-44d5-911a-73ee8b3466b0","system_id":"levelo_inurba_marseille","lat":43.313607,"lon":5.384913,"is_reserved":false,"is_disabled":false,"rental_uris":{"android":"levelo://app?vid=169e429d-e471-44d5-911a-73ee8b3466b0","ios":"levelo://app?vid=169e429d-e471-44d5-911a-73ee8b3466b0"},"vehicle_type_id":"4","last_reported":1715979998,"current_range_meters":11600,"station_id":"ce4bgt92rcd13ifvqcf0","pricing_plan_id":"cebpf4jnsgd1na2vs0mg"},{"bike_id":"1468c17a-bb27-4864-9b9c-e329d0b099fb","system_id":"levelo_inurba_marseille","lat":43.31368,"lon":5.38491,"is_reserved":false,"is_disabled":false,"rental_uris":{"android":"levelo://app?vid=1468c17a-bb27-4864-9b9c-e329d0b099fb","ios":"levelo://app?vid=1468c17a-bb27-4864-9b9c-e329d0b099fb"},"vehicle_type_id":"4","last_reported":1715979998,"current_range_meters":4000,"station_id":"ce4bgt92rcd13ifvqcf0","pricing_plan_id":"cebpf4jnsgd1na2vs0mg"},{"bike_id":"0e59246d-3e7a-4e1b-b15a-e2e12e36d4c1","system_id":"levelo_inurba_marseille","lat":43.313571,"lon":5.384829,"is_reserved":false,"is_disabled":false,"rental_uris":{"android":"levelo://app?vid=0e59246d-3e7a-4e1b-b15a-e2e12e36d4c1","ios":"levelo://app?vid=0e59246d-3e7a-4e1b-b15a-e2e12e36d4c1"},"vehicle_type_id":"4","last_reported":1715979998,"current_range_meters":24800,"station_id":"ce4bgt92rcd13ifvqcf0","pricing_plan_id":"cebpf4jnsgd1na2vs0mg"},{"bike_id":"b43712b2-9fcd-4c29-b2a1-ab3499da4d06","system_id":"levelo_inurba_marseille","lat":43.3137,"lon":5.38493,"is_reserved":false,"is_disabled":false,"rental_uris":{"android":"levelo://app?vid=b43712b2-9fcd-4c29-b2a1-ab3499da4d06","ios":"levelo://app?vid=b43712b2-9fcd-4c29-b2a1-ab3499da4d06"},"vehicle_type_id":"4","last_reported":1715979998,"current_range_meters":10400,"station_id":"ce4bgt92rcd13ifvqcf0","pricing_plan_id":"cebpf4jnsgd1na2vs0mg"},{"bike_id":"08d2b0c5-5560-4912-bb54-e320f7c7d912","system_id":"levelo_inurba_marseille","lat":43.31356,"lon":5.38495,"is_reserved":false,"is_disabled":false,"rental_uris":{"android":"levelo://app?vid=08d2b0c5-5560-4912-bb54-e320f7c7d912","ios":"levelo://app?vid=08d2b0c5-5560-4912-bb54-e320f7c7d912"},"vehicle_type_id":"4","last_reported":1715979998,"current_range_meters":0,"station_id":"ce4bgt92rcd13ifvqcf0","pricing_plan_id":"cebpf4jnsgd1na2vs0mg"},{"bike_id":"bdb2f496-f1c4-4bb6-a7bf-98c51f2fa8aa","system_id":"levelo_inurba_marseille","lat":43.313571,"lon":5.384829,"is_reserved":false,"is_disabled":false,"rental_uris":{"android":"levelo://app?vid=bdb2f496-f1c4-4bb6-a7bf-98c51f2fa8aa","ios":"levelo://app?vid=bdb2f496-f1c4-4bb6-a7bf-98c51f2fa8aa"},"vehicle_type_id":"4","last_reported":1715979998,"current_range_meters":0,"station_id":"ce4bgt92rcd13ifvqcf0","pricing_plan_id":"cebpf4jnsgd1na2vs0mg"},{"bike_id":"6e6a0b20-87d1-428c-a727-39a34fc58ed1","system_id":"levelo_inurba_marseille","lat":43.313571,"lon":5.384829,"is_reserved":false,"is_disabled":false,"rental_uris":{"android":"levelo://app?vid=6e6a0b20-87d1-428c-a727-39a34fc58ed1","ios":"levelo://app?vid=6e6a0b20-87d1-428c-a727-39a34fc58ed1"},"vehicle_type_id":"4","last_reported":1715979998,"current_range_meters":800,"station_id":"ce4bgt92rcd13ifvqcf0","pricing_plan_id":"cebpf4jnsgd1na2vs0mg"},{"bike_id":"a8245950-47bf-4e80-acf1-892a878d359d","system_id":"levelo_inurba_marseille","lat":43.313571,"lon":5.384829,"is_reserved":false,"is_disabled":false,"rental_uris":{"android":"levelo://app?vid=a8245950-47bf-4e80-acf1-892a878d359d","ios":"levelo://app?vid=a8245950-47bf-4e80-acf1-892a878d359d"},"vehicle_type_id":"4","last_reported":1715979998,"current_range_meters":13600,"station_id":"ce4bgt92rcd13ifvqcf0","pricing_plan_id":"cebpf4jnsgd1na2vs0mg"},{"bike_id":"0ee83b56-c1e0-4475-baea-1b3aa27408b3","system_id":"levelo_inurba_marseille","lat":43.30553,"lon":5.38426,"is_reserved":false,"is_disabled":false,"rental_uris":{"android":"levelo://app?vid=0ee83b56-c1e0-4475-baea-1b3aa27408b3","ios":"levelo://app?vid=0ee83b56-c1e0-4475-baea-1b3aa27408b3"},"vehicle_type_id":"4","last_reported":1715979998,"current_range_meters":22000,"station_id":"ce4bgg92rcd13ifvqb30","pricing_plan_id":"cebpf4jnsgd1na2vs0mg"},{"bike_id":"a8420d12-5ea1-4553-ba77-74153419b9a1","system_id":"levelo_inurba_marseille","lat":43.305364,"lon":5.384119,"is_reserved":false,"is_disabled":false,"rental_uris":{"android":"levelo://app?vid=a8420d12-5ea1-4553-ba77-74153419b9a1","ios":"levelo://app?vid=a8420d12-5ea1-4553-ba77-74153419b9a1"},"vehicle_type_id":"4","last_reported":1715979998,"current_range_meters":30400,"station_id":"ce4bgg92rcd13ifvqb30","pricing_plan_id":"cebpf4jnsgd1na2vs0mg"},{"bike_id":"fb4efae0-4bcc-4ee9-8069-d451ad6e3f8c","system_id":"levelo_inurba_marseille","lat":43.298433,"lon":5.362774,"is_reserved":false,"is_disabled":false,"rental_uris":{"android":"levelo://app?vid=fb4efae0-4bcc-4ee9-8069-d451ad6e3f8c","ios":"levelo://app?vid=fb4efae0-4bcc-4ee9-8069-d451ad6e3f8c"},"vehicle_type_id":"4","last_reported":1715979998,"current_range_meters":6800,"station_id":"ce4bgpp2rcd13ifvqc3g","pricing_plan_id":"cebpf4jnsgd1na2vs0mg"},{"bike_id":"bfde83fb-00cb-48f0-b052-aa9221b086f5","system_id":"levelo_inurba_marseille","lat":43.305364,"lon":5.384119,"is_reserved":false,"is_disabled":false,"rental_uris":{"android":"levelo://app?vid=bfde83fb-00cb-48f0-b052-aa9221b086f5","ios":"levelo://app?vid=bfde83fb-00cb-48f0-b052-aa9221b086f5"},"vehicle_type_id":"4","last_reported":1715979998,"current_range_meters":20800,"station_id":"ce4bgg92rcd13ifvqb30","pricing_plan_id":"cebpf4jnsgd1na2vs0mg"},{"bike_id":"3e4c610c-88df-4407-933c-762db036303a","system_id":"levelo_inurba_marseille","lat":43.298433,"lon":5.362774,"is_reserved":false,"is_disabled":false,"rental_uris":{"android":"levelo://app?vid=3e4c610c-88df-4407-933c-762db036303a","ios":"levelo://app?vid=3e4c610c-88df-4407-933c-762db036303a"},"vehicle_type_id":"4","last_reported":1715979998,"current_range_meters":2000,"station_id":"ce4bgpp2rcd13ifvqc3g","pricing_plan_id":"cebpf4jnsgd1na2vs0mg"},{"bike_id":"7d42ff37-683b-4120-9172-e0a1a32cec0d","system_id":"levelo_inurba_marseille","lat":43.298433,"lon":5.362774,"is_reserved":false,"is_disabled":false,"rental_uris":{"android":"levelo://app?vid=7d42ff37-683b-4120-9172-e0a1a32cec0d","ios":"levelo://app?vid=7d42ff37-683b-4120-9172-e0a1a32cec0d"},"vehicle_type_id":"4","last_reported":1715979998,"current_range_meters":7200,"station_id":"ce4bgpp2rcd13ifvqc3g","pricing_plan_id":"cebpf4jnsgd1na2vs0mg"},{"bike_id":"a379cfe9-ea61-46db-838d-aca6bb41a66e","system_id":"levelo_inurba_marseille","lat":43.298433,"lon":5.362774,"is_reserved":false,"is_disabled":false,"rental_uris":{"android":"levelo://app?vid=a379cfe9-ea61-46db-838d-aca6bb41a66e","ios":"levelo://app?vid=a379cfe9-ea61-46db-838d-aca6bb41a66e"},"vehicle_type_id":"4","last_reported":1715979998,"current_range_meters":16000,"station_id":"ce4bgpp2rcd13ifvqc3g","pricing_plan_id":"cebpf4jnsgd1na2vs0mg"},{"bike_id":"c10d5cc2-dc00-4941-b34c-6b1c9bce69b0","system_id":"levelo_inurba_marseille","lat":43.305364,"lon":5.384119,"is_reserved":false,"is_disabled":false,"rental_uris":{"android":"levelo://app?vid=c10d5cc2-dc00-4941-b34c-6b1c9bce69b0","ios":"levelo://app?vid=c10d5cc2-dc00-4941-b34c-6b1c9bce69b0"},"vehicle_type_id":"4","last_reported":1715979998,"current_range_meters":0,"station_id":"ce4bgg92rcd13ifvqb30","pricing_plan_id":"cebpf4jnsgd1na2vs0mg"},{"bike_id":"0c4eb777-e5e3-4e3a-851d-89925a8a8d85","system_id":"levelo_inurba_marseille","lat":43.305364,"lon":5.384119,"is_reserved":false,"is_disabled":false,"rental_uris":{"android":"levelo://app?vid=0c4eb777-e5e3-4e3a-851d-89925a8a8d85","ios":"levelo://app?vid=0c4eb777-e5e3-4e3a-851d-89925a8a8d85"},"vehicle_type_id":"4","last_reported":1715979998,"current_range_meters":31200,"station_id":"ce4bgg92rcd13ifvqb30","pricing_plan_id":"cebpf4jnsgd1na2vs0mg"},{"bike_id":"46ee22aa-9446-419d-b195-e694d40e0b0e","system_id":"levelo_inurba_marseille","lat":43.305364,"lon":5.384119,"is_reserved":false,"is_disabled":false,"rental_uris":{"android":"levelo://app?vid=46ee22aa-9446-419d-b195-e694d40e0b0e","ios":"levelo://app?vid=46ee22aa-9446-419d-b195-e694d40e0b0e"},"vehicle_type_id":"4","last_reported":1715979998,"current_range_meters":0,"station_id":"ce4bgg92rcd13ifvqb30","pricing_plan_id":"cebpf4jnsgd1na2vs0mg"},{"bike_id":"4c9d77f7-44a5-4803-8152-491329783143","system_id":"levelo_inurba_marseille","lat":43.305364,"lon":5.384119,"is_reserved":false,"is_disabled":false,"rental_uris":{"android":"levelo://app?vid=4c9d77f7-44a5-4803-8152-491329783143","ios":"levelo://app?vid=4c9d77f7-44a5-4803-8152-491329783143"},"vehicle_type_id":"4","last_reported":1715979998,"current_range_meters":15200,"station_id":"ce4bgg92rcd13ifvqb30","pricing_plan_id":"cebpf4jnsgd1na2vs0mg"},{"bike_id":"536f0905-7fad-49c0-ac14-66a02539369a","system_id":"levelo_inurba_marseille","lat":43.298433,"lon":5.362774,"is_reserved":false,"is_disabled":false,"rental_uris":{"android":"levelo://app?vid=536f0905-7fad-49c0-ac14-66a02539369a","ios":"levelo://app?vid=536f0905-7fad-49c0-ac14-66a02539369a"},"vehicle_type_id":"4","last_reported":1715979998,"current_range_meters":15200,"station_id":"ce4bgpp2rcd13ifvqc3g","pricing_plan_id":"cebpf4jnsgd1na2vs0mg"},{"bike_id":"0a915caa-da55-48ef-9307-cacbbcaa5ad6","system_id":"levelo_inurba_marseille","lat":43.299243,"lon":5.37481,"is_reserved":false,"is_disabled":false,"rental_uris":{"android":"levelo://app?vid=0a915caa-da55-48ef-9307-cacbbcaa5ad6","ios":"levelo://app?vid=0a915caa-da55-48ef-9307-cacbbcaa5ad6"},"vehicle_type_id":"4","last_reported":1715979998,"current_range_meters":29600,"station_id":"ce4bgjh2rcd13ifvqbg0","pricing_plan_id":"cebpf4jnsgd1na2vs0mg"},{"bike_id":"e451d665-da30-4c3a-ae5b-31410aaed7dc","system_id":"levelo_inurba_marseille","lat":43.311722,"lon":5.387247,"is_reserved":false,"is_disabled":false,"rental_uris":{"android":"levelo://app?vid=e451d665-da30-4c3a-ae5b-31410aaed7dc","ios":"levelo://app?vid=e451d665-da30-4c3a-ae5b-31410aaed7dc"},"vehicle_type_id":"4","last_reported":1715979998,"current_range_meters":10400,"station_id":"ce4bgv12rcd13ifvqcp0","pricing_plan_id":"cebpf4jnsgd1na2vs0mg"},{"bike_id":"9b91e0ef-7fc4-4b52-a63b-e673b722d423","system_id":"levelo_inurba_marseille","lat":43.311722,"lon":5.387247,"is_reserved":false,"is_disabled":false,"rental_uris":{"android":"levelo://app?vid=9b91e0ef-7fc4-4b52-a63b-e673b722d423","ios":"levelo://app?vid=9b91e0ef-7fc4-4b52-a63b-e673b722d423"},"vehicle_type_id":"4","last_reported":1715979998,"current_range_meters":23600,"station_id":"ce4bgv12rcd13ifvqcp0","pricing_plan_id":"cebpf4jnsgd1na2vs0mg"},{"bike_id":"9c1ed24f-b6e6-44d4-ae8d-470af449d6cd","system_id":"levelo_inurba_marseille","lat":43.311722,"lon":5.387247,"is_reserved":false,"is_disabled":false,"rental_uris":{"android":"levelo://app?vid=9c1ed24f-b6e6-44d4-ae8d-470af449d6cd","ios":"levelo://app?vid=9c1ed24f-b6e6-44d4-ae8d-470af449d6cd"},"vehicle_type_id":"4","last_reported":1715979998,"current_range_meters":18000,"station_id":"ce4bgv12rcd13ifvqcp0","pricing_plan_id":"cebpf4jnsgd1na2vs0mg"},{"bike_id":"dd178107-2164-4219-8e91-d1034c3fd853","system_id":"levelo_inurba_marseille","lat":43.311722,"lon":5.387247,"is_reserved":false,"is_disabled":false,"rental_uris":{"android":"levelo://app?vid=dd178107-2164-4219-8e91-d1034c3fd853","ios":"levelo://app?vid=dd178107-2164-4219-8e91-d1034c3fd853"},"vehicle_type_id":"4","last_reported":1715979998,"current_range_meters":5600,"station_id":"ce4bgv12rcd13ifvqcp0","pricing_plan_id":"cebpf4jnsgd1na2vs0mg"},{"bike_id":"9e7c228c-e7be-433d-bc45-365e053c0515","system_id":"levelo_inurba_marseille","lat":43.311722,"lon":5.387247,"is_reserved":false,"is_disabled":false,"rental_uris":{"android":"levelo://app?vid=9e7c228c-e7be-433d-bc45-365e053c0515","ios":"levelo://app?vid=9e7c228c-e7be-433d-bc45-365e053c0515"},"vehicle_type_id":"4","last_reported":1715979998,"current_range_meters":14400,"station_id":"ce4bgv12rcd13ifvqcp0","pricing_plan_id":"cebpf4jnsgd1na2vs0mg"},{"bike_id":"2aec7b46-e969-471b-a5c7-c0247f8d5598","system_id":"levelo_inurba_marseille","lat":43.311722,"lon":5.387247,"is_reserved":false,"is_disabled":false,"rental_uris":{"android":"levelo://app?vid=2aec7b46-e969-471b-a5c7-c0247f8d5598","ios":"levelo://app?vid=2aec7b46-e969-471b-a5c7-c0247f8d5598"},"vehicle_type_id":"4","last_reported":1715979998,"current_range_meters":12000,"station_id":"ce4bgv12rcd13ifvqcp0","pricing_plan_id":"cebpf4jnsgd1na2vs0mg"},{"bike_id":"c26a9d58-79a4-4a69-b096-f83caab18d38","system_id":"levelo_inurba_marseille","lat":43.311722,"lon":5.387247,"is_reserved":false,"is_disabled":false,"rental_uris":{"android":"levelo://app?vid=c26a9d58-79a4-4a69-b096-f83caab18d38","ios":"levelo://app?vid=c26a9d58-79a4-4a69-b096-f83caab18d38"},"vehicle_type_id":"4","last_reported":1715979998,"current_range_meters":21200,"station_id":"ce4bgv12rcd13ifvqcp0","pricing_plan_id":"cebpf4jnsgd1na2vs0mg"},{"bike_id":"ccb74aca-4be4-4a07-a6ff-c2c51018e500","system_id":"levelo_inurba_marseille","lat":43.311722,"lon":5.387247,"is_reserved":false,"is_disabled":false,"rental_uris":{"android":"levelo://app?vid=ccb74aca-4be4-4a07-a6ff-c2c51018e500","ios":"levelo://app?vid=ccb74aca-4be4-4a07-a6ff-c2c51018e500"},"vehicle_type_id":"4","last_reported":1715979998,"current_range_meters":0,"station_id":"ce4bgv12rcd13ifvqcp0","pricing_plan_id":"cebpf4jnsgd1na2vs0mg"},{"bike_id":"59d8a93f-7a0d-459e-9a57-d07f1f7e8f63","system_id":"levelo_inurba_marseille","lat":43.322872,"lon":5.382756,"is_reserved":false,"is_disabled":false,"rental_uris":{"android":"levelo://app?vid=59d8a93f-7a0d-459e-9a57-d07f1f7e8f63","ios":"levelo://app?vid=59d8a93f-7a0d-459e-9a57-d07f1f7e8f63"},"vehicle_type_id":"4","last_reported":1715979998,"current_range_meters":12800,"station_id":"ce4bhr12rcd13ifvqhqg","pricing_plan_id":"cebpf4jnsgd1na2vs0mg"},{"bike_id":"35c22c7a-6344-4130-9f7c-399c8c9a3015","system_id":"levelo_inurba_marseille","lat":43.322872,"lon":5.382756,"is_reserved":false,"is_disabled":false,"rental_uris":{"android":"levelo://app?vid=35c22c7a-6344-4130-9f7c-399c8c9a3015","ios":"levelo://app?vid=35c22c7a-6344-4130-9f7c-399c8c9a3015"},"vehicle_type_id":"4","last_reported":1715979998,"current_range_meters":24400,"station_id":"ce4bhr12rcd13ifvqhqg","pricing_plan_id":"cebpf4jnsgd1na2vs0mg"},{"bike_id":"a4cc76b7-d799-4d13-9141-23bb4febb709","system_id":"levelo_inurba_marseille","lat":43.297163,"lon":5.365866,"is_reserved":false,"is_disabled":false,"rental_uris":{"android":"levelo://app?vid=a4cc76b7-d799-4d13-9141-23bb4febb709","ios":"levelo://app?vid=a4cc76b7-d799-4d13-9141-23bb4febb709"},"vehicle_type_id":"4","last_reported":1715979998,"current_range_meters":21600,"station_id":"ce4bgn12rcd13ifvqbt0","pricing_plan_id":"cebpf4jnsgd1na2vs0mg"},{"bike_id":"dc4e2c22-2b98-48e3-81e8-5190da65c058","system_id":"levelo_inurba_marseille","lat":43.297163,"lon":5.365866,"is_reserved":false,"is_disabled":false,"rental_uris":{"android":"levelo://app?vid=dc4e2c22-2b98-48e3-81e8-5190da65c058","ios":"levelo://app?vid=dc4e2c22-2b98-48e3-81e8-5190da65c058"},"vehicle_type_id":"4","last_reported":1715979998,"current_range_meters":29200,"station_id":"ce4bgn12rcd13ifvqbt0","pricing_plan_id":"cebpf4jnsgd1na2vs0mg"},{"bike_id":"014c54fb-0119-439c-b3f3-0d2681579a41","system_id":"levelo_inurba_marseille","lat":43.31141,"lon":5.38835,"is_reserved":false,"is_disabled":false,"rental_uris":{"android":"levelo://app?vid=014c54fb-0119-439c-b3f3-0d2681579a41","ios":"levelo://app?vid=014c54fb-0119-439c-b3f3-0d2681579a41"},"vehicle_type_id":"4","last_reported":1715979998,"current_range_meters":0,"station_id":"","pricing_plan_id":"cebpf4jnsgd1na2vs0mg"},{"bike_id":"e562d6d0-41b4-4a9f-9ed2-d51f92ac6e38","system_id":"levelo_inurba_marseille","lat":43.297163,"lon":5.365866,"is_reserved":false,"is_disabled":false,"rental_uris":{"android":"levelo://app?vid=e562d6d0-41b4-4a9f-9ed2-d51f92ac6e38","ios":"levelo://app?vid=e562d6d0-41b4-4a9f-9ed2-d51f92ac6e38"},"vehicle_type_id":"4","last_reported":1715979998,"current_range_meters":26000,"station_id":"ce4bgn12rcd13ifvqbt0","pricing_plan_id":"cebpf4jnsgd1na2vs0mg"},{"bike_id":"c300fe9b-f015-4733-9d45-86fa5ac55e51","system_id":"levelo_inurba_marseille","lat":43.297163,"lon":5.365866,"is_reserved":false,"is_disabled":false,"rental_uris":{"android":"levelo://app?vid=c300fe9b-f015-4733-9d45-86fa5ac55e51","ios":"levelo://app?vid=c300fe9b-f015-4733-9d45-86fa5ac55e51"},"vehicle_type_id":"4","last_reported":1715979998,"current_range_meters":20800,"station_id":"ce4bgn12rcd13ifvqbt0","pricing_plan_id":"cebpf4jnsgd1na2vs0mg"},{"bike_id":"e8b74b53-1f66-4822-bc9f-59e0cd63ffdc","system_id":"levelo_inurba_marseille","lat":43.297,"lon":5.36902,"is_reserved":false,"is_disabled":false,"rental_uris":{"android":"levelo://app?vid=e8b74b53-1f66-4822-bc9f-59e0cd63ffdc","ios":"levelo://app?vid=e8b74b53-1f66-4822-bc9f-59e0cd63ffdc"},"vehicle_type_id":"4","last_reported":1715979998,"current_range_meters":4400,"station_id":"","pricing_plan_id":"cebpf4jnsgd1na2vs0mg"},{"bike_id":"12b2b7f0-fc5f-4e43-a0df-eca5747cec20","system_id":"levelo_inurba_marseille","lat":43.2968,"lon":5.37291,"is_reserved":false,"is_disabled":false,"rental_uris":{"android":"levelo://app?vid=12b2b7f0-fc5f-4e43-a0df-eca5747cec20","ios":"levelo://app?vid=12b2b7f0-fc5f-4e43-a0df-eca5747cec20"},"vehicle_type_id":"4","last_reported":1715979998,"current_range_meters":0,"station_id":"ce4bgk12rcd13ifvqbj0","pricing_plan_id":"cebpf4jnsgd1na2vs0mg"},{"bike_id":"de64e38c-f555-4bb1-9a52-2286b26cbc8e","system_id":"levelo_inurba_marseille","lat":43.29907,"lon":5.38143,"is_reserved":false,"is_disabled":false,"rental_uris":{"android":"levelo://app?vid=de64e38c-f555-4bb1-9a52-2286b26cbc8e","ios":"levelo://app?vid=de64e38c-f555-4bb1-9a52-2286b26cbc8e"},"vehicle_type_id":"4","last_reported":1715979998,"current_range_meters":19200,"station_id":"ce4bgj12rcd13ifvqbc0","pricing_plan_id":"cebpf4jnsgd1na2vs0mg"},{"bike_id":"1530b218-5207-40bc-9ec7-87f2d407499b","system_id":"levelo_inurba_marseille","lat":43.299028,"lon":5.381509,"is_reserved":false,"is_disabled":false,"rental_uris":{"android":"levelo://app?vid=1530b218-5207-40bc-9ec7-87f2d407499b","ios":"levelo://app?vid=1530b218-5207-40bc-9ec7-87f2d407499b"},"vehicle_type_id":"4","last_reported":1715979998,"current_range_meters":16000,"station_id":"ce4bgj12rcd13ifvqbc0","pricing_plan_id":"cebpf4jnsgd1na2vs0mg"},{"bike_id":"529a5ee9-3613-48f3-9b8b-0a2dc69601b7","system_id":"levelo_inurba_marseille","lat":43.309589,"lon":5.390258,"is_reserved":false,"is_disabled":false,"rental_uris":{"android":"levelo://app?vid=529a5ee9-3613-48f3-9b8b-0a2dc69601b7","ios":"levelo://app?vid=529a5ee9-3613-48f3-9b8b-0a2dc69601b7"},"vehicle_type_id":"4","last_reported":1715979998,"current_range_meters":4800,"station_id":"ce4bgup2rcd13ifvqco0","pricing_plan_id":"cebpf4jnsgd1na2vs0mg"},{"bike_id":"fe4d2e18-cfca-44bb-8d63-e426da664ebc","system_id":"levelo_inurba_marseille","lat":43.309498,"lon":5.390318,"is_reserved":false,"is_disabled":false,"rental_uris":{"android":"levelo://app?vid=fe4d2e18-cfca-44bb-8d63-e426da664ebc","ios":"levelo://app?vid=fe4d2e18-cfca-44bb-8d63-e426da664ebc"},"vehicle_type_id":"4","last_reported":1715979998,"current_range_meters":31200,"station_id":"ce4bgup2rcd13ifvqco0","pricing_plan_id":"cebpf4jnsgd1na2vs0mg"},{"bike_id":"e29ce095-3f03-4b6a-844d-d60880ab8a6b","system_id":"levelo_inurba_marseille","lat":43.309589,"lon":5.390258,"is_reserved":false,"is_disabled":false,"rental_uris":{"android":"levelo://app?vid=e29ce095-3f03-4b6a-844d-d60880ab8a6b","ios":"levelo://app?vid=e29ce095-3f03-4b6a-844d-d60880ab8a6b"},"vehicle_type_id":"4","last_reported":1715979998,"current_range_meters":20400,"station_id":"ce4bgup2rcd13ifvqco0","pricing_plan_id":"cebpf4jnsgd1na2vs0mg"},{"bike_id":"db2781b9-cd03-436a-9589-0a0763679e58","system_id":"levelo_inurba_marseille","lat":43.309589,"lon":5.390258,"is_reserved":false,"is_disabled":false,"rental_uris":{"android":"levelo://app?vid=db2781b9-cd03-436a-9589-0a0763679e58","ios":"levelo://app?vid=db2781b9-cd03-436a-9589-0a0763679e58"},"vehicle_type_id":"4","last_reported":1715979998,"current_range_meters":4000,"station_id":"ce4bgup2rcd13ifvqco0","pricing_plan_id":"cebpf4jnsgd1na2vs0mg"},{"bike_id":"c521848b-17f8-4262-b783-dba8db93c2f9","system_id":"levelo_inurba_marseille","lat":43.309589,"lon":5.390258,"is_reserved":false,"is_disabled":false,"rental_uris":{"android":"levelo://app?vid=c521848b-17f8-4262-b783-dba8db93c2f9","ios":"levelo://app?vid=c521848b-17f8-4262-b783-dba8db93c2f9"},"vehicle_type_id":"4","last_reported":1715979998,"current_range_meters":0,"station_id":"ce4bgup2rcd13ifvqco0","pricing_plan_id":"cebpf4jnsgd1na2vs0mg"},{"bike_id":"374be493-526d-4c1d-a296-c624260093ea","system_id":"levelo_inurba_marseille","lat":43.30955,"lon":5.390345,"is_reserved":false,"is_disabled":false,"rental_uris":{"android":"levelo://app?vid=374be493-526d-4c1d-a296-c624260093ea","ios":"levelo://app?vid=374be493-526d-4c1d-a296-c624260093ea"},"vehicle_type_id":"4","last_reported":1715979998,"current_range_meters":0,"station_id":"ce4bgup2rcd13ifvqco0","pricing_plan_id":"cebpf4jnsgd1na2vs0mg"},{"bike_id":"bd7dd078-0a51-486a-9058-744a16580558","system_id":"levelo_inurba_marseille","lat":43.29904,"lon":5.38153,"is_reserved":false,"is_disabled":false,"rental_uris":{"android":"levelo://app?vid=bd7dd078-0a51-486a-9058-744a16580558","ios":"levelo://app?vid=bd7dd078-0a51-486a-9058-744a16580558"},"vehicle_type_id":"4","last_reported":1715979998,"current_range_meters":13600,"station_id":"ce4bgj12rcd13ifvqbc0","pricing_plan_id":"cebpf4jnsgd1na2vs0mg"},{"bike_id":"45cd0528-9e82-4a12-b525-28c9397e2160","system_id":"levelo_inurba_marseille","lat":43.309589,"lon":5.390258,"is_reserved":false,"is_disabled":false,"rental_uris":{"android":"levelo://app?vid=45cd0528-9e82-4a12-b525-28c9397e2160","ios":"levelo://app?vid=45cd0528-9e82-4a12-b525-28c9397e2160"},"vehicle_type_id":"4","last_reported":1715979998,"current_range_meters":14800,"station_id":"ce4bgup2rcd13ifvqco0","pricing_plan_id":"cebpf4jnsgd1na2vs0mg"},{"bike_id":"cae80257-98a5-4e4a-89b6-cf85ddd29a93","system_id":"levelo_inurba_marseille","lat":43.309589,"lon":5.390258,"is_reserved":false,"is_disabled":false,"rental_uris":{"android":"levelo://app?vid=cae80257-98a5-4e4a-89b6-cf85ddd29a93","ios":"levelo://app?vid=cae80257-98a5-4e4a-89b6-cf85ddd29a93"},"vehicle_type_id":"4","last_reported":1715979998,"current_range_meters":1600,"station_id":"ce4bgup2rcd13ifvqco0","pricing_plan_id":"cebpf4jnsgd1na2vs0mg"},{"bike_id":"a2cf89ff-25aa-4fee-8fc9-56edb9e0a061","system_id":"levelo_inurba_marseille","lat":43.309589,"lon":5.390258,"is_reserved":false,"is_disabled":false,"rental_uris":{"android":"levelo://app?vid=a2cf89ff-25aa-4fee-8fc9-56edb9e0a061","ios":"levelo://app?vid=a2cf89ff-25aa-4fee-8fc9-56edb9e0a061"},"vehicle_type_id":"4","last_reported":1715979998,"current_range_meters":1200,"station_id":"ce4bgup2rcd13ifvqco0","pricing_plan_id":"cebpf4jnsgd1na2vs0mg"},{"bike_id":"537f093e-63b4-44f2-8b69-0d4fadf3967d","system_id":"levelo_inurba_marseille","lat":43.3095,"lon":5.39036,"is_reserved":false,"is_disabled":false,"rental_uris":{"android":"levelo://app?vid=537f093e-63b4-44f2-8b69-0d4fadf3967d","ios":"levelo://app?vid=537f093e-63b4-44f2-8b69-0d4fadf3967d"},"vehicle_type_id":"4","last_reported":1715979998,"current_range_meters":8400,"station_id":"ce4bgup2rcd13ifvqco0","pricing_plan_id":"cebpf4jnsgd1na2vs0mg"},{"bike_id":"888724ba-44a3-4f3a-8240-f6152cf014d8","system_id":"levelo_inurba_marseille","lat":43.309589,"lon":5.390258,"is_reserved":false,"is_disabled":false,"rental_uris":{"android":"levelo://app?vid=888724ba-44a3-4f3a-8240-f6152cf014d8","ios":"levelo://app?vid=888724ba-44a3-4f3a-8240-f6152cf014d8"},"vehicle_type_id":"4","last_reported":1715979998,"current_range_meters":7200,"station_id":"ce4bgup2rcd13ifvqco0","pricing_plan_id":"cebpf4jnsgd1na2vs0mg"},{"bike_id":"78abd96a-6772-4616-a8ca-e36875b6c03a","system_id":"levelo_inurba_marseille","lat":43.309589,"lon":5.390258,"is_reserved":false,"is_disabled":false,"rental_uris":{"android":"levelo://app?vid=78abd96a-6772-4616-a8ca-e36875b6c03a","ios":"levelo://app?vid=78abd96a-6772-4616-a8ca-e36875b6c03a"},"vehicle_type_id":"4","last_reported":1715979998,"current_range_meters":20800,"station_id":"ce4bgup2rcd13ifvqco0","pricing_plan_id":"cebpf4jnsgd1na2vs0mg"},{"bike_id":"843cf627-1e0a-4eaf-ab4d-d8f36c570f3b","system_id":"levelo_inurba_marseille","lat":43.3095,"lon":5.39037,"is_reserved":false,"is_disabled":false,"rental_uris":{"android":"levelo://app?vid=843cf627-1e0a-4eaf-ab4d-d8f36c570f3b","ios":"levelo://app?vid=843cf627-1e0a-4eaf-ab4d-d8f36c570f3b"},"vehicle_type_id":"4","last_reported":1715979998,"current_range_meters":19200,"station_id":"ce4bgup2rcd13ifvqco0","pricing_plan_id":"cebpf4jnsgd1na2vs0mg"},{"bike_id":"e0d66c0d-6c38-44bd-ba74-65991d3aa24d","system_id":"levelo_inurba_marseille","lat":43.29901,"lon":5.38155,"is_reserved":false,"is_disabled":false,"rental_uris":{"android":"levelo://app?vid=e0d66c0d-6c38-44bd-ba74-65991d3aa24d","ios":"levelo://app?vid=e0d66c0d-6c38-44bd-ba74-65991d3aa24d"},"vehicle_type_id":"4","last_reported":1715979998,"current_range_meters":0,"station_id":"ce4bgj12rcd13ifvqbc0","pricing_plan_id":"cebpf4jnsgd1na2vs0mg"},{"bike_id":"77f72742-4ca4-42a6-ab56-92b36066e957","system_id":"levelo_inurba_marseille","lat":43.309589,"lon":5.390258,"is_reserved":false,"is_disabled":false,"rental_uris":{"android":"levelo://app?vid=77f72742-4ca4-42a6-ab56-92b36066e957","ios":"levelo://app?vid=77f72742-4ca4-42a6-ab56-92b36066e957"},"vehicle_type_id":"4","last_reported":1715979998,"current_range_meters":0,"station_id":"ce4bgup2rcd13ifvqco0","pricing_plan_id":"cebpf4jnsgd1na2vs0mg"},{"bike_id":"d4603411-4579-4210-b660-f1eb009512c8","system_id":"levelo_inurba_marseille","lat":43.309589,"lon":5.390258,"is_reserved":false,"is_disabled":false,"rental_uris":{"android":"levelo://app?vid=d4603411-4579-4210-b660-f1eb009512c8","ios":"levelo://app?vid=d4603411-4579-4210-b660-f1eb009512c8"},"vehicle_type_id":"4","last_reported":1715979998,"current_range_meters":31200,"station_id":"ce4bgup2rcd13ifvqco0","pricing_plan_id":"cebpf4jnsgd1na2vs0mg"},{"bike_id":"3dea0b90-7d6d-4cf4-a1f6-a1680411ee9b","system_id":"levelo_inurba_marseille","lat":43.29899,"lon":5.38153,"is_reserved":false,"is_disabled":false,"rental_uris":{"android":"levelo://app?vid=3dea0b90-7d6d-4cf4-a1f6-a1680411ee9b","ios":"levelo://app?vid=3dea0b90-7d6d-4cf4-a1f6-a1680411ee9b"},"vehicle_type_id":"4","last_reported":1715979998,"current_range_meters":11200,"station_id":"ce4bgj12rcd13ifvqbc0","pricing_plan_id":"cebpf4jnsgd1na2vs0mg"},{"bike_id":"a797ec87-ee2b-4dda-ac6b-c73148ffcce7","system_id":"levelo_inurba_marseille","lat":43.30945,"lon":5.39038,"is_reserved":false,"is_disabled":false,"rental_uris":{"android":"levelo://app?vid=a797ec87-ee2b-4dda-ac6b-c73148ffcce7","ios":"levelo://app?vid=a797ec87-ee2b-4dda-ac6b-c73148ffcce7"},"vehicle_type_id":"4","last_reported":1715979998,"current_range_meters":13200,"station_id":"ce4bgup2rcd13ifvqco0","pricing_plan_id":"cebpf4jnsgd1na2vs0mg"},{"bike_id":"8f5e919a-470c-4835-a52d-269590b719d7","system_id":"levelo_inurba_marseille","lat":43.309589,"lon":5.390258,"is_reserved":false,"is_disabled":false,"rental_uris":{"android":"levelo://app?vid=8f5e919a-470c-4835-a52d-269590b719d7","ios":"levelo://app?vid=8f5e919a-470c-4835-a52d-269590b719d7"},"vehicle_type_id":"4","last_reported":1715979998,"current_range_meters":16800,"station_id":"ce4bgup2rcd13ifvqco0","pricing_plan_id":"cebpf4jnsgd1na2vs0mg"},{"bike_id":"a857e86d-77fc-483b-803e-58bd92fae2d4","system_id":"levelo_inurba_marseille","lat":43.3094,"lon":5.39037,"is_reserved":false,"is_disabled":false,"rental_uris":{"android":"levelo://app?vid=a857e86d-77fc-483b-803e-58bd92fae2d4","ios":"levelo://app?vid=a857e86d-77fc-483b-803e-58bd92fae2d4"},"vehicle_type_id":"4","last_reported":1715979998,"current_range_meters":8800,"station_id":"ce4bgup2rcd13ifvqco0","pricing_plan_id":"cebpf4jnsgd1na2vs0mg"},{"bike_id":"fc238e07-b9d8-4366-837e-788ed46bcf56","system_id":"levelo_inurba_marseille","lat":43.309589,"lon":5.390258,"is_reserved":false,"is_disabled":false,"rental_uris":{"android":"levelo://app?vid=fc238e07-b9d8-4366-837e-788ed46bcf56","ios":"levelo://app?vid=fc238e07-b9d8-4366-837e-788ed46bcf56"},"vehicle_type_id":"4","last_reported":1715979998,"current_range_meters":28000,"station_id":"ce4bgup2rcd13ifvqco0","pricing_plan_id":"cebpf4jnsgd1na2vs0mg"},{"bike_id":"bdc95fef-8728-4703-83e0-5b59e3af01f5","system_id":"levelo_inurba_marseille","lat":43.309524,"lon":5.390412,"is_reserved":false,"is_disabled":false,"rental_uris":{"android":"levelo://app?vid=bdc95fef-8728-4703-83e0-5b59e3af01f5","ios":"levelo://app?vid=bdc95fef-8728-4703-83e0-5b59e3af01f5"},"vehicle_type_id":"4","last_reported":1715979998,"current_range_meters":14800,"station_id":"ce4bgup2rcd13ifvqco0","pricing_plan_id":"cebpf4jnsgd1na2vs0mg"},{"bike_id":"cf4e173d-3349-4b0d-b3ee-83c931c737d2","system_id":"levelo_inurba_marseille","lat":43.309589,"lon":5.390258,"is_reserved":false,"is_disabled":false,"rental_uris":{"android":"levelo://app?vid=cf4e173d-3349-4b0d-b3ee-83c931c737d2","ios":"levelo://app?vid=cf4e173d-3349-4b0d-b3ee-83c931c737d2"},"vehicle_type_id":"4","last_reported":1715979998,"current_range_meters":21200,"station_id":"ce4bgup2rcd13ifvqco0","pricing_plan_id":"cebpf4jnsgd1na2vs0mg"},{"bike_id":"274b21bc-fa61-4bc8-9757-a79ea84a14df","system_id":"levelo_inurba_marseille","lat":43.309589,"lon":5.390258,"is_reserved":false,"is_disabled":false,"rental_uris":{"android":"levelo://app?vid=274b21bc-fa61-4bc8-9757-a79ea84a14df","ios":"levelo://app?vid=274b21bc-fa61-4bc8-9757-a79ea84a14df"},"vehicle_type_id":"4","last_reported":1715979998,"current_range_meters":0,"station_id":"ce4bgup2rcd13ifvqco0","pricing_plan_id":"cebpf4jnsgd1na2vs0mg"},{"bike_id":"e75b6bbe-bac5-456c-8085-46ec708822d4","system_id":"levelo_inurba_marseille","lat":43.30951,"lon":5.39043,"is_reserved":false,"is_disabled":false,"rental_uris":{"android":"levelo://app?vid=e75b6bbe-bac5-456c-8085-46ec708822d4","ios":"levelo://app?vid=e75b6bbe-bac5-456c-8085-46ec708822d4"},"vehicle_type_id":"4","last_reported":1715979998,"current_range_meters":30400,"station_id":"ce4bgup2rcd13ifvqco0","pricing_plan_id":"cebpf4jnsgd1na2vs0mg"},{"bike_id":"c494c3b8-8478-462d-9ed7-d8d78c228a46","system_id":"levelo_inurba_marseille","lat":43.309526,"lon":5.390441,"is_reserved":false,"is_disabled":false,"rental_uris":{"android":"levelo://app?vid=c494c3b8-8478-462d-9ed7-d8d78c228a46","ios":"levelo://app?vid=c494c3b8-8478-462d-9ed7-d8d78c228a46"},"vehicle_type_id":"4","last_reported":1715979998,"current_range_meters":12000,"station_id":"ce4bgup2rcd13ifvqco0","pricing_plan_id":"cebpf4jnsgd1na2vs0mg"},{"bike_id":"8e930d01-762c-40b7-a48f-7dcb0fa356c7","system_id":"levelo_inurba_marseille","lat":43.309548,"lon":5.390454,"is_reserved":false,"is_disabled":false,"rental_uris":{"android":"levelo://app?vid=8e930d01-762c-40b7-a48f-7dcb0fa356c7","ios":"levelo://app?vid=8e930d01-762c-40b7-a48f-7dcb0fa356c7"},"vehicle_type_id":"4","last_reported":1715979998,"current_range_meters":20800,"station_id":"ce4bgup2rcd13ifvqco0","pricing_plan_id":"cebpf4jnsgd1na2vs0mg"},{"bike_id":"1424a9c1-688d-47e8-854d-83c57dcfcdb2","system_id":"levelo_inurba_marseille","lat":43.309589,"lon":5.390258,"is_reserved":false,"is_disabled":false,"rental_uris":{"android":"levelo://app?vid=1424a9c1-688d-47e8-854d-83c57dcfcdb2","ios":"levelo://app?vid=1424a9c1-688d-47e8-854d-83c57dcfcdb2"},"vehicle_type_id":"4","last_reported":1715979998,"current_range_meters":22000,"station_id":"ce4bgup2rcd13ifvqco0","pricing_plan_id":"cebpf4jnsgd1na2vs0mg"},{"bike_id":"650c149a-94f5-44dc-8800-7534c2bfbb5c","system_id":"levelo_inurba_marseille","lat":43.309589,"lon":5.390258,"is_reserved":false,"is_disabled":false,"rental_uris":{"android":"levelo://app?vid=650c149a-94f5-44dc-8800-7534c2bfbb5c","ios":"levelo://app?vid=650c149a-94f5-44dc-8800-7534c2bfbb5c"},"vehicle_type_id":"4","last_reported":1715979998,"current_range_meters":13600,"station_id":"ce4bgup2rcd13ifvqco0","pricing_plan_id":"cebpf4jnsgd1na2vs0mg"},{"bike_id":"73133b33-343d-423e-8b13-9c95ef36bde4","system_id":"levelo_inurba_marseille","lat":43.309589,"lon":5.390258,"is_reserved":false,"is_disabled":false,"rental_uris":{"android":"levelo://app?vid=73133b33-343d-423e-8b13-9c95ef36bde4","ios":"levelo://app?vid=73133b33-343d-423e-8b13-9c95ef36bde4"},"vehicle_type_id":"4","last_reported":1715979998,"current_range_meters":9200,"station_id":"ce4bgup2rcd13ifvqco0","pricing_plan_id":"cebpf4jnsgd1na2vs0mg"},{"bike_id":"ad4851c3-216c-4828-962d-58e05e740c57","system_id":"levelo_inurba_marseille","lat":43.317557,"lon":5.390173,"is_reserved":false,"is_disabled":false,"rental_uris":{"android":"levelo://app?vid=ad4851c3-216c-4828-962d-58e05e740c57","ios":"levelo://app?vid=ad4851c3-216c-4828-962d-58e05e740c57"},"vehicle_type_id":"4","last_reported":1715979998,"current_range_meters":28000,"station_id":"ce4bhqp2rcd13ifvqhng","pricing_plan_id":"cebpf4jnsgd1na2vs0mg"},{"bike_id":"66025fac-5e8f-4193-864b-139ef98250d4","system_id":"levelo_inurba_marseille","lat":43.317563,"lon":5.390107,"is_reserved":false,"is_disabled":false,"rental_uris":{"android":"levelo://app?vid=66025fac-5e8f-4193-864b-139ef98250d4","ios":"levelo://app?vid=66025fac-5e8f-4193-864b-139ef98250d4"},"vehicle_type_id":"4","last_reported":1715979998,"current_range_meters":21200,"station_id":"ce4bhqp2rcd13ifvqhng","pricing_plan_id":"cebpf4jnsgd1na2vs0mg"},{"bike_id":"7e87f7a8-044f-45f4-b232-efd2a391017e","system_id":"levelo_inurba_marseille","lat":43.31752,"lon":5.39021,"is_reserved":false,"is_disabled":false,"rental_uris":{"android":"levelo://app?vid=7e87f7a8-044f-45f4-b232-efd2a391017e","ios":"levelo://app?vid=7e87f7a8-044f-45f4-b232-efd2a391017e"},"vehicle_type_id":"4","last_reported":1715979998,"current_range_meters":13200,"station_id":"ce4bhqp2rcd13ifvqhng","pricing_plan_id":"cebpf4jnsgd1na2vs0mg"},{"bike_id":"2d899684-77f8-4fb7-8297-1abfccd107bb","system_id":"levelo_inurba_marseille","lat":43.31764,"lon":5.39018,"is_reserved":false,"is_disabled":false,"rental_uris":{"android":"levelo://app?vid=2d899684-77f8-4fb7-8297-1abfccd107bb","ios":"levelo://app?vid=2d899684-77f8-4fb7-8297-1abfccd107bb"},"vehicle_type_id":"4","last_reported":1715979998,"current_range_meters":0,"station_id":"ce4bhqp2rcd13ifvqhng","pricing_plan_id":"cebpf4jnsgd1na2vs0mg"},{"bike_id":"553ee08e-7cb8-4bd4-9536-a913382da112","system_id":"levelo_inurba_marseille","lat":43.29803,"lon":5.38089,"is_reserved":false,"is_disabled":false,"rental_uris":{"android":"levelo://app?vid=553ee08e-7cb8-4bd4-9536-a913382da112","ios":"levelo://app?vid=553ee08e-7cb8-4bd4-9536-a913382da112"},"vehicle_type_id":"4","last_reported":1715979998,"current_range_meters":10400,"station_id":"ce4bgip2rcd13ifvqbb0","pricing_plan_id":"cebpf4jnsgd1na2vs0mg"},{"bike_id":"3b7e7f70-b026-4ef3-8573-b37090f53016","system_id":"levelo_inurba_marseille","lat":43.298033,"lon":5.380923,"is_reserved":false,"is_disabled":false,"rental_uris":{"android":"levelo://app?vid=3b7e7f70-b026-4ef3-8573-b37090f53016","ios":"levelo://app?vid=3b7e7f70-b026-4ef3-8573-b37090f53016"},"vehicle_type_id":"4","last_reported":1715979998,"current_range_meters":4000,"station_id":"ce4bgip2rcd13ifvqbb0","pricing_plan_id":"cebpf4jnsgd1na2vs0mg"},{"bike_id":"c7195265-c4f8-4e94-b23f-4e0330e84031","system_id":"levelo_inurba_marseille","lat":43.29804,"lon":5.38094,"is_reserved":false,"is_disabled":false,"rental_uris":{"android":"levelo://app?vid=c7195265-c4f8-4e94-b23f-4e0330e84031","ios":"levelo://app?vid=c7195265-c4f8-4e94-b23f-4e0330e84031"},"vehicle_type_id":"4","last_reported":1715979998,"current_range_meters":22000,"station_id":"ce4bgip2rcd13ifvqbb0","pricing_plan_id":"cebpf4jnsgd1na2vs0mg"},{"bike_id":"6a435423-fe15-46a9-9ae5-93b5a1f0f1ec","system_id":"levelo_inurba_marseille","lat":43.298026,"lon":5.380916,"is_reserved":false,"is_disabled":false,"rental_uris":{"android":"levelo://app?vid=6a435423-fe15-46a9-9ae5-93b5a1f0f1ec","ios":"levelo://app?vid=6a435423-fe15-46a9-9ae5-93b5a1f0f1ec"},"vehicle_type_id":"4","last_reported":1715979998,"current_range_meters":14800,"station_id":"ce4bgip2rcd13ifvqbb0","pricing_plan_id":"cebpf4jnsgd1na2vs0mg"},{"bike_id":"83e3738c-6c81-4826-982a-800af63f4af9","system_id":"levelo_inurba_marseille","lat":43.298037,"lon":5.381066,"is_reserved":false,"is_disabled":false,"rental_uris":{"android":"levelo://app?vid=83e3738c-6c81-4826-982a-800af63f4af9","ios":"levelo://app?vid=83e3738c-6c81-4826-982a-800af63f4af9"},"vehicle_type_id":"4","last_reported":1715979998,"current_range_meters":29200,"station_id":"ce4bgip2rcd13ifvqbb0","pricing_plan_id":"cebpf4jnsgd1na2vs0mg"},{"bike_id":"07f0a546-2064-4c75-b8c3-0c7e66f67266","system_id":"levelo_inurba_marseille","lat":43.297991,"lon":5.380908,"is_reserved":false,"is_disabled":false,"rental_uris":{"android":"levelo://app?vid=07f0a546-2064-4c75-b8c3-0c7e66f67266","ios":"levelo://app?vid=07f0a546-2064-4c75-b8c3-0c7e66f67266"},"vehicle_type_id":"4","last_reported":1715979998,"current_range_meters":26800,"station_id":"ce4bgip2rcd13ifvqbb0","pricing_plan_id":"cebpf4jnsgd1na2vs0mg"},{"bike_id":"07386157-26b4-4bfb-b784-30d6ac96cdac","system_id":"levelo_inurba_marseille","lat":43.29802,"lon":5.38097,"is_reserved":false,"is_disabled":false,"rental_uris":{"android":"levelo://app?vid=07386157-26b4-4bfb-b784-30d6ac96cdac","ios":"levelo://app?vid=07386157-26b4-4bfb-b784-30d6ac96cdac"},"vehicle_type_id":"4","last_reported":1715979998,"current_range_meters":30000,"station_id":"ce4bgip2rcd13ifvqbb0","pricing_plan_id":"cebpf4jnsgd1na2vs0mg"},{"bike_id":"08ef62ff-94e6-4259-9679-a1b79e15fda7","system_id":"levelo_inurba_marseille","lat":43.295748,"lon":5.37522,"is_reserved":false,"is_disabled":false,"rental_uris":{"android":"levelo://app?vid=08ef62ff-94e6-4259-9679-a1b79e15fda7","ios":"levelo://app?vid=08ef62ff-94e6-4259-9679-a1b79e15fda7"},"vehicle_type_id":"4","last_reported":1715979998,"current_range_meters":0,"station_id":"ce4bgh92rcd13ifvqb50","pricing_plan_id":"cebpf4jnsgd1na2vs0mg"},{"bike_id":"88864caf-60e9-4c66-9eb6-414f67442bc4","system_id":"levelo_inurba_marseille","lat":43.29798,"lon":5.38092,"is_reserved":false,"is_disabled":false,"rental_uris":{"android":"levelo://app?vid=88864caf-60e9-4c66-9eb6-414f67442bc4","ios":"levelo://app?vid=88864caf-60e9-4c66-9eb6-414f67442bc4"},"vehicle_type_id":"4","last_reported":1715979998,"current_range_meters":0,"station_id":"ce4bgip2rcd13ifvqbb0","pricing_plan_id":"cebpf4jnsgd1na2vs0mg"},{"bike_id":"7e2df935-9a2c-42ca-bfd9-5df571a8739a","system_id":"levelo_inurba_marseille","lat":43.29793,"lon":5.38088,"is_reserved":false,"is_disabled":false,"rental_uris":{"android":"levelo://app?vid=7e2df935-9a2c-42ca-bfd9-5df571a8739a","ios":"levelo://app?vid=7e2df935-9a2c-42ca-bfd9-5df571a8739a"},"vehicle_type_id":"4","last_reported":1715979998,"current_range_meters":0,"station_id":"ce4bgip2rcd13ifvqbb0","pricing_plan_id":"cebpf4jnsgd1na2vs0mg"},{"bike_id":"712bd746-85c1-449c-9323-272d0880cc20","system_id":"levelo_inurba_marseille","lat":43.29578,"lon":5.3752,"is_reserved":false,"is_disabled":false,"rental_uris":{"android":"levelo://app?vid=712bd746-85c1-449c-9323-272d0880cc20","ios":"levelo://app?vid=712bd746-85c1-449c-9323-272d0880cc20"},"vehicle_type_id":"4","last_reported":1715979998,"current_range_meters":0,"station_id":"ce4bgh92rcd13ifvqb50","pricing_plan_id":"cebpf4jnsgd1na2vs0mg"},{"bike_id":"fced7570-c2f5-4435-a6e4-e3588930b792","system_id":"levelo_inurba_marseille","lat":43.29794,"lon":5.38103,"is_reserved":false,"is_disabled":false,"rental_uris":{"android":"levelo://app?vid=fced7570-c2f5-4435-a6e4-e3588930b792","ios":"levelo://app?vid=fced7570-c2f5-4435-a6e4-e3588930b792"},"vehicle_type_id":"4","last_reported":1715979998,"current_range_meters":6800,"station_id":"ce4bgip2rcd13ifvqbb0","pricing_plan_id":"cebpf4jnsgd1na2vs0mg"},{"bike_id":"3485225d-b1a4-4881-b619-1d85196dfda8","system_id":"levelo_inurba_marseille","lat":43.298037,"lon":5.381066,"is_reserved":false,"is_disabled":false,"rental_uris":{"android":"levelo://app?vid=3485225d-b1a4-4881-b619-1d85196dfda8","ios":"levelo://app?vid=3485225d-b1a4-4881-b619-1d85196dfda8"},"vehicle_type_id":"4","last_reported":1715979998,"current_range_meters":22000,"station_id":"ce4bgip2rcd13ifvqbb0","pricing_plan_id":"cebpf4jnsgd1na2vs0mg"},{"bike_id":"71c17726-056a-44d9-b33c-2eb45f3efd74","system_id":"levelo_inurba_marseille","lat":43.304274,"lon":5.388873,"is_reserved":false,"is_disabled":false,"rental_uris":{"android":"levelo://app?vid=71c17726-056a-44d9-b33c-2eb45f3efd74","ios":"levelo://app?vid=71c17726-056a-44d9-b33c-2eb45f3efd74"},"vehicle_type_id":"4","last_reported":1715979998,"current_range_meters":28800,"station_id":"ce4bgk12rcd13ifvqbi0","pricing_plan_id":"cebpf4jnsgd1na2vs0mg"},{"bike_id":"d5f8e0b7-2f14-4d3d-b1e9-3687a88da88d","system_id":"levelo_inurba_marseille","lat":43.2957,"lon":5.37506,"is_reserved":false,"is_disabled":false,"rental_uris":{"android":"levelo://app?vid=d5f8e0b7-2f14-4d3d-b1e9-3687a88da88d","ios":"levelo://app?vid=d5f8e0b7-2f14-4d3d-b1e9-3687a88da88d"},"vehicle_type_id":"4","last_reported":1715979998,"current_range_meters":0,"station_id":"ce4bgh92rcd13ifvqb50","pricing_plan_id":"cebpf4jnsgd1na2vs0mg"},{"bike_id":"339ffa21-3f3a-4f8c-a325-db3942d05bdb","system_id":"levelo_inurba_marseille","lat":43.30427,"lon":5.38884,"is_reserved":false,"is_disabled":false,"rental_uris":{"android":"levelo://app?vid=339ffa21-3f3a-4f8c-a325-db3942d05bdb","ios":"levelo://app?vid=339ffa21-3f3a-4f8c-a325-db3942d05bdb"},"vehicle_type_id":"4","last_reported":1715979998,"current_range_meters":0,"station_id":"ce4bgk12rcd13ifvqbi0","pricing_plan_id":"cebpf4jnsgd1na2vs0mg"},{"bike_id":"b9db28c6-a182-4adb-918a-141d93082050","system_id":"levelo_inurba_marseille","lat":43.304278,"lon":5.388868,"is_reserved":false,"is_disabled":false,"rental_uris":{"android":"levelo://app?vid=b9db28c6-a182-4adb-918a-141d93082050","ios":"levelo://app?vid=b9db28c6-a182-4adb-918a-141d93082050"},"vehicle_type_id":"4","last_reported":1715979998,"current_range_meters":17200,"station_id":"ce4bgk12rcd13ifvqbi0","pricing_plan_id":"cebpf4jnsgd1na2vs0mg"},{"bike_id":"3d352877-6046-481d-b693-0d8e49f518cd","system_id":"levelo_inurba_marseille","lat":43.304274,"lon":5.388873,"is_reserved":false,"is_disabled":false,"rental_uris":{"android":"levelo://app?vid=3d352877-6046-481d-b693-0d8e49f518cd","ios":"levelo://app?vid=3d352877-6046-481d-b693-0d8e49f518cd"},"vehicle_type_id":"4","last_reported":1715979998,"current_range_meters":28000,"station_id":"ce4bgk12rcd13ifvqbi0","pricing_plan_id":"cebpf4jnsgd1na2vs0mg"},{"bike_id":"c981813a-899f-4500-aa24-a06e086be3e1","system_id":"levelo_inurba_marseille","lat":43.304278,"lon":5.388868,"is_reserved":false,"is_disabled":false,"rental_uris":{"android":"levelo://app?vid=c981813a-899f-4500-aa24-a06e086be3e1","ios":"levelo://app?vid=c981813a-899f-4500-aa24-a06e086be3e1"},"vehicle_type_id":"4","last_reported":1715979998,"current_range_meters":800,"station_id":"ce4bgk12rcd13ifvqbi0","pricing_plan_id":"cebpf4jnsgd1na2vs0mg"},{"bike_id":"91a3289d-ddec-4f06-9896-810215aec56c","system_id":"levelo_inurba_marseille","lat":43.29794,"lon":5.38121,"is_reserved":false,"is_disabled":false,"rental_uris":{"android":"levelo://app?vid=91a3289d-ddec-4f06-9896-810215aec56c","ios":"levelo://app?vid=91a3289d-ddec-4f06-9896-810215aec56c"},"vehicle_type_id":"4","last_reported":1715979998,"current_range_meters":0,"station_id":"ce4bgip2rcd13ifvqbb0","pricing_plan_id":"cebpf4jnsgd1na2vs0mg"},{"bike_id":"1a0614e3-d22e-49d5-b81f-c2ffa4d2e47f","system_id":"levelo_inurba_marseille","lat":43.304274,"lon":5.388873,"is_reserved":false,"is_disabled":false,"rental_uris":{"android":"levelo://app?vid=1a0614e3-d22e-49d5-b81f-c2ffa4d2e47f","ios":"levelo://app?vid=1a0614e3-d22e-49d5-b81f-c2ffa4d2e47f"},"vehicle_type_id":"4","last_reported":1715979998,"current_range_meters":16800,"station_id":"ce4bgk12rcd13ifvqbi0","pricing_plan_id":"cebpf4jnsgd1na2vs0mg"},{"bike_id":"29963626-08a0-497c-81a2-c6157bc1d824","system_id":"levelo_inurba_marseille","lat":43.304278,"lon":5.388868,"is_reserved":false,"is_disabled":false,"rental_uris":{"android":"levelo://app?vid=29963626-08a0-497c-81a2-c6157bc1d824","ios":"levelo://app?vid=29963626-08a0-497c-81a2-c6157bc1d824"},"vehicle_type_id":"4","last_reported":1715979998,"current_range_meters":4000,"station_id":"ce4bgk12rcd13ifvqbi0","pricing_plan_id":"cebpf4jnsgd1na2vs0mg"},{"bike_id":"234fca85-91ac-411c-9bd6-b55795bd5751","system_id":"levelo_inurba_marseille","lat":43.2962,"lon":5.377197,"is_reserved":false,"is_disabled":false,"rental_uris":{"android":"levelo://app?vid=234fca85-91ac-411c-9bd6-b55795bd5751","ios":"levelo://app?vid=234fca85-91ac-411c-9bd6-b55795bd5751"},"vehicle_type_id":"4","last_reported":1715979998,"current_range_meters":0,"station_id":"ce4bgi92rcd13ifvqb90","pricing_plan_id":"cebpf4jnsgd1na2vs0mg"},{"bike_id":"a697f50c-a7ab-4148-b104-c8ea203e0173","system_id":"levelo_inurba_marseille","lat":43.296263,"lon":5.377094,"is_reserved":false,"is_disabled":false,"rental_uris":{"android":"levelo://app?vid=a697f50c-a7ab-4148-b104-c8ea203e0173","ios":"levelo://app?vid=a697f50c-a7ab-4148-b104-c8ea203e0173"},"vehicle_type_id":"4","last_reported":1715979998,"current_range_meters":19600,"station_id":"ce4bgi92rcd13ifvqb90","pricing_plan_id":"cebpf4jnsgd1na2vs0mg"},{"bike_id":"dc2ba45b-6b1d-434f-9cd7-fbedc7411921","system_id":"levelo_inurba_marseille","lat":43.29615,"lon":5.37708,"is_reserved":false,"is_disabled":false,"rental_uris":{"android":"levelo://app?vid=dc2ba45b-6b1d-434f-9cd7-fbedc7411921","ios":"levelo://app?vid=dc2ba45b-6b1d-434f-9cd7-fbedc7411921"},"vehicle_type_id":"4","last_reported":1715979998,"current_range_meters":0,"station_id":"ce4bgi92rcd13ifvqb90","pricing_plan_id":"cebpf4jnsgd1na2vs0mg"},{"bike_id":"6e28743c-f783-457a-a512-b1b694cb039e","system_id":"levelo_inurba_marseille","lat":43.29549,"lon":5.375443,"is_reserved":false,"is_disabled":false,"rental_uris":{"android":"levelo://app?vid=6e28743c-f783-457a-a512-b1b694cb039e","ios":"levelo://app?vid=6e28743c-f783-457a-a512-b1b694cb039e"},"vehicle_type_id":"4","last_reported":1715979998,"current_range_meters":0,"station_id":"ce4bgh92rcd13ifvqb50","pricing_plan_id":"cebpf4jnsgd1na2vs0mg"},{"bike_id":"e3fa39a4-c166-46d5-ac3a-aad88020aeed","system_id":"levelo_inurba_marseille","lat":43.295279,"lon":5.375048,"is_reserved":false,"is_disabled":false,"rental_uris":{"android":"levelo://app?vid=e3fa39a4-c166-46d5-ac3a-aad88020aeed","ios":"levelo://app?vid=e3fa39a4-c166-46d5-ac3a-aad88020aeed"},"vehicle_type_id":"4","last_reported":1715979998,"current_range_meters":0,"station_id":"ce4bgkp2rcd13ifvqbmg","pricing_plan_id":"cebpf4jnsgd1na2vs0mg"},{"bike_id":"5e7de680-8d06-4b20-9aa8-c99bd2cf1a56","system_id":"levelo_inurba_marseille","lat":43.295285,"lon":5.374982,"is_reserved":false,"is_disabled":false,"rental_uris":{"android":"levelo://app?vid=5e7de680-8d06-4b20-9aa8-c99bd2cf1a56","ios":"levelo://app?vid=5e7de680-8d06-4b20-9aa8-c99bd2cf1a56"},"vehicle_type_id":"4","last_reported":1715979998,"current_range_meters":0,"station_id":"ce4bgkp2rcd13ifvqbmg","pricing_plan_id":"cebpf4jnsgd1na2vs0mg"},{"bike_id":"3a8255e2-7166-49c2-a137-8e603da9d33f","system_id":"levelo_inurba_marseille","lat":43.299724,"lon":5.384848,"is_reserved":false,"is_disabled":false,"rental_uris":{"android":"levelo://app?vid=3a8255e2-7166-49c2-a137-8e603da9d33f","ios":"levelo://app?vid=3a8255e2-7166-49c2-a137-8e603da9d33f"},"vehicle_type_id":"4","last_reported":1715979998,"current_range_meters":21200,"station_id":"ce4bgj92rcd13ifvqbd0","pricing_plan_id":"cebpf4jnsgd1na2vs0mg"},{"bike_id":"111e78b1-febc-4416-ac1e-1525dc501c59","system_id":"levelo_inurba_marseille","lat":43.299707,"lon":5.384859,"is_reserved":false,"is_disabled":false,"rental_uris":{"android":"levelo://app?vid=111e78b1-febc-4416-ac1e-1525dc501c59","ios":"levelo://app?vid=111e78b1-febc-4416-ac1e-1525dc501c59"},"vehicle_type_id":"4","last_reported":1715979998,"current_range_meters":16800,"station_id":"ce4bgj92rcd13ifvqbd0","pricing_plan_id":"cebpf4jnsgd1na2vs0mg"},{"bike_id":"d1f54470-a40c-4937-a81d-983237b475aa","system_id":"levelo_inurba_marseille","lat":43.29971,"lon":5.38492,"is_reserved":false,"is_disabled":false,"rental_uris":{"android":"levelo://app?vid=d1f54470-a40c-4937-a81d-983237b475aa","ios":"levelo://app?vid=d1f54470-a40c-4937-a81d-983237b475aa"},"vehicle_type_id":"4","last_reported":1715979998,"current_range_meters":8400,"station_id":"ce4bgj92rcd13ifvqbd0","pricing_plan_id":"cebpf4jnsgd1na2vs0mg"},{"bike_id":"75345122-91c5-44cc-a3cf-0e68161347cd","system_id":"levelo_inurba_marseille","lat":43.299693,"lon":5.384912,"is_reserved":false,"is_disabled":false,"rental_uris":{"android":"levelo://app?vid=75345122-91c5-44cc-a3cf-0e68161347cd","ios":"levelo://app?vid=75345122-91c5-44cc-a3cf-0e68161347cd"},"vehicle_type_id":"4","last_reported":1715979998,"current_range_meters":2400,"station_id":"ce4bgj92rcd13ifvqbd0","pricing_plan_id":"cebpf4jnsgd1na2vs0mg"},{"bike_id":"cbe076d5-e602-4ef9-8b1f-741118d459f7","system_id":"levelo_inurba_marseille","lat":43.299682,"lon":5.384923,"is_reserved":false,"is_disabled":false,"rental_uris":{"android":"levelo://app?vid=cbe076d5-e602-4ef9-8b1f-741118d459f7","ios":"levelo://app?vid=cbe076d5-e602-4ef9-8b1f-741118d459f7"},"vehicle_type_id":"4","last_reported":1715979998,"current_range_meters":31200,"station_id":"ce4bgj92rcd13ifvqbd0","pricing_plan_id":"cebpf4jnsgd1na2vs0mg"},{"bike_id":"369f36f1-827d-4529-ae95-a49d1edd7124","system_id":"levelo_inurba_marseille","lat":43.30953,"lon":5.391971,"is_reserved":false,"is_disabled":false,"rental_uris":{"android":"levelo://app?vid=369f36f1-827d-4529-ae95-a49d1edd7124","ios":"levelo://app?vid=369f36f1-827d-4529-ae95-a49d1edd7124"},"vehicle_type_id":"4","last_reported":1715979998,"current_range_meters":31200,"station_id":"","pricing_plan_id":"cebpf4jnsgd1na2vs0mg"},{"bike_id":"55e035b5-ad03-49b4-8f19-cc802a1ad945","system_id":"levelo_inurba_marseille","lat":43.299724,"lon":5.384848,"is_reserved":false,"is_disabled":false,"rental_uris":{"android":"levelo://app?vid=55e035b5-ad03-49b4-8f19-cc802a1ad945","ios":"levelo://app?vid=55e035b5-ad03-49b4-8f19-cc802a1ad945"},"vehicle_type_id":"4","last_reported":1715979998,"current_range_meters":10400,"station_id":"ce4bgj92rcd13ifvqbd0","pricing_plan_id":"cebpf4jnsgd1na2vs0mg"},{"bike_id":"7659b402-c67f-4d5d-b16e-e75f1184493f","system_id":"levelo_inurba_marseille","lat":43.29963,"lon":5.38498,"is_reserved":false,"is_disabled":false,"rental_uris":{"android":"levelo://app?vid=7659b402-c67f-4d5d-b16e-e75f1184493f","ios":"levelo://app?vid=7659b402-c67f-4d5d-b16e-e75f1184493f"},"vehicle_type_id":"4","last_reported":1715979998,"current_range_meters":6400,"station_id":"ce4bgj92rcd13ifvqbd0","pricing_plan_id":"cebpf4jnsgd1na2vs0mg"},{"bike_id":"589e18bd-5b60-443f-9b10-8a0a4885eb64","system_id":"levelo_inurba_marseille","lat":43.295279,"lon":5.375048,"is_reserved":false,"is_disabled":false,"rental_uris":{"android":"levelo://app?vid=589e18bd-5b60-443f-9b10-8a0a4885eb64","ios":"levelo://app?vid=589e18bd-5b60-443f-9b10-8a0a4885eb64"},"vehicle_type_id":"4","last_reported":1715979998,"current_range_meters":19600,"station_id":"ce4bgkp2rcd13ifvqbmg","pricing_plan_id":"cebpf4jnsgd1na2vs0mg"},{"bike_id":"a7268b5c-a0e8-4829-ac00-68d12a64dba0","system_id":"levelo_inurba_marseille","lat":43.299623,"lon":5.38502,"is_reserved":false,"is_disabled":false,"rental_uris":{"android":"levelo://app?vid=a7268b5c-a0e8-4829-ac00-68d12a64dba0","ios":"levelo://app?vid=a7268b5c-a0e8-4829-ac00-68d12a64dba0"},"vehicle_type_id":"4","last_reported":1715979998,"current_range_meters":4000,"station_id":"ce4bgj92rcd13ifvqbd0","pricing_plan_id":"cebpf4jnsgd1na2vs0mg"},{"bike_id":"78c2d794-3231-41cb-98eb-a9762345edbd","system_id":"levelo_inurba_marseille","lat":43.30788,"lon":5.39206,"is_reserved":false,"is_disabled":false,"rental_uris":{"android":"levelo://app?vid=78c2d794-3231-41cb-98eb-a9762345edbd","ios":"levelo://app?vid=78c2d794-3231-41cb-98eb-a9762345edbd"},"vehicle_type_id":"4","last_reported":1715979998,"current_range_meters":30800,"station_id":"ce4bgup2rcd13ifvqco0","pricing_plan_id":"cebpf4jnsgd1na2vs0mg"},{"bike_id":"f80c1673-9e3d-450a-9a8c-a6fa76b96d9e","system_id":"levelo_inurba_marseille","lat":43.295279,"lon":5.375048,"is_reserved":false,"is_disabled":false,"rental_uris":{"android":"levelo://app?vid=f80c1673-9e3d-450a-9a8c-a6fa76b96d9e","ios":"levelo://app?vid=f80c1673-9e3d-450a-9a8c-a6fa76b96d9e"},"vehicle_type_id":"4","last_reported":1715979998,"current_range_meters":400,"station_id":"ce4bgkp2rcd13ifvqbmg","pricing_plan_id":"cebpf4jnsgd1na2vs0mg"},{"bike_id":"06afebc5-9a53-48b4-ae25-735ba2f926c5","system_id":"levelo_inurba_marseille","lat":43.32367,"lon":5.388836,"is_reserved":false,"is_disabled":false,"rental_uris":{"android":"levelo://app?vid=06afebc5-9a53-48b4-ae25-735ba2f926c5","ios":"levelo://app?vid=06afebc5-9a53-48b4-ae25-735ba2f926c5"},"vehicle_type_id":"4","last_reported":1715979998,"current_range_meters":0,"station_id":"ce4bhqp2rcd13ifvqhog","pricing_plan_id":"cebpf4jnsgd1na2vs0mg"},{"bike_id":"60ee3eaf-2804-4e49-aaff-aad20358d250","system_id":"levelo_inurba_marseille","lat":43.296176,"lon":5.38097,"is_reserved":false,"is_disabled":false,"rental_uris":{"android":"levelo://app?vid=60ee3eaf-2804-4e49-aaff-aad20358d250","ios":"levelo://app?vid=60ee3eaf-2804-4e49-aaff-aad20358d250"},"vehicle_type_id":"4","last_reported":1715979998,"current_range_meters":20800,"station_id":"ce4bgl12rcd13ifvqbo0","pricing_plan_id":"cebpf4jnsgd1na2vs0mg"},{"bike_id":"79bc643e-a837-4953-996e-3f263407239f","system_id":"levelo_inurba_marseille","lat":43.29602,"lon":5.381084,"is_reserved":false,"is_disabled":false,"rental_uris":{"android":"levelo://app?vid=79bc643e-a837-4953-996e-3f263407239f","ios":"levelo://app?vid=79bc643e-a837-4953-996e-3f263407239f"},"vehicle_type_id":"4","last_reported":1715979998,"current_range_meters":22800,"station_id":"ce4bgl12rcd13ifvqbo0","pricing_plan_id":"cebpf4jnsgd1na2vs0mg"},{"bike_id":"e05301af-e742-4f70-a722-1acd6413041e","system_id":"levelo_inurba_marseille","lat":43.29602,"lon":5.381084,"is_reserved":false,"is_disabled":false,"rental_uris":{"android":"levelo://app?vid=e05301af-e742-4f70-a722-1acd6413041e","ios":"levelo://app?vid=e05301af-e742-4f70-a722-1acd6413041e"},"vehicle_type_id":"4","last_reported":1715979998,"current_range_meters":29200,"station_id":"ce4bgl12rcd13ifvqbo0","pricing_plan_id":"cebpf4jnsgd1na2vs0mg"},{"bike_id":"6f64c3e1-d3ba-4c5c-878a-7db62c789614","system_id":"levelo_inurba_marseille","lat":43.29601,"lon":5.381,"is_reserved":false,"is_disabled":false,"rental_uris":{"android":"levelo://app?vid=6f64c3e1-d3ba-4c5c-878a-7db62c789614","ios":"levelo://app?vid=6f64c3e1-d3ba-4c5c-878a-7db62c789614"},"vehicle_type_id":"4","last_reported":1715979998,"current_range_meters":23200,"station_id":"ce4bgl12rcd13ifvqbo0","pricing_plan_id":"cebpf4jnsgd1na2vs0mg"},{"bike_id":"2c98c3cd-054b-4d20-aa7b-3de53ac8c421","system_id":"levelo_inurba_marseille","lat":43.29598,"lon":5.38098,"is_reserved":false,"is_disabled":false,"rental_uris":{"android":"levelo://app?vid=2c98c3cd-054b-4d20-aa7b-3de53ac8c421","ios":"levelo://app?vid=2c98c3cd-054b-4d20-aa7b-3de53ac8c421"},"vehicle_type_id":"4","last_reported":1715979998,"current_range_meters":22800,"station_id":"ce4bgl12rcd13ifvqbo0","pricing_plan_id":"cebpf4jnsgd1na2vs0mg"},{"bike_id":"ba04c569-05c2-4767-9d69-5c70c3600ba3","system_id":"levelo_inurba_marseille","lat":43.295947,"lon":5.380963,"is_reserved":false,"is_disabled":false,"rental_uris":{"android":"levelo://app?vid=ba04c569-05c2-4767-9d69-5c70c3600ba3","ios":"levelo://app?vid=ba04c569-05c2-4767-9d69-5c70c3600ba3"},"vehicle_type_id":"4","last_reported":1715979998,"current_range_meters":0,"station_id":"ce4bgl12rcd13ifvqbo0","pricing_plan_id":"cebpf4jnsgd1na2vs0mg"},{"bike_id":"0201aa50-ca4c-49e9-bcf7-0d403344e79c","system_id":"levelo_inurba_marseille","lat":43.29602,"lon":5.381084,"is_reserved":false,"is_disabled":false,"rental_uris":{"android":"levelo://app?vid=0201aa50-ca4c-49e9-bcf7-0d403344e79c","ios":"levelo://app?vid=0201aa50-ca4c-49e9-bcf7-0d403344e79c"},"vehicle_type_id":"4","last_reported":1715979998,"current_range_meters":0,"station_id":"ce4bgl12rcd13ifvqbo0","pricing_plan_id":"cebpf4jnsgd1na2vs0mg"},{"bike_id":"d34bcf34-8843-41bc-ac90-d0bb9b994797","system_id":"levelo_inurba_marseille","lat":43.29592,"lon":5.381,"is_reserved":false,"is_disabled":false,"rental_uris":{"android":"levelo://app?vid=d34bcf34-8843-41bc-ac90-d0bb9b994797","ios":"levelo://app?vid=d34bcf34-8843-41bc-ac90-d0bb9b994797"},"vehicle_type_id":"4","last_reported":1715979998,"current_range_meters":6800,"station_id":"ce4bgl12rcd13ifvqbo0","pricing_plan_id":"cebpf4jnsgd1na2vs0mg"},{"bike_id":"6d9f61ef-45ca-45ea-be98-255c9e5bd457","system_id":"levelo_inurba_marseille","lat":43.29602,"lon":5.381084,"is_reserved":false,"is_disabled":false,"rental_uris":{"android":"levelo://app?vid=6d9f61ef-45ca-45ea-be98-255c9e5bd457","ios":"levelo://app?vid=6d9f61ef-45ca-45ea-be98-255c9e5bd457"},"vehicle_type_id":"4","last_reported":1715979998,"current_range_meters":0,"station_id":"ce4bgl12rcd13ifvqbo0","pricing_plan_id":"cebpf4jnsgd1na2vs0mg"},{"bike_id":"e52af587-08a8-4403-973c-02fc1e15d07a","system_id":"levelo_inurba_marseille","lat":43.29602,"lon":5.381084,"is_reserved":false,"is_disabled":false,"rental_uris":{"android":"levelo://app?vid=e52af587-08a8-4403-973c-02fc1e15d07a","ios":"levelo://app?vid=e52af587-08a8-4403-973c-02fc1e15d07a"},"vehicle_type_id":"4","last_reported":1715979998,"current_range_meters":17200,"station_id":"ce4bgl12rcd13ifvqbo0","pricing_plan_id":"cebpf4jnsgd1na2vs0mg"},{"bike_id":"3738eab4-1e26-40e4-82ab-f965506e6bd2","system_id":"levelo_inurba_marseille","lat":43.29602,"lon":5.381084,"is_reserved":false,"is_disabled":false,"rental_uris":{"android":"levelo://app?vid=3738eab4-1e26-40e4-82ab-f965506e6bd2","ios":"levelo://app?vid=3738eab4-1e26-40e4-82ab-f965506e6bd2"},"vehicle_type_id":"4","last_reported":1715979998,"current_range_meters":14400,"station_id":"ce4bgl12rcd13ifvqbo0","pricing_plan_id":"cebpf4jnsgd1na2vs0mg"},{"bike_id":"a249e6ee-8bbf-4f5c-8c16-293ad9ba94cc","system_id":"levelo_inurba_marseille","lat":43.2959,"lon":5.38108,"is_reserved":false,"is_disabled":false,"rental_uris":{"android":"levelo://app?vid=a249e6ee-8bbf-4f5c-8c16-293ad9ba94cc","ios":"levelo://app?vid=a249e6ee-8bbf-4f5c-8c16-293ad9ba94cc"},"vehicle_type_id":"4","last_reported":1715979998,"current_range_meters":15200,"station_id":"ce4bgl12rcd13ifvqbo0","pricing_plan_id":"cebpf4jnsgd1na2vs0mg"},{"bike_id":"de95725d-4dc7-41b4-933c-3580e52a665a","system_id":"levelo_inurba_marseille","lat":43.29602,"lon":5.381084,"is_reserved":false,"is_disabled":false,"rental_uris":{"android":"levelo://app?vid=de95725d-4dc7-41b4-933c-3580e52a665a","ios":"levelo://app?vid=de95725d-4dc7-41b4-933c-3580e52a665a"},"vehicle_type_id":"4","last_reported":1715979998,"current_range_meters":19200,"station_id":"ce4bgl12rcd13ifvqbo0","pricing_plan_id":"cebpf4jnsgd1na2vs0mg"},{"bike_id":"17b70488-b809-4a1a-8cf3-4c77d0d69e5c","system_id":"levelo_inurba_marseille","lat":43.305994,"lon":5.393687,"is_reserved":false,"is_disabled":false,"rental_uris":{"android":"levelo://app?vid=17b70488-b809-4a1a-8cf3-4c77d0d69e5c","ios":"levelo://app?vid=17b70488-b809-4a1a-8cf3-4c77d0d69e5c"},"vehicle_type_id":"4","last_reported":1715979998,"current_range_meters":25200,"station_id":"ce4bh0p2rcd13ifvqd80","pricing_plan_id":"cebpf4jnsgd1na2vs0mg"},{"bike_id":"949523fa-f5c2-442d-920e-83d970a80a0c","system_id":"levelo_inurba_marseille","lat":43.293009,"lon":5.374584,"is_reserved":false,"is_disabled":false,"rental_uris":{"android":"levelo://app?vid=949523fa-f5c2-442d-920e-83d970a80a0c","ios":"levelo://app?vid=949523fa-f5c2-442d-920e-83d970a80a0c"},"vehicle_type_id":"4","last_reported":1715979998,"current_range_meters":22400,"station_id":"ce4bgi12rcd13ifvqb70","pricing_plan_id":"cebpf4jnsgd1na2vs0mg"},{"bike_id":"e953fea5-e80b-4cf1-9506-4880d4cb4450","system_id":"levelo_inurba_marseille","lat":43.293009,"lon":5.374584,"is_reserved":false,"is_disabled":false,"rental_uris":{"android":"levelo://app?vid=e953fea5-e80b-4cf1-9506-4880d4cb4450","ios":"levelo://app?vid=e953fea5-e80b-4cf1-9506-4880d4cb4450"},"vehicle_type_id":"4","last_reported":1715979998,"current_range_meters":22000,"station_id":"ce4bgi12rcd13ifvqb70","pricing_plan_id":"cebpf4jnsgd1na2vs0mg"},{"bike_id":"8ec68e08-f26b-4c8a-b719-6e0a564ca3dc","system_id":"levelo_inurba_marseille","lat":43.293009,"lon":5.374584,"is_reserved":false,"is_disabled":false,"rental_uris":{"android":"levelo://app?vid=8ec68e08-f26b-4c8a-b719-6e0a564ca3dc","ios":"levelo://app?vid=8ec68e08-f26b-4c8a-b719-6e0a564ca3dc"},"vehicle_type_id":"4","last_reported":1715979998,"current_range_meters":24800,"station_id":"ce4bgi12rcd13ifvqb70","pricing_plan_id":"cebpf4jnsgd1na2vs0mg"},{"bike_id":"1d63a672-65e6-4f8a-9485-17788579dfe0","system_id":"levelo_inurba_marseille","lat":43.305994,"lon":5.393687,"is_reserved":false,"is_disabled":false,"rental_uris":{"android":"levelo://app?vid=1d63a672-65e6-4f8a-9485-17788579dfe0","ios":"levelo://app?vid=1d63a672-65e6-4f8a-9485-17788579dfe0"},"vehicle_type_id":"4","last_reported":1715979998,"current_range_meters":30000,"station_id":"ce4bh0p2rcd13ifvqd80","pricing_plan_id":"cebpf4jnsgd1na2vs0mg"},{"bike_id":"769088c9-16f4-446f-a9c4-702d3ef55d95","system_id":"levelo_inurba_marseille","lat":43.293009,"lon":5.374584,"is_reserved":false,"is_disabled":false,"rental_uris":{"android":"levelo://app?vid=769088c9-16f4-446f-a9c4-702d3ef55d95","ios":"levelo://app?vid=769088c9-16f4-446f-a9c4-702d3ef55d95"},"vehicle_type_id":"4","last_reported":1715979998,"current_range_meters":26000,"station_id":"ce4bgi12rcd13ifvqb70","pricing_plan_id":"cebpf4jnsgd1na2vs0mg"},{"bike_id":"07f0a237-4661-4e2b-a2d5-f29e30fe5e85","system_id":"levelo_inurba_marseille","lat":43.305994,"lon":5.393687,"is_reserved":false,"is_disabled":false,"rental_uris":{"android":"levelo://app?vid=07f0a237-4661-4e2b-a2d5-f29e30fe5e85","ios":"levelo://app?vid=07f0a237-4661-4e2b-a2d5-f29e30fe5e85"},"vehicle_type_id":"4","last_reported":1715979998,"current_range_meters":21600,"station_id":"ce4bh0p2rcd13ifvqd80","pricing_plan_id":"cebpf4jnsgd1na2vs0mg"},{"bike_id":"e21104cd-057c-4d6e-a895-bfdbee9075da","system_id":"levelo_inurba_marseille","lat":43.293009,"lon":5.374584,"is_reserved":false,"is_disabled":false,"rental_uris":{"android":"levelo://app?vid=e21104cd-057c-4d6e-a895-bfdbee9075da","ios":"levelo://app?vid=e21104cd-057c-4d6e-a895-bfdbee9075da"},"vehicle_type_id":"4","last_reported":1715979998,"current_range_meters":23600,"station_id":"ce4bgi12rcd13ifvqb70","pricing_plan_id":"cebpf4jnsgd1na2vs0mg"},{"bike_id":"247272b0-e28e-45c8-a6b3-a7001422b20b","system_id":"levelo_inurba_marseille","lat":43.305994,"lon":5.393687,"is_reserved":false,"is_disabled":false,"rental_uris":{"android":"levelo://app?vid=247272b0-e28e-45c8-a6b3-a7001422b20b","ios":"levelo://app?vid=247272b0-e28e-45c8-a6b3-a7001422b20b"},"vehicle_type_id":"4","last_reported":1715979998,"current_range_meters":8000,"station_id":"ce4bh0p2rcd13ifvqd80","pricing_plan_id":"cebpf4jnsgd1na2vs0mg"},{"bike_id":"3f8554f5-812c-4d0c-b2d4-bb098fdb091b","system_id":"levelo_inurba_marseille","lat":43.305994,"lon":5.393687,"is_reserved":false,"is_disabled":false,"rental_uris":{"android":"levelo://app?vid=3f8554f5-812c-4d0c-b2d4-bb098fdb091b","ios":"levelo://app?vid=3f8554f5-812c-4d0c-b2d4-bb098fdb091b"},"vehicle_type_id":"4","last_reported":1715979998,"current_range_meters":8000,"station_id":"ce4bh0p2rcd13ifvqd80","pricing_plan_id":"cebpf4jnsgd1na2vs0mg"},{"bike_id":"953c7397-99dd-4a3a-b4ab-b3282a0f7aed","system_id":"levelo_inurba_marseille","lat":43.293009,"lon":5.374584,"is_reserved":false,"is_disabled":false,"rental_uris":{"android":"levelo://app?vid=953c7397-99dd-4a3a-b4ab-b3282a0f7aed","ios":"levelo://app?vid=953c7397-99dd-4a3a-b4ab-b3282a0f7aed"},"vehicle_type_id":"4","last_reported":1715979998,"current_range_meters":19600,"station_id":"ce4bgi12rcd13ifvqb70","pricing_plan_id":"cebpf4jnsgd1na2vs0mg"},{"bike_id":"9ec7dc38-401d-48a2-bf02-baf087db346b","system_id":"levelo_inurba_marseille","lat":43.305994,"lon":5.393687,"is_reserved":false,"is_disabled":false,"rental_uris":{"android":"levelo://app?vid=9ec7dc38-401d-48a2-bf02-baf087db346b","ios":"levelo://app?vid=9ec7dc38-401d-48a2-bf02-baf087db346b"},"vehicle_type_id":"4","last_reported":1715979998,"current_range_meters":17600,"station_id":"ce4bh0p2rcd13ifvqd80","pricing_plan_id":"cebpf4jnsgd1na2vs0mg"},{"bike_id":"3c4b9cdb-12a8-42ad-9ae5-63916d404f7c","system_id":"levelo_inurba_marseille","lat":43.293009,"lon":5.374584,"is_reserved":false,"is_disabled":false,"rental_uris":{"android":"levelo://app?vid=3c4b9cdb-12a8-42ad-9ae5-63916d404f7c","ios":"levelo://app?vid=3c4b9cdb-12a8-42ad-9ae5-63916d404f7c"},"vehicle_type_id":"4","last_reported":1715979998,"current_range_meters":22800,"station_id":"ce4bgi12rcd13ifvqb70","pricing_plan_id":"cebpf4jnsgd1na2vs0mg"},{"bike_id":"3c192f7b-6b5c-4b29-9893-996d2b47200a","system_id":"levelo_inurba_marseille","lat":43.293009,"lon":5.374584,"is_reserved":false,"is_disabled":false,"rental_uris":{"android":"levelo://app?vid=3c192f7b-6b5c-4b29-9893-996d2b47200a","ios":"levelo://app?vid=3c192f7b-6b5c-4b29-9893-996d2b47200a"},"vehicle_type_id":"4","last_reported":1715979998,"current_range_meters":24000,"station_id":"ce4bgi12rcd13ifvqb70","pricing_plan_id":"cebpf4jnsgd1na2vs0mg"},{"bike_id":"6930c90f-2045-4912-ab1f-24a28da2b232","system_id":"levelo_inurba_marseille","lat":43.305994,"lon":5.393687,"is_reserved":false,"is_disabled":false,"rental_uris":{"android":"levelo://app?vid=6930c90f-2045-4912-ab1f-24a28da2b232","ios":"levelo://app?vid=6930c90f-2045-4912-ab1f-24a28da2b232"},"vehicle_type_id":"4","last_reported":1715979998,"current_range_meters":8400,"station_id":"ce4bh0p2rcd13ifvqd80","pricing_plan_id":"cebpf4jnsgd1na2vs0mg"},{"bike_id":"2d314023-335f-4e39-b68a-5ba89f1c50f2","system_id":"levelo_inurba_marseille","lat":43.293009,"lon":5.374584,"is_reserved":false,"is_disabled":false,"rental_uris":{"android":"levelo://app?vid=2d314023-335f-4e39-b68a-5ba89f1c50f2","ios":"levelo://app?vid=2d314023-335f-4e39-b68a-5ba89f1c50f2"},"vehicle_type_id":"4","last_reported":1715979998,"current_range_meters":14000,"station_id":"ce4bgi12rcd13ifvqb70","pricing_plan_id":"cebpf4jnsgd1na2vs0mg"},{"bike_id":"faf7a0b3-f13c-4f69-b0ff-c979627e88f4","system_id":"levelo_inurba_marseille","lat":43.30598,"lon":5.39362,"is_reserved":false,"is_disabled":false,"rental_uris":{"android":"levelo://app?vid=faf7a0b3-f13c-4f69-b0ff-c979627e88f4","ios":"levelo://app?vid=faf7a0b3-f13c-4f69-b0ff-c979627e88f4"},"vehicle_type_id":"4","last_reported":1715979998,"current_range_meters":0,"station_id":"ce4bh0p2rcd13ifvqd80","pricing_plan_id":"cebpf4jnsgd1na2vs0mg"},{"bike_id":"edc0db3b-ecc2-49a9-9814-95ff9218a9f2","system_id":"levelo_inurba_marseille","lat":43.305994,"lon":5.393687,"is_reserved":false,"is_disabled":false,"rental_uris":{"android":"levelo://app?vid=edc0db3b-ecc2-49a9-9814-95ff9218a9f2","ios":"levelo://app?vid=edc0db3b-ecc2-49a9-9814-95ff9218a9f2"},"vehicle_type_id":"4","last_reported":1715979998,"current_range_meters":18400,"station_id":"ce4bh0p2rcd13ifvqd80","pricing_plan_id":"cebpf4jnsgd1na2vs0mg"},{"bike_id":"6a67e828-857b-4bc6-a168-af45c4b31b27","system_id":"levelo_inurba_marseille","lat":43.305994,"lon":5.393687,"is_reserved":false,"is_disabled":false,"rental_uris":{"android":"levelo://app?vid=6a67e828-857b-4bc6-a168-af45c4b31b27","ios":"levelo://app?vid=6a67e828-857b-4bc6-a168-af45c4b31b27"},"vehicle_type_id":"4","last_reported":1715979998,"current_range_meters":20400,"station_id":"ce4bh0p2rcd13ifvqd80","pricing_plan_id":"cebpf4jnsgd1na2vs0mg"},{"bike_id":"a1eb2cc2-5554-4c37-ab2d-6cb715a0b4eb","system_id":"levelo_inurba_marseille","lat":43.30574,"lon":5.39357,"is_reserved":false,"is_disabled":false,"rental_uris":{"android":"levelo://app?vid=a1eb2cc2-5554-4c37-ab2d-6cb715a0b4eb","ios":"levelo://app?vid=a1eb2cc2-5554-4c37-ab2d-6cb715a0b4eb"},"vehicle_type_id":"4","last_reported":1715979998,"current_range_meters":20800,"station_id":"ce4bh0p2rcd13ifvqd80","pricing_plan_id":"cebpf4jnsgd1na2vs0mg"},{"bike_id":"00b5a392-ec7e-4763-a924-22a3a127731b","system_id":"levelo_inurba_marseille","lat":43.302992,"lon":5.392136,"is_reserved":false,"is_disabled":false,"rental_uris":{"android":"levelo://app?vid=00b5a392-ec7e-4763-a924-22a3a127731b","ios":"levelo://app?vid=00b5a392-ec7e-4763-a924-22a3a127731b"},"vehicle_type_id":"4","last_reported":1715979998,"current_range_meters":31200,"station_id":"ce4bgkh2rcd13ifvqbk0","pricing_plan_id":"cebpf4jnsgd1na2vs0mg"},{"bike_id":"409aa7e8-c89a-4915-b3b0-1ea917f09cf1","system_id":"levelo_inurba_marseille","lat":43.302992,"lon":5.392136,"is_reserved":false,"is_disabled":false,"rental_uris":{"android":"levelo://app?vid=409aa7e8-c89a-4915-b3b0-1ea917f09cf1","ios":"levelo://app?vid=409aa7e8-c89a-4915-b3b0-1ea917f09cf1"},"vehicle_type_id":"4","last_reported":1715979998,"current_range_meters":24000,"station_id":"ce4bgkh2rcd13ifvqbk0","pricing_plan_id":"cebpf4jnsgd1na2vs0mg"},{"bike_id":"09142388-087c-4c12-9ba6-ed1f4d1d8c72","system_id":"levelo_inurba_marseille","lat":43.303002,"lon":5.392142,"is_reserved":false,"is_disabled":false,"rental_uris":{"android":"levelo://app?vid=09142388-087c-4c12-9ba6-ed1f4d1d8c72","ios":"levelo://app?vid=09142388-087c-4c12-9ba6-ed1f4d1d8c72"},"vehicle_type_id":"4","last_reported":1715979998,"current_range_meters":1600,"station_id":"ce4bgkh2rcd13ifvqbk0","pricing_plan_id":"cebpf4jnsgd1na2vs0mg"},{"bike_id":"73148193-afa1-4591-9ae7-be0430d83bb8","system_id":"levelo_inurba_marseille","lat":43.302992,"lon":5.392136,"is_reserved":false,"is_disabled":false,"rental_uris":{"android":"levelo://app?vid=73148193-afa1-4591-9ae7-be0430d83bb8","ios":"levelo://app?vid=73148193-afa1-4591-9ae7-be0430d83bb8"},"vehicle_type_id":"4","last_reported":1715979998,"current_range_meters":16400,"station_id":"ce4bgkh2rcd13ifvqbk0","pricing_plan_id":"cebpf4jnsgd1na2vs0mg"},{"bike_id":"5bd17d7a-e29e-452f-9262-4a0c361d7bc0","system_id":"levelo_inurba_marseille","lat":43.303002,"lon":5.392142,"is_reserved":false,"is_disabled":false,"rental_uris":{"android":"levelo://app?vid=5bd17d7a-e29e-452f-9262-4a0c361d7bc0","ios":"levelo://app?vid=5bd17d7a-e29e-452f-9262-4a0c361d7bc0"},"vehicle_type_id":"4","last_reported":1715979998,"current_range_meters":16400,"station_id":"ce4bgkh2rcd13ifvqbk0","pricing_plan_id":"cebpf4jnsgd1na2vs0mg"},{"bike_id":"a600d435-e6eb-4778-84fd-375900b150c7","system_id":"levelo_inurba_marseille","lat":43.30303,"lon":5.39216,"is_reserved":false,"is_disabled":false,"rental_uris":{"android":"levelo://app?vid=a600d435-e6eb-4778-84fd-375900b150c7","ios":"levelo://app?vid=a600d435-e6eb-4778-84fd-375900b150c7"},"vehicle_type_id":"4","last_reported":1715979998,"current_range_meters":800,"station_id":"ce4bgkh2rcd13ifvqbk0","pricing_plan_id":"cebpf4jnsgd1na2vs0mg"},{"bike_id":"eadb07ae-045f-4d4c-8bdf-5641aaa5b9e5","system_id":"levelo_inurba_marseille","lat":43.30299,"lon":5.39214,"is_reserved":false,"is_disabled":false,"rental_uris":{"android":"levelo://app?vid=eadb07ae-045f-4d4c-8bdf-5641aaa5b9e5","ios":"levelo://app?vid=eadb07ae-045f-4d4c-8bdf-5641aaa5b9e5"},"vehicle_type_id":"4","last_reported":1715979998,"current_range_meters":20400,"station_id":"","pricing_plan_id":"cebpf4jnsgd1na2vs0mg"},{"bike_id":"1e173236-ac9d-4c30-a275-4bfb728dfc1b","system_id":"levelo_inurba_marseille","lat":43.303002,"lon":5.392142,"is_reserved":false,"is_disabled":false,"rental_uris":{"android":"levelo://app?vid=1e173236-ac9d-4c30-a275-4bfb728dfc1b","ios":"levelo://app?vid=1e173236-ac9d-4c30-a275-4bfb728dfc1b"},"vehicle_type_id":"4","last_reported":1715979998,"current_range_meters":31200,"station_id":"ce4bgkh2rcd13ifvqbk0","pricing_plan_id":"cebpf4jnsgd1na2vs0mg"},{"bike_id":"de4fb99c-1a3a-4020-a37b-59301f2a41ea","system_id":"levelo_inurba_marseille","lat":43.302992,"lon":5.392136,"is_reserved":false,"is_disabled":false,"rental_uris":{"android":"levelo://app?vid=de4fb99c-1a3a-4020-a37b-59301f2a41ea","ios":"levelo://app?vid=de4fb99c-1a3a-4020-a37b-59301f2a41ea"},"vehicle_type_id":"4","last_reported":1715979998,"current_range_meters":26400,"station_id":"ce4bgkh2rcd13ifvqbk0","pricing_plan_id":"cebpf4jnsgd1na2vs0mg"},{"bike_id":"2248e319-1c05-4ce1-a9e4-5281321f73b6","system_id":"levelo_inurba_marseille","lat":43.29369,"lon":5.37842,"is_reserved":false,"is_disabled":false,"rental_uris":{"android":"levelo://app?vid=2248e319-1c05-4ce1-a9e4-5281321f73b6","ios":"levelo://app?vid=2248e319-1c05-4ce1-a9e4-5281321f73b6"},"vehicle_type_id":"4","last_reported":1715979998,"current_range_meters":400,"station_id":"ce4bgjh2rcd13ifvqbf0","pricing_plan_id":"cebpf4jnsgd1na2vs0mg"},{"bike_id":"405349dd-2444-4959-a5c5-3149f5eb981b","system_id":"levelo_inurba_marseille","lat":43.29369,"lon":5.37852,"is_reserved":false,"is_disabled":false,"rental_uris":{"android":"levelo://app?vid=405349dd-2444-4959-a5c5-3149f5eb981b","ios":"levelo://app?vid=405349dd-2444-4959-a5c5-3149f5eb981b"},"vehicle_type_id":"4","last_reported":1715979998,"current_range_meters":4400,"station_id":"ce4bgjh2rcd13ifvqbf0","pricing_plan_id":"cebpf4jnsgd1na2vs0mg"},{"bike_id":"a3850371-5329-419c-a6e0-8e26a958468b","system_id":"levelo_inurba_marseille","lat":43.302992,"lon":5.392136,"is_reserved":false,"is_disabled":false,"rental_uris":{"android":"levelo://app?vid=a3850371-5329-419c-a6e0-8e26a958468b","ios":"levelo://app?vid=a3850371-5329-419c-a6e0-8e26a958468b"},"vehicle_type_id":"4","last_reported":1715979998,"current_range_meters":31600,"station_id":"ce4bgkh2rcd13ifvqbk0","pricing_plan_id":"cebpf4jnsgd1na2vs0mg"},{"bike_id":"27169ef2-b07b-4867-8a53-6dc513465814","system_id":"levelo_inurba_marseille","lat":43.302993,"lon":5.39224,"is_reserved":false,"is_disabled":false,"rental_uris":{"android":"levelo://app?vid=27169ef2-b07b-4867-8a53-6dc513465814","ios":"levelo://app?vid=27169ef2-b07b-4867-8a53-6dc513465814"},"vehicle_type_id":"4","last_reported":1715979998,"current_range_meters":3600,"station_id":"","pricing_plan_id":"cebpf4jnsgd1na2vs0mg"},{"bike_id":"712b9488-16a0-4766-9c1a-002dc74a40c1","system_id":"levelo_inurba_marseille","lat":43.30097,"lon":5.39078,"is_reserved":false,"is_disabled":false,"rental_uris":{"android":"levelo://app?vid=712b9488-16a0-4766-9c1a-002dc74a40c1","ios":"levelo://app?vid=712b9488-16a0-4766-9c1a-002dc74a40c1"},"vehicle_type_id":"4","last_reported":1715979998,"current_range_meters":0,"station_id":"ce4bh192rcd13ifvqdb0","pricing_plan_id":"cebpf4jnsgd1na2vs0mg"},{"bike_id":"8e60da97-588d-43b4-9ea8-7b3c61c417b2","system_id":"levelo_inurba_marseille","lat":43.300912,"lon":5.390773,"is_reserved":false,"is_disabled":false,"rental_uris":{"android":"levelo://app?vid=8e60da97-588d-43b4-9ea8-7b3c61c417b2","ios":"levelo://app?vid=8e60da97-588d-43b4-9ea8-7b3c61c417b2"},"vehicle_type_id":"4","last_reported":1715979998,"current_range_meters":22800,"station_id":"ce4bh192rcd13ifvqdb0","pricing_plan_id":"cebpf4jnsgd1na2vs0mg"},{"bike_id":"2e9d0837-d796-47ce-a48e-a7f60f4bc7d8","system_id":"levelo_inurba_marseille","lat":43.29226,"lon":5.36052,"is_reserved":false,"is_disabled":false,"rental_uris":{"android":"levelo://app?vid=2e9d0837-d796-47ce-a48e-a7f60f4bc7d8","ios":"levelo://app?vid=2e9d0837-d796-47ce-a48e-a7f60f4bc7d8"},"vehicle_type_id":"4","last_reported":1715979998,"current_range_meters":1200,"station_id":"ce4bhbh2rcd13ifvqeqg","pricing_plan_id":"cebpf4jnsgd1na2vs0mg"},{"bike_id":"c2c52a2c-ae83-408d-acf7-231016b0f881","system_id":"levelo_inurba_marseille","lat":43.300852,"lon":5.390859,"is_reserved":false,"is_disabled":false,"rental_uris":{"android":"levelo://app?vid=c2c52a2c-ae83-408d-acf7-231016b0f881","ios":"levelo://app?vid=c2c52a2c-ae83-408d-acf7-231016b0f881"},"vehicle_type_id":"4","last_reported":1715979998,"current_range_meters":12400,"station_id":"ce4bh192rcd13ifvqdb0","pricing_plan_id":"cebpf4jnsgd1na2vs0mg"},{"bike_id":"09ece883-829b-4f85-9292-ef7c901ee970","system_id":"levelo_inurba_marseille","lat":43.30084,"lon":5.39077,"is_reserved":false,"is_disabled":false,"rental_uris":{"android":"levelo://app?vid=09ece883-829b-4f85-9292-ef7c901ee970","ios":"levelo://app?vid=09ece883-829b-4f85-9292-ef7c901ee970"},"vehicle_type_id":"4","last_reported":1715979998,"current_range_meters":8800,"station_id":"ce4bh192rcd13ifvqdb0","pricing_plan_id":"cebpf4jnsgd1na2vs0mg"},{"bike_id":"8e79a0c6-833c-4ccd-9266-da8a66483391","system_id":"levelo_inurba_marseille","lat":43.300852,"lon":5.390859,"is_reserved":false,"is_disabled":false,"rental_uris":{"android":"levelo://app?vid=8e79a0c6-833c-4ccd-9266-da8a66483391","ios":"levelo://app?vid=8e79a0c6-833c-4ccd-9266-da8a66483391"},"vehicle_type_id":"4","last_reported":1715979998,"current_range_meters":25600,"station_id":"ce4bh192rcd13ifvqdb0","pricing_plan_id":"cebpf4jnsgd1na2vs0mg"},{"bike_id":"384802a2-c104-44d7-b7b6-9993de06a0e5","system_id":"levelo_inurba_marseille","lat":43.291671,"lon":5.371575,"is_reserved":false,"is_disabled":false,"rental_uris":{"android":"levelo://app?vid=384802a2-c104-44d7-b7b6-9993de06a0e5","ios":"levelo://app?vid=384802a2-c104-44d7-b7b6-9993de06a0e5"},"vehicle_type_id":"4","last_reported":1715979998,"current_range_meters":10000,"station_id":"ce4bha92rcd13ifvqeh0","pricing_plan_id":"cebpf4jnsgd1na2vs0mg"},{"bike_id":"20ea6a49-038e-43b7-a098-b79ce5e85a9b","system_id":"levelo_inurba_marseille","lat":43.298764,"lon":5.388973,"is_reserved":false,"is_disabled":false,"rental_uris":{"android":"levelo://app?vid=20ea6a49-038e-43b7-a098-b79ce5e85a9b","ios":"levelo://app?vid=20ea6a49-038e-43b7-a098-b79ce5e85a9b"},"vehicle_type_id":"4","last_reported":1715979998,"current_range_meters":6000,"station_id":"ce4bh392rcd13ifvqdl0","pricing_plan_id":"cebpf4jnsgd1na2vs0mg"},{"bike_id":"62f91d4d-a324-4cc8-8a46-eb7ce1c0107f","system_id":"levelo_inurba_marseille","lat":43.298764,"lon":5.388973,"is_reserved":false,"is_disabled":false,"rental_uris":{"android":"levelo://app?vid=62f91d4d-a324-4cc8-8a46-eb7ce1c0107f","ios":"levelo://app?vid=62f91d4d-a324-4cc8-8a46-eb7ce1c0107f"},"vehicle_type_id":"4","last_reported":1715979998,"current_range_meters":4000,"station_id":"ce4bh392rcd13ifvqdl0","pricing_plan_id":"cebpf4jnsgd1na2vs0mg"},{"bike_id":"fbe8522d-8f3a-41f1-b3f0-120f532cfc90","system_id":"levelo_inurba_marseille","lat":43.291675,"lon":5.371583,"is_reserved":false,"is_disabled":false,"rental_uris":{"android":"levelo://app?vid=fbe8522d-8f3a-41f1-b3f0-120f532cfc90","ios":"levelo://app?vid=fbe8522d-8f3a-41f1-b3f0-120f532cfc90"},"vehicle_type_id":"4","last_reported":1715979998,"current_range_meters":24400,"station_id":"ce4bha92rcd13ifvqeh0","pricing_plan_id":"cebpf4jnsgd1na2vs0mg"},{"bike_id":"c460d89b-9639-4132-b011-9299eb09ab34","system_id":"levelo_inurba_marseille","lat":43.298764,"lon":5.388973,"is_reserved":false,"is_disabled":false,"rental_uris":{"android":"levelo://app?vid=c460d89b-9639-4132-b011-9299eb09ab34","ios":"levelo://app?vid=c460d89b-9639-4132-b011-9299eb09ab34"},