{"last_updated":1707358374,"ttl":30,"version":"2.2","data":{"bikes":[{"bike_id":"b1dcdc4b-bff8-43a4-be0f-ddff447aed43","system_id":"levelo_inurba_marseille","lat":43.31341,"lon":5.367098,"is_reserved":false,"is_disabled":false,"rental_uris":{"android":"levelo://app?vid=b1dcdc4b-bff8-43a4-be0f-ddff447aed43","ios":"levelo://app?vid=b1dcdc4b-bff8-43a4-be0f-ddff447aed43"},"vehicle_type_id":"4","last_reported":1707358374,"current_range_meters":28000,"station_id":"ce4bgr92rcd13ifvqc6g","pricing_plan_id":"free"},{"bike_id":"2ad1f61e-9ed1-4c93-b141-602560376f56","system_id":"levelo_inurba_marseille","lat":43.314811,"lon":5.373103,"is_reserved":false,"is_disabled":false,"rental_uris":{"android":"levelo://app?vid=2ad1f61e-9ed1-4c93-b141-602560376f56","ios":"levelo://app?vid=2ad1f61e-9ed1-4c93-b141-602560376f56"},"vehicle_type_id":"4","last_reported":1707358374,"current_range_meters":20000,"station_id":"ce4bgt12rcd13ifvqcd0","pricing_plan_id":"free"},{"bike_id":"379986e3-d025-4115-b95a-28edfa51e5a4","system_id":"levelo_inurba_marseille","lat":43.314811,"lon":5.373103,"is_reserved":false,"is_disabled":false,"rental_uris":{"android":"levelo://app?vid=379986e3-d025-4115-b95a-28edfa51e5a4","ios":"levelo://app?vid=379986e3-d025-4115-b95a-28edfa51e5a4"},"vehicle_type_id":"4","last_reported":1707358374,"current_range_meters":14000,"station_id":"ce4bgt12rcd13ifvqcd0","pricing_plan_id":"free"},{"bike_id":"d3638b0b-57c2-4fc2-8c72-f9bdca0ab8a9","system_id":"levelo_inurba_marseille","lat":43.314811,"lon":5.373103,"is_reserved":false,"is_disabled":false,"rental_uris":{"android":"levelo://app?vid=d3638b0b-57c2-4fc2-8c72-f9bdca0ab8a9","ios":"levelo://app?vid=d3638b0b-57c2-4fc2-8c72-f9bdca0ab8a9"},"vehicle_type_id":"4","last_reported":1707358374,"current_range_meters":12400,"station_id":"ce4bgt12rcd13ifvqcd0","pricing_plan_id":"free"},{"bike_id":"01fa2196-0c2f-4507-a79c-4b26a27eaf50","system_id":"levelo_inurba_marseille","lat":43.314811,"lon":5.373103,"is_reserved":false,"is_disabled":false,"rental_uris":{"android":"levelo://app?vid=01fa2196-0c2f-4507-a79c-4b26a27eaf50","ios":"levelo://app?vid=01fa2196-0c2f-4507-a79c-4b26a27eaf50"},"vehicle_type_id":"4","last_reported":1707358374,"current_range_meters":23600,"station_id":"ce4bgt12rcd13ifvqcd0","pricing_plan_id":"free"},{"bike_id":"a080f8cb-ee74-4adb-98f5-74d2eec6f88c","system_id":"levelo_inurba_marseille","lat":43.314811,"lon":5.373103,"is_reserved":false,"is_disabled":false,"rental_uris":{"android":"levelo://app?vid=a080f8cb-ee74-4adb-98f5-74d2eec6f88c","ios":"levelo://app?vid=a080f8cb-ee74-4adb-98f5-74d2eec6f88c"},"vehicle_type_id":"4","last_reported":1707358374,"current_range_meters":21600,"station_id":"ce4bgt12rcd13ifvqcd0","pricing_plan_id":"free"},{"bike_id":"64b46dcb-8445-4cfd-b65b-91cddaace2c4","system_id":"levelo_inurba_marseille","lat":43.314811,"lon":5.373103,"is_reserved":false,"is_disabled":false,"rental_uris":{"android":"levelo://app?vid=64b46dcb-8445-4cfd-b65b-91cddaace2c4","ios":"levelo://app?vid=64b46dcb-8445-4cfd-b65b-91cddaace2c4"},"vehicle_type_id":"4","last_reported":1707358374,"current_range_meters":31200,"station_id":"ce4bgt12rcd13ifvqcd0","pricing_plan_id":"free"},{"bike_id":"2c036004-9954-41c6-a1bc-99a557cec010","system_id":"levelo_inurba_marseille","lat":43.314811,"lon":5.373103,"is_reserved":false,"is_disabled":false,"rental_uris":{"android":"levelo://app?vid=2c036004-9954-41c6-a1bc-99a557cec010","ios":"levelo://app?vid=2c036004-9954-41c6-a1bc-99a557cec010"},"vehicle_type_id":"4","last_reported":1707358374,"current_range_meters":28000,"station_id":"ce4bgt12rcd13ifvqcd0","pricing_plan_id":"free"},{"bike_id":"20a30b4f-c966-4805-a424-f9af746ecbd3","system_id":"levelo_inurba_marseille","lat":43.314811,"lon":5.373104,"is_reserved":false,"is_disabled":false,"rental_uris":{"android":"levelo://app?vid=20a30b4f-c966-4805-a424-f9af746ecbd3","ios":"levelo://app?vid=20a30b4f-c966-4805-a424-f9af746ecbd3"},"vehicle_type_id":"4","last_reported":1707358374,"current_range_meters":30000,"station_id":"ce4bgt12rcd13ifvqcd0","pricing_plan_id":"free"},{"bike_id":"c85d0d5d-53e7-4b6b-9a1c-fb4f62b59725","system_id":"levelo_inurba_marseille","lat":43.309039,"lon":5.371797,"is_reserved":false,"is_disabled":false,"rental_uris":{"android":"levelo://app?vid=c85d0d5d-53e7-4b6b-9a1c-fb4f62b59725","ios":"levelo://app?vid=c85d0d5d-53e7-4b6b-9a1c-fb4f62b59725"},"vehicle_type_id":"4","last_reported":1707358374,"current_range_meters":23200,"station_id":"ce4bguh2rcd13ifvqckg","pricing_plan_id":"free"},{"bike_id":"cf312d4b-c1f3-4c69-aa74-cb7c83a4d3cc","system_id":"levelo_inurba_marseille","lat":43.305368,"lon":5.367343,"is_reserved":false,"is_disabled":false,"rental_uris":{"android":"levelo://app?vid=cf312d4b-c1f3-4c69-aa74-cb7c83a4d3cc","ios":"levelo://app?vid=cf312d4b-c1f3-4c69-aa74-cb7c83a4d3cc"},"vehicle_type_id":"4","last_reported":1707358374,"current_range_meters":26400,"station_id":"ce4bgrp2rcd13ifvqc9g","pricing_plan_id":"free"},{"bike_id":"517f5943-7837-4489-9ebb-4a7aef820331","system_id":"levelo_inurba_marseille","lat":43.305368,"lon":5.367343,"is_reserved":false,"is_disabled":false,"rental_uris":{"android":"levelo://app?vid=517f5943-7837-4489-9ebb-4a7aef820331","ios":"levelo://app?vid=517f5943-7837-4489-9ebb-4a7aef820331"},"vehicle_type_id":"4","last_reported":1707358374,"current_range_meters":22000,"station_id":"ce4bgrp2rcd13ifvqc9g","pricing_plan_id":"free"},{"bike_id":"54bb5cd3-8378-489a-b9fa-fcdef99acfdf","system_id":"levelo_inurba_marseille","lat":43.305989,"lon":5.37225,"is_reserved":false,"is_disabled":false,"rental_uris":{"android":"levelo://app?vid=54bb5cd3-8378-489a-b9fa-fcdef99acfdf","ios":"levelo://app?vid=54bb5cd3-8378-489a-b9fa-fcdef99acfdf"},"vehicle_type_id":"4","last_reported":1707358374,"current_range_meters":30400,"station_id":"ce4bgqh2rcd13ifvqc4g","pricing_plan_id":"free"},{"bike_id":"488fa1ea-5e75-440c-bb66-9486fba077df","system_id":"levelo_inurba_marseille","lat":43.311131,"lon":5.377651,"is_reserved":false,"is_disabled":false,"rental_uris":{"android":"levelo://app?vid=488fa1ea-5e75-440c-bb66-9486fba077df","ios":"levelo://app?vid=488fa1ea-5e75-440c-bb66-9486fba077df"},"vehicle_type_id":"4","last_reported":1707358374,"current_range_meters":27200,"station_id":"ce4bgt92rcd13ifvqcg0","pricing_plan_id":"free"},{"bike_id":"52e314f9-7c24-4cb8-9c03-204e173ce2c6","system_id":"levelo_inurba_marseille","lat":43.311131,"lon":5.377651,"is_reserved":false,"is_disabled":false,"rental_uris":{"android":"levelo://app?vid=52e314f9-7c24-4cb8-9c03-204e173ce2c6","ios":"levelo://app?vid=52e314f9-7c24-4cb8-9c03-204e173ce2c6"},"vehicle_type_id":"4","last_reported":1707358374,"current_range_meters":24400,"station_id":"ce4bgt92rcd13ifvqcg0","pricing_plan_id":"free"},{"bike_id":"9c962f83-0df9-4127-a33f-e7ab72674999","system_id":"levelo_inurba_marseille","lat":43.311125,"lon":5.377624,"is_reserved":false,"is_disabled":false,"rental_uris":{"android":"levelo://app?vid=9c962f83-0df9-4127-a33f-e7ab72674999","ios":"levelo://app?vid=9c962f83-0df9-4127-a33f-e7ab72674999"},"vehicle_type_id":"4","last_reported":1707358374,"current_range_meters":31200,"station_id":"ce4bgt92rcd13ifvqcg0","pricing_plan_id":"free"},{"bike_id":"5ef1d511-7c73-4a12-8a9b-f98d5b228b5f","system_id":"levelo_inurba_marseille","lat":43.311131,"lon":5.377651,"is_reserved":false,"is_disabled":false,"rental_uris":{"android":"levelo://app?vid=5ef1d511-7c73-4a12-8a9b-f98d5b228b5f","ios":"levelo://app?vid=5ef1d511-7c73-4a12-8a9b-f98d5b228b5f"},"vehicle_type_id":"4","last_reported":1707358374,"current_range_meters":22800,"station_id":"ce4bgt92rcd13ifvqcg0","pricing_plan_id":"free"},{"bike_id":"26f727fb-8aae-447b-8089-322bd437378f","system_id":"levelo_inurba_marseille","lat":43.31116,"lon":5.377642,"is_reserved":false,"is_disabled":false,"rental_uris":{"android":"levelo://app?vid=26f727fb-8aae-447b-8089-322bd437378f","ios":"levelo://app?vid=26f727fb-8aae-447b-8089-322bd437378f"},"vehicle_type_id":"4","last_reported":1707358374,"current_range_meters":17200,"station_id":"ce4bgt92rcd13ifvqcg0","pricing_plan_id":"free"},{"bike_id":"fd746d96-02d4-4723-8afb-33bda9dd5d78","system_id":"levelo_inurba_marseille","lat":43.311125,"lon":5.377624,"is_reserved":false,"is_disabled":false,"rental_uris":{"android":"levelo://app?vid=fd746d96-02d4-4723-8afb-33bda9dd5d78","ios":"levelo://app?vid=fd746d96-02d4-4723-8afb-33bda9dd5d78"},"vehicle_type_id":"4","last_reported":1707358374,"current_range_meters":28400,"station_id":"ce4bgt92rcd13ifvqcg0","pricing_plan_id":"free"},{"bike_id":"81979041-c2ef-4c72-a037-5fa94cb70df0","system_id":"levelo_inurba_marseille","lat":43.311131,"lon":5.377651,"is_reserved":false,"is_disabled":false,"rental_uris":{"android":"levelo://app?vid=81979041-c2ef-4c72-a037-5fa94cb70df0","ios":"levelo://app?vid=81979041-c2ef-4c72-a037-5fa94cb70df0"},"vehicle_type_id":"4","last_reported":1707358374,"current_range_meters":0,"station_id":"ce4bgt92rcd13ifvqcg0","pricing_plan_id":"free"},{"bike_id":"0ac9af8d-d5d4-4061-adc4-a9ada27760d4","system_id":"levelo_inurba_marseille","lat":43.311131,"lon":5.377651,"is_reserved":false,"is_disabled":false,"rental_uris":{"android":"levelo://app?vid=0ac9af8d-d5d4-4061-adc4-a9ada27760d4","ios":"levelo://app?vid=0ac9af8d-d5d4-4061-adc4-a9ada27760d4"},"vehicle_type_id":"4","last_reported":1707358374,"current_range_meters":18400,"station_id":"ce4bgt92rcd13ifvqcg0","pricing_plan_id":"free"},{"bike_id":"ee3be163-0809-4412-b601-d9a7282a5bbe","system_id":"levelo_inurba_marseille","lat":43.311131,"lon":5.377651,"is_reserved":false,"is_disabled":false,"rental_uris":{"android":"levelo://app?vid=ee3be163-0809-4412-b601-d9a7282a5bbe","ios":"levelo://app?vid=ee3be163-0809-4412-b601-d9a7282a5bbe"},"vehicle_type_id":"4","last_reported":1707358374,"current_range_meters":19600,"station_id":"ce4bgt92rcd13ifvqcg0","pricing_plan_id":"free"},{"bike_id":"1edf304f-86d8-4bac-815a-198bd989b76a","system_id":"levelo_inurba_marseille","lat":43.311131,"lon":5.377651,"is_reserved":false,"is_disabled":false,"rental_uris":{"android":"levelo://app?vid=1edf304f-86d8-4bac-815a-198bd989b76a","ios":"levelo://app?vid=1edf304f-86d8-4bac-815a-198bd989b76a"},"vehicle_type_id":"4","last_reported":1707358374,"current_range_meters":10400,"station_id":"ce4bgt92rcd13ifvqcg0","pricing_plan_id":"free"},{"bike_id":"fbbb94ff-c155-431e-829e-8d9b67104fa9","system_id":"levelo_inurba_marseille","lat":43.311125,"lon":5.377624,"is_reserved":false,"is_disabled":false,"rental_uris":{"android":"levelo://app?vid=fbbb94ff-c155-431e-829e-8d9b67104fa9","ios":"levelo://app?vid=fbbb94ff-c155-431e-829e-8d9b67104fa9"},"vehicle_type_id":"4","last_reported":1707358374,"current_range_meters":27600,"station_id":"ce4bgt92rcd13ifvqcg0","pricing_plan_id":"free"},{"bike_id":"2115dd1f-7cd9-4253-b0f3-d001e9751255","system_id":"levelo_inurba_marseille","lat":43.307945,"lon":5.376487,"is_reserved":false,"is_disabled":false,"rental_uris":{"android":"levelo://app?vid=2115dd1f-7cd9-4253-b0f3-d001e9751255","ios":"levelo://app?vid=2115dd1f-7cd9-4253-b0f3-d001e9751255"},"vehicle_type_id":"4","last_reported":1707358374,"current_range_meters":24800,"station_id":"ce4bgv92rcd13ifvqcq0","pricing_plan_id":"free"},{"bike_id":"87c72dd8-67bf-44ed-b685-b3826c2cf094","system_id":"levelo_inurba_marseille","lat":43.307945,"lon":5.376487,"is_reserved":false,"is_disabled":false,"rental_uris":{"android":"levelo://app?vid=87c72dd8-67bf-44ed-b685-b3826c2cf094","ios":"levelo://app?vid=87c72dd8-67bf-44ed-b685-b3826c2cf094"},"vehicle_type_id":"4","last_reported":1707358374,"current_range_meters":4800,"station_id":"ce4bgv92rcd13ifvqcq0","pricing_plan_id":"free"},{"bike_id":"9937762b-8eb6-4ef5-87da-c9896b2af489","system_id":"levelo_inurba_marseille","lat":43.307945,"lon":5.376487,"is_reserved":false,"is_disabled":false,"rental_uris":{"android":"levelo://app?vid=9937762b-8eb6-4ef5-87da-c9896b2af489","ios":"levelo://app?vid=9937762b-8eb6-4ef5-87da-c9896b2af489"},"vehicle_type_id":"4","last_reported":1707358374,"current_range_meters":5200,"station_id":"ce4bgv92rcd13ifvqcq0","pricing_plan_id":"free"},{"bike_id":"960ff665-92a2-43c4-8f04-e0fa47cbab2d","system_id":"levelo_inurba_marseille","lat":43.307945,"lon":5.376487,"is_reserved":false,"is_disabled":false,"rental_uris":{"android":"levelo://app?vid=960ff665-92a2-43c4-8f04-e0fa47cbab2d","ios":"levelo://app?vid=960ff665-92a2-43c4-8f04-e0fa47cbab2d"},"vehicle_type_id":"4","last_reported":1707358374,"current_range_meters":0,"station_id":"ce4bgv92rcd13ifvqcq0","pricing_plan_id":"free"},{"bike_id":"b48cd66c-c5f4-46ed-a137-9dcdea512bbf","system_id":"levelo_inurba_marseille","lat":43.307945,"lon":5.376487,"is_reserved":false,"is_disabled":false,"rental_uris":{"android":"levelo://app?vid=b48cd66c-c5f4-46ed-a137-9dcdea512bbf","ios":"levelo://app?vid=b48cd66c-c5f4-46ed-a137-9dcdea512bbf"},"vehicle_type_id":"4","last_reported":1707358374,"current_range_meters":26000,"station_id":"ce4bgv92rcd13ifvqcq0","pricing_plan_id":"free"},{"bike_id":"f0b73710-61ad-49ff-954a-f1ca710e2d23","system_id":"levelo_inurba_marseille","lat":43.307803,"lon":5.376511,"is_reserved":false,"is_disabled":false,"rental_uris":{"android":"levelo://app?vid=f0b73710-61ad-49ff-954a-f1ca710e2d23","ios":"levelo://app?vid=f0b73710-61ad-49ff-954a-f1ca710e2d23"},"vehicle_type_id":"4","last_reported":1707358374,"current_range_meters":27600,"station_id":"","pricing_plan_id":"free"},{"bike_id":"d9e46ebc-a7ae-4a20-88dd-467be2523366","system_id":"levelo_inurba_marseille","lat":43.307945,"lon":5.376487,"is_reserved":false,"is_disabled":false,"rental_uris":{"android":"levelo://app?vid=d9e46ebc-a7ae-4a20-88dd-467be2523366","ios":"levelo://app?vid=d9e46ebc-a7ae-4a20-88dd-467be2523366"},"vehicle_type_id":"4","last_reported":1707358374,"current_range_meters":8400,"station_id":"ce4bgv92rcd13ifvqcq0","pricing_plan_id":"free"},{"bike_id":"e7c73533-2cd6-4226-9b8f-686c5e09cf40","system_id":"levelo_inurba_marseille","lat":43.307945,"lon":5.376487,"is_reserved":false,"is_disabled":false,"rental_uris":{"android":"levelo://app?vid=e7c73533-2cd6-4226-9b8f-686c5e09cf40","ios":"levelo://app?vid=e7c73533-2cd6-4226-9b8f-686c5e09cf40"},"vehicle_type_id":"4","last_reported":1707358374,"current_range_meters":23600,"station_id":"ce4bgv92rcd13ifvqcq0","pricing_plan_id":"free"},{"bike_id":"a81193de-32f3-4a33-b708-cf1afb14cbfb","system_id":"levelo_inurba_marseille","lat":43.307945,"lon":5.376487,"is_reserved":false,"is_disabled":false,"rental_uris":{"android":"levelo://app?vid=a81193de-32f3-4a33-b708-cf1afb14cbfb","ios":"levelo://app?vid=a81193de-32f3-4a33-b708-cf1afb14cbfb"},"vehicle_type_id":"4","last_reported":1707358374,"current_range_meters":31600,"station_id":"ce4bgv92rcd13ifvqcq0","pricing_plan_id":"free"},{"bike_id":"a2fd21c4-b7ba-449c-a1c2-a98f97736c8b","system_id":"levelo_inurba_marseille","lat":43.307945,"lon":5.376487,"is_reserved":false,"is_disabled":false,"rental_uris":{"android":"levelo://app?vid=a2fd21c4-b7ba-449c-a1c2-a98f97736c8b","ios":"levelo://app?vid=a2fd21c4-b7ba-449c-a1c2-a98f97736c8b"},"vehicle_type_id":"4","last_reported":1707358374,"current_range_meters":13600,"station_id":"ce4bgv92rcd13ifvqcq0","pricing_plan_id":"free"},{"bike_id":"14c1d334-c1c1-46cc-aa52-38badce48665","system_id":"levelo_inurba_marseille","lat":43.317075,"lon":5.377367,"is_reserved":false,"is_disabled":false,"rental_uris":{"android":"levelo://app?vid=14c1d334-c1c1-46cc-aa52-38badce48665","ios":"levelo://app?vid=14c1d334-c1c1-46cc-aa52-38badce48665"},"vehicle_type_id":"4","last_reported":1707358374,"current_range_meters":30400,"station_id":"ce4bgth2rcd13ifvqch0","pricing_plan_id":"free"},{"bike_id":"0396867f-6c8d-40b5-b9dd-5c9e76a6fb0c","system_id":"levelo_inurba_marseille","lat":43.317075,"lon":5.377367,"is_reserved":false,"is_disabled":false,"rental_uris":{"android":"levelo://app?vid=0396867f-6c8d-40b5-b9dd-5c9e76a6fb0c","ios":"levelo://app?vid=0396867f-6c8d-40b5-b9dd-5c9e76a6fb0c"},"vehicle_type_id":"4","last_reported":1707358374,"current_range_meters":26400,"station_id":"ce4bgth2rcd13ifvqch0","pricing_plan_id":"free"},{"bike_id":"dca02982-a8ca-4f8f-99aa-c4c50c3dc6cf","system_id":"levelo_inurba_marseille","lat":43.322054,"lon":5.37024,"is_reserved":false,"is_disabled":false,"rental_uris":{"android":"levelo://app?vid=dca02982-a8ca-4f8f-99aa-c4c50c3dc6cf","ios":"levelo://app?vid=dca02982-a8ca-4f8f-99aa-c4c50c3dc6cf"},"vehicle_type_id":"4","last_reported":1707358374,"current_range_meters":30000,"station_id":"","pricing_plan_id":"free"},{"bike_id":"d6ca66df-60aa-4f32-9126-c269d2b65be2","system_id":"levelo_inurba_marseille","lat":43.30304,"lon":5.368987,"is_reserved":false,"is_disabled":false,"rental_uris":{"android":"levelo://app?vid=d6ca66df-60aa-4f32-9126-c269d2b65be2","ios":"levelo://app?vid=d6ca66df-60aa-4f32-9126-c269d2b65be2"},"vehicle_type_id":"4","last_reported":1707358374,"current_range_meters":26400,"station_id":"ce4bgqh2rcd13ifvqc5g","pricing_plan_id":"free"},{"bike_id":"d0de0dad-1024-4b05-a46e-fd058fe4e1fb","system_id":"levelo_inurba_marseille","lat":43.30304,"lon":5.368987,"is_reserved":false,"is_disabled":false,"rental_uris":{"android":"levelo://app?vid=d0de0dad-1024-4b05-a46e-fd058fe4e1fb","ios":"levelo://app?vid=d0de0dad-1024-4b05-a46e-fd058fe4e1fb"},"vehicle_type_id":"4","last_reported":1707358374,"current_range_meters":31200,"station_id":"ce4bgqh2rcd13ifvqc5g","pricing_plan_id":"free"},{"bike_id":"4815f675-b7a5-44ca-b1d2-37edf336b6de","system_id":"levelo_inurba_marseille","lat":43.303046,"lon":5.368981,"is_reserved":false,"is_disabled":false,"rental_uris":{"android":"levelo://app?vid=4815f675-b7a5-44ca-b1d2-37edf336b6de","ios":"levelo://app?vid=4815f675-b7a5-44ca-b1d2-37edf336b6de"},"vehicle_type_id":"4","last_reported":1707358374,"current_range_meters":15200,"station_id":"ce4bgqh2rcd13ifvqc5g","pricing_plan_id":"free"},{"bike_id":"e28d5fe7-c76d-4c3f-9175-d565910b2d36","system_id":"levelo_inurba_marseille","lat":43.30304,"lon":5.368987,"is_reserved":false,"is_disabled":false,"rental_uris":{"android":"levelo://app?vid=e28d5fe7-c76d-4c3f-9175-d565910b2d36","ios":"levelo://app?vid=e28d5fe7-c76d-4c3f-9175-d565910b2d36"},"vehicle_type_id":"4","last_reported":1707358374,"current_range_meters":21200,"station_id":"ce4bgqh2rcd13ifvqc5g","pricing_plan_id":"free"},{"bike_id":"17a82f80-4867-43c1-95f7-77649d07b813","system_id":"levelo_inurba_marseille","lat":43.315342,"lon":5.380271,"is_reserved":false,"is_disabled":false,"rental_uris":{"android":"levelo://app?vid=17a82f80-4867-43c1-95f7-77649d07b813","ios":"levelo://app?vid=17a82f80-4867-43c1-95f7-77649d07b813"},"vehicle_type_id":"4","last_reported":1707358374,"current_range_meters":28400,"station_id":"","pricing_plan_id":"free"},{"bike_id":"58fc6b5a-1e4d-4307-986c-f4e8e2da65e5","system_id":"levelo_inurba_marseille","lat":43.301939,"lon":5.366286,"is_reserved":false,"is_disabled":false,"rental_uris":{"android":"levelo://app?vid=58fc6b5a-1e4d-4307-986c-f4e8e2da65e5","ios":"levelo://app?vid=58fc6b5a-1e4d-4307-986c-f4e8e2da65e5"},"vehicle_type_id":"4","last_reported":1707358374,"current_range_meters":26800,"station_id":"ce4bgrh2rcd13ifvqc8g","pricing_plan_id":"free"},{"bike_id":"856aaa5a-0827-4f3d-bf0f-42e41348e805","system_id":"levelo_inurba_marseille","lat":43.308012,"lon":5.381511,"is_reserved":false,"is_disabled":false,"rental_uris":{"android":"levelo://app?vid=856aaa5a-0827-4f3d-bf0f-42e41348e805","ios":"levelo://app?vid=856aaa5a-0827-4f3d-bf0f-42e41348e805"},"vehicle_type_id":"4","last_reported":1707358374,"current_range_meters":10800,"station_id":"ce4bgt12rcd13ifvqce0","pricing_plan_id":"free"},{"bike_id":"c789ded4-0d21-4ac6-b2ae-034fb3b5b169","system_id":"levelo_inurba_marseille","lat":43.308012,"lon":5.381511,"is_reserved":false,"is_disabled":false,"rental_uris":{"android":"levelo://app?vid=c789ded4-0d21-4ac6-b2ae-034fb3b5b169","ios":"levelo://app?vid=c789ded4-0d21-4ac6-b2ae-034fb3b5b169"},"vehicle_type_id":"4","last_reported":1707358374,"current_range_meters":26800,"station_id":"ce4bgt12rcd13ifvqce0","pricing_plan_id":"free"},{"bike_id":"8759b8e0-7959-466b-8b4d-fa60cc639203","system_id":"levelo_inurba_marseille","lat":43.308012,"lon":5.381511,"is_reserved":false,"is_disabled":false,"rental_uris":{"android":"levelo://app?vid=8759b8e0-7959-466b-8b4d-fa60cc639203","ios":"levelo://app?vid=8759b8e0-7959-466b-8b4d-fa60cc639203"},"vehicle_type_id":"4","last_reported":1707358374,"current_range_meters":30400,"station_id":"ce4bgt12rcd13ifvqce0","pricing_plan_id":"free"},{"bike_id":"e3461dc3-3c0f-4fd5-b48a-c2b29f1b38be","system_id":"levelo_inurba_marseille","lat":43.308012,"lon":5.381511,"is_reserved":false,"is_disabled":false,"rental_uris":{"android":"levelo://app?vid=e3461dc3-3c0f-4fd5-b48a-c2b29f1b38be","ios":"levelo://app?vid=e3461dc3-3c0f-4fd5-b48a-c2b29f1b38be"},"vehicle_type_id":"4","last_reported":1707358374,"current_range_meters":22400,"station_id":"ce4bgt12rcd13ifvqce0","pricing_plan_id":"free"},{"bike_id":"9d6f2d6a-2ccc-4501-8056-aae1489f09dc","system_id":"levelo_inurba_marseille","lat":43.308012,"lon":5.381511,"is_reserved":false,"is_disabled":false,"rental_uris":{"android":"levelo://app?vid=9d6f2d6a-2ccc-4501-8056-aae1489f09dc","ios":"levelo://app?vid=9d6f2d6a-2ccc-4501-8056-aae1489f09dc"},"vehicle_type_id":"4","last_reported":1707358374,"current_range_meters":31200,"station_id":"ce4bgt12rcd13ifvqce0","pricing_plan_id":"free"},{"bike_id":"38db6f96-26ea-43c1-9db8-05d4bdae23b9","system_id":"levelo_inurba_marseille","lat":43.308012,"lon":5.381511,"is_reserved":false,"is_disabled":false,"rental_uris":{"android":"levelo://app?vid=38db6f96-26ea-43c1-9db8-05d4bdae23b9","ios":"levelo://app?vid=38db6f96-26ea-43c1-9db8-05d4bdae23b9"},"vehicle_type_id":"4","last_reported":1707358374,"current_range_meters":25600,"station_id":"ce4bgt12rcd13ifvqce0","pricing_plan_id":"free"},{"bike_id":"39d714a6-99b1-4ae7-ac3e-a6a5be857808","system_id":"levelo_inurba_marseille","lat":43.308012,"lon":5.381511,"is_reserved":false,"is_disabled":false,"rental_uris":{"android":"levelo://app?vid=39d714a6-99b1-4ae7-ac3e-a6a5be857808","ios":"levelo://app?vid=39d714a6-99b1-4ae7-ac3e-a6a5be857808"},"vehicle_type_id":"4","last_reported":1707358374,"current_range_meters":15600,"station_id":"ce4bgt12rcd13ifvqce0","pricing_plan_id":"free"},{"bike_id":"d3bbaa1c-bd42-4480-83af-1675f959224a","system_id":"levelo_inurba_marseille","lat":43.32268,"lon":5.376071,"is_reserved":false,"is_disabled":false,"rental_uris":{"android":"levelo://app?vid=d3bbaa1c-bd42-4480-83af-1675f959224a","ios":"levelo://app?vid=d3bbaa1c-bd42-4480-83af-1675f959224a"},"vehicle_type_id":"4","last_reported":1707358374,"current_range_meters":12800,"station_id":"","pricing_plan_id":"free"},{"bike_id":"4281f711-8929-40b8-a296-0bd6970c46da","system_id":"levelo_inurba_marseille","lat":43.304606,"lon":5.379026,"is_reserved":false,"is_disabled":false,"rental_uris":{"android":"levelo://app?vid=4281f711-8929-40b8-a296-0bd6970c46da","ios":"levelo://app?vid=4281f711-8929-40b8-a296-0bd6970c46da"},"vehicle_type_id":"4","last_reported":1707358374,"current_range_meters":11600,"station_id":"ce4bgup2rcd13ifvqcn0","pricing_plan_id":"free"},{"bike_id":"7569f4c4-2d60-4619-8f62-8551b1714a40","system_id":"levelo_inurba_marseille","lat":43.304606,"lon":5.379026,"is_reserved":false,"is_disabled":false,"rental_uris":{"android":"levelo://app?vid=7569f4c4-2d60-4619-8f62-8551b1714a40","ios":"levelo://app?vid=7569f4c4-2d60-4619-8f62-8551b1714a40"},"vehicle_type_id":"4","last_reported":1707358374,"current_range_meters":30000,"station_id":"ce4bgup2rcd13ifvqcn0","pricing_plan_id":"free"},{"bike_id":"91c66a19-a3c7-49c3-af5d-2beaa8d69313","system_id":"levelo_inurba_marseille","lat":43.324771,"lon":5.36557,"is_reserved":false,"is_disabled":false,"rental_uris":{"android":"levelo://app?vid=91c66a19-a3c7-49c3-af5d-2beaa8d69313","ios":"levelo://app?vid=91c66a19-a3c7-49c3-af5d-2beaa8d69313"},"vehicle_type_id":"4","last_reported":1707358374,"current_range_meters":12400,"station_id":"ce4bhs12rcd13ifvqhvg","pricing_plan_id":"free"},{"bike_id":"97f71f75-d414-4d74-9636-20377fab8590","system_id":"levelo_inurba_marseille","lat":43.324771,"lon":5.36557,"is_reserved":false,"is_disabled":false,"rental_uris":{"android":"levelo://app?vid=97f71f75-d414-4d74-9636-20377fab8590","ios":"levelo://app?vid=97f71f75-d414-4d74-9636-20377fab8590"},"vehicle_type_id":"4","last_reported":1707358374,"current_range_meters":24800,"station_id":"ce4bhs12rcd13ifvqhvg","pricing_plan_id":"free"},{"bike_id":"54816f03-0b1e-4fc0-91bf-20b8803389d5","system_id":"levelo_inurba_marseille","lat":43.324771,"lon":5.36557,"is_reserved":false,"is_disabled":false,"rental_uris":{"android":"levelo://app?vid=54816f03-0b1e-4fc0-91bf-20b8803389d5","ios":"levelo://app?vid=54816f03-0b1e-4fc0-91bf-20b8803389d5"},"vehicle_type_id":"4","last_reported":1707358374,"current_range_meters":2800,"station_id":"ce4bhs12rcd13ifvqhvg","pricing_plan_id":"free"},{"bike_id":"02c4093b-d4fb-4b05-92f8-24587293fbac","system_id":"levelo_inurba_marseille","lat":43.324771,"lon":5.36557,"is_reserved":false,"is_disabled":false,"rental_uris":{"android":"levelo://app?vid=02c4093b-d4fb-4b05-92f8-24587293fbac","ios":"levelo://app?vid=02c4093b-d4fb-4b05-92f8-24587293fbac"},"vehicle_type_id":"4","last_reported":1707358374,"current_range_meters":26000,"station_id":"ce4bhs12rcd13ifvqhvg","pricing_plan_id":"free"},{"bike_id":"5e3f4117-bf71-4295-8fac-b33a9c44e6b6","system_id":"levelo_inurba_marseille","lat":43.324771,"lon":5.36557,"is_reserved":false,"is_disabled":false,"rental_uris":{"android":"levelo://app?vid=5e3f4117-bf71-4295-8fac-b33a9c44e6b6","ios":"levelo://app?vid=5e3f4117-bf71-4295-8fac-b33a9c44e6b6"},"vehicle_type_id":"4","last_reported":1707358374,"current_range_meters":18000,"station_id":"ce4bhs12rcd13ifvqhvg","pricing_plan_id":"free"},{"bike_id":"605f62f9-77f8-4587-ab19-ffc1dab3756e","system_id":"levelo_inurba_marseille","lat":43.324771,"lon":5.36557,"is_reserved":false,"is_disabled":false,"rental_uris":{"android":"levelo://app?vid=605f62f9-77f8-4587-ab19-ffc1dab3756e","ios":"levelo://app?vid=605f62f9-77f8-4587-ab19-ffc1dab3756e"},"vehicle_type_id":"4","last_reported":1707358374,"current_range_meters":16800,"station_id":"ce4bhs12rcd13ifvqhvg","pricing_plan_id":"free"},{"bike_id":"b6e0ce65-b9f4-498b-bea2-56ffda238964","system_id":"levelo_inurba_marseille","lat":43.301429,"lon":5.37413,"is_reserved":false,"is_disabled":false,"rental_uris":{"android":"levelo://app?vid=b6e0ce65-b9f4-498b-bea2-56ffda238964","ios":"levelo://app?vid=b6e0ce65-b9f4-498b-bea2-56ffda238964"},"vehicle_type_id":"4","last_reported":1707358374,"current_range_meters":24800,"station_id":"ce4bgs92rcd13ifvqcc0","pricing_plan_id":"free"},{"bike_id":"487dba4f-f8c6-4852-9d62-a4f4ab5040bf","system_id":"levelo_inurba_marseille","lat":43.301429,"lon":5.37413,"is_reserved":false,"is_disabled":false,"rental_uris":{"android":"levelo://app?vid=487dba4f-f8c6-4852-9d62-a4f4ab5040bf","ios":"levelo://app?vid=487dba4f-f8c6-4852-9d62-a4f4ab5040bf"},"vehicle_type_id":"4","last_reported":1707358374,"current_range_meters":23600,"station_id":"ce4bgs92rcd13ifvqcc0","pricing_plan_id":"free"},{"bike_id":"c654e7a3-83e8-42f0-85e1-bb7b31eb46ef","system_id":"levelo_inurba_marseille","lat":43.301429,"lon":5.37413,"is_reserved":false,"is_disabled":false,"rental_uris":{"android":"levelo://app?vid=c654e7a3-83e8-42f0-85e1-bb7b31eb46ef","ios":"levelo://app?vid=c654e7a3-83e8-42f0-85e1-bb7b31eb46ef"},"vehicle_type_id":"4","last_reported":1707358374,"current_range_meters":24400,"station_id":"ce4bgs92rcd13ifvqcc0","pricing_plan_id":"free"},{"bike_id":"a7d1d3a9-9a82-464d-bae3-f51b93705576","system_id":"levelo_inurba_marseille","lat":43.319935,"lon":5.381699,"is_reserved":false,"is_disabled":false,"rental_uris":{"android":"levelo://app?vid=a7d1d3a9-9a82-464d-bae3-f51b93705576","ios":"levelo://app?vid=a7d1d3a9-9a82-464d-bae3-f51b93705576"},"vehicle_type_id":"4","last_reported":1707358374,"current_range_meters":3600,"station_id":"ce4bhr12rcd13ifvqhpg","pricing_plan_id":"free"},{"bike_id":"04a32a98-c3d3-419a-b904-635e2a76661f","system_id":"levelo_inurba_marseille","lat":43.313702,"lon":5.384836,"is_reserved":false,"is_disabled":false,"rental_uris":{"android":"levelo://app?vid=04a32a98-c3d3-419a-b904-635e2a76661f","ios":"levelo://app?vid=04a32a98-c3d3-419a-b904-635e2a76661f"},"vehicle_type_id":"4","last_reported":1707358374,"current_range_meters":4000,"station_id":"ce4bgt92rcd13ifvqcf0","pricing_plan_id":"free"},{"bike_id":"53e57525-e897-4eea-942d-fc011908c400","system_id":"levelo_inurba_marseille","lat":43.313571,"lon":5.384829,"is_reserved":false,"is_disabled":false,"rental_uris":{"android":"levelo://app?vid=53e57525-e897-4eea-942d-fc011908c400","ios":"levelo://app?vid=53e57525-e897-4eea-942d-fc011908c400"},"vehicle_type_id":"4","last_reported":1707358374,"current_range_meters":31200,"station_id":"ce4bgt92rcd13ifvqcf0","pricing_plan_id":"free"},{"bike_id":"b366291b-2bca-47dc-9cc0-e1dca181aef8","system_id":"levelo_inurba_marseille","lat":43.313571,"lon":5.384829,"is_reserved":false,"is_disabled":false,"rental_uris":{"android":"levelo://app?vid=b366291b-2bca-47dc-9cc0-e1dca181aef8","ios":"levelo://app?vid=b366291b-2bca-47dc-9cc0-e1dca181aef8"},"vehicle_type_id":"4","last_reported":1707358374,"current_range_meters":26400,"station_id":"ce4bgt92rcd13ifvqcf0","pricing_plan_id":"free"},{"bike_id":"6761cc69-ff41-4795-904a-67db3372a03e","system_id":"levelo_inurba_marseille","lat":43.313571,"lon":5.384829,"is_reserved":false,"is_disabled":false,"rental_uris":{"android":"levelo://app?vid=6761cc69-ff41-4795-904a-67db3372a03e","ios":"levelo://app?vid=6761cc69-ff41-4795-904a-67db3372a03e"},"vehicle_type_id":"4","last_reported":1707358374,"current_range_meters":31600,"station_id":"ce4bgt92rcd13ifvqcf0","pricing_plan_id":"free"},{"bike_id":"1ccb2b9d-61ec-4707-92bc-1ab6c91d8248","system_id":"levelo_inurba_marseille","lat":43.313571,"lon":5.384829,"is_reserved":false,"is_disabled":false,"rental_uris":{"android":"levelo://app?vid=1ccb2b9d-61ec-4707-92bc-1ab6c91d8248","ios":"levelo://app?vid=1ccb2b9d-61ec-4707-92bc-1ab6c91d8248"},"vehicle_type_id":"4","last_reported":1707358374,"current_range_meters":0,"station_id":"ce4bgt92rcd13ifvqcf0","pricing_plan_id":"free"},{"bike_id":"169dd49b-7967-4408-95b1-0871fdd46b70","system_id":"levelo_inurba_marseille","lat":43.313571,"lon":5.384829,"is_reserved":false,"is_disabled":false,"rental_uris":{"android":"levelo://app?vid=169dd49b-7967-4408-95b1-0871fdd46b70","ios":"levelo://app?vid=169dd49b-7967-4408-95b1-0871fdd46b70"},"vehicle_type_id":"4","last_reported":1707358374,"current_range_meters":6800,"station_id":"ce4bgt92rcd13ifvqcf0","pricing_plan_id":"free"},{"bike_id":"efd8305e-3b49-4179-a34f-b76a70f64350","system_id":"levelo_inurba_marseille","lat":43.313571,"lon":5.384829,"is_reserved":false,"is_disabled":false,"rental_uris":{"android":"levelo://app?vid=efd8305e-3b49-4179-a34f-b76a70f64350","ios":"levelo://app?vid=efd8305e-3b49-4179-a34f-b76a70f64350"},"vehicle_type_id":"4","last_reported":1707358374,"current_range_meters":20000,"station_id":"ce4bgt92rcd13ifvqcf0","pricing_plan_id":"free"},{"bike_id":"97865a24-23ac-41d1-ba7b-f75e89848a6d","system_id":"levelo_inurba_marseille","lat":43.313571,"lon":5.384829,"is_reserved":false,"is_disabled":false,"rental_uris":{"android":"levelo://app?vid=97865a24-23ac-41d1-ba7b-f75e89848a6d","ios":"levelo://app?vid=97865a24-23ac-41d1-ba7b-f75e89848a6d"},"vehicle_type_id":"4","last_reported":1707358374,"current_range_meters":27600,"station_id":"ce4bgt92rcd13ifvqcf0","pricing_plan_id":"free"},{"bike_id":"50e059b4-7379-4a1e-a700-65e68f57d483","system_id":"levelo_inurba_marseille","lat":43.299222,"lon":5.365554,"is_reserved":false,"is_disabled":false,"rental_uris":{"android":"levelo://app?vid=50e059b4-7379-4a1e-a700-65e68f57d483","ios":"levelo://app?vid=50e059b4-7379-4a1e-a700-65e68f57d483"},"vehicle_type_id":"4","last_reported":1707358374,"current_range_meters":5200,"station_id":"ce4bgm92rcd13ifvqbr0","pricing_plan_id":"free"},{"bike_id":"77fb68d4-c6cb-48d2-b3cc-ff68af9ecd3a","system_id":"levelo_inurba_marseille","lat":43.299222,"lon":5.365554,"is_reserved":false,"is_disabled":false,"rental_uris":{"android":"levelo://app?vid=77fb68d4-c6cb-48d2-b3cc-ff68af9ecd3a","ios":"levelo://app?vid=77fb68d4-c6cb-48d2-b3cc-ff68af9ecd3a"},"vehicle_type_id":"4","last_reported":1707358374,"current_range_meters":9600,"station_id":"ce4bgm92rcd13ifvqbr0","pricing_plan_id":"free"},{"bike_id":"6bcc03db-1f39-4135-938a-02693789dc8b","system_id":"levelo_inurba_marseille","lat":43.299724,"lon":5.371829,"is_reserved":false,"is_disabled":false,"rental_uris":{"android":"levelo://app?vid=6bcc03db-1f39-4135-938a-02693789dc8b","ios":"levelo://app?vid=6bcc03db-1f39-4135-938a-02693789dc8b"},"vehicle_type_id":"4","last_reported":1707358374,"current_range_meters":16400,"station_id":"ce4bgr92rcd13ifvqc7g","pricing_plan_id":"free"},{"bike_id":"d73908e2-2bfd-489b-804e-d4e95fac72d2","system_id":"levelo_inurba_marseille","lat":43.326525,"lon":5.36078,"is_reserved":false,"is_disabled":false,"rental_uris":{"android":"levelo://app?vid=d73908e2-2bfd-489b-804e-d4e95fac72d2","ios":"levelo://app?vid=d73908e2-2bfd-489b-804e-d4e95fac72d2"},"vehicle_type_id":"4","last_reported":1707358374,"current_range_meters":8400,"station_id":"","pricing_plan_id":"free"},{"bike_id":"748d70b7-618a-4e4b-a515-031cc5abb100","system_id":"levelo_inurba_marseille","lat":43.311868,"lon":5.387052,"is_reserved":false,"is_disabled":false,"rental_uris":{"android":"levelo://app?vid=748d70b7-618a-4e4b-a515-031cc5abb100","ios":"levelo://app?vid=748d70b7-618a-4e4b-a515-031cc5abb100"},"vehicle_type_id":"4","last_reported":1707358374,"current_range_meters":21600,"station_id":"ce4bgv12rcd13ifvqcp0","pricing_plan_id":"free"},{"bike_id":"76596deb-4640-49d4-ac7f-a1709eb97e07","system_id":"levelo_inurba_marseille","lat":43.311722,"lon":5.387247,"is_reserved":false,"is_disabled":false,"rental_uris":{"android":"levelo://app?vid=76596deb-4640-49d4-ac7f-a1709eb97e07","ios":"levelo://app?vid=76596deb-4640-49d4-ac7f-a1709eb97e07"},"vehicle_type_id":"4","last_reported":1707358374,"current_range_meters":27600,"station_id":"ce4bgv12rcd13ifvqcp0","pricing_plan_id":"free"},{"bike_id":"46edaf83-c8c4-451e-a858-cc79bd7aed06","system_id":"levelo_inurba_marseille","lat":43.31186,"lon":5.38709,"is_reserved":false,"is_disabled":false,"rental_uris":{"android":"levelo://app?vid=46edaf83-c8c4-451e-a858-cc79bd7aed06","ios":"levelo://app?vid=46edaf83-c8c4-451e-a858-cc79bd7aed06"},"vehicle_type_id":"4","last_reported":1707358374,"current_range_meters":22400,"station_id":"ce4bgv12rcd13ifvqcp0","pricing_plan_id":"free"},{"bike_id":"da5021f1-6ee7-4102-ba47-14890a840491","system_id":"levelo_inurba_marseille","lat":43.311722,"lon":5.387247,"is_reserved":false,"is_disabled":false,"rental_uris":{"android":"levelo://app?vid=da5021f1-6ee7-4102-ba47-14890a840491","ios":"levelo://app?vid=da5021f1-6ee7-4102-ba47-14890a840491"},"vehicle_type_id":"4","last_reported":1707358374,"current_range_meters":26800,"station_id":"ce4bgv12rcd13ifvqcp0","pricing_plan_id":"free"},{"bike_id":"8b49e9f4-8ca4-4d90-9a2b-d4c76f3ff7d6","system_id":"levelo_inurba_marseille","lat":43.311722,"lon":5.387247,"is_reserved":false,"is_disabled":false,"rental_uris":{"android":"levelo://app?vid=8b49e9f4-8ca4-4d90-9a2b-d4c76f3ff7d6","ios":"levelo://app?vid=8b49e9f4-8ca4-4d90-9a2b-d4c76f3ff7d6"},"vehicle_type_id":"4","last_reported":1707358374,"current_range_meters":28000,"station_id":"ce4bgv12rcd13ifvqcp0","pricing_plan_id":"free"},{"bike_id":"cb9237ab-ef7b-4cf7-8d5a-eb2cd9efa6ca","system_id":"levelo_inurba_marseille","lat":43.311722,"lon":5.387247,"is_reserved":false,"is_disabled":false,"rental_uris":{"android":"levelo://app?vid=cb9237ab-ef7b-4cf7-8d5a-eb2cd9efa6ca","ios":"levelo://app?vid=cb9237ab-ef7b-4cf7-8d5a-eb2cd9efa6ca"},"vehicle_type_id":"4","last_reported":1707358374,"current_range_meters":30800,"station_id":"ce4bgv12rcd13ifvqcp0","pricing_plan_id":"free"},{"bike_id":"cb8a9910-9fd9-4723-8b0f-29e12699e030","system_id":"levelo_inurba_marseille","lat":43.311722,"lon":5.387247,"is_reserved":false,"is_disabled":false,"rental_uris":{"android":"levelo://app?vid=cb8a9910-9fd9-4723-8b0f-29e12699e030","ios":"levelo://app?vid=cb8a9910-9fd9-4723-8b0f-29e12699e030"},"vehicle_type_id":"4","last_reported":1707358374,"current_range_meters":22000,"station_id":"ce4bgv12rcd13ifvqcp0","pricing_plan_id":"free"},{"bike_id":"03229d62-d9c1-4dbb-a939-49cba5007b6d","system_id":"levelo_inurba_marseille","lat":43.311722,"lon":5.387247,"is_reserved":false,"is_disabled":false,"rental_uris":{"android":"levelo://app?vid=03229d62-d9c1-4dbb-a939-49cba5007b6d","ios":"levelo://app?vid=03229d62-d9c1-4dbb-a939-49cba5007b6d"},"vehicle_type_id":"4","last_reported":1707358374,"current_range_meters":31200,"station_id":"ce4bgv12rcd13ifvqcp0","pricing_plan_id":"free"},{"bike_id":"e437535a-94f1-481a-a0ae-8c4e50615388","system_id":"levelo_inurba_marseille","lat":43.299243,"lon":5.37481,"is_reserved":false,"is_disabled":false,"rental_uris":{"android":"levelo://app?vid=e437535a-94f1-481a-a0ae-8c4e50615388","ios":"levelo://app?vid=e437535a-94f1-481a-a0ae-8c4e50615388"},"vehicle_type_id":"4","last_reported":1707358374,"current_range_meters":24000,"station_id":"ce4bgjh2rcd13ifvqbg0","pricing_plan_id":"free"},{"bike_id":"db4455b1-5567-406c-9bcd-848b4797ac07","system_id":"levelo_inurba_marseille","lat":43.311722,"lon":5.387247,"is_reserved":false,"is_disabled":false,"rental_uris":{"android":"levelo://app?vid=db4455b1-5567-406c-9bcd-848b4797ac07","ios":"levelo://app?vid=db4455b1-5567-406c-9bcd-848b4797ac07"},"vehicle_type_id":"4","last_reported":1707358374,"current_range_meters":0,"station_id":"ce4bgv12rcd13ifvqcp0","pricing_plan_id":"free"},{"bike_id":"25141550-2567-4935-b295-36d71e606342","system_id":"levelo_inurba_marseille","lat":43.311722,"lon":5.387247,"is_reserved":false,"is_disabled":false,"rental_uris":{"android":"levelo://app?vid=25141550-2567-4935-b295-36d71e606342","ios":"levelo://app?vid=25141550-2567-4935-b295-36d71e606342"},"vehicle_type_id":"4","last_reported":1707358374,"current_range_meters":22000,"station_id":"ce4bgv12rcd13ifvqcp0","pricing_plan_id":"free"},{"bike_id":"7cf05205-84ba-4977-827e-54edf3a2791f","system_id":"levelo_inurba_marseille","lat":43.311722,"lon":5.387247,"is_reserved":false,"is_disabled":false,"rental_uris":{"android":"levelo://app?vid=7cf05205-84ba-4977-827e-54edf3a2791f","ios":"levelo://app?vid=7cf05205-84ba-4977-827e-54edf3a2791f"},"vehicle_type_id":"4","last_reported":1707358374,"current_range_meters":9200,"station_id":"ce4bgv12rcd13ifvqcp0","pricing_plan_id":"free"},{"bike_id":"72871506-5c8d-4246-b6ff-5c1fd4ecd534","system_id":"levelo_inurba_marseille","lat":43.322877,"lon":5.382681,"is_reserved":false,"is_disabled":false,"rental_uris":{"android":"levelo://app?vid=72871506-5c8d-4246-b6ff-5c1fd4ecd534","ios":"levelo://app?vid=72871506-5c8d-4246-b6ff-5c1fd4ecd534"},"vehicle_type_id":"4","last_reported":1707358374,"current_range_meters":23200,"station_id":"ce4bhr12rcd13ifvqhqg","pricing_plan_id":"free"},{"bike_id":"7e1b2a77-71b5-4003-b54e-450ad3f3f9d1","system_id":"levelo_inurba_marseille","lat":43.322872,"lon":5.382756,"is_reserved":false,"is_disabled":false,"rental_uris":{"android":"levelo://app?vid=7e1b2a77-71b5-4003-b54e-450ad3f3f9d1","ios":"levelo://app?vid=7e1b2a77-71b5-4003-b54e-450ad3f3f9d1"},"vehicle_type_id":"4","last_reported":1707358374,"current_range_meters":31200,"station_id":"ce4bhr12rcd13ifvqhqg","pricing_plan_id":"free"},{"bike_id":"eefe6e9a-bb51-44f7-a644-f94de5a43093","system_id":"levelo_inurba_marseille","lat":43.322872,"lon":5.382756,"is_reserved":false,"is_disabled":false,"rental_uris":{"android":"levelo://app?vid=eefe6e9a-bb51-44f7-a644-f94de5a43093","ios":"levelo://app?vid=eefe6e9a-bb51-44f7-a644-f94de5a43093"},"vehicle_type_id":"4","last_reported":1707358374,"current_range_meters":27600,"station_id":"ce4bhr12rcd13ifvqhqg","pricing_plan_id":"free"},{"bike_id":"e89be0ea-23aa-420a-ade4-64dabef6c3f8","system_id":"levelo_inurba_marseille","lat":43.328371,"lon":5.366909,"is_reserved":false,"is_disabled":false,"rental_uris":{"android":"levelo://app?vid=e89be0ea-23aa-420a-ade4-64dabef6c3f8","ios":"levelo://app?vid=e89be0ea-23aa-420a-ade4-64dabef6c3f8"},"vehicle_type_id":"4","last_reported":1707358374,"current_range_meters":31200,"station_id":"ce4bhs92rcd13ifvqi0g","pricing_plan_id":"free"},{"bike_id":"34590167-fe14-46fb-865e-25a9200f8af6","system_id":"levelo_inurba_marseille","lat":43.328271,"lon":5.3669,"is_reserved":false,"is_disabled":false,"rental_uris":{"android":"levelo://app?vid=34590167-fe14-46fb-865e-25a9200f8af6","ios":"levelo://app?vid=34590167-fe14-46fb-865e-25a9200f8af6"},"vehicle_type_id":"4","last_reported":1707358374,"current_range_meters":16400,"station_id":"ce4bhs92rcd13ifvqi0g","pricing_plan_id":"free"},{"bike_id":"a7419435-a9ed-4605-8cb8-2d126ac84fda","system_id":"levelo_inurba_marseille","lat":43.328371,"lon":5.366909,"is_reserved":false,"is_disabled":false,"rental_uris":{"android":"levelo://app?vid=a7419435-a9ed-4605-8cb8-2d126ac84fda","ios":"levelo://app?vid=a7419435-a9ed-4605-8cb8-2d126ac84fda"},"vehicle_type_id":"4","last_reported":1707358374,"current_range_meters":8400,"station_id":"ce4bhs92rcd13ifvqi0g","pricing_plan_id":"free"},{"bike_id":"443158a4-b2d1-4f72-871e-cb6ab69b2349","system_id":"levelo_inurba_marseille","lat":43.328371,"lon":5.366909,"is_reserved":false,"is_disabled":false,"rental_uris":{"android":"levelo://app?vid=443158a4-b2d1-4f72-871e-cb6ab69b2349","ios":"levelo://app?vid=443158a4-b2d1-4f72-871e-cb6ab69b2349"},"vehicle_type_id":"4","last_reported":1707358374,"current_range_meters":14800,"station_id":"ce4bhs92rcd13ifvqi0g","pricing_plan_id":"free"},{"bike_id":"1cd2b7d9-50ea-40ac-8d99-f4a9cffaf5b6","system_id":"levelo_inurba_marseille","lat":43.299028,"lon":5.381509,"is_reserved":false,"is_disabled":false,"rental_uris":{"android":"levelo://app?vid=1cd2b7d9-50ea-40ac-8d99-f4a9cffaf5b6","ios":"levelo://app?vid=1cd2b7d9-50ea-40ac-8d99-f4a9cffaf5b6"},"vehicle_type_id":"4","last_reported":1707358374,"current_range_meters":26000,"station_id":"ce4bgj12rcd13ifvqbc0","pricing_plan_id":"free"},{"bike_id":"b393e380-9b9a-4239-8934-e30e3f7bac4e","system_id":"levelo_inurba_marseille","lat":43.317341,"lon":5.39004,"is_reserved":false,"is_disabled":false,"rental_uris":{"android":"levelo://app?vid=b393e380-9b9a-4239-8934-e30e3f7bac4e","ios":"levelo://app?vid=b393e380-9b9a-4239-8934-e30e3f7bac4e"},"vehicle_type_id":"4","last_reported":1707358374,"current_range_meters":9200,"station_id":"ce4bhqp2rcd13ifvqhng","pricing_plan_id":"free"},{"bike_id":"a65680f1-b3cf-4a61-b0ee-2a9e0277a0af","system_id":"levelo_inurba_marseille","lat":43.317573,"lon":5.390138,"is_reserved":false,"is_disabled":false,"rental_uris":{"android":"levelo://app?vid=a65680f1-b3cf-4a61-b0ee-2a9e0277a0af","ios":"levelo://app?vid=a65680f1-b3cf-4a61-b0ee-2a9e0277a0af"},"vehicle_type_id":"4","last_reported":1707358374,"current_range_meters":11200,"station_id":"ce4bhqp2rcd13ifvqhng","pricing_plan_id":"free"},{"bike_id":"b6c1c1be-a5aa-4d5d-89a2-fd3b94ed18a1","system_id":"levelo_inurba_marseille","lat":43.317557,"lon":5.390173,"is_reserved":false,"is_disabled":false,"rental_uris":{"android":"levelo://app?vid=b6c1c1be-a5aa-4d5d-89a2-fd3b94ed18a1","ios":"levelo://app?vid=b6c1c1be-a5aa-4d5d-89a2-fd3b94ed18a1"},"vehicle_type_id":"4","last_reported":1707358374,"current_range_meters":17200,"station_id":"ce4bhqp2rcd13ifvqhng","pricing_plan_id":"free"},{"bike_id":"3ccd3931-8811-4b7f-a846-c32a0a6915a2","system_id":"levelo_inurba_marseille","lat":43.317557,"lon":5.390173,"is_reserved":false,"is_disabled":false,"rental_uris":{"android":"levelo://app?vid=3ccd3931-8811-4b7f-a846-c32a0a6915a2","ios":"levelo://app?vid=3ccd3931-8811-4b7f-a846-c32a0a6915a2"},"vehicle_type_id":"4","last_reported":1707358374,"current_range_meters":28400,"station_id":"ce4bhqp2rcd13ifvqhng","pricing_plan_id":"free"},{"bike_id":"36530bef-b0a9-4557-bc82-752d439888bc","system_id":"levelo_inurba_marseille","lat":43.31758,"lon":5.39016,"is_reserved":false,"is_disabled":false,"rental_uris":{"android":"levelo://app?vid=36530bef-b0a9-4557-bc82-752d439888bc","ios":"levelo://app?vid=36530bef-b0a9-4557-bc82-752d439888bc"},"vehicle_type_id":"4","last_reported":1707358374,"current_range_meters":13200,"station_id":"ce4bhqp2rcd13ifvqhng","pricing_plan_id":"free"},{"bike_id":"8236458b-34ca-49b5-ab60-c4f12ac61945","system_id":"levelo_inurba_marseille","lat":43.317579,"lon":5.390161,"is_reserved":false,"is_disabled":false,"rental_uris":{"android":"levelo://app?vid=8236458b-34ca-49b5-ab60-c4f12ac61945","ios":"levelo://app?vid=8236458b-34ca-49b5-ab60-c4f12ac61945"},"vehicle_type_id":"4","last_reported":1707358374,"current_range_meters":9200,"station_id":"ce4bhqp2rcd13ifvqhng","pricing_plan_id":"free"},{"bike_id":"f9e71f25-83c3-4ad2-95f8-b63267492ced","system_id":"levelo_inurba_marseille","lat":43.317557,"lon":5.390173,"is_reserved":false,"is_disabled":false,"rental_uris":{"android":"levelo://app?vid=f9e71f25-83c3-4ad2-95f8-b63267492ced","ios":"levelo://app?vid=f9e71f25-83c3-4ad2-95f8-b63267492ced"},"vehicle_type_id":"4","last_reported":1707358374,"current_range_meters":26000,"station_id":"ce4bhqp2rcd13ifvqhng","pricing_plan_id":"free"},{"bike_id":"5803286d-bc09-4cb9-b050-80f335e1e221","system_id":"levelo_inurba_marseille","lat":43.317557,"lon":5.390173,"is_reserved":false,"is_disabled":false,"rental_uris":{"android":"levelo://app?vid=5803286d-bc09-4cb9-b050-80f335e1e221","ios":"levelo://app?vid=5803286d-bc09-4cb9-b050-80f335e1e221"},"vehicle_type_id":"4","last_reported":1707358374,"current_range_meters":20000,"station_id":"ce4bhqp2rcd13ifvqhng","pricing_plan_id":"free"},{"bike_id":"28bba395-38ae-46b0-8bda-5604032e994c","system_id":"levelo_inurba_marseille","lat":43.31757,"lon":5.39027,"is_reserved":false,"is_disabled":false,"rental_uris":{"android":"levelo://app?vid=28bba395-38ae-46b0-8bda-5604032e994c","ios":"levelo://app?vid=28bba395-38ae-46b0-8bda-5604032e994c"},"vehicle_type_id":"4","last_reported":1707358374,"current_range_meters":13600,"station_id":"ce4bhqp2rcd13ifvqhng","pricing_plan_id":"free"},{"bike_id":"fc276ed7-a65b-4dfd-85ca-e57d999ca381","system_id":"levelo_inurba_marseille","lat":43.298137,"lon":5.380971,"is_reserved":false,"is_disabled":false,"rental_uris":{"android":"levelo://app?vid=fc276ed7-a65b-4dfd-85ca-e57d999ca381","ios":"levelo://app?vid=fc276ed7-a65b-4dfd-85ca-e57d999ca381"},"vehicle_type_id":"4","last_reported":1707358374,"current_range_meters":28400,"station_id":"ce4bgip2rcd13ifvqbb0","pricing_plan_id":"free"},{"bike_id":"9eb90190-32f1-4e9d-95cd-c95c767e807b","system_id":"levelo_inurba_marseille","lat":43.304367,"lon":5.388835,"is_reserved":false,"is_disabled":false,"rental_uris":{"android":"levelo://app?vid=9eb90190-32f1-4e9d-95cd-c95c767e807b","ios":"levelo://app?vid=9eb90190-32f1-4e9d-95cd-c95c767e807b"},"vehicle_type_id":"4","last_reported":1707358374,"current_range_meters":20400,"station_id":"ce4bgk12rcd13ifvqbi0","pricing_plan_id":"free"},{"bike_id":"44b95b92-2f05-4a35-a5df-cb84d7c6365a","system_id":"levelo_inurba_marseille","lat":43.304334,"lon":5.388837,"is_reserved":false,"is_disabled":false,"rental_uris":{"android":"levelo://app?vid=44b95b92-2f05-4a35-a5df-cb84d7c6365a","ios":"levelo://app?vid=44b95b92-2f05-4a35-a5df-cb84d7c6365a"},"vehicle_type_id":"4","last_reported":1707358374,"current_range_meters":23200,"station_id":"ce4bgk12rcd13ifvqbi0","pricing_plan_id":"free"},{"bike_id":"bdcbd8ea-aa3f-4f24-9764-4a6282155371","system_id":"levelo_inurba_marseille","lat":43.30439,"lon":5.38892,"is_reserved":false,"is_disabled":false,"rental_uris":{"android":"levelo://app?vid=bdcbd8ea-aa3f-4f24-9764-4a6282155371","ios":"levelo://app?vid=bdcbd8ea-aa3f-4f24-9764-4a6282155371"},"vehicle_type_id":"4","last_reported":1707358374,"current_range_meters":3600,"station_id":"ce4bgk12rcd13ifvqbi0","pricing_plan_id":"free"},{"bike_id":"9d9937ab-7ef1-493d-b22f-27e972dced55","system_id":"levelo_inurba_marseille","lat":43.304274,"lon":5.388873,"is_reserved":false,"is_disabled":false,"rental_uris":{"android":"levelo://app?vid=9d9937ab-7ef1-493d-b22f-27e972dced55","ios":"levelo://app?vid=9d9937ab-7ef1-493d-b22f-27e972dced55"},"vehicle_type_id":"4","last_reported":1707358374,"current_range_meters":25200,"station_id":"ce4bgk12rcd13ifvqbi0","pricing_plan_id":"free"},{"bike_id":"e670fbf7-7a4a-40c4-a883-d39222ddfc83","system_id":"levelo_inurba_marseille","lat":43.304274,"lon":5.388873,"is_reserved":false,"is_disabled":false,"rental_uris":{"android":"levelo://app?vid=e670fbf7-7a4a-40c4-a883-d39222ddfc83","ios":"levelo://app?vid=e670fbf7-7a4a-40c4-a883-d39222ddfc83"},"vehicle_type_id":"4","last_reported":1707358374,"current_range_meters":18400,"station_id":"ce4bgk12rcd13ifvqbi0","pricing_plan_id":"free"},{"bike_id":"b9c75418-c502-43a3-a6e5-8a6f75a70676","system_id":"levelo_inurba_marseille","lat":43.297672,"lon":5.380851,"is_reserved":false,"is_disabled":false,"rental_uris":{"android":"levelo://app?vid=b9c75418-c502-43a3-a6e5-8a6f75a70676","ios":"levelo://app?vid=b9c75418-c502-43a3-a6e5-8a6f75a70676"},"vehicle_type_id":"4","last_reported":1707358374,"current_range_meters":9600,"station_id":"ce4bgip2rcd13ifvqbb0","pricing_plan_id":"free"},{"bike_id":"52ca33a2-f537-4779-906d-8021ef140460","system_id":"levelo_inurba_marseille","lat":43.30423,"lon":5.38899,"is_reserved":false,"is_disabled":false,"rental_uris":{"android":"levelo://app?vid=52ca33a2-f537-4779-906d-8021ef140460","ios":"levelo://app?vid=52ca33a2-f537-4779-906d-8021ef140460"},"vehicle_type_id":"4","last_reported":1707358374,"current_range_meters":0,"station_id":"ce4bgk12rcd13ifvqbi0","pricing_plan_id":"free"},{"bike_id":"b87b8ed6-99c6-4490-aecd-e7ad4711b363","system_id":"levelo_inurba_marseille","lat":43.3042,"lon":5.38904,"is_reserved":false,"is_disabled":false,"rental_uris":{"android":"levelo://app?vid=b87b8ed6-99c6-4490-aecd-e7ad4711b363","ios":"levelo://app?vid=b87b8ed6-99c6-4490-aecd-e7ad4711b363"},"vehicle_type_id":"4","last_reported":1707358374,"current_range_meters":14000,"station_id":"ce4bgk12rcd13ifvqbi0","pricing_plan_id":"free"},{"bike_id":"04cb7eff-1647-4470-9653-33a67422113b","system_id":"levelo_inurba_marseille","lat":43.309047,"lon":5.396551,"is_reserved":false,"is_disabled":false,"rental_uris":{"android":"levelo://app?vid=04cb7eff-1647-4470-9653-33a67422113b","ios":"levelo://app?vid=04cb7eff-1647-4470-9653-33a67422113b"},"vehicle_type_id":"4","last_reported":1707358374,"current_range_meters":0,"station_id":"ce4bh012rcd13ifvqcv0","pricing_plan_id":"free"},{"bike_id":"55769c3e-d570-4ade-829b-4a0316d221aa","system_id":"levelo_inurba_marseille","lat":43.32358,"lon":5.3888,"is_reserved":false,"is_disabled":false,"rental_uris":{"android":"levelo://app?vid=55769c3e-d570-4ade-829b-4a0316d221aa","ios":"levelo://app?vid=55769c3e-d570-4ade-829b-4a0316d221aa"},"vehicle_type_id":"4","last_reported":1707358374,"current_range_meters":17200,"station_id":"ce4bhqp2rcd13ifvqhog","pricing_plan_id":"free"},{"bike_id":"5e50ee70-3337-4b6e-b826-f714f66407b2","system_id":"levelo_inurba_marseille","lat":43.32358,"lon":5.38882,"is_reserved":false,"is_disabled":false,"rental_uris":{"android":"levelo://app?vid=5e50ee70-3337-4b6e-b826-f714f66407b2","ios":"levelo://app?vid=5e50ee70-3337-4b6e-b826-f714f66407b2"},"vehicle_type_id":"4","last_reported":1707358374,"current_range_meters":16000,"station_id":"ce4bhqp2rcd13ifvqhog","pricing_plan_id":"free"},{"bike_id":"cc6530d2-5676-4593-9ee5-59ecbcd8f6a5","system_id":"levelo_inurba_marseille","lat":43.323619,"lon":5.388819,"is_reserved":false,"is_disabled":false,"rental_uris":{"android":"levelo://app?vid=cc6530d2-5676-4593-9ee5-59ecbcd8f6a5","ios":"levelo://app?vid=cc6530d2-5676-4593-9ee5-59ecbcd8f6a5"},"vehicle_type_id":"4","last_reported":1707358374,"current_range_meters":17600,"station_id":"ce4bhqp2rcd13ifvqhog","pricing_plan_id":"free"},{"bike_id":"a08a26fe-546a-4630-aced-98e496243792","system_id":"levelo_inurba_marseille","lat":43.32363,"lon":5.38881,"is_reserved":false,"is_disabled":false,"rental_uris":{"android":"levelo://app?vid=a08a26fe-546a-4630-aced-98e496243792","ios":"levelo://app?vid=a08a26fe-546a-4630-aced-98e496243792"},"vehicle_type_id":"4","last_reported":1707358374,"current_range_meters":21200,"station_id":"ce4bhqp2rcd13ifvqhog","pricing_plan_id":"free"},{"bike_id":"27e7d923-81e0-4c18-9a4b-aeb5de43f55c","system_id":"levelo_inurba_marseille","lat":43.32364,"lon":5.38881,"is_reserved":false,"is_disabled":false,"rental_uris":{"android":"levelo://app?vid=27e7d923-81e0-4c18-9a4b-aeb5de43f55c","ios":"levelo://app?vid=27e7d923-81e0-4c18-9a4b-aeb5de43f55c"},"vehicle_type_id":"4","last_reported":1707358374,"current_range_meters":12000,"station_id":"ce4bhqp2rcd13ifvqhog","pricing_plan_id":"free"},{"bike_id":"e46e8ff3-6efb-422c-88bb-36c5e9ce66e4","system_id":"levelo_inurba_marseille","lat":43.323624,"lon":5.388834,"is_reserved":false,"is_disabled":false,"rental_uris":{"android":"levelo://app?vid=e46e8ff3-6efb-422c-88bb-36c5e9ce66e4","ios":"levelo://app?vid=e46e8ff3-6efb-422c-88bb-36c5e9ce66e4"},"vehicle_type_id":"4","last_reported":1707358374,"current_range_meters":16400,"station_id":"ce4bhqp2rcd13ifvqhog","pricing_plan_id":"free"},{"bike_id":"69e0ab03-3f4e-4375-b305-57e86da379c2","system_id":"levelo_inurba_marseille","lat":43.32364,"lon":5.38883,"is_reserved":false,"is_disabled":false,"rental_uris":{"android":"levelo://app?vid=69e0ab03-3f4e-4375-b305-57e86da379c2","ios":"levelo://app?vid=69e0ab03-3f4e-4375-b305-57e86da379c2"},"vehicle_type_id":"4","last_reported":1707358374,"current_range_meters":23600,"station_id":"ce4bhqp2rcd13ifvqhog","pricing_plan_id":"free"},{"bike_id":"1518e53d-eb94-4406-bc34-6493c7c75fd6","system_id":"levelo_inurba_marseille","lat":43.32364,"lon":5.38885,"is_reserved":false,"is_disabled":false,"rental_uris":{"android":"levelo://app?vid=1518e53d-eb94-4406-bc34-6493c7c75fd6","ios":"levelo://app?vid=1518e53d-eb94-4406-bc34-6493c7c75fd6"},"vehicle_type_id":"4","last_reported":1707358374,"current_range_meters":22800,"station_id":"ce4bhqp2rcd13ifvqhog","pricing_plan_id":"free"},{"bike_id":"606777c4-4d1f-4822-a9c7-ca190e9d7ac9","system_id":"levelo_inurba_marseille","lat":43.32365,"lon":5.38886,"is_reserved":false,"is_disabled":false,"rental_uris":{"android":"levelo://app?vid=606777c4-4d1f-4822-a9c7-ca190e9d7ac9","ios":"levelo://app?vid=606777c4-4d1f-4822-a9c7-ca190e9d7ac9"},"vehicle_type_id":"4","last_reported":1707358374,"current_range_meters":27600,"station_id":"ce4bhqp2rcd13ifvqhog","pricing_plan_id":"free"},{"bike_id":"2699b29a-e584-4936-892c-96f311fc0314","system_id":"levelo_inurba_marseille","lat":43.32364,"lon":5.388873,"is_reserved":false,"is_disabled":false,"rental_uris":{"android":"levelo://app?vid=2699b29a-e584-4936-892c-96f311fc0314","ios":"levelo://app?vid=2699b29a-e584-4936-892c-96f311fc0314"},"vehicle_type_id":"4","last_reported":1707358374,"current_range_meters":28400,"station_id":"ce4bhqp2rcd13ifvqhog","pricing_plan_id":"free"},{"bike_id":"58ce6322-a791-48f0-8bcc-95a1314180fc","system_id":"levelo_inurba_marseille","lat":43.29543,"lon":5.38168,"is_reserved":false,"is_disabled":false,"rental_uris":{"android":"levelo://app?vid=58ce6322-a791-48f0-8bcc-95a1314180fc","ios":"levelo://app?vid=58ce6322-a791-48f0-8bcc-95a1314180fc"},"vehicle_type_id":"4","last_reported":1707358374,"current_range_meters":4000,"station_id":"","pricing_plan_id":"free"},{"bike_id":"e78db64e-4614-425d-b6bd-44b8a9ad86bf","system_id":"levelo_inurba_marseille","lat":43.305931,"lon":5.393468,"is_reserved":false,"is_disabled":false,"rental_uris":{"android":"levelo://app?vid=e78db64e-4614-425d-b6bd-44b8a9ad86bf","ios":"levelo://app?vid=e78db64e-4614-425d-b6bd-44b8a9ad86bf"},"vehicle_type_id":"4","last_reported":1707358374,"current_range_meters":27200,"station_id":"ce4bh0p2rcd13ifvqd80","pricing_plan_id":"free"},{"bike_id":"6d06211f-c234-4938-890f-f52c3fe1780f","system_id":"levelo_inurba_marseille","lat":43.306019,"lon":5.393512,"is_reserved":false,"is_disabled":false,"rental_uris":{"android":"levelo://app?vid=6d06211f-c234-4938-890f-f52c3fe1780f","ios":"levelo://app?vid=6d06211f-c234-4938-890f-f52c3fe1780f"},"vehicle_type_id":"4","last_reported":1707358374,"current_range_meters":10000,"station_id":"ce4bh0p2rcd13ifvqd80","pricing_plan_id":"free"},{"bike_id":"e032f247-41c4-4e1d-93cb-a91f4631a3da","system_id":"levelo_inurba_marseille","lat":43.30593,"lon":5.39351,"is_reserved":false,"is_disabled":false,"rental_uris":{"android":"levelo://app?vid=e032f247-41c4-4e1d-93cb-a91f4631a3da","ios":"levelo://app?vid=e032f247-41c4-4e1d-93cb-a91f4631a3da"},"vehicle_type_id":"4","last_reported":1707358374,"current_range_meters":5600,"station_id":"ce4bh0p2rcd13ifvqd80","pricing_plan_id":"free"},{"bike_id":"e2ea60f4-4535-4e95-ac5b-7be869e36f2e","system_id":"levelo_inurba_marseille","lat":43.305994,"lon":5.393687,"is_reserved":false,"is_disabled":false,"rental_uris":{"android":"levelo://app?vid=e2ea60f4-4535-4e95-ac5b-7be869e36f2e","ios":"levelo://app?vid=e2ea60f4-4535-4e95-ac5b-7be869e36f2e"},"vehicle_type_id":"4","last_reported":1707358374,"current_range_meters":24800,"station_id":"ce4bh0p2rcd13ifvqd80","pricing_plan_id":"free"},{"bike_id":"fe715ea0-e381-4b87-8f7a-1d237f7ce137","system_id":"levelo_inurba_marseille","lat":43.305925,"lon":5.39356,"is_reserved":false,"is_disabled":false,"rental_uris":{"android":"levelo://app?vid=fe715ea0-e381-4b87-8f7a-1d237f7ce137","ios":"levelo://app?vid=fe715ea0-e381-4b87-8f7a-1d237f7ce137"},"vehicle_type_id":"4","last_reported":1707358374,"current_range_meters":5600,"station_id":"ce4bh0p2rcd13ifvqd80","pricing_plan_id":"free"},{"bike_id":"816a1dd3-4479-4ced-a1ed-56a49ef56c0c","system_id":"levelo_inurba_marseille","lat":43.305994,"lon":5.393687,"is_reserved":false,"is_disabled":false,"rental_uris":{"android":"levelo://app?vid=816a1dd3-4479-4ced-a1ed-56a49ef56c0c","ios":"levelo://app?vid=816a1dd3-4479-4ced-a1ed-56a49ef56c0c"},"vehicle_type_id":"4","last_reported":1707358374,"current_range_meters":31200,"station_id":"ce4bh0p2rcd13ifvqd80","pricing_plan_id":"free"},{"bike_id":"61145fef-0ae6-4cc1-b810-398dd93a4198","system_id":"levelo_inurba_marseille","lat":43.305994,"lon":5.393687,"is_reserved":false,"is_disabled":false,"rental_uris":{"android":"levelo://app?vid=61145fef-0ae6-4cc1-b810-398dd93a4198","ios":"levelo://app?vid=61145fef-0ae6-4cc1-b810-398dd93a4198"},"vehicle_type_id":"4","last_reported":1707358374,"current_range_meters":25200,"station_id":"ce4bh0p2rcd13ifvqd80","pricing_plan_id":"free"},{"bike_id":"c3b8d570-220a-42d4-8741-1fe89f8d6795","system_id":"levelo_inurba_marseille","lat":43.305994,"lon":5.393687,"is_reserved":false,"is_disabled":false,"rental_uris":{"android":"levelo://app?vid=c3b8d570-220a-42d4-8741-1fe89f8d6795","ios":"levelo://app?vid=c3b8d570-220a-42d4-8741-1fe89f8d6795"},"vehicle_type_id":"4","last_reported":1707358374,"current_range_meters":26800,"station_id":"ce4bh0p2rcd13ifvqd80","pricing_plan_id":"free"},{"bike_id":"dbd1570b-a3ab-4c26-aac0-dc69aa987017","system_id":"levelo_inurba_marseille","lat":43.30304,"lon":5.39189,"is_reserved":false,"is_disabled":false,"rental_uris":{"android":"levelo://app?vid=dbd1570b-a3ab-4c26-aac0-dc69aa987017","ios":"levelo://app?vid=dbd1570b-a3ab-4c26-aac0-dc69aa987017"},"vehicle_type_id":"4","last_reported":1707358374,"current_range_meters":30800,"station_id":"ce4bgkh2rcd13ifvqbk0","pricing_plan_id":"free"},{"bike_id":"bc15b0de-9b81-488c-afd5-6eee5b6327dc","system_id":"levelo_inurba_marseille","lat":43.302931,"lon":5.392096,"is_reserved":false,"is_disabled":false,"rental_uris":{"android":"levelo://app?vid=bc15b0de-9b81-488c-afd5-6eee5b6327dc","ios":"levelo://app?vid=bc15b0de-9b81-488c-afd5-6eee5b6327dc"},"vehicle_type_id":"4","last_reported":1707358374,"current_range_meters":13600,"station_id":"ce4bgkh2rcd13ifvqbk0","pricing_plan_id":"free"},{"bike_id":"232a48b7-c8d3-4447-8549-6da93c55d6a9","system_id":"levelo_inurba_marseille","lat":43.302969,"lon":5.39213,"is_reserved":false,"is_disabled":false,"rental_uris":{"android":"levelo://app?vid=232a48b7-c8d3-4447-8549-6da93c55d6a9","ios":"levelo://app?vid=232a48b7-c8d3-4447-8549-6da93c55d6a9"},"vehicle_type_id":"4","last_reported":1707358374,"current_range_meters":400,"station_id":"ce4bgkh2rcd13ifvqbk0","pricing_plan_id":"free"},{"bike_id":"e7f2d8c3-a8a0-40ee-bb10-7c4807d4c300","system_id":"levelo_inurba_marseille","lat":43.30085,"lon":5.390856,"is_reserved":false,"is_disabled":false,"rental_uris":{"android":"levelo://app?vid=e7f2d8c3-a8a0-40ee-bb10-7c4807d4c300","ios":"levelo://app?vid=e7f2d8c3-a8a0-40ee-bb10-7c4807d4c300"},"vehicle_type_id":"4","last_reported":1707358374,"current_range_meters":27600,"station_id":"ce4bh192rcd13ifvqdb0","pricing_plan_id":"free"},{"bike_id":"8ce9be94-edad-4c64-844e-88c6e5caf0da","system_id":"levelo_inurba_marseille","lat":43.2936,"lon":5.37835,"is_reserved":false,"is_disabled":false,"rental_uris":{"android":"levelo://app?vid=8ce9be94-edad-4c64-844e-88c6e5caf0da","ios":"levelo://app?vid=8ce9be94-edad-4c64-844e-88c6e5caf0da"},"vehicle_type_id":"4","last_reported":1707358374,"current_range_meters":22400,"station_id":"ce4bgjh2rcd13ifvqbf0","pricing_plan_id":"free"},{"bike_id":"f702ea93-e487-42d4-a134-debfa2cfd9cf","system_id":"levelo_inurba_marseille","lat":43.300852,"lon":5.390859,"is_reserved":false,"is_disabled":false,"rental_uris":{"android":"levelo://app?vid=f702ea93-e487-42d4-a134-debfa2cfd9cf","ios":"levelo://app?vid=f702ea93-e487-42d4-a134-debfa2cfd9cf"},"vehicle_type_id":"4","last_reported":1707358374,"current_range_meters":20000,"station_id":"ce4bh192rcd13ifvqdb0","pricing_plan_id":"free"},{"bike_id":"73155573-9a93-40f6-9f85-7512f886b0c4","system_id":"levelo_inurba_marseille","lat":43.30085,"lon":5.390856,"is_reserved":false,"is_disabled":false,"rental_uris":{"android":"levelo://app?vid=73155573-9a93-40f6-9f85-7512f886b0c4","ios":"levelo://app?vid=73155573-9a93-40f6-9f85-7512f886b0c4"},"vehicle_type_id":"4","last_reported":1707358374,"current_range_meters":8400,"station_id":"ce4bh192rcd13ifvqdb0","pricing_plan_id":"free"},{"bike_id":"12835e54-73ec-41fd-b772-20fac025e404","system_id":"levelo_inurba_marseille","lat":43.292311,"lon":5.360731,"is_reserved":false,"is_disabled":false,"rental_uris":{"android":"levelo://app?vid=12835e54-73ec-41fd-b772-20fac025e404","ios":"levelo://app?vid=12835e54-73ec-41fd-b772-20fac025e404"},"vehicle_type_id":"4","last_reported":1707358374,"current_range_meters":12000,"station_id":"ce4bhbh2rcd13ifvqeqg","pricing_plan_id":"free"},{"bike_id":"6955ebc7-d100-405f-a0d5-e48342578e08","system_id":"levelo_inurba_marseille","lat":43.309038,"lon":5.396546,"is_reserved":false,"is_disabled":false,"rental_uris":{"android":"levelo://app?vid=6955ebc7-d100-405f-a0d5-e48342578e08","ios":"levelo://app?vid=6955ebc7-d100-405f-a0d5-e48342578e08"},"vehicle_type_id":"4","last_reported":1707358374,"current_range_meters":13200,"station_id":"ce4bh012rcd13ifvqcv0","pricing_plan_id":"free"},{"bike_id":"abca1385-4638-47d9-9b7e-26e56d8ecab8","system_id":"levelo_inurba_marseille","lat":43.308866,"lon":5.396353,"is_reserved":false,"is_disabled":false,"rental_uris":{"android":"levelo://app?vid=abca1385-4638-47d9-9b7e-26e56d8ecab8","ios":"levelo://app?vid=abca1385-4638-47d9-9b7e-26e56d8ecab8"},"vehicle_type_id":"4","last_reported":1707358374,"current_range_meters":4400,"station_id":"ce4bh012rcd13ifvqcv0","pricing_plan_id":"free"},{"bike_id":"941c74bd-ad54-4774-a96e-320b07d6fc6c","system_id":"levelo_inurba_marseille","lat":43.29196,"lon":5.35804,"is_reserved":false,"is_disabled":false,"rental_uris":{"android":"levelo://app?vid=941c74bd-ad54-4774-a96e-320b07d6fc6c","ios":"levelo://app?vid=941c74bd-ad54-4774-a96e-320b07d6fc6c"},"vehicle_type_id":"4","last_reported":1707358374,"current_range_meters":9600,"station_id":"ce4bhb12rcd13ifvqel0","pricing_plan_id":"free"},{"bike_id":"11bc2dec-da08-4ecb-846c-34712b2b94d5","system_id":"levelo_inurba_marseille","lat":43.29196,"lon":5.35798,"is_reserved":false,"is_disabled":false,"rental_uris":{"android":"levelo://app?vid=11bc2dec-da08-4ecb-846c-34712b2b94d5","ios":"levelo://app?vid=11bc2dec-da08-4ecb-846c-34712b2b94d5"},"vehicle_type_id":"4","last_reported":1707358374,"current_range_meters":17200,"station_id":"ce4bhb12rcd13ifvqel0","pricing_plan_id":"free"},{"bike_id":"098f6c96-4719-48f3-b9a6-836640ecf0f5","system_id":"levelo_inurba_marseille","lat":43.308863,"lon":5.396384,"is_reserved":false,"is_disabled":false,"rental_uris":{"android":"levelo://app?vid=098f6c96-4719-48f3-b9a6-836640ecf0f5","ios":"levelo://app?vid=098f6c96-4719-48f3-b9a6-836640ecf0f5"},"vehicle_type_id":"4","last_reported":1707358374,"current_range_meters":14400,"station_id":"ce4bh012rcd13ifvqcv0","pricing_plan_id":"free"},{"bike_id":"9a8c7406-1978-4f8e-b1e4-b73ffc173432","system_id":"levelo_inurba_marseille","lat":43.308838,"lon":5.396382,"is_reserved":false,"is_disabled":false,"rental_uris":{"android":"levelo://app?vid=9a8c7406-1978-4f8e-b1e4-b73ffc173432","ios":"levelo://app?vid=9a8c7406-1978-4f8e-b1e4-b73ffc173432"},"vehicle_type_id":"4","last_reported":1707358374,"current_range_meters":4800,"station_id":"ce4bh012rcd13ifvqcv0","pricing_plan_id":"free"},{"bike_id":"e7f96216-9e57-4c4e-b902-8d8187af9315","system_id":"levelo_inurba_marseille","lat":43.309038,"lon":5.396546,"is_reserved":false,"is_disabled":false,"rental_uris":{"android":"levelo://app?vid=e7f96216-9e57-4c4e-b902-8d8187af9315","ios":"levelo://app?vid=e7f96216-9e57-4c4e-b902-8d8187af9315"},"vehicle_type_id":"4","last_reported":1707358374,"current_range_meters":5600,"station_id":"ce4bh012rcd13ifvqcv0","pricing_plan_id":"free"},{"bike_id":"3f698738-a3e5-407c-9e34-c3373b0e93a3","system_id":"levelo_inurba_marseille","lat":43.29195,"lon":5.35795,"is_reserved":false,"is_disabled":false,"rental_uris":{"android":"levelo://app?vid=3f698738-a3e5-407c-9e34-c3373b0e93a3","ios":"levelo://app?vid=3f698738-a3e5-407c-9e34-c3373b0e93a3"},"vehicle_type_id":"4","last_reported":1707358374,"current_range_meters":25600,"station_id":"ce4bhb12rcd13ifvqel0","pricing_plan_id":"free"},{"bike_id":"00f811c5-d7a3-42fc-b233-52cb2a1b4946","system_id":"levelo_inurba_marseille","lat":43.309038,"lon":5.396546,"is_reserved":false,"is_disabled":false,"rental_uris":{"android":"levelo://app?vid=00f811c5-d7a3-42fc-b233-52cb2a1b4946","ios":"levelo://app?vid=00f811c5-d7a3-42fc-b233-52cb2a1b4946"},"vehicle_type_id":"4","last_reported":1707358374,"current_range_meters":24800,"station_id":"ce4bh012rcd13ifvqcv0","pricing_plan_id":"free"},{"bike_id":"9a5207e9-e4cd-4e68-91bb-3752325f69e7","system_id":"levelo_inurba_marseille","lat":43.313291,"lon":5.396838,"is_reserved":false,"is_disabled":false,"rental_uris":{"android":"levelo://app?vid=9a5207e9-e4cd-4e68-91bb-3752325f69e7","ios":"levelo://app?vid=9a5207e9-e4cd-4e68-91bb-3752325f69e7"},"vehicle_type_id":"4","last_reported":1707358374,"current_range_meters":30800,"station_id":"ce4bgvp2rcd13ifvqcu0","pricing_plan_id":"free"},{"bike_id":"e4b3f4ad-2d22-480e-a38d-96c70c1cf86f","system_id":"levelo_inurba_marseille","lat":43.308883,"lon":5.396409,"is_reserved":false,"is_disabled":false,"rental_uris":{"android":"levelo://app?vid=e4b3f4ad-2d22-480e-a38d-96c70c1cf86f","ios":"levelo://app?vid=e4b3f4ad-2d22-480e-a38d-96c70c1cf86f"},"vehicle_type_id":"4","last_reported":1707358374,"current_range_meters":22000,"station_id":"ce4bh012rcd13ifvqcv0","pricing_plan_id":"free"},{"bike_id":"559c12e5-9af4-4463-93e9-fd6f046ba457","system_id":"levelo_inurba_marseille","lat":43.291994,"lon":5.357886,"is_reserved":false,"is_disabled":false,"rental_uris":{"android":"levelo://app?vid=559c12e5-9af4-4463-93e9-fd6f046ba457","ios":"levelo://app?vid=559c12e5-9af4-4463-93e9-fd6f046ba457"},"vehicle_type_id":"4","last_reported":1707358374,"current_range_meters":30000,"station_id":"ce4bhb12rcd13ifvqel0","pricing_plan_id":"free"},{"bike_id":"d82fe0a0-b2af-46c3-8be2-59aa04bf4ec8","system_id":"levelo_inurba_marseille","lat":43.313291,"lon":5.396838,"is_reserved":false,"is_disabled":false,"rental_uris":{"android":"levelo://app?vid=d82fe0a0-b2af-46c3-8be2-59aa04bf4ec8","ios":"levelo://app?vid=d82fe0a0-b2af-46c3-8be2-59aa04bf4ec8"},"vehicle_type_id":"4","last_reported":1707358374,"current_range_meters":28000,"station_id":"ce4bgvp2rcd13ifvqcu0","pricing_plan_id":"free"},{"bike_id":"1208384b-28cd-48eb-885b-5275ed2d1258","system_id":"levelo_inurba_marseille","lat":43.309038,"lon":5.396546,"is_reserved":false,"is_disabled":false,"rental_uris":{"android":"levelo://app?vid=1208384b-28cd-48eb-885b-5275ed2d1258","ios":"levelo://app?vid=1208384b-28cd-48eb-885b-5275ed2d1258"},"vehicle_type_id":"4","last_reported":1707358374,"current_range_meters":800,"station_id":"ce4bh012rcd13ifvqcv0","pricing_plan_id":"free"},{"bike_id":"7181a290-09af-43dd-b5b7-c39db1206f75","system_id":"levelo_inurba_marseille","lat":43.313291,"lon":5.396838,"is_reserved":false,"is_disabled":false,"rental_uris":{"android":"levelo://app?vid=7181a290-09af-43dd-b5b7-c39db1206f75","ios":"levelo://app?vid=7181a290-09af-43dd-b5b7-c39db1206f75"},"vehicle_type_id":"4","last_reported":1707358374,"current_range_meters":31200,"station_id":"ce4bgvp2rcd13ifvqcu0","pricing_plan_id":"free"},{"bike_id":"c522e384-33f4-4712-a52c-9ba65fe63c49","system_id":"levelo_inurba_marseille","lat":43.309038,"lon":5.396546,"is_reserved":false,"is_disabled":false,"rental_uris":{"android":"levelo://app?vid=c522e384-33f4-4712-a52c-9ba65fe63c49","ios":"levelo://app?vid=c522e384-33f4-4712-a52c-9ba65fe63c49"},"vehicle_type_id":"4","last_reported":1707358374,"current_range_meters":31600,"station_id":"ce4bh012rcd13ifvqcv0","pricing_plan_id":"free"},{"bike_id":"fa8de7f8-b9de-4a1d-9285-01f4767fc3b4","system_id":"levelo_inurba_marseille","lat":43.313291,"lon":5.396838,"is_reserved":false,"is_disabled":false,"rental_uris":{"android":"levelo://app?vid=fa8de7f8-b9de-4a1d-9285-01f4767fc3b4","ios":"levelo://app?vid=fa8de7f8-b9de-4a1d-9285-01f4767fc3b4"},"vehicle_type_id":"4","last_reported":1707358374,"current_range_meters":2000,"station_id":"ce4bgvp2rcd13ifvqcu0","pricing_plan_id":"free"},{"bike_id":"5a32df2b-0305-4dbb-822f-ef8419e3d42c","system_id":"levelo_inurba_marseille","lat":43.309047,"lon":5.396551,"is_reserved":false,"is_disabled":false,"rental_uris":{"android":"levelo://app?vid=5a32df2b-0305-4dbb-822f-ef8419e3d42c","ios":"levelo://app?vid=5a32df2b-0305-4dbb-822f-ef8419e3d42c"},"vehicle_type_id":"4","last_reported":1707358374,"current_range_meters":27200,"station_id":"ce4bh012rcd13ifvqcv0","pricing_plan_id":"free"},{"bike_id":"4a7b5cb7-ed72-4b45-98c8-e24ef417c87e","system_id":"levelo_inurba_marseille","lat":43.291893,"lon":5.35799,"is_reserved":false,"is_disabled":false,"rental_uris":{"android":"levelo://app?vid=4a7b5cb7-ed72-4b45-98c8-e24ef417c87e","ios":"levelo://app?vid=4a7b5cb7-ed72-4b45-98c8-e24ef417c87e"},"vehicle_type_id":"4","last_reported":1707358374,"current_range_meters":24800,"station_id":"ce4bhb12rcd13ifvqel0","pricing_plan_id":"free"},{"bike_id":"3002f4e0-f77d-46dd-b9e7-cfe6b518e2b4","system_id":"levelo_inurba_marseille","lat":43.313291,"lon":5.396838,"is_reserved":false,"is_disabled":false,"rental_uris":{"android":"levelo://app?vid=3002f4e0-f77d-46dd-b9e7-cfe6b518e2b4","ios":"levelo://app?vid=3002f4e0-f77d-46dd-b9e7-cfe6b518e2b4"},"vehicle_type_id":"4","last_reported":1707358374,"current_range_meters":26800,"station_id":"ce4bgvp2rcd13ifvqcu0","pricing_plan_id":"free"},{"bike_id":"e6fa8d0c-d997-41b6-8058-0dcd1287c651","system_id":"levelo_inurba_marseille","lat":43.308837,"lon":5.396461,"is_reserved":false,"is_disabled":false,"rental_uris":{"android":"levelo://app?vid=e6fa8d0c-d997-41b6-8058-0dcd1287c651","ios":"levelo://app?vid=e6fa8d0c-d997-41b6-8058-0dcd1287c651"},"vehicle_type_id":"4","last_reported":1707358374,"current_range_meters":400,"station_id":"ce4bh012rcd13ifvqcv0","pricing_plan_id":"free"},{"bike_id":"732fe96f-90e4-4616-b204-f132c221733a","system_id":"levelo_inurba_marseille","lat":43.308889,"lon":5.396476,"is_reserved":false,"is_disabled":false,"rental_uris":{"android":"levelo://app?vid=732fe96f-90e4-4616-b204-f132c221733a","ios":"levelo://app?vid=732fe96f-90e4-4616-b204-f132c221733a"},"vehicle_type_id":"4","last_reported":1707358374,"current_range_meters":0,"station_id":"ce4bh012rcd13ifvqcv0","pricing_plan_id":"free"},{"bike_id":"670ef743-7e2e-43f4-82d3-cbd2f89370c0","system_id":"levelo_inurba_marseille","lat":43.309038,"lon":5.396546,"is_reserved":false,"is_disabled":false,"rental_uris":{"android":"levelo://app?vid=670ef743-7e2e-43f4-82d3-cbd2f89370c0","ios":"levelo://app?vid=670ef743-7e2e-43f4-82d3-cbd2f89370c0"},"vehicle_type_id":"4","last_reported":1707358374,"current_range_meters":29600,"station_id":"ce4bh012rcd13ifvqcv0","pricing_plan_id":"free"},{"bike_id":"64015304-0da3-43c3-8e1d-c9a0fb4ed92c","system_id":"levelo_inurba_marseille","lat":43.291883,"lon":5.357957,"is_reserved":false,"is_disabled":false,"rental_uris":{"android":"levelo://app?vid=64015304-0da3-43c3-8e1d-c9a0fb4ed92c","ios":"levelo://app?vid=64015304-0da3-43c3-8e1d-c9a0fb4ed92c"},"vehicle_type_id":"4","last_reported":1707358374,"current_range_meters":20000,"station_id":"ce4bhb12rcd13ifvqel0","pricing_plan_id":"free"},{"bike_id":"a2ebf09c-3d6c-4125-b4f3-f0768691e011","system_id":"levelo_inurba_marseille","lat":43.291871,"lon":5.357988,"is_reserved":false,"is_disabled":false,"rental_uris":{"android":"levelo://app?vid=a2ebf09c-3d6c-4125-b4f3-f0768691e011","ios":"levelo://app?vid=a2ebf09c-3d6c-4125-b4f3-f0768691e011"},"vehicle_type_id":"4","last_reported":1707358374,"current_range_meters":1600,"station_id":"ce4bhb12rcd13ifvqel0","pricing_plan_id":"free"},{"bike_id":"4eeba977-bb99-4954-9eae-c8d8c7b08092","system_id":"levelo_inurba_marseille","lat":43.291994,"lon":5.357886,"is_reserved":false,"is_disabled":false,"rental_uris":{"android":"levelo://app?vid=4eeba977-bb99-4954-9eae-c8d8c7b08092","ios":"levelo://app?vid=4eeba977-bb99-4954-9eae-c8d8c7b08092"},"vehicle_type_id":"4","last_reported":1707358374,"current_range_meters":9600,"station_id":"ce4bhb12rcd13ifvqel0","pricing_plan_id":"free"},{"bike_id":"65555ee1-6283-4898-9bad-59a3bb58b2e7","system_id":"levelo_inurba_marseille","lat":43.29185,"lon":5.35807,"is_reserved":false,"is_disabled":false,"rental_uris":{"android":"levelo://app?vid=65555ee1-6283-4898-9bad-59a3bb58b2e7","ios":"levelo://app?vid=65555ee1-6283-4898-9bad-59a3bb58b2e7"},"vehicle_type_id":"4","last_reported":1707358374,"current_range_meters":11200,"station_id":"ce4bhb12rcd13ifvqel0","pricing_plan_id":"free"},{"bike_id":"ce64b924-6e97-4603-bbe6-1b875768f2ae","system_id":"levelo_inurba_marseille","lat":43.309038,"lon":5.396546,"is_reserved":false,"is_disabled":false,"rental_uris":{"android":"levelo://app?vid=ce64b924-6e97-4603-bbe6-1b875768f2ae","ios":"levelo://app?vid=ce64b924-6e97-4603-bbe6-1b875768f2ae"},"vehicle_type_id":"4","last_reported":1707358374,"current_range_meters":22400,"station_id":"ce4bh012rcd13ifvqcv0","pricing_plan_id":"free"},{"bike_id":"8d28ee92-21e7-4457-a194-7dee2d2636e6","system_id":"levelo_inurba_marseille","lat":43.291994,"lon":5.357886,"is_reserved":false,"is_disabled":false,"rental_uris":{"android":"levelo://app?vid=8d28ee92-21e7-4457-a194-7dee2d2636e6","ios":"levelo://app?vid=8d28ee92-21e7-4457-a194-7dee2d2636e6"},"vehicle_type_id":"4","last_reported":1707358374,"current_range_meters":31200,"station_id":"ce4bhb12rcd13ifvqel0","pricing_plan_id":"free"},{"bike_id":"58171703-5d34-45ba-8282-facf04878897","system_id":"levelo_inurba_marseille","lat":43.313291,"lon":5.396838,"is_reserved":false,"is_disabled":false,"rental_uris":{"android":"levelo://app?vid=58171703-5d34-45ba-8282-facf04878897","ios":"levelo://app?vid=58171703-5d34-45ba-8282-facf04878897"},"vehicle_type_id":"4","last_reported":1707358374,"current_range_meters":0,"station_id":"ce4bgvp2rcd13ifvqcu0","pricing_plan_id":"free"},{"bike_id":"8ec5bdd7-00f7-4116-b8e1-a22ad9b50462","system_id":"levelo_inurba_marseille","lat":43.298779,"lon":5.390399,"is_reserved":false,"is_disabled":false,"rental_uris":{"android":"levelo://app?vid=8ec5bdd7-00f7-4116-b8e1-a22ad9b50462","ios":"levelo://app?vid=8ec5bdd7-00f7-4116-b8e1-a22ad9b50462"},"vehicle_type_id":"4","last_reported":1707358374,"current_range_meters":2400,"station_id":"","pricing_plan_id":"free"},{"bike_id":"dbe48590-c220-4dfd-86d6-8e0a077ba63e","system_id":"levelo_inurba_marseille","lat":43.290779,"lon":5.371482,"is_reserved":false,"is_disabled":false,"rental_uris":{"android":"levelo://app?vid=dbe48590-c220-4dfd-86d6-8e0a077ba63e","ios":"levelo://app?vid=dbe48590-c220-4dfd-86d6-8e0a077ba63e"},"vehicle_type_id":"4","last_reported":1707358374,"current_range_meters":0,"station_id":"ce4bh5p2rcd13ifvqe4g","pricing_plan_id":"free"},{"bike_id":"1fcd27d4-9101-492c-921d-a173c381409a","system_id":"levelo_inurba_marseille","lat":43.30209,"lon":5.39459,"is_reserved":false,"is_disabled":false,"rental_uris":{"android":"levelo://app?vid=1fcd27d4-9101-492c-921d-a173c381409a","ios":"levelo://app?vid=1fcd27d4-9101-492c-921d-a173c381409a"},"vehicle_type_id":"4","last_reported":1707358374,"current_range_meters":29600,"station_id":"ce4bh0p2rcd13ifvqd70","pricing_plan_id":"free"},{"bike_id":"baefcb7c-e2b7-4da3-bd21-cdcf76dd3c28","system_id":"levelo_inurba_marseille","lat":43.302008,"lon":5.394694,"is_reserved":false,"is_disabled":false,"rental_uris":{"android":"levelo://app?vid=baefcb7c-e2b7-4da3-bd21-cdcf76dd3c28","ios":"levelo://app?vid=baefcb7c-e2b7-4da3-bd21-cdcf76dd3c28"},"vehicle_type_id":"4","last_reported":1707358374,"current_range_meters":19200,"station_id":"ce4bh0p2rcd13ifvqd70","pricing_plan_id":"free"},{"bike_id":"d3df8dcd-1323-4dac-a646-0b1abff292f6","system_id":"levelo_inurba_marseille","lat":43.302008,"lon":5.394694,"is_reserved":false,"is_disabled":false,"rental_uris":{"android":"levelo://app?vid=d3df8dcd-1323-4dac-a646-0b1abff292f6","ios":"levelo://app?vid=d3df8dcd-1323-4dac-a646-0b1abff292f6"},"vehicle_type_id":"4","last_reported":1707358374,"current_range_meters":24400,"station_id":"ce4bh0p2rcd13ifvqd70","pricing_plan_id":"free"},{"bike_id":"c9074284-2080-4387-ae95-bb270f380936","system_id":"levelo_inurba_marseille","lat":43.290624,"lon":5.359245,"is_reserved":false,"is_disabled":false,"rental_uris":{"android":"levelo://app?vid=c9074284-2080-4387-ae95-bb270f380936","ios":"levelo://app?vid=c9074284-2080-4387-ae95-bb270f380936"},"vehicle_type_id":"4","last_reported":1707358374,"current_range_meters":8800,"station_id":"ce4bha92rcd13ifvqeg0","pricing_plan_id":"free"},{"bike_id":"bbb1ddfe-948d-4322-82a4-3116feaa96eb","system_id":"levelo_inurba_marseille","lat":43.290624,"lon":5.359245,"is_reserved":false,"is_disabled":false,"rental_uris":{"android":"levelo://app?vid=bbb1ddfe-948d-4322-82a4-3116feaa96eb","ios":"levelo://app?vid=bbb1ddfe-948d-4322-82a4-3116feaa96eb"},"vehicle_type_id":"4","last_reported":1707358374,"current_range_meters":23200,"station_id":"ce4bha92rcd13ifvqeg0","pricing_plan_id":"free"},{"bike_id":"c6c993cc-4af3-4795-a55a-a7af2f7070c1","system_id":"levelo_inurba_marseille","lat":43.290624,"lon":5.359245,"is_reserved":false,"is_disabled":false,"rental_uris":{"android":"levelo://app?vid=c6c993cc-4af3-4795-a55a-a7af2f7070c1","ios":"levelo://app?vid=c6c993cc-4af3-4795-a55a-a7af2f7070c1"},"vehicle_type_id":"4","last_reported":1707358374,"current_range_meters":24000,"station_id":"ce4bha92rcd13ifvqeg0","pricing_plan_id":"free"},{"bike_id":"969bea91-2e09-4e8a-b6d9-cd69d0b8b395","system_id":"levelo_inurba_marseille","lat":43.290624,"lon":5.359245,"is_reserved":false,"is_disabled":false,"rental_uris":{"android":"levelo://app?vid=969bea91-2e09-4e8a-b6d9-cd69d0b8b395","ios":"levelo://app?vid=969bea91-2e09-4e8a-b6d9-cd69d0b8b395"},"vehicle_type_id":"4","last_reported":1707358374,"current_range_meters":27200,"station_id":"ce4bha92rcd13ifvqeg0","pricing_plan_id":"free"},{"bike_id":"db1e873c-c6ff-40cf-af2b-b52105a9c4f8","system_id":"levelo_inurba_marseille","lat":43.290631,"lon":5.359244,"is_reserved":false,"is_disabled":false,"rental_uris":{"android":"levelo://app?vid=db1e873c-c6ff-40cf-af2b-b52105a9c4f8","ios":"levelo://app?vid=db1e873c-c6ff-40cf-af2b-b52105a9c4f8"},"vehicle_type_id":"4","last_reported":1707358374,"current_range_meters":31200,"station_id":"ce4bha92rcd13ifvqeg0","pricing_plan_id":"free"},{"bike_id":"25f39d5f-abdc-41a5-b54f-688cc74e5b42","system_id":"levelo_inurba_marseille","lat":43.290631,"lon":5.359244,"is_reserved":false,"is_disabled":false,"rental_uris":{"android":"levelo://app?vid=25f39d5f-abdc-41a5-b54f-688cc74e5b42","ios":"levelo://app?vid=25f39d5f-abdc-41a5-b54f-688cc74e5b42"},"vehicle_type_id":"4","last_reported":1707358374,"current_range_meters":30400,"station_id":"ce4bha92rcd13ifvqeg0","pricing_plan_id":"free"},{"bike_id":"57c3df0a-7e62-4543-beba-933b2067b923","system_id":"levelo_inurba_marseille","lat":43.290366,"lon":5.359154,"is_reserved":false,"is_disabled":false,"rental_uris":{"android":"levelo://app?vid=57c3df0a-7e62-4543-beba-933b2067b923","ios":"levelo://app?vid=57c3df0a-7e62-4543-beba-933b2067b923"},"vehicle_type_id":"4","last_reported":1707358374,"current_range_meters":4400,"station_id":"ce4bha92rcd13ifvqeg0","pricing_plan_id":"free"},{"bike_id":"54a94ff9-dce9-4618-9f28-b982c74f2210","system_id":"levelo_inurba_marseille","lat":43.2895,"lon":5.36618,"is_reserved":false,"is_disabled":false,"rental_uris":{"android":"levelo://app?vid=54a94ff9-dce9-4618-9f28-b982c74f2210","ios":"levelo://app?vid=54a94ff9-dce9-4618-9f28-b982c74f2210"},"vehicle_type_id":"4","last_reported":1707358374,"current_range_meters":31200,"station_id":"ce4bhap2rcd13ifvqek0","pricing_plan_id":"free"},{"bike_id":"1797cb61-849a-4e61-a547-d2c00108c655","system_id":"levelo_inurba_marseille","lat":43.289184,"lon":5.366408,"is_reserved":false,"is_disabled":false,"rental_uris":{"android":"levelo://app?vid=1797cb61-849a-4e61-a547-d2c00108c655","ios":"levelo://app?vid=1797cb61-849a-4e61-a547-d2c00108c655"},"vehicle_type_id":"4","last_reported":1707358374,"current_range_meters":1200,"station_id":"ce4bhap2rcd13ifvqek0","pricing_plan_id":"free"},{"bike_id":"136f09e9-6061-4af0-bbc1-49d18291d2b2","system_id":"levelo_inurba_marseille","lat":43.289184,"lon":5.366408,"is_reserved":false,"is_disabled":false,"rental_uris":{"android":"levelo://app?vid=136f09e9-6061-4af0-bbc1-49d18291d2b2","ios":"levelo://app?vid=136f09e9-6061-4af0-bbc1-49d18291d2b2"},"vehicle_type_id":"4","last_reported":1707358374,"current_range_meters":15600,"station_id":"ce4bhap2rcd13ifvqek0","pricing_plan_id":"free"},{"bike_id":"c519fe07-2726-475d-89cd-a8315710e58c","system_id":"levelo_inurba_marseille","lat":43.28937,"lon":5.36645,"is_reserved":false,"is_disabled":false,"rental_uris":{"android":"levelo://app?vid=c519fe07-2726-475d-89cd-a8315710e58c","ios":"levelo://app?vid=c519fe07-2726-475d-89cd-a8315710e58c"},"vehicle_type_id":"4","last_reported":1707358374,"current_range_meters":31200,"station_id":"ce4bhap2rcd13ifvqek0","pricing_plan_id":"free"},{"bike_id":"b7ab824b-c4b6-4bbe-a09e-9da992431da0","system_id":"levelo_inurba_marseille","lat":43.28937,"lon":5.36638,"is_reserved":false,"is_disabled":false,"rental_uris":{"android":"levelo://app?vid=b7ab824b-c4b6-4bbe-a09e-9da992431da0","ios":"levelo://app?vid=b7ab824b-c4b6-4bbe-a09e-9da992431da0"},"vehicle_type_id":"4","last_reported":1707358374,"current_range_meters":31200,"station_id":"ce4bhap2rcd13ifvqek0","pricing_plan_id":"free"},{"bike_id":"39d0e01b-5c86-4bbf-8c48-a518d3406fcb","system_id":"levelo_inurba_marseille","lat":43.289184,"lon":5.366408,"is_reserved":false,"is_disabled":false,"rental_uris":{"android":"levelo://app?vid=39d0e01b-5c86-4bbf-8c48-a518d3406fcb","ios":"levelo://app?vid=39d0e01b-5c86-4bbf-8c48-a518d3406fcb"},"vehicle_type_id":"4","last_reported":1707358374,"current_range_meters":6000,"station_id":"ce4bhap2rcd13ifvqek0","pricing_plan_id":"free"},{"bike_id":"7997289f-6588-4b17-bcbc-e8ceca2b2121","system_id":"levelo_inurba_marseille","lat":43.289468,"lon":5.363719,"is_reserved":false,"is_disabled":false,"rental_uris":{"android":"levelo://app?vid=7997289f-6588-4b17-bcbc-e8ceca2b2121","ios":"levelo://app?vid=7997289f-6588-4b17-bcbc-e8ceca2b2121"},"vehicle_type_id":"4","last_reported":1707358374,"current_range_meters":22400,"station_id":"ce4bhc92rcd13ifvqetg","pricing_plan_id":"free"},{"bike_id":"6686575f-e57c-4f5d-accd-d32579b7c7b3","system_id":"levelo_inurba_marseille","lat":43.28931,"lon":5.36391,"is_reserved":false,"is_disabled":false,"rental_uris":{"android":"levelo://app?vid=6686575f-e57c-4f5d-accd-d32579b7c7b3","ios":"levelo://app?vid=6686575f-e57c-4f5d-accd-d32579b7c7b3"},"vehicle_type_id":"4","last_reported":1707358374,"current_range_meters":28800,"station_id":"ce4bhc92rcd13ifvqetg","pricing_plan_id":"free"},{"bike_id":"d9adc15c-b93b-49d1-ac3c-50d713f8f9ed","system_id":"levelo_inurba_marseille","lat":43.28926,"lon":5.36399,"is_reserved":false,"is_disabled":false,"rental_uris":{"android":"levelo://app?vid=d9adc15c-b93b-49d1-ac3c-50d713f8f9ed","ios":"levelo://app?vid=d9adc15c-b93b-49d1-ac3c-50d713f8f9ed"},"vehicle_type_id":"4","last_reported":1707358374,"current_range_meters":30800,"station_id":"ce4bhc92rcd13ifvqetg","pricing_plan_id":"free"},{"bike_id":"aa722332-47da-44f9-bfe5-5488d33f1878","system_id":"levelo_inurba_marseille","lat":43.28925,"lon":5.36402,"is_reserved":false,"is_disabled":false,"rental_uris":{"android":"levelo://app?vid=aa722332-47da-44f9-bfe5-5488d33f1878","ios":"levelo://app?vid=aa722332-47da-44f9-bfe5-5488d33f1878"},"vehicle_type_id":"4","last_reported":1707358374,"current_range_meters":31200,"station_id":"ce4bhc92rcd13ifvqetg","pricing_plan_id":"free"},{"bike_id":"800f08d2-4d31-4289-9a48-8f7a67315a43","system_id":"levelo_inurba_marseille","lat":43.28911,"lon":5.36403,"is_reserved":false,"is_disabled":false,"rental_uris":{"android":"levelo://app?vid=800f08d2-4d31-4289-9a48-8f7a67315a43","ios":"levelo://app?vid=800f08d2-4d31-4289-9a48-8f7a67315a43"},"vehicle_type_id":"4","last_reported":1707358374,"current_range_meters":11200,"station_id":"ce4bhc92rcd13ifvqetg","pricing_plan_id":"free"},{"bike_id":"a6c9f95a-2794-420b-9000-bb06adba1ee8","system_id":"levelo_inurba_marseille","lat":43.304267,"lon":5.397474,"is_reserved":false,"is_disabled":false,"rental_uris":{"android":"levelo://app?vid=a6c9f95a-2794-420b-9000-bb06adba1ee8","ios":"levelo://app?vid=a6c9f95a-2794-420b-9000-bb06adba1ee8"},"vehicle_type_id":"4","last_reported":1707358374,"current_range_meters":18800,"station_id":"ce4bh092rcd13ifvqd20","pricing_plan_id":"free"},{"bike_id":"33e11670-3c50-4de6-9ea4-95c6a792c4ea","system_id":"levelo_inurba_marseille","lat":43.290103,"lon":5.356114,"is_reserved":false,"is_disabled":false,"rental_uris":{"android":"levelo://app?vid=33e11670-3c50-4de6-9ea4-95c6a792c4ea","ios":"levelo://app?vid=33e11670-3c50-4de6-9ea4-95c6a792c4ea"},"vehicle_type_id":"4","last_reported":1707358374,"current_range_meters":22800,"station_id":"ce4bhb92rcd13ifvqen0","pricing_plan_id":"free"},{"bike_id":"9bc86460-f133-494e-96d1-8db19a5a3fcf","system_id":"levelo_inurba_marseille","lat":43.290104,"lon":5.356111,"is_reserved":false,"is_disabled":false,"rental_uris":{"android":"levelo://app?vid=9bc86460-f133-494e-96d1-8db19a5a3fcf","ios":"levelo://app?vid=9bc86460-f133-494e-96d1-8db19a5a3fcf"},"vehicle_type_id":"4","last_reported":1707358374,"current_range_meters":31600,"station_id":"ce4bhb92rcd13ifvqen0","pricing_plan_id":"free"},{"bike_id":"bd9c22c1-dbeb-457a-bb55-130ac279322b","system_id":"levelo_inurba_marseille","lat":43.290103,"lon":5.356114,"is_reserved":false,"is_disabled":false,"rental_uris":{"android":"levelo://app?vid=bd9c22c1-dbeb-457a-bb55-130ac279322b","ios":"levelo://app?vid=bd9c22c1-dbeb-457a-bb55-130ac279322b"},"vehicle_type_id":"4","last_reported":1707358374,"current_range_meters":4400,"station_id":"ce4bhb92rcd13ifvqen0","pricing_plan_id":"free"},{"bike_id":"e3b9aa30-2647-46b2-b5b7-95e893c8f3b0","system_id":"levelo_inurba_marseille","lat":43.290104,"lon":5.356111,"is_reserved":false,"is_disabled":false,"rental_uris":{"android":"levelo://app?vid=e3b9aa30-2647-46b2-b5b7-95e893c8f3b0","ios":"levelo://app?vid=e3b9aa30-2647-46b2-b5b7-95e893c8f3b0"},"vehicle_type_id":"4","last_reported":1707358374,"current_range_meters":28000,"station_id":"ce4bhb92rcd13ifvqen0","pricing_plan_id":"free"},{"bike_id":"4289fc24-a0e0-4978-9607-0a6f88007d15","system_id":"levelo_inurba_marseille","lat":43.290104,"lon":5.356111,"is_reserved":false,"is_disabled":false,"rental_uris":{"android":"levelo://app?vid=4289fc24-a0e0-4978-9607-0a6f88007d15","ios":"levelo://app?vid=4289fc24-a0e0-4978-9607-0a6f88007d15"},"vehicle_type_id":"4","last_reported":1707358374,"current_range_meters":6000,"station_id":"ce4bhb92rcd13ifvqen0","pricing_plan_id":"free"},{"bike_id":"6b56f4ba-115e-4f4d-9e39-7dc94024b7f2","system_id":"levelo_inurba_marseille","lat":43.29795,"lon":5.39338,"is_reserved":false,"is_disabled":false,"rental_uris":{"android":"levelo://app?vid=6b56f4ba-115e-4f4d-9e39-7dc94024b7f2","ios":"levelo://app?vid=6b56f4ba-115e-4f4d-9e39-7dc94024b7f2"},"vehicle_type_id":"4","last_reported":1707358374,"current_range_meters":8400,"station_id":"chh1huq6cuj3fo74tm60","pricing_plan_id":"free"},{"bike_id":"ebbcb13f-7426-45cf-a22e-286a4fdfcfe9","system_id":"levelo_inurba_marseille","lat":43.297926,"lon":5.393379,"is_reserved":false,"is_disabled":false,"rental_uris":{"android":"levelo://app?vid=ebbcb13f-7426-45cf-a22e-286a4fdfcfe9","ios":"levelo://app?vid=ebbcb13f-7426-45cf-a22e-286a4fdfcfe9"},"vehicle_type_id":"4","last_reported":1707358374,"current_range_meters":5200,"station_id":"chh1huq6cuj3fo74tm60","pricing_plan_id":"free"},{"bike_id":"72af5da7-cfac-4887-9534-67cd953574a5","system_id":"levelo_inurba_marseille","lat":43.297919,"lon":5.393413,"is_reserved":false,"is_disabled":false,"rental_uris":{"android":"levelo://app?vid=72af5da7-cfac-4887-9534-67cd953574a5","ios":"levelo://app?vid=72af5da7-cfac-4887-9534-67cd953574a5"},"vehicle_type_id":"4","last_reported":1707358374,"current_range_meters":30800,"station_id":"chh1huq6cuj3fo74tm60","pricing_plan_id":"free"},{"bike_id":"7c3f125c-1276-4b9b-8176-fd3b66846262","system_id":"levelo_inurba_marseille","lat":43.297899,"lon":5.393408,"is_reserved":false,"is_disabled":false,"rental_uris":{"android":"levelo://app?vid=7c3f125c-1276-4b9b-8176-fd3b66846262","ios":"levelo://app?vid=7c3f125c-1276-4b9b-8176-fd3b66846262"},"vehicle_type_id":"4","last_reported":1707358374,"current_range_meters":24400,"station_id":"chh1huq6cuj3fo74tm60","pricing_plan_id":"free"},{"bike_id":"a026266b-b691-489a-b7c9-efc7e73952ab","system_id":"levelo_inurba_marseille","lat":43.297906,"lon":5.393416,"is_reserved":false,"is_disabled":false,"rental_uris":{"android":"levelo://app?vid=a026266b-b691-489a-b7c9-efc7e73952ab","ios":"levelo://app?vid=a026266b-b691-489a-b7c9-efc7e73952ab"},"vehicle_type_id":"4","last_reported":1707358374,"current_range_meters":19600,"station_id":"chh1huq6cuj3fo74tm60","pricing_plan_id":"free"},{"bike_id":"830dd829-8191-404a-9616-34a79213acaa","system_id":"levelo_inurba_marseille","lat":43.297815,"lon":5.393548,"is_reserved":false,"is_disabled":false,"rental_uris":{"android":"levelo://app?vid=830dd829-8191-404a-9616-34a79213acaa","ios":"levelo://app?vid=830dd829-8191-404a-9616-34a79213acaa"},"vehicle_type_id":"4","last_reported":1707358374,"current_range_meters":31200,"station_id":"chh1huq6cuj3fo74tm60","pricing_plan_id":"free"},{"bike_id":"2d57fb24-3cbb-4dee-9f44-cdac705734ec","system_id":"levelo_inurba_marseille","lat":43.297815,"lon":5.393548,"is_reserved":false,"is_disabled":false,"rental_uris":{"android":"levelo://app?vid=2d57fb24-3cbb-4dee-9f44-cdac705734ec","ios":"levelo://app?vid=2d57fb24-3cbb-4dee-9f44-cdac705734ec"},"vehicle_type_id":"4","last_reported":1707358374,"current_range_meters":31200,"station_id":"chh1huq6cuj3fo74tm60","pricing_plan_id":"free"},{"bike_id":"1b7e41b1-c68f-4513-807b-fa07556e95c3","system_id":"levelo_inurba_marseille","lat":43.297856,"lon":5.393444,"is_reserved":false,"is_disabled":false,"rental_uris":{"android":"levelo://app?vid=1b7e41b1-c68f-4513-807b-fa07556e95c3","ios":"levelo://app?vid=1b7e41b1-c68f-4513-807b-fa07556e95c3"},"vehicle_type_id":"4","last_reported":1707358374,"current_range_meters":32000,"station_id":"chh1huq6cuj3fo74tm60","pricing_plan_id":"free"},{"bike_id":"ba7895df-fdf0-43d4-b40a-e7e64d29137d","system_id":"levelo_inurba_marseille","lat":43.330442,"lon":5.389148,"is_reserved":false,"is_disabled":false,"rental_uris":{"android":"levelo://app?vid=ba7895df-fdf0-43d4-b40a-e7e64d29137d","ios":"levelo://app?vid=ba7895df-fdf0-43d4-b40a-e7e64d29137d"},"vehicle_type_id":"4","last_reported":1707358374,"current_range_meters":16000,"station_id":"ce4bhr92rcd13ifvqhrg","pricing_plan_id":"free"},{"bike_id":"a144f84b-2256-4d1e-bf96-c67ea36c866c","system_id":"levelo_inurba_marseille","lat":43.297815,"lon":5.393548,"is_reserved":false,"is_disabled":false,"rental_uris":{"android":"levelo://app?vid=a144f84b-2256-4d1e-bf96-c67ea36c866c","ios":"levelo://app?vid=a144f84b-2256-4d1e-bf96-c67ea36c866c"},"vehicle_type_id":"4","last_reported":1707358374,"current_range_meters":23200,"station_id":"chh1huq6cuj3fo74tm60","pricing_plan_id":"free"},{"bike_id":"d432315a-c86f-42be-839e-2aec43941741","system_id":"levelo_inurba_marseille","lat":43.33021,"lon":5.39036,"is_reserved":false,"is_disabled":false,"rental_uris":{"android":"levelo://app?vid=d432315a-c86f-42be-839e-2aec43941741","ios":"levelo://app?vid=d432315a-c86f-42be-839e-2aec43941741"},"vehicle_type_id":"4","last_reported":1707358374,"current_range_meters":19200,"station_id":"ce4bhr92rcd13ifvqhrg","pricing_plan_id":"free"},{"bike_id":"62ca35d7-f049-4885-9fd9-beb6af1eb797","system_id":"levelo_inurba_marseille","lat":43.33022,"lon":5.39038,"is_reserved":false,"is_disabled":false,"rental_uris":{"android":"levelo://app?vid=62ca35d7-f049-4885-9fd9-beb6af1eb797","ios":"levelo://app?vid=62ca35d7-f049-4885-9fd9-beb6af1eb797"},"vehicle_type_id":"4","last_reported":1707358374,"current_range_meters":6400,"station_id":"ce4bhr92rcd13ifvqhrg","pricing_plan_id":"free"},{"bike_id":"f89cb56f-1ffa-4452-b3c0-066fc61b201e","system_id":"levelo_inurba_marseille","lat":43.289743,"lon":5.378304,"is_reserved":false,"is_disabled":false,"rental_uris":{"android":"levelo://app?vid=f89cb56f-1ffa-4452-b3c0-066fc61b201e","ios":"levelo://app?vid=f89cb56f-1ffa-4452-b3c0-066fc61b201e"},"vehicle_type_id":"4","last_reported":1707358374,"current_range_meters":23600,"station_id":"ce4bh9p2rcd13ifvqed0","pricing_plan_id":"free"},{"bike_id":"deb945f0-3a09-42cf-bb32-fff7ace37000","system_id":"levelo_inurba_marseille","lat":43.33024,"lon":5.39036,"is_reserved":false,"is_disabled":false,"rental_uris":{"android":"levelo://app?vid=deb945f0-3a09-42cf-bb32-fff7ace37000","ios":"levelo://app?vid=deb945f0-3a09-42cf-bb32-fff7ace37000"},"vehicle_type_id":"4","last_reported":1707358374,"current_range_meters":26400,"station_id":"ce4bhr92rcd13ifvqhrg","pricing_plan_id":"free"},{"bike_id":"6eabe077-2849-47a8-8abe-001d3af6a89b","system_id":"levelo_inurba_marseille","lat":43.330238,"lon":5.390365,"is_reserved":false,"is_disabled":false,"rental_uris":{"android":"levelo://app?vid=6eabe077-2849-47a8-8abe-001d3af6a89b","ios":"levelo://app?vid=6eabe077-2849-47a8-8abe-001d3af6a89b"},"vehicle_type_id":"4","last_reported":1707358374,"current_range_meters":2000,"station_id":"ce4bhr92rcd13ifvqhrg","pricing_plan_id":"free"},{"bike_id":"d6c7f053-4d6e-47a3-8b08-6d165ecceebf","system_id":"levelo_inurba_marseille","lat":43.33023,"lon":5.39038,"is_reserved":false,"is_disabled":false,"rental_uris":{"android":"levelo://app?vid=d6c7f053-4d6e-47a3-8b08-6d165ecceebf","ios":"levelo://app?vid=d6c7f053-4d6e-47a3-8b08-6d165ecceebf"},"vehicle_type_id":"4","last_reported":1707358374,"current_range_meters":400,"station_id":"ce4bhr92rcd13ifvqhrg","pricing_plan_id":"free"},{"bike_id":"e3cdd8db-1a8c-42b0-8a1d-74e27724a81e","system_id":"levelo_inurba_marseille","lat":43.33021,"lon":5.39041,"is_reserved":false,"is_disabled":false,"rental_uris":{"android":"levelo://app?vid=e3cdd8db-1a8c-42b0-8a1d-74e27724a81e","ios":"levelo://app?vid=e3cdd8db-1a8c-42b0-8a1d-74e27724a81e"},"vehicle_type_id":"4","last_reported":1707358374,"current_range_meters":23600,"station_id":"ce4bhr92rcd13ifvqhrg","pricing_plan_id":"free"},{"bike_id":"bb2a1e1a-3241-485a-8b06-683d46a41490","system_id":"levelo_inurba_marseille","lat":43.295169,"lon":5.390426,"is_reserved":false,"is_disabled":false,"rental_uris":{"android":"levelo://app?vid=bb2a1e1a-3241-485a-8b06-683d46a41490","ios":"levelo://app?vid=bb2a1e1a-3241-485a-8b06-683d46a41490"},"vehicle_type_id":"4","last_reported":1707358374,"current_range_meters":27600,"station_id":"ce4bh3p2rcd13ifvqdp0","pricing_plan_id":"free"},{"bike_id":"e66d35bb-3444-47f6-8a8e-aa756460f589","system_id":"levelo_inurba_marseille","lat":43.33026,"lon":5.39039,"is_reserved":false,"is_disabled":false,"rental_uris":{"android":"levelo://app?vid=e66d35bb-3444-47f6-8a8e-aa756460f589","ios":"levelo://app?vid=e66d35bb-3444-47f6-8a8e-aa756460f589"},"vehicle_type_id":"4","last_reported":1707358374,"current_range_meters":14000,"station_id":"ce4bhr92rcd13ifvqhrg","pricing_plan_id":"free"},{"bike_id":"205997c5-6397-4214-922c-27063a6f525c","system_id":"levelo_inurba_marseille","lat":43.33026,"lon":5.39042,"is_reserved":false,"is_disabled":false,"rental_uris":{"android":"levelo://app?vid=205997c5-6397-4214-922c-27063a6f525c","ios":"levelo://app?vid=205997c5-6397-4214-922c-27063a6f525c"},"vehicle_type_id":"4","last_reported":1707358374,"current_range_meters":6000,"station_id":"ce4bhr92rcd13ifvqhrg","pricing_plan_id":"free"},{"bike_id":"ac6be0e3-ef6d-4f40-91de-c384f4b8fa0b","system_id":"levelo_inurba_marseille","lat":43.33027,"lon":5.39043,"is_reserved":false,"is_disabled":false,"rental_uris":{"android":"levelo://app?vid=ac6be0e3-ef6d-4f40-91de-c384f4b8fa0b","ios":"levelo://app?vid=ac6be0e3-ef6d-4f40-91de-c384f4b8fa0b"},"vehicle_type_id":"4","last_reported":1707358374,"current_range_meters":0,"station_id":"ce4bhr92rcd13ifvqhrg","pricing_plan_id":"free"},{"bike_id":"47f09297-ca42-4e52-9568-386405c17dff","system_id":"levelo_inurba_marseille","lat":43.33024,"lon":5.39048,"is_reserved":false,"is_disabled":false,"rental_uris":{"android":"levelo://app?vid=47f09297-ca42-4e52-9568-386405c17dff","ios":"levelo://app?vid=47f09297-ca42-4e52-9568-386405c17dff"},"vehicle_type_id":"4","last_reported":1707358374,"current_range_meters":6000,"station_id":"ce4bhr92rcd13ifvqhrg","pricing_plan_id":"free"},{"bike_id":"3b1148a6-dcc2-4d9c-b598-be05542a9cae","system_id":"levelo_inurba_marseille","lat":43.33029,"lon":5.390413,"is_reserved":false,"is_disabled":false,"rental_uris":{"android":"levelo://app?vid=3b1148a6-dcc2-4d9c-b598-be05542a9cae","ios":"levelo://app?vid=3b1148a6-dcc2-4d9c-b598-be05542a9cae"},"vehicle_type_id":"4","last_reported":1707358374,"current_range_meters":21600,"station_id":"ce4bhr92rcd13ifvqhrg","pricing_plan_id":"free"},{"bike_id":"1a150546-6eac-42ca-aecb-6d60f56ff58d","system_id":"levelo_inurba_marseille","lat":43.28856,"lon":5.358371,"is_reserved":false,"is_disabled":false,"rental_uris":{"android":"levelo://app?vid=1a150546-6eac-42ca-aecb-6d60f56ff58d","ios":"levelo://app?vid=1a150546-6eac-42ca-aecb-6d60f56ff58d"},"vehicle_type_id":"4","last_reported":1707358374,"current_range_meters":9600,"station_id":"ce4bhb12rcd13ifvqem0","pricing_plan_id":"free"},{"bike_id":"7f76c313-6402-40c3-9f61-948193f3388f","system_id":"levelo_inurba_marseille","lat":43.28856,"lon":5.358371,"is_reserved":false,"is_disabled":false,"rental_uris":{"android":"levelo://app?vid=7f76c313-6402-40c3-9f61-948193f3388f","ios":"levelo://app?vid=7f76c313-6402-40c3-9f61-948193f3388f"},"vehicle_type_id":"4","last_reported":1707358374,"current_range_meters":18000,"station_id":"ce4bhb12rcd13ifvqem0","pricing_plan_id":"free"},{"bike_id":"fd079e5f-bb49-41d4-9310-baea53b5725c","system_id":"levelo_inurba_marseille","lat":43.28856,"lon":5.358371,"is_reserved":false,"is_disabled":false,"rental_uris":{"android":"levelo://app?vid=fd079e5f-bb49-41d4-9310-baea53b5725c","ios":"levelo://app?vid=fd079e5f-bb49-41d4-9310-baea53b5725c"},"vehicle_type_id":"4","last_reported":1707358374,"current_range_meters":8800,"station_id":"ce4bhb12rcd13ifvqem0","pricing_plan_id":"free"},