{"last_updated":1758179382,"ttl":60,"version":"2.2","data":{"bikes":[{"bike_id":"d4848414-5abf-43a3-8dbb-77f6fe16fba7","system_id":"levelo_inurba_marseille","lat":43.28943,"lon":5.39626,"is_reserved":false,"is_disabled":false,"rental_uris":{"android":"levelo://app?vid=d4848414-5abf-43a3-8dbb-77f6fe16fba7","ios":"levelo://app?vid=d4848414-5abf-43a3-8dbb-77f6fe16fba7"},"vehicle_type_id":"4","last_reported":1758179382,"current_range_meters":3200,"station_id":"ce4bh3h2rcd13ifvqdn0","pricing_plan_id":"cebpf4jnsgd1na2vs0mg"},{"bike_id":"93c985ca-e232-4f5e-b22d-c0cfe77a2a83","system_id":"levelo_inurba_marseille","lat":43.29527,"lon":5.3904,"is_reserved":false,"is_disabled":false,"rental_uris":{"android":"levelo://app?vid=93c985ca-e232-4f5e-b22d-c0cfe77a2a83","ios":"levelo://app?vid=93c985ca-e232-4f5e-b22d-c0cfe77a2a83"},"vehicle_type_id":"4","last_reported":1758179382,"current_range_meters":3200,"station_id":"ce4bh3p2rcd13ifvqdp0","pricing_plan_id":"cebpf4jnsgd1na2vs0mg"},{"bike_id":"32ca9d94-8781-4edc-b80f-cdc9cf1fb9fc","system_id":"levelo_inurba_marseille","lat":43.21763,"lon":5.34613,"is_reserved":false,"is_disabled":true,"rental_uris":{"android":"levelo://app?vid=32ca9d94-8781-4edc-b80f-cdc9cf1fb9fc","ios":"levelo://app?vid=32ca9d94-8781-4edc-b80f-cdc9cf1fb9fc"},"vehicle_type_id":"4","last_reported":1758179382,"current_range_meters":3200,"station_id":"st_cvj6r9ubvosntc0bgbag","pricing_plan_id":"cebpf4jnsgd1na2vs0mg"},{"bike_id":"13d4eea8-9844-42fe-8267-eaf155e127a2","system_id":"levelo_inurba_marseille","lat":43.299869,"lon":5.371738,"is_reserved":false,"is_disabled":true,"rental_uris":{"android":"levelo://app?vid=13d4eea8-9844-42fe-8267-eaf155e127a2","ios":"levelo://app?vid=13d4eea8-9844-42fe-8267-eaf155e127a2"},"vehicle_type_id":"4","last_reported":1758179382,"current_range_meters":3200,"station_id":"","pricing_plan_id":"cebpf4jnsgd1na2vs0mg"},{"bike_id":"0acb18aa-de67-45ef-966d-6cb60eb2fbea","system_id":"levelo_inurba_marseille","lat":43.25828,"lon":5.39439,"is_reserved":false,"is_disabled":false,"rental_uris":{"android":"levelo://app?vid=0acb18aa-de67-45ef-966d-6cb60eb2fbea","ios":"levelo://app?vid=0acb18aa-de67-45ef-966d-6cb60eb2fbea"},"vehicle_type_id":"4","last_reported":1758179382,"current_range_meters":3600,"station_id":"ce4bhip2rcd13ifvqft0","pricing_plan_id":"cebpf4jnsgd1na2vs0mg"},{"bike_id":"8aba1a4a-b0b7-4322-8974-2ad751d4d91e","system_id":"levelo_inurba_marseille","lat":43.25939,"lon":5.40931,"is_reserved":false,"is_disabled":false,"rental_uris":{"android":"levelo://app?vid=8aba1a4a-b0b7-4322-8974-2ad751d4d91e","ios":"levelo://app?vid=8aba1a4a-b0b7-4322-8974-2ad751d4d91e"},"vehicle_type_id":"4","last_reported":1758179382,"current_range_meters":3600,"station_id":"ce4bhm92rcd13ifvqglg","pricing_plan_id":"cebpf4jnsgd1na2vs0mg"},{"bike_id":"eaa1152f-a76e-41b7-a75c-53adab8ef88a","system_id":"levelo_inurba_marseille","lat":43.25585,"lon":5.38234,"is_reserved":false,"is_disabled":false,"rental_uris":{"android":"levelo://app?vid=eaa1152f-a76e-41b7-a75c-53adab8ef88a","ios":"levelo://app?vid=eaa1152f-a76e-41b7-a75c-53adab8ef88a"},"vehicle_type_id":"4","last_reported":1758179382,"current_range_meters":3600,"station_id":"ce4bhih2rcd13ifvqfs0","pricing_plan_id":"cebpf4jnsgd1na2vs0mg"},{"bike_id":"cce6acae-e097-4c35-bd09-8f810587f8d2","system_id":"levelo_inurba_marseille","lat":43.2495,"lon":5.40489,"is_reserved":false,"is_disabled":false,"rental_uris":{"android":"levelo://app?vid=cce6acae-e097-4c35-bd09-8f810587f8d2","ios":"levelo://app?vid=cce6acae-e097-4c35-bd09-8f810587f8d2"},"vehicle_type_id":"4","last_reported":1758179382,"current_range_meters":4000,"station_id":"st_d2ngiaodas8pm72gd1h0","pricing_plan_id":"cebpf4jnsgd1na2vs0mg"},{"bike_id":"bb5497c6-47dd-4b33-87f7-bf4afc550497","system_id":"levelo_inurba_marseille","lat":43.29518,"lon":5.39405,"is_reserved":false,"is_disabled":false,"rental_uris":{"android":"levelo://app?vid=bb5497c6-47dd-4b33-87f7-bf4afc550497","ios":"levelo://app?vid=bb5497c6-47dd-4b33-87f7-bf4afc550497"},"vehicle_type_id":"4","last_reported":1758179382,"current_range_meters":4000,"station_id":"ce4bh292rcd13ifvqdf0","pricing_plan_id":"cebpf4jnsgd1na2vs0mg"},{"bike_id":"f895eb90-d970-4448-b096-5a166a903f92","system_id":"levelo_inurba_marseille","lat":43.26553,"lon":5.37302,"is_reserved":false,"is_disabled":true,"rental_uris":{"android":"levelo://app?vid=f895eb90-d970-4448-b096-5a166a903f92","ios":"levelo://app?vid=f895eb90-d970-4448-b096-5a166a903f92"},"vehicle_type_id":"4","last_reported":1758179382,"current_range_meters":4800,"station_id":"ce4bhg12rcd13ifvqf70","pricing_plan_id":"cebpf4jnsgd1na2vs0mg"},{"bike_id":"55cba3df-8fdb-43b5-a9c8-4b0aa67af721","system_id":"levelo_inurba_marseille","lat":43.24182,"lon":5.39734,"is_reserved":false,"is_disabled":false,"rental_uris":{"android":"levelo://app?vid=55cba3df-8fdb-43b5-a9c8-4b0aa67af721","ios":"levelo://app?vid=55cba3df-8fdb-43b5-a9c8-4b0aa67af721"},"vehicle_type_id":"4","last_reported":1758179382,"current_range_meters":5600,"station_id":"ce4bhn12rcd13ifvqgpg","pricing_plan_id":"cebpf4jnsgd1na2vs0mg"},{"bike_id":"5f3fa102-e811-4afe-8be6-9792148ce4ba","system_id":"levelo_inurba_marseille","lat":43.33769,"lon":5.3748,"is_reserved":false,"is_disabled":false,"rental_uris":{"android":"levelo://app?vid=5f3fa102-e811-4afe-8be6-9792148ce4ba","ios":"levelo://app?vid=5f3fa102-e811-4afe-8be6-9792148ce4ba"},"vehicle_type_id":"4","last_reported":1758179382,"current_range_meters":5600,"station_id":"","pricing_plan_id":"cebpf4jnsgd1na2vs0mg"},{"bike_id":"3b26aa0d-3679-4b4c-9b55-1096f6d08a9d","system_id":"levelo_inurba_marseille","lat":43.312964,"lon":5.393899,"is_reserved":false,"is_disabled":false,"rental_uris":{"android":"levelo://app?vid=3b26aa0d-3679-4b4c-9b55-1096f6d08a9d","ios":"levelo://app?vid=3b26aa0d-3679-4b4c-9b55-1096f6d08a9d"},"vehicle_type_id":"4","last_reported":1758179382,"current_range_meters":5600,"station_id":"","pricing_plan_id":"cebpf4jnsgd1na2vs0mg"},{"bike_id":"84d454fd-6392-4352-83cb-fcd51fda253e","system_id":"levelo_inurba_marseille","lat":43.28845,"lon":5.39306,"is_reserved":false,"is_disabled":false,"rental_uris":{"android":"levelo://app?vid=84d454fd-6392-4352-83cb-fcd51fda253e","ios":"levelo://app?vid=84d454fd-6392-4352-83cb-fcd51fda253e"},"vehicle_type_id":"4","last_reported":1758179382,"current_range_meters":5600,"station_id":"ce4bh2p2rcd13ifvqdi0","pricing_plan_id":"cebpf4jnsgd1na2vs0mg"},{"bike_id":"1cfe33e7-beb3-43be-b7f9-781381af8601","system_id":"levelo_inurba_marseille","lat":43.28673,"lon":5.3636,"is_reserved":false,"is_disabled":false,"rental_uris":{"android":"levelo://app?vid=1cfe33e7-beb3-43be-b7f9-781381af8601","ios":"levelo://app?vid=1cfe33e7-beb3-43be-b7f9-781381af8601"},"vehicle_type_id":"4","last_reported":1758179382,"current_range_meters":5600,"station_id":"ce4bhah2rcd13ifvqej0","pricing_plan_id":"cebpf4jnsgd1na2vs0mg"},{"bike_id":"a74c671b-22f3-43ab-b68c-356920c2c6c0","system_id":"levelo_inurba_marseille","lat":43.28079,"lon":5.39661,"is_reserved":false,"is_disabled":false,"rental_uris":{"android":"levelo://app?vid=a74c671b-22f3-43ab-b68c-356920c2c6c0","ios":"levelo://app?vid=a74c671b-22f3-43ab-b68c-356920c2c6c0"},"vehicle_type_id":"4","last_reported":1758179382,"current_range_meters":6000,"station_id":"ce4bho12rcd13ifvqh2g","pricing_plan_id":"cebpf4jnsgd1na2vs0mg"},{"bike_id":"a47e0746-7741-4d97-b292-e00670fe75fc","system_id":"levelo_inurba_marseille","lat":43.3229,"lon":5.38276,"is_reserved":false,"is_disabled":false,"rental_uris":{"android":"levelo://app?vid=a47e0746-7741-4d97-b292-e00670fe75fc","ios":"levelo://app?vid=a47e0746-7741-4d97-b292-e00670fe75fc"},"vehicle_type_id":"4","last_reported":1758179382,"current_range_meters":6400,"station_id":"ce4bhr12rcd13ifvqhqg","pricing_plan_id":"cebpf4jnsgd1na2vs0mg"},{"bike_id":"c954df22-ee4c-466d-8659-8b2793037813","system_id":"levelo_inurba_marseille","lat":43.31471,"lon":5.37273,"is_reserved":false,"is_disabled":false,"rental_uris":{"android":"levelo://app?vid=c954df22-ee4c-466d-8659-8b2793037813","ios":"levelo://app?vid=c954df22-ee4c-466d-8659-8b2793037813"},"vehicle_type_id":"4","last_reported":1758179382,"current_range_meters":6400,"station_id":"ce4bgt12rcd13ifvqcd0","pricing_plan_id":"cebpf4jnsgd1na2vs0mg"},{"bike_id":"50df05c5-9e78-4a32-8c15-ea1e068d3278","system_id":"levelo_inurba_marseille","lat":43.269528,"lon":5.38625,"is_reserved":false,"is_disabled":false,"rental_uris":{"android":"levelo://app?vid=50df05c5-9e78-4a32-8c15-ea1e068d3278","ios":"levelo://app?vid=50df05c5-9e78-4a32-8c15-ea1e068d3278"},"vehicle_type_id":"4","last_reported":1758179382,"current_range_meters":6400,"station_id":"","pricing_plan_id":"cebpf4jnsgd1na2vs0mg"},{"bike_id":"02850d12-1333-4693-ac26-1f52cc9f6725","system_id":"levelo_inurba_marseille","lat":43.24182,"lon":5.3973,"is_reserved":false,"is_disabled":false,"rental_uris":{"android":"levelo://app?vid=02850d12-1333-4693-ac26-1f52cc9f6725","ios":"levelo://app?vid=02850d12-1333-4693-ac26-1f52cc9f6725"},"vehicle_type_id":"4","last_reported":1758179382,"current_range_meters":6400,"station_id":"ce4bhn12rcd13ifvqgpg","pricing_plan_id":"cebpf4jnsgd1na2vs0mg"},{"bike_id":"0ede21be-37d9-4495-b672-80274a6292be","system_id":"levelo_inurba_marseille","lat":43.35062,"lon":5.34124,"is_reserved":false,"is_disabled":true,"rental_uris":{"android":"levelo://app?vid=0ede21be-37d9-4495-b672-80274a6292be","ios":"levelo://app?vid=0ede21be-37d9-4495-b672-80274a6292be"},"vehicle_type_id":"4","last_reported":1758179382,"current_range_meters":6400,"station_id":"","pricing_plan_id":"cebpf4jnsgd1na2vs0mg"},{"bike_id":"5694e8e0-44b2-403f-b389-f777d72af76b","system_id":"levelo_inurba_marseille","lat":43.259482,"lon":5.409224,"is_reserved":false,"is_disabled":false,"rental_uris":{"android":"levelo://app?vid=5694e8e0-44b2-403f-b389-f777d72af76b","ios":"levelo://app?vid=5694e8e0-44b2-403f-b389-f777d72af76b"},"vehicle_type_id":"4","last_reported":1758179382,"current_range_meters":6800,"station_id":"ce4bhm92rcd13ifvqglg","pricing_plan_id":"cebpf4jnsgd1na2vs0mg"},{"bike_id":"775af279-8ac9-4585-9121-809be9b13265","system_id":"levelo_inurba_marseille","lat":43.3377,"lon":5.37448,"is_reserved":false,"is_disabled":false,"rental_uris":{"android":"levelo://app?vid=775af279-8ac9-4585-9121-809be9b13265","ios":"levelo://app?vid=775af279-8ac9-4585-9121-809be9b13265"},"vehicle_type_id":"4","last_reported":1758179382,"current_range_meters":6800,"station_id":"","pricing_plan_id":"cebpf4jnsgd1na2vs0mg"},{"bike_id":"e1c987cc-6154-43d6-99c4-91e79701af84","system_id":"levelo_inurba_marseille","lat":43.29899,"lon":5.43671,"is_reserved":false,"is_disabled":false,"rental_uris":{"android":"levelo://app?vid=e1c987cc-6154-43d6-99c4-91e79701af84","ios":"levelo://app?vid=e1c987cc-6154-43d6-99c4-91e79701af84"},"vehicle_type_id":"4","last_reported":1758179382,"current_range_meters":6800,"station_id":"ce4bhpp2rcd13ifvqhfg","pricing_plan_id":"cebpf4jnsgd1na2vs0mg"},{"bike_id":"336c74d9-d9c9-46d7-a94b-134b36ad023a","system_id":"levelo_inurba_marseille","lat":43.2988,"lon":5.37899,"is_reserved":false,"is_disabled":false,"rental_uris":{"android":"levelo://app?vid=336c74d9-d9c9-46d7-a94b-134b36ad023a","ios":"levelo://app?vid=336c74d9-d9c9-46d7-a94b-134b36ad023a"},"vehicle_type_id":"4","last_reported":1758179382,"current_range_meters":6800,"station_id":"","pricing_plan_id":"cebpf4jnsgd1na2vs0mg"},{"bike_id":"003515e8-8117-44bb-979d-5f47e8d50fda","system_id":"levelo_inurba_marseille","lat":43.30627,"lon":5.37593,"is_reserved":false,"is_disabled":false,"rental_uris":{"android":"levelo://app?vid=003515e8-8117-44bb-979d-5f47e8d50fda","ios":"levelo://app?vid=003515e8-8117-44bb-979d-5f47e8d50fda"},"vehicle_type_id":"4","last_reported":1758179382,"current_range_meters":7200,"station_id":"","pricing_plan_id":"cebpf4jnsgd1na2vs0mg"},{"bike_id":"a1aa5f54-87f0-4fc3-bc84-78c0ed21c3ba","system_id":"levelo_inurba_marseille","lat":43.29582,"lon":5.38121,"is_reserved":false,"is_disabled":false,"rental_uris":{"android":"levelo://app?vid=a1aa5f54-87f0-4fc3-bc84-78c0ed21c3ba","ios":"levelo://app?vid=a1aa5f54-87f0-4fc3-bc84-78c0ed21c3ba"},"vehicle_type_id":"4","last_reported":1758179382,"current_range_meters":7200,"station_id":"","pricing_plan_id":"cebpf4jnsgd1na2vs0mg"},{"bike_id":"28809a29-aa2d-4ec2-b940-e184cc8f3c3e","system_id":"levelo_inurba_marseille","lat":43.26686,"lon":5.38261,"is_reserved":false,"is_disabled":false,"rental_uris":{"android":"levelo://app?vid=28809a29-aa2d-4ec2-b940-e184cc8f3c3e","ios":"levelo://app?vid=28809a29-aa2d-4ec2-b940-e184cc8f3c3e"},"vehicle_type_id":"4","last_reported":1758179382,"current_range_meters":7200,"station_id":"ce4bhg92rcd13ifvqf90","pricing_plan_id":"cebpf4jnsgd1na2vs0mg"},{"bike_id":"4e816602-f96a-4ec5-92a3-189e2039073a","system_id":"levelo_inurba_marseille","lat":43.29604,"lon":5.38113,"is_reserved":false,"is_disabled":false,"rental_uris":{"android":"levelo://app?vid=4e816602-f96a-4ec5-92a3-189e2039073a","ios":"levelo://app?vid=4e816602-f96a-4ec5-92a3-189e2039073a"},"vehicle_type_id":"4","last_reported":1758179382,"current_range_meters":8000,"station_id":"","pricing_plan_id":"cebpf4jnsgd1na2vs0mg"},{"bike_id":"27eb4154-5730-4263-acce-36109249229d","system_id":"levelo_inurba_marseille","lat":43.25002,"lon":5.38925,"is_reserved":false,"is_disabled":false,"rental_uris":{"android":"levelo://app?vid=27eb4154-5730-4263-acce-36109249229d","ios":"levelo://app?vid=27eb4154-5730-4263-acce-36109249229d"},"vehicle_type_id":"4","last_reported":1758179382,"current_range_meters":8000,"station_id":"ce4bhgp2rcd13ifvqfd0","pricing_plan_id":"cebpf4jnsgd1na2vs0mg"},{"bike_id":"046ba709-b940-4fa3-9690-1d81db536e4b","system_id":"levelo_inurba_marseille","lat":43.22565,"lon":5.41643,"is_reserved":false,"is_disabled":false,"rental_uris":{"android":"levelo://app?vid=046ba709-b940-4fa3-9690-1d81db536e4b","ios":"levelo://app?vid=046ba709-b940-4fa3-9690-1d81db536e4b"},"vehicle_type_id":"4","last_reported":1758179382,"current_range_meters":8400,"station_id":"st_d2o4gvlbi1j2169b742g","pricing_plan_id":"cebpf4jnsgd1na2vs0mg"},{"bike_id":"5cebaa99-7be9-4a3f-9cc0-5cdfdaef03f0","system_id":"levelo_inurba_marseille","lat":43.225319,"lon":5.348348,"is_reserved":false,"is_disabled":false,"rental_uris":{"android":"levelo://app?vid=5cebaa99-7be9-4a3f-9cc0-5cdfdaef03f0","ios":"levelo://app?vid=5cebaa99-7be9-4a3f-9cc0-5cdfdaef03f0"},"vehicle_type_id":"4","last_reported":1758179382,"current_range_meters":8400,"station_id":"","pricing_plan_id":"cebpf4jnsgd1na2vs0mg"},{"bike_id":"dc056a5f-dd0c-437c-bb54-187cc2a010ce","system_id":"levelo_inurba_marseille","lat":43.29777,"lon":5.39343,"is_reserved":false,"is_disabled":true,"rental_uris":{"android":"levelo://app?vid=dc056a5f-dd0c-437c-bb54-187cc2a010ce","ios":"levelo://app?vid=dc056a5f-dd0c-437c-bb54-187cc2a010ce"},"vehicle_type_id":"4","last_reported":1758179382,"current_range_meters":8400,"station_id":"chh1huq6cuj3fo74tm60","pricing_plan_id":"cebpf4jnsgd1na2vs0mg"},{"bike_id":"e098e785-44ed-4a2b-a776-0f126bc3ea0e","system_id":"levelo_inurba_marseille","lat":43.28934,"lon":5.39627,"is_reserved":false,"is_disabled":false,"rental_uris":{"android":"levelo://app?vid=e098e785-44ed-4a2b-a776-0f126bc3ea0e","ios":"levelo://app?vid=e098e785-44ed-4a2b-a776-0f126bc3ea0e"},"vehicle_type_id":"4","last_reported":1758179382,"current_range_meters":8400,"station_id":"ce4bh3h2rcd13ifvqdn0","pricing_plan_id":"cebpf4jnsgd1na2vs0mg"},{"bike_id":"0c543abb-87a6-4b82-839f-b3182a8cbf7c","system_id":"levelo_inurba_marseille","lat":43.25939,"lon":5.40913,"is_reserved":false,"is_disabled":false,"rental_uris":{"android":"levelo://app?vid=0c543abb-87a6-4b82-839f-b3182a8cbf7c","ios":"levelo://app?vid=0c543abb-87a6-4b82-839f-b3182a8cbf7c"},"vehicle_type_id":"4","last_reported":1758179382,"current_range_meters":8800,"station_id":"ce4bhm92rcd13ifvqglg","pricing_plan_id":"cebpf4jnsgd1na2vs0mg"},{"bike_id":"ca5a1340-d41e-49f3-95f8-599734e0a36c","system_id":"levelo_inurba_marseille","lat":43.225336,"lon":5.348339,"is_reserved":false,"is_disabled":false,"rental_uris":{"android":"levelo://app?vid=ca5a1340-d41e-49f3-95f8-599734e0a36c","ios":"levelo://app?vid=ca5a1340-d41e-49f3-95f8-599734e0a36c"},"vehicle_type_id":"4","last_reported":1758179382,"current_range_meters":8800,"station_id":"","pricing_plan_id":"cebpf4jnsgd1na2vs0mg"},{"bike_id":"05deee42-38f8-4f34-874c-fcd76d6fb332","system_id":"levelo_inurba_marseille","lat":43.29327,"lon":5.37409,"is_reserved":false,"is_disabled":false,"rental_uris":{"android":"levelo://app?vid=05deee42-38f8-4f34-874c-fcd76d6fb332","ios":"levelo://app?vid=05deee42-38f8-4f34-874c-fcd76d6fb332"},"vehicle_type_id":"4","last_reported":1758179382,"current_range_meters":8800,"station_id":"","pricing_plan_id":"cebpf4jnsgd1na2vs0mg"},{"bike_id":"369b2844-cce5-4eaf-8d79-5e0aa3032874","system_id":"levelo_inurba_marseille","lat":43.30536,"lon":5.38423,"is_reserved":false,"is_disabled":false,"rental_uris":{"android":"levelo://app?vid=369b2844-cce5-4eaf-8d79-5e0aa3032874","ios":"levelo://app?vid=369b2844-cce5-4eaf-8d79-5e0aa3032874"},"vehicle_type_id":"4","last_reported":1758179382,"current_range_meters":8800,"station_id":"ce4bgg92rcd13ifvqb30","pricing_plan_id":"cebpf4jnsgd1na2vs0mg"},{"bike_id":"97fac187-45a1-4e8f-be9b-a5c24559a733","system_id":"levelo_inurba_marseille","lat":43.21749,"lon":5.346078,"is_reserved":false,"is_disabled":false,"rental_uris":{"android":"levelo://app?vid=97fac187-45a1-4e8f-be9b-a5c24559a733","ios":"levelo://app?vid=97fac187-45a1-4e8f-be9b-a5c24559a733"},"vehicle_type_id":"4","last_reported":1758179382,"current_range_meters":9200,"station_id":"st_cvj6r9ubvosntc0bgbag","pricing_plan_id":"cebpf4jnsgd1na2vs0mg"},{"bike_id":"0a714f01-7287-46f8-bbb6-81d9c8aaefe2","system_id":"levelo_inurba_marseille","lat":43.29696,"lon":5.39154,"is_reserved":false,"is_disabled":false,"rental_uris":{"android":"levelo://app?vid=0a714f01-7287-46f8-bbb6-81d9c8aaefe2","ios":"levelo://app?vid=0a714f01-7287-46f8-bbb6-81d9c8aaefe2"},"vehicle_type_id":"4","last_reported":1758179382,"current_range_meters":9200,"station_id":"","pricing_plan_id":"cebpf4jnsgd1na2vs0mg"},{"bike_id":"00ebc38d-33cc-476e-8c90-8fc4a0f76041","system_id":"levelo_inurba_marseille","lat":43.27914,"lon":5.39594,"is_reserved":false,"is_disabled":true,"rental_uris":{"android":"levelo://app?vid=00ebc38d-33cc-476e-8c90-8fc4a0f76041","ios":"levelo://app?vid=00ebc38d-33cc-476e-8c90-8fc4a0f76041"},"vehicle_type_id":"4","last_reported":1758179382,"current_range_meters":9200,"station_id":"ce4bhf92rcd13ifvqf40","pricing_plan_id":"cebpf4jnsgd1na2vs0mg"},{"bike_id":"0a2e2756-8bf6-4279-a120-8478c237834b","system_id":"levelo_inurba_marseille","lat":43.26502,"lon":5.39563,"is_reserved":false,"is_disabled":true,"rental_uris":{"android":"levelo://app?vid=0a2e2756-8bf6-4279-a120-8478c237834b","ios":"levelo://app?vid=0a2e2756-8bf6-4279-a120-8478c237834b"},"vehicle_type_id":"4","last_reported":1758179382,"current_range_meters":9200,"station_id":"ce4bhi12rcd13ifvqfq0","pricing_plan_id":"cebpf4jnsgd1na2vs0mg"},{"bike_id":"d2d21405-7d84-46d6-9542-57aa659023fa","system_id":"levelo_inurba_marseille","lat":43.331201,"lon":5.37885,"is_reserved":false,"is_disabled":false,"rental_uris":{"android":"levelo://app?vid=d2d21405-7d84-46d6-9542-57aa659023fa","ios":"levelo://app?vid=d2d21405-7d84-46d6-9542-57aa659023fa"},"vehicle_type_id":"4","last_reported":1758179382,"current_range_meters":9200,"station_id":"","pricing_plan_id":"cebpf4jnsgd1na2vs0mg"},{"bike_id":"168fd2a1-3a79-4038-aa91-5ca9718c5fb5","system_id":"levelo_inurba_marseille","lat":43.28936,"lon":5.36403,"is_reserved":false,"is_disabled":false,"rental_uris":{"android":"levelo://app?vid=168fd2a1-3a79-4038-aa91-5ca9718c5fb5","ios":"levelo://app?vid=168fd2a1-3a79-4038-aa91-5ca9718c5fb5"},"vehicle_type_id":"4","last_reported":1758179382,"current_range_meters":9600,"station_id":"ce4bhc92rcd13ifvqetg","pricing_plan_id":"cebpf4jnsgd1na2vs0mg"},{"bike_id":"d3f01eee-6865-48cb-b28e-9420d7bc3fe8","system_id":"levelo_inurba_marseille","lat":43.25884,"lon":5.40854,"is_reserved":false,"is_disabled":false,"rental_uris":{"android":"levelo://app?vid=d3f01eee-6865-48cb-b28e-9420d7bc3fe8","ios":"levelo://app?vid=d3f01eee-6865-48cb-b28e-9420d7bc3fe8"},"vehicle_type_id":"4","last_reported":1758179382,"current_range_meters":9600,"station_id":"","pricing_plan_id":"cebpf4jnsgd1na2vs0mg"},{"bike_id":"2a5e641a-ca90-4f3a-9350-63bb94d9cebf","system_id":"levelo_inurba_marseille","lat":43.255658,"lon":5.391788,"is_reserved":false,"is_disabled":false,"rental_uris":{"android":"levelo://app?vid=2a5e641a-ca90-4f3a-9350-63bb94d9cebf","ios":"levelo://app?vid=2a5e641a-ca90-4f3a-9350-63bb94d9cebf"},"vehicle_type_id":"4","last_reported":1758179382,"current_range_meters":9600,"station_id":"","pricing_plan_id":"cebpf4jnsgd1na2vs0mg"},{"bike_id":"25982bbd-22c6-498c-8955-c3c65582a4c5","system_id":"levelo_inurba_marseille","lat":43.28943,"lon":5.36379,"is_reserved":false,"is_disabled":false,"rental_uris":{"android":"levelo://app?vid=25982bbd-22c6-498c-8955-c3c65582a4c5","ios":"levelo://app?vid=25982bbd-22c6-498c-8955-c3c65582a4c5"},"vehicle_type_id":"4","last_reported":1758179382,"current_range_meters":9600,"station_id":"ce4bhc92rcd13ifvqetg","pricing_plan_id":"cebpf4jnsgd1na2vs0mg"},{"bike_id":"9dd09dd6-4599-4966-88e3-557e85655b9f","system_id":"levelo_inurba_marseille","lat":43.29796,"lon":5.38073,"is_reserved":false,"is_disabled":false,"rental_uris":{"android":"levelo://app?vid=9dd09dd6-4599-4966-88e3-557e85655b9f","ios":"levelo://app?vid=9dd09dd6-4599-4966-88e3-557e85655b9f"},"vehicle_type_id":"4","last_reported":1758179382,"current_range_meters":10000,"station_id":"","pricing_plan_id":"cebpf4jnsgd1na2vs0mg"},{"bike_id":"9f44ce56-6a66-4c69-aab6-b8d32c89739a","system_id":"levelo_inurba_marseille","lat":43.30887,"lon":5.39661,"is_reserved":false,"is_disabled":false,"rental_uris":{"android":"levelo://app?vid=9f44ce56-6a66-4c69-aab6-b8d32c89739a","ios":"levelo://app?vid=9f44ce56-6a66-4c69-aab6-b8d32c89739a"},"vehicle_type_id":"4","last_reported":1758179382,"current_range_meters":9600,"station_id":"ce4bh012rcd13ifvqcv0","pricing_plan_id":"cebpf4jnsgd1na2vs0mg"},{"bike_id":"a2cc1c2f-1d11-48db-982e-b4e7fb30e192","system_id":"levelo_inurba_marseille","lat":43.32476,"lon":5.36602,"is_reserved":false,"is_disabled":false,"rental_uris":{"android":"levelo://app?vid=a2cc1c2f-1d11-48db-982e-b4e7fb30e192","ios":"levelo://app?vid=a2cc1c2f-1d11-48db-982e-b4e7fb30e192"},"vehicle_type_id":"4","last_reported":1758179382,"current_range_meters":10000,"station_id":"ce4bhs12rcd13ifvqhvg","pricing_plan_id":"cebpf4jnsgd1na2vs0mg"},{"bike_id":"4e95c6e1-f114-4f0a-91a2-386ad3355181","system_id":"levelo_inurba_marseille","lat":43.29557,"lon":5.42297,"is_reserved":false,"is_disabled":false,"rental_uris":{"android":"levelo://app?vid=4e95c6e1-f114-4f0a-91a2-386ad3355181","ios":"levelo://app?vid=4e95c6e1-f114-4f0a-91a2-386ad3355181"},"vehicle_type_id":"4","last_reported":1758179382,"current_range_meters":10000,"station_id":"ce4bhph2rcd13ifvqhdg","pricing_plan_id":"cebpf4jnsgd1na2vs0mg"},{"bike_id":"be7e6a52-5f32-4f5d-ab19-09bbc34d35a2","system_id":"levelo_inurba_marseille","lat":43.21193,"lon":5.35083,"is_reserved":false,"is_disabled":false,"rental_uris":{"android":"levelo://app?vid=be7e6a52-5f32-4f5d-ab19-09bbc34d35a2","ios":"levelo://app?vid=be7e6a52-5f32-4f5d-ab19-09bbc34d35a2"},"vehicle_type_id":"4","last_reported":1758179382,"current_range_meters":10000,"station_id":"st_cvj6sg6p6f1abm77japg","pricing_plan_id":"cebpf4jnsgd1na2vs0mg"},{"bike_id":"5701fe9c-3e98-4b9f-a910-5eb395d4e5d3","system_id":"levelo_inurba_marseille","lat":43.305389,"lon":5.384223,"is_reserved":false,"is_disabled":false,"rental_uris":{"android":"levelo://app?vid=5701fe9c-3e98-4b9f-a910-5eb395d4e5d3","ios":"levelo://app?vid=5701fe9c-3e98-4b9f-a910-5eb395d4e5d3"},"vehicle_type_id":"4","last_reported":1758179382,"current_range_meters":10000,"station_id":"ce4bgg92rcd13ifvqb30","pricing_plan_id":"cebpf4jnsgd1na2vs0mg"},{"bike_id":"3ce9e976-d058-4189-a9b9-eb595eb79d81","system_id":"levelo_inurba_marseille","lat":43.25942,"lon":5.40909,"is_reserved":false,"is_disabled":false,"rental_uris":{"android":"levelo://app?vid=3ce9e976-d058-4189-a9b9-eb595eb79d81","ios":"levelo://app?vid=3ce9e976-d058-4189-a9b9-eb595eb79d81"},"vehicle_type_id":"4","last_reported":1758179382,"current_range_meters":10000,"station_id":"ce4bhm92rcd13ifvqglg","pricing_plan_id":"cebpf4jnsgd1na2vs0mg"},{"bike_id":"c4c1cfdb-7ad1-4afd-8af7-e6ca6cadd19a","system_id":"levelo_inurba_marseille","lat":43.33752,"lon":5.37446,"is_reserved":false,"is_disabled":true,"rental_uris":{"android":"levelo://app?vid=c4c1cfdb-7ad1-4afd-8af7-e6ca6cadd19a","ios":"levelo://app?vid=c4c1cfdb-7ad1-4afd-8af7-e6ca6cadd19a"},"vehicle_type_id":"4","last_reported":1758179382,"current_range_meters":10000,"station_id":"","pricing_plan_id":"cebpf4jnsgd1na2vs0mg"},{"bike_id":"fb5baf68-5265-43c1-8147-25defffc3465","system_id":"levelo_inurba_marseille","lat":43.24067,"lon":5.37758,"is_reserved":false,"is_disabled":false,"rental_uris":{"android":"levelo://app?vid=fb5baf68-5265-43c1-8147-25defffc3465","ios":"levelo://app?vid=fb5baf68-5265-43c1-8147-25defffc3465"},"vehicle_type_id":"4","last_reported":1758179382,"current_range_meters":10800,"station_id":"ce4bhnp2rcd13ifvqgvg","pricing_plan_id":"cebpf4jnsgd1na2vs0mg"},{"bike_id":"521e09ca-3685-4545-9cd6-4c1c8368356a","system_id":"levelo_inurba_marseille","lat":43.2463,"lon":5.43149,"is_reserved":false,"is_disabled":false,"rental_uris":{"android":"levelo://app?vid=521e09ca-3685-4545-9cd6-4c1c8368356a","ios":"levelo://app?vid=521e09ca-3685-4545-9cd6-4c1c8368356a"},"vehicle_type_id":"4","last_reported":1758179382,"current_range_meters":10800,"station_id":"st_d2m6c4gdas8pm72e190g","pricing_plan_id":"cebpf4jnsgd1na2vs0mg"},{"bike_id":"37bae93e-1b5e-4ea4-9222-50c60879087c","system_id":"levelo_inurba_marseille","lat":43.28616,"lon":5.35108,"is_reserved":false,"is_disabled":false,"rental_uris":{"android":"levelo://app?vid=37bae93e-1b5e-4ea4-9222-50c60879087c","ios":"levelo://app?vid=37bae93e-1b5e-4ea4-9222-50c60879087c"},"vehicle_type_id":"4","last_reported":1758179382,"current_range_meters":10800,"station_id":"ce4bhch2rcd13ifvqeug","pricing_plan_id":"cebpf4jnsgd1na2vs0mg"},{"bike_id":"dce7a019-b3f6-405b-b3bc-21a7980b0399","system_id":"levelo_inurba_marseille","lat":43.3376,"lon":5.37482,"is_reserved":false,"is_disabled":false,"rental_uris":{"android":"levelo://app?vid=dce7a019-b3f6-405b-b3bc-21a7980b0399","ios":"levelo://app?vid=dce7a019-b3f6-405b-b3bc-21a7980b0399"},"vehicle_type_id":"4","last_reported":1758179382,"current_range_meters":10800,"station_id":"","pricing_plan_id":"cebpf4jnsgd1na2vs0mg"},{"bike_id":"94ad1ff2-0666-4ec5-b4ca-ace6d1894638","system_id":"levelo_inurba_marseille","lat":43.30594,"lon":5.37203,"is_reserved":false,"is_disabled":false,"rental_uris":{"android":"levelo://app?vid=94ad1ff2-0666-4ec5-b4ca-ace6d1894638","ios":"levelo://app?vid=94ad1ff2-0666-4ec5-b4ca-ace6d1894638"},"vehicle_type_id":"4","last_reported":1758179382,"current_range_meters":10800,"station_id":"ce4bgqh2rcd13ifvqc4g","pricing_plan_id":"cebpf4jnsgd1na2vs0mg"},{"bike_id":"5309d822-6891-4f8a-b011-fe229665cb6f","system_id":"levelo_inurba_marseille","lat":43.28083,"lon":5.39664,"is_reserved":false,"is_disabled":false,"rental_uris":{"android":"levelo://app?vid=5309d822-6891-4f8a-b011-fe229665cb6f","ios":"levelo://app?vid=5309d822-6891-4f8a-b011-fe229665cb6f"},"vehicle_type_id":"4","last_reported":1758179382,"current_range_meters":10800,"station_id":"ce4bho12rcd13ifvqh2g","pricing_plan_id":"cebpf4jnsgd1na2vs0mg"},{"bike_id":"82e2c06a-5ecb-46ac-b0fd-36fd3f18839c","system_id":"levelo_inurba_marseille","lat":43.27574,"lon":5.38438,"is_reserved":false,"is_disabled":false,"rental_uris":{"android":"levelo://app?vid=82e2c06a-5ecb-46ac-b0fd-36fd3f18839c","ios":"levelo://app?vid=82e2c06a-5ecb-46ac-b0fd-36fd3f18839c"},"vehicle_type_id":"4","last_reported":1758179382,"current_range_meters":10800,"station_id":"ce4bhh92rcd13ifvqfi0","pricing_plan_id":"cebpf4jnsgd1na2vs0mg"},{"bike_id":"7c53e1e0-9efc-4c15-9c29-668d4dac4c59","system_id":"levelo_inurba_marseille","lat":43.22511,"lon":5.34848,"is_reserved":false,"is_disabled":false,"rental_uris":{"android":"levelo://app?vid=7c53e1e0-9efc-4c15-9c29-668d4dac4c59","ios":"levelo://app?vid=7c53e1e0-9efc-4c15-9c29-668d4dac4c59"},"vehicle_type_id":"4","last_reported":1758179382,"current_range_meters":10800,"station_id":"","pricing_plan_id":"cebpf4jnsgd1na2vs0mg"},{"bike_id":"4560da2a-2325-4c04-868f-7d15b78bd3e7","system_id":"levelo_inurba_marseille","lat":43.2707,"lon":5.42271,"is_reserved":false,"is_disabled":false,"rental_uris":{"android":"levelo://app?vid=4560da2a-2325-4c04-868f-7d15b78bd3e7","ios":"levelo://app?vid=4560da2a-2325-4c04-868f-7d15b78bd3e7"},"vehicle_type_id":"4","last_reported":1758179382,"current_range_meters":11200,"station_id":"ce4bhk92rcd13ifvqgb0","pricing_plan_id":"cebpf4jnsgd1na2vs0mg"},{"bike_id":"291d4bac-81e5-49b8-97f6-dd1a710dac7a","system_id":"levelo_inurba_marseille","lat":43.25,"lon":5.3893,"is_reserved":false,"is_disabled":false,"rental_uris":{"android":"levelo://app?vid=291d4bac-81e5-49b8-97f6-dd1a710dac7a","ios":"levelo://app?vid=291d4bac-81e5-49b8-97f6-dd1a710dac7a"},"vehicle_type_id":"4","last_reported":1758179382,"current_range_meters":11200,"station_id":"ce4bhgp2rcd13ifvqfd0","pricing_plan_id":"cebpf4jnsgd1na2vs0mg"},{"bike_id":"f7254990-f51d-45fe-83e3-57aceffccbc4","system_id":"levelo_inurba_marseille","lat":43.22567,"lon":5.4164,"is_reserved":false,"is_disabled":false,"rental_uris":{"android":"levelo://app?vid=f7254990-f51d-45fe-83e3-57aceffccbc4","ios":"levelo://app?vid=f7254990-f51d-45fe-83e3-57aceffccbc4"},"vehicle_type_id":"4","last_reported":1758179382,"current_range_meters":11600,"station_id":"st_d2o4gvlbi1j2169b742g","pricing_plan_id":"cebpf4jnsgd1na2vs0mg"},{"bike_id":"3e5c0b9a-cabb-4850-ad1c-00f9d32eed73","system_id":"levelo_inurba_marseille","lat":43.29029,"lon":5.38654,"is_reserved":false,"is_disabled":false,"rental_uris":{"android":"levelo://app?vid=3e5c0b9a-cabb-4850-ad1c-00f9d32eed73","ios":"levelo://app?vid=3e5c0b9a-cabb-4850-ad1c-00f9d32eed73"},"vehicle_type_id":"4","last_reported":1758179382,"current_range_meters":11600,"station_id":"ce4bh4p2rcd13ifvqe0g","pricing_plan_id":"cebpf4jnsgd1na2vs0mg"},{"bike_id":"49230824-e0b0-4942-b254-aed72b06d282","system_id":"levelo_inurba_marseille","lat":43.26951,"lon":5.405327,"is_reserved":false,"is_disabled":false,"rental_uris":{"android":"levelo://app?vid=49230824-e0b0-4942-b254-aed72b06d282","ios":"levelo://app?vid=49230824-e0b0-4942-b254-aed72b06d282"},"vehicle_type_id":"4","last_reported":1758179382,"current_range_meters":11600,"station_id":"","pricing_plan_id":"cebpf4jnsgd1na2vs0mg"},{"bike_id":"07cc7870-ee0e-44cf-9cc3-a677cfdce326","system_id":"levelo_inurba_marseille","lat":43.27812,"lon":5.40715,"is_reserved":false,"is_disabled":false,"rental_uris":{"android":"levelo://app?vid=07cc7870-ee0e-44cf-9cc3-a677cfdce326","ios":"levelo://app?vid=07cc7870-ee0e-44cf-9cc3-a677cfdce326"},"vehicle_type_id":"4","last_reported":1758179382,"current_range_meters":11600,"station_id":"ce4bhnh2rcd13ifvqgtg","pricing_plan_id":"cebpf4jnsgd1na2vs0mg"},{"bike_id":"c9f6af51-eff5-4f79-aca9-3e8e6ef0e8f6","system_id":"levelo_inurba_marseille","lat":43.33772,"lon":5.37483,"is_reserved":false,"is_disabled":false,"rental_uris":{"android":"levelo://app?vid=c9f6af51-eff5-4f79-aca9-3e8e6ef0e8f6","ios":"levelo://app?vid=c9f6af51-eff5-4f79-aca9-3e8e6ef0e8f6"},"vehicle_type_id":"4","last_reported":1758179382,"current_range_meters":11600,"station_id":"","pricing_plan_id":"cebpf4jnsgd1na2vs0mg"},{"bike_id":"c4b2a5a5-0d36-4bc7-a757-c7c310ce5f32","system_id":"levelo_inurba_marseille","lat":43.2573,"lon":5.41112,"is_reserved":false,"is_disabled":false,"rental_uris":{"android":"levelo://app?vid=c4b2a5a5-0d36-4bc7-a757-c7c310ce5f32","ios":"levelo://app?vid=c4b2a5a5-0d36-4bc7-a757-c7c310ce5f32"},"vehicle_type_id":"4","last_reported":1758179382,"current_range_meters":11600,"station_id":"ce4bhkp2rcd13ifvqgd0","pricing_plan_id":"cebpf4jnsgd1na2vs0mg"},{"bike_id":"a733d93a-6455-46e7-b0ea-ce8fcee00a48","system_id":"levelo_inurba_marseille","lat":43.22935,"lon":5.3538,"is_reserved":false,"is_disabled":false,"rental_uris":{"android":"levelo://app?vid=a733d93a-6455-46e7-b0ea-ce8fcee00a48","ios":"levelo://app?vid=a733d93a-6455-46e7-b0ea-ce8fcee00a48"},"vehicle_type_id":"4","last_reported":1758179382,"current_range_meters":12000,"station_id":"cpo3532slgdg3j2ikp40","pricing_plan_id":"cebpf4jnsgd1na2vs0mg"},{"bike_id":"55dfb17a-dc13-4669-82ac-2c676d600c2d","system_id":"levelo_inurba_marseille","lat":43.31351,"lon":5.37936,"is_reserved":false,"is_disabled":false,"rental_uris":{"android":"levelo://app?vid=55dfb17a-dc13-4669-82ac-2c676d600c2d","ios":"levelo://app?vid=55dfb17a-dc13-4669-82ac-2c676d600c2d"},"vehicle_type_id":"4","last_reported":1758179382,"current_range_meters":12000,"station_id":"","pricing_plan_id":"cebpf4jnsgd1na2vs0mg"},{"bike_id":"72431309-4e2c-4a86-972b-a62132ecc78d","system_id":"levelo_inurba_marseille","lat":43.2408,"lon":5.37754,"is_reserved":false,"is_disabled":false,"rental_uris":{"android":"levelo://app?vid=72431309-4e2c-4a86-972b-a62132ecc78d","ios":"levelo://app?vid=72431309-4e2c-4a86-972b-a62132ecc78d"},"vehicle_type_id":"4","last_reported":1758179382,"current_range_meters":12000,"station_id":"ce4bhnp2rcd13ifvqgvg","pricing_plan_id":"cebpf4jnsgd1na2vs0mg"},{"bike_id":"cf66592a-d8fa-4c6c-9927-5d7a9fef5026","system_id":"levelo_inurba_marseille","lat":43.26266,"lon":5.39865,"is_reserved":false,"is_disabled":false,"rental_uris":{"android":"levelo://app?vid=cf66592a-d8fa-4c6c-9927-5d7a9fef5026","ios":"levelo://app?vid=cf66592a-d8fa-4c6c-9927-5d7a9fef5026"},"vehicle_type_id":"4","last_reported":1758179382,"current_range_meters":12400,"station_id":"","pricing_plan_id":"cebpf4jnsgd1na2vs0mg"},{"bike_id":"dbbcacb4-4c32-4337-9d38-e59e144e88dc","system_id":"levelo_inurba_marseille","lat":43.30535,"lon":5.36722,"is_reserved":false,"is_disabled":false,"rental_uris":{"android":"levelo://app?vid=dbbcacb4-4c32-4337-9d38-e59e144e88dc","ios":"levelo://app?vid=dbbcacb4-4c32-4337-9d38-e59e144e88dc"},"vehicle_type_id":"4","last_reported":1758179382,"current_range_meters":12400,"station_id":"ce4bgrp2rcd13ifvqc9g","pricing_plan_id":"cebpf4jnsgd1na2vs0mg"},{"bike_id":"4d851bb2-d233-4ecb-a712-5d423b0f6c6a","system_id":"levelo_inurba_marseille","lat":43.29089,"lon":5.38132,"is_reserved":false,"is_disabled":false,"rental_uris":{"android":"levelo://app?vid=4d851bb2-d233-4ecb-a712-5d423b0f6c6a","ios":"levelo://app?vid=4d851bb2-d233-4ecb-a712-5d423b0f6c6a"},"vehicle_type_id":"4","last_reported":1758179382,"current_range_meters":12800,"station_id":"ce4bh512rcd13ifvqe2g","pricing_plan_id":"cebpf4jnsgd1na2vs0mg"},{"bike_id":"22f0687d-25d3-4094-9c4a-293a61e189a6","system_id":"levelo_inurba_marseille","lat":43.24711,"lon":5.3977,"is_reserved":false,"is_disabled":false,"rental_uris":{"android":"levelo://app?vid=22f0687d-25d3-4094-9c4a-293a61e189a6","ios":"levelo://app?vid=22f0687d-25d3-4094-9c4a-293a61e189a6"},"vehicle_type_id":"4","last_reported":1758179382,"current_range_meters":12800,"station_id":"","pricing_plan_id":"cebpf4jnsgd1na2vs0mg"},{"bike_id":"fa6bb392-2e7b-4db5-80cb-603a8ad7b763","system_id":"levelo_inurba_marseille","lat":43.27983,"lon":5.38748,"is_reserved":false,"is_disabled":false,"rental_uris":{"android":"levelo://app?vid=fa6bb392-2e7b-4db5-80cb-603a8ad7b763","ios":"levelo://app?vid=fa6bb392-2e7b-4db5-80cb-603a8ad7b763"},"vehicle_type_id":"4","last_reported":1758179382,"current_range_meters":12800,"station_id":"ce4bhg12rcd13ifvqf80","pricing_plan_id":"cebpf4jnsgd1na2vs0mg"},{"bike_id":"3d158815-0ba1-449f-90dd-2b69cf190d13","system_id":"levelo_inurba_marseille","lat":43.32958,"lon":5.39275,"is_reserved":false,"is_disabled":false,"rental_uris":{"android":"levelo://app?vid=3d158815-0ba1-449f-90dd-2b69cf190d13","ios":"levelo://app?vid=3d158815-0ba1-449f-90dd-2b69cf190d13"},"vehicle_type_id":"4","last_reported":1758179382,"current_range_meters":13600,"station_id":"","pricing_plan_id":"cebpf4jnsgd1na2vs0mg"},{"bike_id":"152b725d-6f61-44b0-bc66-f31437aa6fe9","system_id":"levelo_inurba_marseille","lat":43.22559,"lon":5.4163,"is_reserved":false,"is_disabled":false,"rental_uris":{"android":"levelo://app?vid=152b725d-6f61-44b0-bc66-f31437aa6fe9","ios":"levelo://app?vid=152b725d-6f61-44b0-bc66-f31437aa6fe9"},"vehicle_type_id":"4","last_reported":1758179382,"current_range_meters":13600,"station_id":"st_d2o4gvlbi1j2169b742g","pricing_plan_id":"cebpf4jnsgd1na2vs0mg"},{"bike_id":"1a12f2ca-180b-4bad-b815-1e9bb7bead08","system_id":"levelo_inurba_marseille","lat":43.308944,"lon":5.368488,"is_reserved":false,"is_disabled":false,"rental_uris":{"android":"levelo://app?vid=1a12f2ca-180b-4bad-b815-1e9bb7bead08","ios":"levelo://app?vid=1a12f2ca-180b-4bad-b815-1e9bb7bead08"},"vehicle_type_id":"4","last_reported":1758179382,"current_range_meters":13600,"station_id":"ce4bgn92rcd13ifvqbvg","pricing_plan_id":"cebpf4jnsgd1na2vs0mg"},{"bike_id":"d1788760-0706-4b90-8999-db00a9e42210","system_id":"levelo_inurba_marseille","lat":43.32797,"lon":5.41011,"is_reserved":false,"is_disabled":false,"rental_uris":{"android":"levelo://app?vid=d1788760-0706-4b90-8999-db00a9e42210","ios":"levelo://app?vid=d1788760-0706-4b90-8999-db00a9e42210"},"vehicle_type_id":"4","last_reported":1758179382,"current_range_meters":13600,"station_id":"","pricing_plan_id":"cebpf4jnsgd1na2vs0mg"},{"bike_id":"978c3a25-a67c-4582-b805-0fc1ca9bf9e7","system_id":"levelo_inurba_marseille","lat":43.26685,"lon":5.38278,"is_reserved":false,"is_disabled":false,"rental_uris":{"android":"levelo://app?vid=978c3a25-a67c-4582-b805-0fc1ca9bf9e7","ios":"levelo://app?vid=978c3a25-a67c-4582-b805-0fc1ca9bf9e7"},"vehicle_type_id":"4","last_reported":1758179382,"current_range_meters":13600,"station_id":"ce4bhg92rcd13ifvqf90","pricing_plan_id":"cebpf4jnsgd1na2vs0mg"},{"bike_id":"dde2e91e-5084-4b39-b78f-82b1ce36a209","system_id":"levelo_inurba_marseille","lat":43.212,"lon":5.35107,"is_reserved":false,"is_disabled":false,"rental_uris":{"android":"levelo://app?vid=dde2e91e-5084-4b39-b78f-82b1ce36a209","ios":"levelo://app?vid=dde2e91e-5084-4b39-b78f-82b1ce36a209"},"vehicle_type_id":"4","last_reported":1758179382,"current_range_meters":13600,"station_id":"","pricing_plan_id":"cebpf4jnsgd1na2vs0mg"},{"bike_id":"4d81a0f6-d133-47b7-b106-eb188a2ed5f0","system_id":"levelo_inurba_marseille","lat":43.34141,"lon":5.40906,"is_reserved":false,"is_disabled":false,"rental_uris":{"android":"levelo://app?vid=4d81a0f6-d133-47b7-b106-eb188a2ed5f0","ios":"levelo://app?vid=4d81a0f6-d133-47b7-b106-eb188a2ed5f0"},"vehicle_type_id":"4","last_reported":1758179382,"current_range_meters":14000,"station_id":"ce4bhqh2rcd13ifvqhlg","pricing_plan_id":"cebpf4jnsgd1na2vs0mg"},{"bike_id":"387c8295-5c1a-4e62-91c6-560b703e4279","system_id":"levelo_inurba_marseille","lat":43.32452,"lon":5.42699,"is_reserved":false,"is_disabled":false,"rental_uris":{"android":"levelo://app?vid=387c8295-5c1a-4e62-91c6-560b703e4279","ios":"levelo://app?vid=387c8295-5c1a-4e62-91c6-560b703e4279"},"vehicle_type_id":"4","last_reported":1758179382,"current_range_meters":14000,"station_id":"","pricing_plan_id":"cebpf4jnsgd1na2vs0mg"},{"bike_id":"6abb0ed1-3c97-4f0a-8c1f-a895ff4e02f7","system_id":"levelo_inurba_marseille","lat":43.27367,"lon":5.42402,"is_reserved":false,"is_disabled":false,"rental_uris":{"android":"levelo://app?vid=6abb0ed1-3c97-4f0a-8c1f-a895ff4e02f7","ios":"levelo://app?vid=6abb0ed1-3c97-4f0a-8c1f-a895ff4e02f7"},"vehicle_type_id":"4","last_reported":1758179382,"current_range_meters":14000,"station_id":"","pricing_plan_id":"cebpf4jnsgd1na2vs0mg"},{"bike_id":"80332322-52bb-49f4-b738-0ea587c53538","system_id":"levelo_inurba_marseille","lat":43.225357,"lon":5.34837,"is_reserved":false,"is_disabled":false,"rental_uris":{"android":"levelo://app?vid=80332322-52bb-49f4-b738-0ea587c53538","ios":"levelo://app?vid=80332322-52bb-49f4-b738-0ea587c53538"},"vehicle_type_id":"4","last_reported":1758179382,"current_range_meters":14000,"station_id":"","pricing_plan_id":"cebpf4jnsgd1na2vs0mg"},{"bike_id":"3a5880cd-3aaa-45e3-acd9-2ccd914d29dd","system_id":"levelo_inurba_marseille","lat":43.24072,"lon":5.37772,"is_reserved":false,"is_disabled":false,"rental_uris":{"android":"levelo://app?vid=3a5880cd-3aaa-45e3-acd9-2ccd914d29dd","ios":"levelo://app?vid=3a5880cd-3aaa-45e3-acd9-2ccd914d29dd"},"vehicle_type_id":"4","last_reported":1758179382,"current_range_meters":14000,"station_id":"ce4bhnp2rcd13ifvqgvg","pricing_plan_id":"cebpf4jnsgd1na2vs0mg"},{"bike_id":"1b5eb2ed-4d33-45f4-a307-1e57618a10ea","system_id":"levelo_inurba_marseille","lat":43.25941,"lon":5.40899,"is_reserved":false,"is_disabled":false,"rental_uris":{"android":"levelo://app?vid=1b5eb2ed-4d33-45f4-a307-1e57618a10ea","ios":"levelo://app?vid=1b5eb2ed-4d33-45f4-a307-1e57618a10ea"},"vehicle_type_id":"4","last_reported":1758179382,"current_range_meters":14400,"station_id":"ce4bhm92rcd13ifvqglg","pricing_plan_id":"cebpf4jnsgd1na2vs0mg"},{"bike_id":"1c62f619-055c-40a1-b504-bc1e2ebdcd56","system_id":"levelo_inurba_marseille","lat":43.28944,"lon":5.39636,"is_reserved":false,"is_disabled":false,"rental_uris":{"android":"levelo://app?vid=1c62f619-055c-40a1-b504-bc1e2ebdcd56","ios":"levelo://app?vid=1c62f619-055c-40a1-b504-bc1e2ebdcd56"},"vehicle_type_id":"4","last_reported":1758179382,"current_range_meters":14800,"station_id":"ce4bh3h2rcd13ifvqdn0","pricing_plan_id":"cebpf4jnsgd1na2vs0mg"},{"bike_id":"adf19941-6925-49e3-b023-4f911ffc887f","system_id":"levelo_inurba_marseille","lat":43.32361,"lon":5.3676,"is_reserved":false,"is_disabled":true,"rental_uris":{"android":"levelo://app?vid=adf19941-6925-49e3-b023-4f911ffc887f","ios":"levelo://app?vid=adf19941-6925-49e3-b023-4f911ffc887f"},"vehicle_type_id":"4","last_reported":1758179382,"current_range_meters":14800,"station_id":"ce4bhsh2rcd13ifvqi2g","pricing_plan_id":"cebpf4jnsgd1na2vs0mg"},{"bike_id":"2c137adb-2733-453f-94db-d00ce2ba39bc","system_id":"levelo_inurba_marseille","lat":43.29227,"lon":5.36075,"is_reserved":false,"is_disabled":false,"rental_uris":{"android":"levelo://app?vid=2c137adb-2733-453f-94db-d00ce2ba39bc","ios":"levelo://app?vid=2c137adb-2733-453f-94db-d00ce2ba39bc"},"vehicle_type_id":"4","last_reported":1758179382,"current_range_meters":14800,"station_id":"ce4bhbh2rcd13ifvqeqg","pricing_plan_id":"cebpf4jnsgd1na2vs0mg"},{"bike_id":"ca5b9659-7fae-41c3-8d6e-655bc114232a","system_id":"levelo_inurba_marseille","lat":43.26229,"lon":5.40449,"is_reserved":false,"is_disabled":false,"rental_uris":{"android":"levelo://app?vid=ca5b9659-7fae-41c3-8d6e-655bc114232a","ios":"levelo://app?vid=ca5b9659-7fae-41c3-8d6e-655bc114232a"},"vehicle_type_id":"4","last_reported":1758179382,"current_range_meters":14800,"station_id":"ce4bhmh2rcd13ifvqgmg","pricing_plan_id":"cebpf4jnsgd1na2vs0mg"},{"bike_id":"8b911268-c055-48aa-a297-584fd3a9cf6e","system_id":"levelo_inurba_marseille","lat":43.28431,"lon":5.3499,"is_reserved":false,"is_disabled":false,"rental_uris":{"android":"levelo://app?vid=8b911268-c055-48aa-a297-584fd3a9cf6e","ios":"levelo://app?vid=8b911268-c055-48aa-a297-584fd3a9cf6e"},"vehicle_type_id":"4","last_reported":1758179382,"current_range_meters":15200,"station_id":"ce4bhbh2rcd13ifvqepg","pricing_plan_id":"cebpf4jnsgd1na2vs0mg"},{"bike_id":"40495e59-b743-486e-987c-cb0c3ab2f191","system_id":"levelo_inurba_marseille","lat":43.332,"lon":5.41075,"is_reserved":false,"is_disabled":false,"rental_uris":{"android":"levelo://app?vid=40495e59-b743-486e-987c-cb0c3ab2f191","ios":"levelo://app?vid=40495e59-b743-486e-987c-cb0c3ab2f191"},"vehicle_type_id":"4","last_reported":1758179382,"current_range_meters":15200,"station_id":"","pricing_plan_id":"cebpf4jnsgd1na2vs0mg"},{"bike_id":"cdff7bfa-1c8b-4dfe-852d-c6e303bb232f","system_id":"levelo_inurba_marseille","lat":43.34162,"lon":5.40906,"is_reserved":false,"is_disabled":false,"rental_uris":{"android":"levelo://app?vid=cdff7bfa-1c8b-4dfe-852d-c6e303bb232f","ios":"levelo://app?vid=cdff7bfa-1c8b-4dfe-852d-c6e303bb232f"},"vehicle_type_id":"4","last_reported":1758179382,"current_range_meters":15200,"station_id":"ce4bhqh2rcd13ifvqhlg","pricing_plan_id":"cebpf4jnsgd1na2vs0mg"},{"bike_id":"80a9a218-f77f-42ce-8136-b0dceb9fc366","system_id":"levelo_inurba_marseille","lat":43.267867,"lon":5.394102,"is_reserved":false,"is_disabled":false,"rental_uris":{"android":"levelo://app?vid=80a9a218-f77f-42ce-8136-b0dceb9fc366","ios":"levelo://app?vid=80a9a218-f77f-42ce-8136-b0dceb9fc366"},"vehicle_type_id":"4","last_reported":1758179382,"current_range_meters":16000,"station_id":"ce4bhh12rcd13ifvqfg0","pricing_plan_id":"cebpf4jnsgd1na2vs0mg"},{"bike_id":"17e32bd2-1c59-42b3-819b-651708de8579","system_id":"levelo_inurba_marseille","lat":43.283379,"lon":5.381032,"is_reserved":false,"is_disabled":true,"rental_uris":{"android":"levelo://app?vid=17e32bd2-1c59-42b3-819b-651708de8579","ios":"levelo://app?vid=17e32bd2-1c59-42b3-819b-651708de8579"},"vehicle_type_id":"4","last_reported":1758179382,"current_range_meters":16000,"station_id":"ce4bh412rcd13ifvqdr0","pricing_plan_id":"cebpf4jnsgd1na2vs0mg"},{"bike_id":"a4faa1fd-62ee-404a-aff8-b79ea6b6b5d2","system_id":"levelo_inurba_marseille","lat":43.32986,"lon":5.39245,"is_reserved":false,"is_disabled":false,"rental_uris":{"android":"levelo://app?vid=a4faa1fd-62ee-404a-aff8-b79ea6b6b5d2","ios":"levelo://app?vid=a4faa1fd-62ee-404a-aff8-b79ea6b6b5d2"},"vehicle_type_id":"4","last_reported":1758179382,"current_range_meters":16000,"station_id":"","pricing_plan_id":"cebpf4jnsgd1na2vs0mg"},{"bike_id":"d9f0ae84-d732-44f5-b420-064e325a0d60","system_id":"levelo_inurba_marseille","lat":43.320183,"lon":5.381343,"is_reserved":false,"is_disabled":false,"rental_uris":{"android":"levelo://app?vid=d9f0ae84-d732-44f5-b420-064e325a0d60","ios":"levelo://app?vid=d9f0ae84-d732-44f5-b420-064e325a0d60"},"vehicle_type_id":"4","last_reported":1758179382,"current_range_meters":16000,"station_id":"","pricing_plan_id":"cebpf4jnsgd1na2vs0mg"},{"bike_id":"e2688e72-cda6-4015-a88b-f0e32c31b357","system_id":"levelo_inurba_marseille","lat":43.33771,"lon":5.37484,"is_reserved":false,"is_disabled":false,"rental_uris":{"android":"levelo://app?vid=e2688e72-cda6-4015-a88b-f0e32c31b357","ios":"levelo://app?vid=e2688e72-cda6-4015-a88b-f0e32c31b357"},"vehicle_type_id":"4","last_reported":1758179382,"current_range_meters":16000,"station_id":"","pricing_plan_id":"cebpf4jnsgd1na2vs0mg"},{"bike_id":"fa0847a4-8d8b-47a2-9c0d-c16fe7a48c9b","system_id":"levelo_inurba_marseille","lat":43.330285,"lon":5.390556,"is_reserved":false,"is_disabled":false,"rental_uris":{"android":"levelo://app?vid=fa0847a4-8d8b-47a2-9c0d-c16fe7a48c9b","ios":"levelo://app?vid=fa0847a4-8d8b-47a2-9c0d-c16fe7a48c9b"},"vehicle_type_id":"4","last_reported":1758179382,"current_range_meters":16000,"station_id":"","pricing_plan_id":"cebpf4jnsgd1na2vs0mg"},{"bike_id":"42323a1a-489c-43cb-90ae-c675b27444d5","system_id":"levelo_inurba_marseille","lat":43.21637,"lon":5.34377,"is_reserved":false,"is_disabled":false,"rental_uris":{"android":"levelo://app?vid=42323a1a-489c-43cb-90ae-c675b27444d5","ios":"levelo://app?vid=42323a1a-489c-43cb-90ae-c675b27444d5"},"vehicle_type_id":"4","last_reported":1758179382,"current_range_meters":16000,"station_id":"","pricing_plan_id":"cebpf4jnsgd1na2vs0mg"},{"bike_id":"08128352-d0a0-4f5f-a684-879e4974aa4c","system_id":"levelo_inurba_marseille","lat":43.22557,"lon":5.41627,"is_reserved":false,"is_disabled":false,"rental_uris":{"android":"levelo://app?vid=08128352-d0a0-4f5f-a684-879e4974aa4c","ios":"levelo://app?vid=08128352-d0a0-4f5f-a684-879e4974aa4c"},"vehicle_type_id":"4","last_reported":1758179382,"current_range_meters":16000,"station_id":"st_d2o4gvlbi1j2169b742g","pricing_plan_id":"cebpf4jnsgd1na2vs0mg"},{"bike_id":"be9ee84b-9ec1-497c-800c-5907ad1418ae","system_id":"levelo_inurba_marseille","lat":43.2256,"lon":5.41648,"is_reserved":false,"is_disabled":false,"rental_uris":{"android":"levelo://app?vid=be9ee84b-9ec1-497c-800c-5907ad1418ae","ios":"levelo://app?vid=be9ee84b-9ec1-497c-800c-5907ad1418ae"},"vehicle_type_id":"4","last_reported":1758179382,"current_range_meters":16000,"station_id":"st_d2o4gvlbi1j2169b742g","pricing_plan_id":"cebpf4jnsgd1na2vs0mg"},{"bike_id":"1da37b3a-d772-478a-a85c-fb719c8bc7a9","system_id":"levelo_inurba_marseille","lat":43.26524,"lon":5.39688,"is_reserved":false,"is_disabled":false,"rental_uris":{"android":"levelo://app?vid=1da37b3a-d772-478a-a85c-fb719c8bc7a9","ios":"levelo://app?vid=1da37b3a-d772-478a-a85c-fb719c8bc7a9"},"vehicle_type_id":"4","last_reported":1758179382,"current_range_meters":16000,"station_id":"","pricing_plan_id":"cebpf4jnsgd1na2vs0mg"},{"bike_id":"878876a1-8afc-416a-9937-f26406ce23e8","system_id":"levelo_inurba_marseille","lat":43.279985,"lon":5.41664,"is_reserved":false,"is_disabled":false,"rental_uris":{"android":"levelo://app?vid=878876a1-8afc-416a-9937-f26406ce23e8","ios":"levelo://app?vid=878876a1-8afc-416a-9937-f26406ce23e8"},"vehicle_type_id":"4","last_reported":1758179382,"current_range_meters":16400,"station_id":"ce4bho12rcd13ifvqh1g","pricing_plan_id":"cebpf4jnsgd1na2vs0mg"},{"bike_id":"d93f6aec-282b-42a6-9be0-fe23bad38a2b","system_id":"levelo_inurba_marseille","lat":43.246403,"lon":5.431416,"is_reserved":false,"is_disabled":true,"rental_uris":{"android":"levelo://app?vid=d93f6aec-282b-42a6-9be0-fe23bad38a2b","ios":"levelo://app?vid=d93f6aec-282b-42a6-9be0-fe23bad38a2b"},"vehicle_type_id":"4","last_reported":1758179382,"current_range_meters":16400,"station_id":"st_d2m6c4gdas8pm72e190g","pricing_plan_id":"cebpf4jnsgd1na2vs0mg"},{"bike_id":"153ab0c4-f882-4624-9ff5-289e8b0ce013","system_id":"levelo_inurba_marseille","lat":43.25935,"lon":5.40912,"is_reserved":false,"is_disabled":false,"rental_uris":{"android":"levelo://app?vid=153ab0c4-f882-4624-9ff5-289e8b0ce013","ios":"levelo://app?vid=153ab0c4-f882-4624-9ff5-289e8b0ce013"},"vehicle_type_id":"4","last_reported":1758179382,"current_range_meters":16400,"station_id":"ce4bhm92rcd13ifvqglg","pricing_plan_id":"cebpf4jnsgd1na2vs0mg"},{"bike_id":"2e2ae28d-dee5-4d7d-94ef-359eeb19688f","system_id":"levelo_inurba_marseille","lat":43.31991,"lon":5.38143,"is_reserved":false,"is_disabled":false,"rental_uris":{"android":"levelo://app?vid=2e2ae28d-dee5-4d7d-94ef-359eeb19688f","ios":"levelo://app?vid=2e2ae28d-dee5-4d7d-94ef-359eeb19688f"},"vehicle_type_id":"4","last_reported":1758179382,"current_range_meters":16400,"station_id":"ce4bhr12rcd13ifvqhpg","pricing_plan_id":"cebpf4jnsgd1na2vs0mg"},{"bike_id":"6499745b-7b8b-4d81-afa4-ba9c05652a7b","system_id":"levelo_inurba_marseille","lat":43.2854,"lon":5.37726,"is_reserved":false,"is_disabled":false,"rental_uris":{"android":"levelo://app?vid=6499745b-7b8b-4d81-afa4-ba9c05652a7b","ios":"levelo://app?vid=6499745b-7b8b-4d81-afa4-ba9c05652a7b"},"vehicle_type_id":"4","last_reported":1758179382,"current_range_meters":16400,"station_id":"","pricing_plan_id":"cebpf4jnsgd1na2vs0mg"},{"bike_id":"e1f51025-1404-4cca-96b7-273119670d5f","system_id":"levelo_inurba_marseille","lat":43.25267,"lon":5.42961,"is_reserved":false,"is_disabled":false,"rental_uris":{"android":"levelo://app?vid=e1f51025-1404-4cca-96b7-273119670d5f","ios":"levelo://app?vid=e1f51025-1404-4cca-96b7-273119670d5f"},"vehicle_type_id":"4","last_reported":1758179382,"current_range_meters":16400,"station_id":"","pricing_plan_id":"cebpf4jnsgd1na2vs0mg"},{"bike_id":"acfec73f-5435-48eb-a869-eeb3dc5252c8","system_id":"levelo_inurba_marseille","lat":43.31297,"lon":5.37867,"is_reserved":false,"is_disabled":false,"rental_uris":{"android":"levelo://app?vid=acfec73f-5435-48eb-a869-eeb3dc5252c8","ios":"levelo://app?vid=acfec73f-5435-48eb-a869-eeb3dc5252c8"},"vehicle_type_id":"4","last_reported":1758179382,"current_range_meters":16400,"station_id":"","pricing_plan_id":"cebpf4jnsgd1na2vs0mg"},{"bike_id":"9d8b4944-013e-4958-9415-40d7b5ee9701","system_id":"levelo_inurba_marseille","lat":43.31586,"lon":5.38188,"is_reserved":false,"is_disabled":false,"rental_uris":{"android":"levelo://app?vid=9d8b4944-013e-4958-9415-40d7b5ee9701","ios":"levelo://app?vid=9d8b4944-013e-4958-9415-40d7b5ee9701"},"vehicle_type_id":"4","last_reported":1758179382,"current_range_meters":16800,"station_id":"","pricing_plan_id":"cebpf4jnsgd1na2vs0mg"},{"bike_id":"b5a2f928-a278-485a-b362-463102929971","system_id":"levelo_inurba_marseille","lat":43.31118,"lon":5.37782,"is_reserved":false,"is_disabled":false,"rental_uris":{"android":"levelo://app?vid=b5a2f928-a278-485a-b362-463102929971","ios":"levelo://app?vid=b5a2f928-a278-485a-b362-463102929971"},"vehicle_type_id":"4","last_reported":1758179382,"current_range_meters":16800,"station_id":"ce4bgt92rcd13ifvqcg0","pricing_plan_id":"cebpf4jnsgd1na2vs0mg"},{"bike_id":"2a86bb71-b8c9-4f3e-ad7d-6512ec147da7","system_id":"levelo_inurba_marseille","lat":43.30813,"lon":5.38153,"is_reserved":false,"is_disabled":false,"rental_uris":{"android":"levelo://app?vid=2a86bb71-b8c9-4f3e-ad7d-6512ec147da7","ios":"levelo://app?vid=2a86bb71-b8c9-4f3e-ad7d-6512ec147da7"},"vehicle_type_id":"4","last_reported":1758179382,"current_range_meters":16800,"station_id":"ce4bgt12rcd13ifvqce0","pricing_plan_id":"cebpf4jnsgd1na2vs0mg"},{"bike_id":"bd185fbb-729f-4221-8aa9-562ca885c1f5","system_id":"levelo_inurba_marseille","lat":43.22565,"lon":5.41687,"is_reserved":false,"is_disabled":false,"rental_uris":{"android":"levelo://app?vid=bd185fbb-729f-4221-8aa9-562ca885c1f5","ios":"levelo://app?vid=bd185fbb-729f-4221-8aa9-562ca885c1f5"},"vehicle_type_id":"4","last_reported":1758179382,"current_range_meters":16800,"station_id":"","pricing_plan_id":"cebpf4jnsgd1na2vs0mg"},{"bike_id":"73b98966-d250-435e-a834-c75566220ac8","system_id":"levelo_inurba_marseille","lat":43.23152,"lon":5.43726,"is_reserved":false,"is_disabled":false,"rental_uris":{"android":"levelo://app?vid=73b98966-d250-435e-a834-c75566220ac8","ios":"levelo://app?vid=73b98966-d250-435e-a834-c75566220ac8"},"vehicle_type_id":"4","last_reported":1758179382,"current_range_meters":16800,"station_id":"ce4bhmp2rcd13ifvqgog","pricing_plan_id":"cebpf4jnsgd1na2vs0mg"},{"bike_id":"e942f984-8fe7-48d1-8f04-3806656b9996","system_id":"levelo_inurba_marseille","lat":43.33612,"lon":5.3795,"is_reserved":false,"is_disabled":false,"rental_uris":{"android":"levelo://app?vid=e942f984-8fe7-48d1-8f04-3806656b9996","ios":"levelo://app?vid=e942f984-8fe7-48d1-8f04-3806656b9996"},"vehicle_type_id":"4","last_reported":1758179382,"current_range_meters":17200,"station_id":"","pricing_plan_id":"cebpf4jnsgd1na2vs0mg"},{"bike_id":"c3d50d3d-e39f-4651-8b11-cea46531d286","system_id":"levelo_inurba_marseille","lat":43.24266,"lon":5.39692,"is_reserved":false,"is_disabled":false,"rental_uris":{"android":"levelo://app?vid=c3d50d3d-e39f-4651-8b11-cea46531d286","ios":"levelo://app?vid=c3d50d3d-e39f-4651-8b11-cea46531d286"},"vehicle_type_id":"4","last_reported":1758179382,"current_range_meters":17200,"station_id":"ce4bhn12rcd13ifvqgpg","pricing_plan_id":"cebpf4jnsgd1na2vs0mg"},{"bike_id":"96a10da0-9785-4c45-b0f6-69de562e23fa","system_id":"levelo_inurba_marseille","lat":43.23147,"lon":5.43721,"is_reserved":false,"is_disabled":false,"rental_uris":{"android":"levelo://app?vid=96a10da0-9785-4c45-b0f6-69de562e23fa","ios":"levelo://app?vid=96a10da0-9785-4c45-b0f6-69de562e23fa"},"vehicle_type_id":"4","last_reported":1758179382,"current_range_meters":17200,"station_id":"ce4bhmp2rcd13ifvqgog","pricing_plan_id":"cebpf4jnsgd1na2vs0mg"},{"bike_id":"40a16e10-c9dd-40a9-80de-0bbe781e2b83","system_id":"levelo_inurba_marseille","lat":43.2593,"lon":5.40881,"is_reserved":false,"is_disabled":false,"rental_uris":{"android":"levelo://app?vid=40a16e10-c9dd-40a9-80de-0bbe781e2b83","ios":"levelo://app?vid=40a16e10-c9dd-40a9-80de-0bbe781e2b83"},"vehicle_type_id":"4","last_reported":1758179382,"current_range_meters":17200,"station_id":"ce4bhm92rcd13ifvqglg","pricing_plan_id":"cebpf4jnsgd1na2vs0mg"},{"bike_id":"d3da840a-ced3-4f78-95b1-fbc9ad8fac4c","system_id":"levelo_inurba_marseille","lat":43.25939,"lon":5.40933,"is_reserved":false,"is_disabled":false,"rental_uris":{"android":"levelo://app?vid=d3da840a-ced3-4f78-95b1-fbc9ad8fac4c","ios":"levelo://app?vid=d3da840a-ced3-4f78-95b1-fbc9ad8fac4c"},"vehicle_type_id":"4","last_reported":1758179382,"current_range_meters":17600,"station_id":"ce4bhm92rcd13ifvqglg","pricing_plan_id":"cebpf4jnsgd1na2vs0mg"},{"bike_id":"53e32093-87d7-47a8-a5be-30a834c8135a","system_id":"levelo_inurba_marseille","lat":43.32356,"lon":5.36742,"is_reserved":false,"is_disabled":false,"rental_uris":{"android":"levelo://app?vid=53e32093-87d7-47a8-a5be-30a834c8135a","ios":"levelo://app?vid=53e32093-87d7-47a8-a5be-30a834c8135a"},"vehicle_type_id":"4","last_reported":1758179382,"current_range_meters":17600,"station_id":"ce4bhsh2rcd13ifvqi2g","pricing_plan_id":"cebpf4jnsgd1na2vs0mg"},{"bike_id":"ef32165f-cd79-4fbb-bbdb-9ecfcada7132","system_id":"levelo_inurba_marseille","lat":43.273131,"lon":5.390777,"is_reserved":false,"is_disabled":false,"rental_uris":{"android":"levelo://app?vid=ef32165f-cd79-4fbb-bbdb-9ecfcada7132","ios":"levelo://app?vid=ef32165f-cd79-4fbb-bbdb-9ecfcada7132"},"vehicle_type_id":"4","last_reported":1758179382,"current_range_meters":17600,"station_id":"ce4bhgp2rcd13ifvqfe0","pricing_plan_id":"cebpf4jnsgd1na2vs0mg"},{"bike_id":"fb78ea42-e26f-45b3-a617-d3474b811b72","system_id":"levelo_inurba_marseille","lat":43.29903,"lon":5.37985,"is_reserved":false,"is_disabled":false,"rental_uris":{"android":"levelo://app?vid=fb78ea42-e26f-45b3-a617-d3474b811b72","ios":"levelo://app?vid=fb78ea42-e26f-45b3-a617-d3474b811b72"},"vehicle_type_id":"4","last_reported":1758179382,"current_range_meters":17600,"station_id":"","pricing_plan_id":"cebpf4jnsgd1na2vs0mg"},{"bike_id":"7eed94c4-182d-4460-826b-78b4ef60c719","system_id":"levelo_inurba_marseille","lat":43.295859,"lon":5.375163,"is_reserved":false,"is_disabled":false,"rental_uris":{"android":"levelo://app?vid=7eed94c4-182d-4460-826b-78b4ef60c719","ios":"levelo://app?vid=7eed94c4-182d-4460-826b-78b4ef60c719"},"vehicle_type_id":"4","last_reported":1758179382,"current_range_meters":17600,"station_id":"","pricing_plan_id":"cebpf4jnsgd1na2vs0mg"},{"bike_id":"0d539cd7-25c3-49a1-a83e-b8d8d104c706","system_id":"levelo_inurba_marseille","lat":43.30915,"lon":5.37189,"is_reserved":false,"is_disabled":false,"rental_uris":{"android":"levelo://app?vid=0d539cd7-25c3-49a1-a83e-b8d8d104c706","ios":"levelo://app?vid=0d539cd7-25c3-49a1-a83e-b8d8d104c706"},"vehicle_type_id":"4","last_reported":1758179382,"current_range_meters":17600,"station_id":"ce4bguh2rcd13ifvqckg","pricing_plan_id":"cebpf4jnsgd1na2vs0mg"},{"bike_id":"b3a3fdbc-4291-4540-b60f-7e98f1937ed3","system_id":"levelo_inurba_marseille","lat":43.23153,"lon":5.43719,"is_reserved":false,"is_disabled":false,"rental_uris":{"android":"levelo://app?vid=b3a3fdbc-4291-4540-b60f-7e98f1937ed3","ios":"levelo://app?vid=b3a3fdbc-4291-4540-b60f-7e98f1937ed3"},"vehicle_type_id":"4","last_reported":1758179382,"current_range_meters":17600,"station_id":"ce4bhmp2rcd13ifvqgog","pricing_plan_id":"cebpf4jnsgd1na2vs0mg"},{"bike_id":"3b6f29a0-9fb6-4255-b6c3-37d3d6e81da9","system_id":"levelo_inurba_marseille","lat":43.27494,"lon":5.42469,"is_reserved":false,"is_disabled":false,"rental_uris":{"android":"levelo://app?vid=3b6f29a0-9fb6-4255-b6c3-37d3d6e81da9","ios":"levelo://app?vid=3b6f29a0-9fb6-4255-b6c3-37d3d6e81da9"},"vehicle_type_id":"4","last_reported":1758179382,"current_range_meters":17600,"station_id":"ce4bhn92rcd13ifvqgrg","pricing_plan_id":"cebpf4jnsgd1na2vs0mg"},{"bike_id":"f9418cc9-c64d-43d9-9060-3aeedd69cdee","system_id":"levelo_inurba_marseille","lat":43.33077,"lon":5.37868,"is_reserved":false,"is_disabled":false,"rental_uris":{"android":"levelo://app?vid=f9418cc9-c64d-43d9-9060-3aeedd69cdee","ios":"levelo://app?vid=f9418cc9-c64d-43d9-9060-3aeedd69cdee"},"vehicle_type_id":"4","last_reported":1758179382,"current_range_meters":17600,"station_id":"","pricing_plan_id":"cebpf4jnsgd1na2vs0mg"},{"bike_id":"58c835b4-daa7-48bf-a0f3-9899714e667a","system_id":"levelo_inurba_marseille","lat":43.29757,"lon":5.38109,"is_reserved":false,"is_disabled":false,"rental_uris":{"android":"levelo://app?vid=58c835b4-daa7-48bf-a0f3-9899714e667a","ios":"levelo://app?vid=58c835b4-daa7-48bf-a0f3-9899714e667a"},"vehicle_type_id":"4","last_reported":1758179382,"current_range_meters":17600,"station_id":"","pricing_plan_id":"cebpf4jnsgd1na2vs0mg"},{"bike_id":"79dd30e9-1036-4dcc-b18f-c846423441d5","system_id":"levelo_inurba_marseille","lat":43.24075,"lon":5.37745,"is_reserved":false,"is_disabled":false,"rental_uris":{"android":"levelo://app?vid=79dd30e9-1036-4dcc-b18f-c846423441d5","ios":"levelo://app?vid=79dd30e9-1036-4dcc-b18f-c846423441d5"},"vehicle_type_id":"4","last_reported":1758179382,"current_range_meters":18000,"station_id":"ce4bhnp2rcd13ifvqgvg","pricing_plan_id":"cebpf4jnsgd1na2vs0mg"},{"bike_id":"81fcc124-f877-4a89-9aaf-587b173852d6","system_id":"levelo_inurba_marseille","lat":43.28292,"lon":5.38588,"is_reserved":false,"is_disabled":false,"rental_uris":{"android":"levelo://app?vid=81fcc124-f877-4a89-9aaf-587b173852d6","ios":"levelo://app?vid=81fcc124-f877-4a89-9aaf-587b173852d6"},"vehicle_type_id":"4","last_reported":1758179382,"current_range_meters":18000,"station_id":"","pricing_plan_id":"cebpf4jnsgd1na2vs0mg"},{"bike_id":"20779ce2-c509-48f8-99ef-118fe3e2bd5b","system_id":"levelo_inurba_marseille","lat":43.25915,"lon":5.40875,"is_reserved":false,"is_disabled":false,"rental_uris":{"android":"levelo://app?vid=20779ce2-c509-48f8-99ef-118fe3e2bd5b","ios":"levelo://app?vid=20779ce2-c509-48f8-99ef-118fe3e2bd5b"},"vehicle_type_id":"4","last_reported":1758179382,"current_range_meters":18000,"station_id":"ce4bhm92rcd13ifvqglg","pricing_plan_id":"cebpf4jnsgd1na2vs0mg"},{"bike_id":"9842e96b-970f-44cc-8c5c-7fc08f8cbb9e","system_id":"levelo_inurba_marseille","lat":43.239612,"lon":5.366193,"is_reserved":false,"is_disabled":false,"rental_uris":{"android":"levelo://app?vid=9842e96b-970f-44cc-8c5c-7fc08f8cbb9e","ios":"levelo://app?vid=9842e96b-970f-44cc-8c5c-7fc08f8cbb9e"},"vehicle_type_id":"4","last_reported":1758179382,"current_range_meters":18000,"station_id":"ce4bhi12rcd13ifvqfp0","pricing_plan_id":"cebpf4jnsgd1na2vs0mg"},{"bike_id":"9d181f5a-58ca-49a0-bbcc-8286d3ed3228","system_id":"levelo_inurba_marseille","lat":43.31359,"lon":5.38374,"is_reserved":false,"is_disabled":false,"rental_uris":{"android":"levelo://app?vid=9d181f5a-58ca-49a0-bbcc-8286d3ed3228","ios":"levelo://app?vid=9d181f5a-58ca-49a0-bbcc-8286d3ed3228"},"vehicle_type_id":"4","last_reported":1758179382,"current_range_meters":18000,"station_id":"","pricing_plan_id":"cebpf4jnsgd1na2vs0mg"},{"bike_id":"553f8368-9fc7-4fab-ab6b-4ab64407d3bf","system_id":"levelo_inurba_marseille","lat":43.28869,"lon":5.42512,"is_reserved":false,"is_disabled":false,"rental_uris":{"android":"levelo://app?vid=553f8368-9fc7-4fab-ab6b-4ab64407d3bf","ios":"levelo://app?vid=553f8368-9fc7-4fab-ab6b-4ab64407d3bf"},"vehicle_type_id":"4","last_reported":1758179382,"current_range_meters":18000,"station_id":"","pricing_plan_id":"cebpf4jnsgd1na2vs0mg"},{"bike_id":"6b116da7-dc15-4b7b-92c7-5c84b524f72b","system_id":"levelo_inurba_marseille","lat":43.281014,"lon":5.378453,"is_reserved":false,"is_disabled":true,"rental_uris":{"android":"levelo://app?vid=6b116da7-dc15-4b7b-92c7-5c84b524f72b","ios":"levelo://app?vid=6b116da7-dc15-4b7b-92c7-5c84b524f72b"},"vehicle_type_id":"4","last_reported":1758179382,"current_range_meters":18000,"station_id":"ce4bha12rcd13ifvqee0","pricing_plan_id":"cebpf4jnsgd1na2vs0mg"},{"bike_id":"fc407023-5868-46e8-85cf-edd69ce1aa39","system_id":"levelo_inurba_marseille","lat":43.273415,"lon":5.390747,"is_reserved":false,"is_disabled":true,"rental_uris":{"android":"levelo://app?vid=fc407023-5868-46e8-85cf-edd69ce1aa39","ios":"levelo://app?vid=fc407023-5868-46e8-85cf-edd69ce1aa39"},"vehicle_type_id":"4","last_reported":1758179382,"current_range_meters":18800,"station_id":"ce4bhgp2rcd13ifvqfe0","pricing_plan_id":"cebpf4jnsgd1na2vs0mg"},{"bike_id":"46e89d11-c05c-46a8-952a-3349a961fbf1","system_id":"levelo_inurba_marseille","lat":43.29809,"lon":5.38103,"is_reserved":false,"is_disabled":false,"rental_uris":{"android":"levelo://app?vid=46e89d11-c05c-46a8-952a-3349a961fbf1","ios":"levelo://app?vid=46e89d11-c05c-46a8-952a-3349a961fbf1"},"vehicle_type_id":"4","last_reported":1758179382,"current_range_meters":18800,"station_id":"","pricing_plan_id":"cebpf4jnsgd1na2vs0mg"},{"bike_id":"2c734c36-442f-468e-ab47-e34ad5183e32","system_id":"levelo_inurba_marseille","lat":43.27256,"lon":5.38008,"is_reserved":false,"is_disabled":false,"rental_uris":{"android":"levelo://app?vid=2c734c36-442f-468e-ab47-e34ad5183e32","ios":"levelo://app?vid=2c734c36-442f-468e-ab47-e34ad5183e32"},"vehicle_type_id":"4","last_reported":1758179382,"current_range_meters":18800,"station_id":"","pricing_plan_id":"cebpf4jnsgd1na2vs0mg"},{"bike_id":"47c22245-345e-4b55-8db6-e460226dbf31","system_id":"levelo_inurba_marseille","lat":43.27508,"lon":5.42475,"is_reserved":false,"is_disabled":false,"rental_uris":{"android":"levelo://app?vid=47c22245-345e-4b55-8db6-e460226dbf31","ios":"levelo://app?vid=47c22245-345e-4b55-8db6-e460226dbf31"},"vehicle_type_id":"4","last_reported":1758179382,"current_range_meters":18800,"station_id":"ce4bhn92rcd13ifvqgrg","pricing_plan_id":"cebpf4jnsgd1na2vs0mg"},{"bike_id":"fe6462f3-5ee0-406f-879b-0670498c343a","system_id":"levelo_inurba_marseille","lat":43.2984,"lon":5.362698,"is_reserved":false,"is_disabled":false,"rental_uris":{"android":"levelo://app?vid=fe6462f3-5ee0-406f-879b-0670498c343a","ios":"levelo://app?vid=fe6462f3-5ee0-406f-879b-0670498c343a"},"vehicle_type_id":"4","last_reported":1758179382,"current_range_meters":18800,"station_id":"ce4bgpp2rcd13ifvqc3g","pricing_plan_id":"cebpf4jnsgd1na2vs0mg"},{"bike_id":"9c5d43ae-0283-4425-ac62-65983bedf5f8","system_id":"levelo_inurba_marseille","lat":43.28416,"lon":5.37515,"is_reserved":false,"is_disabled":false,"rental_uris":{"android":"levelo://app?vid=9c5d43ae-0283-4425-ac62-65983bedf5f8","ios":"levelo://app?vid=9c5d43ae-0283-4425-ac62-65983bedf5f8"},"vehicle_type_id":"4","last_reported":1758179382,"current_range_meters":18800,"station_id":"ce4bh412rcd13ifvqds0","pricing_plan_id":"cebpf4jnsgd1na2vs0mg"},{"bike_id":"561a25b9-4374-4389-9393-481e4a6f2234","system_id":"levelo_inurba_marseille","lat":43.25726,"lon":5.41109,"is_reserved":false,"is_disabled":false,"rental_uris":{"android":"levelo://app?vid=561a25b9-4374-4389-9393-481e4a6f2234","ios":"levelo://app?vid=561a25b9-4374-4389-9393-481e4a6f2234"},"vehicle_type_id":"4","last_reported":1758179382,"current_range_meters":18800,"station_id":"ce4bhkp2rcd13ifvqgd0","pricing_plan_id":"cebpf4jnsgd1na2vs0mg"},{"bike_id":"bf6e6d27-c09e-4725-9fbc-20073fd5a515","system_id":"levelo_inurba_marseille","lat":43.289376,"lon":5.396214,"is_reserved":false,"is_disabled":false,"rental_uris":{"android":"levelo://app?vid=bf6e6d27-c09e-4725-9fbc-20073fd5a515","ios":"levelo://app?vid=bf6e6d27-c09e-4725-9fbc-20073fd5a515"},"vehicle_type_id":"4","last_reported":1758179382,"current_range_meters":18800,"station_id":"","pricing_plan_id":"cebpf4jnsgd1na2vs0mg"},{"bike_id":"5613f75e-13dd-421b-b027-149ea8b149c7","system_id":"levelo_inurba_marseille","lat":43.24631,"lon":5.43149,"is_reserved":false,"is_disabled":false,"rental_uris":{"android":"levelo://app?vid=5613f75e-13dd-421b-b027-149ea8b149c7","ios":"levelo://app?vid=5613f75e-13dd-421b-b027-149ea8b149c7"},"vehicle_type_id":"4","last_reported":1758179382,"current_range_meters":18800,"station_id":"st_d2m6c4gdas8pm72e190g","pricing_plan_id":"cebpf4jnsgd1na2vs0mg"},{"bike_id":"0960e3dd-c358-4474-bd10-8223758e1f6b","system_id":"levelo_inurba_marseille","lat":43.296996,"lon":5.376855,"is_reserved":false,"is_disabled":false,"rental_uris":{"android":"levelo://app?vid=0960e3dd-c358-4474-bd10-8223758e1f6b","ios":"levelo://app?vid=0960e3dd-c358-4474-bd10-8223758e1f6b"},"vehicle_type_id":"4","last_reported":1758179382,"current_range_meters":18800,"station_id":"","pricing_plan_id":"cebpf4jnsgd1na2vs0mg"},{"bike_id":"c31feaf5-f258-476c-a720-d7d12c870c6a","system_id":"levelo_inurba_marseille","lat":43.26957,"lon":5.38637,"is_reserved":false,"is_disabled":false,"rental_uris":{"android":"levelo://app?vid=c31feaf5-f258-476c-a720-d7d12c870c6a","ios":"levelo://app?vid=c31feaf5-f258-476c-a720-d7d12c870c6a"},"vehicle_type_id":"4","last_reported":1758179382,"current_range_meters":18800,"station_id":"ce4bhh92rcd13ifvqfh0","pricing_plan_id":"cebpf4jnsgd1na2vs0mg"},{"bike_id":"3a2fd072-55c6-4292-8ade-97d21356d4ed","system_id":"levelo_inurba_marseille","lat":43.2316,"lon":5.43715,"is_reserved":false,"is_disabled":false,"rental_uris":{"android":"levelo://app?vid=3a2fd072-55c6-4292-8ade-97d21356d4ed","ios":"levelo://app?vid=3a2fd072-55c6-4292-8ade-97d21356d4ed"},"vehicle_type_id":"4","last_reported":1758179382,"current_range_meters":19200,"station_id":"ce4bhmp2rcd13ifvqgog","pricing_plan_id":"cebpf4jnsgd1na2vs0mg"},{"bike_id":"550893d5-c010-4eb2-894b-6f812de0bb03","system_id":"levelo_inurba_marseille","lat":43.23156,"lon":5.43711,"is_reserved":false,"is_disabled":false,"rental_uris":{"android":"levelo://app?vid=550893d5-c010-4eb2-894b-6f812de0bb03","ios":"levelo://app?vid=550893d5-c010-4eb2-894b-6f812de0bb03"},"vehicle_type_id":"4","last_reported":1758179382,"current_range_meters":19200,"station_id":"ce4bhmp2rcd13ifvqgog","pricing_plan_id":"cebpf4jnsgd1na2vs0mg"},{"bike_id":"7ea23340-4c19-4cdf-a95c-d6498e16cab2","system_id":"levelo_inurba_marseille","lat":43.25938,"lon":5.40911,"is_reserved":false,"is_disabled":false,"rental_uris":{"android":"levelo://app?vid=7ea23340-4c19-4cdf-a95c-d6498e16cab2","ios":"levelo://app?vid=7ea23340-4c19-4cdf-a95c-d6498e16cab2"},"vehicle_type_id":"4","last_reported":1758179382,"current_range_meters":19200,"station_id":"ce4bhm92rcd13ifvqglg","pricing_plan_id":"cebpf4jnsgd1na2vs0mg"},{"bike_id":"e7fe33e9-825b-4e11-9ec8-b22c63dcf09a","system_id":"levelo_inurba_marseille","lat":43.28269,"lon":5.35059,"is_reserved":false,"is_disabled":false,"rental_uris":{"android":"levelo://app?vid=e7fe33e9-825b-4e11-9ec8-b22c63dcf09a","ios":"levelo://app?vid=e7fe33e9-825b-4e11-9ec8-b22c63dcf09a"},"vehicle_type_id":"4","last_reported":1758179382,"current_range_meters":19200,"station_id":"ce4bhbp2rcd13ifvqerg","pricing_plan_id":"cebpf4jnsgd1na2vs0mg"},{"bike_id":"0fc19b76-80bb-43e9-99b5-1f799411b4a4","system_id":"levelo_inurba_marseille","lat":43.29228,"lon":5.36083,"is_reserved":false,"is_disabled":false,"rental_uris":{"android":"levelo://app?vid=0fc19b76-80bb-43e9-99b5-1f799411b4a4","ios":"levelo://app?vid=0fc19b76-80bb-43e9-99b5-1f799411b4a4"},"vehicle_type_id":"4","last_reported":1758179382,"current_range_meters":19200,"station_id":"ce4bhbh2rcd13ifvqeqg","pricing_plan_id":"cebpf4jnsgd1na2vs0mg"},{"bike_id":"32bad0a0-410f-4bd9-a9f8-4140049937bd","system_id":"levelo_inurba_marseille","lat":43.281187,"lon":5.432226,"is_reserved":false,"is_disabled":false,"rental_uris":{"android":"levelo://app?vid=32bad0a0-410f-4bd9-a9f8-4140049937bd","ios":"levelo://app?vid=32bad0a0-410f-4bd9-a9f8-4140049937bd"},"vehicle_type_id":"4","last_reported":1758179382,"current_range_meters":19200,"station_id":"","pricing_plan_id":"cebpf4jnsgd1na2vs0mg"},{"bike_id":"6153d3cd-e2a0-4cfb-9f07-5646e648695a","system_id":"levelo_inurba_marseille","lat":43.30897,"lon":5.37225,"is_reserved":false,"is_disabled":false,"rental_uris":{"android":"levelo://app?vid=6153d3cd-e2a0-4cfb-9f07-5646e648695a","ios":"levelo://app?vid=6153d3cd-e2a0-4cfb-9f07-5646e648695a"},"vehicle_type_id":"4","last_reported":1758179382,"current_range_meters":19600,"station_id":"ce4bguh2rcd13ifvqckg","pricing_plan_id":"cebpf4jnsgd1na2vs0mg"},{"bike_id":"c8dba32d-5874-475a-8590-f1962b5dc97f","system_id":"levelo_inurba_marseille","lat":43.25895,"lon":5.40869,"is_reserved":false,"is_disabled":false,"rental_uris":{"android":"levelo://app?vid=c8dba32d-5874-475a-8590-f1962b5dc97f","ios":"levelo://app?vid=c8dba32d-5874-475a-8590-f1962b5dc97f"},"vehicle_type_id":"4","last_reported":1758179382,"current_range_meters":19600,"station_id":"ce4bhm92rcd13ifvqglg","pricing_plan_id":"cebpf4jnsgd1na2vs0mg"},{"bike_id":"d56ea0e0-fccc-4049-93b8-77ace5c73dd1","system_id":"levelo_inurba_marseille","lat":43.2785,"lon":5.38519,"is_reserved":false,"is_disabled":false,"rental_uris":{"android":"levelo://app?vid=d56ea0e0-fccc-4049-93b8-77ace5c73dd1","ios":"levelo://app?vid=d56ea0e0-fccc-4049-93b8-77ace5c73dd1"},"vehicle_type_id":"4","last_reported":1758179382,"current_range_meters":19600,"station_id":"","pricing_plan_id":"cebpf4jnsgd1na2vs0mg"},{"bike_id":"7373168a-6106-45da-bd67-c5ad27bd6854","system_id":"levelo_inurba_marseille","lat":43.25936,"lon":5.40911,"is_reserved":false,"is_disabled":false,"rental_uris":{"android":"levelo://app?vid=7373168a-6106-45da-bd67-c5ad27bd6854","ios":"levelo://app?vid=7373168a-6106-45da-bd67-c5ad27bd6854"},"vehicle_type_id":"4","last_reported":1758179382,"current_range_meters":19600,"station_id":"ce4bhm92rcd13ifvqglg","pricing_plan_id":"cebpf4jnsgd1na2vs0mg"},{"bike_id":"662b2807-f87d-42a4-861b-1f3a072b601e","system_id":"levelo_inurba_marseille","lat":43.27205,"lon":5.41004,"is_reserved":false,"is_disabled":false,"rental_uris":{"android":"levelo://app?vid=662b2807-f87d-42a4-861b-1f3a072b601e","ios":"levelo://app?vid=662b2807-f87d-42a4-861b-1f3a072b601e"},"vehicle_type_id":"4","last_reported":1758179382,"current_range_meters":19600,"station_id":"ce4bhl12rcd13ifvqgf0","pricing_plan_id":"cebpf4jnsgd1na2vs0mg"},{"bike_id":"ca134f51-f35e-49d0-8bcf-329a33d607d7","system_id":"levelo_inurba_marseille","lat":43.26685,"lon":5.38265,"is_reserved":false,"is_disabled":true,"rental_uris":{"android":"levelo://app?vid=ca134f51-f35e-49d0-8bcf-329a33d607d7","ios":"levelo://app?vid=ca134f51-f35e-49d0-8bcf-329a33d607d7"},"vehicle_type_id":"4","last_reported":1758179382,"current_range_meters":19600,"station_id":"","pricing_plan_id":"cebpf4jnsgd1na2vs0mg"},{"bike_id":"4cb6774a-f732-4788-b580-425b07f14d7e","system_id":"levelo_inurba_marseille","lat":43.292335,"lon":5.360615,"is_reserved":false,"is_disabled":false,"rental_uris":{"android":"levelo://app?vid=4cb6774a-f732-4788-b580-425b07f14d7e","ios":"levelo://app?vid=4cb6774a-f732-4788-b580-425b07f14d7e"},"vehicle_type_id":"4","last_reported":1758179382,"current_range_meters":19600,"station_id":"","pricing_plan_id":"cebpf4jnsgd1na2vs0mg"},{"bike_id":"435ff4e0-8d24-4c74-8dc1-b1d8f315f71c","system_id":"levelo_inurba_marseille","lat":43.27488,"lon":5.42458,"is_reserved":false,"is_disabled":false,"rental_uris":{"android":"levelo://app?vid=435ff4e0-8d24-4c74-8dc1-b1d8f315f71c","ios":"levelo://app?vid=435ff4e0-8d24-4c74-8dc1-b1d8f315f71c"},"vehicle_type_id":"4","last_reported":1758179382,"current_range_meters":19600,"station_id":"ce4bhn92rcd13ifvqgrg","pricing_plan_id":"cebpf4jnsgd1na2vs0mg"},{"bike_id":"b0519531-dfa9-409f-a2d0-d87440a09095","system_id":"levelo_inurba_marseille","lat":43.23142,"lon":5.43711,"is_reserved":false,"is_disabled":false,"rental_uris":{"android":"levelo://app?vid=b0519531-dfa9-409f-a2d0-d87440a09095","ios":"levelo://app?vid=b0519531-dfa9-409f-a2d0-d87440a09095"},"vehicle_type_id":"4","last_reported":1758179382,"current_range_meters":19600,"station_id":"ce4bhmp2rcd13ifvqgog","pricing_plan_id":"cebpf4jnsgd1na2vs0mg"},{"bike_id":"67fc4b8d-b5e7-48c2-b84b-dfd2ab2dc8c9","system_id":"levelo_inurba_marseille","lat":43.29537,"lon":5.3751,"is_reserved":false,"is_disabled":false,"rental_uris":{"android":"levelo://app?vid=67fc4b8d-b5e7-48c2-b84b-dfd2ab2dc8c9","ios":"levelo://app?vid=67fc4b8d-b5e7-48c2-b84b-dfd2ab2dc8c9"},"vehicle_type_id":"4","last_reported":1758179382,"current_range_meters":19600,"station_id":"ce4bgkp2rcd13ifvqbmg","pricing_plan_id":"cebpf4jnsgd1na2vs0mg"},{"bike_id":"9b77757b-a8f2-4c93-a14e-e6083861628a","system_id":"levelo_inurba_marseille","lat":43.21752,"lon":5.34603,"is_reserved":false,"is_disabled":false,"rental_uris":{"android":"levelo://app?vid=9b77757b-a8f2-4c93-a14e-e6083861628a","ios":"levelo://app?vid=9b77757b-a8f2-4c93-a14e-e6083861628a"},"vehicle_type_id":"4","last_reported":1758179382,"current_range_meters":19600,"station_id":"st_cvj6r9ubvosntc0bgbag","pricing_plan_id":"cebpf4jnsgd1na2vs0mg"},{"bike_id":"763bce21-7c3a-4713-a992-823d94ddf3db","system_id":"levelo_inurba_marseille","lat":43.28615,"lon":5.37064,"is_reserved":false,"is_disabled":false,"rental_uris":{"android":"levelo://app?vid=763bce21-7c3a-4713-a992-823d94ddf3db","ios":"levelo://app?vid=763bce21-7c3a-4713-a992-823d94ddf3db"},"vehicle_type_id":"4","last_reported":1758179382,"current_range_meters":19600,"station_id":"ce4bht12rcd13ifvqi60","pricing_plan_id":"cebpf4jnsgd1na2vs0mg"},{"bike_id":"b10dee2c-6835-4d9a-a95c-bee0c824800a","system_id":"levelo_inurba_marseille","lat":43.26964,"lon":5.38634,"is_reserved":false,"is_disabled":false,"rental_uris":{"android":"levelo://app?vid=b10dee2c-6835-4d9a-a95c-bee0c824800a","ios":"levelo://app?vid=b10dee2c-6835-4d9a-a95c-bee0c824800a"},"vehicle_type_id":"4","last_reported":1758179382,"current_range_meters":20000,"station_id":"ce4bhh92rcd13ifvqfh0","pricing_plan_id":"cebpf4jnsgd1na2vs0mg"},{"bike_id":"71da2401-8079-450a-baf1-5f43b1b6b245","system_id":"levelo_inurba_marseille","lat":43.30946,"lon":5.39036,"is_reserved":false,"is_disabled":false,"rental_uris":{"android":"levelo://app?vid=71da2401-8079-450a-baf1-5f43b1b6b245","ios":"levelo://app?vid=71da2401-8079-450a-baf1-5f43b1b6b245"},"vehicle_type_id":"4","last_reported":1758179382,"current_range_meters":20000,"station_id":"ce4bgup2rcd13ifvqco0","pricing_plan_id":"cebpf4jnsgd1na2vs0mg"},{"bike_id":"5a45408f-d83e-4797-a757-7c3c26ab2b58","system_id":"levelo_inurba_marseille","lat":43.32535,"lon":5.41444,"is_reserved":false,"is_disabled":false,"rental_uris":{"android":"levelo://app?vid=5a45408f-d83e-4797-a757-7c3c26ab2b58","ios":"levelo://app?vid=5a45408f-d83e-4797-a757-7c3c26ab2b58"},"vehicle_type_id":"4","last_reported":1758179382,"current_range_meters":20000,"station_id":"ce4bhq12rcd13ifvqhhg","pricing_plan_id":"cebpf4jnsgd1na2vs0mg"},{"bike_id":"2c664d9e-f9a8-4a6a-8400-da79db47185e","system_id":"levelo_inurba_marseille","lat":43.22553,"lon":5.41635,"is_reserved":false,"is_disabled":false,"rental_uris":{"android":"levelo://app?vid=2c664d9e-f9a8-4a6a-8400-da79db47185e","ios":"levelo://app?vid=2c664d9e-f9a8-4a6a-8400-da79db47185e"},"vehicle_type_id":"4","last_reported":1758179382,"current_range_meters":20000,"station_id":"st_d2o4gvlbi1j2169b742g","pricing_plan_id":"cebpf4jnsgd1na2vs0mg"},{"bike_id":"9e94aedc-b4f2-4726-ba08-9f764b9bac0c","system_id":"levelo_inurba_marseille","lat":43.25942,"lon":5.40909,"is_reserved":false,"is_disabled":false,"rental_uris":{"android":"levelo://app?vid=9e94aedc-b4f2-4726-ba08-9f764b9bac0c","ios":"levelo://app?vid=9e94aedc-b4f2-4726-ba08-9f764b9bac0c"},"vehicle_type_id":"4","last_reported":1758179382,"current_range_meters":20000,"station_id":"ce4bhm92rcd13ifvqglg","pricing_plan_id":"cebpf4jnsgd1na2vs0mg"},{"bike_id":"a160166a-fead-4ccd-b202-700eda9db14b","system_id":"levelo_inurba_marseille","lat":43.25,"lon":5.38936,"is_reserved":false,"is_disabled":false,"rental_uris":{"android":"levelo://app?vid=a160166a-fead-4ccd-b202-700eda9db14b","ios":"levelo://app?vid=a160166a-fead-4ccd-b202-700eda9db14b"},"vehicle_type_id":"4","last_reported":1758179382,"current_range_meters":20000,"station_id":"ce4bhgp2rcd13ifvqfd0","pricing_plan_id":"cebpf4jnsgd1na2vs0mg"},{"bike_id":"e9323be2-eb73-417c-8bda-c6617577cf43","system_id":"levelo_inurba_marseille","lat":43.295188,"lon":5.390328,"is_reserved":false,"is_disabled":false,"rental_uris":{"android":"levelo://app?vid=e9323be2-eb73-417c-8bda-c6617577cf43","ios":"levelo://app?vid=e9323be2-eb73-417c-8bda-c6617577cf43"},"vehicle_type_id":"4","last_reported":1758179382,"current_range_meters":20000,"station_id":"ce4bh3p2rcd13ifvqdp0","pricing_plan_id":"cebpf4jnsgd1na2vs0mg"},{"bike_id":"ea9e0077-7ed5-4bd6-bf7e-1808d1892474","system_id":"levelo_inurba_marseille","lat":43.29194,"lon":5.35811,"is_reserved":false,"is_disabled":false,"rental_uris":{"android":"levelo://app?vid=ea9e0077-7ed5-4bd6-bf7e-1808d1892474","ios":"levelo://app?vid=ea9e0077-7ed5-4bd6-bf7e-1808d1892474"},"vehicle_type_id":"4","last_reported":1758179382,"current_range_meters":20400,"station_id":"ce4bhb12rcd13ifvqel0","pricing_plan_id":"cebpf4jnsgd1na2vs0mg"},{"bike_id":"6a075ece-fc28-4da6-8bc2-382d0df49969","system_id":"levelo_inurba_marseille","lat":43.24544,"lon":5.39536,"is_reserved":false,"is_disabled":false,"rental_uris":{"android":"levelo://app?vid=6a075ece-fc28-4da6-8bc2-382d0df49969","ios":"levelo://app?vid=6a075ece-fc28-4da6-8bc2-382d0df49969"},"vehicle_type_id":"4","last_reported":1758179382,"current_range_meters":20400,"station_id":"ce4bhlp2rcd13ifvqgjg","pricing_plan_id":"cebpf4jnsgd1na2vs0mg"},{"bike_id":"f196f58c-9c05-4d46-abb2-8422d65a54ac","system_id":"levelo_inurba_marseille","lat":43.25834,"lon":5.39431,"is_reserved":false,"is_disabled":false,"rental_uris":{"android":"levelo://app?vid=f196f58c-9c05-4d46-abb2-8422d65a54ac","ios":"levelo://app?vid=f196f58c-9c05-4d46-abb2-8422d65a54ac"},"vehicle_type_id":"4","last_reported":1758179382,"current_range_meters":20400,"station_id":"ce4bhip2rcd13ifvqft0","pricing_plan_id":"cebpf4jnsgd1na2vs0mg"},{"bike_id":"f85a8c4d-f9d0-4136-9b57-8bfb28db950c","system_id":"levelo_inurba_marseille","lat":43.31877,"lon":5.37427,"is_reserved":false,"is_disabled":false,"rental_uris":{"android":"levelo://app?vid=f85a8c4d-f9d0-4136-9b57-8bfb28db950c","ios":"levelo://app?vid=f85a8c4d-f9d0-4136-9b57-8bfb28db950c"},"vehicle_type_id":"4","last_reported":1758179382,"current_range_meters":20400,"station_id":"","pricing_plan_id":"cebpf4jnsgd1na2vs0mg"},{"bike_id":"2f1ac24c-9128-439a-8200-be59bac6b99c","system_id":"levelo_inurba_marseille","lat":43.257738,"lon":5.410105,"is_reserved":false,"is_disabled":false,"rental_uris":{"android":"levelo://app?vid=2f1ac24c-9128-439a-8200-be59bac6b99c","ios":"levelo://app?vid=2f1ac24c-9128-439a-8200-be59bac6b99c"},"vehicle_type_id":"4","last_reported":1758179382,"current_range_meters":20400,"station_id":"ce4bhkp2rcd13ifvqgd0","pricing_plan_id":"cebpf4jnsgd1na2vs0mg"},{"bike_id":"f688d35d-8d9b-4e7c-88d0-98f63bd44f2d","system_id":"levelo_inurba_marseille","lat":43.34131,"lon":5.40901,"is_reserved":false,"is_disabled":false,"rental_uris":{"android":"levelo://app?vid=f688d35d-8d9b-4e7c-88d0-98f63bd44f2d","ios":"levelo://app?vid=f688d35d-8d9b-4e7c-88d0-98f63bd44f2d"},"vehicle_type_id":"4","last_reported":1758179382,"current_range_meters":20400,"station_id":"ce4bhqh2rcd13ifvqhlg","pricing_plan_id":"cebpf4jnsgd1na2vs0mg"},{"bike_id":"ebf3d983-9d52-43a2-8c8b-3fb20de22308","system_id":"levelo_inurba_marseille","lat":43.34144,"lon":5.40913,"is_reserved":false,"is_disabled":false,"rental_uris":{"android":"levelo://app?vid=ebf3d983-9d52-43a2-8c8b-3fb20de22308","ios":"levelo://app?vid=ebf3d983-9d52-43a2-8c8b-3fb20de22308"},"vehicle_type_id":"4","last_reported":1758179382,"current_range_meters":20400,"station_id":"ce4bhqh2rcd13ifvqhlg","pricing_plan_id":"cebpf4jnsgd1na2vs0mg"},{"bike_id":"0de26077-3d5a-45cf-9ae4-72056268d876","system_id":"levelo_inurba_marseille","lat":43.254983,"lon":5.376473,"is_reserved":false,"is_disabled":false,"rental_uris":{"android":"levelo://app?vid=0de26077-3d5a-45cf-9ae4-72056268d876","ios":"levelo://app?vid=0de26077-3d5a-45cf-9ae4-72056268d876"},"vehicle_type_id":"4","last_reported":1758179382,"current_range_meters":20400,"station_id":"","pricing_plan_id":"cebpf4jnsgd1na2vs0mg"},{"bike_id":"d65baa26-0f35-46f5-ae09-e2bcec272830","system_id":"levelo_inurba_marseille","lat":43.25938,"lon":5.40897,"is_reserved":false,"is_disabled":false,"rental_uris":{"android":"levelo://app?vid=d65baa26-0f35-46f5-ae09-e2bcec272830","ios":"levelo://app?vid=d65baa26-0f35-46f5-ae09-e2bcec272830"},"vehicle_type_id":"4","last_reported":1758179382,"current_range_meters":20400,"station_id":"ce4bhm92rcd13ifvqglg","pricing_plan_id":"cebpf4jnsgd1na2vs0mg"},{"bike_id":"79d7aadf-c300-4266-819d-901f090b58ba","system_id":"levelo_inurba_marseille","lat":43.23114,"lon":5.43696,"is_reserved":false,"is_disabled":false,"rental_uris":{"android":"levelo://app?vid=79d7aadf-c300-4266-819d-901f090b58ba","ios":"levelo://app?vid=79d7aadf-c300-4266-819d-901f090b58ba"},"vehicle_type_id":"4","last_reported":1758179382,"current_range_meters":20800,"station_id":"ce4bhmp2rcd13ifvqgog","pricing_plan_id":"cebpf4jnsgd1na2vs0mg"},{"bike_id":"49ab6c11-9000-4b32-bdc5-5b75fa208b71","system_id":"levelo_inurba_marseille","lat":43.276169,"lon":5.361012,"is_reserved":false,"is_disabled":false,"rental_uris":{"android":"levelo://app?vid=49ab6c11-9000-4b32-bdc5-5b75fa208b71","ios":"levelo://app?vid=49ab6c11-9000-4b32-bdc5-5b75fa208b71"},"vehicle_type_id":"4","last_reported":1758179382,"current_range_meters":20800,"station_id":"ce4bgj92rcd13ifvqbe0","pricing_plan_id":"cebpf4jnsgd1na2vs0mg"},{"bike_id":"bb945bc0-0083-4341-bdc3-1cc8e8c582ec","system_id":"levelo_inurba_marseille","lat":43.23158,"lon":5.43703,"is_reserved":false,"is_disabled":false,"rental_uris":{"android":"levelo://app?vid=bb945bc0-0083-4341-bdc3-1cc8e8c582ec","ios":"levelo://app?vid=bb945bc0-0083-4341-bdc3-1cc8e8c582ec"},"vehicle_type_id":"4","last_reported":1758179382,"current_range_meters":20800,"station_id":"ce4bhmp2rcd13ifvqgog","pricing_plan_id":"cebpf4jnsgd1na2vs0mg"},{"bike_id":"c02e89e8-7ca9-4744-b707-23549b116651","system_id":"levelo_inurba_marseille","lat":43.24181,"lon":5.39732,"is_reserved":false,"is_disabled":false,"rental_uris":{"android":"levelo://app?vid=c02e89e8-7ca9-4744-b707-23549b116651","ios":"levelo://app?vid=c02e89e8-7ca9-4744-b707-23549b116651"},"vehicle_type_id":"4","last_reported":1758179382,"current_range_meters":20800,"station_id":"ce4bhn12rcd13ifvqgpg","pricing_plan_id":"cebpf4jnsgd1na2vs0mg"},{"bike_id":"b293b6ba-3447-4975-9332-0ad7782e00c5","system_id":"levelo_inurba_marseille","lat":43.3171,"lon":5.37758,"is_reserved":false,"is_disabled":false,"rental_uris":{"android":"levelo://app?vid=b293b6ba-3447-4975-9332-0ad7782e00c5","ios":"levelo://app?vid=b293b6ba-3447-4975-9332-0ad7782e00c5"},"vehicle_type_id":"4","last_reported":1758179382,"current_range_meters":20800,"station_id":"ce4bgth2rcd13ifvqch0","pricing_plan_id":"cebpf4jnsgd1na2vs0mg"},{"bike_id":"bc9e9cc5-6e6d-4e78-8a8b-4a6820431887","system_id":"levelo_inurba_marseille","lat":43.241797,"lon":5.397268,"is_reserved":false,"is_disabled":false,"rental_uris":{"android":"levelo://app?vid=bc9e9cc5-6e6d-4e78-8a8b-4a6820431887","ios":"levelo://app?vid=bc9e9cc5-6e6d-4e78-8a8b-4a6820431887"},"vehicle_type_id":"4","last_reported":1758179382,"current_range_meters":20800,"station_id":"ce4bhn12rcd13ifvqgpg","pricing_plan_id":"cebpf4jnsgd1na2vs0mg"},{"bike_id":"967baad4-f49c-477c-a1c9-e2c843669e20","system_id":"levelo_inurba_marseille","lat":43.30912,"lon":5.36843,"is_reserved":false,"is_disabled":false,"rental_uris":{"android":"levelo://app?vid=967baad4-f49c-477c-a1c9-e2c843669e20","ios":"levelo://app?vid=967baad4-f49c-477c-a1c9-e2c843669e20"},"vehicle_type_id":"4","last_reported":1758179382,"current_range_meters":20800,"station_id":"ce4bgn92rcd13ifvqbvg","pricing_plan_id":"cebpf4jnsgd1na2vs0mg"},{"bike_id":"b9ae8c93-c745-413a-9386-68df571f8cad","system_id":"levelo_inurba_marseille","lat":43.217479,"lon":5.346037,"is_reserved":false,"is_disabled":false,"rental_uris":{"android":"levelo://app?vid=b9ae8c93-c745-413a-9386-68df571f8cad","ios":"levelo://app?vid=b9ae8c93-c745-413a-9386-68df571f8cad"},"vehicle_type_id":"4","last_reported":1758179382,"current_range_meters":21600,"station_id":"","pricing_plan_id":"cebpf4jnsgd1na2vs0mg"},{"bike_id":"91d7fe7c-c61e-4eb9-a437-54937a9c5eab","system_id":"levelo_inurba_marseille","lat":43.31487,"lon":5.37286,"is_reserved":false,"is_disabled":false,"rental_uris":{"android":"levelo://app?vid=91d7fe7c-c61e-4eb9-a437-54937a9c5eab","ios":"levelo://app?vid=91d7fe7c-c61e-4eb9-a437-54937a9c5eab"},"vehicle_type_id":"4","last_reported":1758179382,"current_range_meters":21600,"station_id":"ce4bgt12rcd13ifvqcd0","pricing_plan_id":"cebpf4jnsgd1na2vs0mg"},{"bike_id":"939d2df9-e1af-42ce-93f9-cecaa01b9004","system_id":"levelo_inurba_marseille","lat":43.33244,"lon":5.41102,"is_reserved":false,"is_disabled":false,"rental_uris":{"android":"levelo://app?vid=939d2df9-e1af-42ce-93f9-cecaa01b9004","ios":"levelo://app?vid=939d2df9-e1af-42ce-93f9-cecaa01b9004"},"vehicle_type_id":"4","last_reported":1758179382,"current_range_meters":21600,"station_id":"","pricing_plan_id":"cebpf4jnsgd1na2vs0mg"},{"bike_id":"4527f769-048b-4029-90d7-9a60452ba434","system_id":"levelo_inurba_marseille","lat":43.26684,"lon":5.38276,"is_reserved":false,"is_disabled":false,"rental_uris":{"android":"levelo://app?vid=4527f769-048b-4029-90d7-9a60452ba434","ios":"levelo://app?vid=4527f769-048b-4029-90d7-9a60452ba434"},"vehicle_type_id":"4","last_reported":1758179382,"current_range_meters":21600,"station_id":"ce4bhg92rcd13ifvqf90","pricing_plan_id":"cebpf4jnsgd1na2vs0mg"},{"bike_id":"2b71aeb6-9975-49ef-91cb-594905aa4d79","system_id":"levelo_inurba_marseille","lat":43.27498,"lon":5.424534,"is_reserved":false,"is_disabled":false,"rental_uris":{"android":"levelo://app?vid=2b71aeb6-9975-49ef-91cb-594905aa4d79","ios":"levelo://app?vid=2b71aeb6-9975-49ef-91cb-594905aa4d79"},"vehicle_type_id":"4","last_reported":1758179382,"current_range_meters":21600,"station_id":"ce4bhn92rcd13ifvqgrg","pricing_plan_id":"cebpf4jnsgd1na2vs0mg"},{"bike_id":"5ac33642-a9b6-438b-883d-29e11533f40d","system_id":"levelo_inurba_marseille","lat":43.29691,"lon":5.3732,"is_reserved":false,"is_disabled":false,"rental_uris":{"android":"levelo://app?vid=5ac33642-a9b6-438b-883d-29e11533f40d","ios":"levelo://app?vid=5ac33642-a9b6-438b-883d-29e11533f40d"},"vehicle_type_id":"4","last_reported":1758179382,"current_range_meters":21600,"station_id":"ce4bgk12rcd13ifvqbj0","pricing_plan_id":"cebpf4jnsgd1na2vs0mg"},{"bike_id":"6c041fd8-c79d-4610-ad95-c003c7c3f921","system_id":"levelo_inurba_marseille","lat":43.32954,"lon":5.39269,"is_reserved":false,"is_disabled":true,"rental_uris":{"android":"levelo://app?vid=6c041fd8-c79d-4610-ad95-c003c7c3f921","ios":"levelo://app?vid=6c041fd8-c79d-4610-ad95-c003c7c3f921"},"vehicle_type_id":"4","last_reported":1758179382,"current_range_meters":21600,"station_id":"","pricing_plan_id":"cebpf4jnsgd1na2vs0mg"},{"bike_id":"74ca63b8-846f-4e1e-accd-d5e26d84e612","system_id":"levelo_inurba_marseille","lat":43.31489,"lon":5.37318,"is_reserved":false,"is_disabled":false,"rental_uris":{"android":"levelo://app?vid=74ca63b8-846f-4e1e-accd-d5e26d84e612","ios":"levelo://app?vid=74ca63b8-846f-4e1e-accd-d5e26d84e612"},"vehicle_type_id":"4","last_reported":1758179382,"current_range_meters":21600,"station_id":"ce4bgt12rcd13ifvqcd0","pricing_plan_id":"cebpf4jnsgd1na2vs0mg"},{"bike_id":"8455a810-3c7b-4e99-bee1-51697042a6fa","system_id":"levelo_inurba_marseille","lat":43.33753,"lon":5.37476,"is_reserved":false,"is_disabled":false,"rental_uris":{"android":"levelo://app?vid=8455a810-3c7b-4e99-bee1-51697042a6fa","ios":"levelo://app?vid=8455a810-3c7b-4e99-bee1-51697042a6fa"},"vehicle_type_id":"4","last_reported":1758179382,"current_range_meters":21600,"station_id":"","pricing_plan_id":"cebpf4jnsgd1na2vs0mg"},{"bike_id":"c55149d1-3b14-4190-9685-929bf5d49c1e","system_id":"levelo_inurba_marseille","lat":43.2174,"lon":5.34627,"is_reserved":false,"is_disabled":false,"rental_uris":{"android":"levelo://app?vid=c55149d1-3b14-4190-9685-929bf5d49c1e","ios":"levelo://app?vid=c55149d1-3b14-4190-9685-929bf5d49c1e"},"vehicle_type_id":"4","last_reported":1758179382,"current_range_meters":22000,"station_id":"st_cvj6r9ubvosntc0bgbag","pricing_plan_id":"cebpf4jnsgd1na2vs0mg"},{"bike_id":"9d625d54-132c-4459-a4c0-dc005972a7a7","system_id":"levelo_inurba_marseille","lat":43.31155,"lon":5.36903,"is_reserved":false,"is_disabled":false,"rental_uris":{"android":"levelo://app?vid=9d625d54-132c-4459-a4c0-dc005972a7a7","ios":"levelo://app?vid=9d625d54-132c-4459-a4c0-dc005972a7a7"},"vehicle_type_id":"4","last_reported":1758179382,"current_range_meters":22400,"station_id":"","pricing_plan_id":"cebpf4jnsgd1na2vs0mg"},{"bike_id":"3c59fca0-1e43-4d43-bb61-7c7933df9473","system_id":"levelo_inurba_marseille","lat":43.29971,"lon":5.37762,"is_reserved":false,"is_disabled":false,"rental_uris":{"android":"levelo://app?vid=3c59fca0-1e43-4d43-bb61-7c7933df9473","ios":"levelo://app?vid=3c59fca0-1e43-4d43-bb61-7c7933df9473"},"vehicle_type_id":"4","last_reported":1758179382,"current_range_meters":22000,"station_id":"","pricing_plan_id":"cebpf4jnsgd1na2vs0mg"},{"bike_id":"6f8bb1d0-3682-4be1-9a06-ce7017968268","system_id":"levelo_inurba_marseille","lat":43.27071,"lon":5.42281,"is_reserved":false,"is_disabled":false,"rental_uris":{"android":"levelo://app?vid=6f8bb1d0-3682-4be1-9a06-ce7017968268","ios":"levelo://app?vid=6f8bb1d0-3682-4be1-9a06-ce7017968268"},"vehicle_type_id":"4","last_reported":1758179382,"current_range_meters":22000,"station_id":"ce4bhk92rcd13ifvqgb0","pricing_plan_id":"cebpf4jnsgd1na2vs0mg"},{"bike_id":"835975a0-27c7-47e7-bc1c-b8ba0b505127","system_id":"levelo_inurba_marseille","lat":43.32589,"lon":5.378043,"is_reserved":false,"is_disabled":false,"rental_uris":{"android":"levelo://app?vid=835975a0-27c7-47e7-bc1c-b8ba0b505127","ios":"levelo://app?vid=835975a0-27c7-47e7-bc1c-b8ba0b505127"},"vehicle_type_id":"4","last_reported":1758179382,"current_range_meters":22000,"station_id":"","pricing_plan_id":"cebpf4jnsgd1na2vs0mg"},{"bike_id":"71b7cc0a-8557-4513-aae7-d4e1b36f877f","system_id":"levelo_inurba_marseille","lat":43.2804,"lon":5.36948,"is_reserved":false,"is_disabled":false,"rental_uris":{"android":"levelo://app?vid=71b7cc0a-8557-4513-aae7-d4e1b36f877f","ios":"levelo://app?vid=71b7cc0a-8557-4513-aae7-d4e1b36f877f"},"vehicle_type_id":"4","last_reported":1758179382,"current_range_meters":22000,"station_id":"ce4bha12rcd13ifvqef0","pricing_plan_id":"cebpf4jnsgd1na2vs0mg"},{"bike_id":"c4706891-6ce1-4440-91ff-a3ecf2ff007e","system_id":"levelo_inurba_marseille","lat":43.26374,"lon":5.40075,"is_reserved":false,"is_disabled":false,"rental_uris":{"android":"levelo://app?vid=c4706891-6ce1-4440-91ff-a3ecf2ff007e","ios":"levelo://app?vid=c4706891-6ce1-4440-91ff-a3ecf2ff007e"},"vehicle_type_id":"4","last_reported":1758179382,"current_range_meters":22400,"station_id":"","pricing_plan_id":"cebpf4jnsgd1na2vs0mg"},{"bike_id":"93c46886-4b1d-4ebe-9c54-eead91fe0ebd","system_id":"levelo_inurba_marseille","lat":43.27486,"lon":5.42445,"is_reserved":false,"is_disabled":false,"rental_uris":{"android":"levelo://app?vid=93c46886-4b1d-4ebe-9c54-eead91fe0ebd","ios":"levelo://app?vid=93c46886-4b1d-4ebe-9c54-eead91fe0ebd"},"vehicle_type_id":"4","last_reported":1758179382,"current_range_meters":22400,"station_id":"ce4bhn92rcd13ifvqgrg","pricing_plan_id":"cebpf4jnsgd1na2vs0mg"},{"bike_id":"66a3da1f-dd9a-43e3-af75-68882f7670e5","system_id":"levelo_inurba_marseille","lat":43.22531,"lon":5.348338,"is_reserved":false,"is_disabled":false,"rental_uris":{"android":"levelo://app?vid=66a3da1f-dd9a-43e3-af75-68882f7670e5","ios":"levelo://app?vid=66a3da1f-dd9a-43e3-af75-68882f7670e5"},"vehicle_type_id":"4","last_reported":1758179382,"current_range_meters":22400,"station_id":"","pricing_plan_id":"cebpf4jnsgd1na2vs0mg"},{"bike_id":"af99d02a-6a78-4d7b-b0f8-3027d1fd7e28","system_id":"levelo_inurba_marseille","lat":43.2749,"lon":5.42466,"is_reserved":false,"is_disabled":false,"rental_uris":{"android":"levelo://app?vid=af99d02a-6a78-4d7b-b0f8-3027d1fd7e28","ios":"levelo://app?vid=af99d02a-6a78-4d7b-b0f8-3027d1fd7e28"},"vehicle_type_id":"4","last_reported":1758179382,"current_range_meters":22400,"station_id":"ce4bhn92rcd13ifvqgrg","pricing_plan_id":"cebpf4jnsgd1na2vs0mg"},{"bike_id":"bec272a8-1288-41a2-8d98-4da6ebe5b5a7","system_id":"levelo_inurba_marseille","lat":43.29637,"lon":5.37181,"is_reserved":false,"is_disabled":false,"rental_uris":{"android":"levelo://app?vid=bec272a8-1288-41a2-8d98-4da6ebe5b5a7","ios":"levelo://app?vid=bec272a8-1288-41a2-8d98-4da6ebe5b5a7"},"vehicle_type_id":"4","last_reported":1758179382,"current_range_meters":22400,"station_id":"","pricing_plan_id":"cebpf4jnsgd1na2vs0mg"},{"bike_id":"e4858ae9-a4fd-498c-8ed6-9e82104a44cd","system_id":"levelo_inurba_marseille","lat":43.24176,"lon":5.39719,"is_reserved":false,"is_disabled":false,"rental_uris":{"android":"levelo://app?vid=e4858ae9-a4fd-498c-8ed6-9e82104a44cd","ios":"levelo://app?vid=e4858ae9-a4fd-498c-8ed6-9e82104a44cd"},"vehicle_type_id":"4","last_reported":1758179382,"current_range_meters":22400,"station_id":"ce4bhn12rcd13ifvqgpg","pricing_plan_id":"cebpf4jnsgd1na2vs0mg"},{"bike_id":"af92115d-6f7a-49ce-a65e-77f9182df835","system_id":"levelo_inurba_marseille","lat":43.21748,"lon":5.345963,"is_reserved":false,"is_disabled":true,"rental_uris":{"android":"levelo://app?vid=af92115d-6f7a-49ce-a65e-77f9182df835","ios":"levelo://app?vid=af92115d-6f7a-49ce-a65e-77f9182df835"},"vehicle_type_id":"4","last_reported":1758179382,"current_range_meters":22800,"station_id":"st_cvj6r9ubvosntc0bgbag","pricing_plan_id":"cebpf4jnsgd1na2vs0mg"},{"bike_id":"e936ff0d-8f65-4ef4-b3a8-0696297b5079","system_id":"levelo_inurba_marseille","lat":43.2679,"lon":5.39422,"is_reserved":false,"is_disabled":false,"rental_uris":{"android":"levelo://app?vid=e936ff0d-8f65-4ef4-b3a8-0696297b5079","ios":"levelo://app?vid=e936ff0d-8f65-4ef4-b3a8-0696297b5079"},"vehicle_type_id":"4","last_reported":1758179382,"current_range_meters":22800,"station_id":"ce4bhh12rcd13ifvqfg0","pricing_plan_id":"cebpf4jnsgd1na2vs0mg"},{"bike_id":"cf81e322-c44d-449e-8f1d-da3ee36f3155","system_id":"levelo_inurba_marseille","lat":43.3094,"lon":5.40142,"is_reserved":false,"is_disabled":true,"rental_uris":{"android":"levelo://app?vid=cf81e322-c44d-449e-8f1d-da3ee36f3155","ios":"levelo://app?vid=cf81e322-c44d-449e-8f1d-da3ee36f3155"},"vehicle_type_id":"4","last_reported":1758179382,"current_range_meters":22800,"station_id":"ce4bgvp2rcd13ifvqct0","pricing_plan_id":"cebpf4jnsgd1na2vs0mg"},{"bike_id":"67986338-9e76-4a0d-b066-59270910ab37","system_id":"levelo_inurba_marseille","lat":43.25119,"lon":5.4032,"is_reserved":false,"is_disabled":false,"rental_uris":{"android":"levelo://app?vid=67986338-9e76-4a0d-b066-59270910ab37","ios":"levelo://app?vid=67986338-9e76-4a0d-b066-59270910ab37"},"vehicle_type_id":"4","last_reported":1758179382,"current_range_meters":22800,"station_id":"ce4bhlh2rcd13ifvqgig","pricing_plan_id":"cebpf4jnsgd1na2vs0mg"},{"bike_id":"fcd22a45-7624-418f-93af-bb0096d9df97","system_id":"levelo_inurba_marseille","lat":43.30543,"lon":5.3673,"is_reserved":false,"is_disabled":false,"rental_uris":{"android":"levelo://app?vid=fcd22a45-7624-418f-93af-bb0096d9df97","ios":"levelo://app?vid=fcd22a45-7624-418f-93af-bb0096d9df97"},"vehicle_type_id":"4","last_reported":1758179382,"current_range_meters":22800,"station_id":"ce4bgrp2rcd13ifvqc9g","pricing_plan_id":"cebpf4jnsgd1na2vs0mg"},{"bike_id":"844aa534-246d-4230-b2e2-33fe95324156","system_id":"levelo_inurba_marseille","lat":43.290684,"lon":5.37225,"is_reserved":false,"is_disabled":false,"rental_uris":{"android":"levelo://app?vid=844aa534-246d-4230-b2e2-33fe95324156","ios":"levelo://app?vid=844aa534-246d-4230-b2e2-33fe95324156"},"vehicle_type_id":"4","last_reported":1758179382,"current_range_meters":22800,"station_id":"ce4bha92rcd13ifvqeh0","pricing_plan_id":"cebpf4jnsgd1na2vs0mg"},{"bike_id":"aa687db2-188b-4f97-9682-9809a40c7a65","system_id":"levelo_inurba_marseille","lat":43.30214,"lon":5.39467,"is_reserved":false,"is_disabled":false,"rental_uris":{"android":"levelo://app?vid=aa687db2-188b-4f97-9682-9809a40c7a65","ios":"levelo://app?vid=aa687db2-188b-4f97-9682-9809a40c7a65"},"vehicle_type_id":"4","last_reported":1758179382,"current_range_meters":22400,"station_id":"ce4bh0p2rcd13ifvqd70","pricing_plan_id":"cebpf4jnsgd1na2vs0mg"},{"bike_id":"d3ec3e9f-2cce-47bf-9350-c21d686b4932","system_id":"levelo_inurba_marseille","lat":43.24169,"lon":5.364,"is_reserved":false,"is_disabled":false,"rental_uris":{"android":"levelo://app?vid=d3ec3e9f-2cce-47bf-9350-c21d686b4932","ios":"levelo://app?vid=d3ec3e9f-2cce-47bf-9350-c21d686b4932"},