{"last_updated":1762798566,"ttl":60,"version":"2.2","data":{"bikes":[{"bike_id":"a22621ed-dce3-441e-82fa-0978db9d5cc0","system_id":"levelo_inurba_marseille","lat":43.337444,"lon":5.374475,"is_reserved":false,"is_disabled":false,"rental_uris":{"android":"levelo://app?vid=a22621ed-dce3-441e-82fa-0978db9d5cc0","ios":"levelo://app?vid=a22621ed-dce3-441e-82fa-0978db9d5cc0"},"vehicle_type_id":"4","last_reported":1762798567,"current_range_meters":0,"station_id":"","pricing_plan_id":"cebpf4jnsgd1na2vs0mg"},{"bike_id":"d2455e37-0aca-47c3-8aae-3a22b7df4802","system_id":"levelo_inurba_marseille","lat":43.26792,"lon":5.39412,"is_reserved":false,"is_disabled":false,"rental_uris":{"android":"levelo://app?vid=d2455e37-0aca-47c3-8aae-3a22b7df4802","ios":"levelo://app?vid=d2455e37-0aca-47c3-8aae-3a22b7df4802"},"vehicle_type_id":"4","last_reported":1762798567,"current_range_meters":2800,"station_id":"ce4bhh12rcd13ifvqfg0","pricing_plan_id":"cebpf4jnsgd1na2vs0mg"},{"bike_id":"70f4adaf-55e1-441f-9a1f-7b538500354b","system_id":"levelo_inurba_marseille","lat":43.300961,"lon":5.390881,"is_reserved":false,"is_disabled":true,"rental_uris":{"android":"levelo://app?vid=70f4adaf-55e1-441f-9a1f-7b538500354b","ios":"levelo://app?vid=70f4adaf-55e1-441f-9a1f-7b538500354b"},"vehicle_type_id":"4","last_reported":1762798567,"current_range_meters":2800,"station_id":"ce4bh192rcd13ifvqdb0","pricing_plan_id":"cebpf4jnsgd1na2vs0mg"},{"bike_id":"d58162db-574a-44f0-b573-b59c9312a09d","system_id":"levelo_inurba_marseille","lat":43.28272,"lon":5.35057,"is_reserved":false,"is_disabled":true,"rental_uris":{"android":"levelo://app?vid=d58162db-574a-44f0-b573-b59c9312a09d","ios":"levelo://app?vid=d58162db-574a-44f0-b573-b59c9312a09d"},"vehicle_type_id":"4","last_reported":1762798567,"current_range_meters":2800,"station_id":"ce4bhbp2rcd13ifvqerg","pricing_plan_id":"cebpf4jnsgd1na2vs0mg"},{"bike_id":"e66dd4c4-3834-4848-9196-1383c4660f34","system_id":"levelo_inurba_marseille","lat":43.25589,"lon":5.38228,"is_reserved":false,"is_disabled":false,"rental_uris":{"android":"levelo://app?vid=e66dd4c4-3834-4848-9196-1383c4660f34","ios":"levelo://app?vid=e66dd4c4-3834-4848-9196-1383c4660f34"},"vehicle_type_id":"4","last_reported":1762798567,"current_range_meters":2800,"station_id":"ce4bhih2rcd13ifvqfs0","pricing_plan_id":"cebpf4jnsgd1na2vs0mg"},{"bike_id":"e1683eac-75ec-4fc8-8319-5d8abfbc01f2","system_id":"levelo_inurba_marseille","lat":43.29257,"lon":5.40912,"is_reserved":false,"is_disabled":false,"rental_uris":{"android":"levelo://app?vid=e1683eac-75ec-4fc8-8319-5d8abfbc01f2","ios":"levelo://app?vid=e1683eac-75ec-4fc8-8319-5d8abfbc01f2"},"vehicle_type_id":"4","last_reported":1762798567,"current_range_meters":2800,"station_id":"ce4bh192rcd13ifvqdc0","pricing_plan_id":"cebpf4jnsgd1na2vs0mg"},{"bike_id":"83645448-77d2-4aa3-9aa8-8b71b36f9fc7","system_id":"levelo_inurba_marseille","lat":43.31063,"lon":5.38475,"is_reserved":false,"is_disabled":false,"rental_uris":{"android":"levelo://app?vid=83645448-77d2-4aa3-9aa8-8b71b36f9fc7","ios":"levelo://app?vid=83645448-77d2-4aa3-9aa8-8b71b36f9fc7"},"vehicle_type_id":"4","last_reported":1762798567,"current_range_meters":2800,"station_id":"","pricing_plan_id":"cebpf4jnsgd1na2vs0mg"},{"bike_id":"ceed0bef-7a53-456a-aa2c-6f8b8392f565","system_id":"levelo_inurba_marseille","lat":43.29578,"lon":5.39979,"is_reserved":false,"is_disabled":false,"rental_uris":{"android":"levelo://app?vid=ceed0bef-7a53-456a-aa2c-6f8b8392f565","ios":"levelo://app?vid=ceed0bef-7a53-456a-aa2c-6f8b8392f565"},"vehicle_type_id":"4","last_reported":1762798567,"current_range_meters":3200,"station_id":"ce4bh312rcd13ifvqdj0","pricing_plan_id":"cebpf4jnsgd1na2vs0mg"},{"bike_id":"0e9b37c2-e3c3-4c1c-b1b1-bf538ad02c32","system_id":"levelo_inurba_marseille","lat":43.26687,"lon":5.38275,"is_reserved":false,"is_disabled":false,"rental_uris":{"android":"levelo://app?vid=0e9b37c2-e3c3-4c1c-b1b1-bf538ad02c32","ios":"levelo://app?vid=0e9b37c2-e3c3-4c1c-b1b1-bf538ad02c32"},"vehicle_type_id":"4","last_reported":1762798567,"current_range_meters":3200,"station_id":"ce4bhg92rcd13ifvqf90","pricing_plan_id":"cebpf4jnsgd1na2vs0mg"},{"bike_id":"8e2a8032-3ade-46af-b5c0-b70e23480fee","system_id":"levelo_inurba_marseille","lat":43.29198,"lon":5.39324,"is_reserved":false,"is_disabled":false,"rental_uris":{"android":"levelo://app?vid=8e2a8032-3ade-46af-b5c0-b70e23480fee","ios":"levelo://app?vid=8e2a8032-3ade-46af-b5c0-b70e23480fee"},"vehicle_type_id":"4","last_reported":1762798567,"current_range_meters":3200,"station_id":"ce4bh192rcd13ifvqdd0","pricing_plan_id":"cebpf4jnsgd1na2vs0mg"},{"bike_id":"a004108d-814a-491b-947f-63d995e5fff2","system_id":"levelo_inurba_marseille","lat":43.30211,"lon":5.39478,"is_reserved":false,"is_disabled":false,"rental_uris":{"android":"levelo://app?vid=a004108d-814a-491b-947f-63d995e5fff2","ios":"levelo://app?vid=a004108d-814a-491b-947f-63d995e5fff2"},"vehicle_type_id":"4","last_reported":1762798567,"current_range_meters":3200,"station_id":"ce4bh0p2rcd13ifvqd70","pricing_plan_id":"cebpf4jnsgd1na2vs0mg"},{"bike_id":"d432b93b-1fbd-4282-8037-5cffdeea623a","system_id":"levelo_inurba_marseille","lat":43.246612,"lon":5.381573,"is_reserved":false,"is_disabled":false,"rental_uris":{"android":"levelo://app?vid=d432b93b-1fbd-4282-8037-5cffdeea623a","ios":"levelo://app?vid=d432b93b-1fbd-4282-8037-5cffdeea623a"},"vehicle_type_id":"4","last_reported":1762798567,"current_range_meters":3200,"station_id":"ce4bhih2rcd13ifvqfr0","pricing_plan_id":"cebpf4jnsgd1na2vs0mg"},{"bike_id":"79ed00fb-7df7-46a5-a36f-7a1a60e0d554","system_id":"levelo_inurba_marseille","lat":43.292786,"lon":5.368404,"is_reserved":false,"is_disabled":false,"rental_uris":{"android":"levelo://app?vid=79ed00fb-7df7-46a5-a36f-7a1a60e0d554","ios":"levelo://app?vid=79ed00fb-7df7-46a5-a36f-7a1a60e0d554"},"vehicle_type_id":"4","last_reported":1762798567,"current_range_meters":3200,"station_id":"ce4bhbp2rcd13ifvqesg","pricing_plan_id":"cebpf4jnsgd1na2vs0mg"},{"bike_id":"fa833d4e-d8b3-49c6-9eee-7417badde15e","system_id":"levelo_inurba_marseille","lat":43.30601,"lon":5.3723,"is_reserved":false,"is_disabled":false,"rental_uris":{"android":"levelo://app?vid=fa833d4e-d8b3-49c6-9eee-7417badde15e","ios":"levelo://app?vid=fa833d4e-d8b3-49c6-9eee-7417badde15e"},"vehicle_type_id":"4","last_reported":1762798567,"current_range_meters":3200,"station_id":"ce4bgqh2rcd13ifvqc4g","pricing_plan_id":"cebpf4jnsgd1na2vs0mg"},{"bike_id":"d5483b88-b5e5-4aef-b4d7-5a166939b57e","system_id":"levelo_inurba_marseille","lat":43.30374,"lon":5.41878,"is_reserved":false,"is_disabled":false,"rental_uris":{"android":"levelo://app?vid=d5483b88-b5e5-4aef-b4d7-5a166939b57e","ios":"levelo://app?vid=d5483b88-b5e5-4aef-b4d7-5a166939b57e"},"vehicle_type_id":"4","last_reported":1762798567,"current_range_meters":3200,"station_id":"ce4bhop2rcd13ifvqh7g","pricing_plan_id":"cebpf4jnsgd1na2vs0mg"},{"bike_id":"870a9ad1-db35-4ab0-bc9a-84476efc6571","system_id":"levelo_inurba_marseille","lat":43.32807,"lon":5.42649,"is_reserved":false,"is_disabled":false,"rental_uris":{"android":"levelo://app?vid=870a9ad1-db35-4ab0-bc9a-84476efc6571","ios":"levelo://app?vid=870a9ad1-db35-4ab0-bc9a-84476efc6571"},"vehicle_type_id":"4","last_reported":1762798567,"current_range_meters":3200,"station_id":"","pricing_plan_id":"cebpf4jnsgd1na2vs0mg"},{"bike_id":"9327e1c0-efe4-496c-b890-924322fe2973","system_id":"levelo_inurba_marseille","lat":43.31992,"lon":5.38149,"is_reserved":false,"is_disabled":false,"rental_uris":{"android":"levelo://app?vid=9327e1c0-efe4-496c-b890-924322fe2973","ios":"levelo://app?vid=9327e1c0-efe4-496c-b890-924322fe2973"},"vehicle_type_id":"4","last_reported":1762798567,"current_range_meters":3200,"station_id":"ce4bhr12rcd13ifvqhpg","pricing_plan_id":"cebpf4jnsgd1na2vs0mg"},{"bike_id":"af0b3855-89b6-45fe-adc7-0286f11d6af8","system_id":"levelo_inurba_marseille","lat":43.31063,"lon":5.40085,"is_reserved":false,"is_disabled":false,"rental_uris":{"android":"levelo://app?vid=af0b3855-89b6-45fe-adc7-0286f11d6af8","ios":"levelo://app?vid=af0b3855-89b6-45fe-adc7-0286f11d6af8"},"vehicle_type_id":"4","last_reported":1762798567,"current_range_meters":3600,"station_id":"","pricing_plan_id":"cebpf4jnsgd1na2vs0mg"},{"bike_id":"1ba45afb-911f-4938-ac16-d2b286ce140f","system_id":"levelo_inurba_marseille","lat":43.321351,"lon":5.367864,"is_reserved":false,"is_disabled":false,"rental_uris":{"android":"levelo://app?vid=1ba45afb-911f-4938-ac16-d2b286ce140f","ios":"levelo://app?vid=1ba45afb-911f-4938-ac16-d2b286ce140f"},"vehicle_type_id":"4","last_reported":1762798567,"current_range_meters":3600,"station_id":"ce4bhrh2rcd13ifvqhug","pricing_plan_id":"cebpf4jnsgd1na2vs0mg"},{"bike_id":"c1ca7850-56dd-4715-babf-bdc7885ba89d","system_id":"levelo_inurba_marseille","lat":43.29434,"lon":5.39749,"is_reserved":false,"is_disabled":false,"rental_uris":{"android":"levelo://app?vid=c1ca7850-56dd-4715-babf-bdc7885ba89d","ios":"levelo://app?vid=c1ca7850-56dd-4715-babf-bdc7885ba89d"},"vehicle_type_id":"4","last_reported":1762798567,"current_range_meters":3600,"station_id":"ce4bh3h2rcd13ifvqdo0","pricing_plan_id":"cebpf4jnsgd1na2vs0mg"},{"bike_id":"c71eb729-9126-492d-b3e3-9fe953849371","system_id":"levelo_inurba_marseille","lat":43.30933,"lon":5.40137,"is_reserved":false,"is_disabled":false,"rental_uris":{"android":"levelo://app?vid=c71eb729-9126-492d-b3e3-9fe953849371","ios":"levelo://app?vid=c71eb729-9126-492d-b3e3-9fe953849371"},"vehicle_type_id":"4","last_reported":1762798567,"current_range_meters":3600,"station_id":"ce4bgvp2rcd13ifvqct0","pricing_plan_id":"cebpf4jnsgd1na2vs0mg"},{"bike_id":"8040d437-b793-4c7c-83dd-8a60b4a68d3a","system_id":"levelo_inurba_marseille","lat":43.259265,"lon":5.409149,"is_reserved":false,"is_disabled":true,"rental_uris":{"android":"levelo://app?vid=8040d437-b793-4c7c-83dd-8a60b4a68d3a","ios":"levelo://app?vid=8040d437-b793-4c7c-83dd-8a60b4a68d3a"},"vehicle_type_id":"4","last_reported":1762798567,"current_range_meters":3600,"station_id":"ce4bhm92rcd13ifvqglg","pricing_plan_id":"cebpf4jnsgd1na2vs0mg"},{"bike_id":"63faa350-659a-4db9-9d5c-aa6f68b19739","system_id":"levelo_inurba_marseille","lat":43.3117,"lon":5.38715,"is_reserved":false,"is_disabled":false,"rental_uris":{"android":"levelo://app?vid=63faa350-659a-4db9-9d5c-aa6f68b19739","ios":"levelo://app?vid=63faa350-659a-4db9-9d5c-aa6f68b19739"},"vehicle_type_id":"4","last_reported":1762798567,"current_range_meters":3600,"station_id":"ce4bgv12rcd13ifvqcp0","pricing_plan_id":"cebpf4jnsgd1na2vs0mg"},{"bike_id":"9103ac3d-8365-4d17-beba-f3ae7f27bf07","system_id":"levelo_inurba_marseille","lat":43.290455,"lon":5.399621,"is_reserved":false,"is_disabled":false,"rental_uris":{"android":"levelo://app?vid=9103ac3d-8365-4d17-beba-f3ae7f27bf07","ios":"levelo://app?vid=9103ac3d-8365-4d17-beba-f3ae7f27bf07"},"vehicle_type_id":"4","last_reported":1762798567,"current_range_meters":3600,"station_id":"ce4bh392rcd13ifvqdm0","pricing_plan_id":"cebpf4jnsgd1na2vs0mg"},{"bike_id":"05083326-ea4e-46fe-a024-548f716fd6f7","system_id":"levelo_inurba_marseille","lat":43.301489,"lon":5.380943,"is_reserved":false,"is_disabled":false,"rental_uris":{"android":"levelo://app?vid=05083326-ea4e-46fe-a024-548f716fd6f7","ios":"levelo://app?vid=05083326-ea4e-46fe-a024-548f716fd6f7"},"vehicle_type_id":"4","last_reported":1762798567,"current_range_meters":3600,"station_id":"ce4bgjp2rcd13ifvqbh0","pricing_plan_id":"cebpf4jnsgd1na2vs0mg"},{"bike_id":"4faecdab-be85-4565-abfe-448dd71d0f78","system_id":"levelo_inurba_marseille","lat":43.306434,"lon":5.400833,"is_reserved":false,"is_disabled":false,"rental_uris":{"android":"levelo://app?vid=4faecdab-be85-4565-abfe-448dd71d0f78","ios":"levelo://app?vid=4faecdab-be85-4565-abfe-448dd71d0f78"},"vehicle_type_id":"4","last_reported":1762798567,"current_range_meters":3600,"station_id":"ce4bh112rcd13ifvqda0","pricing_plan_id":"cebpf4jnsgd1na2vs0mg"},{"bike_id":"b964240c-cd62-4b85-bf21-e64376ad7be6","system_id":"levelo_inurba_marseille","lat":43.28698,"lon":5.39984,"is_reserved":false,"is_disabled":false,"rental_uris":{"android":"levelo://app?vid=b964240c-cd62-4b85-bf21-e64376ad7be6","ios":"levelo://app?vid=b964240c-cd62-4b85-bf21-e64376ad7be6"},"vehicle_type_id":"4","last_reported":1762798567,"current_range_meters":4000,"station_id":"ce4bho92rcd13ifvqh3g","pricing_plan_id":"cebpf4jnsgd1na2vs0mg"},{"bike_id":"0353d077-6525-4d6b-aa68-5209537f12da","system_id":"levelo_inurba_marseille","lat":43.28938,"lon":5.36634,"is_reserved":false,"is_disabled":false,"rental_uris":{"android":"levelo://app?vid=0353d077-6525-4d6b-aa68-5209537f12da","ios":"levelo://app?vid=0353d077-6525-4d6b-aa68-5209537f12da"},"vehicle_type_id":"4","last_reported":1762798567,"current_range_meters":4000,"station_id":"ce4bhap2rcd13ifvqek0","pricing_plan_id":"cebpf4jnsgd1na2vs0mg"},{"bike_id":"8ecc1b0c-03ed-4a59-9839-c02f7c75d2d9","system_id":"levelo_inurba_marseille","lat":43.31279,"lon":5.40178,"is_reserved":false,"is_disabled":false,"rental_uris":{"android":"levelo://app?vid=8ecc1b0c-03ed-4a59-9839-c02f7c75d2d9","ios":"levelo://app?vid=8ecc1b0c-03ed-4a59-9839-c02f7c75d2d9"},"vehicle_type_id":"4","last_reported":1762798567,"current_range_meters":4000,"station_id":"ce4bh092rcd13ifvqd30","pricing_plan_id":"cebpf4jnsgd1na2vs0mg"},{"bike_id":"18613499-1ebb-4960-bbd6-7293e1e2b6f8","system_id":"levelo_inurba_marseille","lat":43.30437,"lon":5.4127,"is_reserved":false,"is_disabled":false,"rental_uris":{"android":"levelo://app?vid=18613499-1ebb-4960-bbd6-7293e1e2b6f8","ios":"levelo://app?vid=18613499-1ebb-4960-bbd6-7293e1e2b6f8"},"vehicle_type_id":"4","last_reported":1762798567,"current_range_meters":4000,"station_id":"ce4bhop2rcd13ifvqh8g","pricing_plan_id":"cebpf4jnsgd1na2vs0mg"},{"bike_id":"57158537-07ae-4efd-b2b8-b1f167281ae2","system_id":"levelo_inurba_marseille","lat":43.25109,"lon":5.40321,"is_reserved":false,"is_disabled":false,"rental_uris":{"android":"levelo://app?vid=57158537-07ae-4efd-b2b8-b1f167281ae2","ios":"levelo://app?vid=57158537-07ae-4efd-b2b8-b1f167281ae2"},"vehicle_type_id":"4","last_reported":1762798567,"current_range_meters":4000,"station_id":"ce4bhlh2rcd13ifvqgig","pricing_plan_id":"cebpf4jnsgd1na2vs0mg"},{"bike_id":"f8482979-094d-45f5-bb71-2c9d737e33e6","system_id":"levelo_inurba_marseille","lat":43.28402,"lon":5.37513,"is_reserved":false,"is_disabled":false,"rental_uris":{"android":"levelo://app?vid=f8482979-094d-45f5-bb71-2c9d737e33e6","ios":"levelo://app?vid=f8482979-094d-45f5-bb71-2c9d737e33e6"},"vehicle_type_id":"4","last_reported":1762798567,"current_range_meters":4400,"station_id":"ce4bh412rcd13ifvqds0","pricing_plan_id":"cebpf4jnsgd1na2vs0mg"},{"bike_id":"c270c8b0-5b74-4f50-b61d-4738cf0f4d07","system_id":"levelo_inurba_marseille","lat":43.285631,"lon":5.373635,"is_reserved":false,"is_disabled":false,"rental_uris":{"android":"levelo://app?vid=c270c8b0-5b74-4f50-b61d-4738cf0f4d07","ios":"levelo://app?vid=c270c8b0-5b74-4f50-b61d-4738cf0f4d07"},"vehicle_type_id":"4","last_reported":1762798567,"current_range_meters":4400,"station_id":"ce4bhf92rcd13ifvqf50","pricing_plan_id":"cebpf4jnsgd1na2vs0mg"},{"bike_id":"15db09df-59b0-446a-87c5-e354a3319258","system_id":"levelo_inurba_marseille","lat":43.28473,"lon":5.48409,"is_reserved":false,"is_disabled":false,"rental_uris":{"android":"levelo://app?vid=15db09df-59b0-446a-87c5-e354a3319258","ios":"levelo://app?vid=15db09df-59b0-446a-87c5-e354a3319258"},"vehicle_type_id":"4","last_reported":1762798567,"current_range_meters":4800,"station_id":"","pricing_plan_id":"cebpf4jnsgd1na2vs0mg"},{"bike_id":"9778699e-1da9-4882-84e2-119f7996bf65","system_id":"levelo_inurba_marseille","lat":43.27178,"lon":5.40993,"is_reserved":false,"is_disabled":false,"rental_uris":{"android":"levelo://app?vid=9778699e-1da9-4882-84e2-119f7996bf65","ios":"levelo://app?vid=9778699e-1da9-4882-84e2-119f7996bf65"},"vehicle_type_id":"4","last_reported":1762798567,"current_range_meters":4800,"station_id":"ce4bhl12rcd13ifvqgf0","pricing_plan_id":"cebpf4jnsgd1na2vs0mg"},{"bike_id":"64b15c79-abbe-4382-acfc-588400edcfbe","system_id":"levelo_inurba_marseille","lat":43.28464,"lon":5.35881,"is_reserved":false,"is_disabled":false,"rental_uris":{"android":"levelo://app?vid=64b15c79-abbe-4382-acfc-588400edcfbe","ios":"levelo://app?vid=64b15c79-abbe-4382-acfc-588400edcfbe"},"vehicle_type_id":"4","last_reported":1762798567,"current_range_meters":4800,"station_id":"ce4bhah2rcd13ifvqei0","pricing_plan_id":"cebpf4jnsgd1na2vs0mg"},{"bike_id":"64c70714-b290-411c-b721-87c0224d3831","system_id":"levelo_inurba_marseille","lat":43.30265,"lon":5.4008,"is_reserved":false,"is_disabled":false,"rental_uris":{"android":"levelo://app?vid=64c70714-b290-411c-b721-87c0224d3831","ios":"levelo://app?vid=64c70714-b290-411c-b721-87c0224d3831"},"vehicle_type_id":"4","last_reported":1762798567,"current_range_meters":4800,"station_id":"ce4bgvh2rcd13ifvqcs0","pricing_plan_id":"cebpf4jnsgd1na2vs0mg"},{"bike_id":"6f98b7a7-ae98-40be-aded-6fe2b547bfca","system_id":"levelo_inurba_marseille","lat":43.28488,"lon":5.484,"is_reserved":false,"is_disabled":false,"rental_uris":{"android":"levelo://app?vid=6f98b7a7-ae98-40be-aded-6fe2b547bfca","ios":"levelo://app?vid=6f98b7a7-ae98-40be-aded-6fe2b547bfca"},"vehicle_type_id":"4","last_reported":1762798567,"current_range_meters":4800,"station_id":"","pricing_plan_id":"cebpf4jnsgd1na2vs0mg"},{"bike_id":"e3aefee3-a23d-4744-bc82-bd15bffcdaaf","system_id":"levelo_inurba_marseille","lat":43.28695,"lon":5.38657,"is_reserved":false,"is_disabled":false,"rental_uris":{"android":"levelo://app?vid=e3aefee3-a23d-4744-bc82-bd15bffcdaaf","ios":"levelo://app?vid=e3aefee3-a23d-4744-bc82-bd15bffcdaaf"},"vehicle_type_id":"4","last_reported":1762798567,"current_range_meters":4800,"station_id":"ce4bh492rcd13ifvqdug","pricing_plan_id":"cebpf4jnsgd1na2vs0mg"},{"bike_id":"51999094-518c-42ff-9bac-d3371fa6e87d","system_id":"levelo_inurba_marseille","lat":43.29521,"lon":5.39022,"is_reserved":false,"is_disabled":false,"rental_uris":{"android":"levelo://app?vid=51999094-518c-42ff-9bac-d3371fa6e87d","ios":"levelo://app?vid=51999094-518c-42ff-9bac-d3371fa6e87d"},"vehicle_type_id":"4","last_reported":1762798567,"current_range_meters":4800,"station_id":"ce4bh3p2rcd13ifvqdp0","pricing_plan_id":"cebpf4jnsgd1na2vs0mg"},{"bike_id":"db24f382-ffa8-455a-9d5d-484eacf8c21f","system_id":"levelo_inurba_marseille","lat":43.31186,"lon":5.38716,"is_reserved":false,"is_disabled":false,"rental_uris":{"android":"levelo://app?vid=db24f382-ffa8-455a-9d5d-484eacf8c21f","ios":"levelo://app?vid=db24f382-ffa8-455a-9d5d-484eacf8c21f"},"vehicle_type_id":"4","last_reported":1762798567,"current_range_meters":5600,"station_id":"ce4bgv12rcd13ifvqcp0","pricing_plan_id":"cebpf4jnsgd1na2vs0mg"},{"bike_id":"80483741-a37b-486b-8e63-2d3bd52dad31","system_id":"levelo_inurba_marseille","lat":43.27995,"lon":5.40001,"is_reserved":false,"is_disabled":false,"rental_uris":{"android":"levelo://app?vid=80483741-a37b-486b-8e63-2d3bd52dad31","ios":"levelo://app?vid=80483741-a37b-486b-8e63-2d3bd52dad31"},"vehicle_type_id":"4","last_reported":1762798567,"current_range_meters":5600,"station_id":"ce4bho92rcd13ifvqh4g","pricing_plan_id":"cebpf4jnsgd1na2vs0mg"},{"bike_id":"9947bd68-b909-4c80-a276-7434904d6b59","system_id":"levelo_inurba_marseille","lat":43.29303,"lon":5.371635,"is_reserved":false,"is_disabled":false,"rental_uris":{"android":"levelo://app?vid=9947bd68-b909-4c80-a276-7434904d6b59","ios":"levelo://app?vid=9947bd68-b909-4c80-a276-7434904d6b59"},"vehicle_type_id":"4","last_reported":1762798567,"current_range_meters":5600,"station_id":"ce4bgh92rcd13ifvqb40","pricing_plan_id":"cebpf4jnsgd1na2vs0mg"},{"bike_id":"c1a8951c-0b8b-4e04-9556-ddc347871e56","system_id":"levelo_inurba_marseille","lat":43.33577,"lon":5.35397,"is_reserved":false,"is_disabled":false,"rental_uris":{"android":"levelo://app?vid=c1a8951c-0b8b-4e04-9556-ddc347871e56","ios":"levelo://app?vid=c1a8951c-0b8b-4e04-9556-ddc347871e56"},"vehicle_type_id":"4","last_reported":1762798567,"current_range_meters":5600,"station_id":"","pricing_plan_id":"cebpf4jnsgd1na2vs0mg"},{"bike_id":"e5a6ee23-96d7-4a34-bef8-7fff36ea7ee2","system_id":"levelo_inurba_marseille","lat":43.25579,"lon":5.38227,"is_reserved":false,"is_disabled":false,"rental_uris":{"android":"levelo://app?vid=e5a6ee23-96d7-4a34-bef8-7fff36ea7ee2","ios":"levelo://app?vid=e5a6ee23-96d7-4a34-bef8-7fff36ea7ee2"},"vehicle_type_id":"4","last_reported":1762798567,"current_range_meters":5600,"station_id":"ce4bhih2rcd13ifvqfs0","pricing_plan_id":"cebpf4jnsgd1na2vs0mg"},{"bike_id":"07c05da8-5c54-4dca-bed7-12d5727e534c","system_id":"levelo_inurba_marseille","lat":43.26495,"lon":5.39544,"is_reserved":false,"is_disabled":false,"rental_uris":{"android":"levelo://app?vid=07c05da8-5c54-4dca-bed7-12d5727e534c","ios":"levelo://app?vid=07c05da8-5c54-4dca-bed7-12d5727e534c"},"vehicle_type_id":"4","last_reported":1762798567,"current_range_meters":5600,"station_id":"ce4bhi12rcd13ifvqfq0","pricing_plan_id":"cebpf4jnsgd1na2vs0mg"},{"bike_id":"cff0aacf-3b4b-496b-8451-c9d07835adad","system_id":"levelo_inurba_marseille","lat":43.31507,"lon":5.37375,"is_reserved":false,"is_disabled":false,"rental_uris":{"android":"levelo://app?vid=cff0aacf-3b4b-496b-8451-c9d07835adad","ios":"levelo://app?vid=cff0aacf-3b4b-496b-8451-c9d07835adad"},"vehicle_type_id":"4","last_reported":1762798567,"current_range_meters":5600,"station_id":"ce4bgt12rcd13ifvqcd0","pricing_plan_id":"cebpf4jnsgd1na2vs0mg"},{"bike_id":"0e7246af-a7f2-4a19-bec6-1f67cd3f5a5b","system_id":"levelo_inurba_marseille","lat":43.295698,"lon":5.399757,"is_reserved":false,"is_disabled":false,"rental_uris":{"android":"levelo://app?vid=0e7246af-a7f2-4a19-bec6-1f67cd3f5a5b","ios":"levelo://app?vid=0e7246af-a7f2-4a19-bec6-1f67cd3f5a5b"},"vehicle_type_id":"4","last_reported":1762798567,"current_range_meters":6000,"station_id":"ce4bh312rcd13ifvqdj0","pricing_plan_id":"cebpf4jnsgd1na2vs0mg"},{"bike_id":"37046d5c-5e99-459d-805d-dfaf6fcb80d0","system_id":"levelo_inurba_marseille","lat":43.31335,"lon":5.39701,"is_reserved":false,"is_disabled":false,"rental_uris":{"android":"levelo://app?vid=37046d5c-5e99-459d-805d-dfaf6fcb80d0","ios":"levelo://app?vid=37046d5c-5e99-459d-805d-dfaf6fcb80d0"},"vehicle_type_id":"4","last_reported":1762798567,"current_range_meters":6000,"station_id":"ce4bgvp2rcd13ifvqcu0","pricing_plan_id":"cebpf4jnsgd1na2vs0mg"},{"bike_id":"3625dcbd-f0bf-41c8-b28f-d623dd5082db","system_id":"levelo_inurba_marseille","lat":43.24951,"lon":5.40487,"is_reserved":false,"is_disabled":false,"rental_uris":{"android":"levelo://app?vid=3625dcbd-f0bf-41c8-b28f-d623dd5082db","ios":"levelo://app?vid=3625dcbd-f0bf-41c8-b28f-d623dd5082db"},"vehicle_type_id":"4","last_reported":1762798567,"current_range_meters":6000,"station_id":"st_d2ngiaodas8pm72gd1h0","pricing_plan_id":"cebpf4jnsgd1na2vs0mg"},{"bike_id":"ddcf9387-a125-4357-9dca-0eacbbb704ff","system_id":"levelo_inurba_marseille","lat":43.272618,"lon":5.390679,"is_reserved":false,"is_disabled":false,"rental_uris":{"android":"levelo://app?vid=ddcf9387-a125-4357-9dca-0eacbbb704ff","ios":"levelo://app?vid=ddcf9387-a125-4357-9dca-0eacbbb704ff"},"vehicle_type_id":"4","last_reported":1762798567,"current_range_meters":6000,"station_id":"ce4bhe12rcd13ifvqf30","pricing_plan_id":"cebpf4jnsgd1na2vs0mg"},{"bike_id":"fc0890bb-2887-4387-9102-d8e56ea3bcd3","system_id":"levelo_inurba_marseille","lat":43.27909,"lon":5.38005,"is_reserved":false,"is_disabled":false,"rental_uris":{"android":"levelo://app?vid=fc0890bb-2887-4387-9102-d8e56ea3bcd3","ios":"levelo://app?vid=fc0890bb-2887-4387-9102-d8e56ea3bcd3"},"vehicle_type_id":"4","last_reported":1762798567,"current_range_meters":6000,"station_id":"ce4bhf92rcd13ifvqf50","pricing_plan_id":"cebpf4jnsgd1na2vs0mg"},{"bike_id":"9cc28d51-7cdc-4b02-94e3-1b614b8dc8a2","system_id":"levelo_inurba_marseille","lat":43.29291,"lon":5.37455,"is_reserved":false,"is_disabled":false,"rental_uris":{"android":"levelo://app?vid=9cc28d51-7cdc-4b02-94e3-1b614b8dc8a2","ios":"levelo://app?vid=9cc28d51-7cdc-4b02-94e3-1b614b8dc8a2"},"vehicle_type_id":"4","last_reported":1762798567,"current_range_meters":6000,"station_id":"ce4bgi12rcd13ifvqb70","pricing_plan_id":"cebpf4jnsgd1na2vs0mg"},{"bike_id":"1f99139a-f9c5-4cb8-90b6-27aa97284f35","system_id":"levelo_inurba_marseille","lat":43.29779,"lon":5.3934,"is_reserved":false,"is_disabled":false,"rental_uris":{"android":"levelo://app?vid=1f99139a-f9c5-4cb8-90b6-27aa97284f35","ios":"levelo://app?vid=1f99139a-f9c5-4cb8-90b6-27aa97284f35"},"vehicle_type_id":"4","last_reported":1762798567,"current_range_meters":6000,"station_id":"chh1huq6cuj3fo74tm60","pricing_plan_id":"cebpf4jnsgd1na2vs0mg"},{"bike_id":"60597a03-074a-484d-929f-5ab6e81f66f9","system_id":"levelo_inurba_marseille","lat":43.30427,"lon":5.38875,"is_reserved":false,"is_disabled":false,"rental_uris":{"android":"levelo://app?vid=60597a03-074a-484d-929f-5ab6e81f66f9","ios":"levelo://app?vid=60597a03-074a-484d-929f-5ab6e81f66f9"},"vehicle_type_id":"4","last_reported":1762798567,"current_range_meters":6000,"station_id":"ce4bgk12rcd13ifvqbi0","pricing_plan_id":"cebpf4jnsgd1na2vs0mg"},{"bike_id":"d2d874c6-31b2-4c56-8564-c4d3b126b44b","system_id":"levelo_inurba_marseille","lat":43.31331,"lon":5.39689,"is_reserved":false,"is_disabled":false,"rental_uris":{"android":"levelo://app?vid=d2d874c6-31b2-4c56-8564-c4d3b126b44b","ios":"levelo://app?vid=d2d874c6-31b2-4c56-8564-c4d3b126b44b"},"vehicle_type_id":"4","last_reported":1762798567,"current_range_meters":6000,"station_id":"ce4bgvp2rcd13ifvqcu0","pricing_plan_id":"cebpf4jnsgd1na2vs0mg"},{"bike_id":"374129d5-fdff-4665-b781-d723a63a5982","system_id":"levelo_inurba_marseille","lat":43.303223,"lon":5.404333,"is_reserved":false,"is_disabled":false,"rental_uris":{"android":"levelo://app?vid=374129d5-fdff-4665-b781-d723a63a5982","ios":"levelo://app?vid=374129d5-fdff-4665-b781-d723a63a5982"},"vehicle_type_id":"4","last_reported":1762798567,"current_range_meters":6400,"station_id":"ce4bh012rcd13ifvqd10","pricing_plan_id":"cebpf4jnsgd1na2vs0mg"},{"bike_id":"ce64c67d-5e37-41ae-989e-80e836b114df","system_id":"levelo_inurba_marseille","lat":43.22937,"lon":5.35405,"is_reserved":false,"is_disabled":false,"rental_uris":{"android":"levelo://app?vid=ce64c67d-5e37-41ae-989e-80e836b114df","ios":"levelo://app?vid=ce64c67d-5e37-41ae-989e-80e836b114df"},"vehicle_type_id":"4","last_reported":1762798567,"current_range_meters":6400,"station_id":"cpo3532slgdg3j2ikp40","pricing_plan_id":"cebpf4jnsgd1na2vs0mg"},{"bike_id":"eb294821-050a-486b-bcd0-0660149e308e","system_id":"levelo_inurba_marseille","lat":43.24079,"lon":5.37714,"is_reserved":false,"is_disabled":false,"rental_uris":{"android":"levelo://app?vid=eb294821-050a-486b-bcd0-0660149e308e","ios":"levelo://app?vid=eb294821-050a-486b-bcd0-0660149e308e"},"vehicle_type_id":"4","last_reported":1762798567,"current_range_meters":6400,"station_id":"ce4bhnp2rcd13ifvqgvg","pricing_plan_id":"cebpf4jnsgd1na2vs0mg"},{"bike_id":"10548c02-ce3f-40c2-8294-7d37c4438c85","system_id":"levelo_inurba_marseille","lat":43.262089,"lon":5.374411,"is_reserved":false,"is_disabled":false,"rental_uris":{"android":"levelo://app?vid=10548c02-ce3f-40c2-8294-7d37c4438c85","ios":"levelo://app?vid=10548c02-ce3f-40c2-8294-7d37c4438c85"},"vehicle_type_id":"4","last_reported":1762798567,"current_range_meters":6400,"station_id":"ce4bhgp2rcd13ifvqfc0","pricing_plan_id":"cebpf4jnsgd1na2vs0mg"},{"bike_id":"5d665087-9549-4a03-a942-8572f71491bf","system_id":"levelo_inurba_marseille","lat":43.279382,"lon":5.411573,"is_reserved":false,"is_disabled":false,"rental_uris":{"android":"levelo://app?vid=5d665087-9549-4a03-a942-8572f71491bf","ios":"levelo://app?vid=5d665087-9549-4a03-a942-8572f71491bf"},"vehicle_type_id":"4","last_reported":1762798567,"current_range_meters":6400,"station_id":"","pricing_plan_id":"cebpf4jnsgd1na2vs0mg"},{"bike_id":"f1e88a1e-70aa-4bf1-b7e5-5f2322031217","system_id":"levelo_inurba_marseille","lat":43.28077,"lon":5.39657,"is_reserved":false,"is_disabled":false,"rental_uris":{"android":"levelo://app?vid=f1e88a1e-70aa-4bf1-b7e5-5f2322031217","ios":"levelo://app?vid=f1e88a1e-70aa-4bf1-b7e5-5f2322031217"},"vehicle_type_id":"4","last_reported":1762798567,"current_range_meters":6400,"station_id":"ce4bho12rcd13ifvqh2g","pricing_plan_id":"cebpf4jnsgd1na2vs0mg"},{"bike_id":"e4e7a07a-b09e-4eea-b69e-dabeee120473","system_id":"levelo_inurba_marseille","lat":43.25092,"lon":5.39489,"is_reserved":false,"is_disabled":false,"rental_uris":{"android":"levelo://app?vid=e4e7a07a-b09e-4eea-b69e-dabeee120473","ios":"levelo://app?vid=e4e7a07a-b09e-4eea-b69e-dabeee120473"},"vehicle_type_id":"4","last_reported":1762798567,"current_range_meters":6400,"station_id":"ce4bhm12rcd13ifvqgkg","pricing_plan_id":"cebpf4jnsgd1na2vs0mg"},{"bike_id":"3db743f1-8b36-4a73-8c2d-9da5bb40b4d2","system_id":"levelo_inurba_marseille","lat":43.262117,"lon":5.374389,"is_reserved":false,"is_disabled":false,"rental_uris":{"android":"levelo://app?vid=3db743f1-8b36-4a73-8c2d-9da5bb40b4d2","ios":"levelo://app?vid=3db743f1-8b36-4a73-8c2d-9da5bb40b4d2"},"vehicle_type_id":"4","last_reported":1762798567,"current_range_meters":6400,"station_id":"ce4bhgp2rcd13ifvqfc0","pricing_plan_id":"cebpf4jnsgd1na2vs0mg"},{"bike_id":"31e8b703-4e71-4389-a349-93bdd1f5af2a","system_id":"levelo_inurba_marseille","lat":43.32483,"lon":5.36567,"is_reserved":false,"is_disabled":false,"rental_uris":{"android":"levelo://app?vid=31e8b703-4e71-4389-a349-93bdd1f5af2a","ios":"levelo://app?vid=31e8b703-4e71-4389-a349-93bdd1f5af2a"},"vehicle_type_id":"4","last_reported":1762798567,"current_range_meters":6400,"station_id":"ce4bhs12rcd13ifvqhvg","pricing_plan_id":"cebpf4jnsgd1na2vs0mg"},{"bike_id":"18e985ad-a5fa-42c5-b154-f8875761bb59","system_id":"levelo_inurba_marseille","lat":43.32347,"lon":5.36732,"is_reserved":false,"is_disabled":false,"rental_uris":{"android":"levelo://app?vid=18e985ad-a5fa-42c5-b154-f8875761bb59","ios":"levelo://app?vid=18e985ad-a5fa-42c5-b154-f8875761bb59"},"vehicle_type_id":"4","last_reported":1762798567,"current_range_meters":6400,"station_id":"ce4bhsh2rcd13ifvqi2g","pricing_plan_id":"cebpf4jnsgd1na2vs0mg"},{"bike_id":"82b392ae-5723-4b5a-b7e8-8dc85d0269cb","system_id":"levelo_inurba_marseille","lat":43.23972,"lon":5.36615,"is_reserved":false,"is_disabled":false,"rental_uris":{"android":"levelo://app?vid=82b392ae-5723-4b5a-b7e8-8dc85d0269cb","ios":"levelo://app?vid=82b392ae-5723-4b5a-b7e8-8dc85d0269cb"},"vehicle_type_id":"4","last_reported":1762798567,"current_range_meters":6400,"station_id":"ce4bhi12rcd13ifvqfp0","pricing_plan_id":"cebpf4jnsgd1na2vs0mg"},{"bike_id":"690d1ddd-9c17-4548-ac02-188ffc98e34c","system_id":"levelo_inurba_marseille","lat":43.29554,"lon":5.42275,"is_reserved":false,"is_disabled":false,"rental_uris":{"android":"levelo://app?vid=690d1ddd-9c17-4548-ac02-188ffc98e34c","ios":"levelo://app?vid=690d1ddd-9c17-4548-ac02-188ffc98e34c"},"vehicle_type_id":"4","last_reported":1762798567,"current_range_meters":6800,"station_id":"ce4bhph2rcd13ifvqhdg","pricing_plan_id":"cebpf4jnsgd1na2vs0mg"},{"bike_id":"d76e9650-8982-4e39-b06f-5160037fd132","system_id":"levelo_inurba_marseille","lat":43.295682,"lon":5.399698,"is_reserved":false,"is_disabled":false,"rental_uris":{"android":"levelo://app?vid=d76e9650-8982-4e39-b06f-5160037fd132","ios":"levelo://app?vid=d76e9650-8982-4e39-b06f-5160037fd132"},"vehicle_type_id":"4","last_reported":1762798567,"current_range_meters":6800,"station_id":"ce4bh312rcd13ifvqdj0","pricing_plan_id":"cebpf4jnsgd1na2vs0mg"},{"bike_id":"e75eceff-5bc2-4bdd-8374-dca56cde4567","system_id":"levelo_inurba_marseille","lat":43.26779,"lon":5.39411,"is_reserved":false,"is_disabled":false,"rental_uris":{"android":"levelo://app?vid=e75eceff-5bc2-4bdd-8374-dca56cde4567","ios":"levelo://app?vid=e75eceff-5bc2-4bdd-8374-dca56cde4567"},"vehicle_type_id":"4","last_reported":1762798567,"current_range_meters":6800,"station_id":"ce4bhh12rcd13ifvqfg0","pricing_plan_id":"cebpf4jnsgd1na2vs0mg"},{"bike_id":"0b55f0b9-3371-4ac7-b85e-ab95a2adbdc5","system_id":"levelo_inurba_marseille","lat":43.23183,"lon":5.39988,"is_reserved":false,"is_disabled":false,"rental_uris":{"android":"levelo://app?vid=0b55f0b9-3371-4ac7-b85e-ab95a2adbdc5","ios":"levelo://app?vid=0b55f0b9-3371-4ac7-b85e-ab95a2adbdc5"},"vehicle_type_id":"4","last_reported":1762798567,"current_range_meters":6800,"station_id":"ce4bhn12rcd13ifvqgqg","pricing_plan_id":"cebpf4jnsgd1na2vs0mg"},{"bike_id":"63a4b90c-1b57-4c36-a1a4-e59f52ede3b9","system_id":"levelo_inurba_marseille","lat":43.30106,"lon":5.39085,"is_reserved":false,"is_disabled":true,"rental_uris":{"android":"levelo://app?vid=63a4b90c-1b57-4c36-a1a4-e59f52ede3b9","ios":"levelo://app?vid=63a4b90c-1b57-4c36-a1a4-e59f52ede3b9"},"vehicle_type_id":"4","last_reported":1762798567,"current_range_meters":6800,"station_id":"ce4bh192rcd13ifvqdb0","pricing_plan_id":"cebpf4jnsgd1na2vs0mg"},{"bike_id":"a21c84e6-23e7-41f1-b922-6a19f70224a4","system_id":"levelo_inurba_marseille","lat":43.24175,"lon":5.39729,"is_reserved":false,"is_disabled":false,"rental_uris":{"android":"levelo://app?vid=a21c84e6-23e7-41f1-b922-6a19f70224a4","ios":"levelo://app?vid=a21c84e6-23e7-41f1-b922-6a19f70224a4"},"vehicle_type_id":"4","last_reported":1762798567,"current_range_meters":6800,"station_id":"ce4bhn12rcd13ifvqgpg","pricing_plan_id":"cebpf4jnsgd1na2vs0mg"},{"bike_id":"b32f3007-e74a-44fe-8b1f-779fea4e497e","system_id":"levelo_inurba_marseille","lat":43.2846,"lon":5.35883,"is_reserved":false,"is_disabled":false,"rental_uris":{"android":"levelo://app?vid=b32f3007-e74a-44fe-8b1f-779fea4e497e","ios":"levelo://app?vid=b32f3007-e74a-44fe-8b1f-779fea4e497e"},"vehicle_type_id":"4","last_reported":1762798567,"current_range_meters":6800,"station_id":"ce4bhah2rcd13ifvqei0","pricing_plan_id":"cebpf4jnsgd1na2vs0mg"},{"bike_id":"35712c7b-9b5a-4b38-9f27-d0f612918c3a","system_id":"levelo_inurba_marseille","lat":43.32293,"lon":5.38272,"is_reserved":false,"is_disabled":false,"rental_uris":{"android":"levelo://app?vid=35712c7b-9b5a-4b38-9f27-d0f612918c3a","ios":"levelo://app?vid=35712c7b-9b5a-4b38-9f27-d0f612918c3a"},"vehicle_type_id":"4","last_reported":1762798567,"current_range_meters":6800,"station_id":"ce4bhr12rcd13ifvqhqg","pricing_plan_id":"cebpf4jnsgd1na2vs0mg"},{"bike_id":"dc81f1b1-7c62-45ee-a7df-39e833017c7d","system_id":"levelo_inurba_marseille","lat":43.28466,"lon":5.35881,"is_reserved":false,"is_disabled":false,"rental_uris":{"android":"levelo://app?vid=dc81f1b1-7c62-45ee-a7df-39e833017c7d","ios":"levelo://app?vid=dc81f1b1-7c62-45ee-a7df-39e833017c7d"},"vehicle_type_id":"4","last_reported":1762798567,"current_range_meters":6800,"station_id":"ce4bhah2rcd13ifvqei0","pricing_plan_id":"cebpf4jnsgd1na2vs0mg"},{"bike_id":"0fbbc409-a1b2-4d9b-ad92-44c837d90f98","system_id":"levelo_inurba_marseille","lat":43.24657,"lon":5.38154,"is_reserved":false,"is_disabled":false,"rental_uris":{"android":"levelo://app?vid=0fbbc409-a1b2-4d9b-ad92-44c837d90f98","ios":"levelo://app?vid=0fbbc409-a1b2-4d9b-ad92-44c837d90f98"},"vehicle_type_id":"4","last_reported":1762798567,"current_range_meters":7200,"station_id":"ce4bhih2rcd13ifvqfr0","pricing_plan_id":"cebpf4jnsgd1na2vs0mg"},{"bike_id":"cc64b289-643a-42f8-b480-750d1907471c","system_id":"levelo_inurba_marseille","lat":43.297068,"lon":5.366109,"is_reserved":false,"is_disabled":false,"rental_uris":{"android":"levelo://app?vid=cc64b289-643a-42f8-b480-750d1907471c","ios":"levelo://app?vid=cc64b289-643a-42f8-b480-750d1907471c"},"vehicle_type_id":"4","last_reported":1762798567,"current_range_meters":7200,"station_id":"ce4bgn12rcd13ifvqbt0","pricing_plan_id":"cebpf4jnsgd1na2vs0mg"},{"bike_id":"283466fc-fe50-46b5-9e95-954d2c2110b1","system_id":"levelo_inurba_marseille","lat":43.29504,"lon":5.3939,"is_reserved":false,"is_disabled":false,"rental_uris":{"android":"levelo://app?vid=283466fc-fe50-46b5-9e95-954d2c2110b1","ios":"levelo://app?vid=283466fc-fe50-46b5-9e95-954d2c2110b1"},"vehicle_type_id":"4","last_reported":1762798567,"current_range_meters":7200,"station_id":"ce4bh292rcd13ifvqdf0","pricing_plan_id":"cebpf4jnsgd1na2vs0mg"},{"bike_id":"f7df5474-d40f-441e-85d7-dd879c917f6b","system_id":"levelo_inurba_marseille","lat":43.25085,"lon":5.39495,"is_reserved":false,"is_disabled":false,"rental_uris":{"android":"levelo://app?vid=f7df5474-d40f-441e-85d7-dd879c917f6b","ios":"levelo://app?vid=f7df5474-d40f-441e-85d7-dd879c917f6b"},"vehicle_type_id":"4","last_reported":1762798567,"current_range_meters":7200,"station_id":"ce4bhm12rcd13ifvqgkg","pricing_plan_id":"cebpf4jnsgd1na2vs0mg"},{"bike_id":"962d8550-e2f8-42e8-ae33-0024bcdfbd93","system_id":"levelo_inurba_marseille","lat":43.28458,"lon":5.35886,"is_reserved":false,"is_disabled":false,"rental_uris":{"android":"levelo://app?vid=962d8550-e2f8-42e8-ae33-0024bcdfbd93","ios":"levelo://app?vid=962d8550-e2f8-42e8-ae33-0024bcdfbd93"},"vehicle_type_id":"4","last_reported":1762798567,"current_range_meters":7200,"station_id":"ce4bhah2rcd13ifvqei0","pricing_plan_id":"cebpf4jnsgd1na2vs0mg"},{"bike_id":"bcb7664a-39c2-46f8-930f-41cebd3d0b86","system_id":"levelo_inurba_marseille","lat":43.21187,"lon":5.35008,"is_reserved":false,"is_disabled":true,"rental_uris":{"android":"levelo://app?vid=bcb7664a-39c2-46f8-930f-41cebd3d0b86","ios":"levelo://app?vid=bcb7664a-39c2-46f8-930f-41cebd3d0b86"},"vehicle_type_id":"4","last_reported":1762798567,"current_range_meters":7200,"station_id":"","pricing_plan_id":"cebpf4jnsgd1na2vs0mg"},{"bike_id":"2625c24a-13a2-45e2-a6ed-f70791c14b04","system_id":"levelo_inurba_marseille","lat":43.30952,"lon":5.39032,"is_reserved":false,"is_disabled":false,"rental_uris":{"android":"levelo://app?vid=2625c24a-13a2-45e2-a6ed-f70791c14b04","ios":"levelo://app?vid=2625c24a-13a2-45e2-a6ed-f70791c14b04"},"vehicle_type_id":"4","last_reported":1762798567,"current_range_meters":7200,"station_id":"ce4bgup2rcd13ifvqco0","pricing_plan_id":"cebpf4jnsgd1na2vs0mg"},{"bike_id":"18dfebd6-153d-45be-97ca-c05695bbd033","system_id":"levelo_inurba_marseille","lat":43.341161,"lon":5.410057,"is_reserved":false,"is_disabled":false,"rental_uris":{"android":"levelo://app?vid=18dfebd6-153d-45be-97ca-c05695bbd033","ios":"levelo://app?vid=18dfebd6-153d-45be-97ca-c05695bbd033"},"vehicle_type_id":"4","last_reported":1762798567,"current_range_meters":7200,"station_id":"ce4bhqh2rcd13ifvqhlg","pricing_plan_id":"cebpf4jnsgd1na2vs0mg"},{"bike_id":"f27a68d6-005d-4aa6-8a3c-9d14f9ab6bdb","system_id":"levelo_inurba_marseille","lat":43.297688,"lon":5.393379,"is_reserved":false,"is_disabled":false,"rental_uris":{"android":"levelo://app?vid=f27a68d6-005d-4aa6-8a3c-9d14f9ab6bdb","ios":"levelo://app?vid=f27a68d6-005d-4aa6-8a3c-9d14f9ab6bdb"},"vehicle_type_id":"4","last_reported":1762798567,"current_range_meters":7200,"station_id":"chh1huq6cuj3fo74tm60","pricing_plan_id":"cebpf4jnsgd1na2vs0mg"},{"bike_id":"78ffa5b0-a10f-4177-afd5-37cf18f09af3","system_id":"levelo_inurba_marseille","lat":43.3149,"lon":5.37307,"is_reserved":false,"is_disabled":false,"rental_uris":{"android":"levelo://app?vid=78ffa5b0-a10f-4177-afd5-37cf18f09af3","ios":"levelo://app?vid=78ffa5b0-a10f-4177-afd5-37cf18f09af3"},"vehicle_type_id":"4","last_reported":1762798567,"current_range_meters":7200,"station_id":"ce4bgt12rcd13ifvqcd0","pricing_plan_id":"cebpf4jnsgd1na2vs0mg"},{"bike_id":"9b75b17e-5f26-49eb-9c05-4d0d05060012","system_id":"levelo_inurba_marseille","lat":43.292296,"lon":5.360625,"is_reserved":false,"is_disabled":false,"rental_uris":{"android":"levelo://app?vid=9b75b17e-5f26-49eb-9c05-4d0d05060012","ios":"levelo://app?vid=9b75b17e-5f26-49eb-9c05-4d0d05060012"},"vehicle_type_id":"4","last_reported":1762798567,"current_range_meters":8000,"station_id":"ce4bhbh2rcd13ifvqeqg","pricing_plan_id":"cebpf4jnsgd1na2vs0mg"},{"bike_id":"83eae7b1-0d98-489d-8be0-7634f010c537","system_id":"levelo_inurba_marseille","lat":43.28382,"lon":5.3863,"is_reserved":false,"is_disabled":false,"rental_uris":{"android":"levelo://app?vid=83eae7b1-0d98-489d-8be0-7634f010c537","ios":"levelo://app?vid=83eae7b1-0d98-489d-8be0-7634f010c537"},"vehicle_type_id":"4","last_reported":1762798567,"current_range_meters":8000,"station_id":"ce4bh492rcd13ifvqdvg","pricing_plan_id":"cebpf4jnsgd1na2vs0mg"},{"bike_id":"dc8bffe1-6bcd-49e0-bb95-f5d4aa259a9c","system_id":"levelo_inurba_marseille","lat":43.29602,"lon":5.38107,"is_reserved":false,"is_disabled":false,"rental_uris":{"android":"levelo://app?vid=dc8bffe1-6bcd-49e0-bb95-f5d4aa259a9c","ios":"levelo://app?vid=dc8bffe1-6bcd-49e0-bb95-f5d4aa259a9c"},"vehicle_type_id":"4","last_reported":1762798567,"current_range_meters":8000,"station_id":"ce4bgl12rcd13ifvqbo0","pricing_plan_id":"cebpf4jnsgd1na2vs0mg"},{"bike_id":"5997c6b0-b0f4-4848-a8f1-63ca201df211","system_id":"levelo_inurba_marseille","lat":43.33939,"lon":5.41505,"is_reserved":false,"is_disabled":false,"rental_uris":{"android":"levelo://app?vid=5997c6b0-b0f4-4848-a8f1-63ca201df211","ios":"levelo://app?vid=5997c6b0-b0f4-4848-a8f1-63ca201df211"},"vehicle_type_id":"4","last_reported":1762798567,"current_range_meters":8000,"station_id":"","pricing_plan_id":"cebpf4jnsgd1na2vs0mg"},{"bike_id":"e50cb02c-a252-41ce-96d6-60c2fe3b1a83","system_id":"levelo_inurba_marseille","lat":43.24392,"lon":5.37073,"is_reserved":false,"is_disabled":false,"rental_uris":{"android":"levelo://app?vid=e50cb02c-a252-41ce-96d6-60c2fe3b1a83","ios":"levelo://app?vid=e50cb02c-a252-41ce-96d6-60c2fe3b1a83"},"vehicle_type_id":"4","last_reported":1762798567,"current_range_meters":8400,"station_id":"ce4bhhh2rcd13ifvqfk0","pricing_plan_id":"cebpf4jnsgd1na2vs0mg"},{"bike_id":"e792e45d-851d-4109-9188-719af2703e23","system_id":"levelo_inurba_marseille","lat":43.292405,"lon":5.383772,"is_reserved":false,"is_disabled":false,"rental_uris":{"android":"levelo://app?vid=e792e45d-851d-4109-9188-719af2703e23","ios":"levelo://app?vid=e792e45d-851d-4109-9188-719af2703e23"},"vehicle_type_id":"4","last_reported":1762798567,"current_range_meters":8400,"station_id":"ce4bh692rcd13ifvqea0","pricing_plan_id":"cebpf4jnsgd1na2vs0mg"},{"bike_id":"fb2cc01f-b0e8-4241-94be-bc8190b14a50","system_id":"levelo_inurba_marseille","lat":43.30959,"lon":5.3904,"is_reserved":false,"is_disabled":false,"rental_uris":{"android":"levelo://app?vid=fb2cc01f-b0e8-4241-94be-bc8190b14a50","ios":"levelo://app?vid=fb2cc01f-b0e8-4241-94be-bc8190b14a50"},"vehicle_type_id":"4","last_reported":1762798567,"current_range_meters":8400,"station_id":"ce4bgup2rcd13ifvqco0","pricing_plan_id":"cebpf4jnsgd1na2vs0mg"},{"bike_id":"fff8e2b7-a6a6-450f-b0bb-9db54e5f98cf","system_id":"levelo_inurba_marseille","lat":43.25089,"lon":5.39514,"is_reserved":false,"is_disabled":false,"rental_uris":{"android":"levelo://app?vid=fff8e2b7-a6a6-450f-b0bb-9db54e5f98cf","ios":"levelo://app?vid=fff8e2b7-a6a6-450f-b0bb-9db54e5f98cf"},"vehicle_type_id":"4","last_reported":1762798567,"current_range_meters":8400,"station_id":"ce4bhm12rcd13ifvqgkg","pricing_plan_id":"cebpf4jnsgd1na2vs0mg"},{"bike_id":"b5929c1e-a0e8-41e9-97ca-c862b54ce5b6","system_id":"levelo_inurba_marseille","lat":43.31301,"lon":5.40175,"is_reserved":false,"is_disabled":false,"rental_uris":{"android":"levelo://app?vid=b5929c1e-a0e8-41e9-97ca-c862b54ce5b6","ios":"levelo://app?vid=b5929c1e-a0e8-41e9-97ca-c862b54ce5b6"},"vehicle_type_id":"4","last_reported":1762798567,"current_range_meters":8400,"station_id":"ce4bh092rcd13ifvqd30","pricing_plan_id":"cebpf4jnsgd1na2vs0mg"},{"bike_id":"b6dd58eb-8a92-4e7f-b1f1-7572cb3e8b04","system_id":"levelo_inurba_marseille","lat":43.295222,"lon":5.394006,"is_reserved":false,"is_disabled":false,"rental_uris":{"android":"levelo://app?vid=b6dd58eb-8a92-4e7f-b1f1-7572cb3e8b04","ios":"levelo://app?vid=b6dd58eb-8a92-4e7f-b1f1-7572cb3e8b04"},"vehicle_type_id":"4","last_reported":1762798567,"current_range_meters":8400,"station_id":"ce4bh292rcd13ifvqdf0","pricing_plan_id":"cebpf4jnsgd1na2vs0mg"},{"bike_id":"7a52f72d-4552-467d-b1c7-c78be99919bd","system_id":"levelo_inurba_marseille","lat":43.2293,"lon":5.35378,"is_reserved":false,"is_disabled":false,"rental_uris":{"android":"levelo://app?vid=7a52f72d-4552-467d-b1c7-c78be99919bd","ios":"levelo://app?vid=7a52f72d-4552-467d-b1c7-c78be99919bd"},"vehicle_type_id":"4","last_reported":1762798567,"current_range_meters":8400,"station_id":"cpo3532slgdg3j2ikp40","pricing_plan_id":"cebpf4jnsgd1na2vs0mg"},{"bike_id":"f4bc1d7f-757b-42f5-aa58-f310968238a8","system_id":"levelo_inurba_marseille","lat":43.27947,"lon":5.41048,"is_reserved":false,"is_disabled":false,"rental_uris":{"android":"levelo://app?vid=f4bc1d7f-757b-42f5-aa58-f310968238a8","ios":"levelo://app?vid=f4bc1d7f-757b-42f5-aa58-f310968238a8"},"vehicle_type_id":"4","last_reported":1762798567,"current_range_meters":8400,"station_id":"ce4bhnp2rcd13ifvqh0g","pricing_plan_id":"cebpf4jnsgd1na2vs0mg"},{"bike_id":"e7565c54-988f-4d07-be47-1cfe4a7564aa","system_id":"levelo_inurba_marseille","lat":43.27196,"lon":5.40977,"is_reserved":false,"is_disabled":false,"rental_uris":{"android":"levelo://app?vid=e7565c54-988f-4d07-be47-1cfe4a7564aa","ios":"levelo://app?vid=e7565c54-988f-4d07-be47-1cfe4a7564aa"},"vehicle_type_id":"4","last_reported":1762798567,"current_range_meters":8400,"station_id":"ce4bhl12rcd13ifvqgf0","pricing_plan_id":"cebpf4jnsgd1na2vs0mg"},{"bike_id":"42e4db04-6e77-4dff-a713-86dc998229ef","system_id":"levelo_inurba_marseille","lat":43.28461,"lon":5.35886,"is_reserved":false,"is_disabled":false,"rental_uris":{"android":"levelo://app?vid=42e4db04-6e77-4dff-a713-86dc998229ef","ios":"levelo://app?vid=42e4db04-6e77-4dff-a713-86dc998229ef"},"vehicle_type_id":"4","last_reported":1762798567,"current_range_meters":8400,"station_id":"ce4bhah2rcd13ifvqei0","pricing_plan_id":"cebpf4jnsgd1na2vs0mg"},{"bike_id":"809b90b6-9486-481e-9c43-fd166b11ee7c","system_id":"levelo_inurba_marseille","lat":43.29441,"lon":5.39621,"is_reserved":false,"is_disabled":false,"rental_uris":{"android":"levelo://app?vid=809b90b6-9486-481e-9c43-fd166b11ee7c","ios":"levelo://app?vid=809b90b6-9486-481e-9c43-fd166b11ee7c"},"vehicle_type_id":"4","last_reported":1762798567,"current_range_meters":8400,"station_id":"","pricing_plan_id":"cebpf4jnsgd1na2vs0mg"},{"bike_id":"8298846b-4beb-464e-ae72-19bc05be9ad3","system_id":"levelo_inurba_marseille","lat":43.26038,"lon":5.41742,"is_reserved":false,"is_disabled":false,"rental_uris":{"android":"levelo://app?vid=8298846b-4beb-464e-ae72-19bc05be9ad3","ios":"levelo://app?vid=8298846b-4beb-464e-ae72-19bc05be9ad3"},"vehicle_type_id":"4","last_reported":1762798567,"current_range_meters":8400,"station_id":"","pricing_plan_id":"cebpf4jnsgd1na2vs0mg"},{"bike_id":"a2edf73b-294e-4e03-876a-1f2fcc69ddc3","system_id":"levelo_inurba_marseille","lat":43.331617,"lon":5.376813,"is_reserved":false,"is_disabled":false,"rental_uris":{"android":"levelo://app?vid=a2edf73b-294e-4e03-876a-1f2fcc69ddc3","ios":"levelo://app?vid=a2edf73b-294e-4e03-876a-1f2fcc69ddc3"},"vehicle_type_id":"4","last_reported":1762798567,"current_range_meters":8800,"station_id":"st_d46cu089ee8s73dldbu0","pricing_plan_id":"cebpf4jnsgd1na2vs0mg"},{"bike_id":"9b72c2ef-754a-42ac-b1dc-dd1377aa06eb","system_id":"levelo_inurba_marseille","lat":43.290319,"lon":5.386429,"is_reserved":false,"is_disabled":false,"rental_uris":{"android":"levelo://app?vid=9b72c2ef-754a-42ac-b1dc-dd1377aa06eb","ios":"levelo://app?vid=9b72c2ef-754a-42ac-b1dc-dd1377aa06eb"},"vehicle_type_id":"4","last_reported":1762798567,"current_range_meters":8800,"station_id":"ce4bh4p2rcd13ifvqe0g","pricing_plan_id":"cebpf4jnsgd1na2vs0mg"},{"bike_id":"44d3bbef-1840-4039-9510-4f3eb2770579","system_id":"levelo_inurba_marseille","lat":43.303234,"lon":5.404335,"is_reserved":false,"is_disabled":false,"rental_uris":{"android":"levelo://app?vid=44d3bbef-1840-4039-9510-4f3eb2770579","ios":"levelo://app?vid=44d3bbef-1840-4039-9510-4f3eb2770579"},"vehicle_type_id":"4","last_reported":1762798567,"current_range_meters":8800,"station_id":"","pricing_plan_id":"cebpf4jnsgd1na2vs0mg"},{"bike_id":"34a1d4f1-be9b-4328-93f1-e367a5a30247","system_id":"levelo_inurba_marseille","lat":43.30104,"lon":5.38953,"is_reserved":false,"is_disabled":false,"rental_uris":{"android":"levelo://app?vid=34a1d4f1-be9b-4328-93f1-e367a5a30247","ios":"levelo://app?vid=34a1d4f1-be9b-4328-93f1-e367a5a30247"},"vehicle_type_id":"4","last_reported":1762798567,"current_range_meters":8800,"station_id":"","pricing_plan_id":"cebpf4jnsgd1na2vs0mg"},{"bike_id":"9764d4d9-028a-49e8-a746-75eb62f608c2","system_id":"levelo_inurba_marseille","lat":43.2848,"lon":5.38418,"is_reserved":false,"is_disabled":false,"rental_uris":{"android":"levelo://app?vid=9764d4d9-028a-49e8-a746-75eb62f608c2","ios":"levelo://app?vid=9764d4d9-028a-49e8-a746-75eb62f608c2"},"vehicle_type_id":"4","last_reported":1762798567,"current_range_meters":8800,"station_id":"ce4bh512rcd13ifvqe3g","pricing_plan_id":"cebpf4jnsgd1na2vs0mg"},{"bike_id":"296b35f4-bf34-48bd-a614-0084f905815f","system_id":"levelo_inurba_marseille","lat":43.29932,"lon":5.36386,"is_reserved":false,"is_disabled":false,"rental_uris":{"android":"levelo://app?vid=296b35f4-bf34-48bd-a614-0084f905815f","ios":"levelo://app?vid=296b35f4-bf34-48bd-a614-0084f905815f"},"vehicle_type_id":"4","last_reported":1762798567,"current_range_meters":8800,"station_id":"","pricing_plan_id":"cebpf4jnsgd1na2vs0mg"},{"bike_id":"8196b526-5dae-4b32-8b53-6b90ef9e9344","system_id":"levelo_inurba_marseille","lat":43.29023,"lon":5.38636,"is_reserved":false,"is_disabled":false,"rental_uris":{"android":"levelo://app?vid=8196b526-5dae-4b32-8b53-6b90ef9e9344","ios":"levelo://app?vid=8196b526-5dae-4b32-8b53-6b90ef9e9344"},"vehicle_type_id":"4","last_reported":1762798567,"current_range_meters":9200,"station_id":"ce4bh4p2rcd13ifvqe0g","pricing_plan_id":"cebpf4jnsgd1na2vs0mg"},{"bike_id":"9caba596-6f54-4f42-8c32-a7db381a6841","system_id":"levelo_inurba_marseille","lat":43.29599,"lon":5.381025,"is_reserved":false,"is_disabled":false,"rental_uris":{"android":"levelo://app?vid=9caba596-6f54-4f42-8c32-a7db381a6841","ios":"levelo://app?vid=9caba596-6f54-4f42-8c32-a7db381a6841"},"vehicle_type_id":"4","last_reported":1762798567,"current_range_meters":9200,"station_id":"ce4bgl12rcd13ifvqbo0","pricing_plan_id":"cebpf4jnsgd1na2vs0mg"},{"bike_id":"d32acf6f-21aa-4fbf-bed6-33d296ca0f9f","system_id":"levelo_inurba_marseille","lat":43.2175,"lon":5.34599,"is_reserved":false,"is_disabled":false,"rental_uris":{"android":"levelo://app?vid=d32acf6f-21aa-4fbf-bed6-33d296ca0f9f","ios":"levelo://app?vid=d32acf6f-21aa-4fbf-bed6-33d296ca0f9f"},"vehicle_type_id":"4","last_reported":1762798567,"current_range_meters":9200,"station_id":"st_cvj6r9ubvosntc0bgbag","pricing_plan_id":"cebpf4jnsgd1na2vs0mg"},{"bike_id":"ace2ba5a-aa07-4f74-b1ec-c447ccf8ea1a","system_id":"levelo_inurba_marseille","lat":43.264858,"lon":5.395404,"is_reserved":false,"is_disabled":false,"rental_uris":{"android":"levelo://app?vid=ace2ba5a-aa07-4f74-b1ec-c447ccf8ea1a","ios":"levelo://app?vid=ace2ba5a-aa07-4f74-b1ec-c447ccf8ea1a"},"vehicle_type_id":"4","last_reported":1762798567,"current_range_meters":9200,"station_id":"ce4bhi12rcd13ifvqfq0","pricing_plan_id":"cebpf4jnsgd1na2vs0mg"},{"bike_id":"4662de49-ae61-44c3-b641-897bf642e0af","system_id":"levelo_inurba_marseille","lat":43.2952,"lon":5.39409,"is_reserved":false,"is_disabled":false,"rental_uris":{"android":"levelo://app?vid=4662de49-ae61-44c3-b641-897bf642e0af","ios":"levelo://app?vid=4662de49-ae61-44c3-b641-897bf642e0af"},"vehicle_type_id":"4","last_reported":1762798567,"current_range_meters":9200,"station_id":"ce4bh292rcd13ifvqdf0","pricing_plan_id":"cebpf4jnsgd1na2vs0mg"},{"bike_id":"0cf9ff94-7769-4bfd-a8f5-04a7f4bde8fa","system_id":"levelo_inurba_marseille","lat":43.29282,"lon":5.40121,"is_reserved":false,"is_disabled":false,"rental_uris":{"android":"levelo://app?vid=0cf9ff94-7769-4bfd-a8f5-04a7f4bde8fa","ios":"levelo://app?vid=0cf9ff94-7769-4bfd-a8f5-04a7f4bde8fa"},"vehicle_type_id":"4","last_reported":1762798567,"current_range_meters":9200,"station_id":"ce4bh312rcd13ifvqdk0","pricing_plan_id":"cebpf4jnsgd1na2vs0mg"},{"bike_id":"46748178-17b8-4dc8-80b3-39159ff743e0","system_id":"levelo_inurba_marseille","lat":43.30047,"lon":5.38337,"is_reserved":false,"is_disabled":false,"rental_uris":{"android":"levelo://app?vid=46748178-17b8-4dc8-80b3-39159ff743e0","ios":"levelo://app?vid=46748178-17b8-4dc8-80b3-39159ff743e0"},"vehicle_type_id":"4","last_reported":1762798567,"current_range_meters":9200,"station_id":"","pricing_plan_id":"cebpf4jnsgd1na2vs0mg"},{"bike_id":"f08621f1-92b2-4985-8a3a-96dd283a7c2b","system_id":"levelo_inurba_marseille","lat":43.31354,"lon":5.37932,"is_reserved":false,"is_disabled":false,"rental_uris":{"android":"levelo://app?vid=f08621f1-92b2-4985-8a3a-96dd283a7c2b","ios":"levelo://app?vid=f08621f1-92b2-4985-8a3a-96dd283a7c2b"},"vehicle_type_id":"4","last_reported":1762798567,"current_range_meters":9200,"station_id":"","pricing_plan_id":"cebpf4jnsgd1na2vs0mg"},{"bike_id":"240af806-15c4-4600-87de-21af15a8cf89","system_id":"levelo_inurba_marseille","lat":43.29303,"lon":5.37175,"is_reserved":false,"is_disabled":false,"rental_uris":{"android":"levelo://app?vid=240af806-15c4-4600-87de-21af15a8cf89","ios":"levelo://app?vid=240af806-15c4-4600-87de-21af15a8cf89"},"vehicle_type_id":"4","last_reported":1762798567,"current_range_meters":9200,"station_id":"ce4bgh92rcd13ifvqb40","pricing_plan_id":"cebpf4jnsgd1na2vs0mg"},{"bike_id":"41f72171-01f7-4042-98ba-c8a473977cc2","system_id":"levelo_inurba_marseille","lat":43.309497,"lon":5.390439,"is_reserved":false,"is_disabled":false,"rental_uris":{"android":"levelo://app?vid=41f72171-01f7-4042-98ba-c8a473977cc2","ios":"levelo://app?vid=41f72171-01f7-4042-98ba-c8a473977cc2"},"vehicle_type_id":"4","last_reported":1762798567,"current_range_meters":9600,"station_id":"ce4bgup2rcd13ifvqco0","pricing_plan_id":"cebpf4jnsgd1na2vs0mg"},{"bike_id":"df51921c-3b5a-47cf-a63c-a4ccc63f212e","system_id":"levelo_inurba_marseille","lat":43.28834,"lon":5.35853,"is_reserved":false,"is_disabled":false,"rental_uris":{"android":"levelo://app?vid=df51921c-3b5a-47cf-a63c-a4ccc63f212e","ios":"levelo://app?vid=df51921c-3b5a-47cf-a63c-a4ccc63f212e"},"vehicle_type_id":"4","last_reported":1762798567,"current_range_meters":9600,"station_id":"ce4bhb12rcd13ifvqem0","pricing_plan_id":"cebpf4jnsgd1na2vs0mg"},{"bike_id":"3b6bed33-790a-4ac3-bbc2-b1ac1c99f327","system_id":"levelo_inurba_marseille","lat":43.2957,"lon":5.37508,"is_reserved":false,"is_disabled":false,"rental_uris":{"android":"levelo://app?vid=3b6bed33-790a-4ac3-bbc2-b1ac1c99f327","ios":"levelo://app?vid=3b6bed33-790a-4ac3-bbc2-b1ac1c99f327"},"vehicle_type_id":"4","last_reported":1762798567,"current_range_meters":9600,"station_id":"ce4bgh92rcd13ifvqb50","pricing_plan_id":"cebpf4jnsgd1na2vs0mg"},{"bike_id":"c8b6bb62-ec62-4be2-8993-6b3f8cfb6d34","system_id":"levelo_inurba_marseille","lat":43.29533,"lon":5.38548,"is_reserved":false,"is_disabled":false,"rental_uris":{"android":"levelo://app?vid=c8b6bb62-ec62-4be2-8993-6b3f8cfb6d34","ios":"levelo://app?vid=c8b6bb62-ec62-4be2-8993-6b3f8cfb6d34"},"vehicle_type_id":"4","last_reported":1762798567,"current_range_meters":9600,"station_id":"ce4bgih2rcd13ifvqba0","pricing_plan_id":"cebpf4jnsgd1na2vs0mg"},{"bike_id":"b4cb9bc3-2674-422b-8c74-5594292dd02e","system_id":"levelo_inurba_marseille","lat":43.27538,"lon":5.37491,"is_reserved":false,"is_disabled":false,"rental_uris":{"android":"levelo://app?vid=b4cb9bc3-2674-422b-8c74-5594292dd02e","ios":"levelo://app?vid=b4cb9bc3-2674-422b-8c74-5594292dd02e"},"vehicle_type_id":"4","last_reported":1762798567,"current_range_meters":9600,"station_id":"","pricing_plan_id":"cebpf4jnsgd1na2vs0mg"},{"bike_id":"87524a3f-48c2-4e95-9608-7652abaa9a53","system_id":"levelo_inurba_marseille","lat":43.30771,"lon":5.36782,"is_reserved":false,"is_disabled":false,"rental_uris":{"android":"levelo://app?vid=87524a3f-48c2-4e95-9608-7652abaa9a53","ios":"levelo://app?vid=87524a3f-48c2-4e95-9608-7652abaa9a53"},"vehicle_type_id":"4","last_reported":1762798567,"current_range_meters":10000,"station_id":"","pricing_plan_id":"cebpf4jnsgd1na2vs0mg"},{"bike_id":"07618fb4-fdf4-452a-a76e-4b0defae3541","system_id":"levelo_inurba_marseille","lat":43.225361,"lon":5.348313,"is_reserved":false,"is_disabled":false,"rental_uris":{"android":"levelo://app?vid=07618fb4-fdf4-452a-a76e-4b0defae3541","ios":"levelo://app?vid=07618fb4-fdf4-452a-a76e-4b0defae3541"},"vehicle_type_id":"4","last_reported":1762798567,"current_range_meters":10000,"station_id":"","pricing_plan_id":"cebpf4jnsgd1na2vs0mg"},{"bike_id":"fd513886-05bf-441a-8bc4-814625ad9695","system_id":"levelo_inurba_marseille","lat":43.28936,"lon":5.36631,"is_reserved":false,"is_disabled":false,"rental_uris":{"android":"levelo://app?vid=fd513886-05bf-441a-8bc4-814625ad9695","ios":"levelo://app?vid=fd513886-05bf-441a-8bc4-814625ad9695"},"vehicle_type_id":"4","last_reported":1762798567,"current_range_meters":10000,"station_id":"ce4bhap2rcd13ifvqek0","pricing_plan_id":"cebpf4jnsgd1na2vs0mg"},{"bike_id":"48941eaf-4f8d-4b76-844c-6354859dd75e","system_id":"levelo_inurba_marseille","lat":43.29233,"lon":5.36074,"is_reserved":false,"is_disabled":false,"rental_uris":{"android":"levelo://app?vid=48941eaf-4f8d-4b76-844c-6354859dd75e","ios":"levelo://app?vid=48941eaf-4f8d-4b76-844c-6354859dd75e"},"vehicle_type_id":"4","last_reported":1762798567,"current_range_meters":10000,"station_id":"ce4bhbh2rcd13ifvqeqg","pricing_plan_id":"cebpf4jnsgd1na2vs0mg"},{"bike_id":"4720db16-8b2a-4715-b38e-881890595c85","system_id":"levelo_inurba_marseille","lat":43.24646,"lon":5.43143,"is_reserved":false,"is_disabled":false,"rental_uris":{"android":"levelo://app?vid=4720db16-8b2a-4715-b38e-881890595c85","ios":"levelo://app?vid=4720db16-8b2a-4715-b38e-881890595c85"},"vehicle_type_id":"4","last_reported":1762798567,"current_range_meters":10000,"station_id":"st_d2m6c4gdas8pm72e190g","pricing_plan_id":"cebpf4jnsgd1na2vs0mg"},{"bike_id":"0ff8c3d9-b10a-4a0d-b5be-ed39b8348d3d","system_id":"levelo_inurba_marseille","lat":43.26198,"lon":5.3793,"is_reserved":false,"is_disabled":false,"rental_uris":{"android":"levelo://app?vid=0ff8c3d9-b10a-4a0d-b5be-ed39b8348d3d","ios":"levelo://app?vid=0ff8c3d9-b10a-4a0d-b5be-ed39b8348d3d"},"vehicle_type_id":"4","last_reported":1762798567,"current_range_meters":10000,"station_id":"ce4bhjp2rcd13ifvqg90","pricing_plan_id":"cebpf4jnsgd1na2vs0mg"},{"bike_id":"77dd386a-c491-4903-b512-c2486567c465","system_id":"levelo_inurba_marseille","lat":43.28938,"lon":5.3663,"is_reserved":false,"is_disabled":false,"rental_uris":{"android":"levelo://app?vid=77dd386a-c491-4903-b512-c2486567c465","ios":"levelo://app?vid=77dd386a-c491-4903-b512-c2486567c465"},"vehicle_type_id":"4","last_reported":1762798567,"current_range_meters":10000,"station_id":"ce4bhap2rcd13ifvqek0","pricing_plan_id":"cebpf4jnsgd1na2vs0mg"},{"bike_id":"4b71dcfc-1009-433f-aad0-16c9e230bf91","system_id":"levelo_inurba_marseille","lat":43.31682,"lon":5.40471,"is_reserved":false,"is_disabled":false,"rental_uris":{"android":"levelo://app?vid=4b71dcfc-1009-433f-aad0-16c9e230bf91","ios":"levelo://app?vid=4b71dcfc-1009-433f-aad0-16c9e230bf91"},"vehicle_type_id":"4","last_reported":1762798567,"current_range_meters":10000,"station_id":"ce4bh012rcd13ifvqd00","pricing_plan_id":"cebpf4jnsgd1na2vs0mg"},{"bike_id":"bac82b38-5b75-4b4a-a000-ad5083a8fd94","system_id":"levelo_inurba_marseille","lat":43.28452,"lon":5.384,"is_reserved":false,"is_disabled":false,"rental_uris":{"android":"levelo://app?vid=bac82b38-5b75-4b4a-a000-ad5083a8fd94","ios":"levelo://app?vid=bac82b38-5b75-4b4a-a000-ad5083a8fd94"},"vehicle_type_id":"4","last_reported":1762798567,"current_range_meters":10000,"station_id":"ce4bh512rcd13ifvqe3g","pricing_plan_id":"cebpf4jnsgd1na2vs0mg"},{"bike_id":"134bbdf1-4d3f-466e-98d7-3263988fa759","system_id":"levelo_inurba_marseille","lat":43.26959,"lon":5.38632,"is_reserved":false,"is_disabled":false,"rental_uris":{"android":"levelo://app?vid=134bbdf1-4d3f-466e-98d7-3263988fa759","ios":"levelo://app?vid=134bbdf1-4d3f-466e-98d7-3263988fa759"},"vehicle_type_id":"4","last_reported":1762798567,"current_range_meters":10800,"station_id":"ce4bhh92rcd13ifvqfh0","pricing_plan_id":"cebpf4jnsgd1na2vs0mg"},{"bike_id":"ab4ac132-5519-4aac-ac12-8b8c2929bb7e","system_id":"levelo_inurba_marseille","lat":43.32302,"lon":5.38493,"is_reserved":false,"is_disabled":false,"rental_uris":{"android":"levelo://app?vid=ab4ac132-5519-4aac-ac12-8b8c2929bb7e","ios":"levelo://app?vid=ab4ac132-5519-4aac-ac12-8b8c2929bb7e"},"vehicle_type_id":"4","last_reported":1762798567,"current_range_meters":10800,"station_id":"st_d45171o9ee8s73djdqug","pricing_plan_id":"cebpf4jnsgd1na2vs0mg"},{"bike_id":"175a83b1-61c6-47fe-901d-08f252ac1262","system_id":"levelo_inurba_marseille","lat":43.3079,"lon":5.37644,"is_reserved":false,"is_disabled":false,"rental_uris":{"android":"levelo://app?vid=175a83b1-61c6-47fe-901d-08f252ac1262","ios":"levelo://app?vid=175a83b1-61c6-47fe-901d-08f252ac1262"},"vehicle_type_id":"4","last_reported":1762798567,"current_range_meters":10800,"station_id":"ce4bgv92rcd13ifvqcq0","pricing_plan_id":"cebpf4jnsgd1na2vs0mg"},{"bike_id":"be3d8650-9293-46bc-b0c9-a47bad563b96","system_id":"levelo_inurba_marseille","lat":43.21747,"lon":5.34577,"is_reserved":false,"is_disabled":false,"rental_uris":{"android":"levelo://app?vid=be3d8650-9293-46bc-b0c9-a47bad563b96","ios":"levelo://app?vid=be3d8650-9293-46bc-b0c9-a47bad563b96"},"vehicle_type_id":"4","last_reported":1762798567,"current_range_meters":10800,"station_id":"st_cvj6r9ubvosntc0bgbag","pricing_plan_id":"cebpf4jnsgd1na2vs0mg"},{"bike_id":"363ee27e-7d42-4392-8678-4c4cb6a8aef7","system_id":"levelo_inurba_marseille","lat":43.28164,"lon":5.42666,"is_reserved":false,"is_disabled":false,"rental_uris":{"android":"levelo://app?vid=363ee27e-7d42-4392-8678-4c4cb6a8aef7","ios":"levelo://app?vid=363ee27e-7d42-4392-8678-4c4cb6a8aef7"},"vehicle_type_id":"4","last_reported":1762798567,"current_range_meters":10800,"station_id":"ce4bhnh2rcd13ifvqgug","pricing_plan_id":"cebpf4jnsgd1na2vs0mg"},{"bike_id":"39ff6a52-7c15-4e36-9056-950efe8be9ca","system_id":"levelo_inurba_marseille","lat":43.28481,"lon":5.48396,"is_reserved":false,"is_disabled":false,"rental_uris":{"android":"levelo://app?vid=39ff6a52-7c15-4e36-9056-950efe8be9ca","ios":"levelo://app?vid=39ff6a52-7c15-4e36-9056-950efe8be9ca"},"vehicle_type_id":"4","last_reported":1762798567,"current_range_meters":10800,"station_id":"","pricing_plan_id":"cebpf4jnsgd1na2vs0mg"},{"bike_id":"795d1726-a9d9-4882-bbc8-3c2cc12f294a","system_id":"levelo_inurba_marseille","lat":43.30266,"lon":5.40076,"is_reserved":false,"is_disabled":false,"rental_uris":{"android":"levelo://app?vid=795d1726-a9d9-4882-bbc8-3c2cc12f294a","ios":"levelo://app?vid=795d1726-a9d9-4882-bbc8-3c2cc12f294a"},"vehicle_type_id":"4","last_reported":1762798567,"current_range_meters":11200,"station_id":"ce4bgvh2rcd13ifvqcs0","pricing_plan_id":"cebpf4jnsgd1na2vs0mg"},{"bike_id":"2e3b5b1e-cd77-46cc-97c5-2dd57dee69a7","system_id":"levelo_inurba_marseille","lat":43.29561,"lon":5.4227,"is_reserved":false,"is_disabled":false,"rental_uris":{"android":"levelo://app?vid=2e3b5b1e-cd77-46cc-97c5-2dd57dee69a7","ios":"levelo://app?vid=2e3b5b1e-cd77-46cc-97c5-2dd57dee69a7"},"vehicle_type_id":"4","last_reported":1762798567,"current_range_meters":11200,"station_id":"ce4bhph2rcd13ifvqhdg","pricing_plan_id":"cebpf4jnsgd1na2vs0mg"},{"bike_id":"a906f7c6-e9b7-42af-8bd2-6e1feeb979a5","system_id":"levelo_inurba_marseille","lat":43.28842,"lon":5.39582,"is_reserved":false,"is_disabled":false,"rental_uris":{"android":"levelo://app?vid=a906f7c6-e9b7-42af-8bd2-6e1feeb979a5","ios":"levelo://app?vid=a906f7c6-e9b7-42af-8bd2-6e1feeb979a5"},"vehicle_type_id":"4","last_reported":1762798567,"current_range_meters":11200,"station_id":"","pricing_plan_id":"cebpf4jnsgd1na2vs0mg"},{"bike_id":"897d16a5-2c1d-456e-bdd7-d37c89f072db","system_id":"levelo_inurba_marseille","lat":43.30465,"lon":5.37895,"is_reserved":false,"is_disabled":false,"rental_uris":{"android":"levelo://app?vid=897d16a5-2c1d-456e-bdd7-d37c89f072db","ios":"levelo://app?vid=897d16a5-2c1d-456e-bdd7-d37c89f072db"},"vehicle_type_id":"4","last_reported":1762798567,"current_range_meters":11200,"station_id":"ce4bgup2rcd13ifvqcn0","pricing_plan_id":"cebpf4jnsgd1na2vs0mg"},{"bike_id":"6f61f6b2-4dbf-4ff8-ab4a-7d50865c5afa","system_id":"levelo_inurba_marseille","lat":43.28971,"lon":5.37827,"is_reserved":false,"is_disabled":false,"rental_uris":{"android":"levelo://app?vid=6f61f6b2-4dbf-4ff8-ab4a-7d50865c5afa","ios":"levelo://app?vid=6f61f6b2-4dbf-4ff8-ab4a-7d50865c5afa"},"vehicle_type_id":"4","last_reported":1762798567,"current_range_meters":11200,"station_id":"ce4bh9p2rcd13ifvqed0","pricing_plan_id":"cebpf4jnsgd1na2vs0mg"},{"bike_id":"0dc95a39-6401-4c61-b3d4-1a46d2d9f548","system_id":"levelo_inurba_marseille","lat":43.29318,"lon":5.37454,"is_reserved":false,"is_disabled":false,"rental_uris":{"android":"levelo://app?vid=0dc95a39-6401-4c61-b3d4-1a46d2d9f548","ios":"levelo://app?vid=0dc95a39-6401-4c61-b3d4-1a46d2d9f548"},"vehicle_type_id":"4","last_reported":1762798567,"current_range_meters":11200,"station_id":"ce4bgi12rcd13ifvqb70","pricing_plan_id":"cebpf4jnsgd1na2vs0mg"},{"bike_id":"c07d9e71-2fe2-4894-9dbc-e1d0b23e2240","system_id":"levelo_inurba_marseille","lat":43.27913,"lon":5.395776,"is_reserved":false,"is_disabled":false,"rental_uris":{"android":"levelo://app?vid=c07d9e71-2fe2-4894-9dbc-e1d0b23e2240","ios":"levelo://app?vid=c07d9e71-2fe2-4894-9dbc-e1d0b23e2240"},"vehicle_type_id":"4","last_reported":1762798567,"current_range_meters":11200,"station_id":"ce4bhf92rcd13ifvqf40","pricing_plan_id":"cebpf4jnsgd1na2vs0mg"},{"bike_id":"ffe050e8-e964-43f0-affe-fdb013a22c0b","system_id":"levelo_inurba_marseille","lat":43.28475,"lon":5.48386,"is_reserved":false,"is_disabled":false,"rental_uris":{"android":"levelo://app?vid=ffe050e8-e964-43f0-affe-fdb013a22c0b","ios":"levelo://app?vid=ffe050e8-e964-43f0-affe-fdb013a22c0b"},"vehicle_type_id":"4","last_reported":1762798567,"current_range_meters":11200,"station_id":"","pricing_plan_id":"cebpf4jnsgd1na2vs0mg"},{"bike_id":"c6806273-f689-4896-963a-321099b9c5e4","system_id":"levelo_inurba_marseille","lat":43.25583,"lon":5.38235,"is_reserved":false,"is_disabled":false,"rental_uris":{"android":"levelo://app?vid=c6806273-f689-4896-963a-321099b9c5e4","ios":"levelo://app?vid=c6806273-f689-4896-963a-321099b9c5e4"},"vehicle_type_id":"4","last_reported":1762798567,"current_range_meters":11200,"station_id":"ce4bhih2rcd13ifvqfs0","pricing_plan_id":"cebpf4jnsgd1na2vs0mg"},{"bike_id":"96807a8e-1b45-4a36-b7ed-92091f4bcaf6","system_id":"levelo_inurba_marseille","lat":43.309306,"lon":5.401424,"is_reserved":false,"is_disabled":false,"rental_uris":{"android":"levelo://app?vid=96807a8e-1b45-4a36-b7ed-92091f4bcaf6","ios":"levelo://app?vid=96807a8e-1b45-4a36-b7ed-92091f4bcaf6"},"vehicle_type_id":"4","last_reported":1762798567,"current_range_meters":11600,"station_id":"","pricing_plan_id":"cebpf4jnsgd1na2vs0mg"},{"bike_id":"1331e9c4-6168-4050-93b6-f48d79ff037c","system_id":"levelo_inurba_marseille","lat":43.28365,"lon":5.38625,"is_reserved":false,"is_disabled":false,"rental_uris":{"android":"levelo://app?vid=1331e9c4-6168-4050-93b6-f48d79ff037c","ios":"levelo://app?vid=1331e9c4-6168-4050-93b6-f48d79ff037c"},"vehicle_type_id":"4","last_reported":1762798567,"current_range_meters":11600,"station_id":"ce4bh492rcd13ifvqdvg","pricing_plan_id":"cebpf4jnsgd1na2vs0mg"},{"bike_id":"45b74fd1-2df8-442a-b6bf-f8f31b69f500","system_id":"levelo_inurba_marseille","lat":43.28972,"lon":5.37832,"is_reserved":false,"is_disabled":false,"rental_uris":{"android":"levelo://app?vid=45b74fd1-2df8-442a-b6bf-f8f31b69f500","ios":"levelo://app?vid=45b74fd1-2df8-442a-b6bf-f8f31b69f500"},"vehicle_type_id":"4","last_reported":1762798567,"current_range_meters":11600,"station_id":"ce4bh9p2rcd13ifvqed0","pricing_plan_id":"cebpf4jnsgd1na2vs0mg"},{"bike_id":"93b49ebf-d9fa-49cd-9da3-22e867a810f3","system_id":"levelo_inurba_marseille","lat":43.29746,"lon":5.41114,"is_reserved":false,"is_disabled":false,"rental_uris":{"android":"levelo://app?vid=93b49ebf-d9fa-49cd-9da3-22e867a810f3","ios":"levelo://app?vid=93b49ebf-d9fa-49cd-9da3-22e867a810f3"},"vehicle_type_id":"4","last_reported":1762798567,"current_range_meters":11600,"station_id":"","pricing_plan_id":"cebpf4jnsgd1na2vs0mg"},{"bike_id":"aa8fa0f8-ea5e-4193-b26c-027982143826","system_id":"levelo_inurba_marseille","lat":43.30135,"lon":5.43113,"is_reserved":false,"is_disabled":false,"rental_uris":{"android":"levelo://app?vid=aa8fa0f8-ea5e-4193-b26c-027982143826","ios":"levelo://app?vid=aa8fa0f8-ea5e-4193-b26c-027982143826"},"vehicle_type_id":"4","last_reported":1762798567,"current_range_meters":11600,"station_id":"st_d3js3co5814s73ftftug","pricing_plan_id":"cebpf4jnsgd1na2vs0mg"},{"bike_id":"cc7e9749-d205-466e-a3ba-a04ec3ee1c9f","system_id":"levelo_inurba_marseille","lat":43.270714,"lon":5.422774,"is_reserved":false,"is_disabled":false,"rental_uris":{"android":"levelo://app?vid=cc7e9749-d205-466e-a3ba-a04ec3ee1c9f","ios":"levelo://app?vid=cc7e9749-d205-466e-a3ba-a04ec3ee1c9f"},"vehicle_type_id":"4","last_reported":1762798567,"current_range_meters":12000,"station_id":"ce4bhk92rcd13ifvqgb0","pricing_plan_id":"cebpf4jnsgd1na2vs0mg"},{"bike_id":"dcd82a54-2f9a-4090-9ddf-2ced71287934","system_id":"levelo_inurba_marseille","lat":43.28459,"lon":5.35879,"is_reserved":false,"is_disabled":false,"rental_uris":{"android":"levelo://app?vid=dcd82a54-2f9a-4090-9ddf-2ced71287934","ios":"levelo://app?vid=dcd82a54-2f9a-4090-9ddf-2ced71287934"},"vehicle_type_id":"4","last_reported":1762798567,"current_range_meters":12000,"station_id":"ce4bhah2rcd13ifvqei0","pricing_plan_id":"cebpf4jnsgd1na2vs0mg"},{"bike_id":"ac8a8750-1d87-4cf8-9c77-e78b99da5512","system_id":"levelo_inurba_marseille","lat":43.23605,"lon":5.361713,"is_reserved":false,"is_disabled":false,"rental_uris":{"android":"levelo://app?vid=ac8a8750-1d87-4cf8-9c77-e78b99da5512","ios":"levelo://app?vid=ac8a8750-1d87-4cf8-9c77-e78b99da5512"},"vehicle_type_id":"4","last_reported":1762798567,"current_range_meters":12000,"station_id":"","pricing_plan_id":"cebpf4jnsgd1na2vs0mg"},{"bike_id":"896a0fc4-e98e-425f-b646-7db4d5ace172","system_id":"levelo_inurba_marseille","lat":43.3199,"lon":5.38155,"is_reserved":false,"is_disabled":false,"rental_uris":{"android":"levelo://app?vid=896a0fc4-e98e-425f-b646-7db4d5ace172","ios":"levelo://app?vid=896a0fc4-e98e-425f-b646-7db4d5ace172"},"vehicle_type_id":"4","last_reported":1762798567,"current_range_meters":12000,"station_id":"ce4bhr12rcd13ifvqhpg","pricing_plan_id":"cebpf4jnsgd1na2vs0mg"},{"bike_id":"80a5b288-c4c3-4a25-8c6c-ea160c21372f","system_id":"levelo_inurba_marseille","lat":43.2534,"lon":5.42174,"is_reserved":false,"is_disabled":false,"rental_uris":{"android":"levelo://app?vid=80a5b288-c4c3-4a25-8c6c-ea160c21372f","ios":"levelo://app?vid=80a5b288-c4c3-4a25-8c6c-ea160c21372f"},"vehicle_type_id":"4","last_reported":1762798567,"current_range_meters":12000,"station_id":"st_d2m65c5bi1j21697t3ng","pricing_plan_id":"cebpf4jnsgd1na2vs0mg"},{"bike_id":"24de70df-9b80-4721-8771-f61cb7be1ef9","system_id":"levelo_inurba_marseille","lat":43.3192,"lon":5.38126,"is_reserved":false,"is_disabled":false,"rental_uris":{"android":"levelo://app?vid=24de70df-9b80-4721-8771-f61cb7be1ef9","ios":"levelo://app?vid=24de70df-9b80-4721-8771-f61cb7be1ef9"},"vehicle_type_id":"4","last_reported":1762798567,"current_range_meters":12000,"station_id":"","pricing_plan_id":"cebpf4jnsgd1na2vs0mg"},{"bike_id":"d331b58f-0754-4181-93f7-d4d5e2f8b496","system_id":"levelo_inurba_marseille","lat":43.225347,"lon":5.348291,"is_reserved":false,"is_disabled":false,"rental_uris":{"android":"levelo://app?vid=d331b58f-0754-4181-93f7-d4d5e2f8b496","ios":"levelo://app?vid=d331b58f-0754-4181-93f7-d4d5e2f8b496"},"vehicle_type_id":"4","last_reported":1762798567,"current_range_meters":12000,"station_id":"","pricing_plan_id":"cebpf4jnsgd1na2vs0mg"},{"bike_id":"eeb4f6c6-0773-48b0-b402-394c440f4bbc","system_id":"levelo_inurba_marseille","lat":43.29503,"lon":5.39393,"is_reserved":false,"is_disabled":true,"rental_uris":{"android":"levelo://app?vid=eeb4f6c6-0773-48b0-b402-394c440f4bbc","ios":"levelo://app?vid=eeb4f6c6-0773-48b0-b402-394c440f4bbc"},"vehicle_type_id":"4","last_reported":1762798567,"current_range_meters":12000,"station_id":"ce4bh292rcd13ifvqdf0","pricing_plan_id":"cebpf4jnsgd1na2vs0mg"},{"bike_id":"68020ba9-15ce-46ee-b08e-2124b15dbcbd","system_id":"levelo_inurba_marseille","lat":43.292603,"lon":5.384374,"is_reserved":false,"is_disabled":false,"rental_uris":{"android":"levelo://app?vid=68020ba9-15ce-46ee-b08e-2124b15dbcbd","ios":"levelo://app?vid=68020ba9-15ce-46ee-b08e-2124b15dbcbd"},"vehicle_type_id":"4","last_reported":1762798567,"current_range_meters":12000,"station_id":"ce4bh692rcd13ifvqea0","pricing_plan_id":"cebpf4jnsgd1na2vs0mg"},{"bike_id":"207eccb6-0203-45ce-bd36-6dd2be2371d3","system_id":"levelo_inurba_marseille","lat":43.320275,"lon":5.415507,"is_reserved":false,"is_disabled":false,"rental_uris":{"android":"levelo://app?vid=207eccb6-0203-45ce-bd36-6dd2be2371d3","ios":"levelo://app?vid=207eccb6-0203-45ce-bd36-6dd2be2371d3"},"vehicle_type_id":"4","last_reported":1762798567,"current_range_meters":12000,"station_id":"ce4bhq92rcd13ifvqhkg","pricing_plan_id":"cebpf4jnsgd1na2vs0mg"},{"bike_id":"2d003246-289e-4235-87e3-d86a55465f5e","system_id":"levelo_inurba_marseille","lat":43.29892,"lon":5.37537,"is_reserved":false,"is_disabled":false,"rental_uris":{"android":"levelo://app?vid=2d003246-289e-4235-87e3-d86a55465f5e","ios":"levelo://app?vid=2d003246-289e-4235-87e3-d86a55465f5e"},"vehicle_type_id":"4","last_reported":1762798567,"current_range_meters":12400,"station_id":"","pricing_plan_id":"cebpf4jnsgd1na2vs0mg"},{"bike_id":"8f73faaa-18cc-4a24-904f-fb29fba91342","system_id":"levelo_inurba_marseille","lat":43.31731,"lon":5.42395,"is_reserved":false,"is_disabled":false,"rental_uris":{"android":"levelo://app?vid=8f73faaa-18cc-4a24-904f-fb29fba91342","ios":"levelo://app?vid=8f73faaa-18cc-4a24-904f-fb29fba91342"},"vehicle_type_id":"4","last_reported":1762798567,"current_range_meters":12400,"station_id":"ce4bhp92rcd13ifvqhbg","pricing_plan_id":"cebpf4jnsgd1na2vs0mg"},{"bike_id":"81ae76cc-b801-4759-b58f-2b51d812735a","system_id":"levelo_inurba_marseille","lat":43.217529,"lon":5.346037,"is_reserved":false,"is_disabled":false,"rental_uris":{"android":"levelo://app?vid=81ae76cc-b801-4759-b58f-2b51d812735a","ios":"levelo://app?vid=81ae76cc-b801-4759-b58f-2b51d812735a"},"vehicle_type_id":"4","last_reported":1762798567,"current_range_meters":12400,"station_id":"st_cvj6r9ubvosntc0bgbag","pricing_plan_id":"cebpf4jnsgd1na2vs0mg"},{"bike_id":"19d97750-977b-4379-8bf5-4d571f1f6aec","system_id":"levelo_inurba_marseille","lat":43.34114,"lon":5.40715,"is_reserved":false,"is_disabled":false,"rental_uris":{"android":"levelo://app?vid=19d97750-977b-4379-8bf5-4d571f1f6aec","ios":"levelo://app?vid=19d97750-977b-4379-8bf5-4d571f1f6aec"},"vehicle_type_id":"4","last_reported":1762798567,"current_range_meters":12400,"station_id":"","pricing_plan_id":"cebpf4jnsgd1na2vs0mg"},{"bike_id":"fb0e6bea-d078-4452-905b-07db49a4858c","system_id":"levelo_inurba_marseille","lat":43.2848,"lon":5.4839,"is_reserved":false,"is_disabled":false,"rental_uris":{"android":"levelo://app?vid=fb0e6bea-d078-4452-905b-07db49a4858c","ios":"levelo://app?vid=fb0e6bea-d078-4452-905b-07db49a4858c"},"vehicle_type_id":"4","last_reported":1762798567,"current_range_meters":12400,"station_id":"","pricing_plan_id":"cebpf4jnsgd1na2vs0mg"},{"bike_id":"e8631ba2-5131-4b3d-b6eb-d2e4e16c067e","system_id":"levelo_inurba_marseille","lat":43.29697,"lon":5.36605,"is_reserved":false,"is_disabled":false,"rental_uris":{"android":"levelo://app?vid=e8631ba2-5131-4b3d-b6eb-d2e4e16c067e","ios":"levelo://app?vid=e8631ba2-5131-4b3d-b6eb-d2e4e16c067e"},"vehicle_type_id":"4","last_reported":1762798567,"current_range_meters":12400,"station_id":"ce4bgn12rcd13ifvqbt0","pricing_plan_id":"cebpf4jnsgd1na2vs0mg"},{"bike_id":"d4da467a-5ec6-4ec0-8284-cce8af32d972","system_id":"levelo_inurba_marseille","lat":43.24632,"lon":5.43143,"is_reserved":false,"is_disabled":false,"rental_uris":{"android":"levelo://app?vid=d4da467a-5ec6-4ec0-8284-cce8af32d972","ios":"levelo://app?vid=d4da467a-5ec6-4ec0-8284-cce8af32d972"},"vehicle_type_id":"4","last_reported":1762798567,"current_range_meters":12400,"station_id":"st_d2m6c4gdas8pm72e190g","pricing_plan_id":"cebpf4jnsgd1na2vs0mg"},{"bike_id":"5734fe58-ea38-4e7c-9f0c-78bf4b96dada","system_id":"levelo_inurba_marseille","lat":43.29528,"lon":5.39396,"is_reserved":false,"is_disabled":false,"rental_uris":{"android":"levelo://app?vid=5734fe58-ea38-4e7c-9f0c-78bf4b96dada","ios":"levelo://app?vid=5734fe58-ea38-4e7c-9f0c-78bf4b96dada"},"vehicle_type_id":"4","last_reported":1762798567,"current_range_meters":12800,"station_id":"ce4bh292rcd13ifvqdf0","pricing_plan_id":"cebpf4jnsgd1na2vs0mg"},{"bike_id":"a2261492-19dd-44fa-8c32-b4eeed495387","system_id":"levelo_inurba_marseille","lat":43.29883,"lon":5.36325,"is_reserved":false,"is_disabled":false,"rental_uris":{"android":"levelo://app?vid=a2261492-19dd-44fa-8c32-b4eeed495387","ios":"levelo://app?vid=a2261492-19dd-44fa-8c32-b4eeed495387"},"vehicle_type_id":"4","last_reported":1762798567,"current_range_meters":12800,"station_id":"","pricing_plan_id":"cebpf4jnsgd1na2vs0mg"},{"bike_id":"33382fd9-7369-4606-a4d3-9ef89d743f75","system_id":"levelo_inurba_marseille","lat":43.293154,"lon":5.371395,"is_reserved":false,"is_disabled":false,"rental_uris":{"android":"levelo://app?vid=33382fd9-7369-4606-a4d3-9ef89d743f75","ios":"levelo://app?vid=33382fd9-7369-4606-a4d3-9ef89d743f75"},"vehicle_type_id":"4","last_reported":1762798567,"current_range_meters":12800,"station_id":"ce4bgh92rcd13ifvqb40","pricing_plan_id":"cebpf4jnsgd1na2vs0mg"},{"bike_id":"3abbb1f3-344f-4e62-875d-37a6a86248f6","system_id":"levelo_inurba_marseille","lat":43.26704,"lon":5.38258,"is_reserved":false,"is_disabled":false,"rental_uris":{"android":"levelo://app?vid=3abbb1f3-344f-4e62-875d-37a6a86248f6","ios":"levelo://app?vid=3abbb1f3-344f-4e62-875d-37a6a86248f6"},"vehicle_type_id":"4","last_reported":1762798567,"current_range_meters":12800,"station_id":"ce4bhg92rcd13ifvqf90","pricing_plan_id":"cebpf4jnsgd1na2vs0mg"},{"bike_id":"bb673994-b9ec-4ca4-a388-67c43209657a","system_id":"levelo_inurba_marseille","lat":43.30736,"lon":5.36838,"is_reserved":false,"is_disabled":false,"rental_uris":{"android":"levelo://app?vid=bb673994-b9ec-4ca4-a388-67c43209657a","ios":"levelo://app?vid=bb673994-b9ec-4ca4-a388-67c43209657a"},"vehicle_type_id":"4","last_reported":1762798567,"current_range_meters":12800,"station_id":"","pricing_plan_id":"cebpf4jnsgd1na2vs0mg"},{"bike_id":"9fc59d22-8e56-48e1-b7b6-6b21b0982bb9","system_id":"levelo_inurba_marseille","lat":43.23193,"lon":5.35549,"is_reserved":false,"is_disabled":false,"rental_uris":{"android":"levelo://app?vid=9fc59d22-8e56-48e1-b7b6-6b21b0982bb9","ios":"levelo://app?vid=9fc59d22-8e56-48e1-b7b6-6b21b0982bb9"},"vehicle_type_id":"4","last_reported":1762798567,"current_range_meters":12800,"station_id":"ce4bhu92rcd13ifvqi70","pricing_plan_id":"cebpf4jnsgd1na2vs0mg"},{"bike_id":"fd572400-4e62-443b-b2d9-86ea88c2dfdf","system_id":"levelo_inurba_marseille","lat":43.21757,"lon":5.34612,"is_reserved":false,"is_disabled":true,"rental_uris":{"android":"levelo://app?vid=fd572400-4e62-443b-b2d9-86ea88c2dfdf","ios":"levelo://app?vid=fd572400-4e62-443b-b2d9-86ea88c2dfdf"},"vehicle_type_id":"4","last_reported":1762798567,"current_range_meters":12800,"station_id":"","pricing_plan_id":"cebpf4jnsgd1na2vs0mg"},{"bike_id":"65417ce1-2776-4dc6-8aca-118ed3563d0f","system_id":"levelo_inurba_marseille","lat":43.22567,"lon":5.41629,"is_reserved":false,"is_disabled":false,"rental_uris":{"android":"levelo://app?vid=65417ce1-2776-4dc6-8aca-118ed3563d0f","ios":"levelo://app?vid=65417ce1-2776-4dc6-8aca-118ed3563d0f"},"vehicle_type_id":"4","last_reported":1762798567,"current_range_meters":12800,"station_id":"st_d2o4gvlbi1j2169b742g","pricing_plan_id":"cebpf4jnsgd1na2vs0mg"},{"bike_id":"9b25880f-a64a-416b-864b-54f865b4f13b","system_id":"levelo_inurba_marseille","lat":43.29295,"lon":5.37172,"is_reserved":false,"is_disabled":false,"rental_uris":{"android":"levelo://app?vid=9b25880f-a64a-416b-864b-54f865b4f13b","ios":"levelo://app?vid=9b25880f-a64a-416b-864b-54f865b4f13b"},"vehicle_type_id":"4","last_reported":1762798567,"current_range_meters":12800,"station_id":"ce4bgh92rcd13ifvqb40","pricing_plan_id":"cebpf4jnsgd1na2vs0mg"},{"bike_id":"9778b994-32b1-414b-b3d2-74abe2925ec7","system_id":"levelo_inurba_marseille","lat":43.31326,"lon":5.39713,"is_reserved":false,"is_disabled":false,"rental_uris":{"android":"levelo://app?vid=9778b994-32b1-414b-b3d2-74abe2925ec7","ios":"levelo://app?vid=9778b994-32b1-414b-b3d2-74abe2925ec7"},"vehicle_type_id":"4","last_reported":1762798567,"current_range_meters":12800,"station_id":"ce4bgvp2rcd13ifvqcu0","pricing_plan_id":"cebpf4jnsgd1na2vs0mg"},{"bike_id":"a2537e26-57f5-4e0f-91e8-ef22c9326e2c","system_id":"levelo_inurba_marseille","lat":43.2407,"lon":5.37761,"is_reserved":false,"is_disabled":false,"rental_uris":{"android":"levelo://app?vid=a2537e26-57f5-4e0f-91e8-ef22c9326e2c","ios":"levelo://app?vid=a2537e26-57f5-4e0f-91e8-ef22c9326e2c"},"vehicle_type_id":"4","last_reported":1762798567,"current_range_meters":13600,"station_id":"ce4bhnp2rcd13ifvqgvg","pricing_plan_id":"cebpf4jnsgd1na2vs0mg"},{"bike_id":"9aa78b4c-c167-448d-bf02-8fca82ba1811","system_id":"levelo_inurba_marseille","lat":43.25866,"lon":5.39897,"is_reserved":false,"is_disabled":false,"rental_uris":{"android":"levelo://app?vid=9aa78b4c-c167-448d-bf02-8fca82ba1811","ios":"levelo://app?vid=9aa78b4c-c167-448d-bf02-8fca82ba1811"},"vehicle_type_id":"4","last_reported":1762798567,"current_range_meters":13600,"station_id":"ce4bhl92rcd13ifvqghg","pricing_plan_id":"cebpf4jnsgd1na2vs0mg"},{"bike_id":"bcf5408e-c4f6-4fd1-ae43-fb8844e347c7","system_id":"levelo_inurba_marseille","lat":43.3021,"lon":5.39461,"is_reserved":false,"is_disabled":false,"rental_uris":{"android":"levelo://app?vid=bcf5408e-c4f6-4fd1-ae43-fb8844e347c7","ios":"levelo://app?vid=bcf5408e-c4f6-4fd1-ae43-fb8844e347c7"},"vehicle_type_id":"4","last_reported":1762798567,"current_range_meters":13600,"station_id":"ce4bh0p2rcd13ifvqd70","pricing_plan_id":"cebpf4jnsgd1na2vs0mg"},{"bike_id":"fdc5c319-74b9-4b2f-b19d-49b8ed1638e7","system_id":"levelo_inurba_marseille","lat":43.25578,"lon":5.38241,"is_reserved":false,"is_disabled":false,"rental_uris":{"android":"levelo://app?vid=fdc5c319-74b9-4b2f-b19d-49b8ed1638e7","ios":"levelo://app?vid=fdc5c319-74b9-4b2f-b19d-49b8ed1638e7"},"vehicle_type_id":"4","last_reported":1762798567,"current_range_meters":13600,"station_id":"ce4bhih2rcd13ifvqfs0","pricing_plan_id":"cebpf4jnsgd1na2vs0mg"},{"bike_id":"9c241647-20ac-4941-8d18-01a6e3add973","system_id":"levelo_inurba_marseille","lat":43.24534,"lon":5.39511,"is_reserved":false,"is_disabled":true,"rental_uris":{"android":"levelo://app?vid=9c241647-20ac-4941-8d18-01a6e3add973","ios":"levelo://app?vid=9c241647-20ac-4941-8d18-01a6e3add973"},"vehicle_type_id":"4","last_reported":1762798567,"current_range_meters":13600,"station_id":"ce4bhlp2rcd13ifvqgjg","pricing_plan_id":"cebpf4jnsgd1na2vs0mg"},{"bike_id":"a33005c1-f643-4adb-8bee-fa011c7be68c","system_id":"levelo_inurba_marseille","lat":43.22532,"lon":5.34831,"is_reserved":false,"is_disabled":false,"rental_uris":{"android":"levelo://app?vid=a33005c1-f643-4adb-8bee-fa011c7be68c","ios":"levelo://app?vid=a33005c1-f643-4adb-8bee-fa011c7be68c"},"vehicle_type_id":"4","last_reported":1762798567,"current_range_meters":13600,"station_id":"","pricing_plan_id":"cebpf4jnsgd1na2vs0mg"},{"bike_id":"fe53f30a-f235-4b9a-b297-6c4aedc17b2d","system_id":"levelo_inurba_marseille","lat":43.313707,"lon":5.38493,"is_reserved":false,"is_disabled":false,"rental_uris":{"android":"levelo://app?vid=fe53f30a-f235-4b9a-b297-6c4aedc17b2d","ios":"levelo://app?vid=fe53f30a-f235-4b9a-b297-6c4aedc17b2d"},"vehicle_type_id":"4","last_reported":1762798567,"current_range_meters":13600,"station_id":"ce4bgt92rcd13ifvqcf0","pricing_plan_id":"cebpf4jnsgd1na2vs0mg"},{"bike_id":"4ef56f27-b618-4191-843e-9c861890082c","system_id":"levelo_inurba_marseille","lat":43.28556,"lon":5.3924,"is_reserved":false,"is_disabled":true,"rental_uris":{"android":"levelo://app?vid=4ef56f27-b618-4191-843e-9c861890082c","ios":"levelo://app?vid=4ef56f27-b618-4191-843e-9c861890082c"},"vehicle_type_id":"4","last_reported":1762798567,"current_range_meters":13600,"station_id":"","pricing_plan_id":"cebpf4jnsgd1na2vs0mg"},{"bike_id":"6b68bf4e-3eeb-496e-b547-700ef9ff5b22","system_id":"levelo_inurba_marseille","lat":43.306393,"lon":5.400841,"is_reserved":false,"is_disabled":false,"rental_uris":{"android":"levelo://app?vid=6b68bf4e-3eeb-496e-b547-700ef9ff5b22","ios":"levelo://app?vid=6b68bf4e-3eeb-496e-b547-700ef9ff5b22"},"vehicle_type_id":"4","last_reported":1762798567,"current_range_meters":13600,"station_id":"","pricing_plan_id":"cebpf4jnsgd1na2vs0mg"},{"bike_id":"9be94b56-15ef-463f-ba7e-e63df6171cb1","system_id":"levelo_inurba_marseille","lat":43.2176,"lon":5.34607,"is_reserved":false,"is_disabled":false,"rental_uris":{"android":"levelo://app?vid=9be94b56-15ef-463f-ba7e-e63df6171cb1","ios":"levelo://app?vid=9be94b56-15ef-463f-ba7e-e63df6171cb1"},"vehicle_type_id":"4","last_reported":1762798567,"current_range_meters":13600,"station_id":"st_cvj6r9ubvosntc0bgbag","pricing_plan_id":"cebpf4jnsgd1na2vs0mg"},{"bike_id":"05c8049e-d3d8-43e4-b736-bb1ab1e9237e","system_id":"levelo_inurba_marseille","lat":43.29284,"lon":5.36844,"is_reserved":false,"is_disabled":false,"rental_uris":{"android":"levelo://app?vid=05c8049e-d3d8-43e4-b736-bb1ab1e9237e","ios":"levelo://app?vid=05c8049e-d3d8-43e4-b736-bb1ab1e9237e"},"vehicle_type_id":"4","last_reported":1762798567,"current_range_meters":14000,"station_id":"ce4bhbp2rcd13ifvqesg","pricing_plan_id":"cebpf4jnsgd1na2vs0mg"},{"bike_id":"f1994c4e-b71a-48c9-aecc-0698900d5f75","system_id":"levelo_inurba_marseille","lat":43.28936,"lon":5.39624,"is_reserved":false,"is_disabled":false,"rental_uris":{"android":"levelo://app?vid=f1994c4e-b71a-48c9-aecc-0698900d5f75","ios":"levelo://app?vid=f1994c4e-b71a-48c9-aecc-0698900d5f75"},"vehicle_type_id":"4","last_reported":1762798567,"current_range_meters":14000,"station_id":"ce4bh3h2rcd13ifvqdn0","pricing_plan_id":"cebpf4jnsgd1na2vs0mg"},{"bike_id":"b646a158-2a00-4a5f-b725-1c8e4c990367","system_id":"levelo_inurba_marseille","lat":43.28535,"lon":5.44097,"is_reserved":false,"is_disabled":false,"rental_uris":{"android":"levelo://app?vid=b646a158-2a00-4a5f-b725-1c8e4c990367","ios":"levelo://app?vid=b646a158-2a00-4a5f-b725-1c8e4c990367"},"vehicle_type_id":"4","last_reported":1762798567,"current_range_meters":14000,"station_id":"st_d3j3df2ikq2c7380ej80","pricing_plan_id":"cebpf4jnsgd1na2vs0mg"},{"bike_id":"b7589c36-c725-4ae0-a367-12f6a2c5f1ef","system_id":"levelo_inurba_marseille","lat":43.29829,"lon":5.44055,"is_reserved":false,"is_disabled":false,"rental_uris":{"android":"levelo://app?vid=b7589c36-c725-4ae0-a367-12f6a2c5f1ef","ios":"levelo://app?vid=b7589c36-c725-4ae0-a367-12f6a2c5f1ef"},"vehicle_type_id":"4","last_reported":1762798567,"current_range_meters":14000,"station_id":"st_d3jp68qikq2c7381ktn0","pricing_plan_id":"cebpf4jnsgd1na2vs0mg"},{"bike_id":"4ea057d8-cdf4-4fd2-9bd2-71d3e356f7e9","system_id":"levelo_inurba_marseille","lat":43.28406,"lon":5.37513,"is_reserved":false,"is_disabled":false,"rental_uris":{"android":"levelo://app?vid=4ea057d8-cdf4-4fd2-9bd2-71d3e356f7e9","ios":"levelo://app?vid=4ea057d8-cdf4-4fd2-9bd2-71d3e356f7e9"},"vehicle_type_id":"4","last_reported":1762798567,"current_range_meters":14000,"station_id":"ce4bh412rcd13ifvqds0","pricing_plan_id":"cebpf4jnsgd1na2vs0mg"},{"bike_id":"e3ca31e7-8c60-464d-95fd-3aad12a4aaf3","system_id":"levelo_inurba_marseille","lat":43.30962,"lon":5.38294,"is_reserved":false,"is_disabled":false,"rental_uris":{"android":"levelo://app?vid=e3ca31e7-8c60-464d-95fd-3aad12a4aaf3","ios":"levelo://app?vid=e3ca31e7-8c60-464d-95fd-3aad12a4aaf3"},"vehicle_type_id":"4","last_reported":1762798567,"current_range_meters":14000,"station_id":"","pricing_plan_id":"cebpf4jnsgd1na2vs0mg"},{"bike_id":"14ae8280-220d-4b5f-b74a-98c3bf5b5927","system_id":"levelo_inurba_marseille","lat":43.29609,"lon":5.37712,"is_reserved":false,"is_disabled":true,"rental_uris":{"android":"levelo://app?vid=14ae8280-220d-4b5f-b74a-98c3bf5b5927","ios":"levelo://app?vid=14ae8280-220d-4b5f-b74a-98c3bf5b5927"},"vehicle_type_id":"4","last_reported":1762798567,"current_range_meters":14000,"station_id":"ce4bgi92rcd13ifvqb90","pricing_plan_id":"cebpf4jnsgd1na2vs0mg"},{"bike_id":"ba38babd-441a-4f7a-a125-d770c7706ea7","system_id":"levelo_inurba_marseille","lat":43.23154,"lon":5.43701,"is_reserved":false,"is_disabled":false,"rental_uris":{"android":"levelo://app?vid=ba38babd-441a-4f7a-a125-d770c7706ea7","ios":"levelo://app?vid=ba38babd-441a-4f7a-a125-d770c7706ea7"},"vehicle_type_id":"4","last_reported":1762798567,"current_range_meters":14000,"station_id":"ce4bhmp2rcd13ifvqgog","pricing_plan_id":"cebpf4jnsgd1na2vs0mg"},{"bike_id":"1086c95b-b74f-4e99-9e15-ae33be8101e5","system_id":"levelo_inurba_marseille","lat":43.30142,"lon":5.37632,"is_reserved":false,"is_disabled":false,"rental_uris":{"android":"levelo://app?vid=1086c95b-b74f-4e99-9e15-ae33be8101e5","ios":"levelo://app?vid=1086c95b-b74f-4e99-9e15-ae33be8101e5"},"vehicle_type_id":"4","last_reported":1762798567,"current_range_meters":14000,"station_id":"","pricing_plan_id":"cebpf4jnsgd1na2vs0mg"},{"bike_id":"df71f488-9f79-4ae2-ad49-0f0aa9704986","system_id":"levelo_inurba_marseille","lat":43.28864,"lon":5.42523,"is_reserved":false,"is_disabled":false,"rental_uris":{"android":"levelo://app?vid=df71f488-9f79-4ae2-ad49-0f0aa9704986","ios":"levelo://app?vid=df71f488-9f79-4ae2-ad49-0f0aa9704986"},"vehicle_type_id":"4","last_reported":1762798567,"current_range_meters":14000,"station_id":"st_d3b462108ojc7389ooeg","pricing_plan_id":"cebpf4jnsgd1na2vs0mg"},{"bike_id":"b46c21d9-a9de-417f-9f21-d8d43c437078","system_id":"levelo_inurba_marseille","lat":43.28938,"lon":5.38389,"is_reserved":false,"is_disabled":false,"rental_uris":{"android":"levelo://app?vid=b46c21d9-a9de-417f-9f21-d8d43c437078","ios":"levelo://app?vid=b46c21d9-a9de-417f-9f21-d8d43c437078"},"vehicle_type_id":"4","last_reported":1762798567,"current_range_meters":14000,"station_id":"ce4bh612rcd13ifvqe6g","pricing_plan_id":"cebpf4jnsgd1na2vs0mg"},{"bike_id":"e658c31f-efb8-43b8-9aeb-c4d8263d6e55","system_id":"levelo_inurba_marseille","lat":43.25834,"lon":5.39438,"is_reserved":false,"is_disabled":false,"rental_uris":{"android":"levelo://app?vid=e658c31f-efb8-43b8-9aeb-c4d8263d6e55","ios":"levelo://app?vid=e658c31f-efb8-43b8-9aeb-c4d8263d6e55"},"vehicle_type_id":"4","last_reported":1762798567,"current_range_meters":14400,"station_id":"ce4bhip2rcd13ifvqft0","pricing_plan_id":"cebpf4jnsgd1na2vs0mg"},{"bike_id":"d8ac40a1-5305-4a73-abea-59e9144e8033","system_id":"levelo_inurba_marseille","lat":43.24164,"lon":5.36393,"is_reserved":false,"is_disabled":false,"rental_uris":{"android":"levelo://app?vid=d8ac40a1-5305-4a73-abea-59e9144e8033","ios":"levelo://app?vid=d8ac40a1-5305-4a73-abea-59e9144e8033"},"vehicle_type_id":"4","last_reported":1762798567,"current_range_meters":14400,"station_id":"cpo36qri1sfpv3e86is0","pricing_plan_id":"cebpf4jnsgd1na2vs0mg"},{"bike_id":"38f3c8b6-1f4a-425c-ad9a-d815af469478","system_id":"levelo_inurba_marseille","lat":43.29197,"lon":5.39326,"is_reserved":false,"is_disabled":false,"rental_uris":{"android":"levelo://app?vid=38f3c8b6-1f4a-425c-ad9a-d815af469478","ios":"levelo://app?vid=38f3c8b6-1f4a-425c-ad9a-d815af469478"},"vehicle_type_id":"4","last_reported":1762798567,"current_range_meters":14400,"station_id":"ce4bh192rcd13ifvqdd0","pricing_plan_id":"cebpf4jnsgd1na2vs0mg"},{"bike_id":"90384ade-e727-4e54-a4ec-022976eb2f81","system_id":"levelo_inurba_marseille","lat":43.286621,"lon":5.386746,"is_reserved":false,"is_disabled":false,"rental_uris":{"android":"levelo://app?vid=90384ade-e727-4e54-a4ec-022976eb2f81","ios":"levelo://app?vid=90384ade-e727-4e54-a4ec-022976eb2f81"},"vehicle_type_id":"4","last_reported":1762798567,"current_range_meters":14400,"station_id":"ce4bh492rcd13ifvqdug","pricing_plan_id":"cebpf4jnsgd1na2vs0mg"},{"bike_id":"65621f2d-8d47-4cb2-bceb-f933e891cb8e","system_id":"levelo_inurba_marseille","lat":43.28565,"lon":5.39506,"is_reserved":false,"is_disabled":false,"rental_uris":{"android":"levelo://app?vid=65621f2d-8d47-4cb2-bceb-f933e891cb8e","ios":"levelo://app?vid=65621f2d-8d47-4cb2-bceb-f933e891cb8e"},"vehicle_type_id":"4","last_reported":1762798567,"current_range_meters":14400,"station_id":"ce4bh292rcd13ifvqdg0","pricing_plan_id":"cebpf4jnsgd1na2vs0mg"},{"bike_id":"7ec549b6-877e-45b3-bca6-df5b4499d4e3","system_id":"levelo_inurba_marseille","lat":43.26944,"lon":5.40247,"is_reserved":false,"is_disabled":false,"rental_uris":{"android":"levelo://app?vid=7ec549b6-877e-45b3-bca6-df5b4499d4e3","ios":"levelo://app?vid=7ec549b6-877e-45b3-bca6-df5b4499d4e3"},"vehicle_type_id":"4","last_reported":1762798567,"current_range_meters":14800,"station_id":"cjm6bp8fraef2m0cb0m0","pricing_plan_id":"cebpf4jnsgd1na2vs0mg"},{"bike_id":"56524561-b83d-41ee-a377-d256fbea9f71","system_id":"levelo_inurba_marseille","lat":43.307861,"lon":5.376328,"is_reserved":false,"is_disabled":false,"rental_uris":{"android":"levelo://app?vid=56524561-b83d-41ee-a377-d256fbea9f71","ios":"levelo://app?vid=56524561-b83d-41ee-a377-d256fbea9f71"},"vehicle_type_id":"4","last_reported":1762798567,"current_range_meters":14800,"station_id":"ce4bgv92rcd13ifvqcq0","pricing_plan_id":"cebpf4jnsgd1na2vs0mg"},{"bike_id":"c88172e6-9ca8-4917-9fec-dae0082b9849","system_id":"levelo_inurba_marseille","lat":43.23056,"lon":5.35493,"is_reserved":false,"is_disabled":false,"rental_uris":{"android":"levelo://app?vid=c88172e6-9ca8-4917-9fec-dae0082b9849","ios":"levelo://app?vid=c88172e6-9ca8-4917-9fec-dae0082b9849"},"vehicle_type_id":"4","last_reported":1762798567,"current_range_meters":14800,"station_id":"cpo3342slgdg3j2ifvpg","pricing_plan_id":"cebpf4jnsgd1na2vs0mg"},{"bike_id":"dd34ae66-5af5-474c-a50c-29142630c4e6","system_id":"levelo_inurba_marseille","lat":43.31247,"lon":5.36859,"is_reserved":false,"is_disabled":false,"rental_uris":{"android":"levelo://app?vid=dd34ae66-5af5-474c-a50c-29142630c4e6","ios":"levelo://app?vid=dd34ae66-5af5-474c-a50c-29142630c4e6"},"vehicle_type_id":"4","last_reported":1762798567,"current_range_meters":14800,"station_id":"ce4bgl92rcd13ifvqbq0","pricing_plan_id":"cebpf4jnsgd1na2vs0mg"},{"bike_id":"78006995-fd28-427a-964b-6d85cdb2fa5e","system_id":"levelo_inurba_marseille","lat":43.30459,"lon":5.37893,"is_reserved":false,"is_disabled":false,"rental_uris":{"android":"levelo://app?vid=78006995-fd28-427a-964b-6d85cdb2fa5e","ios":"levelo://app?vid=78006995-fd28-427a-964b-6d85cdb2fa5e"},"vehicle_type_id":"4","last_reported":1762798567,"current_range_meters":14800,"station_id":"ce4bgup2rcd13ifvqcn0","pricing_plan_id":"cebpf4jnsgd1na2vs0mg"},{"bike_id":"be86220c-6cab-43c0-bc05-fd5e693109a4","system_id":"levelo_inurba_marseille","lat":43.295312,"lon":5.385407,"is_reserved":false,"is_disabled":false,"rental_uris":{"android":"levelo://app?vid=be86220c-6cab-43c0-bc05-fd5e693109a4","ios":"levelo://app?vid=be86220c-6cab-43c0-bc05-fd5e693109a4"},"vehicle_type_id":"4","last_reported":1762798567,"current_range_meters":14800,"station_id":"ce4bgih2rcd13ifvqba0","pricing_plan_id":"cebpf4jnsgd1na2vs0mg"},{"bike_id":"966cd67d-a20f-4e99-9777-a74de48408c0","system_id":"levelo_inurba_marseille","lat":43.27813,"lon":5.40709,"is_reserved":false,"is_disabled":false,"rental_uris":{"android":"levelo://app?vid=966cd67d-a20f-4e99-9777-a74de48408c0","ios":"levelo://app?vid=966cd67d-a20f-4e99-9777-a74de48408c0"},"vehicle_type_id":"4","last_reported":1762798567,"current_range_meters":14800,"station_id":"ce4bhnh2rcd13ifvqgtg","pricing_plan_id":"cebpf4jnsgd1na2vs0mg"},{"bike_id":"c86a1f65-076d-4163-a38c-7c827ae3b5be","system_id":"levelo_inurba_marseille","lat":43.241601,"lon":5.396892,"is_reserved":false,"is_disabled":false,"rental_uris":{"android":"levelo://app?vid=c86a1f65-076d-4163-a38c-7c827ae3b5be","ios":"levelo://app?vid=c86a1f65-076d-4163-a38c-7c827ae3b5be"},"vehicle_type_id":"4","last_reported":1762798567,"current_range_meters":14800,"station_id":"ce4bhn12rcd13ifvqgpg","pricing_plan_id":"cebpf4jnsgd1na2vs0mg"},{"bike_id":"50bd906f-f66c-4773-8e69-65d41802e55d","system_id":"levelo_inurba_marseille","lat":43.22533,"lon":5.34834,"is_reserved":false,"is_disabled":false,"rental_uris":{"android":"levelo://app?vid=50bd906f-f66c-4773-8e69-65d41802e55d","ios":"levelo://app?vid=50bd906f-f66c-4773-8e69-65d41802e55d"},"vehicle_type_id":"4","last_reported":1762798567,"current_range_meters":15200,"station_id":"","pricing_plan_id":"cebpf4jnsgd1na2vs0mg"},{"bike_id":"4b68d13f-f5d9-4b23-871f-a9d0ced8871b","system_id":"levelo_inurba_marseille","lat":43.31294,"lon":5.37786,"is_reserved":false,"is_disabled":false,"rental_uris":{"android":"levelo://app?vid=4b68d13f-f5d9-4b23-871f-a9d0ced8871b","ios":"levelo://app?vid=4b68d13f-f5d9-4b23-871f-a9d0ced8871b"},"vehicle_type_id":"4","last_reported":1762798567,"current_range_meters":15200,"station_id":"","pricing_plan_id":"cebpf4jnsgd1na2vs0mg"},{"bike_id":"3bf1b054-e542-4775-bd0d-b48506e95b2e","system_id":"levelo_inurba_marseille","lat":43.309162,"lon":5.372049,"is_reserved":false,"is_disabled":false,"rental_uris":{"android":"levelo://app?vid=3bf1b054-e542-4775-bd0d-b48506e95b2e","ios":"levelo://app?vid=3bf1b054-e542-4775-bd0d-b48506e95b2e"},"vehicle_type_id":"4","last_reported":1762798567,"current_range_meters":15200,"station_id":"ce4bguh2rcd13ifvqckg","pricing_plan_id":"cebpf4jnsgd1na2vs0mg"},{"bike_id":"cef0a5f6-8125-45a4-a1a5-9b4b0892b4d8","system_id":"levelo_inurba_marseille","lat":43.299935,"lon":5.365626,"is_reserved":false,"is_disabled":false,"rental_uris":{"android":"levelo://app?vid=cef0a5f6-8125-45a4-a1a5-9b4b0892b4d8","ios":"levelo://app?vid=cef0a5f6-8125-45a4-a1a5-9b4b0892b4d8"},"vehicle_type_id":"4","last_reported":1762798567,"current_range_meters":15200,"station_id":"ce4bgm92rcd13ifvqbr0","pricing_plan_id":"cebpf4jnsgd1na2vs0mg"},{"bike_id":"61dce50e-6510-4945-af49-a43ad9d82ef9","system_id":"levelo_inurba_marseille","lat":43.291962,"lon":5.393301,"is_reserved":false,"is_disabled":false,"rental_uris":{"android":"levelo://app?vid=61dce50e-6510-4945-af49-a43ad9d82ef9","ios":"levelo://app?vid=61dce50e-6510-4945-af49-a43ad9d82ef9"},"vehicle_type_id":"4","last_reported":1762798567,"current_range_meters":15200,"station_id":"","pricing_plan_id":"cebpf4jnsgd1na2vs0mg"},{"bike_id":"99d9d76d-d94f-48e3-abc3-f50dd41e3269","system_id":"levelo_inurba_marseille","lat":43.31138,"lon":5.38334,"is_reserved":false,"is_disabled":false,"rental_uris":{"android":"levelo://app?vid=99d9d76d-d94f-48e3-abc3-f50dd41e3269","ios":"levelo://app?vid=99d9d76d-d94f-48e3-abc3-f50dd41e3269"},"vehicle_type_id":"4","last_reported":1762798567,"current_range_meters":15200,"station_id":"","pricing_plan_id":"cebpf4jnsgd1na2vs0mg"},{"bike_id":"2b7edc08-0c8a-4a17-ac23-668fe91ffd83","system_id":"levelo_inurba_marseille","lat":43.297977,"lon":5.413906,"is_reserved":false,"is_disabled":false,"rental_uris":{"android":"levelo://app?vid=2b7edc08-0c8a-4a17-ac23-668fe91ffd83","ios":"levelo://app?vid=2b7edc08-0c8a-4a17-ac23-668fe91ffd83"},"vehicle_type_id":"4","last_reported":1762798567,"current_range_meters":15200,"station_id":"ce4bhp12rcd13ifvqh9g","pricing_plan_id":"cebpf4jnsgd1na2vs0mg"},{"bike_id":"73d7500b-484a-4fdd-95bf-421556344f24","system_id":"levelo_inurba_marseille","lat":43.29792,"lon":5.39353,"is_reserved":false,"is_disabled":false,"rental_uris":{"android":"levelo://app?vid=73d7500b-484a-4fdd-95bf-421556344f24","ios":"levelo://app?vid=73d7500b-484a-4fdd-95bf-421556344f24"},"vehicle_type_id":"4","last_reported":1762798567,"current_range_meters":15200,"station_id":"chh1huq6cuj3fo74tm60","pricing_plan_id":"cebpf4jnsgd1na2vs0mg"},