{"last_updated":1729714251,"ttl":60,"version":"2.2","data":{"bikes":[{"bike_id":"110f1db6-ca70-41be-a751-07cccf1503d0","system_id":"levelo_inurba_marseille","lat":43.27623,"lon":5.36107,"is_reserved":false,"is_disabled":false,"rental_uris":{"android":"levelo://app?vid=110f1db6-ca70-41be-a751-07cccf1503d0","ios":"levelo://app?vid=110f1db6-ca70-41be-a751-07cccf1503d0"},"vehicle_type_id":"4","last_reported":1729714251,"current_range_meters":7200,"station_id":"ce4bgj92rcd13ifvqbe0","pricing_plan_id":"cebpf4jnsgd1na2vs0mg"},{"bike_id":"5f4c504f-64d7-447b-9c63-fa627168ec7b","system_id":"levelo_inurba_marseille","lat":43.28453,"lon":5.3589,"is_reserved":false,"is_disabled":false,"rental_uris":{"android":"levelo://app?vid=5f4c504f-64d7-447b-9c63-fa627168ec7b","ios":"levelo://app?vid=5f4c504f-64d7-447b-9c63-fa627168ec7b"},"vehicle_type_id":"4","last_reported":1729714251,"current_range_meters":31200,"station_id":"ce4bhah2rcd13ifvqei0","pricing_plan_id":"cebpf4jnsgd1na2vs0mg"},{"bike_id":"a6e10b48-b0ab-459c-9552-1ec94b59e851","system_id":"levelo_inurba_marseille","lat":43.30906,"lon":5.36839,"is_reserved":false,"is_disabled":false,"rental_uris":{"android":"levelo://app?vid=a6e10b48-b0ab-459c-9552-1ec94b59e851","ios":"levelo://app?vid=a6e10b48-b0ab-459c-9552-1ec94b59e851"},"vehicle_type_id":"4","last_reported":1729714251,"current_range_meters":24400,"station_id":"ce4bgn92rcd13ifvqbvg","pricing_plan_id":"cebpf4jnsgd1na2vs0mg"},{"bike_id":"7080c729-8bf7-4791-a2ed-07431ab6dd9b","system_id":"levelo_inurba_marseille","lat":43.241838,"lon":5.397059,"is_reserved":false,"is_disabled":false,"rental_uris":{"android":"levelo://app?vid=7080c729-8bf7-4791-a2ed-07431ab6dd9b","ios":"levelo://app?vid=7080c729-8bf7-4791-a2ed-07431ab6dd9b"},"vehicle_type_id":"4","last_reported":1729714251,"current_range_meters":6800,"station_id":"ce4bhn12rcd13ifvqgpg","pricing_plan_id":"cebpf4jnsgd1na2vs0mg"},{"bike_id":"29dbbd58-32dd-4596-89c0-8a4dbbca6f57","system_id":"levelo_inurba_marseille","lat":43.27172,"lon":5.40992,"is_reserved":false,"is_disabled":false,"rental_uris":{"android":"levelo://app?vid=29dbbd58-32dd-4596-89c0-8a4dbbca6f57","ios":"levelo://app?vid=29dbbd58-32dd-4596-89c0-8a4dbbca6f57"},"vehicle_type_id":"4","last_reported":1729714251,"current_range_meters":11200,"station_id":"ce4bhl12rcd13ifvqgf0","pricing_plan_id":"cebpf4jnsgd1na2vs0mg"},{"bike_id":"70409650-4ad0-4e4a-b7bb-e1f23b433dec","system_id":"levelo_inurba_marseille","lat":43.28852,"lon":5.39313,"is_reserved":false,"is_disabled":false,"rental_uris":{"android":"levelo://app?vid=70409650-4ad0-4e4a-b7bb-e1f23b433dec","ios":"levelo://app?vid=70409650-4ad0-4e4a-b7bb-e1f23b433dec"},"vehicle_type_id":"4","last_reported":1729714251,"current_range_meters":38000,"station_id":"ce4bh2p2rcd13ifvqdi0","pricing_plan_id":"cebpf4jnsgd1na2vs0mg"},{"bike_id":"ad149999-cdab-442e-abeb-f4ceecd45694","system_id":"levelo_inurba_marseille","lat":43.30929,"lon":5.40148,"is_reserved":false,"is_disabled":false,"rental_uris":{"android":"levelo://app?vid=ad149999-cdab-442e-abeb-f4ceecd45694","ios":"levelo://app?vid=ad149999-cdab-442e-abeb-f4ceecd45694"},"vehicle_type_id":"4","last_reported":1729714251,"current_range_meters":24000,"station_id":"ce4bgvp2rcd13ifvqct0","pricing_plan_id":"cebpf4jnsgd1na2vs0mg"},{"bike_id":"a79f1cea-7a6e-4255-b863-51df698c594f","system_id":"levelo_inurba_marseille","lat":43.29934,"lon":5.36539,"is_reserved":false,"is_disabled":false,"rental_uris":{"android":"levelo://app?vid=a79f1cea-7a6e-4255-b863-51df698c594f","ios":"levelo://app?vid=a79f1cea-7a6e-4255-b863-51df698c594f"},"vehicle_type_id":"4","last_reported":1729714251,"current_range_meters":31200,"station_id":"ce4bgm92rcd13ifvqbr0","pricing_plan_id":"cebpf4jnsgd1na2vs0mg"},{"bike_id":"438e2e5b-05a2-48cc-9635-59f37e741a33","system_id":"levelo_inurba_marseille","lat":43.30322,"lon":5.40442,"is_reserved":false,"is_disabled":false,"rental_uris":{"android":"levelo://app?vid=438e2e5b-05a2-48cc-9635-59f37e741a33","ios":"levelo://app?vid=438e2e5b-05a2-48cc-9635-59f37e741a33"},"vehicle_type_id":"4","last_reported":1729714251,"current_range_meters":38800,"station_id":"ce4bh012rcd13ifvqd10","pricing_plan_id":"cebpf4jnsgd1na2vs0mg"},{"bike_id":"f3627118-00df-448f-8d07-8fab2bb5e901","system_id":"levelo_inurba_marseille","lat":43.29421,"lon":5.38608,"is_reserved":false,"is_disabled":false,"rental_uris":{"android":"levelo://app?vid=f3627118-00df-448f-8d07-8fab2bb5e901","ios":"levelo://app?vid=f3627118-00df-448f-8d07-8fab2bb5e901"},"vehicle_type_id":"4","last_reported":1729714251,"current_range_meters":8000,"station_id":"ce4bh2h2rcd13ifvqdh0","pricing_plan_id":"cebpf4jnsgd1na2vs0mg"},{"bike_id":"cc4ce320-90a0-40d9-b33e-86c535a59325","system_id":"levelo_inurba_marseille","lat":43.29421,"lon":5.3862,"is_reserved":false,"is_disabled":false,"rental_uris":{"android":"levelo://app?vid=cc4ce320-90a0-40d9-b33e-86c535a59325","ios":"levelo://app?vid=cc4ce320-90a0-40d9-b33e-86c535a59325"},"vehicle_type_id":"4","last_reported":1729714251,"current_range_meters":1600,"station_id":"ce4bh2h2rcd13ifvqdh0","pricing_plan_id":"cebpf4jnsgd1na2vs0mg"},{"bike_id":"b07dab3b-aa37-4e88-b573-adf76d0919b5","system_id":"levelo_inurba_marseille","lat":43.29415,"lon":5.38627,"is_reserved":false,"is_disabled":false,"rental_uris":{"android":"levelo://app?vid=b07dab3b-aa37-4e88-b573-adf76d0919b5","ios":"levelo://app?vid=b07dab3b-aa37-4e88-b573-adf76d0919b5"},"vehicle_type_id":"4","last_reported":1729714251,"current_range_meters":30800,"station_id":"ce4bh2h2rcd13ifvqdh0","pricing_plan_id":"cebpf4jnsgd1na2vs0mg"},{"bike_id":"4eb2585b-e0a0-4fa6-b510-c5248c4af062","system_id":"levelo_inurba_marseille","lat":43.29867,"lon":5.39736,"is_reserved":false,"is_disabled":false,"rental_uris":{"android":"levelo://app?vid=4eb2585b-e0a0-4fa6-b510-c5248c4af062","ios":"levelo://app?vid=4eb2585b-e0a0-4fa6-b510-c5248c4af062"},"vehicle_type_id":"4","last_reported":1729714251,"current_range_meters":39200,"station_id":"ce4bh0h2rcd13ifvqd50","pricing_plan_id":"cebpf4jnsgd1na2vs0mg"},{"bike_id":"8fe5ab61-a0f3-4f2f-aa4e-06ffc441e2d1","system_id":"levelo_inurba_marseille","lat":43.29249,"lon":5.38436,"is_reserved":false,"is_disabled":false,"rental_uris":{"android":"levelo://app?vid=8fe5ab61-a0f3-4f2f-aa4e-06ffc441e2d1","ios":"levelo://app?vid=8fe5ab61-a0f3-4f2f-aa4e-06ffc441e2d1"},"vehicle_type_id":"4","last_reported":1729714251,"current_range_meters":22800,"station_id":"ce4bh692rcd13ifvqea0","pricing_plan_id":"cebpf4jnsgd1na2vs0mg"},{"bike_id":"a93517ff-5a1d-4565-bd61-fa3438f9dc6e","system_id":"levelo_inurba_marseille","lat":43.30889,"lon":5.39637,"is_reserved":false,"is_disabled":false,"rental_uris":{"android":"levelo://app?vid=a93517ff-5a1d-4565-bd61-fa3438f9dc6e","ios":"levelo://app?vid=a93517ff-5a1d-4565-bd61-fa3438f9dc6e"},"vehicle_type_id":"4","last_reported":1729714251,"current_range_meters":4800,"station_id":"ce4bh012rcd13ifvqcv0","pricing_plan_id":"cebpf4jnsgd1na2vs0mg"},{"bike_id":"199372c2-2ba7-4d47-92c5-5d4a158471df","system_id":"levelo_inurba_marseille","lat":43.29037,"lon":5.38651,"is_reserved":false,"is_disabled":false,"rental_uris":{"android":"levelo://app?vid=199372c2-2ba7-4d47-92c5-5d4a158471df","ios":"levelo://app?vid=199372c2-2ba7-4d47-92c5-5d4a158471df"},"vehicle_type_id":"4","last_reported":1729714251,"current_range_meters":36400,"station_id":"ce4bh4p2rcd13ifvqe0g","pricing_plan_id":"cebpf4jnsgd1na2vs0mg"},{"bike_id":"694679e3-89bc-474b-88d4-72f2607e9aa9","system_id":"levelo_inurba_marseille","lat":43.27816,"lon":5.40721,"is_reserved":false,"is_disabled":false,"rental_uris":{"android":"levelo://app?vid=694679e3-89bc-474b-88d4-72f2607e9aa9","ios":"levelo://app?vid=694679e3-89bc-474b-88d4-72f2607e9aa9"},"vehicle_type_id":"4","last_reported":1729714251,"current_range_meters":8400,"station_id":"ce4bhnh2rcd13ifvqgtg","pricing_plan_id":"cebpf4jnsgd1na2vs0mg"},{"bike_id":"96d9c6e2-3bd3-40a6-a7a9-2e98f34ba304","system_id":"levelo_inurba_marseille","lat":43.24167,"lon":5.36394,"is_reserved":false,"is_disabled":false,"rental_uris":{"android":"levelo://app?vid=96d9c6e2-3bd3-40a6-a7a9-2e98f34ba304","ios":"levelo://app?vid=96d9c6e2-3bd3-40a6-a7a9-2e98f34ba304"},"vehicle_type_id":"4","last_reported":1729714251,"current_range_meters":21600,"station_id":"cpo36qri1sfpv3e86is0","pricing_plan_id":"cebpf4jnsgd1na2vs0mg"},{"bike_id":"83485a0f-6ee6-4a6d-9954-f9d80337e8ac","system_id":"levelo_inurba_marseille","lat":43.24996,"lon":5.38932,"is_reserved":false,"is_disabled":false,"rental_uris":{"android":"levelo://app?vid=83485a0f-6ee6-4a6d-9954-f9d80337e8ac","ios":"levelo://app?vid=83485a0f-6ee6-4a6d-9954-f9d80337e8ac"},"vehicle_type_id":"4","last_reported":1729714251,"current_range_meters":16400,"station_id":"ce4bhgp2rcd13ifvqfd0","pricing_plan_id":"cebpf4jnsgd1na2vs0mg"},{"bike_id":"6c78f008-789a-41bb-adec-7046a1333923","system_id":"levelo_inurba_marseille","lat":43.29249,"lon":5.40907,"is_reserved":false,"is_disabled":false,"rental_uris":{"android":"levelo://app?vid=6c78f008-789a-41bb-adec-7046a1333923","ios":"levelo://app?vid=6c78f008-789a-41bb-adec-7046a1333923"},"vehicle_type_id":"4","last_reported":1729714251,"current_range_meters":27600,"station_id":"ce4bh192rcd13ifvqdc0","pricing_plan_id":"cebpf4jnsgd1na2vs0mg"},{"bike_id":"03eae2c3-efe5-4a6b-bca9-f34bda4350de","system_id":"levelo_inurba_marseille","lat":43.24807,"lon":5.37457,"is_reserved":false,"is_disabled":false,"rental_uris":{"android":"levelo://app?vid=03eae2c3-efe5-4a6b-bca9-f34bda4350de","ios":"levelo://app?vid=03eae2c3-efe5-4a6b-bca9-f34bda4350de"},"vehicle_type_id":"4","last_reported":1729714251,"current_range_meters":19200,"station_id":"ce4bhgh2rcd13ifvqfb0","pricing_plan_id":"cebpf4jnsgd1na2vs0mg"},{"bike_id":"c01c1194-ac53-462e-9347-ce12b16cd22d","system_id":"levelo_inurba_marseille","lat":43.29421,"lon":5.38613,"is_reserved":false,"is_disabled":false,"rental_uris":{"android":"levelo://app?vid=c01c1194-ac53-462e-9347-ce12b16cd22d","ios":"levelo://app?vid=c01c1194-ac53-462e-9347-ce12b16cd22d"},"vehicle_type_id":"4","last_reported":1729714251,"current_range_meters":10800,"station_id":"ce4bh2h2rcd13ifvqdh0","pricing_plan_id":"cebpf4jnsgd1na2vs0mg"},{"bike_id":"70b7d53d-e84b-4a3a-9453-3462eb744430","system_id":"levelo_inurba_marseille","lat":43.30329,"lon":5.40434,"is_reserved":false,"is_disabled":false,"rental_uris":{"android":"levelo://app?vid=70b7d53d-e84b-4a3a-9453-3462eb744430","ios":"levelo://app?vid=70b7d53d-e84b-4a3a-9453-3462eb744430"},"vehicle_type_id":"4","last_reported":1729714251,"current_range_meters":30400,"station_id":"ce4bh012rcd13ifvqd10","pricing_plan_id":"cebpf4jnsgd1na2vs0mg"},{"bike_id":"6abf3a03-af67-4859-8e11-a67b93278e15","system_id":"levelo_inurba_marseille","lat":43.31996,"lon":5.3817,"is_reserved":false,"is_disabled":false,"rental_uris":{"android":"levelo://app?vid=6abf3a03-af67-4859-8e11-a67b93278e15","ios":"levelo://app?vid=6abf3a03-af67-4859-8e11-a67b93278e15"},"vehicle_type_id":"4","last_reported":1729714251,"current_range_meters":9200,"station_id":"ce4bhr12rcd13ifvqhpg","pricing_plan_id":"cebpf4jnsgd1na2vs0mg"},{"bike_id":"03dd22fb-5c79-41d9-9a45-aa97b9b6fd1f","system_id":"levelo_inurba_marseille","lat":43.28462,"lon":5.35879,"is_reserved":false,"is_disabled":false,"rental_uris":{"android":"levelo://app?vid=03dd22fb-5c79-41d9-9a45-aa97b9b6fd1f","ios":"levelo://app?vid=03dd22fb-5c79-41d9-9a45-aa97b9b6fd1f"},"vehicle_type_id":"4","last_reported":1729714251,"current_range_meters":38800,"station_id":"ce4bhah2rcd13ifvqei0","pricing_plan_id":"cebpf4jnsgd1na2vs0mg"},{"bike_id":"7feef174-7f21-4b1b-8196-65756f073ed8","system_id":"levelo_inurba_marseille","lat":43.295289,"lon":5.385501,"is_reserved":false,"is_disabled":false,"rental_uris":{"android":"levelo://app?vid=7feef174-7f21-4b1b-8196-65756f073ed8","ios":"levelo://app?vid=7feef174-7f21-4b1b-8196-65756f073ed8"},"vehicle_type_id":"4","last_reported":1729714251,"current_range_meters":16000,"station_id":"ce4bgih2rcd13ifvqba0","pricing_plan_id":"cebpf4jnsgd1na2vs0mg"},{"bike_id":"cea9d1db-f57d-46d9-b5ea-3e72aa1fb49e","system_id":"levelo_inurba_marseille","lat":43.28455,"lon":5.35892,"is_reserved":false,"is_disabled":false,"rental_uris":{"android":"levelo://app?vid=cea9d1db-f57d-46d9-b5ea-3e72aa1fb49e","ios":"levelo://app?vid=cea9d1db-f57d-46d9-b5ea-3e72aa1fb49e"},"vehicle_type_id":"4","last_reported":1729714251,"current_range_meters":16000,"station_id":"ce4bhah2rcd13ifvqei0","pricing_plan_id":"cebpf4jnsgd1na2vs0mg"},{"bike_id":"170dcf05-9480-43d9-be61-a3f4ba5cd562","system_id":"levelo_inurba_marseille","lat":43.30896,"lon":5.37181,"is_reserved":false,"is_disabled":false,"rental_uris":{"android":"levelo://app?vid=170dcf05-9480-43d9-be61-a3f4ba5cd562","ios":"levelo://app?vid=170dcf05-9480-43d9-be61-a3f4ba5cd562"},"vehicle_type_id":"4","last_reported":1729714251,"current_range_meters":29600,"station_id":"ce4bguh2rcd13ifvqckg","pricing_plan_id":"cebpf4jnsgd1na2vs0mg"},{"bike_id":"36ec8878-8122-4313-9a7f-14a8878dc458","system_id":"levelo_inurba_marseille","lat":43.33737,"lon":5.37458,"is_reserved":false,"is_disabled":false,"rental_uris":{"android":"levelo://app?vid=36ec8878-8122-4313-9a7f-14a8878dc458","ios":"levelo://app?vid=36ec8878-8122-4313-9a7f-14a8878dc458"},"vehicle_type_id":"4","last_reported":1729714251,"current_range_meters":28000,"station_id":"","pricing_plan_id":"cebpf4jnsgd1na2vs0mg"},{"bike_id":"f49dd209-a145-4523-a73a-a3b0395351b7","system_id":"levelo_inurba_marseille","lat":43.29603,"lon":5.38101,"is_reserved":false,"is_disabled":false,"rental_uris":{"android":"levelo://app?vid=f49dd209-a145-4523-a73a-a3b0395351b7","ios":"levelo://app?vid=f49dd209-a145-4523-a73a-a3b0395351b7"},"vehicle_type_id":"4","last_reported":1729714251,"current_range_meters":38800,"station_id":"ce4bgl12rcd13ifvqbo0","pricing_plan_id":"cebpf4jnsgd1na2vs0mg"},{"bike_id":"ef18ddfc-ac0b-4033-aa37-567f068ea45f","system_id":"levelo_inurba_marseille","lat":43.25581,"lon":5.38225,"is_reserved":false,"is_disabled":false,"rental_uris":{"android":"levelo://app?vid=ef18ddfc-ac0b-4033-aa37-567f068ea45f","ios":"levelo://app?vid=ef18ddfc-ac0b-4033-aa37-567f068ea45f"},"vehicle_type_id":"4","last_reported":1729714251,"current_range_meters":30800,"station_id":"ce4bhih2rcd13ifvqfs0","pricing_plan_id":"cebpf4jnsgd1na2vs0mg"},{"bike_id":"0579dd22-0eb8-44db-9f4f-c442859c98c5","system_id":"levelo_inurba_marseille","lat":43.30428,"lon":5.39746,"is_reserved":false,"is_disabled":false,"rental_uris":{"android":"levelo://app?vid=0579dd22-0eb8-44db-9f4f-c442859c98c5","ios":"levelo://app?vid=0579dd22-0eb8-44db-9f4f-c442859c98c5"},"vehicle_type_id":"4","last_reported":1729714251,"current_range_meters":32000,"station_id":"ce4bh092rcd13ifvqd20","pricing_plan_id":"cebpf4jnsgd1na2vs0mg"},{"bike_id":"dde139f2-b139-4ae9-8090-676609dd739d","system_id":"levelo_inurba_marseille","lat":43.24543,"lon":5.39525,"is_reserved":false,"is_disabled":false,"rental_uris":{"android":"levelo://app?vid=dde139f2-b139-4ae9-8090-676609dd739d","ios":"levelo://app?vid=dde139f2-b139-4ae9-8090-676609dd739d"},"vehicle_type_id":"4","last_reported":1729714251,"current_range_meters":32000,"station_id":"ce4bhlp2rcd13ifvqgjg","pricing_plan_id":"cebpf4jnsgd1na2vs0mg"},{"bike_id":"aae855c6-31ee-4e2f-816a-bd80c9f37e5e","system_id":"levelo_inurba_marseille","lat":43.291823,"lon":5.393103,"is_reserved":false,"is_disabled":false,"rental_uris":{"android":"levelo://app?vid=aae855c6-31ee-4e2f-816a-bd80c9f37e5e","ios":"levelo://app?vid=aae855c6-31ee-4e2f-816a-bd80c9f37e5e"},"vehicle_type_id":"4","last_reported":1729714251,"current_range_meters":38800,"station_id":"ce4bh192rcd13ifvqdd0","pricing_plan_id":"cebpf4jnsgd1na2vs0mg"},{"bike_id":"0f78dea4-15d6-4bdb-84d2-f9a7915f61fa","system_id":"levelo_inurba_marseille","lat":43.2846,"lon":5.35884,"is_reserved":false,"is_disabled":false,"rental_uris":{"android":"levelo://app?vid=0f78dea4-15d6-4bdb-84d2-f9a7915f61fa","ios":"levelo://app?vid=0f78dea4-15d6-4bdb-84d2-f9a7915f61fa"},"vehicle_type_id":"4","last_reported":1729714251,"current_range_meters":7200,"station_id":"ce4bhah2rcd13ifvqei0","pricing_plan_id":"cebpf4jnsgd1na2vs0mg"},{"bike_id":"b8c9a954-8a45-4a7c-9122-e43683fb8fcc","system_id":"levelo_inurba_marseille","lat":43.24646,"lon":5.38898,"is_reserved":false,"is_disabled":false,"rental_uris":{"android":"levelo://app?vid=b8c9a954-8a45-4a7c-9122-e43683fb8fcc","ios":"levelo://app?vid=b8c9a954-8a45-4a7c-9122-e43683fb8fcc"},"vehicle_type_id":"4","last_reported":1729714251,"current_range_meters":38800,"station_id":"ce4bhg12rcd13ifvqf60","pricing_plan_id":"cebpf4jnsgd1na2vs0mg"},{"bike_id":"97ce6431-cdfe-4c86-8575-534875aed7f5","system_id":"levelo_inurba_marseille","lat":43.3053,"lon":5.36659,"is_reserved":false,"is_disabled":false,"rental_uris":{"android":"levelo://app?vid=97ce6431-cdfe-4c86-8575-534875aed7f5","ios":"levelo://app?vid=97ce6431-cdfe-4c86-8575-534875aed7f5"},"vehicle_type_id":"4","last_reported":1729714251,"current_range_meters":10000,"station_id":"","pricing_plan_id":"cebpf4jnsgd1na2vs0mg"},{"bike_id":"bc8c5f05-14d5-4aff-bd18-3ffa8d394552","system_id":"levelo_inurba_marseille","lat":43.30602,"lon":5.37231,"is_reserved":false,"is_disabled":false,"rental_uris":{"android":"levelo://app?vid=bc8c5f05-14d5-4aff-bd18-3ffa8d394552","ios":"levelo://app?vid=bc8c5f05-14d5-4aff-bd18-3ffa8d394552"},"vehicle_type_id":"4","last_reported":1729714251,"current_range_meters":28400,"station_id":"ce4bgqh2rcd13ifvqc4g","pricing_plan_id":"cebpf4jnsgd1na2vs0mg"},{"bike_id":"19058266-3ea9-43b8-a1ea-73b03b27f907","system_id":"levelo_inurba_marseille","lat":43.3117,"lon":5.38718,"is_reserved":false,"is_disabled":false,"rental_uris":{"android":"levelo://app?vid=19058266-3ea9-43b8-a1ea-73b03b27f907","ios":"levelo://app?vid=19058266-3ea9-43b8-a1ea-73b03b27f907"},"vehicle_type_id":"4","last_reported":1729714251,"current_range_meters":10800,"station_id":"ce4bgv12rcd13ifvqcp0","pricing_plan_id":"cebpf4jnsgd1na2vs0mg"},{"bike_id":"4e6761e9-7a62-4e39-b016-0258a469d9f7","system_id":"levelo_inurba_marseille","lat":43.25822,"lon":5.3942,"is_reserved":false,"is_disabled":false,"rental_uris":{"android":"levelo://app?vid=4e6761e9-7a62-4e39-b016-0258a469d9f7","ios":"levelo://app?vid=4e6761e9-7a62-4e39-b016-0258a469d9f7"},"vehicle_type_id":"4","last_reported":1729714251,"current_range_meters":34000,"station_id":"ce4bhip2rcd13ifvqft0","pricing_plan_id":"cebpf4jnsgd1na2vs0mg"},{"bike_id":"66b05623-5668-42d4-96b3-2489f31ac472","system_id":"levelo_inurba_marseille","lat":43.26942,"lon":5.40251,"is_reserved":false,"is_disabled":false,"rental_uris":{"android":"levelo://app?vid=66b05623-5668-42d4-96b3-2489f31ac472","ios":"levelo://app?vid=66b05623-5668-42d4-96b3-2489f31ac472"},"vehicle_type_id":"4","last_reported":1729714251,"current_range_meters":25200,"station_id":"cjm6bp8fraef2m0cb0m0","pricing_plan_id":"cebpf4jnsgd1na2vs0mg"},{"bike_id":"3fb32c75-8a7c-4c0b-8282-912b6ac23920","system_id":"levelo_inurba_marseille","lat":43.29182,"lon":5.35799,"is_reserved":false,"is_disabled":false,"rental_uris":{"android":"levelo://app?vid=3fb32c75-8a7c-4c0b-8282-912b6ac23920","ios":"levelo://app?vid=3fb32c75-8a7c-4c0b-8282-912b6ac23920"},"vehicle_type_id":"4","last_reported":1729714251,"current_range_meters":37600,"station_id":"ce4bhb12rcd13ifvqel0","pricing_plan_id":"cebpf4jnsgd1na2vs0mg"},{"bike_id":"59b6aee7-91da-4072-9d53-daec027cb60a","system_id":"levelo_inurba_marseille","lat":43.26788,"lon":5.394123,"is_reserved":false,"is_disabled":false,"rental_uris":{"android":"levelo://app?vid=59b6aee7-91da-4072-9d53-daec027cb60a","ios":"levelo://app?vid=59b6aee7-91da-4072-9d53-daec027cb60a"},"vehicle_type_id":"4","last_reported":1729714251,"current_range_meters":16400,"station_id":"ce4bhh12rcd13ifvqfg0","pricing_plan_id":"cebpf4jnsgd1na2vs0mg"},{"bike_id":"9119640f-be31-4c54-a6c3-c9532b895405","system_id":"levelo_inurba_marseille","lat":43.28458,"lon":5.35893,"is_reserved":false,"is_disabled":false,"rental_uris":{"android":"levelo://app?vid=9119640f-be31-4c54-a6c3-c9532b895405","ios":"levelo://app?vid=9119640f-be31-4c54-a6c3-c9532b895405"},"vehicle_type_id":"4","last_reported":1729714251,"current_range_meters":38800,"station_id":"ce4bhah2rcd13ifvqei0","pricing_plan_id":"cebpf4jnsgd1na2vs0mg"},{"bike_id":"299400c8-608b-42df-863c-78daaa9e899d","system_id":"levelo_inurba_marseille","lat":43.30137,"lon":5.3986,"is_reserved":false,"is_disabled":false,"rental_uris":{"android":"levelo://app?vid=299400c8-608b-42df-863c-78daaa9e899d","ios":"levelo://app?vid=299400c8-608b-42df-863c-78daaa9e899d"},"vehicle_type_id":"4","last_reported":1729714251,"current_range_meters":28400,"station_id":"ce4bh0h2rcd13ifvqd40","pricing_plan_id":"cebpf4jnsgd1na2vs0mg"},{"bike_id":"dcedd991-0854-41d1-a5e7-524db2653321","system_id":"levelo_inurba_marseille","lat":43.29309,"lon":5.37436,"is_reserved":false,"is_disabled":false,"rental_uris":{"android":"levelo://app?vid=dcedd991-0854-41d1-a5e7-524db2653321","ios":"levelo://app?vid=dcedd991-0854-41d1-a5e7-524db2653321"},"vehicle_type_id":"4","last_reported":1729714251,"current_range_meters":6000,"station_id":"","pricing_plan_id":"cebpf4jnsgd1na2vs0mg"},{"bike_id":"1d49aaa7-f69b-4332-a60d-2b27d8c332bd","system_id":"levelo_inurba_marseille","lat":43.30633,"lon":5.40088,"is_reserved":false,"is_disabled":false,"rental_uris":{"android":"levelo://app?vid=1d49aaa7-f69b-4332-a60d-2b27d8c332bd","ios":"levelo://app?vid=1d49aaa7-f69b-4332-a60d-2b27d8c332bd"},"vehicle_type_id":"4","last_reported":1729714251,"current_range_meters":17600,"station_id":"ce4bh112rcd13ifvqda0","pricing_plan_id":"cebpf4jnsgd1na2vs0mg"},{"bike_id":"cb0297b0-99f8-4559-9715-b34b0bc76314","system_id":"levelo_inurba_marseille","lat":43.295319,"lon":5.385249,"is_reserved":false,"is_disabled":false,"rental_uris":{"android":"levelo://app?vid=cb0297b0-99f8-4559-9715-b34b0bc76314","ios":"levelo://app?vid=cb0297b0-99f8-4559-9715-b34b0bc76314"},"vehicle_type_id":"4","last_reported":1729714251,"current_range_meters":20000,"station_id":"ce4bgih2rcd13ifvqba0","pricing_plan_id":"cebpf4jnsgd1na2vs0mg"},{"bike_id":"1d731c4f-aeec-4764-a0cb-ee5c6f2253ec","system_id":"levelo_inurba_marseille","lat":43.30932,"lon":5.40129,"is_reserved":false,"is_disabled":false,"rental_uris":{"android":"levelo://app?vid=1d731c4f-aeec-4764-a0cb-ee5c6f2253ec","ios":"levelo://app?vid=1d731c4f-aeec-4764-a0cb-ee5c6f2253ec"},"vehicle_type_id":"4","last_reported":1729714251,"current_range_meters":36000,"station_id":"ce4bgvp2rcd13ifvqct0","pricing_plan_id":"cebpf4jnsgd1na2vs0mg"},{"bike_id":"b3e7a7d1-421f-4dbc-bb54-1b11448fc6bc","system_id":"levelo_inurba_marseille","lat":43.30943,"lon":5.40147,"is_reserved":false,"is_disabled":false,"rental_uris":{"android":"levelo://app?vid=b3e7a7d1-421f-4dbc-bb54-1b11448fc6bc","ios":"levelo://app?vid=b3e7a7d1-421f-4dbc-bb54-1b11448fc6bc"},"vehicle_type_id":"4","last_reported":1729714251,"current_range_meters":38800,"station_id":"ce4bgvp2rcd13ifvqct0","pricing_plan_id":"cebpf4jnsgd1na2vs0mg"},{"bike_id":"dbf67b96-3489-478a-8e06-51cc69242e6d","system_id":"levelo_inurba_marseille","lat":43.2558,"lon":5.38228,"is_reserved":false,"is_disabled":false,"rental_uris":{"android":"levelo://app?vid=dbf67b96-3489-478a-8e06-51cc69242e6d","ios":"levelo://app?vid=dbf67b96-3489-478a-8e06-51cc69242e6d"},"vehicle_type_id":"4","last_reported":1729714251,"current_range_meters":28000,"station_id":"ce4bhih2rcd13ifvqfs0","pricing_plan_id":"cebpf4jnsgd1na2vs0mg"},{"bike_id":"d361a102-5430-49aa-91e6-1ae69104b5a7","system_id":"levelo_inurba_marseille","lat":43.29252,"lon":5.38435,"is_reserved":false,"is_disabled":false,"rental_uris":{"android":"levelo://app?vid=d361a102-5430-49aa-91e6-1ae69104b5a7","ios":"levelo://app?vid=d361a102-5430-49aa-91e6-1ae69104b5a7"},"vehicle_type_id":"4","last_reported":1729714251,"current_range_meters":8000,"station_id":"ce4bh692rcd13ifvqea0","pricing_plan_id":"cebpf4jnsgd1na2vs0mg"},{"bike_id":"aa99f811-363e-46a8-aef9-b5e22fccd73b","system_id":"levelo_inurba_marseille","lat":43.27906,"lon":5.38003,"is_reserved":false,"is_disabled":false,"rental_uris":{"android":"levelo://app?vid=aa99f811-363e-46a8-aef9-b5e22fccd73b","ios":"levelo://app?vid=aa99f811-363e-46a8-aef9-b5e22fccd73b"},"vehicle_type_id":"4","last_reported":1729714251,"current_range_meters":39200,"station_id":"ce4bhf92rcd13ifvqf50","pricing_plan_id":"cebpf4jnsgd1na2vs0mg"},{"bike_id":"e2296e9b-eed6-4fd1-ac02-4223589e07f6","system_id":"levelo_inurba_marseille","lat":43.30606,"lon":5.37233,"is_reserved":false,"is_disabled":false,"rental_uris":{"android":"levelo://app?vid=e2296e9b-eed6-4fd1-ac02-4223589e07f6","ios":"levelo://app?vid=e2296e9b-eed6-4fd1-ac02-4223589e07f6"},"vehicle_type_id":"4","last_reported":1729714251,"current_range_meters":22800,"station_id":"ce4bgqh2rcd13ifvqc4g","pricing_plan_id":"cebpf4jnsgd1na2vs0mg"},{"bike_id":"e24a327a-f39e-467e-b17c-75a57d21f5a0","system_id":"levelo_inurba_marseille","lat":43.29269,"lon":5.36844,"is_reserved":false,"is_disabled":false,"rental_uris":{"android":"levelo://app?vid=e24a327a-f39e-467e-b17c-75a57d21f5a0","ios":"levelo://app?vid=e24a327a-f39e-467e-b17c-75a57d21f5a0"},"vehicle_type_id":"4","last_reported":1729714251,"current_range_meters":39200,"station_id":"ce4bhbp2rcd13ifvqesg","pricing_plan_id":"cebpf4jnsgd1na2vs0mg"},{"bike_id":"ad479a87-b9e6-4694-9bd3-742149f946d9","system_id":"levelo_inurba_marseille","lat":43.29416,"lon":5.38621,"is_reserved":false,"is_disabled":false,"rental_uris":{"android":"levelo://app?vid=ad479a87-b9e6-4694-9bd3-742149f946d9","ios":"levelo://app?vid=ad479a87-b9e6-4694-9bd3-742149f946d9"},"vehicle_type_id":"4","last_reported":1729714251,"current_range_meters":11600,"station_id":"ce4bh2h2rcd13ifvqdh0","pricing_plan_id":"cebpf4jnsgd1na2vs0mg"},{"bike_id":"c4080c8b-cdaf-4eda-ad9e-60a756cdb1ea","system_id":"levelo_inurba_marseille","lat":43.30608,"lon":5.37229,"is_reserved":false,"is_disabled":false,"rental_uris":{"android":"levelo://app?vid=c4080c8b-cdaf-4eda-ad9e-60a756cdb1ea","ios":"levelo://app?vid=c4080c8b-cdaf-4eda-ad9e-60a756cdb1ea"},"vehicle_type_id":"4","last_reported":1729714251,"current_range_meters":35200,"station_id":"ce4bgqh2rcd13ifvqc4g","pricing_plan_id":"cebpf4jnsgd1na2vs0mg"},{"bike_id":"f757d6ed-6314-49bd-88bb-2d832ba59728","system_id":"levelo_inurba_marseille","lat":43.302799,"lon":5.377168,"is_reserved":false,"is_disabled":false,"rental_uris":{"android":"levelo://app?vid=f757d6ed-6314-49bd-88bb-2d832ba59728","ios":"levelo://app?vid=f757d6ed-6314-49bd-88bb-2d832ba59728"},"vehicle_type_id":"4","last_reported":1729714251,"current_range_meters":15200,"station_id":"ce4bguh2rcd13ifvqcj0","pricing_plan_id":"cebpf4jnsgd1na2vs0mg"},{"bike_id":"8a5d07be-6165-46b8-a7ba-1d1ae717acf1","system_id":"levelo_inurba_marseille","lat":43.29419,"lon":5.38626,"is_reserved":false,"is_disabled":false,"rental_uris":{"android":"levelo://app?vid=8a5d07be-6165-46b8-a7ba-1d1ae717acf1","ios":"levelo://app?vid=8a5d07be-6165-46b8-a7ba-1d1ae717acf1"},"vehicle_type_id":"4","last_reported":1729714251,"current_range_meters":24400,"station_id":"ce4bh2h2rcd13ifvqdh0","pricing_plan_id":"cebpf4jnsgd1na2vs0mg"},{"bike_id":"380cebd2-629c-405c-b64b-401aabe3bd03","system_id":"levelo_inurba_marseille","lat":43.28843,"lon":5.35847,"is_reserved":false,"is_disabled":false,"rental_uris":{"android":"levelo://app?vid=380cebd2-629c-405c-b64b-401aabe3bd03","ios":"levelo://app?vid=380cebd2-629c-405c-b64b-401aabe3bd03"},"vehicle_type_id":"4","last_reported":1729714251,"current_range_meters":37600,"station_id":"ce4bhb12rcd13ifvqem0","pricing_plan_id":"cebpf4jnsgd1na2vs0mg"},{"bike_id":"1c82aeea-9f07-4544-af99-b27eace84f2b","system_id":"levelo_inurba_marseille","lat":43.29515,"lon":5.39035,"is_reserved":false,"is_disabled":false,"rental_uris":{"android":"levelo://app?vid=1c82aeea-9f07-4544-af99-b27eace84f2b","ios":"levelo://app?vid=1c82aeea-9f07-4544-af99-b27eace84f2b"},"vehicle_type_id":"4","last_reported":1729714251,"current_range_meters":16000,"station_id":"ce4bh3p2rcd13ifvqdp0","pricing_plan_id":"cebpf4jnsgd1na2vs0mg"},{"bike_id":"fc98b86f-6f66-4864-96d0-5dffffb9adc6","system_id":"levelo_inurba_marseille","lat":43.33774,"lon":5.37444,"is_reserved":false,"is_disabled":false,"rental_uris":{"android":"levelo://app?vid=fc98b86f-6f66-4864-96d0-5dffffb9adc6","ios":"levelo://app?vid=fc98b86f-6f66-4864-96d0-5dffffb9adc6"},"vehicle_type_id":"4","last_reported":1729714251,"current_range_meters":32800,"station_id":"","pricing_plan_id":"cebpf4jnsgd1na2vs0mg"},{"bike_id":"9dfaa351-ad75-4aff-9e9a-7e244dbeff4d","system_id":"levelo_inurba_marseille","lat":43.28344,"lon":5.38107,"is_reserved":false,"is_disabled":false,"rental_uris":{"android":"levelo://app?vid=9dfaa351-ad75-4aff-9e9a-7e244dbeff4d","ios":"levelo://app?vid=9dfaa351-ad75-4aff-9e9a-7e244dbeff4d"},"vehicle_type_id":"4","last_reported":1729714251,"current_range_meters":38800,"station_id":"ce4bh412rcd13ifvqdr0","pricing_plan_id":"cebpf4jnsgd1na2vs0mg"},{"bike_id":"a0867b31-14ba-4b04-b603-d6d8cc117eb0","system_id":"levelo_inurba_marseille","lat":43.32658,"lon":5.40995,"is_reserved":false,"is_disabled":false,"rental_uris":{"android":"levelo://app?vid=a0867b31-14ba-4b04-b603-d6d8cc117eb0","ios":"levelo://app?vid=a0867b31-14ba-4b04-b603-d6d8cc117eb0"},"vehicle_type_id":"4","last_reported":1729714251,"current_range_meters":38800,"station_id":"ce4bhpp2rcd13ifvqhgg","pricing_plan_id":"cebpf4jnsgd1na2vs0mg"},{"bike_id":"b0a71160-4dba-4146-bb1d-3741c34398e9","system_id":"levelo_inurba_marseille","lat":43.309275,"lon":5.401544,"is_reserved":false,"is_disabled":false,"rental_uris":{"android":"levelo://app?vid=b0a71160-4dba-4146-bb1d-3741c34398e9","ios":"levelo://app?vid=b0a71160-4dba-4146-bb1d-3741c34398e9"},"vehicle_type_id":"4","last_reported":1729714251,"current_range_meters":38800,"station_id":"ce4bgvp2rcd13ifvqct0","pricing_plan_id":"cebpf4jnsgd1na2vs0mg"},{"bike_id":"85353f3b-6bb7-42d8-859f-6f8b45b4bd16","system_id":"levelo_inurba_marseille","lat":43.29029,"lon":5.3864,"is_reserved":false,"is_disabled":false,"rental_uris":{"android":"levelo://app?vid=85353f3b-6bb7-42d8-859f-6f8b45b4bd16","ios":"levelo://app?vid=85353f3b-6bb7-42d8-859f-6f8b45b4bd16"},"vehicle_type_id":"4","last_reported":1729714251,"current_range_meters":38800,"station_id":"ce4bh4p2rcd13ifvqe0g","pricing_plan_id":"cebpf4jnsgd1na2vs0mg"},{"bike_id":"fc51a43f-0285-4522-8188-d3c65913d3c5","system_id":"levelo_inurba_marseille","lat":43.29905,"lon":5.3749,"is_reserved":false,"is_disabled":false,"rental_uris":{"android":"levelo://app?vid=fc51a43f-0285-4522-8188-d3c65913d3c5","ios":"levelo://app?vid=fc51a43f-0285-4522-8188-d3c65913d3c5"},"vehicle_type_id":"4","last_reported":1729714251,"current_range_meters":16000,"station_id":"ce4bgjh2rcd13ifvqbg0","pricing_plan_id":"cebpf4jnsgd1na2vs0mg"},{"bike_id":"1d7b4cb1-bb5d-4639-90ab-0698f0df36c1","system_id":"levelo_inurba_marseille","lat":43.26555,"lon":5.37284,"is_reserved":false,"is_disabled":false,"rental_uris":{"android":"levelo://app?vid=1d7b4cb1-bb5d-4639-90ab-0698f0df36c1","ios":"levelo://app?vid=1d7b4cb1-bb5d-4639-90ab-0698f0df36c1"},"vehicle_type_id":"4","last_reported":1729714251,"current_range_meters":8000,"station_id":"ce4bhg12rcd13ifvqf70","pricing_plan_id":"cebpf4jnsgd1na2vs0mg"},{"bike_id":"7aa910a1-32e6-41bf-bc9d-1ee459afbc77","system_id":"levelo_inurba_marseille","lat":43.28422,"lon":5.37516,"is_reserved":false,"is_disabled":false,"rental_uris":{"android":"levelo://app?vid=7aa910a1-32e6-41bf-bc9d-1ee459afbc77","ios":"levelo://app?vid=7aa910a1-32e6-41bf-bc9d-1ee459afbc77"},"vehicle_type_id":"4","last_reported":1729714251,"current_range_meters":20400,"station_id":"ce4bh412rcd13ifvqds0","pricing_plan_id":"cebpf4jnsgd1na2vs0mg"},{"bike_id":"2ffc423c-6dd4-45c1-a19a-35f156fc9c05","system_id":"levelo_inurba_marseille","lat":43.29189,"lon":5.35798,"is_reserved":false,"is_disabled":false,"rental_uris":{"android":"levelo://app?vid=2ffc423c-6dd4-45c1-a19a-35f156fc9c05","ios":"levelo://app?vid=2ffc423c-6dd4-45c1-a19a-35f156fc9c05"},"vehicle_type_id":"4","last_reported":1729714251,"current_range_meters":20000,"station_id":"ce4bhb12rcd13ifvqel0","pricing_plan_id":"cebpf4jnsgd1na2vs0mg"},{"bike_id":"5933de8d-7245-4fc6-9cfe-72a4f51f3340","system_id":"levelo_inurba_marseille","lat":43.31337,"lon":5.39697,"is_reserved":false,"is_disabled":false,"rental_uris":{"android":"levelo://app?vid=5933de8d-7245-4fc6-9cfe-72a4f51f3340","ios":"levelo://app?vid=5933de8d-7245-4fc6-9cfe-72a4f51f3340"},"vehicle_type_id":"4","last_reported":1729714251,"current_range_meters":22000,"station_id":"ce4bgvp2rcd13ifvqcu0","pricing_plan_id":"cebpf4jnsgd1na2vs0mg"},{"bike_id":"08a41d86-bf74-42d1-b350-4800246eef64","system_id":"levelo_inurba_marseille","lat":43.2418,"lon":5.388,"is_reserved":false,"is_disabled":false,"rental_uris":{"android":"levelo://app?vid=08a41d86-bf74-42d1-b350-4800246eef64","ios":"levelo://app?vid=08a41d86-bf74-42d1-b350-4800246eef64"},"vehicle_type_id":"4","last_reported":1729714251,"current_range_meters":38800,"station_id":"","pricing_plan_id":"cebpf4jnsgd1na2vs0mg"},{"bike_id":"db69ea4c-1c7d-43a0-b7f1-e0da5b76f2ea","system_id":"levelo_inurba_marseille","lat":43.28423,"lon":5.45955,"is_reserved":false,"is_disabled":false,"rental_uris":{"android":"levelo://app?vid=db69ea4c-1c7d-43a0-b7f1-e0da5b76f2ea","ios":"levelo://app?vid=db69ea4c-1c7d-43a0-b7f1-e0da5b76f2ea"},"vehicle_type_id":"4","last_reported":1729714251,"current_range_meters":12800,"station_id":"","pricing_plan_id":"cebpf4jnsgd1na2vs0mg"},{"bike_id":"d3438caa-62a2-49c4-ac73-4c5ed5b399cd","system_id":"levelo_inurba_marseille","lat":43.30639,"lon":5.40072,"is_reserved":false,"is_disabled":false,"rental_uris":{"android":"levelo://app?vid=d3438caa-62a2-49c4-ac73-4c5ed5b399cd","ios":"levelo://app?vid=d3438caa-62a2-49c4-ac73-4c5ed5b399cd"},"vehicle_type_id":"4","last_reported":1729714251,"current_range_meters":27200,"station_id":"ce4bh112rcd13ifvqda0","pricing_plan_id":"cebpf4jnsgd1na2vs0mg"},{"bike_id":"1cd8084c-ce68-4d27-914c-ee4521a0ba66","system_id":"levelo_inurba_marseille","lat":43.28412,"lon":5.37518,"is_reserved":false,"is_disabled":false,"rental_uris":{"android":"levelo://app?vid=1cd8084c-ce68-4d27-914c-ee4521a0ba66","ios":"levelo://app?vid=1cd8084c-ce68-4d27-914c-ee4521a0ba66"},"vehicle_type_id":"4","last_reported":1729714251,"current_range_meters":7200,"station_id":"ce4bh412rcd13ifvqds0","pricing_plan_id":"cebpf4jnsgd1na2vs0mg"},{"bike_id":"0ae1663c-5bb3-40eb-aebe-2e4d249f3588","system_id":"levelo_inurba_marseille","lat":43.31329,"lon":5.397,"is_reserved":false,"is_disabled":false,"rental_uris":{"android":"levelo://app?vid=0ae1663c-5bb3-40eb-aebe-2e4d249f3588","ios":"levelo://app?vid=0ae1663c-5bb3-40eb-aebe-2e4d249f3588"},"vehicle_type_id":"4","last_reported":1729714251,"current_range_meters":35200,"station_id":"ce4bgvp2rcd13ifvqcu0","pricing_plan_id":"cebpf4jnsgd1na2vs0mg"},{"bike_id":"86869bbe-711e-4293-b1ec-b076c7845480","system_id":"levelo_inurba_marseille","lat":43.2318,"lon":5.39991,"is_reserved":false,"is_disabled":false,"rental_uris":{"android":"levelo://app?vid=86869bbe-711e-4293-b1ec-b076c7845480","ios":"levelo://app?vid=86869bbe-711e-4293-b1ec-b076c7845480"},"vehicle_type_id":"4","last_reported":1729714251,"current_range_meters":38800,"station_id":"ce4bhn12rcd13ifvqgqg","pricing_plan_id":"cebpf4jnsgd1na2vs0mg"},{"bike_id":"9a56926a-c703-4737-975e-ede51ff91efa","system_id":"levelo_inurba_marseille","lat":43.28499,"lon":5.38536,"is_reserved":false,"is_disabled":false,"rental_uris":{"android":"levelo://app?vid=9a56926a-c703-4737-975e-ede51ff91efa","ios":"levelo://app?vid=9a56926a-c703-4737-975e-ede51ff91efa"},"vehicle_type_id":"4","last_reported":1729714251,"current_range_meters":24000,"station_id":"ce4bh8p2rcd13ifvqeb0","pricing_plan_id":"cebpf4jnsgd1na2vs0mg"},{"bike_id":"836a0c9e-0e3f-4bf9-b947-1a2704522280","system_id":"levelo_inurba_marseille","lat":43.28703,"lon":5.37936,"is_reserved":false,"is_disabled":false,"rental_uris":{"android":"levelo://app?vid=836a0c9e-0e3f-4bf9-b947-1a2704522280","ios":"levelo://app?vid=836a0c9e-0e3f-4bf9-b947-1a2704522280"},"vehicle_type_id":"4","last_reported":1729714251,"current_range_meters":38800,"station_id":"ce4bh9p2rcd13ifvqec0","pricing_plan_id":"cebpf4jnsgd1na2vs0mg"},{"bike_id":"4406e307-9d5f-4386-ad06-420a84fafa9c","system_id":"levelo_inurba_marseille","lat":43.28714,"lon":5.3793,"is_reserved":false,"is_disabled":false,"rental_uris":{"android":"levelo://app?vid=4406e307-9d5f-4386-ad06-420a84fafa9c","ios":"levelo://app?vid=4406e307-9d5f-4386-ad06-420a84fafa9c"},"vehicle_type_id":"4","last_reported":1729714251,"current_range_meters":30800,"station_id":"ce4bh9p2rcd13ifvqec0","pricing_plan_id":"cebpf4jnsgd1na2vs0mg"},{"bike_id":"ec74fd82-feda-47be-9db5-fb25ccc21533","system_id":"levelo_inurba_marseille","lat":43.30204,"lon":5.39464,"is_reserved":false,"is_disabled":false,"rental_uris":{"android":"levelo://app?vid=ec74fd82-feda-47be-9db5-fb25ccc21533","ios":"levelo://app?vid=ec74fd82-feda-47be-9db5-fb25ccc21533"},"vehicle_type_id":"4","last_reported":1729714251,"current_range_meters":39200,"station_id":"ce4bh0p2rcd13ifvqd70","pricing_plan_id":"cebpf4jnsgd1na2vs0mg"},{"bike_id":"0525aa25-f88e-48e5-be8a-69e26059c15f","system_id":"levelo_inurba_marseille","lat":43.27946,"lon":5.41052,"is_reserved":false,"is_disabled":false,"rental_uris":{"android":"levelo://app?vid=0525aa25-f88e-48e5-be8a-69e26059c15f","ios":"levelo://app?vid=0525aa25-f88e-48e5-be8a-69e26059c15f"},"vehicle_type_id":"4","last_reported":1729714251,"current_range_meters":16000,"station_id":"ce4bhnp2rcd13ifvqh0g","pricing_plan_id":"cebpf4jnsgd1na2vs0mg"},{"bike_id":"ed276a18-a5c7-4620-a1f8-0091082a7c07","system_id":"levelo_inurba_marseille","lat":43.28929,"lon":5.36395,"is_reserved":false,"is_disabled":false,"rental_uris":{"android":"levelo://app?vid=ed276a18-a5c7-4620-a1f8-0091082a7c07","ios":"levelo://app?vid=ed276a18-a5c7-4620-a1f8-0091082a7c07"},"vehicle_type_id":"4","last_reported":1729714251,"current_range_meters":6800,"station_id":"ce4bhc92rcd13ifvqetg","pricing_plan_id":"cebpf4jnsgd1na2vs0mg"},{"bike_id":"6e99680c-fbc9-4c45-ab7a-eed26bf7cb4f","system_id":"levelo_inurba_marseille","lat":43.25123,"lon":5.40316,"is_reserved":false,"is_disabled":false,"rental_uris":{"android":"levelo://app?vid=6e99680c-fbc9-4c45-ab7a-eed26bf7cb4f","ios":"levelo://app?vid=6e99680c-fbc9-4c45-ab7a-eed26bf7cb4f"},"vehicle_type_id":"4","last_reported":1729714251,"current_range_meters":32800,"station_id":"ce4bhlh2rcd13ifvqgig","pricing_plan_id":"cebpf4jnsgd1na2vs0mg"},{"bike_id":"fae92469-3835-4b1b-9224-b8263fa26e5f","system_id":"levelo_inurba_marseille","lat":43.29506,"lon":5.37501,"is_reserved":false,"is_disabled":false,"rental_uris":{"android":"levelo://app?vid=fae92469-3835-4b1b-9224-b8263fa26e5f","ios":"levelo://app?vid=fae92469-3835-4b1b-9224-b8263fa26e5f"},"vehicle_type_id":"4","last_reported":1729714251,"current_range_meters":14800,"station_id":"ce4bgkp2rcd13ifvqbmg","pricing_plan_id":"cebpf4jnsgd1na2vs0mg"},{"bike_id":"ee56864d-0289-4ab0-b1d9-4e118a6c50f5","system_id":"levelo_inurba_marseille","lat":43.34139,"lon":5.40901,"is_reserved":false,"is_disabled":false,"rental_uris":{"android":"levelo://app?vid=ee56864d-0289-4ab0-b1d9-4e118a6c50f5","ios":"levelo://app?vid=ee56864d-0289-4ab0-b1d9-4e118a6c50f5"},"vehicle_type_id":"4","last_reported":1729714251,"current_range_meters":37600,"station_id":"ce4bhqh2rcd13ifvqhlg","pricing_plan_id":"cebpf4jnsgd1na2vs0mg"},{"bike_id":"4c249f36-797a-46bb-9f7f-9e09258e99f9","system_id":"levelo_inurba_marseille","lat":43.2968,"lon":5.36594,"is_reserved":false,"is_disabled":false,"rental_uris":{"android":"levelo://app?vid=4c249f36-797a-46bb-9f7f-9e09258e99f9","ios":"levelo://app?vid=4c249f36-797a-46bb-9f7f-9e09258e99f9"},"vehicle_type_id":"4","last_reported":1729714251,"current_range_meters":36400,"station_id":"ce4bgn12rcd13ifvqbt0","pricing_plan_id":"cebpf4jnsgd1na2vs0mg"},{"bike_id":"5cd7b8db-560e-4fd7-b885-145e0c1fc061","system_id":"levelo_inurba_marseille","lat":43.29978,"lon":5.37177,"is_reserved":false,"is_disabled":false,"rental_uris":{"android":"levelo://app?vid=5cd7b8db-560e-4fd7-b885-145e0c1fc061","ios":"levelo://app?vid=5cd7b8db-560e-4fd7-b885-145e0c1fc061"},"vehicle_type_id":"4","last_reported":1729714251,"current_range_meters":16800,"station_id":"ce4bgr92rcd13ifvqc7g","pricing_plan_id":"cebpf4jnsgd1na2vs0mg"},{"bike_id":"b21f0da6-475f-4ddc-a2c2-379706b157d4","system_id":"levelo_inurba_marseille","lat":43.25591,"lon":5.38236,"is_reserved":false,"is_disabled":false,"rental_uris":{"android":"levelo://app?vid=b21f0da6-475f-4ddc-a2c2-379706b157d4","ios":"levelo://app?vid=b21f0da6-475f-4ddc-a2c2-379706b157d4"},"vehicle_type_id":"4","last_reported":1729714251,"current_range_meters":4800,"station_id":"ce4bhih2rcd13ifvqfs0","pricing_plan_id":"cebpf4jnsgd1na2vs0mg"},{"bike_id":"8851e641-2a34-4df4-9c62-4bc8ce7ebb4a","system_id":"levelo_inurba_marseille","lat":43.28699,"lon":5.37383,"is_reserved":false,"is_disabled":false,"rental_uris":{"android":"levelo://app?vid=8851e641-2a34-4df4-9c62-4bc8ce7ebb4a","ios":"levelo://app?vid=8851e641-2a34-4df4-9c62-4bc8ce7ebb4a"},"vehicle_type_id":"4","last_reported":1729714251,"current_range_meters":38800,"station_id":"ce4bh3p2rcd13ifvqdq0","pricing_plan_id":"cebpf4jnsgd1na2vs0mg"},{"bike_id":"ffcd6786-c380-4f4e-bd4c-8a397e665814","system_id":"levelo_inurba_marseille","lat":43.29417,"lon":5.38605,"is_reserved":false,"is_disabled":false,"rental_uris":{"android":"levelo://app?vid=ffcd6786-c380-4f4e-bd4c-8a397e665814","ios":"levelo://app?vid=ffcd6786-c380-4f4e-bd4c-8a397e665814"},"vehicle_type_id":"4","last_reported":1729714251,"current_range_meters":38800,"station_id":"ce4bh2h2rcd13ifvqdh0","pricing_plan_id":"cebpf4jnsgd1na2vs0mg"},{"bike_id":"2bae181d-d9fb-4a1b-a205-5ca21dc0692c","system_id":"levelo_inurba_marseille","lat":43.28665,"lon":5.38658,"is_reserved":false,"is_disabled":false,"rental_uris":{"android":"levelo://app?vid=2bae181d-d9fb-4a1b-a205-5ca21dc0692c","ios":"levelo://app?vid=2bae181d-d9fb-4a1b-a205-5ca21dc0692c"},"vehicle_type_id":"4","last_reported":1729714251,"current_range_meters":32400,"station_id":"ce4bh492rcd13ifvqdug","pricing_plan_id":"cebpf4jnsgd1na2vs0mg"},{"bike_id":"ee8aca3a-e9b8-4db2-b237-7fbf12308fde","system_id":"levelo_inurba_marseille","lat":43.30863,"lon":5.39642,"is_reserved":false,"is_disabled":false,"rental_uris":{"android":"levelo://app?vid=ee8aca3a-e9b8-4db2-b237-7fbf12308fde","ios":"levelo://app?vid=ee8aca3a-e9b8-4db2-b237-7fbf12308fde"},"vehicle_type_id":"4","last_reported":1729714251,"current_range_meters":4400,"station_id":"ce4bh012rcd13ifvqcv0","pricing_plan_id":"cebpf4jnsgd1na2vs0mg"},{"bike_id":"0983bc58-22e1-4ca6-b4f3-de68f85708d6","system_id":"levelo_inurba_marseille","lat":43.2979,"lon":5.39355,"is_reserved":false,"is_disabled":false,"rental_uris":{"android":"levelo://app?vid=0983bc58-22e1-4ca6-b4f3-de68f85708d6","ios":"levelo://app?vid=0983bc58-22e1-4ca6-b4f3-de68f85708d6"},"vehicle_type_id":"4","last_reported":1729714251,"current_range_meters":10800,"station_id":"chh1huq6cuj3fo74tm60","pricing_plan_id":"cebpf4jnsgd1na2vs0mg"},{"bike_id":"399a9b33-7aba-4d13-9ed9-b18fa087368d","system_id":"levelo_inurba_marseille","lat":43.28727,"lon":5.36084,"is_reserved":false,"is_disabled":false,"rental_uris":{"android":"levelo://app?vid=399a9b33-7aba-4d13-9ed9-b18fa087368d","ios":"levelo://app?vid=399a9b33-7aba-4d13-9ed9-b18fa087368d"},"vehicle_type_id":"4","last_reported":1729714251,"current_range_meters":26800,"station_id":"cki0cbj6b192h4jlfktg","pricing_plan_id":"cebpf4jnsgd1na2vs0mg"},{"bike_id":"a0ef5b58-761b-4709-acd7-0f11aeeb5274","system_id":"levelo_inurba_marseille","lat":43.29628,"lon":5.406,"is_reserved":false,"is_disabled":false,"rental_uris":{"android":"levelo://app?vid=a0ef5b58-761b-4709-acd7-0f11aeeb5274","ios":"levelo://app?vid=a0ef5b58-761b-4709-acd7-0f11aeeb5274"},"vehicle_type_id":"4","last_reported":1729714251,"current_range_meters":40000,"station_id":"ce4bh0h2rcd13ifvqd60","pricing_plan_id":"cebpf4jnsgd1na2vs0mg"},{"bike_id":"bdfe3f09-f107-424c-91cd-795259fdc3bf","system_id":"levelo_inurba_marseille","lat":43.28925,"lon":5.36631,"is_reserved":false,"is_disabled":false,"rental_uris":{"android":"levelo://app?vid=bdfe3f09-f107-424c-91cd-795259fdc3bf","ios":"levelo://app?vid=bdfe3f09-f107-424c-91cd-795259fdc3bf"},"vehicle_type_id":"4","last_reported":1729714251,"current_range_meters":38800,"station_id":"ce4bhap2rcd13ifvqek0","pricing_plan_id":"cebpf4jnsgd1na2vs0mg"},{"bike_id":"f7ab3229-80dc-46d8-a1fd-220034cb7183","system_id":"levelo_inurba_marseille","lat":43.24176,"lon":5.39722,"is_reserved":false,"is_disabled":false,"rental_uris":{"android":"levelo://app?vid=f7ab3229-80dc-46d8-a1fd-220034cb7183","ios":"levelo://app?vid=f7ab3229-80dc-46d8-a1fd-220034cb7183"},"vehicle_type_id":"4","last_reported":1729714251,"current_range_meters":8800,"station_id":"ce4bhn12rcd13ifvqgpg","pricing_plan_id":"cebpf4jnsgd1na2vs0mg"},{"bike_id":"cbd67fc7-6897-4929-bddc-6bb781249d6c","system_id":"levelo_inurba_marseille","lat":43.28463,"lon":5.35884,"is_reserved":false,"is_disabled":false,"rental_uris":{"android":"levelo://app?vid=cbd67fc7-6897-4929-bddc-6bb781249d6c","ios":"levelo://app?vid=cbd67fc7-6897-4929-bddc-6bb781249d6c"},"vehicle_type_id":"4","last_reported":1729714251,"current_range_meters":20800,"station_id":"ce4bhah2rcd13ifvqei0","pricing_plan_id":"cebpf4jnsgd1na2vs0mg"},{"bike_id":"b9fc9121-a79e-4a89-8a2c-e5f27124b9b0","system_id":"levelo_inurba_marseille","lat":43.28266,"lon":5.35058,"is_reserved":false,"is_disabled":false,"rental_uris":{"android":"levelo://app?vid=b9fc9121-a79e-4a89-8a2c-e5f27124b9b0","ios":"levelo://app?vid=b9fc9121-a79e-4a89-8a2c-e5f27124b9b0"},"vehicle_type_id":"4","last_reported":1729714251,"current_range_meters":39200,"station_id":"ce4bhbp2rcd13ifvqerg","pricing_plan_id":"cebpf4jnsgd1na2vs0mg"},{"bike_id":"22516433-e256-400e-ba52-60772187b394","system_id":"levelo_inurba_marseille","lat":43.30938,"lon":5.40142,"is_reserved":false,"is_disabled":false,"rental_uris":{"android":"levelo://app?vid=22516433-e256-400e-ba52-60772187b394","ios":"levelo://app?vid=22516433-e256-400e-ba52-60772187b394"},"vehicle_type_id":"4","last_reported":1729714251,"current_range_meters":28400,"station_id":"ce4bgvp2rcd13ifvqct0","pricing_plan_id":"cebpf4jnsgd1na2vs0mg"},{"bike_id":"a8164c38-3196-4168-923b-22859127c624","system_id":"levelo_inurba_marseille","lat":43.305389,"lon":5.384187,"is_reserved":false,"is_disabled":false,"rental_uris":{"android":"levelo://app?vid=a8164c38-3196-4168-923b-22859127c624","ios":"levelo://app?vid=a8164c38-3196-4168-923b-22859127c624"},"vehicle_type_id":"4","last_reported":1729714251,"current_range_meters":38400,"station_id":"ce4bgg92rcd13ifvqb30","pricing_plan_id":"cebpf4jnsgd1na2vs0mg"},{"bike_id":"47c97a5e-ee1a-4b1e-952a-1347341bf877","system_id":"levelo_inurba_marseille","lat":43.309242,"lon":5.396491,"is_reserved":false,"is_disabled":false,"rental_uris":{"android":"levelo://app?vid=47c97a5e-ee1a-4b1e-952a-1347341bf877","ios":"levelo://app?vid=47c97a5e-ee1a-4b1e-952a-1347341bf877"},"vehicle_type_id":"4","last_reported":1729714251,"current_range_meters":36400,"station_id":"ce4bh012rcd13ifvqcv0","pricing_plan_id":"cebpf4jnsgd1na2vs0mg"},{"bike_id":"513e9df3-7590-42dd-a419-2e9e62f66b47","system_id":"levelo_inurba_marseille","lat":43.31323,"lon":5.3969,"is_reserved":false,"is_disabled":false,"rental_uris":{"android":"levelo://app?vid=513e9df3-7590-42dd-a419-2e9e62f66b47","ios":"levelo://app?vid=513e9df3-7590-42dd-a419-2e9e62f66b47"},"vehicle_type_id":"4","last_reported":1729714251,"current_range_meters":10000,"station_id":"ce4bgvp2rcd13ifvqcu0","pricing_plan_id":"cebpf4jnsgd1na2vs0mg"},{"bike_id":"9c980766-3696-42be-8e1a-d22fb6edb5c5","system_id":"levelo_inurba_marseille","lat":43.30659,"lon":5.38187,"is_reserved":false,"is_disabled":false,"rental_uris":{"android":"levelo://app?vid=9c980766-3696-42be-8e1a-d22fb6edb5c5","ios":"levelo://app?vid=9c980766-3696-42be-8e1a-d22fb6edb5c5"},"vehicle_type_id":"4","last_reported":1729714251,"current_range_meters":32000,"station_id":"","pricing_plan_id":"cebpf4jnsgd1na2vs0mg"},{"bike_id":"e6a052aa-fae1-4391-87df-f08113c0dc77","system_id":"levelo_inurba_marseille","lat":43.28355,"lon":5.38094,"is_reserved":false,"is_disabled":false,"rental_uris":{"android":"levelo://app?vid=e6a052aa-fae1-4391-87df-f08113c0dc77","ios":"levelo://app?vid=e6a052aa-fae1-4391-87df-f08113c0dc77"},"vehicle_type_id":"4","last_reported":1729714251,"current_range_meters":30400,"station_id":"ce4bh412rcd13ifvqdr0","pricing_plan_id":"cebpf4jnsgd1na2vs0mg"},{"bike_id":"29466e6a-1476-4e9e-90d6-6aef791bed49","system_id":"levelo_inurba_marseille","lat":43.3009,"lon":5.39077,"is_reserved":false,"is_disabled":false,"rental_uris":{"android":"levelo://app?vid=29466e6a-1476-4e9e-90d6-6aef791bed49","ios":"levelo://app?vid=29466e6a-1476-4e9e-90d6-6aef791bed49"},"vehicle_type_id":"4","last_reported":1729714251,"current_range_meters":20000,"station_id":"ce4bh192rcd13ifvqdb0","pricing_plan_id":"cebpf4jnsgd1na2vs0mg"},{"bike_id":"9ae22fea-bae4-4f2d-9003-baf3904f67c4","system_id":"levelo_inurba_marseille","lat":43.29029,"lon":5.38624,"is_reserved":false,"is_disabled":false,"rental_uris":{"android":"levelo://app?vid=9ae22fea-bae4-4f2d-9003-baf3904f67c4","ios":"levelo://app?vid=9ae22fea-bae4-4f2d-9003-baf3904f67c4"},"vehicle_type_id":"4","last_reported":1729714251,"current_range_meters":38800,"station_id":"ce4bh4p2rcd13ifvqe0g","pricing_plan_id":"cebpf4jnsgd1na2vs0mg"},{"bike_id":"c795749b-6514-4187-b84f-9dd949a143e0","system_id":"levelo_inurba_marseille","lat":43.32661,"lon":5.40988,"is_reserved":false,"is_disabled":false,"rental_uris":{"android":"levelo://app?vid=c795749b-6514-4187-b84f-9dd949a143e0","ios":"levelo://app?vid=c795749b-6514-4187-b84f-9dd949a143e0"},"vehicle_type_id":"4","last_reported":1729714251,"current_range_meters":38800,"station_id":"ce4bhpp2rcd13ifvqhgg","pricing_plan_id":"cebpf4jnsgd1na2vs0mg"},{"bike_id":"7bf9a350-243f-4c57-994b-3d44ab04f6a3","system_id":"levelo_inurba_marseille","lat":43.27143,"lon":5.42245,"is_reserved":false,"is_disabled":false,"rental_uris":{"android":"levelo://app?vid=7bf9a350-243f-4c57-994b-3d44ab04f6a3","ios":"levelo://app?vid=7bf9a350-243f-4c57-994b-3d44ab04f6a3"},"vehicle_type_id":"4","last_reported":1729714251,"current_range_meters":30000,"station_id":"ce4bhn92rcd13ifvqgrg","pricing_plan_id":"cebpf4jnsgd1na2vs0mg"},{"bike_id":"c321b864-6e24-43e1-8c31-71681d6f7581","system_id":"levelo_inurba_marseille","lat":43.23964,"lon":5.36629,"is_reserved":false,"is_disabled":false,"rental_uris":{"android":"levelo://app?vid=c321b864-6e24-43e1-8c31-71681d6f7581","ios":"levelo://app?vid=c321b864-6e24-43e1-8c31-71681d6f7581"},"vehicle_type_id":"4","last_reported":1729714251,"current_range_meters":30000,"station_id":"ce4bhi12rcd13ifvqfp0","pricing_plan_id":"cebpf4jnsgd1na2vs0mg"},{"bike_id":"a94eba6d-f4bd-4abd-85df-dff0a7d34198","system_id":"levelo_inurba_marseille","lat":43.30426,"lon":5.38884,"is_reserved":false,"is_disabled":false,"rental_uris":{"android":"levelo://app?vid=a94eba6d-f4bd-4abd-85df-dff0a7d34198","ios":"levelo://app?vid=a94eba6d-f4bd-4abd-85df-dff0a7d34198"},"vehicle_type_id":"4","last_reported":1729714251,"current_range_meters":34800,"station_id":"ce4bgk12rcd13ifvqbi0","pricing_plan_id":"cebpf4jnsgd1na2vs0mg"},{"bike_id":"6d7bb516-a4b2-4790-bc17-1d89125d4f3e","system_id":"levelo_inurba_marseille","lat":43.292627,"lon":5.3844,"is_reserved":false,"is_disabled":false,"rental_uris":{"android":"levelo://app?vid=6d7bb516-a4b2-4790-bc17-1d89125d4f3e","ios":"levelo://app?vid=6d7bb516-a4b2-4790-bc17-1d89125d4f3e"},"vehicle_type_id":"4","last_reported":1729714251,"current_range_meters":28800,"station_id":"ce4bh692rcd13ifvqea0","pricing_plan_id":"cebpf4jnsgd1na2vs0mg"},{"bike_id":"90c3a3ae-e1f9-49f9-8230-c82dc265a457","system_id":"levelo_inurba_marseille","lat":43.3199,"lon":5.38158,"is_reserved":false,"is_disabled":false,"rental_uris":{"android":"levelo://app?vid=90c3a3ae-e1f9-49f9-8230-c82dc265a457","ios":"levelo://app?vid=90c3a3ae-e1f9-49f9-8230-c82dc265a457"},"vehicle_type_id":"4","last_reported":1729714251,"current_range_meters":9200,"station_id":"ce4bhr12rcd13ifvqhpg","pricing_plan_id":"cebpf4jnsgd1na2vs0mg"},{"bike_id":"d43610d4-6ab3-4063-97de-1a3507b8b43a","system_id":"levelo_inurba_marseille","lat":43.26802,"lon":5.40263,"is_reserved":false,"is_disabled":false,"rental_uris":{"android":"levelo://app?vid=d43610d4-6ab3-4063-97de-1a3507b8b43a","ios":"levelo://app?vid=d43610d4-6ab3-4063-97de-1a3507b8b43a"},"vehicle_type_id":"4","last_reported":1729714251,"current_range_meters":30400,"station_id":"ce501612rcd8frsf0b60","pricing_plan_id":"cebpf4jnsgd1na2vs0mg"},{"bike_id":"e6b310af-d763-4708-a97e-f6f2e27c7b8b","system_id":"levelo_inurba_marseille","lat":43.27168,"lon":5.40989,"is_reserved":false,"is_disabled":false,"rental_uris":{"android":"levelo://app?vid=e6b310af-d763-4708-a97e-f6f2e27c7b8b","ios":"levelo://app?vid=e6b310af-d763-4708-a97e-f6f2e27c7b8b"},"vehicle_type_id":"4","last_reported":1729714251,"current_range_meters":9200,"station_id":"ce4bhl12rcd13ifvqgf0","pricing_plan_id":"cebpf4jnsgd1na2vs0mg"},{"bike_id":"29307b0a-20bd-4b38-88dd-bf6801123e99","system_id":"levelo_inurba_marseille","lat":43.24184,"lon":5.39711,"is_reserved":false,"is_disabled":false,"rental_uris":{"android":"levelo://app?vid=29307b0a-20bd-4b38-88dd-bf6801123e99","ios":"levelo://app?vid=29307b0a-20bd-4b38-88dd-bf6801123e99"},"vehicle_type_id":"4","last_reported":1729714251,"current_range_meters":38800,"station_id":"ce4bhn12rcd13ifvqgpg","pricing_plan_id":"cebpf4jnsgd1na2vs0mg"},{"bike_id":"8326934f-a7f4-48b3-a231-d6c67cc4ec03","system_id":"levelo_inurba_marseille","lat":43.29863,"lon":5.39739,"is_reserved":false,"is_disabled":false,"rental_uris":{"android":"levelo://app?vid=8326934f-a7f4-48b3-a231-d6c67cc4ec03","ios":"levelo://app?vid=8326934f-a7f4-48b3-a231-d6c67cc4ec03"},"vehicle_type_id":"4","last_reported":1729714251,"current_range_meters":39200,"station_id":"ce4bh0h2rcd13ifvqd50","pricing_plan_id":"cebpf4jnsgd1na2vs0mg"},{"bike_id":"f47a2c89-6732-4b40-b6e2-0f96472d42db","system_id":"levelo_inurba_marseille","lat":43.294565,"lon":5.39746,"is_reserved":false,"is_disabled":false,"rental_uris":{"android":"levelo://app?vid=f47a2c89-6732-4b40-b6e2-0f96472d42db","ios":"levelo://app?vid=f47a2c89-6732-4b40-b6e2-0f96472d42db"},"vehicle_type_id":"4","last_reported":1729714251,"current_range_meters":7200,"station_id":"ce4bh3h2rcd13ifvqdo0","pricing_plan_id":"cebpf4jnsgd1na2vs0mg"},{"bike_id":"b5fa4979-ca3f-4635-9b7e-5639a58abb96","system_id":"levelo_inurba_marseille","lat":43.29533,"lon":5.38542,"is_reserved":false,"is_disabled":false,"rental_uris":{"android":"levelo://app?vid=b5fa4979-ca3f-4635-9b7e-5639a58abb96","ios":"levelo://app?vid=b5fa4979-ca3f-4635-9b7e-5639a58abb96"},"vehicle_type_id":"4","last_reported":1729714251,"current_range_meters":38400,"station_id":"ce4bgih2rcd13ifvqba0","pricing_plan_id":"cebpf4jnsgd1na2vs0mg"},{"bike_id":"6d310247-1de4-4fcb-b4a1-91581820679a","system_id":"levelo_inurba_marseille","lat":43.25106,"lon":5.40328,"is_reserved":false,"is_disabled":false,"rental_uris":{"android":"levelo://app?vid=6d310247-1de4-4fcb-b4a1-91581820679a","ios":"levelo://app?vid=6d310247-1de4-4fcb-b4a1-91581820679a"},"vehicle_type_id":"4","last_reported":1729714251,"current_range_meters":38800,"station_id":"ce4bhlh2rcd13ifvqgig","pricing_plan_id":"cebpf4jnsgd1na2vs0mg"},{"bike_id":"53643c73-ebff-4438-9bbc-d1455671aa2b","system_id":"levelo_inurba_marseille","lat":43.31992,"lon":5.38151,"is_reserved":false,"is_disabled":false,"rental_uris":{"android":"levelo://app?vid=53643c73-ebff-4438-9bbc-d1455671aa2b","ios":"levelo://app?vid=53643c73-ebff-4438-9bbc-d1455671aa2b"},"vehicle_type_id":"4","last_reported":1729714251,"current_range_meters":32800,"station_id":"ce4bhr12rcd13ifvqhpg","pricing_plan_id":"cebpf4jnsgd1na2vs0mg"},{"bike_id":"30f7e039-7faa-4395-ab5e-4fd14e59dc48","system_id":"levelo_inurba_marseille","lat":43.28345,"lon":5.38109,"is_reserved":false,"is_disabled":false,"rental_uris":{"android":"levelo://app?vid=30f7e039-7faa-4395-ab5e-4fd14e59dc48","ios":"levelo://app?vid=30f7e039-7faa-4395-ab5e-4fd14e59dc48"},"vehicle_type_id":"4","last_reported":1729714251,"current_range_meters":39200,"station_id":"ce4bh412rcd13ifvqdr0","pricing_plan_id":"cebpf4jnsgd1na2vs0mg"},{"bike_id":"1a5888ef-fc8b-4d16-ac44-f7147003b76b","system_id":"levelo_inurba_marseille","lat":43.29518,"lon":5.39038,"is_reserved":false,"is_disabled":false,"rental_uris":{"android":"levelo://app?vid=1a5888ef-fc8b-4d16-ac44-f7147003b76b","ios":"levelo://app?vid=1a5888ef-fc8b-4d16-ac44-f7147003b76b"},"vehicle_type_id":"4","last_reported":1729714251,"current_range_meters":2000,"station_id":"ce4bh3p2rcd13ifvqdp0","pricing_plan_id":"cebpf4jnsgd1na2vs0mg"},{"bike_id":"407d5ace-b68e-45e5-8307-2fb1d021f6b6","system_id":"levelo_inurba_marseille","lat":43.30884,"lon":5.37183,"is_reserved":false,"is_disabled":false,"rental_uris":{"android":"levelo://app?vid=407d5ace-b68e-45e5-8307-2fb1d021f6b6","ios":"levelo://app?vid=407d5ace-b68e-45e5-8307-2fb1d021f6b6"},"vehicle_type_id":"4","last_reported":1729714251,"current_range_meters":16000,"station_id":"ce4bguh2rcd13ifvqckg","pricing_plan_id":"cebpf4jnsgd1na2vs0mg"},{"bike_id":"16c623cf-ab3f-4890-b15b-3153fd350014","system_id":"levelo_inurba_marseille","lat":43.24649,"lon":5.38894,"is_reserved":false,"is_disabled":false,"rental_uris":{"android":"levelo://app?vid=16c623cf-ab3f-4890-b15b-3153fd350014","ios":"levelo://app?vid=16c623cf-ab3f-4890-b15b-3153fd350014"},"vehicle_type_id":"4","last_reported":1729714251,"current_range_meters":30400,"station_id":"ce4bhg12rcd13ifvqf60","pricing_plan_id":"cebpf4jnsgd1na2vs0mg"},{"bike_id":"84bdd819-4ab1-4f82-9b18-7a085349e454","system_id":"levelo_inurba_marseille","lat":43.25579,"lon":5.38231,"is_reserved":false,"is_disabled":false,"rental_uris":{"android":"levelo://app?vid=84bdd819-4ab1-4f82-9b18-7a085349e454","ios":"levelo://app?vid=84bdd819-4ab1-4f82-9b18-7a085349e454"},"vehicle_type_id":"4","last_reported":1729714251,"current_range_meters":27600,"station_id":"ce4bhih2rcd13ifvqfs0","pricing_plan_id":"cebpf4jnsgd1na2vs0mg"},{"bike_id":"f57afd03-c92f-4ffa-9b51-edefd10dccaf","system_id":"levelo_inurba_marseille","lat":43.28707,"lon":5.39996,"is_reserved":false,"is_disabled":false,"rental_uris":{"android":"levelo://app?vid=f57afd03-c92f-4ffa-9b51-edefd10dccaf","ios":"levelo://app?vid=f57afd03-c92f-4ffa-9b51-edefd10dccaf"},"vehicle_type_id":"4","last_reported":1729714251,"current_range_meters":2000,"station_id":"ce4bho92rcd13ifvqh3g","pricing_plan_id":"cebpf4jnsgd1na2vs0mg"},{"bike_id":"a2f5b72d-4b1b-41b7-b3d6-973ff0a6945d","system_id":"levelo_inurba_marseille","lat":43.24387,"lon":5.37061,"is_reserved":false,"is_disabled":false,"rental_uris":{"android":"levelo://app?vid=a2f5b72d-4b1b-41b7-b3d6-973ff0a6945d","ios":"levelo://app?vid=a2f5b72d-4b1b-41b7-b3d6-973ff0a6945d"},"vehicle_type_id":"4","last_reported":1729714251,"current_range_meters":37600,"station_id":"ce4bhhh2rcd13ifvqfk0","pricing_plan_id":"cebpf4jnsgd1na2vs0mg"},{"bike_id":"4fd2f565-ace7-4302-8010-18516f6fa357","system_id":"levelo_inurba_marseille","lat":43.32658,"lon":5.40994,"is_reserved":false,"is_disabled":false,"rental_uris":{"android":"levelo://app?vid=4fd2f565-ace7-4302-8010-18516f6fa357","ios":"levelo://app?vid=4fd2f565-ace7-4302-8010-18516f6fa357"},"vehicle_type_id":"4","last_reported":1729714251,"current_range_meters":27200,"station_id":"ce4bhpp2rcd13ifvqhgg","pricing_plan_id":"cebpf4jnsgd1na2vs0mg"},{"bike_id":"9a5500e7-910d-435f-a360-a01008478b62","system_id":"levelo_inurba_marseille","lat":43.27897,"lon":5.3801,"is_reserved":false,"is_disabled":false,"rental_uris":{"android":"levelo://app?vid=9a5500e7-910d-435f-a360-a01008478b62","ios":"levelo://app?vid=9a5500e7-910d-435f-a360-a01008478b62"},"vehicle_type_id":"4","last_reported":1729714251,"current_range_meters":9200,"station_id":"ce4bhf92rcd13ifvqf50","pricing_plan_id":"cebpf4jnsgd1na2vs0mg"},{"bike_id":"7ea0b9f7-4a6d-47fb-92a8-978540e4b15a","system_id":"levelo_inurba_marseille","lat":43.26944,"lon":5.4026,"is_reserved":false,"is_disabled":false,"rental_uris":{"android":"levelo://app?vid=7ea0b9f7-4a6d-47fb-92a8-978540e4b15a","ios":"levelo://app?vid=7ea0b9f7-4a6d-47fb-92a8-978540e4b15a"},"vehicle_type_id":"4","last_reported":1729714251,"current_range_meters":38800,"station_id":"cjm6bp8fraef2m0cb0m0","pricing_plan_id":"cebpf4jnsgd1na2vs0mg"},{"bike_id":"0528bf61-5371-480d-9a73-5195363c7bd0","system_id":"levelo_inurba_marseille","lat":43.29522,"lon":5.38541,"is_reserved":false,"is_disabled":false,"rental_uris":{"android":"levelo://app?vid=0528bf61-5371-480d-9a73-5195363c7bd0","ios":"levelo://app?vid=0528bf61-5371-480d-9a73-5195363c7bd0"},"vehicle_type_id":"4","last_reported":1729714251,"current_range_meters":37600,"station_id":"ce4bgih2rcd13ifvqba0","pricing_plan_id":"cebpf4jnsgd1na2vs0mg"},{"bike_id":"f94a562f-59f2-4ba1-a457-b8508034886e","system_id":"levelo_inurba_marseille","lat":43.27377,"lon":5.36257,"is_reserved":false,"is_disabled":false,"rental_uris":{"android":"levelo://app?vid=f94a562f-59f2-4ba1-a457-b8508034886e","ios":"levelo://app?vid=f94a562f-59f2-4ba1-a457-b8508034886e"},"vehicle_type_id":"4","last_reported":1729714251,"current_range_meters":25600,"station_id":"ce4bhbh2rcd13ifvqeo0","pricing_plan_id":"cebpf4jnsgd1na2vs0mg"},{"bike_id":"4ec25af9-2c50-4187-b3b7-1dc66bf6c68a","system_id":"levelo_inurba_marseille","lat":43.283,"lon":5.40829,"is_reserved":false,"is_disabled":false,"rental_uris":{"android":"levelo://app?vid=4ec25af9-2c50-4187-b3b7-1dc66bf6c68a","ios":"levelo://app?vid=4ec25af9-2c50-4187-b3b7-1dc66bf6c68a"},"vehicle_type_id":"4","last_reported":1729714251,"current_range_meters":10800,"station_id":"","pricing_plan_id":"cebpf4jnsgd1na2vs0mg"},{"bike_id":"bde29486-f811-47d2-b796-b92fff14b870","system_id":"levelo_inurba_marseille","lat":43.299683,"lon":5.38474,"is_reserved":false,"is_disabled":false,"rental_uris":{"android":"levelo://app?vid=bde29486-f811-47d2-b796-b92fff14b870","ios":"levelo://app?vid=bde29486-f811-47d2-b796-b92fff14b870"},"vehicle_type_id":"4","last_reported":1729714251,"current_range_meters":11200,"station_id":"ce4bh3h2rcd13ifvqdo0","pricing_plan_id":"cebpf4jnsgd1na2vs0mg"},{"bike_id":"f9f93f00-63c7-44b2-8d54-5c8d2f10aa6b","system_id":"levelo_inurba_marseille","lat":43.29537,"lon":5.38536,"is_reserved":false,"is_disabled":false,"rental_uris":{"android":"levelo://app?vid=f9f93f00-63c7-44b2-8d54-5c8d2f10aa6b","ios":"levelo://app?vid=f9f93f00-63c7-44b2-8d54-5c8d2f10aa6b"},"vehicle_type_id":"4","last_reported":1729714251,"current_range_meters":24800,"station_id":"ce4bgih2rcd13ifvqba0","pricing_plan_id":"cebpf4jnsgd1na2vs0mg"},{"bike_id":"b044e76e-bdb4-4de5-a8b7-5b97500a2735","system_id":"levelo_inurba_marseille","lat":43.29531,"lon":5.38537,"is_reserved":false,"is_disabled":false,"rental_uris":{"android":"levelo://app?vid=b044e76e-bdb4-4de5-a8b7-5b97500a2735","ios":"levelo://app?vid=b044e76e-bdb4-4de5-a8b7-5b97500a2735"},"vehicle_type_id":"4","last_reported":1729714251,"current_range_meters":19200,"station_id":"ce4bgih2rcd13ifvqba0","pricing_plan_id":"cebpf4jnsgd1na2vs0mg"},{"bike_id":"f0f5f771-0921-4273-8b0e-ee6f2c5bfffa","system_id":"levelo_inurba_marseille","lat":43.29533,"lon":5.38543,"is_reserved":false,"is_disabled":false,"rental_uris":{"android":"levelo://app?vid=f0f5f771-0921-4273-8b0e-ee6f2c5bfffa","ios":"levelo://app?vid=f0f5f771-0921-4273-8b0e-ee6f2c5bfffa"},"vehicle_type_id":"4","last_reported":1729714251,"current_range_meters":24800,"station_id":"ce4bgih2rcd13ifvqba0","pricing_plan_id":"cebpf4jnsgd1na2vs0mg"},{"bike_id":"04b318d4-f43b-46bf-9dbd-94c5e363f1ab","system_id":"levelo_inurba_marseille","lat":43.30932,"lon":5.40142,"is_reserved":false,"is_disabled":false,"rental_uris":{"android":"levelo://app?vid=04b318d4-f43b-46bf-9dbd-94c5e363f1ab","ios":"levelo://app?vid=04b318d4-f43b-46bf-9dbd-94c5e363f1ab"},"vehicle_type_id":"4","last_reported":1729714251,"current_range_meters":9200,"station_id":"ce4bgvp2rcd13ifvqct0","pricing_plan_id":"cebpf4jnsgd1na2vs0mg"},{"bike_id":"103ed008-6f4b-4142-8ae0-e6b210d9a427","system_id":"levelo_inurba_marseille","lat":43.22932,"lon":5.35376,"is_reserved":false,"is_disabled":false,"rental_uris":{"android":"levelo://app?vid=103ed008-6f4b-4142-8ae0-e6b210d9a427","ios":"levelo://app?vid=103ed008-6f4b-4142-8ae0-e6b210d9a427"},"vehicle_type_id":"4","last_reported":1729714251,"current_range_meters":16000,"station_id":"cpo3532slgdg3j2ikp40","pricing_plan_id":"cebpf4jnsgd1na2vs0mg"},{"bike_id":"2fb8e52c-924f-4578-8549-99f47fbfbe3d","system_id":"levelo_inurba_marseille","lat":43.28347,"lon":5.38095,"is_reserved":false,"is_disabled":false,"rental_uris":{"android":"levelo://app?vid=2fb8e52c-924f-4578-8549-99f47fbfbe3d","ios":"levelo://app?vid=2fb8e52c-924f-4578-8549-99f47fbfbe3d"},"vehicle_type_id":"4","last_reported":1729714251,"current_range_meters":38800,"station_id":"ce4bh412rcd13ifvqdr0","pricing_plan_id":"cebpf4jnsgd1na2vs0mg"},{"bike_id":"fa8da294-671e-4e9a-ad17-e5263743ae7c","system_id":"levelo_inurba_marseille","lat":43.24543,"lon":5.39527,"is_reserved":false,"is_disabled":false,"rental_uris":{"android":"levelo://app?vid=fa8da294-671e-4e9a-ad17-e5263743ae7c","ios":"levelo://app?vid=fa8da294-671e-4e9a-ad17-e5263743ae7c"},"vehicle_type_id":"4","last_reported":1729714251,"current_range_meters":24800,"station_id":"ce4bhlp2rcd13ifvqgjg","pricing_plan_id":"cebpf4jnsgd1na2vs0mg"},{"bike_id":"095cb9fa-ad86-4392-8971-5512121c2f8a","system_id":"levelo_inurba_marseille","lat":43.29869,"lon":5.39743,"is_reserved":false,"is_disabled":false,"rental_uris":{"android":"levelo://app?vid=095cb9fa-ad86-4392-8971-5512121c2f8a","ios":"levelo://app?vid=095cb9fa-ad86-4392-8971-5512121c2f8a"},"vehicle_type_id":"4","last_reported":1729714251,"current_range_meters":18000,"station_id":"ce4bgk12rcd13ifvqbj0","pricing_plan_id":"cebpf4jnsgd1na2vs0mg"},{"bike_id":"ddb7545d-a3a7-4c6e-918c-77a501262b2a","system_id":"levelo_inurba_marseille","lat":43.301423,"lon":5.398575,"is_reserved":false,"is_disabled":false,"rental_uris":{"android":"levelo://app?vid=ddb7545d-a3a7-4c6e-918c-77a501262b2a","ios":"levelo://app?vid=ddb7545d-a3a7-4c6e-918c-77a501262b2a"},"vehicle_type_id":"4","last_reported":1729714251,"current_range_meters":36800,"station_id":"ce4bh0h2rcd13ifvqd40","pricing_plan_id":"cebpf4jnsgd1na2vs0mg"},{"bike_id":"efabcb8c-ee14-4cdc-be9a-ea85da1c61a6","system_id":"levelo_inurba_marseille","lat":43.32367,"lon":5.38881,"is_reserved":false,"is_disabled":false,"rental_uris":{"android":"levelo://app?vid=efabcb8c-ee14-4cdc-be9a-ea85da1c61a6","ios":"levelo://app?vid=efabcb8c-ee14-4cdc-be9a-ea85da1c61a6"},"vehicle_type_id":"4","last_reported":1729714251,"current_range_meters":36800,"station_id":"ce4bhqp2rcd13ifvqhog","pricing_plan_id":"cebpf4jnsgd1na2vs0mg"},{"bike_id":"d1a9ed72-e5df-4f9d-b123-a7c2fb387c29","system_id":"levelo_inurba_marseille","lat":43.29484,"lon":5.39017,"is_reserved":false,"is_disabled":false,"rental_uris":{"android":"levelo://app?vid=d1a9ed72-e5df-4f9d-b123-a7c2fb387c29","ios":"levelo://app?vid=d1a9ed72-e5df-4f9d-b123-a7c2fb387c29"},"vehicle_type_id":"4","last_reported":1729714251,"current_range_meters":38400,"station_id":"ce4bh3p2rcd13ifvqdp0","pricing_plan_id":"cebpf4jnsgd1na2vs0mg"},{"bike_id":"ea86be19-4354-4299-8ffb-9b0930336d68","system_id":"levelo_inurba_marseille","lat":43.28416,"lon":5.37517,"is_reserved":false,"is_disabled":false,"rental_uris":{"android":"levelo://app?vid=ea86be19-4354-4299-8ffb-9b0930336d68","ios":"levelo://app?vid=ea86be19-4354-4299-8ffb-9b0930336d68"},"vehicle_type_id":"4","last_reported":1729714251,"current_range_meters":5600,"station_id":"ce4bh412rcd13ifvqds0","pricing_plan_id":"cebpf4jnsgd1na2vs0mg"},{"bike_id":"3a23f1af-30a4-4557-accf-46d9aacc6d5a","system_id":"levelo_inurba_marseille","lat":43.28456,"lon":5.3589,"is_reserved":false,"is_disabled":false,"rental_uris":{"android":"levelo://app?vid=3a23f1af-30a4-4557-accf-46d9aacc6d5a","ios":"levelo://app?vid=3a23f1af-30a4-4557-accf-46d9aacc6d5a"},"vehicle_type_id":"4","last_reported":1729714251,"current_range_meters":32000,"station_id":"ce4bhah2rcd13ifvqei0","pricing_plan_id":"cebpf4jnsgd1na2vs0mg"},{"bike_id":"38468d00-a2f7-4592-8ce7-c025caf18437","system_id":"levelo_inurba_marseille","lat":43.28155,"lon":5.4264,"is_reserved":false,"is_disabled":false,"rental_uris":{"android":"levelo://app?vid=38468d00-a2f7-4592-8ce7-c025caf18437","ios":"levelo://app?vid=38468d00-a2f7-4592-8ce7-c025caf18437"},"vehicle_type_id":"4","last_reported":1729714251,"current_range_meters":36000,"station_id":"ce4bhnh2rcd13ifvqgug","pricing_plan_id":"cebpf4jnsgd1na2vs0mg"},{"bike_id":"4be36c39-1f06-41ce-8e81-2889cde6b1c6","system_id":"levelo_inurba_marseille","lat":43.29413,"lon":5.38613,"is_reserved":false,"is_disabled":false,"rental_uris":{"android":"levelo://app?vid=4be36c39-1f06-41ce-8e81-2889cde6b1c6","ios":"levelo://app?vid=4be36c39-1f06-41ce-8e81-2889cde6b1c6"},"vehicle_type_id":"4","last_reported":1729714251,"current_range_meters":36800,"station_id":"ce4bh2h2rcd13ifvqdh0","pricing_plan_id":"cebpf4jnsgd1na2vs0mg"},{"bike_id":"df4f0fef-f731-4fc1-9024-1d584cb14648","system_id":"levelo_inurba_marseille","lat":43.28928,"lon":5.36631,"is_reserved":false,"is_disabled":false,"rental_uris":{"android":"levelo://app?vid=df4f0fef-f731-4fc1-9024-1d584cb14648","ios":"levelo://app?vid=df4f0fef-f731-4fc1-9024-1d584cb14648"},"vehicle_type_id":"4","last_reported":1729714251,"current_range_meters":38400,"station_id":"ce4bhap2rcd13ifvqek0","pricing_plan_id":"cebpf4jnsgd1na2vs0mg"},{"bike_id":"10ef942d-e564-4c77-a954-c43e0e015bbc","system_id":"levelo_inurba_marseille","lat":43.23177,"lon":5.3999,"is_reserved":false,"is_disabled":false,"rental_uris":{"android":"levelo://app?vid=10ef942d-e564-4c77-a954-c43e0e015bbc","ios":"levelo://app?vid=10ef942d-e564-4c77-a954-c43e0e015bbc"},"vehicle_type_id":"4","last_reported":1729714251,"current_range_meters":12800,"station_id":"ce4bhn12rcd13ifvqgqg","pricing_plan_id":"cebpf4jnsgd1na2vs0mg"},{"bike_id":"5a9609c2-f572-42b3-994b-3107cc452d1b","system_id":"levelo_inurba_marseille","lat":43.304886,"lon":5.392845,"is_reserved":false,"is_disabled":false,"rental_uris":{"android":"levelo://app?vid=5a9609c2-f572-42b3-994b-3107cc452d1b","ios":"levelo://app?vid=5a9609c2-f572-42b3-994b-3107cc452d1b"},"vehicle_type_id":"4","last_reported":1729714251,"current_range_meters":13600,"station_id":"ce4bh392rcd13ifvqdm0","pricing_plan_id":"cebpf4jnsgd1na2vs0mg"},{"bike_id":"3cab808d-2d28-48c9-b20c-cc3c858c9714","system_id":"levelo_inurba_marseille","lat":43.24173,"lon":5.39724,"is_reserved":false,"is_disabled":false,"rental_uris":{"android":"levelo://app?vid=3cab808d-2d28-48c9-b20c-cc3c858c9714","ios":"levelo://app?vid=3cab808d-2d28-48c9-b20c-cc3c858c9714"},"vehicle_type_id":"4","last_reported":1729714251,"current_range_meters":38800,"station_id":"ce4bhn12rcd13ifvqgpg","pricing_plan_id":"cebpf4jnsgd1na2vs0mg"},{"bike_id":"f3631442-88e4-4b99-802a-caff4044a5fa","system_id":"levelo_inurba_marseille","lat":43.25584,"lon":5.38238,"is_reserved":false,"is_disabled":false,"rental_uris":{"android":"levelo://app?vid=f3631442-88e4-4b99-802a-caff4044a5fa","ios":"levelo://app?vid=f3631442-88e4-4b99-802a-caff4044a5fa"},"vehicle_type_id":"4","last_reported":1729714251,"current_range_meters":13600,"station_id":"ce4bhih2rcd13ifvqfs0","pricing_plan_id":"cebpf4jnsgd1na2vs0mg"},{"bike_id":"67bf2a4e-b0b8-45b5-8898-2db548cfe92d","system_id":"levelo_inurba_marseille","lat":43.31332,"lon":5.39701,"is_reserved":false,"is_disabled":false,"rental_uris":{"android":"levelo://app?vid=67bf2a4e-b0b8-45b5-8898-2db548cfe92d","ios":"levelo://app?vid=67bf2a4e-b0b8-45b5-8898-2db548cfe92d"},"vehicle_type_id":"4","last_reported":1729714251,"current_range_meters":36000,"station_id":"ce4bgvp2rcd13ifvqcu0","pricing_plan_id":"cebpf4jnsgd1na2vs0mg"},{"bike_id":"7b2491ac-7bfc-43d1-9609-b41f70cd1036","system_id":"levelo_inurba_marseille","lat":43.30663,"lon":5.39474,"is_reserved":false,"is_disabled":false,"rental_uris":{"android":"levelo://app?vid=7b2491ac-7bfc-43d1-9609-b41f70cd1036","ios":"levelo://app?vid=7b2491ac-7bfc-43d1-9609-b41f70cd1036"},"vehicle_type_id":"4","last_reported":1729714251,"current_range_meters":25200,"station_id":"","pricing_plan_id":"cebpf4jnsgd1na2vs0mg"},{"bike_id":"77f4b066-aec9-4c35-96ec-732b3f9a5964","system_id":"levelo_inurba_marseille","lat":43.27899,"lon":5.38002,"is_reserved":false,"is_disabled":false,"rental_uris":{"android":"levelo://app?vid=77f4b066-aec9-4c35-96ec-732b3f9a5964","ios":"levelo://app?vid=77f4b066-aec9-4c35-96ec-732b3f9a5964"},"vehicle_type_id":"4","last_reported":1729714251,"current_range_meters":36400,"station_id":"ce4bhf92rcd13ifvqf50","pricing_plan_id":"cebpf4jnsgd1na2vs0mg"},{"bike_id":"e41e09fb-c3cd-4ea0-b6f3-e7e0f9c1776e","system_id":"levelo_inurba_marseille","lat":43.32683,"lon":5.38839,"is_reserved":false,"is_disabled":false,"rental_uris":{"android":"levelo://app?vid=e41e09fb-c3cd-4ea0-b6f3-e7e0f9c1776e","ios":"levelo://app?vid=e41e09fb-c3cd-4ea0-b6f3-e7e0f9c1776e"},"vehicle_type_id":"4","last_reported":1729714251,"current_range_meters":30800,"station_id":"","pricing_plan_id":"cebpf4jnsgd1na2vs0mg"},{"bike_id":"a0bfcec4-1019-4422-bc30-2e46cb48cb4e","system_id":"levelo_inurba_marseille","lat":43.33759,"lon":5.37455,"is_reserved":false,"is_disabled":false,"rental_uris":{"android":"levelo://app?vid=a0bfcec4-1019-4422-bc30-2e46cb48cb4e","ios":"levelo://app?vid=a0bfcec4-1019-4422-bc30-2e46cb48cb4e"},"vehicle_type_id":"4","last_reported":1729714251,"current_range_meters":25600,"station_id":"","pricing_plan_id":"cebpf4jnsgd1na2vs0mg"},{"bike_id":"f50c9b5e-9690-4045-8f28-3865372c75dd","system_id":"levelo_inurba_marseille","lat":43.25585,"lon":5.38231,"is_reserved":false,"is_disabled":false,"rental_uris":{"android":"levelo://app?vid=f50c9b5e-9690-4045-8f28-3865372c75dd","ios":"levelo://app?vid=f50c9b5e-9690-4045-8f28-3865372c75dd"},"vehicle_type_id":"4","last_reported":1729714251,"current_range_meters":27200,"station_id":"ce4bhih2rcd13ifvqfs0","pricing_plan_id":"cebpf4jnsgd1na2vs0mg"},{"bike_id":"9cc86360-5eab-45ae-a458-952e8a91e43e","system_id":"levelo_inurba_marseille","lat":43.22936,"lon":5.3538,"is_reserved":false,"is_disabled":false,"rental_uris":{"android":"levelo://app?vid=9cc86360-5eab-45ae-a458-952e8a91e43e","ios":"levelo://app?vid=9cc86360-5eab-45ae-a458-952e8a91e43e"},"vehicle_type_id":"4","last_reported":1729714251,"current_range_meters":20000,"station_id":"cpo3532slgdg3j2ikp40","pricing_plan_id":"cebpf4jnsgd1na2vs0mg"},{"bike_id":"8adf26c6-ef39-495d-ac00-aab3ed038394","system_id":"levelo_inurba_marseille","lat":43.29297,"lon":5.37148,"is_reserved":false,"is_disabled":false,"rental_uris":{"android":"levelo://app?vid=8adf26c6-ef39-495d-ac00-aab3ed038394","ios":"levelo://app?vid=8adf26c6-ef39-495d-ac00-aab3ed038394"},"vehicle_type_id":"4","last_reported":1729714251,"current_range_meters":37600,"station_id":"ce4bgh92rcd13ifvqb40","pricing_plan_id":"cebpf4jnsgd1na2vs0mg"},{"bike_id":"5057ea2e-3503-41f5-84f1-9dd61758f2f6","system_id":"levelo_inurba_marseille","lat":43.2835,"lon":5.381,"is_reserved":false,"is_disabled":false,"rental_uris":{"android":"levelo://app?vid=5057ea2e-3503-41f5-84f1-9dd61758f2f6","ios":"levelo://app?vid=5057ea2e-3503-41f5-84f1-9dd61758f2f6"},"vehicle_type_id":"4","last_reported":1729714251,"current_range_meters":8000,"station_id":"ce4bh412rcd13ifvqdr0","pricing_plan_id":"cebpf4jnsgd1na2vs0mg"},{"bike_id":"d4178fde-d9f1-489b-bf7f-8a98157127e4","system_id":"levelo_inurba_marseille","lat":43.29432,"lon":5.39743,"is_reserved":false,"is_disabled":false,"rental_uris":{"android":"levelo://app?vid=d4178fde-d9f1-489b-bf7f-8a98157127e4","ios":"levelo://app?vid=d4178fde-d9f1-489b-bf7f-8a98157127e4"},"vehicle_type_id":"4","last_reported":1729714251,"current_range_meters":28800,"station_id":"ce4bh3h2rcd13ifvqdo0","pricing_plan_id":"cebpf4jnsgd1na2vs0mg"},{"bike_id":"2791bec2-772a-458f-a57f-284af3c571b9","system_id":"levelo_inurba_marseille","lat":43.27614,"lon":5.3611,"is_reserved":false,"is_disabled":false,"rental_uris":{"android":"levelo://app?vid=2791bec2-772a-458f-a57f-284af3c571b9","ios":"levelo://app?vid=2791bec2-772a-458f-a57f-284af3c571b9"},"vehicle_type_id":"4","last_reported":1729714251,"current_range_meters":4000,"station_id":"ce4bgj92rcd13ifvqbe0","pricing_plan_id":"cebpf4jnsgd1na2vs0mg"},{"bike_id":"49f3941e-49cf-434b-9c4f-ba031ee7f66e","system_id":"levelo_inurba_marseille","lat":43.29791,"lon":5.39338,"is_reserved":false,"is_disabled":false,"rental_uris":{"android":"levelo://app?vid=49f3941e-49cf-434b-9c4f-ba031ee7f66e","ios":"levelo://app?vid=49f3941e-49cf-434b-9c4f-ba031ee7f66e"},"vehicle_type_id":"4","last_reported":1729714251,"current_range_meters":19200,"station_id":"chh1huq6cuj3fo74tm60","pricing_plan_id":"cebpf4jnsgd1na2vs0mg"},{"bike_id":"9cf75eb8-86ff-4a66-9ca3-5caee8826760","system_id":"levelo_inurba_marseille","lat":43.24067,"lon":5.37763,"is_reserved":false,"is_disabled":false,"rental_uris":{"android":"levelo://app?vid=9cf75eb8-86ff-4a66-9ca3-5caee8826760","ios":"levelo://app?vid=9cf75eb8-86ff-4a66-9ca3-5caee8826760"},"vehicle_type_id":"4","last_reported":1729714251,"current_range_meters":38800,"station_id":"ce4bhnp2rcd13ifvqgvg","pricing_plan_id":"cebpf4jnsgd1na2vs0mg"},{"bike_id":"0e0eaaaf-c9fb-4522-ab66-bc72b5dcd618","system_id":"levelo_inurba_marseille","lat":43.2953,"lon":5.38545,"is_reserved":false,"is_disabled":false,"rental_uris":{"android":"levelo://app?vid=0e0eaaaf-c9fb-4522-ab66-bc72b5dcd618","ios":"levelo://app?vid=0e0eaaaf-c9fb-4522-ab66-bc72b5dcd618"},"vehicle_type_id":"4","last_reported":1729714251,"current_range_meters":30800,"station_id":"ce4bgih2rcd13ifvqba0","pricing_plan_id":"cebpf4jnsgd1na2vs0mg"},{"bike_id":"54a12147-5244-4241-b712-0fdcc97442f7","system_id":"levelo_inurba_marseille","lat":43.29252,"lon":5.38431,"is_reserved":false,"is_disabled":false,"rental_uris":{"android":"levelo://app?vid=54a12147-5244-4241-b712-0fdcc97442f7","ios":"levelo://app?vid=54a12147-5244-4241-b712-0fdcc97442f7"},"vehicle_type_id":"4","last_reported":1729714251,"current_range_meters":36000,"station_id":"ce4bh692rcd13ifvqea0","pricing_plan_id":"cebpf4jnsgd1na2vs0mg"},{"bike_id":"cfcebfa7-3f59-4d32-a8f1-45e59f6e2f26","system_id":"levelo_inurba_marseille","lat":43.22936,"lon":5.35381,"is_reserved":false,"is_disabled":false,"rental_uris":{"android":"levelo://app?vid=cfcebfa7-3f59-4d32-a8f1-45e59f6e2f26","ios":"levelo://app?vid=cfcebfa7-3f59-4d32-a8f1-45e59f6e2f26"},"vehicle_type_id":"4","last_reported":1729714251,"current_range_meters":35600,"station_id":"cpo3532slgdg3j2ikp40","pricing_plan_id":"cebpf4jnsgd1na2vs0mg"},{"bike_id":"3e381e9b-65a4-436a-a571-b4ba1ee13663","system_id":"levelo_inurba_marseille","lat":43.32496,"lon":5.36565,"is_reserved":false,"is_disabled":false,"rental_uris":{"android":"levelo://app?vid=3e381e9b-65a4-436a-a571-b4ba1ee13663","ios":"levelo://app?vid=3e381e9b-65a4-436a-a571-b4ba1ee13663"},"vehicle_type_id":"4","last_reported":1729714251,"current_range_meters":22800,"station_id":"ce4bhs12rcd13ifvqhvg","pricing_plan_id":"cebpf4jnsgd1na2vs0mg"},{"bike_id":"7329d601-f7d1-4b30-9a1b-d08801667c6a","system_id":"levelo_inurba_marseille","lat":43.27494,"lon":5.42456,"is_reserved":false,"is_disabled":false,"rental_uris":{"android":"levelo://app?vid=7329d601-f7d1-4b30-9a1b-d08801667c6a","ios":"levelo://app?vid=7329d601-f7d1-4b30-9a1b-d08801667c6a"},"vehicle_type_id":"4","last_reported":1729714251,"current_range_meters":6800,"station_id":"ce4bhn92rcd13ifvqgrg","pricing_plan_id":"cebpf4jnsgd1na2vs0mg"},{"bike_id":"3a526fc6-5f14-429c-8829-287dc38ef285","system_id":"levelo_inurba_marseille","lat":43.22932,"lon":5.35373,"is_reserved":false,"is_disabled":false,"rental_uris":{"android":"levelo://app?vid=3a526fc6-5f14-429c-8829-287dc38ef285","ios":"levelo://app?vid=3a526fc6-5f14-429c-8829-287dc38ef285"},"vehicle_type_id":"4","last_reported":1729714251,"current_range_meters":35600,"station_id":"cpo3532slgdg3j2ikp40","pricing_plan_id":"cebpf4jnsgd1na2vs0mg"},{"bike_id":"e8ca6d47-6df2-47de-8243-f99a42d70c57","system_id":"levelo_inurba_marseille","lat":43.23961,"lon":5.3663,"is_reserved":false,"is_disabled":false,"rental_uris":{"android":"levelo://app?vid=e8ca6d47-6df2-47de-8243-f99a42d70c57","ios":"levelo://app?vid=e8ca6d47-6df2-47de-8243-f99a42d70c57"},"vehicle_type_id":"4","last_reported":1729714251,"current_range_meters":18800,"station_id":"ce4bhi12rcd13ifvqfp0","pricing_plan_id":"cebpf4jnsgd1na2vs0mg"},{"bike_id":"7262f382-d7e7-464d-933d-3222561c9d4f","system_id":"levelo_inurba_marseille","lat":43.28459,"lon":5.35882,"is_reserved":false,"is_disabled":false,"rental_uris":{"android":"levelo://app?vid=7262f382-d7e7-464d-933d-3222561c9d4f","ios":"levelo://app?vid=7262f382-d7e7-464d-933d-3222561c9d4f"},"vehicle_type_id":"4","last_reported":1729714251,"current_range_meters":28400,"station_id":"ce4bhah2rcd13ifvqei0","pricing_plan_id":"cebpf4jnsgd1na2vs0mg"},{"bike_id":"f3a6df95-40fc-42cd-ae79-f7a4e7de6582","system_id":"levelo_inurba_marseille","lat":43.29061,"lon":5.37165,"is_reserved":false,"is_disabled":false,"rental_uris":{"android":"levelo://app?vid=f3a6df95-40fc-42cd-ae79-f7a4e7de6582","ios":"levelo://app?vid=f3a6df95-40fc-42cd-ae79-f7a4e7de6582"},"vehicle_type_id":"4","last_reported":1729714251,"current_range_meters":24800,"station_id":"ce4bh5p2rcd13ifvqe4g","pricing_plan_id":"cebpf4jnsgd1na2vs0mg"},{"bike_id":"365a5e76-e012-4983-b8a9-1a07480bde83","system_id":"levelo_inurba_marseille","lat":43.23187,"lon":5.35542,"is_reserved":false,"is_disabled":false,"rental_uris":{"android":"levelo://app?vid=365a5e76-e012-4983-b8a9-1a07480bde83","ios":"levelo://app?vid=365a5e76-e012-4983-b8a9-1a07480bde83"},"vehicle_type_id":"4","last_reported":1729714251,"current_range_meters":39200,"station_id":"ce4bhu92rcd13ifvqi70","pricing_plan_id":"cebpf4jnsgd1na2vs0mg"},{"bike_id":"4d224e59-2c94-4f96-8bb6-62bf9b83a809","system_id":"levelo_inurba_marseille","lat":43.26753,"lon":5.39287,"is_reserved":false,"is_disabled":false,"rental_uris":{"android":"levelo://app?vid=4d224e59-2c94-4f96-8bb6-62bf9b83a809","ios":"levelo://app?vid=4d224e59-2c94-4f96-8bb6-62bf9b83a809"},"vehicle_type_id":"4","last_reported":1729714251,"current_range_meters":5600,"station_id":"","pricing_plan_id":"cebpf4jnsgd1na2vs0mg"},{"bike_id":"240c0730-a7a8-4a2e-b4c6-0edd4bfe9292","system_id":"levelo_inurba_marseille","lat":43.30143,"lon":5.39871,"is_reserved":false,"is_disabled":false,"rental_uris":{"android":"levelo://app?vid=240c0730-a7a8-4a2e-b4c6-0edd4bfe9292","ios":"levelo://app?vid=240c0730-a7a8-4a2e-b4c6-0edd4bfe9292"},"vehicle_type_id":"4","last_reported":1729714251,"current_range_meters":25200,"station_id":"ce4bh0h2rcd13ifvqd40","pricing_plan_id":"cebpf4jnsgd1na2vs0mg"},{"bike_id":"46563c5a-7007-49d5-b5af-3cf86c6f8e8a","system_id":"levelo_inurba_marseille","lat":43.25079,"lon":5.39524,"is_reserved":false,"is_disabled":false,"rental_uris":{"android":"levelo://app?vid=46563c5a-7007-49d5-b5af-3cf86c6f8e8a","ios":"levelo://app?vid=46563c5a-7007-49d5-b5af-3cf86c6f8e8a"},"vehicle_type_id":"4","last_reported":1729714251,"current_range_meters":38000,"station_id":"ce4bhm12rcd13ifvqgkg","pricing_plan_id":"cebpf4jnsgd1na2vs0mg"},{"bike_id":"361698a2-0d32-40b6-a58b-efb10e29c154","system_id":"levelo_inurba_marseille","lat":43.29146,"lon":5.37159,"is_reserved":false,"is_disabled":false,"rental_uris":{"android":"levelo://app?vid=361698a2-0d32-40b6-a58b-efb10e29c154","ios":"levelo://app?vid=361698a2-0d32-40b6-a58b-efb10e29c154"},"vehicle_type_id":"4","last_reported":1729714251,"current_range_meters":16400,"station_id":"ce4bha92rcd13ifvqeh0","pricing_plan_id":"cebpf4jnsgd1na2vs0mg"},{"bike_id":"ee44d175-69d2-4d16-8c11-f16b7eb9ac46","system_id":"levelo_inurba_marseille","lat":43.29957,"lon":5.39185,"is_reserved":false,"is_disabled":false,"rental_uris":{"android":"levelo://app?vid=ee44d175-69d2-4d16-8c11-f16b7eb9ac46","ios":"levelo://app?vid=ee44d175-69d2-4d16-8c11-f16b7eb9ac46"},"vehicle_type_id":"4","last_reported":1729714251,"current_range_meters":10000,"station_id":"ce4bghh2rcd13ifvqb60","pricing_plan_id":"cebpf4jnsgd1na2vs0mg"},{"bike_id":"b5b6c77a-6bf6-41d9-a2f5-2de6a0e1c919","system_id":"levelo_inurba_marseille","lat":43.25111,"lon":5.40321,"is_reserved":false,"is_disabled":false,"rental_uris":{"android":"levelo://app?vid=b5b6c77a-6bf6-41d9-a2f5-2de6a0e1c919","ios":"levelo://app?vid=b5b6c77a-6bf6-41d9-a2f5-2de6a0e1c919"},"vehicle_type_id":"4","last_reported":1729714251,"current_range_meters":27600,"station_id":"ce4bhlh2rcd13ifvqgig","pricing_plan_id":"cebpf4jnsgd1na2vs0mg"},{"bike_id":"4a638cf6-defc-408e-b127-366c1f15f3fd","system_id":"levelo_inurba_marseille","lat":43.310744,"lon":5.383442,"is_reserved":false,"is_disabled":false,"rental_uris":{"android":"levelo://app?vid=4a638cf6-defc-408e-b127-366c1f15f3fd","ios":"levelo://app?vid=4a638cf6-defc-408e-b127-366c1f15f3fd"},"vehicle_type_id":"4","last_reported":1729714251,"current_range_meters":29600,"station_id":"ce4bgv92rcd13ifvqcr0","pricing_plan_id":"cebpf4jnsgd1na2vs0mg"},{"bike_id":"4ee096dc-b069-4284-9989-4d30a7b72a91","system_id":"levelo_inurba_marseille","lat":43.267853,"lon":5.394061,"is_reserved":false,"is_disabled":false,"rental_uris":{"android":"levelo://app?vid=4ee096dc-b069-4284-9989-4d30a7b72a91","ios":"levelo://app?vid=4ee096dc-b069-4284-9989-4d30a7b72a91"},"vehicle_type_id":"4","last_reported":1729714251,"current_range_meters":36800,"station_id":"ce4bhh12rcd13ifvqfg0","pricing_plan_id":"cebpf4jnsgd1na2vs0mg"},{"bike_id":"43ec4c82-9232-4402-b0d4-b281c69d707f","system_id":"levelo_inurba_marseille","lat":43.2887,"lon":5.38221,"is_reserved":false,"is_disabled":false,"rental_uris":{"android":"levelo://app?vid=43ec4c82-9232-4402-b0d4-b281c69d707f","ios":"levelo://app?vid=43ec4c82-9232-4402-b0d4-b281c69d707f"},"vehicle_type_id":"4","last_reported":1729714251,"current_range_meters":35600,"station_id":"","pricing_plan_id":"cebpf4jnsgd1na2vs0mg"},{"bike_id":"7b5d7b8c-ac34-47cf-abb2-045e1f42a71f","system_id":"levelo_inurba_marseille","lat":43.29036,"lon":5.38632,"is_reserved":false,"is_disabled":false,"rental_uris":{"android":"levelo://app?vid=7b5d7b8c-ac34-47cf-abb2-045e1f42a71f","ios":"levelo://app?vid=7b5d7b8c-ac34-47cf-abb2-045e1f42a71f"},"vehicle_type_id":"4","last_reported":1729714251,"current_range_meters":12000,"station_id":"ce4bh4p2rcd13ifvqe0g","pricing_plan_id":"cebpf4jnsgd1na2vs0mg"},{"bike_id":"d2b2da75-3fcb-4cbd-a600-381e167d61a5","system_id":"levelo_inurba_marseille","lat":43.3229,"lon":5.38269,"is_reserved":false,"is_disabled":false,"rental_uris":{"android":"levelo://app?vid=d2b2da75-3fcb-4cbd-a600-381e167d61a5","ios":"levelo://app?vid=d2b2da75-3fcb-4cbd-a600-381e167d61a5"},"vehicle_type_id":"4","last_reported":1729714251,"current_range_meters":19600,"station_id":"ce4bhr12rcd13ifvqhqg","pricing_plan_id":"cebpf4jnsgd1na2vs0mg"},{"bike_id":"9e75b1a8-a957-4cf4-9a4a-1c0eb38882c6","system_id":"levelo_inurba_marseille","lat":43.29945,"lon":5.36539,"is_reserved":false,"is_disabled":false,"rental_uris":{"android":"levelo://app?vid=9e75b1a8-a957-4cf4-9a4a-1c0eb38882c6","ios":"levelo://app?vid=9e75b1a8-a957-4cf4-9a4a-1c0eb38882c6"},"vehicle_type_id":"4","last_reported":1729714251,"current_range_meters":38800,"station_id":"ce4bgm92rcd13ifvqbr0","pricing_plan_id":"cebpf4jnsgd1na2vs0mg"},{"bike_id":"35a1828d-1c89-467d-9d2a-949a8a36a8c2","system_id":"levelo_inurba_marseille","lat":43.3133,"lon":5.39691,"is_reserved":false,"is_disabled":false,"rental_uris":{"android":"levelo://app?vid=35a1828d-1c89-467d-9d2a-949a8a36a8c2","ios":"levelo://app?vid=35a1828d-1c89-467d-9d2a-949a8a36a8c2"},"vehicle_type_id":"4","last_reported":1729714251,"current_range_meters":16000,"station_id":"ce4bgvp2rcd13ifvqcu0","pricing_plan_id":"cebpf4jnsgd1na2vs0mg"},{"bike_id":"8ef9ceeb-7ccd-40f3-b807-8ee0abdcaedb","system_id":"levelo_inurba_marseille","lat":43.25818,"lon":5.39432,"is_reserved":false,"is_disabled":false,"rental_uris":{"android":"levelo://app?vid=8ef9ceeb-7ccd-40f3-b807-8ee0abdcaedb","ios":"levelo://app?vid=8ef9ceeb-7ccd-40f3-b807-8ee0abdcaedb"},"vehicle_type_id":"4","last_reported":1729714251,"current_range_meters":18800,"station_id":"ce4bhip2rcd13ifvqft0","pricing_plan_id":"cebpf4jnsgd1na2vs0mg"},{"bike_id":"46990154-f243-4bc1-87ac-4e7330893637","system_id":"levelo_inurba_marseille","lat":43.31085,"lon":5.42433,"is_reserved":false,"is_disabled":false,"rental_uris":{"android":"levelo://app?vid=46990154-f243-4bc1-87ac-4e7330893637","ios":"levelo://app?vid=46990154-f243-4bc1-87ac-4e7330893637"},"vehicle_type_id":"4","last_reported":1729714251,"current_range_meters":24400,"station_id":"ce4bhp92rcd13ifvqhag","pricing_plan_id":"cebpf4jnsgd1na2vs0mg"},{"bike_id":"22b82ab3-3d7e-462b-937f-331ff47a782d","system_id":"levelo_inurba_marseille","lat":43.29151,"lon":5.37157,"is_reserved":false,"is_disabled":false,"rental_uris":{"android":"levelo://app?vid=22b82ab3-3d7e-462b-937f-331ff47a782d","ios":"levelo://app?vid=22b82ab3-3d7e-462b-937f-331ff47a782d"},"vehicle_type_id":"4","last_reported":1729714251,"current_range_meters":18000,"station_id":"ce4bha92rcd13ifvqeh0","pricing_plan_id":"cebpf4jnsgd1na2vs0mg"},{"bike_id":"005a63b9-8e05-48ee-9a51-b640d17d7161","system_id":"levelo_inurba_marseille","lat":43.28339,"lon":5.38106,"is_reserved":false,"is_disabled":false,"rental_uris":{"android":"levelo://app?vid=005a63b9-8e05-48ee-9a51-b640d17d7161","ios":"levelo://app?vid=005a63b9-8e05-48ee-9a51-b640d17d7161"},"vehicle_type_id":"4","last_reported":1729714251,"current_range_meters":39200,"station_id":"ce4bh412rcd13ifvqdr0","pricing_plan_id":"cebpf4jnsgd1na2vs0mg"},{"bike_id":"b1552b54-816c-4ae9-b9df-b5f6a6879883","system_id":"levelo_inurba_marseille","lat":43.2953,"lon":5.38545,"is_reserved":false,"is_disabled":false,"rental_uris":{"android":"levelo://app?vid=b1552b54-816c-4ae9-b9df-b5f6a6879883","ios":"levelo://app?vid=b1552b54-816c-4ae9-b9df-b5f6a6879883"},"vehicle_type_id":"4","last_reported":1729714251,"current_range_meters":8000,"station_id":"ce4bgih2rcd13ifvqba0","pricing_plan_id":"cebpf4jnsgd1na2vs0mg"},{"bike_id":"7e8120a9-7f3c-4a83-8095-32d3f0e47958","system_id":"levelo_inurba_marseille","lat":43.30928,"lon":5.40139,"is_reserved":false,"is_disabled":false,"rental_uris":{"android":"levelo://app?vid=7e8120a9-7f3c-4a83-8095-32d3f0e47958","ios":"levelo://app?vid=7e8120a9-7f3c-4a83-8095-32d3f0e47958"},"vehicle_type_id":"4","last_reported":1729714251,"current_range_meters":38800,"station_id":"ce4bgvp2rcd13ifvqct0","pricing_plan_id":"cebpf4jnsgd1na2vs0mg"},{"bike_id":"51e47bd9-2134-4048-9e2a-4e0d66e44f3b","system_id":"levelo_inurba_marseille","lat":43.27906,"lon":5.37998,"is_reserved":false,"is_disabled":false,"rental_uris":{"android":"levelo://app?vid=51e47bd9-2134-4048-9e2a-4e0d66e44f3b","ios":"levelo://app?vid=51e47bd9-2134-4048-9e2a-4e0d66e44f3b"},"vehicle_type_id":"4","last_reported":1729714251,"current_range_meters":18000,"station_id":"ce4bhf92rcd13ifvqf50","pricing_plan_id":"cebpf4jnsgd1na2vs0mg"},{"bike_id":"ca4bbc1c-3893-4de4-a6cd-05bfb84c926a","system_id":"levelo_inurba_marseille","lat":43.28659,"lon":5.36344,"is_reserved":false,"is_disabled":false,"rental_uris":{"android":"levelo://app?vid=ca4bbc1c-3893-4de4-a6cd-05bfb84c926a","ios":"levelo://app?vid=ca4bbc1c-3893-4de4-a6cd-05bfb84c926a"},"vehicle_type_id":"4","last_reported":1729714251,"current_range_meters":38800,"station_id":"ce4bhah2rcd13ifvqej0","pricing_plan_id":"cebpf4jnsgd1na2vs0mg"},{"bike_id":"df0b2337-1e1e-4e0f-9040-1ed35b3fd2a0","system_id":"levelo_inurba_marseille","lat":43.2842,"lon":5.37523,"is_reserved":false,"is_disabled":false,"rental_uris":{"android":"levelo://app?vid=df0b2337-1e1e-4e0f-9040-1ed35b3fd2a0","ios":"levelo://app?vid=df0b2337-1e1e-4e0f-9040-1ed35b3fd2a0"},"vehicle_type_id":"4","last_reported":1729714251,"current_range_meters":10800,"station_id":"ce4bh412rcd13ifvqds0","pricing_plan_id":"cebpf4jnsgd1na2vs0mg"},{"bike_id":"62ffa3f4-9d42-434c-a2ce-0d53c352b7c8","system_id":"levelo_inurba_marseille","lat":43.27373,"lon":5.36254,"is_reserved":false,"is_disabled":false,"rental_uris":{"android":"levelo://app?vid=62ffa3f4-9d42-434c-a2ce-0d53c352b7c8","ios":"levelo://app?vid=62ffa3f4-9d42-434c-a2ce-0d53c352b7c8"},"vehicle_type_id":"4","last_reported":1729714251,"current_range_meters":22800,"station_id":"ce4bhbh2rcd13ifvqeo0","pricing_plan_id":"cebpf4jnsgd1na2vs0mg"},{"bike_id":"3d94fec5-828e-465b-811e-6d6f6df1662b","system_id":"levelo_inurba_marseille","lat":43.30552,"lon":5.3671,"is_reserved":false,"is_disabled":false,"rental_uris":{"android":"levelo://app?vid=3d94fec5-828e-465b-811e-6d6f6df1662b","ios":"levelo://app?vid=3d94fec5-828e-465b-811e-6d6f6df1662b"},"vehicle_type_id":"4","last_reported":1729714251,"current_range_meters":38800,"station_id":"ce4bgrp2rcd13ifvqc9g","pricing_plan_id":"cebpf4jnsgd1na2vs0mg"},{"bike_id":"1a70df60-9552-446a-91ac-54d0f774b949","system_id":"levelo_inurba_marseille","lat":43.30418,"lon":5.39746,"is_reserved":false,"is_disabled":false,"rental_uris":{"android":"levelo://app?vid=1a70df60-9552-446a-91ac-54d0f774b949","ios":"levelo://app?vid=1a70df60-9552-446a-91ac-54d0f774b949"},"vehicle_type_id":"4","last_reported":1729714251,"current_range_meters":38000,"station_id":"ce4bh092rcd13ifvqd20","pricing_plan_id":"cebpf4jnsgd1na2vs0mg"},{"bike_id":"9d2332af-542b-4930-bb0c-d8c35528b455","system_id":"levelo_inurba_marseille","lat":43.29523,"lon":5.39041,"is_reserved":false,"is_disabled":false,"rental_uris":{"android":"levelo://app?vid=9d2332af-542b-4930-bb0c-d8c35528b455","ios":"levelo://app?vid=9d2332af-542b-4930-bb0c-d8c35528b455"},"vehicle_type_id":"4","last_reported":1729714251,"current_range_meters":36400,"station_id":"ce4bh3p2rcd13ifvqdp0","pricing_plan_id":"cebpf4jnsgd1na2vs0mg"},{"bike_id":"b4e6ddf4-e94c-4cf2-9931-296d9ca0f55e","system_id":"levelo_inurba_marseille","lat":43.25942,"lon":5.4089,"is_reserved":false,"is_disabled":false,"rental_uris":{"android":"levelo://app?vid=b4e6ddf4-e94c-4cf2-9931-296d9ca0f55e","ios":"levelo://app?vid=b4e6ddf4-e94c-4cf2-9931-296d9ca0f55e"},"vehicle_type_id":"4","last_reported":1729714251,"current_range_meters":16400,"station_id":"ce4bhm92rcd13ifvqglg","pricing_plan_id":"cebpf4jnsgd1na2vs0mg"},{"bike_id":"478782db-8537-49d6-9776-de17789219f3","system_id":"levelo_inurba_marseille","lat":43.28106,"lon":5.37843,"is_reserved":false,"is_disabled":false,"rental_uris":{"android":"levelo://app?vid=478782db-8537-49d6-9776-de17789219f3","ios":"levelo://app?vid=478782db-8537-49d6-9776-de17789219f3"},"vehicle_type_id":"4","last_reported":1729714251,"current_range_meters":22800,"station_id":"ce4bha12rcd13ifvqee0","pricing_plan_id":"cebpf4jnsgd1na2vs0mg"},{"bike_id":"ba281863-9f58-430c-b368-eaaf45a66db6","system_id":"levelo_inurba_marseille","lat":43.31994,"lon":5.38155,"is_reserved":false,"is_disabled":false,"rental_uris":{"android":"levelo://app?vid=ba281863-9f58-430c-b368-eaaf45a66db6","ios":"levelo://app?vid=ba281863-9f58-430c-b368-eaaf45a66db6"},"vehicle_type_id":"4","last_reported":1729714251,"current_range_meters":20800,"station_id":"ce4bhr12rcd13ifvqhpg","pricing_plan_id":"cebpf4jnsgd1na2vs0mg"},{"bike_id":"7d8174f1-4b62-4b9d-b25b-d54c33a239a4","system_id":"levelo_inurba_marseille","lat":43.30193,"lon":5.36623,"is_reserved":false,"is_disabled":false,"rental_uris":{"android":"levelo://app?vid=7d8174f1-4b62-4b9d-b25b-d54c33a239a4","ios":"levelo://app?vid=7d8174f1-4b62-4b9d-b25b-d54c33a239a4"},"vehicle_type_id":"4","last_reported":1729714251,"current_range_meters":8400,"station_id":"ce4bgrh2rcd13ifvqc8g","pricing_plan_id":"cebpf4jnsgd1na2vs0mg"},{"bike_id":"61e5a14f-e679-4601-83f0-4da2f3e8492a","system_id":"levelo_inurba_marseille","lat":43.31693,"lon":5.40471,"is_reserved":false,"is_disabled":false,"rental_uris":{"android":"levelo://app?vid=61e5a14f-e679-4601-83f0-4da2f3e8492a","ios":"levelo://app?vid=61e5a14f-e679-4601-83f0-4da2f3e8492a"},"vehicle_type_id":"4","last_reported":1729714251,"current_range_meters":23200,"station_id":"ce4bh012rcd13ifvqd00","pricing_plan_id":"cebpf4jnsgd1na2vs0mg"},{"bike_id":"5a008535-a61f-4901-8623-f71c26f35dc1","system_id":"levelo_inurba_marseille","lat":43.30428,"lon":5.38886,"is_reserved":false,"is_disabled":false,"rental_uris":{"android":"levelo://app?vid=5a008535-a61f-4901-8623-f71c26f35dc1","ios":"levelo://app?vid=5a008535-a61f-4901-8623-f71c26f35dc1"},"vehicle_type_id":"4","last_reported":1729714251,"current_range_meters":28400,"station_id":"ce4bgk12rcd13ifvqbi0","pricing_plan_id":"cebpf4jnsgd1na2vs0mg"},{"bike_id":"42dfe746-da94-4410-ace7-ea6262d5f142","system_id":"levelo_inurba_marseille","lat":43.26188,"lon":5.37449,"is_reserved":false,"is_disabled":false,"rental_uris":{"android":"levelo://app?vid=42dfe746-da94-4410-ace7-ea6262d5f142","ios":"levelo://app?vid=42dfe746-da94-4410-ace7-ea6262d5f142"},"vehicle_type_id":"4","last_reported":1729714251,"current_range_meters":38800,"station_id":"ce4bhgp2rcd13ifvqfc0","pricing_plan_id":"cebpf4jnsgd1na2vs0mg"},{"bike_id":"77e25b46-1613-45cd-bed5-388b672dc2ee","system_id":"levelo_inurba_marseille","lat":43.292566,"lon":5.384478,"is_reserved":false,"is_disabled":false,"rental_uris":{"android":"levelo://app?vid=77e25b46-1613-45cd-bed5-388b672dc2ee","ios":"levelo://app?vid=77e25b46-1613-45cd-bed5-388b672dc2ee"},"vehicle_type_id":"4","last_reported":1729714251,"current_range_meters":38800,"station_id":"ce4bh692rcd13ifvqea0","pricing_plan_id":"cebpf4jnsgd1na2vs0mg"},{"bike_id":"3ad8bae2-4ecf-4353-b711-49c2843da54d","system_id":"levelo_inurba_marseille","lat":43.28353,"lon":5.38098,"is_reserved":false,"is_disabled":false,"rental_uris":{"android":"levelo://app?vid=3ad8bae2-4ecf-4353-b711-49c2843da54d","ios":"levelo://app?vid=3ad8bae2-4ecf-4353-b711-49c2843da54d"},"vehicle_type_id":"4","last_reported":1729714251,"current_range_meters":25200,"station_id":"ce4bh412rcd13ifvqdr0","pricing_plan_id":"cebpf4jnsgd1na2vs0mg"},{"bike_id":"d0901761-e2b0-4b37-96a0-701e71b7c7c2","system_id":"levelo_inurba_marseille","lat":43.29023,"lon":5.36612,"is_reserved":false,"is_disabled":false,"rental_uris":{"android":"levelo://app?vid=d0901761-e2b0-4b37-96a0-701e71b7c7c2","ios":"levelo://app?vid=d0901761-e2b0-4b37-96a0-701e71b7c7c2"},"vehicle_type_id":"4","last_reported":1729714251,"current_range_meters":16000,"station_id":"ce4bhap2rcd13ifvqek0","pricing_plan_id":"cebpf4jnsgd1na2vs0mg"},{"bike_id":"4e5e4355-30f3-4aa2-a0ba-1b9175c7f0bb","system_id":"levelo_inurba_marseille","lat":43.337444,"lon":5.374475,"is_reserved":false,"is_disabled":false,"rental_uris":{"android":"levelo://app?vid=4e5e4355-30f3-4aa2-a0ba-1b9175c7f0bb","ios":"levelo://app?vid=4e5e4355-30f3-4aa2-a0ba-1b9175c7f0bb"},"vehicle_type_id":"4","last_reported":1729714251,"current_range_meters":16400,"station_id":"","pricing_plan_id":"cebpf4jnsgd1na2vs0mg"},{"bike_id":"f2d3c555-d6e2-446f-97ad-c7f885af0280","system_id":"levelo_inurba_marseille","lat":43.30067,"lon":5.39081,"is_reserved":false,"is_disabled":false,"rental_uris":{"android":"levelo://app?vid=f2d3c555-d6e2-446f-97ad-c7f885af0280","ios":"levelo://app?vid=f2d3c555-d6e2-446f-97ad-c7f885af0280"},"vehicle_type_id":"4","last_reported":1729714251,"current_range_meters":24800,"station_id":"ce4bh192rcd13ifvqdb0","pricing_plan_id":"cebpf4jnsgd1na2vs0mg"},{"bike_id":"0692f632-cbde-4c8f-b53d-759af0073585","system_id":"levelo_inurba_marseille","lat":43.29418,"lon":5.38621,"is_reserved":false,"is_disabled":false,"rental_uris":{"android":"levelo://app?vid=0692f632-cbde-4c8f-b53d-759af0073585","ios":"levelo://app?vid=0692f632-cbde-4c8f-b53d-759af0073585"},"vehicle_type_id":"4","last_reported":1729714251,"current_range_meters":27200,"station_id":"ce4bh2h2rcd13ifvqdh0","pricing_plan_id":"cebpf4jnsgd1na2vs0mg"},{"bike_id":"3accd2eb-edbf-4602-9701-e00d39217e19","system_id":"levelo_inurba_marseille","lat":43.30531,"lon":5.38422,"is_reserved":false,"is_disabled":false,"rental_uris":{"android":"levelo://app?vid=3accd2eb-edbf-4602-9701-e00d39217e19","ios":"levelo://app?vid=3accd2eb-edbf-4602-9701-e00d39217e19"},"vehicle_type_id":"4","last_reported":1729714251,"current_range_meters":38800,"station_id":"ce4bgg92rcd13ifvqb30","pricing_plan_id":"cebpf4jnsgd1na2vs0mg"},