{"last_updated":1774701100,"ttl":60,"version":"2.2","data":{"bikes":[{"bike_id":"687f743b-96ab-4b3e-8fbd-b7a59036f888","system_id":"levelo_inurba_marseille","lat":43.28709,"lon":5.46687,"is_reserved":false,"is_disabled":false,"rental_uris":{"android":"levelo://app?vid=687f743b-96ab-4b3e-8fbd-b7a59036f888","ios":"levelo://app?vid=687f743b-96ab-4b3e-8fbd-b7a59036f888"},"vehicle_type_id":"4","last_reported":1774701101,"current_range_meters":2800,"station_id":"st_d6tc3vkotcvc738tfjhg","pricing_plan_id":"cebpf4jnsgd1na2vs0mg"},{"bike_id":"c24f5cf5-9625-4861-a7a5-4da5d51e153a","system_id":"levelo_inurba_marseille","lat":43.31363,"lon":5.38497,"is_reserved":false,"is_disabled":false,"rental_uris":{"android":"levelo://app?vid=c24f5cf5-9625-4861-a7a5-4da5d51e153a","ios":"levelo://app?vid=c24f5cf5-9625-4861-a7a5-4da5d51e153a"},"vehicle_type_id":"4","last_reported":1774701101,"current_range_meters":2800,"station_id":"ce4bgt92rcd13ifvqcf0","pricing_plan_id":"cebpf4jnsgd1na2vs0mg"},{"bike_id":"5d4a26b1-1943-49a3-80c7-3057b3d264ec","system_id":"levelo_inurba_marseille","lat":43.27332,"lon":5.39083,"is_reserved":false,"is_disabled":false,"rental_uris":{"android":"levelo://app?vid=5d4a26b1-1943-49a3-80c7-3057b3d264ec","ios":"levelo://app?vid=5d4a26b1-1943-49a3-80c7-3057b3d264ec"},"vehicle_type_id":"4","last_reported":1774701101,"current_range_meters":2800,"station_id":"ce4bhgp2rcd13ifvqfe0","pricing_plan_id":"cebpf4jnsgd1na2vs0mg"},{"bike_id":"ed9b8903-fd7a-4bcd-a2f1-b692211d5c75","system_id":"levelo_inurba_marseille","lat":43.29808,"lon":5.44069,"is_reserved":false,"is_disabled":false,"rental_uris":{"android":"levelo://app?vid=ed9b8903-fd7a-4bcd-a2f1-b692211d5c75","ios":"levelo://app?vid=ed9b8903-fd7a-4bcd-a2f1-b692211d5c75"},"vehicle_type_id":"4","last_reported":1774701101,"current_range_meters":2800,"station_id":"st_d3jp68qikq2c7381ktn0","pricing_plan_id":"cebpf4jnsgd1na2vs0mg"},{"bike_id":"e6194b09-5bcc-431b-bbd7-a17042641705","system_id":"levelo_inurba_marseille","lat":43.337444,"lon":5.374475,"is_reserved":false,"is_disabled":true,"rental_uris":{"android":"levelo://app?vid=e6194b09-5bcc-431b-bbd7-a17042641705","ios":"levelo://app?vid=e6194b09-5bcc-431b-bbd7-a17042641705"},"vehicle_type_id":"4","last_reported":1774701101,"current_range_meters":2800,"station_id":"","pricing_plan_id":"cebpf4jnsgd1na2vs0mg"},{"bike_id":"120cb18f-4d7e-4c20-885a-2afc754f427d","system_id":"levelo_inurba_marseille","lat":43.28349,"lon":5.38102,"is_reserved":false,"is_disabled":false,"rental_uris":{"android":"levelo://app?vid=120cb18f-4d7e-4c20-885a-2afc754f427d","ios":"levelo://app?vid=120cb18f-4d7e-4c20-885a-2afc754f427d"},"vehicle_type_id":"4","last_reported":1774701101,"current_range_meters":2800,"station_id":"ce4bh412rcd13ifvqdr0","pricing_plan_id":"cebpf4jnsgd1na2vs0mg"},{"bike_id":"5edde4fe-efb7-4a4b-8664-0c49e782eb05","system_id":"levelo_inurba_marseille","lat":43.29556,"lon":5.3751,"is_reserved":false,"is_disabled":false,"rental_uris":{"android":"levelo://app?vid=5edde4fe-efb7-4a4b-8664-0c49e782eb05","ios":"levelo://app?vid=5edde4fe-efb7-4a4b-8664-0c49e782eb05"},"vehicle_type_id":"4","last_reported":1774701101,"current_range_meters":3200,"station_id":"ce4bgh92rcd13ifvqb50","pricing_plan_id":"cebpf4jnsgd1na2vs0mg"},{"bike_id":"41215aec-5f35-41c4-8875-01313ebb4475","system_id":"levelo_inurba_marseille","lat":43.28884,"lon":5.43769,"is_reserved":false,"is_disabled":false,"rental_uris":{"android":"levelo://app?vid=41215aec-5f35-41c4-8875-01313ebb4475","ios":"levelo://app?vid=41215aec-5f35-41c4-8875-01313ebb4475"},"vehicle_type_id":"4","last_reported":1774701101,"current_range_meters":3200,"station_id":"","pricing_plan_id":"cebpf4jnsgd1na2vs0mg"},{"bike_id":"9bc0b937-b0d9-43c5-9555-6ff47bb13b73","system_id":"levelo_inurba_marseille","lat":43.33153,"lon":5.37714,"is_reserved":false,"is_disabled":false,"rental_uris":{"android":"levelo://app?vid=9bc0b937-b0d9-43c5-9555-6ff47bb13b73","ios":"levelo://app?vid=9bc0b937-b0d9-43c5-9555-6ff47bb13b73"},"vehicle_type_id":"4","last_reported":1774701101,"current_range_meters":3200,"station_id":"st_d46cu089ee8s73dldbu0","pricing_plan_id":"cebpf4jnsgd1na2vs0mg"},{"bike_id":"a7ef0fa7-d3be-4f9e-9cf3-5dbc979e1484","system_id":"levelo_inurba_marseille","lat":43.24071,"lon":5.37761,"is_reserved":false,"is_disabled":false,"rental_uris":{"android":"levelo://app?vid=a7ef0fa7-d3be-4f9e-9cf3-5dbc979e1484","ios":"levelo://app?vid=a7ef0fa7-d3be-4f9e-9cf3-5dbc979e1484"},"vehicle_type_id":"4","last_reported":1774701101,"current_range_meters":3200,"station_id":"ce4bhnp2rcd13ifvqgvg","pricing_plan_id":"cebpf4jnsgd1na2vs0mg"},{"bike_id":"80db360c-7472-4e5e-a72d-ff0ab9900c5d","system_id":"levelo_inurba_marseille","lat":43.29201,"lon":5.42611,"is_reserved":false,"is_disabled":false,"rental_uris":{"android":"levelo://app?vid=80db360c-7472-4e5e-a72d-ff0ab9900c5d","ios":"levelo://app?vid=80db360c-7472-4e5e-a72d-ff0ab9900c5d"},"vehicle_type_id":"4","last_reported":1774701101,"current_range_meters":3200,"station_id":"","pricing_plan_id":"cebpf4jnsgd1na2vs0mg"},{"bike_id":"805bb85f-89cf-4059-97eb-a35847a4c2b1","system_id":"levelo_inurba_marseille","lat":43.24652,"lon":5.38896,"is_reserved":false,"is_disabled":false,"rental_uris":{"android":"levelo://app?vid=805bb85f-89cf-4059-97eb-a35847a4c2b1","ios":"levelo://app?vid=805bb85f-89cf-4059-97eb-a35847a4c2b1"},"vehicle_type_id":"4","last_reported":1774701101,"current_range_meters":3200,"station_id":"ce4bhg12rcd13ifvqf60","pricing_plan_id":"cebpf4jnsgd1na2vs0mg"},{"bike_id":"d6d88029-64b8-4411-919c-483ad9a8dd34","system_id":"levelo_inurba_marseille","lat":43.21205,"lon":5.35042,"is_reserved":false,"is_disabled":false,"rental_uris":{"android":"levelo://app?vid=d6d88029-64b8-4411-919c-483ad9a8dd34","ios":"levelo://app?vid=d6d88029-64b8-4411-919c-483ad9a8dd34"},"vehicle_type_id":"4","last_reported":1774701101,"current_range_meters":3600,"station_id":"st_cvj6sg6p6f1abm77japg","pricing_plan_id":"cebpf4jnsgd1na2vs0mg"},{"bike_id":"16a65088-9cde-44d5-aa5a-ec9990314d70","system_id":"levelo_inurba_marseille","lat":43.30373,"lon":5.42465,"is_reserved":false,"is_disabled":false,"rental_uris":{"android":"levelo://app?vid=16a65088-9cde-44d5-aa5a-ec9990314d70","ios":"levelo://app?vid=16a65088-9cde-44d5-aa5a-ec9990314d70"},"vehicle_type_id":"4","last_reported":1774701101,"current_range_meters":3600,"station_id":"ce4bhoh2rcd13ifvqh6g","pricing_plan_id":"cebpf4jnsgd1na2vs0mg"},{"bike_id":"364cbd4b-a2b5-4e19-8606-8c79396a86e1","system_id":"levelo_inurba_marseille","lat":43.23381,"lon":5.4123,"is_reserved":false,"is_disabled":false,"rental_uris":{"android":"levelo://app?vid=364cbd4b-a2b5-4e19-8606-8c79396a86e1","ios":"levelo://app?vid=364cbd4b-a2b5-4e19-8606-8c79396a86e1"},"vehicle_type_id":"4","last_reported":1774701101,"current_range_meters":3600,"station_id":"","pricing_plan_id":"cebpf4jnsgd1na2vs0mg"},{"bike_id":"6a20ed4f-33cc-4319-9cf8-1bd1e3520f1f","system_id":"levelo_inurba_marseille","lat":43.29493,"lon":5.43308,"is_reserved":false,"is_disabled":false,"rental_uris":{"android":"levelo://app?vid=6a20ed4f-33cc-4319-9cf8-1bd1e3520f1f","ios":"levelo://app?vid=6a20ed4f-33cc-4319-9cf8-1bd1e3520f1f"},"vehicle_type_id":"4","last_reported":1774701101,"current_range_meters":3600,"station_id":"st_d3j5ugp08ojc73fj9d10","pricing_plan_id":"cebpf4jnsgd1na2vs0mg"},{"bike_id":"ae758492-79f2-476f-b0b6-5b6613e02dd5","system_id":"levelo_inurba_marseille","lat":43.21197,"lon":5.35057,"is_reserved":false,"is_disabled":false,"rental_uris":{"android":"levelo://app?vid=ae758492-79f2-476f-b0b6-5b6613e02dd5","ios":"levelo://app?vid=ae758492-79f2-476f-b0b6-5b6613e02dd5"},"vehicle_type_id":"4","last_reported":1774701101,"current_range_meters":3600,"station_id":"st_cvj6sg6p6f1abm77japg","pricing_plan_id":"cebpf4jnsgd1na2vs0mg"},{"bike_id":"0e349c35-32b3-4b65-b0c2-ad102d25a611","system_id":"levelo_inurba_marseille","lat":43.28483,"lon":5.38581,"is_reserved":false,"is_disabled":false,"rental_uris":{"android":"levelo://app?vid=0e349c35-32b3-4b65-b0c2-ad102d25a611","ios":"levelo://app?vid=0e349c35-32b3-4b65-b0c2-ad102d25a611"},"vehicle_type_id":"4","last_reported":1774701101,"current_range_meters":3600,"station_id":"ce4bh8p2rcd13ifvqeb0","pricing_plan_id":"cebpf4jnsgd1na2vs0mg"},{"bike_id":"458e1c48-7d3d-4d80-92bd-ab71f6e61068","system_id":"levelo_inurba_marseille","lat":43.26677,"lon":5.38267,"is_reserved":false,"is_disabled":false,"rental_uris":{"android":"levelo://app?vid=458e1c48-7d3d-4d80-92bd-ab71f6e61068","ios":"levelo://app?vid=458e1c48-7d3d-4d80-92bd-ab71f6e61068"},"vehicle_type_id":"4","last_reported":1774701101,"current_range_meters":3600,"station_id":"ce4bhg92rcd13ifvqf90","pricing_plan_id":"cebpf4jnsgd1na2vs0mg"},{"bike_id":"7577d704-4358-4b6d-bf28-c0c3843fa2c6","system_id":"levelo_inurba_marseille","lat":43.24692,"lon":5.38112,"is_reserved":false,"is_disabled":false,"rental_uris":{"android":"levelo://app?vid=7577d704-4358-4b6d-bf28-c0c3843fa2c6","ios":"levelo://app?vid=7577d704-4358-4b6d-bf28-c0c3843fa2c6"},"vehicle_type_id":"4","last_reported":1774701101,"current_range_meters":3600,"station_id":"ce4bhih2rcd13ifvqfr0","pricing_plan_id":"cebpf4jnsgd1na2vs0mg"},{"bike_id":"43dd77b9-7724-4f20-9ba0-1556a9a09a8c","system_id":"levelo_inurba_marseille","lat":43.26494,"lon":5.39547,"is_reserved":false,"is_disabled":false,"rental_uris":{"android":"levelo://app?vid=43dd77b9-7724-4f20-9ba0-1556a9a09a8c","ios":"levelo://app?vid=43dd77b9-7724-4f20-9ba0-1556a9a09a8c"},"vehicle_type_id":"4","last_reported":1774701101,"current_range_meters":3600,"station_id":"ce4bhi12rcd13ifvqfq0","pricing_plan_id":"cebpf4jnsgd1na2vs0mg"},{"bike_id":"69e27c7c-05d6-4969-a22c-fe27130751a8","system_id":"levelo_inurba_marseille","lat":43.2119,"lon":5.3507,"is_reserved":false,"is_disabled":false,"rental_uris":{"android":"levelo://app?vid=69e27c7c-05d6-4969-a22c-fe27130751a8","ios":"levelo://app?vid=69e27c7c-05d6-4969-a22c-fe27130751a8"},"vehicle_type_id":"4","last_reported":1774701101,"current_range_meters":4000,"station_id":"st_cvj6sg6p6f1abm77japg","pricing_plan_id":"cebpf4jnsgd1na2vs0mg"},{"bike_id":"4d2c428a-06db-49bc-a222-2cbc52db76c0","system_id":"levelo_inurba_marseille","lat":43.24168,"lon":5.39723,"is_reserved":false,"is_disabled":false,"rental_uris":{"android":"levelo://app?vid=4d2c428a-06db-49bc-a222-2cbc52db76c0","ios":"levelo://app?vid=4d2c428a-06db-49bc-a222-2cbc52db76c0"},"vehicle_type_id":"4","last_reported":1774701101,"current_range_meters":4000,"station_id":"ce4bhn12rcd13ifvqgpg","pricing_plan_id":"cebpf4jnsgd1na2vs0mg"},{"bike_id":"18a91529-06e5-4b51-b178-940cb96e7217","system_id":"levelo_inurba_marseille","lat":43.23732,"lon":5.36577,"is_reserved":false,"is_disabled":false,"rental_uris":{"android":"levelo://app?vid=18a91529-06e5-4b51-b178-940cb96e7217","ios":"levelo://app?vid=18a91529-06e5-4b51-b178-940cb96e7217"},"vehicle_type_id":"4","last_reported":1774701101,"current_range_meters":4000,"station_id":"st_d3nk18o9ro0c73en2l3g","pricing_plan_id":"cebpf4jnsgd1na2vs0mg"},{"bike_id":"e4b97950-5826-475e-8558-d2e5bcc219f8","system_id":"levelo_inurba_marseille","lat":43.29817,"lon":5.36538,"is_reserved":false,"is_disabled":false,"rental_uris":{"android":"levelo://app?vid=e4b97950-5826-475e-8558-d2e5bcc219f8","ios":"levelo://app?vid=e4b97950-5826-475e-8558-d2e5bcc219f8"},"vehicle_type_id":"4","last_reported":1774701101,"current_range_meters":4000,"station_id":"","pricing_plan_id":"cebpf4jnsgd1na2vs0mg"},{"bike_id":"8a927669-3c1a-4573-98bd-585f9b534d2d","system_id":"levelo_inurba_marseille","lat":43.24479,"lon":5.42535,"is_reserved":false,"is_disabled":false,"rental_uris":{"android":"levelo://app?vid=8a927669-3c1a-4573-98bd-585f9b534d2d","ios":"levelo://app?vid=8a927669-3c1a-4573-98bd-585f9b534d2d"},"vehicle_type_id":"4","last_reported":1774701101,"current_range_meters":4000,"station_id":"st_d4a3vfp97mjs738cd8kg","pricing_plan_id":"cebpf4jnsgd1na2vs0mg"},{"bike_id":"bd934b71-fc54-44f1-90d5-67d1e4783891","system_id":"levelo_inurba_marseille","lat":43.24185,"lon":5.36426,"is_reserved":false,"is_disabled":false,"rental_uris":{"android":"levelo://app?vid=bd934b71-fc54-44f1-90d5-67d1e4783891","ios":"levelo://app?vid=bd934b71-fc54-44f1-90d5-67d1e4783891"},"vehicle_type_id":"4","last_reported":1774701101,"current_range_meters":4000,"station_id":"cpo36qri1sfpv3e86is0","pricing_plan_id":"cebpf4jnsgd1na2vs0mg"},{"bike_id":"4bf5ee1a-db28-4d49-a9e5-e023cbb5efa9","system_id":"levelo_inurba_marseille","lat":43.26513,"lon":5.37942,"is_reserved":false,"is_disabled":false,"rental_uris":{"android":"levelo://app?vid=4bf5ee1a-db28-4d49-a9e5-e023cbb5efa9","ios":"levelo://app?vid=4bf5ee1a-db28-4d49-a9e5-e023cbb5efa9"},"vehicle_type_id":"4","last_reported":1774701101,"current_range_meters":4000,"station_id":"","pricing_plan_id":"cebpf4jnsgd1na2vs0mg"},{"bike_id":"8526a615-f7ec-4624-a0ad-65f2d6d12652","system_id":"levelo_inurba_marseille","lat":43.27565,"lon":5.38422,"is_reserved":false,"is_disabled":false,"rental_uris":{"android":"levelo://app?vid=8526a615-f7ec-4624-a0ad-65f2d6d12652","ios":"levelo://app?vid=8526a615-f7ec-4624-a0ad-65f2d6d12652"},"vehicle_type_id":"4","last_reported":1774701101,"current_range_meters":4000,"station_id":"ce4bhh92rcd13ifvqfi0","pricing_plan_id":"cebpf4jnsgd1na2vs0mg"},{"bike_id":"e9dc9846-a1fb-4f3a-a8d5-dbd68cc5808d","system_id":"levelo_inurba_marseille","lat":43.30804,"lon":5.39966,"is_reserved":false,"is_disabled":false,"rental_uris":{"android":"levelo://app?vid=e9dc9846-a1fb-4f3a-a8d5-dbd68cc5808d","ios":"levelo://app?vid=e9dc9846-a1fb-4f3a-a8d5-dbd68cc5808d"},"vehicle_type_id":"4","last_reported":1774701101,"current_range_meters":4000,"station_id":"","pricing_plan_id":"cebpf4jnsgd1na2vs0mg"},{"bike_id":"fde7c990-ea71-4125-9b7f-4cda0f7e1677","system_id":"levelo_inurba_marseille","lat":43.23786,"lon":5.36628,"is_reserved":false,"is_disabled":false,"rental_uris":{"android":"levelo://app?vid=fde7c990-ea71-4125-9b7f-4cda0f7e1677","ios":"levelo://app?vid=fde7c990-ea71-4125-9b7f-4cda0f7e1677"},"vehicle_type_id":"4","last_reported":1774701101,"current_range_meters":4000,"station_id":"st_d3nk18o9ro0c73en2l3g","pricing_plan_id":"cebpf4jnsgd1na2vs0mg"},{"bike_id":"27f65587-f91a-41b1-aacf-8da5e702b79e","system_id":"levelo_inurba_marseille","lat":43.29773,"lon":5.42765,"is_reserved":false,"is_disabled":false,"rental_uris":{"android":"levelo://app?vid=27f65587-f91a-41b1-aacf-8da5e702b79e","ios":"levelo://app?vid=27f65587-f91a-41b1-aacf-8da5e702b79e"},"vehicle_type_id":"4","last_reported":1774701101,"current_range_meters":4000,"station_id":"st_d3md5207bmas73dh9klg","pricing_plan_id":"cebpf4jnsgd1na2vs0mg"},{"bike_id":"299c1db8-8b1c-4e76-8016-cf4f1472636c","system_id":"levelo_inurba_marseille","lat":43.30934,"lon":5.3998,"is_reserved":false,"is_disabled":false,"rental_uris":{"android":"levelo://app?vid=299c1db8-8b1c-4e76-8016-cf4f1472636c","ios":"levelo://app?vid=299c1db8-8b1c-4e76-8016-cf4f1472636c"},"vehicle_type_id":"4","last_reported":1774701101,"current_range_meters":4000,"station_id":"","pricing_plan_id":"cebpf4jnsgd1na2vs0mg"},{"bike_id":"29b8f791-7789-4e9b-8e39-c750aefccf04","system_id":"levelo_inurba_marseille","lat":43.23785,"lon":5.36624,"is_reserved":false,"is_disabled":false,"rental_uris":{"android":"levelo://app?vid=29b8f791-7789-4e9b-8e39-c750aefccf04","ios":"levelo://app?vid=29b8f791-7789-4e9b-8e39-c750aefccf04"},"vehicle_type_id":"4","last_reported":1774701101,"current_range_meters":4000,"station_id":"st_d3nk18o9ro0c73en2l3g","pricing_plan_id":"cebpf4jnsgd1na2vs0mg"},{"bike_id":"f6da3140-fd26-4033-9f00-20777b532200","system_id":"levelo_inurba_marseille","lat":43.28945,"lon":5.36645,"is_reserved":false,"is_disabled":false,"rental_uris":{"android":"levelo://app?vid=f6da3140-fd26-4033-9f00-20777b532200","ios":"levelo://app?vid=f6da3140-fd26-4033-9f00-20777b532200"},"vehicle_type_id":"4","last_reported":1774701101,"current_range_meters":4000,"station_id":"ce4bhap2rcd13ifvqek0","pricing_plan_id":"cebpf4jnsgd1na2vs0mg"},{"bike_id":"9dcdd50f-4b17-4933-845f-72358427f7fa","system_id":"levelo_inurba_marseille","lat":43.24639,"lon":5.38163,"is_reserved":false,"is_disabled":false,"rental_uris":{"android":"levelo://app?vid=9dcdd50f-4b17-4933-845f-72358427f7fa","ios":"levelo://app?vid=9dcdd50f-4b17-4933-845f-72358427f7fa"},"vehicle_type_id":"4","last_reported":1774701101,"current_range_meters":4000,"station_id":"ce4bhih2rcd13ifvqfr0","pricing_plan_id":"cebpf4jnsgd1na2vs0mg"},{"bike_id":"81b630d8-5267-43cf-aea7-240f8db682d8","system_id":"levelo_inurba_marseille","lat":43.28409,"lon":5.37518,"is_reserved":false,"is_disabled":false,"rental_uris":{"android":"levelo://app?vid=81b630d8-5267-43cf-aea7-240f8db682d8","ios":"levelo://app?vid=81b630d8-5267-43cf-aea7-240f8db682d8"},"vehicle_type_id":"4","last_reported":1774701101,"current_range_meters":4000,"station_id":"ce4bh412rcd13ifvqds0","pricing_plan_id":"cebpf4jnsgd1na2vs0mg"},{"bike_id":"57b702c5-1d95-46f0-81c2-86e24b8cca70","system_id":"levelo_inurba_marseille","lat":43.24544,"lon":5.39528,"is_reserved":false,"is_disabled":false,"rental_uris":{"android":"levelo://app?vid=57b702c5-1d95-46f0-81c2-86e24b8cca70","ios":"levelo://app?vid=57b702c5-1d95-46f0-81c2-86e24b8cca70"},"vehicle_type_id":"4","last_reported":1774701101,"current_range_meters":4400,"station_id":"ce4bhlp2rcd13ifvqgjg","pricing_plan_id":"cebpf4jnsgd1na2vs0mg"},{"bike_id":"34419d6b-c868-4153-ade3-e8560280d245","system_id":"levelo_inurba_marseille","lat":43.27959,"lon":5.38718,"is_reserved":false,"is_disabled":false,"rental_uris":{"android":"levelo://app?vid=34419d6b-c868-4153-ade3-e8560280d245","ios":"levelo://app?vid=34419d6b-c868-4153-ade3-e8560280d245"},"vehicle_type_id":"4","last_reported":1774701101,"current_range_meters":4400,"station_id":"ce4bhg12rcd13ifvqf80","pricing_plan_id":"cebpf4jnsgd1na2vs0mg"},{"bike_id":"7d38c45a-0011-4d05-9bbf-54b7323ff394","system_id":"levelo_inurba_marseille","lat":43.26339,"lon":5.41,"is_reserved":false,"is_disabled":false,"rental_uris":{"android":"levelo://app?vid=7d38c45a-0011-4d05-9bbf-54b7323ff394","ios":"levelo://app?vid=7d38c45a-0011-4d05-9bbf-54b7323ff394"},"vehicle_type_id":"4","last_reported":1774701101,"current_range_meters":4400,"station_id":"st_d4e5ca6na9uc73bfl5fg","pricing_plan_id":"cebpf4jnsgd1na2vs0mg"},{"bike_id":"ace30790-d9f4-4362-b049-53b5308efc6b","system_id":"levelo_inurba_marseille","lat":43.32011,"lon":5.38125,"is_reserved":false,"is_disabled":false,"rental_uris":{"android":"levelo://app?vid=ace30790-d9f4-4362-b049-53b5308efc6b","ios":"levelo://app?vid=ace30790-d9f4-4362-b049-53b5308efc6b"},"vehicle_type_id":"4","last_reported":1774701101,"current_range_meters":4400,"station_id":"ce4bhr12rcd13ifvqhpg","pricing_plan_id":"cebpf4jnsgd1na2vs0mg"},{"bike_id":"92218fad-c6ea-4061-9c87-d7a2bb61d0b5","system_id":"levelo_inurba_marseille","lat":43.23791,"lon":5.36613,"is_reserved":false,"is_disabled":false,"rental_uris":{"android":"levelo://app?vid=92218fad-c6ea-4061-9c87-d7a2bb61d0b5","ios":"levelo://app?vid=92218fad-c6ea-4061-9c87-d7a2bb61d0b5"},"vehicle_type_id":"4","last_reported":1774701101,"current_range_meters":4400,"station_id":"st_d3nk18o9ro0c73en2l3g","pricing_plan_id":"cebpf4jnsgd1na2vs0mg"},{"bike_id":"cc90d61a-8818-4980-b5f9-716e18496220","system_id":"levelo_inurba_marseille","lat":43.30957,"lon":5.39049,"is_reserved":false,"is_disabled":false,"rental_uris":{"android":"levelo://app?vid=cc90d61a-8818-4980-b5f9-716e18496220","ios":"levelo://app?vid=cc90d61a-8818-4980-b5f9-716e18496220"},"vehicle_type_id":"4","last_reported":1774701101,"current_range_meters":4400,"station_id":"ce4bgup2rcd13ifvqco0","pricing_plan_id":"cebpf4jnsgd1na2vs0mg"},{"bike_id":"2a285c34-b32c-4524-baf5-2cd98597b7a1","system_id":"levelo_inurba_marseille","lat":43.24672,"lon":5.38145,"is_reserved":false,"is_disabled":false,"rental_uris":{"android":"levelo://app?vid=2a285c34-b32c-4524-baf5-2cd98597b7a1","ios":"levelo://app?vid=2a285c34-b32c-4524-baf5-2cd98597b7a1"},"vehicle_type_id":"4","last_reported":1774701101,"current_range_meters":4400,"station_id":"ce4bhih2rcd13ifvqfr0","pricing_plan_id":"cebpf4jnsgd1na2vs0mg"},{"bike_id":"6671c61a-045c-4d83-b5a9-69cb797098b8","system_id":"levelo_inurba_marseille","lat":43.34334,"lon":5.36006,"is_reserved":false,"is_disabled":false,"rental_uris":{"android":"levelo://app?vid=6671c61a-045c-4d83-b5a9-69cb797098b8","ios":"levelo://app?vid=6671c61a-045c-4d83-b5a9-69cb797098b8"},"vehicle_type_id":"4","last_reported":1774701101,"current_range_meters":4400,"station_id":"","pricing_plan_id":"cebpf4jnsgd1na2vs0mg"},{"bike_id":"1d7503c3-20ca-4fb6-92d0-5b5a5f6d18ec","system_id":"levelo_inurba_marseille","lat":43.22944,"lon":5.35362,"is_reserved":false,"is_disabled":false,"rental_uris":{"android":"levelo://app?vid=1d7503c3-20ca-4fb6-92d0-5b5a5f6d18ec","ios":"levelo://app?vid=1d7503c3-20ca-4fb6-92d0-5b5a5f6d18ec"},"vehicle_type_id":"4","last_reported":1774701101,"current_range_meters":4800,"station_id":"cpo3532slgdg3j2ikp40","pricing_plan_id":"cebpf4jnsgd1na2vs0mg"},{"bike_id":"6a7fd2aa-a90b-461a-8118-a8f8d903c462","system_id":"levelo_inurba_marseille","lat":43.28482,"lon":5.4839,"is_reserved":false,"is_disabled":false,"rental_uris":{"android":"levelo://app?vid=6a7fd2aa-a90b-461a-8118-a8f8d903c462","ios":"levelo://app?vid=6a7fd2aa-a90b-461a-8118-a8f8d903c462"},"vehicle_type_id":"4","last_reported":1774701101,"current_range_meters":4800,"station_id":"","pricing_plan_id":"cebpf4jnsgd1na2vs0mg"},{"bike_id":"2873a201-01ad-44f0-a3f4-1c2939d32934","system_id":"levelo_inurba_marseille","lat":43.31544,"lon":5.38011,"is_reserved":false,"is_disabled":false,"rental_uris":{"android":"levelo://app?vid=2873a201-01ad-44f0-a3f4-1c2939d32934","ios":"levelo://app?vid=2873a201-01ad-44f0-a3f4-1c2939d32934"},"vehicle_type_id":"4","last_reported":1774701101,"current_range_meters":4800,"station_id":"ce4bhsp2rcd13ifvqi50","pricing_plan_id":"cebpf4jnsgd1na2vs0mg"},{"bike_id":"9585b755-3654-4ff5-b343-6198e4ac6546","system_id":"levelo_inurba_marseille","lat":43.28718,"lon":5.37937,"is_reserved":false,"is_disabled":false,"rental_uris":{"android":"levelo://app?vid=9585b755-3654-4ff5-b343-6198e4ac6546","ios":"levelo://app?vid=9585b755-3654-4ff5-b343-6198e4ac6546"},"vehicle_type_id":"4","last_reported":1774701101,"current_range_meters":4800,"station_id":"ce4bh9p2rcd13ifvqec0","pricing_plan_id":"cebpf4jnsgd1na2vs0mg"},{"bike_id":"248e7202-bf14-41af-ab35-7275ee6c4d6f","system_id":"levelo_inurba_marseille","lat":43.23381,"lon":5.41241,"is_reserved":false,"is_disabled":false,"rental_uris":{"android":"levelo://app?vid=248e7202-bf14-41af-ab35-7275ee6c4d6f","ios":"levelo://app?vid=248e7202-bf14-41af-ab35-7275ee6c4d6f"},"vehicle_type_id":"4","last_reported":1774701101,"current_range_meters":4800,"station_id":"","pricing_plan_id":"cebpf4jnsgd1na2vs0mg"},{"bike_id":"6bfb0414-b1a9-4391-b470-8aabea0b3604","system_id":"levelo_inurba_marseille","lat":43.27624,"lon":5.36099,"is_reserved":false,"is_disabled":false,"rental_uris":{"android":"levelo://app?vid=6bfb0414-b1a9-4391-b470-8aabea0b3604","ios":"levelo://app?vid=6bfb0414-b1a9-4391-b470-8aabea0b3604"},"vehicle_type_id":"4","last_reported":1774701101,"current_range_meters":4800,"station_id":"ce4bgj92rcd13ifvqbe0","pricing_plan_id":"cebpf4jnsgd1na2vs0mg"},{"bike_id":"08514192-7a2c-4fa1-9681-5f4a86e7a702","system_id":"levelo_inurba_marseille","lat":43.28971,"lon":5.37851,"is_reserved":false,"is_disabled":false,"rental_uris":{"android":"levelo://app?vid=08514192-7a2c-4fa1-9681-5f4a86e7a702","ios":"levelo://app?vid=08514192-7a2c-4fa1-9681-5f4a86e7a702"},"vehicle_type_id":"4","last_reported":1774701101,"current_range_meters":4800,"station_id":"ce4bh9p2rcd13ifvqed0","pricing_plan_id":"cebpf4jnsgd1na2vs0mg"},{"bike_id":"96c51abf-3ca1-49ce-a9bd-92931b661d5f","system_id":"levelo_inurba_marseille","lat":43.2957,"lon":5.39997,"is_reserved":false,"is_disabled":false,"rental_uris":{"android":"levelo://app?vid=96c51abf-3ca1-49ce-a9bd-92931b661d5f","ios":"levelo://app?vid=96c51abf-3ca1-49ce-a9bd-92931b661d5f"},"vehicle_type_id":"4","last_reported":1774701101,"current_range_meters":4800,"station_id":"ce4bh312rcd13ifvqdj0","pricing_plan_id":"cebpf4jnsgd1na2vs0mg"},{"bike_id":"cc9675c5-9ac8-496a-8b1a-c0404455ede3","system_id":"levelo_inurba_marseille","lat":43.31168,"lon":5.38719,"is_reserved":false,"is_disabled":false,"rental_uris":{"android":"levelo://app?vid=cc9675c5-9ac8-496a-8b1a-c0404455ede3","ios":"levelo://app?vid=cc9675c5-9ac8-496a-8b1a-c0404455ede3"},"vehicle_type_id":"4","last_reported":1774701101,"current_range_meters":4800,"station_id":"ce4bgv12rcd13ifvqcp0","pricing_plan_id":"cebpf4jnsgd1na2vs0mg"},{"bike_id":"f967aac8-bff7-4d61-9c8d-307b8d7b6ffd","system_id":"levelo_inurba_marseille","lat":43.25338,"lon":5.42178,"is_reserved":false,"is_disabled":false,"rental_uris":{"android":"levelo://app?vid=f967aac8-bff7-4d61-9c8d-307b8d7b6ffd","ios":"levelo://app?vid=f967aac8-bff7-4d61-9c8d-307b8d7b6ffd"},"vehicle_type_id":"4","last_reported":1774701101,"current_range_meters":5600,"station_id":"st_d2m65c5bi1j21697t3ng","pricing_plan_id":"cebpf4jnsgd1na2vs0mg"},{"bike_id":"7d88454c-5db9-4cbe-86a0-1ebe5d14c121","system_id":"levelo_inurba_marseille","lat":43.26941,"lon":5.38903,"is_reserved":false,"is_disabled":false,"rental_uris":{"android":"levelo://app?vid=7d88454c-5db9-4cbe-86a0-1ebe5d14c121","ios":"levelo://app?vid=7d88454c-5db9-4cbe-86a0-1ebe5d14c121"},"vehicle_type_id":"4","last_reported":1774701101,"current_range_meters":5600,"station_id":"ce4bhhh2rcd13ifvqfl0","pricing_plan_id":"cebpf4jnsgd1na2vs0mg"},{"bike_id":"5541b271-78e9-449a-b917-f81d041a4ca6","system_id":"levelo_inurba_marseille","lat":43.30468,"lon":5.37913,"is_reserved":false,"is_disabled":false,"rental_uris":{"android":"levelo://app?vid=5541b271-78e9-449a-b917-f81d041a4ca6","ios":"levelo://app?vid=5541b271-78e9-449a-b917-f81d041a4ca6"},"vehicle_type_id":"4","last_reported":1774701101,"current_range_meters":5600,"station_id":"ce4bgup2rcd13ifvqcn0","pricing_plan_id":"cebpf4jnsgd1na2vs0mg"},{"bike_id":"2f7e568d-ed6f-4186-a78c-8f929e1861f2","system_id":"levelo_inurba_marseille","lat":43.32533,"lon":5.38875,"is_reserved":false,"is_disabled":false,"rental_uris":{"android":"levelo://app?vid=2f7e568d-ed6f-4186-a78c-8f929e1861f2","ios":"levelo://app?vid=2f7e568d-ed6f-4186-a78c-8f929e1861f2"},"vehicle_type_id":"4","last_reported":1774701101,"current_range_meters":5600,"station_id":"","pricing_plan_id":"cebpf4jnsgd1na2vs0mg"},{"bike_id":"b51d43d0-b538-4b30-b0d5-e5c1be881443","system_id":"levelo_inurba_marseille","lat":43.28704,"lon":5.4667,"is_reserved":false,"is_disabled":false,"rental_uris":{"android":"levelo://app?vid=b51d43d0-b538-4b30-b0d5-e5c1be881443","ios":"levelo://app?vid=b51d43d0-b538-4b30-b0d5-e5c1be881443"},"vehicle_type_id":"4","last_reported":1774701101,"current_range_meters":5600,"station_id":"st_d6tc3vkotcvc738tfjhg","pricing_plan_id":"cebpf4jnsgd1na2vs0mg"},{"bike_id":"290afd09-0584-4963-a797-1ed96debbdfe","system_id":"levelo_inurba_marseille","lat":43.21192,"lon":5.35069,"is_reserved":false,"is_disabled":false,"rental_uris":{"android":"levelo://app?vid=290afd09-0584-4963-a797-1ed96debbdfe","ios":"levelo://app?vid=290afd09-0584-4963-a797-1ed96debbdfe"},"vehicle_type_id":"4","last_reported":1774701101,"current_range_meters":6000,"station_id":"st_cvj6sg6p6f1abm77japg","pricing_plan_id":"cebpf4jnsgd1na2vs0mg"},{"bike_id":"1e02fd97-12b6-42bd-b23c-433ee22bd9de","system_id":"levelo_inurba_marseille","lat":43.29022,"lon":5.38132,"is_reserved":false,"is_disabled":true,"rental_uris":{"android":"levelo://app?vid=1e02fd97-12b6-42bd-b23c-433ee22bd9de","ios":"levelo://app?vid=1e02fd97-12b6-42bd-b23c-433ee22bd9de"},"vehicle_type_id":"4","last_reported":1774701101,"current_range_meters":6000,"station_id":"ce4bh4p2rcd13ifvqe1g","pricing_plan_id":"cebpf4jnsgd1na2vs0mg"},{"bike_id":"d97252d0-3958-45e2-926c-26e2d5f2ad61","system_id":"levelo_inurba_marseille","lat":43.24812,"lon":5.37438,"is_reserved":false,"is_disabled":false,"rental_uris":{"android":"levelo://app?vid=d97252d0-3958-45e2-926c-26e2d5f2ad61","ios":"levelo://app?vid=d97252d0-3958-45e2-926c-26e2d5f2ad61"},"vehicle_type_id":"4","last_reported":1774701101,"current_range_meters":6000,"station_id":"ce4bhgh2rcd13ifvqfb0","pricing_plan_id":"cebpf4jnsgd1na2vs0mg"},{"bike_id":"f8be488e-f724-42ee-95f0-72d9443caec7","system_id":"levelo_inurba_marseille","lat":43.24663,"lon":5.38867,"is_reserved":false,"is_disabled":false,"rental_uris":{"android":"levelo://app?vid=f8be488e-f724-42ee-95f0-72d9443caec7","ios":"levelo://app?vid=f8be488e-f724-42ee-95f0-72d9443caec7"},"vehicle_type_id":"4","last_reported":1774701101,"current_range_meters":6000,"station_id":"ce4bhg12rcd13ifvqf60","pricing_plan_id":"cebpf4jnsgd1na2vs0mg"},{"bike_id":"c9a327ca-3cad-4564-8758-287935ac9a8c","system_id":"levelo_inurba_marseille","lat":43.278376,"lon":5.392086,"is_reserved":false,"is_disabled":false,"rental_uris":{"android":"levelo://app?vid=c9a327ca-3cad-4564-8758-287935ac9a8c","ios":"levelo://app?vid=c9a327ca-3cad-4564-8758-287935ac9a8c"},"vehicle_type_id":"4","last_reported":1774701101,"current_range_meters":6000,"station_id":"ce4bhjp2rcd13ifvqga0","pricing_plan_id":"cebpf4jnsgd1na2vs0mg"},{"bike_id":"d7cd45bc-66ff-49c2-aa8d-cfbc7a43a2aa","system_id":"levelo_inurba_marseille","lat":43.2821,"lon":5.39038,"is_reserved":false,"is_disabled":false,"rental_uris":{"android":"levelo://app?vid=d7cd45bc-66ff-49c2-aa8d-cfbc7a43a2aa","ios":"levelo://app?vid=d7cd45bc-66ff-49c2-aa8d-cfbc7a43a2aa"},"vehicle_type_id":"4","last_reported":1774701101,"current_range_meters":6000,"station_id":"ce4bhn92rcd13ifvqgsg","pricing_plan_id":"cebpf4jnsgd1na2vs0mg"},{"bike_id":"5969c3f9-bb5c-48df-9b54-f62d28d08c6a","system_id":"levelo_inurba_marseille","lat":43.26082,"lon":5.39361,"is_reserved":false,"is_disabled":false,"rental_uris":{"android":"levelo://app?vid=5969c3f9-bb5c-48df-9b54-f62d28d08c6a","ios":"levelo://app?vid=5969c3f9-bb5c-48df-9b54-f62d28d08c6a"},"vehicle_type_id":"4","last_reported":1774701101,"current_range_meters":6000,"station_id":"ce4bhh92rcd13ifvqfj0","pricing_plan_id":"cebpf4jnsgd1na2vs0mg"},{"bike_id":"75d31b80-4e21-477c-9e82-c4a19e384887","system_id":"levelo_inurba_marseille","lat":43.30582,"lon":5.37211,"is_reserved":false,"is_disabled":true,"rental_uris":{"android":"levelo://app?vid=75d31b80-4e21-477c-9e82-c4a19e384887","ios":"levelo://app?vid=75d31b80-4e21-477c-9e82-c4a19e384887"},"vehicle_type_id":"4","last_reported":1774701101,"current_range_meters":6000,"station_id":"ce4bgqh2rcd13ifvqc4g","pricing_plan_id":"cebpf4jnsgd1na2vs0mg"},{"bike_id":"b6618779-f865-47a9-8c1f-dc542aa8ef6c","system_id":"levelo_inurba_marseille","lat":43.25119,"lon":5.40318,"is_reserved":false,"is_disabled":false,"rental_uris":{"android":"levelo://app?vid=b6618779-f865-47a9-8c1f-dc542aa8ef6c","ios":"levelo://app?vid=b6618779-f865-47a9-8c1f-dc542aa8ef6c"},"vehicle_type_id":"4","last_reported":1774701101,"current_range_meters":6000,"station_id":"ce4bhlh2rcd13ifvqgig","pricing_plan_id":"cebpf4jnsgd1na2vs0mg"},{"bike_id":"87c0d2c6-316e-4b88-ae81-5b28d3a9b283","system_id":"levelo_inurba_marseille","lat":43.23792,"lon":5.3664,"is_reserved":false,"is_disabled":false,"rental_uris":{"android":"levelo://app?vid=87c0d2c6-316e-4b88-ae81-5b28d3a9b283","ios":"levelo://app?vid=87c0d2c6-316e-4b88-ae81-5b28d3a9b283"},"vehicle_type_id":"4","last_reported":1774701101,"current_range_meters":6000,"station_id":"st_d3nk18o9ro0c73en2l3g","pricing_plan_id":"cebpf4jnsgd1na2vs0mg"},{"bike_id":"a48900c5-dcb6-4e31-bcca-4eb461e90243","system_id":"levelo_inurba_marseille","lat":43.28408,"lon":5.34977,"is_reserved":false,"is_disabled":false,"rental_uris":{"android":"levelo://app?vid=a48900c5-dcb6-4e31-bcca-4eb461e90243","ios":"levelo://app?vid=a48900c5-dcb6-4e31-bcca-4eb461e90243"},"vehicle_type_id":"4","last_reported":1774701101,"current_range_meters":6000,"station_id":"ce4bhbh2rcd13ifvqepg","pricing_plan_id":"cebpf4jnsgd1na2vs0mg"},{"bike_id":"9c448445-1c60-4520-a1cb-98a7a7992b90","system_id":"levelo_inurba_marseille","lat":43.28479,"lon":5.48398,"is_reserved":false,"is_disabled":false,"rental_uris":{"android":"levelo://app?vid=9c448445-1c60-4520-a1cb-98a7a7992b90","ios":"levelo://app?vid=9c448445-1c60-4520-a1cb-98a7a7992b90"},"vehicle_type_id":"4","last_reported":1774701101,"current_range_meters":6000,"station_id":"","pricing_plan_id":"cebpf4jnsgd1na2vs0mg"},{"bike_id":"8762c819-af06-47a1-823e-103f6bbb4852","system_id":"levelo_inurba_marseille","lat":43.27327,"lon":5.39081,"is_reserved":false,"is_disabled":false,"rental_uris":{"android":"levelo://app?vid=8762c819-af06-47a1-823e-103f6bbb4852","ios":"levelo://app?vid=8762c819-af06-47a1-823e-103f6bbb4852"},"vehicle_type_id":"4","last_reported":1774701101,"current_range_meters":6000,"station_id":"ce4bhgp2rcd13ifvqfe0","pricing_plan_id":"cebpf4jnsgd1na2vs0mg"},{"bike_id":"2f019591-3087-43f0-affb-e2eede13213e","system_id":"levelo_inurba_marseille","lat":43.24211,"lon":5.36636,"is_reserved":false,"is_disabled":false,"rental_uris":{"android":"levelo://app?vid=2f019591-3087-43f0-affb-e2eede13213e","ios":"levelo://app?vid=2f019591-3087-43f0-affb-e2eede13213e"},"vehicle_type_id":"4","last_reported":1774701101,"current_range_meters":6400,"station_id":"","pricing_plan_id":"cebpf4jnsgd1na2vs0mg"},{"bike_id":"ff0da1a2-3d1c-43ac-899e-2eb7e114000d","system_id":"levelo_inurba_marseille","lat":43.24161,"lon":5.39724,"is_reserved":false,"is_disabled":false,"rental_uris":{"android":"levelo://app?vid=ff0da1a2-3d1c-43ac-899e-2eb7e114000d","ios":"levelo://app?vid=ff0da1a2-3d1c-43ac-899e-2eb7e114000d"},"vehicle_type_id":"4","last_reported":1774701101,"current_range_meters":6400,"station_id":"ce4bhn12rcd13ifvqgpg","pricing_plan_id":"cebpf4jnsgd1na2vs0mg"},{"bike_id":"6d1dd35d-1ce3-4297-9706-721b82716928","system_id":"levelo_inurba_marseille","lat":43.23702,"lon":5.36696,"is_reserved":false,"is_disabled":false,"rental_uris":{"android":"levelo://app?vid=6d1dd35d-1ce3-4297-9706-721b82716928","ios":"levelo://app?vid=6d1dd35d-1ce3-4297-9706-721b82716928"},"vehicle_type_id":"4","last_reported":1774701101,"current_range_meters":6400,"station_id":"","pricing_plan_id":"cebpf4jnsgd1na2vs0mg"},{"bike_id":"b2b299e2-955d-4e90-9a30-3c19d8f7a219","system_id":"levelo_inurba_marseille","lat":43.21751,"lon":5.34609,"is_reserved":false,"is_disabled":false,"rental_uris":{"android":"levelo://app?vid=b2b299e2-955d-4e90-9a30-3c19d8f7a219","ios":"levelo://app?vid=b2b299e2-955d-4e90-9a30-3c19d8f7a219"},"vehicle_type_id":"4","last_reported":1774701101,"current_range_meters":6400,"station_id":"st_cvj6r9ubvosntc0bgbag","pricing_plan_id":"cebpf4jnsgd1na2vs0mg"},{"bike_id":"2cb0ae82-1cb6-4c7f-add6-a204988a4fab","system_id":"levelo_inurba_marseille","lat":43.279915,"lon":5.416628,"is_reserved":false,"is_disabled":false,"rental_uris":{"android":"levelo://app?vid=2cb0ae82-1cb6-4c7f-add6-a204988a4fab","ios":"levelo://app?vid=2cb0ae82-1cb6-4c7f-add6-a204988a4fab"},"vehicle_type_id":"4","last_reported":1774701101,"current_range_meters":6400,"station_id":"ce4bho12rcd13ifvqh1g","pricing_plan_id":"cebpf4jnsgd1na2vs0mg"},{"bike_id":"7f5f4a35-fda4-4a33-b7ae-332aa08e4387","system_id":"levelo_inurba_marseille","lat":43.29747,"lon":5.4276,"is_reserved":false,"is_disabled":false,"rental_uris":{"android":"levelo://app?vid=7f5f4a35-fda4-4a33-b7ae-332aa08e4387","ios":"levelo://app?vid=7f5f4a35-fda4-4a33-b7ae-332aa08e4387"},"vehicle_type_id":"4","last_reported":1774701101,"current_range_meters":6400,"station_id":"st_d3md5207bmas73dh9klg","pricing_plan_id":"cebpf4jnsgd1na2vs0mg"},{"bike_id":"38a0e605-e352-4916-9b77-35865357e619","system_id":"levelo_inurba_marseille","lat":43.24179,"lon":5.39735,"is_reserved":false,"is_disabled":false,"rental_uris":{"android":"levelo://app?vid=38a0e605-e352-4916-9b77-35865357e619","ios":"levelo://app?vid=38a0e605-e352-4916-9b77-35865357e619"},"vehicle_type_id":"4","last_reported":1774701101,"current_range_meters":6400,"station_id":"ce4bhn12rcd13ifvqgpg","pricing_plan_id":"cebpf4jnsgd1na2vs0mg"},{"bike_id":"80eaa1f6-76d7-451b-91d3-fbd947db55ee","system_id":"levelo_inurba_marseille","lat":43.23201,"lon":5.35536,"is_reserved":false,"is_disabled":false,"rental_uris":{"android":"levelo://app?vid=80eaa1f6-76d7-451b-91d3-fbd947db55ee","ios":"levelo://app?vid=80eaa1f6-76d7-451b-91d3-fbd947db55ee"},"vehicle_type_id":"4","last_reported":1774701101,"current_range_meters":6800,"station_id":"ce4bhu92rcd13ifvqi70","pricing_plan_id":"cebpf4jnsgd1na2vs0mg"},{"bike_id":"07c710b3-9945-4c6c-91f1-50f45999e885","system_id":"levelo_inurba_marseille","lat":43.27221,"lon":5.39139,"is_reserved":false,"is_disabled":false,"rental_uris":{"android":"levelo://app?vid=07c710b3-9945-4c6c-91f1-50f45999e885","ios":"levelo://app?vid=07c710b3-9945-4c6c-91f1-50f45999e885"},"vehicle_type_id":"4","last_reported":1774701101,"current_range_meters":6800,"station_id":"ce4bhhp2rcd13ifvqfm0","pricing_plan_id":"cebpf4jnsgd1na2vs0mg"},{"bike_id":"e7d5f1be-7476-4f24-bd62-a1e0855f1771","system_id":"levelo_inurba_marseille","lat":43.21745,"lon":5.34604,"is_reserved":false,"is_disabled":false,"rental_uris":{"android":"levelo://app?vid=e7d5f1be-7476-4f24-bd62-a1e0855f1771","ios":"levelo://app?vid=e7d5f1be-7476-4f24-bd62-a1e0855f1771"},"vehicle_type_id":"4","last_reported":1774701101,"current_range_meters":6800,"station_id":"st_cvj6r9ubvosntc0bgbag","pricing_plan_id":"cebpf4jnsgd1na2vs0mg"},{"bike_id":"5eea494d-faec-4446-b627-61fcd1718996","system_id":"levelo_inurba_marseille","lat":43.30953,"lon":5.39056,"is_reserved":false,"is_disabled":false,"rental_uris":{"android":"levelo://app?vid=5eea494d-faec-4446-b627-61fcd1718996","ios":"levelo://app?vid=5eea494d-faec-4446-b627-61fcd1718996"},"vehicle_type_id":"4","last_reported":1774701101,"current_range_meters":6800,"station_id":"ce4bgup2rcd13ifvqco0","pricing_plan_id":"cebpf4jnsgd1na2vs0mg"},{"bike_id":"b41a3156-dc53-481e-a551-fb2f3b19b3b5","system_id":"levelo_inurba_marseille","lat":43.29032,"lon":5.39977,"is_reserved":false,"is_disabled":false,"rental_uris":{"android":"levelo://app?vid=b41a3156-dc53-481e-a551-fb2f3b19b3b5","ios":"levelo://app?vid=b41a3156-dc53-481e-a551-fb2f3b19b3b5"},"vehicle_type_id":"4","last_reported":1774701101,"current_range_meters":6800,"station_id":"ce4bh392rcd13ifvqdm0","pricing_plan_id":"cebpf4jnsgd1na2vs0mg"},{"bike_id":"f3d47af6-5b42-4057-b9f6-c501bdc25d75","system_id":"levelo_inurba_marseille","lat":43.23385,"lon":5.41252,"is_reserved":false,"is_disabled":false,"rental_uris":{"android":"levelo://app?vid=f3d47af6-5b42-4057-b9f6-c501bdc25d75","ios":"levelo://app?vid=f3d47af6-5b42-4057-b9f6-c501bdc25d75"},"vehicle_type_id":"4","last_reported":1774701101,"current_range_meters":6800,"station_id":"","pricing_plan_id":"cebpf4jnsgd1na2vs0mg"},{"bike_id":"6b188e00-c758-47a8-807c-544b1fb9270c","system_id":"levelo_inurba_marseille","lat":43.29969,"lon":5.38499,"is_reserved":false,"is_disabled":false,"rental_uris":{"android":"levelo://app?vid=6b188e00-c758-47a8-807c-544b1fb9270c","ios":"levelo://app?vid=6b188e00-c758-47a8-807c-544b1fb9270c"},"vehicle_type_id":"4","last_reported":1774701101,"current_range_meters":6800,"station_id":"ce4bgj92rcd13ifvqbd0","pricing_plan_id":"cebpf4jnsgd1na2vs0mg"},{"bike_id":"fbd013e2-8567-4cc4-a7c6-24dd8fd5e924","system_id":"levelo_inurba_marseille","lat":43.2898,"lon":5.35624,"is_reserved":false,"is_disabled":false,"rental_uris":{"android":"levelo://app?vid=fbd013e2-8567-4cc4-a7c6-24dd8fd5e924","ios":"levelo://app?vid=fbd013e2-8567-4cc4-a7c6-24dd8fd5e924"},"vehicle_type_id":"4","last_reported":1774701101,"current_range_meters":6800,"station_id":"ce4bhb92rcd13ifvqen0","pricing_plan_id":"cebpf4jnsgd1na2vs0mg"},{"bike_id":"10da809c-12be-45da-8e9e-104e5b96a48d","system_id":"levelo_inurba_marseille","lat":43.23786,"lon":5.36639,"is_reserved":false,"is_disabled":false,"rental_uris":{"android":"levelo://app?vid=10da809c-12be-45da-8e9e-104e5b96a48d","ios":"levelo://app?vid=10da809c-12be-45da-8e9e-104e5b96a48d"},"vehicle_type_id":"4","last_reported":1774701101,"current_range_meters":6800,"station_id":"st_d3nk18o9ro0c73en2l3g","pricing_plan_id":"cebpf4jnsgd1na2vs0mg"},{"bike_id":"cae79463-30d1-4ba5-898d-c13551eb02dd","system_id":"levelo_inurba_marseille","lat":43.26215,"lon":5.37443,"is_reserved":false,"is_disabled":false,"rental_uris":{"android":"levelo://app?vid=cae79463-30d1-4ba5-898d-c13551eb02dd","ios":"levelo://app?vid=cae79463-30d1-4ba5-898d-c13551eb02dd"},"vehicle_type_id":"4","last_reported":1774701101,"current_range_meters":6800,"station_id":"ce4bhgp2rcd13ifvqfc0","pricing_plan_id":"cebpf4jnsgd1na2vs0mg"},{"bike_id":"9217548d-edb5-4061-99bf-13f9df486bba","system_id":"levelo_inurba_marseille","lat":43.26554,"lon":5.37286,"is_reserved":false,"is_disabled":false,"rental_uris":{"android":"levelo://app?vid=9217548d-edb5-4061-99bf-13f9df486bba","ios":"levelo://app?vid=9217548d-edb5-4061-99bf-13f9df486bba"},"vehicle_type_id":"4","last_reported":1774701101,"current_range_meters":6800,"station_id":"ce4bhg12rcd13ifvqf70","pricing_plan_id":"cebpf4jnsgd1na2vs0mg"},{"bike_id":"87d30727-3768-4d8e-bf58-70fc68c0feee","system_id":"levelo_inurba_marseille","lat":43.26043,"lon":5.37525,"is_reserved":false,"is_disabled":false,"rental_uris":{"android":"levelo://app?vid=87d30727-3768-4d8e-bf58-70fc68c0feee","ios":"levelo://app?vid=87d30727-3768-4d8e-bf58-70fc68c0feee"},"vehicle_type_id":"4","last_reported":1774701101,"current_range_meters":6800,"station_id":"ce4bhgh2rcd13ifvqfa0","pricing_plan_id":"cebpf4jnsgd1na2vs0mg"},{"bike_id":"ac1a9d6c-17a0-4e01-9607-d886e691e83d","system_id":"levelo_inurba_marseille","lat":43.24394,"lon":5.37082,"is_reserved":false,"is_disabled":false,"rental_uris":{"android":"levelo://app?vid=ac1a9d6c-17a0-4e01-9607-d886e691e83d","ios":"levelo://app?vid=ac1a9d6c-17a0-4e01-9607-d886e691e83d"},"vehicle_type_id":"4","last_reported":1774701101,"current_range_meters":7200,"station_id":"ce4bhhh2rcd13ifvqfk0","pricing_plan_id":"cebpf4jnsgd1na2vs0mg"},{"bike_id":"6d55693b-f207-45a6-8bc4-a39ad3c9ba7a","system_id":"levelo_inurba_marseille","lat":43.268,"lon":5.3902,"is_reserved":false,"is_disabled":false,"rental_uris":{"android":"levelo://app?vid=6d55693b-f207-45a6-8bc4-a39ad3c9ba7a","ios":"levelo://app?vid=6d55693b-f207-45a6-8bc4-a39ad3c9ba7a"},"vehicle_type_id":"4","last_reported":1774701101,"current_range_meters":7200,"station_id":"","pricing_plan_id":"cebpf4jnsgd1na2vs0mg"},{"bike_id":"b74978cb-5b51-4041-8c1c-97c8f4ca71d2","system_id":"levelo_inurba_marseille","lat":43.3118,"lon":5.4063,"is_reserved":false,"is_disabled":false,"rental_uris":{"android":"levelo://app?vid=b74978cb-5b51-4041-8c1c-97c8f4ca71d2","ios":"levelo://app?vid=b74978cb-5b51-4041-8c1c-97c8f4ca71d2"},"vehicle_type_id":"4","last_reported":1774701101,"current_range_meters":7200,"station_id":"","pricing_plan_id":"cebpf4jnsgd1na2vs0mg"},{"bike_id":"b32abf92-34d2-44a0-8754-9ed7ce20c3c3","system_id":"levelo_inurba_marseille","lat":43.2973,"lon":5.37695,"is_reserved":false,"is_disabled":false,"rental_uris":{"android":"levelo://app?vid=b32abf92-34d2-44a0-8754-9ed7ce20c3c3","ios":"levelo://app?vid=b32abf92-34d2-44a0-8754-9ed7ce20c3c3"},"vehicle_type_id":"4","last_reported":1774701101,"current_range_meters":7200,"station_id":"ce4bgkh2rcd13ifvqbl0","pricing_plan_id":"cebpf4jnsgd1na2vs0mg"},{"bike_id":"3cf37742-558c-4f25-9c21-256b80b90180","system_id":"levelo_inurba_marseille","lat":43.29237,"lon":5.36075,"is_reserved":false,"is_disabled":false,"rental_uris":{"android":"levelo://app?vid=3cf37742-558c-4f25-9c21-256b80b90180","ios":"levelo://app?vid=3cf37742-558c-4f25-9c21-256b80b90180"},"vehicle_type_id":"4","last_reported":1774701101,"current_range_meters":7200,"station_id":"ce4bhbh2rcd13ifvqeqg","pricing_plan_id":"cebpf4jnsgd1na2vs0mg"},{"bike_id":"2d5262be-582c-4d87-a7a2-b4c3f4ed4d38","system_id":"levelo_inurba_marseille","lat":43.22569,"lon":5.41635,"is_reserved":false,"is_disabled":false,"rental_uris":{"android":"levelo://app?vid=2d5262be-582c-4d87-a7a2-b4c3f4ed4d38","ios":"levelo://app?vid=2d5262be-582c-4d87-a7a2-b4c3f4ed4d38"},"vehicle_type_id":"4","last_reported":1774701101,"current_range_meters":7200,"station_id":"st_d2o4gvlbi1j2169b742g","pricing_plan_id":"cebpf4jnsgd1na2vs0mg"},{"bike_id":"c7af05b3-4ddb-499c-ae8b-c6fd8683ba94","system_id":"levelo_inurba_marseille","lat":43.29555,"lon":5.38335,"is_reserved":false,"is_disabled":false,"rental_uris":{"android":"levelo://app?vid=c7af05b3-4ddb-499c-ae8b-c6fd8683ba94","ios":"levelo://app?vid=c7af05b3-4ddb-499c-ae8b-c6fd8683ba94"},"vehicle_type_id":"4","last_reported":1774701101,"current_range_meters":7200,"station_id":"","pricing_plan_id":"cebpf4jnsgd1na2vs0mg"},{"bike_id":"acbc78d6-c2df-415a-8f13-66645fb07fb2","system_id":"levelo_inurba_marseille","lat":43.21193,"lon":5.35073,"is_reserved":false,"is_disabled":false,"rental_uris":{"android":"levelo://app?vid=acbc78d6-c2df-415a-8f13-66645fb07fb2","ios":"levelo://app?vid=acbc78d6-c2df-415a-8f13-66645fb07fb2"},"vehicle_type_id":"4","last_reported":1774701101,"current_range_meters":7200,"station_id":"st_cvj6sg6p6f1abm77japg","pricing_plan_id":"cebpf4jnsgd1na2vs0mg"},{"bike_id":"e9afcc8b-4b2d-44c0-90fa-14c60234983f","system_id":"levelo_inurba_marseille","lat":43.24388,"lon":5.37061,"is_reserved":false,"is_disabled":false,"rental_uris":{"android":"levelo://app?vid=e9afcc8b-4b2d-44c0-90fa-14c60234983f","ios":"levelo://app?vid=e9afcc8b-4b2d-44c0-90fa-14c60234983f"},"vehicle_type_id":"4","last_reported":1774701101,"current_range_meters":8000,"station_id":"ce4bhhh2rcd13ifvqfk0","pricing_plan_id":"cebpf4jnsgd1na2vs0mg"},{"bike_id":"a0e1fe6f-1b0c-4b69-b699-3f3295a2fce0","system_id":"levelo_inurba_marseille","lat":43.28407,"lon":5.34982,"is_reserved":false,"is_disabled":false,"rental_uris":{"android":"levelo://app?vid=a0e1fe6f-1b0c-4b69-b699-3f3295a2fce0","ios":"levelo://app?vid=a0e1fe6f-1b0c-4b69-b699-3f3295a2fce0"},"vehicle_type_id":"4","last_reported":1774701101,"current_range_meters":8000,"station_id":"ce4bhbh2rcd13ifvqepg","pricing_plan_id":"cebpf4jnsgd1na2vs0mg"},{"bike_id":"ccae95a5-965a-472f-8138-32ecadf6ef35","system_id":"levelo_inurba_marseille","lat":43.25318,"lon":5.42184,"is_reserved":false,"is_disabled":false,"rental_uris":{"android":"levelo://app?vid=ccae95a5-965a-472f-8138-32ecadf6ef35","ios":"levelo://app?vid=ccae95a5-965a-472f-8138-32ecadf6ef35"},"vehicle_type_id":"4","last_reported":1774701101,"current_range_meters":8000,"station_id":"st_d2m65c5bi1j21697t3ng","pricing_plan_id":"cebpf4jnsgd1na2vs0mg"},{"bike_id":"28483bf5-dea0-476c-af06-fd95f4e48f8f","system_id":"levelo_inurba_marseille","lat":43.33478,"lon":5.36382,"is_reserved":false,"is_disabled":false,"rental_uris":{"android":"levelo://app?vid=28483bf5-dea0-476c-af06-fd95f4e48f8f","ios":"levelo://app?vid=28483bf5-dea0-476c-af06-fd95f4e48f8f"},"vehicle_type_id":"4","last_reported":1774701101,"current_range_meters":8000,"station_id":"","pricing_plan_id":"cebpf4jnsgd1na2vs0mg"},{"bike_id":"5e64853c-8604-4bf3-8ba7-e6a44f5c4468","system_id":"levelo_inurba_marseille","lat":43.27997,"lon":5.40011,"is_reserved":false,"is_disabled":true,"rental_uris":{"android":"levelo://app?vid=5e64853c-8604-4bf3-8ba7-e6a44f5c4468","ios":"levelo://app?vid=5e64853c-8604-4bf3-8ba7-e6a44f5c4468"},"vehicle_type_id":"4","last_reported":1774701101,"current_range_meters":8000,"station_id":"ce4bho92rcd13ifvqh4g","pricing_plan_id":"cebpf4jnsgd1na2vs0mg"},{"bike_id":"f057f137-0cac-4b50-91e6-948f8581886d","system_id":"levelo_inurba_marseille","lat":43.24666,"lon":5.38141,"is_reserved":false,"is_disabled":false,"rental_uris":{"android":"levelo://app?vid=f057f137-0cac-4b50-91e6-948f8581886d","ios":"levelo://app?vid=f057f137-0cac-4b50-91e6-948f8581886d"},"vehicle_type_id":"4","last_reported":1774701101,"current_range_meters":8000,"station_id":"ce4bhih2rcd13ifvqfr0","pricing_plan_id":"cebpf4jnsgd1na2vs0mg"},{"bike_id":"994fea53-cd24-4a02-ab86-d6180b3f1e03","system_id":"levelo_inurba_marseille","lat":43.27558,"lon":5.384,"is_reserved":false,"is_disabled":false,"rental_uris":{"android":"levelo://app?vid=994fea53-cd24-4a02-ab86-d6180b3f1e03","ios":"levelo://app?vid=994fea53-cd24-4a02-ab86-d6180b3f1e03"},"vehicle_type_id":"4","last_reported":1774701101,"current_range_meters":8000,"station_id":"ce4bhh92rcd13ifvqfi0","pricing_plan_id":"cebpf4jnsgd1na2vs0mg"},{"bike_id":"98a09d62-237f-4c22-9f94-0decc41f13d5","system_id":"levelo_inurba_marseille","lat":43.26222,"lon":5.37458,"is_reserved":false,"is_disabled":false,"rental_uris":{"android":"levelo://app?vid=98a09d62-237f-4c22-9f94-0decc41f13d5","ios":"levelo://app?vid=98a09d62-237f-4c22-9f94-0decc41f13d5"},"vehicle_type_id":"4","last_reported":1774701101,"current_range_meters":8000,"station_id":"ce4bhgp2rcd13ifvqfc0","pricing_plan_id":"cebpf4jnsgd1na2vs0mg"},{"bike_id":"204b948f-70fe-4193-81e9-e85160b5b49d","system_id":"levelo_inurba_marseille","lat":43.32496,"lon":5.38284,"is_reserved":false,"is_disabled":false,"rental_uris":{"android":"levelo://app?vid=204b948f-70fe-4193-81e9-e85160b5b49d","ios":"levelo://app?vid=204b948f-70fe-4193-81e9-e85160b5b49d"},"vehicle_type_id":"4","last_reported":1774701101,"current_range_meters":8000,"station_id":"st_d4asgbiv49dc73anf9m0","pricing_plan_id":"cebpf4jnsgd1na2vs0mg"},{"bike_id":"3e80a70b-d902-4f38-bb78-001cfd129e63","system_id":"levelo_inurba_marseille","lat":43.28405,"lon":5.34989,"is_reserved":false,"is_disabled":false,"rental_uris":{"android":"levelo://app?vid=3e80a70b-d902-4f38-bb78-001cfd129e63","ios":"levelo://app?vid=3e80a70b-d902-4f38-bb78-001cfd129e63"},"vehicle_type_id":"4","last_reported":1774701101,"current_range_meters":8000,"station_id":"ce4bhbh2rcd13ifvqepg","pricing_plan_id":"cebpf4jnsgd1na2vs0mg"},{"bike_id":"cdf98d64-aa0d-48b2-8b11-7a5a0bf09ab0","system_id":"levelo_inurba_marseille","lat":43.26194,"lon":5.3749,"is_reserved":false,"is_disabled":false,"rental_uris":{"android":"levelo://app?vid=cdf98d64-aa0d-48b2-8b11-7a5a0bf09ab0","ios":"levelo://app?vid=cdf98d64-aa0d-48b2-8b11-7a5a0bf09ab0"},"vehicle_type_id":"4","last_reported":1774701101,"current_range_meters":8000,"station_id":"ce4bhgp2rcd13ifvqfc0","pricing_plan_id":"cebpf4jnsgd1na2vs0mg"},{"bike_id":"e8df83cf-6381-4e7e-9379-074a8e881801","system_id":"levelo_inurba_marseille","lat":43.31868,"lon":5.36819,"is_reserved":false,"is_disabled":false,"rental_uris":{"android":"levelo://app?vid=e8df83cf-6381-4e7e-9379-074a8e881801","ios":"levelo://app?vid=e8df83cf-6381-4e7e-9379-074a8e881801"},"vehicle_type_id":"4","last_reported":1774701101,"current_range_meters":8000,"station_id":"st_d6o2h0d0559c73evc1b0","pricing_plan_id":"cebpf4jnsgd1na2vs0mg"},{"bike_id":"13735fc1-0a7f-42b2-b845-63ef8bf27e2a","system_id":"levelo_inurba_marseille","lat":43.24666,"lon":5.38165,"is_reserved":false,"is_disabled":false,"rental_uris":{"android":"levelo://app?vid=13735fc1-0a7f-42b2-b845-63ef8bf27e2a","ios":"levelo://app?vid=13735fc1-0a7f-42b2-b845-63ef8bf27e2a"},"vehicle_type_id":"4","last_reported":1774701101,"current_range_meters":8000,"station_id":"ce4bhih2rcd13ifvqfr0","pricing_plan_id":"cebpf4jnsgd1na2vs0mg"},{"bike_id":"7777bbf5-7e5b-40b7-8ca0-5601a4ce4cf5","system_id":"levelo_inurba_marseille","lat":43.28464,"lon":5.35866,"is_reserved":false,"is_disabled":false,"rental_uris":{"android":"levelo://app?vid=7777bbf5-7e5b-40b7-8ca0-5601a4ce4cf5","ios":"levelo://app?vid=7777bbf5-7e5b-40b7-8ca0-5601a4ce4cf5"},"vehicle_type_id":"4","last_reported":1774701101,"current_range_meters":8000,"station_id":"ce4bhah2rcd13ifvqei0","pricing_plan_id":"cebpf4jnsgd1na2vs0mg"},{"bike_id":"ccd64e49-79f3-4219-a96e-d5e4330d2c2d","system_id":"levelo_inurba_marseille","lat":43.24394,"lon":5.37076,"is_reserved":false,"is_disabled":false,"rental_uris":{"android":"levelo://app?vid=ccd64e49-79f3-4219-a96e-d5e4330d2c2d","ios":"levelo://app?vid=ccd64e49-79f3-4219-a96e-d5e4330d2c2d"},"vehicle_type_id":"4","last_reported":1774701101,"current_range_meters":8000,"station_id":"ce4bhhh2rcd13ifvqfk0","pricing_plan_id":"cebpf4jnsgd1na2vs0mg"},{"bike_id":"c5ffcb6e-94c8-46bc-bcbe-82a7f99bb502","system_id":"levelo_inurba_marseille","lat":43.27842,"lon":5.39205,"is_reserved":false,"is_disabled":true,"rental_uris":{"android":"levelo://app?vid=c5ffcb6e-94c8-46bc-bcbe-82a7f99bb502","ios":"levelo://app?vid=c5ffcb6e-94c8-46bc-bcbe-82a7f99bb502"},"vehicle_type_id":"4","last_reported":1774701101,"current_range_meters":8400,"station_id":"ce4bhjp2rcd13ifvqga0","pricing_plan_id":"cebpf4jnsgd1na2vs0mg"},{"bike_id":"c82691aa-ba67-49e2-8ab8-9f87a1546b96","system_id":"levelo_inurba_marseille","lat":43.23196,"lon":5.35546,"is_reserved":false,"is_disabled":false,"rental_uris":{"android":"levelo://app?vid=c82691aa-ba67-49e2-8ab8-9f87a1546b96","ios":"levelo://app?vid=c82691aa-ba67-49e2-8ab8-9f87a1546b96"},"vehicle_type_id":"4","last_reported":1774701101,"current_range_meters":8400,"station_id":"ce4bhu92rcd13ifvqi70","pricing_plan_id":"cebpf4jnsgd1na2vs0mg"},{"bike_id":"7107189a-048a-4ade-b825-1480fdfeac35","system_id":"levelo_inurba_marseille","lat":43.28477,"lon":5.38422,"is_reserved":false,"is_disabled":false,"rental_uris":{"android":"levelo://app?vid=7107189a-048a-4ade-b825-1480fdfeac35","ios":"levelo://app?vid=7107189a-048a-4ade-b825-1480fdfeac35"},"vehicle_type_id":"4","last_reported":1774701101,"current_range_meters":8400,"station_id":"ce4bh512rcd13ifvqe3g","pricing_plan_id":"cebpf4jnsgd1na2vs0mg"},{"bike_id":"899c9f36-9b83-4ce9-bd7d-0f95dd541b6a","system_id":"levelo_inurba_marseille","lat":43.32348,"lon":5.36749,"is_reserved":false,"is_disabled":false,"rental_uris":{"android":"levelo://app?vid=899c9f36-9b83-4ce9-bd7d-0f95dd541b6a","ios":"levelo://app?vid=899c9f36-9b83-4ce9-bd7d-0f95dd541b6a"},"vehicle_type_id":"4","last_reported":1774701101,"current_range_meters":8400,"station_id":"ce4bhsh2rcd13ifvqi2g","pricing_plan_id":"cebpf4jnsgd1na2vs0mg"},{"bike_id":"c420f719-a4cc-4702-b6da-68e6d0f37e6c","system_id":"levelo_inurba_marseille","lat":43.28538,"lon":5.44091,"is_reserved":false,"is_disabled":false,"rental_uris":{"android":"levelo://app?vid=c420f719-a4cc-4702-b6da-68e6d0f37e6c","ios":"levelo://app?vid=c420f719-a4cc-4702-b6da-68e6d0f37e6c"},"vehicle_type_id":"4","last_reported":1774701101,"current_range_meters":8400,"station_id":"st_d3j3df2ikq2c7380ej80","pricing_plan_id":"cebpf4jnsgd1na2vs0mg"},{"bike_id":"5afc8403-6d30-4cf0-9969-def159c6d031","system_id":"levelo_inurba_marseille","lat":43.24395,"lon":5.37056,"is_reserved":false,"is_disabled":false,"rental_uris":{"android":"levelo://app?vid=5afc8403-6d30-4cf0-9969-def159c6d031","ios":"levelo://app?vid=5afc8403-6d30-4cf0-9969-def159c6d031"},"vehicle_type_id":"4","last_reported":1774701101,"current_range_meters":8400,"station_id":"ce4bhhh2rcd13ifvqfk0","pricing_plan_id":"cebpf4jnsgd1na2vs0mg"},{"bike_id":"44e6ef2e-f582-4dae-8b58-95600b73b872","system_id":"levelo_inurba_marseille","lat":43.33538,"lon":5.37467,"is_reserved":false,"is_disabled":false,"rental_uris":{"android":"levelo://app?vid=44e6ef2e-f582-4dae-8b58-95600b73b872","ios":"levelo://app?vid=44e6ef2e-f582-4dae-8b58-95600b73b872"},"vehicle_type_id":"4","last_reported":1774701101,"current_range_meters":8400,"station_id":"st_d46tts09ee8s73dlu43g","pricing_plan_id":"cebpf4jnsgd1na2vs0mg"},{"bike_id":"915ccf51-81c4-4a81-94b6-b9522edf5a8e","system_id":"levelo_inurba_marseille","lat":43.32662,"lon":5.40979,"is_reserved":false,"is_disabled":false,"rental_uris":{"android":"levelo://app?vid=915ccf51-81c4-4a81-94b6-b9522edf5a8e","ios":"levelo://app?vid=915ccf51-81c4-4a81-94b6-b9522edf5a8e"},"vehicle_type_id":"4","last_reported":1774701101,"current_range_meters":8400,"station_id":"ce4bhpp2rcd13ifvqhgg","pricing_plan_id":"cebpf4jnsgd1na2vs0mg"},{"bike_id":"6a65ee8c-1238-4966-9f47-068256c84d5b","system_id":"levelo_inurba_marseille","lat":43.3053,"lon":5.36714,"is_reserved":false,"is_disabled":false,"rental_uris":{"android":"levelo://app?vid=6a65ee8c-1238-4966-9f47-068256c84d5b","ios":"levelo://app?vid=6a65ee8c-1238-4966-9f47-068256c84d5b"},"vehicle_type_id":"4","last_reported":1774701101,"current_range_meters":8400,"station_id":"ce4bgrp2rcd13ifvqc9g","pricing_plan_id":"cebpf4jnsgd1na2vs0mg"},{"bike_id":"ffcc8c3f-36dc-4229-8354-ca58a927c0fa","system_id":"levelo_inurba_marseille","lat":43.25489,"lon":5.37653,"is_reserved":false,"is_disabled":false,"rental_uris":{"android":"levelo://app?vid=ffcc8c3f-36dc-4229-8354-ca58a927c0fa","ios":"levelo://app?vid=ffcc8c3f-36dc-4229-8354-ca58a927c0fa"},"vehicle_type_id":"4","last_reported":1774701101,"current_range_meters":8400,"station_id":"ce4bhh12rcd13ifvqff0","pricing_plan_id":"cebpf4jnsgd1na2vs0mg"},{"bike_id":"3558ea35-7992-4ccb-8605-1b3d24e2540d","system_id":"levelo_inurba_marseille","lat":43.22929,"lon":5.35377,"is_reserved":false,"is_disabled":false,"rental_uris":{"android":"levelo://app?vid=3558ea35-7992-4ccb-8605-1b3d24e2540d","ios":"levelo://app?vid=3558ea35-7992-4ccb-8605-1b3d24e2540d"},"vehicle_type_id":"4","last_reported":1774701101,"current_range_meters":8400,"station_id":"cpo3532slgdg3j2ikp40","pricing_plan_id":"cebpf4jnsgd1na2vs0mg"},{"bike_id":"ef3d2908-5f04-46b3-8950-985b7bd33bee","system_id":"levelo_inurba_marseille","lat":43.28635,"lon":5.35096,"is_reserved":false,"is_disabled":false,"rental_uris":{"android":"levelo://app?vid=ef3d2908-5f04-46b3-8950-985b7bd33bee","ios":"levelo://app?vid=ef3d2908-5f04-46b3-8950-985b7bd33bee"},"vehicle_type_id":"4","last_reported":1774701101,"current_range_meters":8400,"station_id":"ce4bhch2rcd13ifvqeug","pricing_plan_id":"cebpf4jnsgd1na2vs0mg"},{"bike_id":"bbdbddbc-a4ac-42e8-9ac9-73a6eeb7f245","system_id":"levelo_inurba_marseille","lat":43.24809,"lon":5.37453,"is_reserved":false,"is_disabled":false,"rental_uris":{"android":"levelo://app?vid=bbdbddbc-a4ac-42e8-9ac9-73a6eeb7f245","ios":"levelo://app?vid=bbdbddbc-a4ac-42e8-9ac9-73a6eeb7f245"},"vehicle_type_id":"4","last_reported":1774701101,"current_range_meters":8400,"station_id":"ce4bhgh2rcd13ifvqfb0","pricing_plan_id":"cebpf4jnsgd1na2vs0mg"},{"bike_id":"67c1c6e6-4211-4250-be02-a52880e1c23a","system_id":"levelo_inurba_marseille","lat":43.26509,"lon":5.40705,"is_reserved":false,"is_disabled":false,"rental_uris":{"android":"levelo://app?vid=67c1c6e6-4211-4250-be02-a52880e1c23a","ios":"levelo://app?vid=67c1c6e6-4211-4250-be02-a52880e1c23a"},"vehicle_type_id":"4","last_reported":1774701101,"current_range_meters":8400,"station_id":"","pricing_plan_id":"cebpf4jnsgd1na2vs0mg"},{"bike_id":"4f5cf7ef-ddb5-4d25-9c0b-bec33f5f4447","system_id":"levelo_inurba_marseille","lat":43.30954,"lon":5.36881,"is_reserved":false,"is_disabled":false,"rental_uris":{"android":"levelo://app?vid=4f5cf7ef-ddb5-4d25-9c0b-bec33f5f4447","ios":"levelo://app?vid=4f5cf7ef-ddb5-4d25-9c0b-bec33f5f4447"},"vehicle_type_id":"4","last_reported":1774701101,"current_range_meters":8400,"station_id":"","pricing_plan_id":"cebpf4jnsgd1na2vs0mg"},{"bike_id":"b1e731c5-a019-40fb-b94c-b458e0eddb64","system_id":"levelo_inurba_marseille","lat":43.23834,"lon":5.38657,"is_reserved":false,"is_disabled":false,"rental_uris":{"android":"levelo://app?vid=b1e731c5-a019-40fb-b94c-b458e0eddb64","ios":"levelo://app?vid=b1e731c5-a019-40fb-b94c-b458e0eddb64"},"vehicle_type_id":"4","last_reported":1774701101,"current_range_meters":8800,"station_id":"","pricing_plan_id":"cebpf4jnsgd1na2vs0mg"},{"bike_id":"7693b35e-3533-4c45-aaee-353957373915","system_id":"levelo_inurba_marseille","lat":43.30875,"lon":5.36872,"is_reserved":false,"is_disabled":false,"rental_uris":{"android":"levelo://app?vid=7693b35e-3533-4c45-aaee-353957373915","ios":"levelo://app?vid=7693b35e-3533-4c45-aaee-353957373915"},"vehicle_type_id":"4","last_reported":1774701101,"current_range_meters":8800,"station_id":"ce4bgn92rcd13ifvqbvg","pricing_plan_id":"cebpf4jnsgd1na2vs0mg"},{"bike_id":"44b061ea-ac90-4ccb-8d43-7cab8ff1f0e0","system_id":"levelo_inurba_marseille","lat":43.26065,"lon":5.3939,"is_reserved":false,"is_disabled":false,"rental_uris":{"android":"levelo://app?vid=44b061ea-ac90-4ccb-8d43-7cab8ff1f0e0","ios":"levelo://app?vid=44b061ea-ac90-4ccb-8d43-7cab8ff1f0e0"},"vehicle_type_id":"4","last_reported":1774701101,"current_range_meters":8800,"station_id":"ce4bhh92rcd13ifvqfj0","pricing_plan_id":"cebpf4jnsgd1na2vs0mg"},{"bike_id":"3732dba2-8d00-46e8-949f-9e24734dd3e3","system_id":"levelo_inurba_marseille","lat":43.28845,"lon":5.39298,"is_reserved":false,"is_disabled":false,"rental_uris":{"android":"levelo://app?vid=3732dba2-8d00-46e8-949f-9e24734dd3e3","ios":"levelo://app?vid=3732dba2-8d00-46e8-949f-9e24734dd3e3"},"vehicle_type_id":"4","last_reported":1774701101,"current_range_meters":8800,"station_id":"ce4bh2p2rcd13ifvqdi0","pricing_plan_id":"cebpf4jnsgd1na2vs0mg"},{"bike_id":"92cb4986-12bc-44d4-ad49-496427bf2b45","system_id":"levelo_inurba_marseille","lat":43.28535,"lon":5.44105,"is_reserved":false,"is_disabled":false,"rental_uris":{"android":"levelo://app?vid=92cb4986-12bc-44d4-ad49-496427bf2b45","ios":"levelo://app?vid=92cb4986-12bc-44d4-ad49-496427bf2b45"},"vehicle_type_id":"4","last_reported":1774701101,"current_range_meters":8800,"station_id":"st_d3j3df2ikq2c7380ej80","pricing_plan_id":"cebpf4jnsgd1na2vs0mg"},{"bike_id":"2457fc1b-679d-4a71-90e9-ad408ab6ed9d","system_id":"levelo_inurba_marseille","lat":43.33483,"lon":5.3797,"is_reserved":false,"is_disabled":false,"rental_uris":{"android":"levelo://app?vid=2457fc1b-679d-4a71-90e9-ad408ab6ed9d","ios":"levelo://app?vid=2457fc1b-679d-4a71-90e9-ad408ab6ed9d"},"vehicle_type_id":"4","last_reported":1774701101,"current_range_meters":8800,"station_id":"","pricing_plan_id":"cebpf4jnsgd1na2vs0mg"},{"bike_id":"6627d87e-d8cc-4315-9870-c98a872f12b5","system_id":"levelo_inurba_marseille","lat":43.24667,"lon":5.38169,"is_reserved":false,"is_disabled":false,"rental_uris":{"android":"levelo://app?vid=6627d87e-d8cc-4315-9870-c98a872f12b5","ios":"levelo://app?vid=6627d87e-d8cc-4315-9870-c98a872f12b5"},"vehicle_type_id":"4","last_reported":1774701101,"current_range_meters":8800,"station_id":"ce4bhih2rcd13ifvqfr0","pricing_plan_id":"cebpf4jnsgd1na2vs0mg"},{"bike_id":"1fce7f1d-4e59-45d5-ad05-440b881821b7","system_id":"levelo_inurba_marseille","lat":43.2379,"lon":5.36633,"is_reserved":false,"is_disabled":false,"rental_uris":{"android":"levelo://app?vid=1fce7f1d-4e59-45d5-ad05-440b881821b7","ios":"levelo://app?vid=1fce7f1d-4e59-45d5-ad05-440b881821b7"},"vehicle_type_id":"4","last_reported":1774701101,"current_range_meters":8800,"station_id":"st_d3nk18o9ro0c73en2l3g","pricing_plan_id":"cebpf4jnsgd1na2vs0mg"},{"bike_id":"fee1fa78-99e1-418b-a173-a71cf30704c4","system_id":"levelo_inurba_marseille","lat":43.32368,"lon":5.38898,"is_reserved":false,"is_disabled":false,"rental_uris":{"android":"levelo://app?vid=fee1fa78-99e1-418b-a173-a71cf30704c4","ios":"levelo://app?vid=fee1fa78-99e1-418b-a173-a71cf30704c4"},"vehicle_type_id":"4","last_reported":1774701101,"current_range_meters":8800,"station_id":"ce4bhqp2rcd13ifvqhog","pricing_plan_id":"cebpf4jnsgd1na2vs0mg"},{"bike_id":"64ef55fa-4852-4429-b76f-f1a5b1ebde40","system_id":"levelo_inurba_marseille","lat":43.2721,"lon":5.39167,"is_reserved":false,"is_disabled":false,"rental_uris":{"android":"levelo://app?vid=64ef55fa-4852-4429-b76f-f1a5b1ebde40","ios":"levelo://app?vid=64ef55fa-4852-4429-b76f-f1a5b1ebde40"},"vehicle_type_id":"4","last_reported":1774701101,"current_range_meters":8800,"station_id":"ce4bhhp2rcd13ifvqfm0","pricing_plan_id":"cebpf4jnsgd1na2vs0mg"},{"bike_id":"ceafad9d-a500-41ad-9e31-0938466572d1","system_id":"levelo_inurba_marseille","lat":43.32371,"lon":5.38879,"is_reserved":false,"is_disabled":false,"rental_uris":{"android":"levelo://app?vid=ceafad9d-a500-41ad-9e31-0938466572d1","ios":"levelo://app?vid=ceafad9d-a500-41ad-9e31-0938466572d1"},"vehicle_type_id":"4","last_reported":1774701101,"current_range_meters":8800,"station_id":"ce4bhqp2rcd13ifvqhog","pricing_plan_id":"cebpf4jnsgd1na2vs0mg"},{"bike_id":"3ed4eab2-4337-4180-944e-25a1895e5709","system_id":"levelo_inurba_marseille","lat":43.31042,"lon":5.37119,"is_reserved":false,"is_disabled":false,"rental_uris":{"android":"levelo://app?vid=3ed4eab2-4337-4180-944e-25a1895e5709","ios":"levelo://app?vid=3ed4eab2-4337-4180-944e-25a1895e5709"},"vehicle_type_id":"4","last_reported":1774701101,"current_range_meters":8800,"station_id":"st_d4kl2rp97mjs73e7tdfg","pricing_plan_id":"cebpf4jnsgd1na2vs0mg"},{"bike_id":"7694298c-2292-44dc-9958-896e83a49e9b","system_id":"levelo_inurba_marseille","lat":43.24167,"lon":5.39057,"is_reserved":false,"is_disabled":false,"rental_uris":{"android":"levelo://app?vid=7694298c-2292-44dc-9958-896e83a49e9b","ios":"levelo://app?vid=7694298c-2292-44dc-9958-896e83a49e9b"},"vehicle_type_id":"4","last_reported":1774701101,"current_range_meters":8800,"station_id":"","pricing_plan_id":"cebpf4jnsgd1na2vs0mg"},{"bike_id":"d42918c2-5949-42d0-8ebe-a9ca1daba3bd","system_id":"levelo_inurba_marseille","lat":43.2846,"lon":5.35898,"is_reserved":false,"is_disabled":true,"rental_uris":{"android":"levelo://app?vid=d42918c2-5949-42d0-8ebe-a9ca1daba3bd","ios":"levelo://app?vid=d42918c2-5949-42d0-8ebe-a9ca1daba3bd"},"vehicle_type_id":"4","last_reported":1774701101,"current_range_meters":8800,"station_id":"ce4bhah2rcd13ifvqei0","pricing_plan_id":"cebpf4jnsgd1na2vs0mg"},{"bike_id":"7b937767-f7ec-40d1-a7fd-f46bfb1314e7","system_id":"levelo_inurba_marseille","lat":43.24465,"lon":5.42539,"is_reserved":false,"is_disabled":false,"rental_uris":{"android":"levelo://app?vid=7b937767-f7ec-40d1-a7fd-f46bfb1314e7","ios":"levelo://app?vid=7b937767-f7ec-40d1-a7fd-f46bfb1314e7"},"vehicle_type_id":"4","last_reported":1774701101,"current_range_meters":8800,"station_id":"st_d4a3vfp97mjs738cd8kg","pricing_plan_id":"cebpf4jnsgd1na2vs0mg"},{"bike_id":"9439561a-2ae2-4736-bc37-9a131d682d6e","system_id":"levelo_inurba_marseille","lat":43.30307,"lon":5.36886,"is_reserved":false,"is_disabled":false,"rental_uris":{"android":"levelo://app?vid=9439561a-2ae2-4736-bc37-9a131d682d6e","ios":"levelo://app?vid=9439561a-2ae2-4736-bc37-9a131d682d6e"},"vehicle_type_id":"4","last_reported":1774701101,"current_range_meters":8800,"station_id":"ce4bgqh2rcd13ifvqc5g","pricing_plan_id":"cebpf4jnsgd1na2vs0mg"},{"bike_id":"e8bd8254-2909-4d6d-a6a9-c5d493a3c617","system_id":"levelo_inurba_marseille","lat":43.26934,"lon":5.4025,"is_reserved":false,"is_disabled":false,"rental_uris":{"android":"levelo://app?vid=e8bd8254-2909-4d6d-a6a9-c5d493a3c617","ios":"levelo://app?vid=e8bd8254-2909-4d6d-a6a9-c5d493a3c617"},"vehicle_type_id":"4","last_reported":1774701101,"current_range_meters":8800,"station_id":"cjm6bp8fraef2m0cb0m0","pricing_plan_id":"cebpf4jnsgd1na2vs0mg"},{"bike_id":"f274aab5-121b-4512-afe3-bb64e142b42e","system_id":"levelo_inurba_marseille","lat":43.30216,"lon":5.39467,"is_reserved":false,"is_disabled":false,"rental_uris":{"android":"levelo://app?vid=f274aab5-121b-4512-afe3-bb64e142b42e","ios":"levelo://app?vid=f274aab5-121b-4512-afe3-bb64e142b42e"},"vehicle_type_id":"4","last_reported":1774701101,"current_range_meters":8800,"station_id":"ce4bh0p2rcd13ifvqd70","pricing_plan_id":"cebpf4jnsgd1na2vs0mg"},{"bike_id":"cee8348c-7240-47b5-8572-10991075abde","system_id":"levelo_inurba_marseille","lat":43.3129,"lon":5.4017,"is_reserved":false,"is_disabled":false,"rental_uris":{"android":"levelo://app?vid=cee8348c-7240-47b5-8572-10991075abde","ios":"levelo://app?vid=cee8348c-7240-47b5-8572-10991075abde"},"vehicle_type_id":"4","last_reported":1774701101,"current_range_meters":8800,"station_id":"ce4bh092rcd13ifvqd30","pricing_plan_id":"cebpf4jnsgd1na2vs0mg"},{"bike_id":"d0ce5a82-2425-471a-902f-04b53fc8c337","system_id":"levelo_inurba_marseille","lat":43.28941,"lon":5.36643,"is_reserved":false,"is_disabled":false,"rental_uris":{"android":"levelo://app?vid=d0ce5a82-2425-471a-902f-04b53fc8c337","ios":"levelo://app?vid=d0ce5a82-2425-471a-902f-04b53fc8c337"},"vehicle_type_id":"4","last_reported":1774701101,"current_range_meters":8800,"station_id":"ce4bhap2rcd13ifvqek0","pricing_plan_id":"cebpf4jnsgd1na2vs0mg"},{"bike_id":"38a4770b-aa61-4e1e-82ea-9b5ee50912c9","system_id":"levelo_inurba_marseille","lat":43.26214,"lon":5.37445,"is_reserved":false,"is_disabled":false,"rental_uris":{"android":"levelo://app?vid=38a4770b-aa61-4e1e-82ea-9b5ee50912c9","ios":"levelo://app?vid=38a4770b-aa61-4e1e-82ea-9b5ee50912c9"},"vehicle_type_id":"4","last_reported":1774701101,"current_range_meters":9200,"station_id":"ce4bhgp2rcd13ifvqfc0","pricing_plan_id":"cebpf4jnsgd1na2vs0mg"},{"bike_id":"36141db5-b3a5-4009-8266-2dd4f38320ae","system_id":"levelo_inurba_marseille","lat":43.23784,"lon":5.36629,"is_reserved":false,"is_disabled":false,"rental_uris":{"android":"levelo://app?vid=36141db5-b3a5-4009-8266-2dd4f38320ae","ios":"levelo://app?vid=36141db5-b3a5-4009-8266-2dd4f38320ae"},"vehicle_type_id":"4","last_reported":1774701101,"current_range_meters":9200,"station_id":"st_d3nk18o9ro0c73en2l3g","pricing_plan_id":"cebpf4jnsgd1na2vs0mg"},{"bike_id":"2f1d0d81-33b7-48c4-b331-7cdbf3cbb8ce","system_id":"levelo_inurba_marseille","lat":43.29405,"lon":5.37842,"is_reserved":false,"is_disabled":false,"rental_uris":{"android":"levelo://app?vid=2f1d0d81-33b7-48c4-b331-7cdbf3cbb8ce","ios":"levelo://app?vid=2f1d0d81-33b7-48c4-b331-7cdbf3cbb8ce"},"vehicle_type_id":"4","last_reported":1774701101,"current_range_meters":9200,"station_id":"","pricing_plan_id":"cebpf4jnsgd1na2vs0mg"},{"bike_id":"2c76498e-1409-4d1d-aa11-912dd68ff926","system_id":"levelo_inurba_marseille","lat":43.28535,"lon":5.44101,"is_reserved":false,"is_disabled":false,"rental_uris":{"android":"levelo://app?vid=2c76498e-1409-4d1d-aa11-912dd68ff926","ios":"levelo://app?vid=2c76498e-1409-4d1d-aa11-912dd68ff926"},"vehicle_type_id":"4","last_reported":1774701101,"current_range_meters":9200,"station_id":"st_d3j3df2ikq2c7380ej80","pricing_plan_id":"cebpf4jnsgd1na2vs0mg"},{"bike_id":"42554fe7-f398-40d9-a38e-99e3120b949f","system_id":"levelo_inurba_marseille","lat":43.27207,"lon":5.39154,"is_reserved":false,"is_disabled":false,"rental_uris":{"android":"levelo://app?vid=42554fe7-f398-40d9-a38e-99e3120b949f","ios":"levelo://app?vid=42554fe7-f398-40d9-a38e-99e3120b949f"},"vehicle_type_id":"4","last_reported":1774701101,"current_range_meters":9200,"station_id":"ce4bhhp2rcd13ifvqfm0","pricing_plan_id":"cebpf4jnsgd1na2vs0mg"},{"bike_id":"1ee7715b-73b9-4e2e-aa2b-b18556ee2189","system_id":"levelo_inurba_marseille","lat":43.24403,"lon":5.37034,"is_reserved":false,"is_disabled":false,"rental_uris":{"android":"levelo://app?vid=1ee7715b-73b9-4e2e-aa2b-b18556ee2189","ios":"levelo://app?vid=1ee7715b-73b9-4e2e-aa2b-b18556ee2189"},"vehicle_type_id":"4","last_reported":1774701101,"current_range_meters":9200,"station_id":"ce4bhhh2rcd13ifvqfk0","pricing_plan_id":"cebpf4jnsgd1na2vs0mg"},{"bike_id":"883dc76f-ea39-4856-ad3f-83646c0ba349","system_id":"levelo_inurba_marseille","lat":43.30291,"lon":5.37747,"is_reserved":false,"is_disabled":false,"rental_uris":{"android":"levelo://app?vid=883dc76f-ea39-4856-ad3f-83646c0ba349","ios":"levelo://app?vid=883dc76f-ea39-4856-ad3f-83646c0ba349"},"vehicle_type_id":"4","last_reported":1774701101,"current_range_meters":9200,"station_id":"ce4bguh2rcd13ifvqcj0","pricing_plan_id":"cebpf4jnsgd1na2vs0mg"},{"bike_id":"c09263af-5f3c-4487-9b20-dca4afc4c1ed","system_id":"levelo_inurba_marseille","lat":43.28615,"lon":5.35113,"is_reserved":false,"is_disabled":false,"rental_uris":{"android":"levelo://app?vid=c09263af-5f3c-4487-9b20-dca4afc4c1ed","ios":"levelo://app?vid=c09263af-5f3c-4487-9b20-dca4afc4c1ed"},"vehicle_type_id":"4","last_reported":1774701101,"current_range_meters":9200,"station_id":"ce4bhch2rcd13ifvqeug","pricing_plan_id":"cebpf4jnsgd1na2vs0mg"},{"bike_id":"1bca506e-2c43-43d5-9cab-3f814da8f5fe","system_id":"levelo_inurba_marseille","lat":43.22568,"lon":5.41607,"is_reserved":false,"is_disabled":false,"rental_uris":{"android":"levelo://app?vid=1bca506e-2c43-43d5-9cab-3f814da8f5fe","ios":"levelo://app?vid=1bca506e-2c43-43d5-9cab-3f814da8f5fe"},"vehicle_type_id":"4","last_reported":1774701101,"current_range_meters":9200,"station_id":"st_d2o4gvlbi1j2169b742g","pricing_plan_id":"cebpf4jnsgd1na2vs0mg"},{"bike_id":"d52e9dd0-7b78-4d9a-b145-4b6e9cd1c3d7","system_id":"levelo_inurba_marseille","lat":43.27052,"lon":5.40257,"is_reserved":false,"is_disabled":false,"rental_uris":{"android":"levelo://app?vid=d52e9dd0-7b78-4d9a-b145-4b6e9cd1c3d7","ios":"levelo://app?vid=d52e9dd0-7b78-4d9a-b145-4b6e9cd1c3d7"},"vehicle_type_id":"4","last_reported":1774701101,"current_range_meters":9200,"station_id":"ce4bhk92rcd13ifvqgc0","pricing_plan_id":"cebpf4jnsgd1na2vs0mg"},{"bike_id":"56ed71d3-4f24-4bcb-9e63-f10b7aa4866e","system_id":"levelo_inurba_marseille","lat":43.28415,"lon":5.34984,"is_reserved":false,"is_disabled":false,"rental_uris":{"android":"levelo://app?vid=56ed71d3-4f24-4bcb-9e63-f10b7aa4866e","ios":"levelo://app?vid=56ed71d3-4f24-4bcb-9e63-f10b7aa4866e"},"vehicle_type_id":"4","last_reported":1774701101,"current_range_meters":9200,"station_id":"ce4bhbh2rcd13ifvqepg","pricing_plan_id":"cebpf4jnsgd1na2vs0mg"},{"bike_id":"5ecab434-8e19-46ce-9cce-324a319f3a65","system_id":"levelo_inurba_marseille","lat":43.27328,"lon":5.39082,"is_reserved":false,"is_disabled":false,"rental_uris":{"android":"levelo://app?vid=5ecab434-8e19-46ce-9cce-324a319f3a65","ios":"levelo://app?vid=5ecab434-8e19-46ce-9cce-324a319f3a65"},"vehicle_type_id":"4","last_reported":1774701101,"current_range_meters":9200,"station_id":"ce4bhgp2rcd13ifvqfe0","pricing_plan_id":"cebpf4jnsgd1na2vs0mg"},{"bike_id":"2d41bd03-bdc4-454a-8b0e-22922831e6cd","system_id":"levelo_inurba_marseille","lat":43.2512,"lon":5.40319,"is_reserved":false,"is_disabled":false,"rental_uris":{"android":"levelo://app?vid=2d41bd03-bdc4-454a-8b0e-22922831e6cd","ios":"levelo://app?vid=2d41bd03-bdc4-454a-8b0e-22922831e6cd"},"vehicle_type_id":"4","last_reported":1774701101,"current_range_meters":9200,"station_id":"ce4bhlh2rcd13ifvqgig","pricing_plan_id":"cebpf4jnsgd1na2vs0mg"},{"bike_id":"659ccfdf-569f-4f01-84dd-6c9bbfa33ac4","system_id":"levelo_inurba_marseille","lat":43.2378,"lon":5.36639,"is_reserved":false,"is_disabled":false,"rental_uris":{"android":"levelo://app?vid=659ccfdf-569f-4f01-84dd-6c9bbfa33ac4","ios":"levelo://app?vid=659ccfdf-569f-4f01-84dd-6c9bbfa33ac4"},"vehicle_type_id":"4","last_reported":1774701101,"current_range_meters":9200,"station_id":"st_d3nk18o9ro0c73en2l3g","pricing_plan_id":"cebpf4jnsgd1na2vs0mg"},{"bike_id":"681de42e-452e-49ac-9229-5ff8b9110346","system_id":"levelo_inurba_marseille","lat":43.24546,"lon":5.39527,"is_reserved":false,"is_disabled":false,"rental_uris":{"android":"levelo://app?vid=681de42e-452e-49ac-9229-5ff8b9110346","ios":"levelo://app?vid=681de42e-452e-49ac-9229-5ff8b9110346"},"vehicle_type_id":"4","last_reported":1774701101,"current_range_meters":9200,"station_id":"ce4bhlp2rcd13ifvqgjg","pricing_plan_id":"cebpf4jnsgd1na2vs0mg"},{"bike_id":"bbd3f559-746b-40c2-866e-faf4351c115d","system_id":"levelo_inurba_marseille","lat":43.24398,"lon":5.37056,"is_reserved":false,"is_disabled":false,"rental_uris":{"android":"levelo://app?vid=bbd3f559-746b-40c2-866e-faf4351c115d","ios":"levelo://app?vid=bbd3f559-746b-40c2-866e-faf4351c115d"},"vehicle_type_id":"4","last_reported":1774701101,"current_range_meters":9200,"station_id":"ce4bhhh2rcd13ifvqfk0","pricing_plan_id":"cebpf4jnsgd1na2vs0mg"},{"bike_id":"8371d95a-edda-4199-96fb-5106a5c4d423","system_id":"levelo_inurba_marseille","lat":43.28259,"lon":5.35083,"is_reserved":false,"is_disabled":false,"rental_uris":{"android":"levelo://app?vid=8371d95a-edda-4199-96fb-5106a5c4d423","ios":"levelo://app?vid=8371d95a-edda-4199-96fb-5106a5c4d423"},"vehicle_type_id":"4","last_reported":1774701101,"current_range_meters":9200,"station_id":"ce4bhbp2rcd13ifvqerg","pricing_plan_id":"cebpf4jnsgd1na2vs0mg"},{"bike_id":"a9176eb7-c188-4ff4-912f-d4e94b60be86","system_id":"levelo_inurba_marseille","lat":43.23787,"lon":5.36622,"is_reserved":false,"is_disabled":false,"rental_uris":{"android":"levelo://app?vid=a9176eb7-c188-4ff4-912f-d4e94b60be86","ios":"levelo://app?vid=a9176eb7-c188-4ff4-912f-d4e94b60be86"},"vehicle_type_id":"4","last_reported":1774701101,"current_range_meters":9600,"station_id":"st_d3nk18o9ro0c73en2l3g","pricing_plan_id":"cebpf4jnsgd1na2vs0mg"},{"bike_id":"3137e3ea-7797-4cae-a237-2a996dd9ad4a","system_id":"levelo_inurba_marseille","lat":43.28483,"lon":5.48396,"is_reserved":false,"is_disabled":false,"rental_uris":{"android":"levelo://app?vid=3137e3ea-7797-4cae-a237-2a996dd9ad4a","ios":"levelo://app?vid=3137e3ea-7797-4cae-a237-2a996dd9ad4a"},"vehicle_type_id":"4","last_reported":1774701101,"current_range_meters":9600,"station_id":"","pricing_plan_id":"cebpf4jnsgd1na2vs0mg"},{"bike_id":"e86e2079-a4f3-4033-a0a1-a2d93830899b","system_id":"levelo_inurba_marseille","lat":43.25495,"lon":5.37652,"is_reserved":false,"is_disabled":false,"rental_uris":{"android":"levelo://app?vid=e86e2079-a4f3-4033-a0a1-a2d93830899b","ios":"levelo://app?vid=e86e2079-a4f3-4033-a0a1-a2d93830899b"},"vehicle_type_id":"4","last_reported":1774701101,"current_range_meters":9600,"station_id":"ce4bhh12rcd13ifvqff0","pricing_plan_id":"cebpf4jnsgd1na2vs0mg"},{"bike_id":"54ea3d34-d79a-4ab1-886f-1335ba6b438a","system_id":"levelo_inurba_marseille","lat":43.3016,"lon":5.38096,"is_reserved":false,"is_disabled":true,"rental_uris":{"android":"levelo://app?vid=54ea3d34-d79a-4ab1-886f-1335ba6b438a","ios":"levelo://app?vid=54ea3d34-d79a-4ab1-886f-1335ba6b438a"},"vehicle_type_id":"4","last_reported":1774701101,"current_range_meters":9600,"station_id":"ce4bgjp2rcd13ifvqbh0","pricing_plan_id":"cebpf4jnsgd1na2vs0mg"},{"bike_id":"5558b9db-d80a-4a40-bd7e-a2591d28592c","system_id":"levelo_inurba_marseille","lat":43.31222,"lon":5.36842,"is_reserved":false,"is_disabled":false,"rental_uris":{"android":"levelo://app?vid=5558b9db-d80a-4a40-bd7e-a2591d28592c","ios":"levelo://app?vid=5558b9db-d80a-4a40-bd7e-a2591d28592c"},"vehicle_type_id":"4","last_reported":1774701101,"current_range_meters":9600,"station_id":"ce4bgl92rcd13ifvqbq0","pricing_plan_id":"cebpf4jnsgd1na2vs0mg"},{"bike_id":"3e138756-aff6-47d8-836d-fb1e49de29e4","system_id":"levelo_inurba_marseille","lat":43.27999,"lon":5.39316,"is_reserved":false,"is_disabled":false,"rental_uris":{"android":"levelo://app?vid=3e138756-aff6-47d8-836d-fb1e49de29e4","ios":"levelo://app?vid=3e138756-aff6-47d8-836d-fb1e49de29e4"},"vehicle_type_id":"4","last_reported":1774701101,"current_range_meters":9600,"station_id":"","pricing_plan_id":"cebpf4jnsgd1na2vs0mg"},{"bike_id":"951ccfa0-2bbb-441f-98aa-0e6f6567daed","system_id":"levelo_inurba_marseille","lat":43.2869,"lon":5.37331,"is_reserved":false,"is_disabled":false,"rental_uris":{"android":"levelo://app?vid=951ccfa0-2bbb-441f-98aa-0e6f6567daed","ios":"levelo://app?vid=951ccfa0-2bbb-441f-98aa-0e6f6567daed"},"vehicle_type_id":"4","last_reported":1774701101,"current_range_meters":9600,"station_id":"ce4bh3p2rcd13ifvqdq0","pricing_plan_id":"cebpf4jnsgd1na2vs0mg"},{"bike_id":"d9275995-6199-47cd-9641-416f87712e15","system_id":"levelo_inurba_marseille","lat":43.23786,"lon":5.36637,"is_reserved":false,"is_disabled":false,"rental_uris":{"android":"levelo://app?vid=d9275995-6199-47cd-9641-416f87712e15","ios":"levelo://app?vid=d9275995-6199-47cd-9641-416f87712e15"},"vehicle_type_id":"4","last_reported":1774701101,"current_range_meters":9600,"station_id":"st_d3nk18o9ro0c73en2l3g","pricing_plan_id":"cebpf4jnsgd1na2vs0mg"},{"bike_id":"59d87d96-b71d-4331-8ff0-128777265713","system_id":"levelo_inurba_marseille","lat":43.31068,"lon":5.37168,"is_reserved":false,"is_disabled":false,"rental_uris":{"android":"levelo://app?vid=59d87d96-b71d-4331-8ff0-128777265713","ios":"levelo://app?vid=59d87d96-b71d-4331-8ff0-128777265713"},"vehicle_type_id":"4","last_reported":1774701101,"current_range_meters":9600,"station_id":"st_d4kl2rp97mjs73e7tdfg","pricing_plan_id":"cebpf4jnsgd1na2vs0mg"},{"bike_id":"76201515-ae70-408c-82ba-b2d7c39b0327","system_id":"levelo_inurba_marseille","lat":43.25105,"lon":5.40324,"is_reserved":false,"is_disabled":false,"rental_uris":{"android":"levelo://app?vid=76201515-ae70-408c-82ba-b2d7c39b0327","ios":"levelo://app?vid=76201515-ae70-408c-82ba-b2d7c39b0327"},"vehicle_type_id":"4","last_reported":1774701101,"current_range_meters":9600,"station_id":"ce4bhlh2rcd13ifvqgig","pricing_plan_id":"cebpf4jnsgd1na2vs0mg"},{"bike_id":"4bb292ff-deca-4be3-89c1-7f7b34fbc7ab","system_id":"levelo_inurba_marseille","lat":43.30137,"lon":5.38779,"is_reserved":false,"is_disabled":false,"rental_uris":{"android":"levelo://app?vid=4bb292ff-deca-4be3-89c1-7f7b34fbc7ab","ios":"levelo://app?vid=4bb292ff-deca-4be3-89c1-7f7b34fbc7ab"},"vehicle_type_id":"4","last_reported":1774701101,"current_range_meters":9600,"station_id":"ce4bghh2rcd13ifvqb60","pricing_plan_id":"cebpf4jnsgd1na2vs0mg"},{"bike_id":"397a0c10-07d4-4000-b9eb-c0eda49351bb","system_id":"levelo_inurba_marseille","lat":43.26549,"lon":5.37295,"is_reserved":false,"is_disabled":false,"rental_uris":{"android":"levelo://app?vid=397a0c10-07d4-4000-b9eb-c0eda49351bb","ios":"levelo://app?vid=397a0c10-07d4-4000-b9eb-c0eda49351bb"},"vehicle_type_id":"4","last_reported":1774701101,"current_range_meters":9600,"station_id":"ce4bhg12rcd13ifvqf70","pricing_plan_id":"cebpf4jnsgd1na2vs0mg"},{"bike_id":"0ddf8cb2-f516-4788-a477-c293a5940678","system_id":"levelo_inurba_marseille","lat":43.29525,"lon":5.39038,"is_reserved":false,"is_disabled":false,"rental_uris":{"android":"levelo://app?vid=0ddf8cb2-f516-4788-a477-c293a5940678","ios":"levelo://app?vid=0ddf8cb2-f516-4788-a477-c293a5940678"},"vehicle_type_id":"4","last_reported":1774701101,"current_range_meters":9600,"station_id":"ce4bh3p2rcd13ifvqdp0","pricing_plan_id":"cebpf4jnsgd1na2vs0mg"},{"bike_id":"26ae3bf5-24c2-4d91-953d-7bc577fcbd69","system_id":"levelo_inurba_marseille","lat":43.24674,"lon":5.38178,"is_reserved":false,"is_disabled":false,"rental_uris":{"android":"levelo://app?vid=26ae3bf5-24c2-4d91-953d-7bc577fcbd69","ios":"levelo://app?vid=26ae3bf5-24c2-4d91-953d-7bc577fcbd69"},"vehicle_type_id":"4","last_reported":1774701101,"current_range_meters":9600,"station_id":"ce4bhih2rcd13ifvqfr0","pricing_plan_id":"cebpf4jnsgd1na2vs0mg"},{"bike_id":"752abf57-2523-4a36-ab7b-c328452703b1","system_id":"levelo_inurba_marseille","lat":43.24812,"lon":5.37462,"is_reserved":false,"is_disabled":false,"rental_uris":{"android":"levelo://app?vid=752abf57-2523-4a36-ab7b-c328452703b1","ios":"levelo://app?vid=752abf57-2523-4a36-ab7b-c328452703b1"},"vehicle_type_id":"4","last_reported":1774701101,"current_range_meters":9600,"station_id":"ce4bhgh2rcd13ifvqfb0","pricing_plan_id":"cebpf4jnsgd1na2vs0mg"},{"bike_id":"756aac0a-50b4-421f-8fcb-5d7076a18920","system_id":"levelo_inurba_marseille","lat":43.28267,"lon":5.35079,"is_reserved":false,"is_disabled":false,"rental_uris":{"android":"levelo://app?vid=756aac0a-50b4-421f-8fcb-5d7076a18920","ios":"levelo://app?vid=756aac0a-50b4-421f-8fcb-5d7076a18920"},"vehicle_type_id":"4","last_reported":1774701101,"current_range_meters":9600,"station_id":"ce4bhbp2rcd13ifvqerg","pricing_plan_id":"cebpf4jnsgd1na2vs0mg"},{"bike_id":"56603236-0b6d-44e6-924a-3489e7c8fead","system_id":"levelo_inurba_marseille","lat":43.25725,"lon":5.38757,"is_reserved":false,"is_disabled":false,"rental_uris":{"android":"levelo://app?vid=56603236-0b6d-44e6-924a-3489e7c8fead","ios":"levelo://app?vid=56603236-0b6d-44e6-924a-3489e7c8fead"},"vehicle_type_id":"4","last_reported":1774701101,"current_range_meters":9600,"station_id":"","pricing_plan_id":"cebpf4jnsgd1na2vs0mg"},{"bike_id":"3a93e789-b00e-4925-a320-be628ded4ba5","system_id":"levelo_inurba_marseille","lat":43.24079,"lon":5.3776,"is_reserved":false,"is_disabled":false,"rental_uris":{"android":"levelo://app?vid=3a93e789-b00e-4925-a320-be628ded4ba5","ios":"levelo://app?vid=3a93e789-b00e-4925-a320-be628ded4ba5"},"vehicle_type_id":"4","last_reported":1774701101,"current_range_meters":9600,"station_id":"ce4bhnp2rcd13ifvqgvg","pricing_plan_id":"cebpf4jnsgd1na2vs0mg"},{"bike_id":"3d10a6dc-5b60-415d-a695-11f58537a955","system_id":"levelo_inurba_marseille","lat":43.24576,"lon":5.39504,"is_reserved":false,"is_disabled":false,"rental_uris":{"android":"levelo://app?vid=3d10a6dc-5b60-415d-a695-11f58537a955","ios":"levelo://app?vid=3d10a6dc-5b60-415d-a695-11f58537a955"},"vehicle_type_id":"4","last_reported":1774701101,"current_range_meters":9600,"station_id":"ce4bhlp2rcd13ifvqgjg","pricing_plan_id":"cebpf4jnsgd1na2vs0mg"},{"bike_id":"4c9a3293-f2c3-4e99-b5e1-94195ca699a4","system_id":"levelo_inurba_marseille","lat":43.28544,"lon":5.44101,"is_reserved":false,"is_disabled":false,"rental_uris":{"android":"levelo://app?vid=4c9a3293-f2c3-4e99-b5e1-94195ca699a4","ios":"levelo://app?vid=4c9a3293-f2c3-4e99-b5e1-94195ca699a4"},"vehicle_type_id":"4","last_reported":1774701101,"current_range_meters":9600,"station_id":"st_d3j3df2ikq2c7380ej80","pricing_plan_id":"cebpf4jnsgd1na2vs0mg"},{"bike_id":"ad2a7325-f4cd-4376-af91-acc9a9d762fc","system_id":"levelo_inurba_marseille","lat":43.22561,"lon":5.41632,"is_reserved":false,"is_disabled":false,"rental_uris":{"android":"levelo://app?vid=ad2a7325-f4cd-4376-af91-acc9a9d762fc","ios":"levelo://app?vid=ad2a7325-f4cd-4376-af91-acc9a9d762fc"},"vehicle_type_id":"4","last_reported":1774701101,"current_range_meters":10000,"station_id":"st_d2o4gvlbi1j2169b742g","pricing_plan_id":"cebpf4jnsgd1na2vs0mg"},{"bike_id":"970c0018-efd3-4265-ba0d-669fd24b3e90","system_id":"levelo_inurba_marseille","lat":43.30959,"lon":5.3903,"is_reserved":false,"is_disabled":true,"rental_uris":{"android":"levelo://app?vid=970c0018-efd3-4265-ba0d-669fd24b3e90","ios":"levelo://app?vid=970c0018-efd3-4265-ba0d-669fd24b3e90"},"vehicle_type_id":"4","last_reported":1774701101,"current_range_meters":10000,"station_id":"ce4bgup2rcd13ifvqco0","pricing_plan_id":"cebpf4jnsgd1na2vs0mg"},{"bike_id":"d180bdb5-ac5e-40ce-8b39-1c97b7b69eea","system_id":"levelo_inurba_marseille","lat":43.31729,"lon":5.37748,"is_reserved":false,"is_disabled":false,"rental_uris":{"android":"levelo://app?vid=d180bdb5-ac5e-40ce-8b39-1c97b7b69eea","ios":"levelo://app?vid=d180bdb5-ac5e-40ce-8b39-1c97b7b69eea"},"vehicle_type_id":"4","last_reported":1774701101,"current_range_meters":10000,"station_id":"ce4bgth2rcd13ifvqch0","pricing_plan_id":"cebpf4jnsgd1na2vs0mg"},{"bike_id":"4247c776-2951-4741-b1a8-85d5eef00372","system_id":"levelo_inurba_marseille","lat":43.27362,"lon":5.36234,"is_reserved":false,"is_disabled":false,"rental_uris":{"android":"levelo://app?vid=4247c776-2951-4741-b1a8-85d5eef00372","ios":"levelo://app?vid=4247c776-2951-4741-b1a8-85d5eef00372"},"vehicle_type_id":"4","last_reported":1774701101,"current_range_meters":10000,"station_id":"ce4bhbh2rcd13ifvqeo0","pricing_plan_id":"cebpf4jnsgd1na2vs0mg"},{"bike_id":"2934d88c-6221-44dd-bee3-989a0775ea80","system_id":"levelo_inurba_marseille","lat":43.31043,"lon":5.37161,"is_reserved":false,"is_disabled":false,"rental_uris":{"android":"levelo://app?vid=2934d88c-6221-44dd-bee3-989a0775ea80","ios":"levelo://app?vid=2934d88c-6221-44dd-bee3-989a0775ea80"},"vehicle_type_id":"4","last_reported":1774701101,"current_range_meters":10000,"station_id":"st_d4kl2rp97mjs73e7tdfg","pricing_plan_id":"cebpf4jnsgd1na2vs0mg"},{"bike_id":"0f430097-8d5e-4a5a-9147-4fc5e40a362e","system_id":"levelo_inurba_marseille","lat":43.33558,"lon":5.37431,"is_reserved":false,"is_disabled":false,"rental_uris":{"android":"levelo://app?vid=0f430097-8d5e-4a5a-9147-4fc5e40a362e","ios":"levelo://app?vid=0f430097-8d5e-4a5a-9147-4fc5e40a362e"},"vehicle_type_id":"4","last_reported":1774701101,"current_range_meters":10000,"station_id":"st_d46tts09ee8s73dlu43g","pricing_plan_id":"cebpf4jnsgd1na2vs0mg"},{"bike_id":"f09e609e-75e6-4f5e-80b5-321c56203fc0","system_id":"levelo_inurba_marseille","lat":43.29566,"lon":5.36501,"is_reserved":false,"is_disabled":false,"rental_uris":{"android":"levelo://app?vid=f09e609e-75e6-4f5e-80b5-321c56203fc0","ios":"levelo://app?vid=f09e609e-75e6-4f5e-80b5-321c56203fc0"},"vehicle_type_id":"4","last_reported":1774701101,"current_range_meters":10000,"station_id":"","pricing_plan_id":"cebpf4jnsgd1na2vs0mg"},{"bike_id":"8b96c54f-67ef-4e61-9133-950c0eca8e16","system_id":"levelo_inurba_marseille","lat":43.21188,"lon":5.3507,"is_reserved":false,"is_disabled":false,"rental_uris":{"android":"levelo://app?vid=8b96c54f-67ef-4e61-9133-950c0eca8e16","ios":"levelo://app?vid=8b96c54f-67ef-4e61-9133-950c0eca8e16"},"vehicle_type_id":"4","last_reported":1774701101,"current_range_meters":10000,"station_id":"st_cvj6sg6p6f1abm77japg","pricing_plan_id":"cebpf4jnsgd1na2vs0mg"},{"bike_id":"a1b998b8-5487-40cf-bd73-19ba368cfb4a","system_id":"levelo_inurba_marseille","lat":43.21203,"lon":5.35047,"is_reserved":false,"is_disabled":false,"rental_uris":{"android":"levelo://app?vid=a1b998b8-5487-40cf-bd73-19ba368cfb4a","ios":"levelo://app?vid=a1b998b8-5487-40cf-bd73-19ba368cfb4a"},"vehicle_type_id":"4","last_reported":1774701101,"current_range_meters":10000,"station_id":"st_cvj6sg6p6f1abm77japg","pricing_plan_id":"cebpf4jnsgd1na2vs0mg"},{"bike_id":"2d0fdc3d-338a-4727-826c-caea44a0cbfa","system_id":"levelo_inurba_marseille","lat":43.29825,"lon":5.44062,"is_reserved":false,"is_disabled":false,"rental_uris":{"android":"levelo://app?vid=2d0fdc3d-338a-4727-826c-caea44a0cbfa","ios":"levelo://app?vid=2d0fdc3d-338a-4727-826c-caea44a0cbfa"},"vehicle_type_id":"4","last_reported":1774701101,"current_range_meters":10000,"station_id":"st_d3jp68qikq2c7381ktn0","pricing_plan_id":"cebpf4jnsgd1na2vs0mg"},{"bike_id":"eafa20c2-7226-49ab-bb69-ffecd53c4490","system_id":"levelo_inurba_marseille","lat":43.30896,"lon":5.37433,"is_reserved":false,"is_disabled":false,"rental_uris":{"android":"levelo://app?vid=eafa20c2-7226-49ab-bb69-ffecd53c4490","ios":"levelo://app?vid=eafa20c2-7226-49ab-bb69-ffecd53c4490"},"vehicle_type_id":"4","last_reported":1774701101,"current_range_meters":10000,"station_id":"","pricing_plan_id":"cebpf4jnsgd1na2vs0mg"},{"bike_id":"1539d317-25b2-495d-8f4f-71ca414c1281","system_id":"levelo_inurba_marseille","lat":43.21182,"lon":5.35069,"is_reserved":false,"is_disabled":false,"rental_uris":{"android":"levelo://app?vid=1539d317-25b2-495d-8f4f-71ca414c1281","ios":"levelo://app?vid=1539d317-25b2-495d-8f4f-71ca414c1281"},"vehicle_type_id":"4","last_reported":1774701101,"current_range_meters":10000,"station_id":"st_cvj6sg6p6f1abm77japg","pricing_plan_id":"cebpf4jnsgd1na2vs0mg"},{"bike_id":"5dc7a0c1-467a-4151-97ef-a8a655c4f7a5","system_id":"levelo_inurba_marseille","lat":43.28497,"lon":5.48372,"is_reserved":false,"is_disabled":false,"rental_uris":{"android":"levelo://app?vid=5dc7a0c1-467a-4151-97ef-a8a655c4f7a5","ios":"levelo://app?vid=5dc7a0c1-467a-4151-97ef-a8a655c4f7a5"},"vehicle_type_id":"4","last_reported":1774701101,"current_range_meters":10000,"station_id":"","pricing_plan_id":"cebpf4jnsgd1na2vs0mg"},{"bike_id":"25a215c0-6185-4988-a946-459e463e94c2","system_id":"levelo_inurba_marseille","lat":43.28632,"lon":5.35064,"is_reserved":false,"is_disabled":false,"rental_uris":{"android":"levelo://app?vid=25a215c0-6185-4988-a946-459e463e94c2","ios":"levelo://app?vid=25a215c0-6185-4988-a946-459e463e94c2"},"vehicle_type_id":"4","last_reported":1774701101,"current_range_meters":10000,"station_id":"ce4bhch2rcd13ifvqeug","pricing_plan_id":"cebpf4jnsgd1na2vs0mg"},{"bike_id":"1c0d61c0-7ee3-4440-a775-a1d36b0cdd46","system_id":"levelo_inurba_marseille","lat":43.21189,"lon":5.35069,"is_reserved":false,"is_disabled":false,"rental_uris":{"android":"levelo://app?vid=1c0d61c0-7ee3-4440-a775-a1d36b0cdd46","ios":"levelo://app?vid=1c0d61c0-7ee3-4440-a775-a1d36b0cdd46"},"vehicle_type_id":"4","last_reported":1774701101,"current_range_meters":10000,"station_id":"st_cvj6sg6p6f1abm77japg","pricing_plan_id":"cebpf4jnsgd1na2vs0mg"},{"bike_id":"6cd08817-61b4-4fc1-aeda-8267dd2c4320","system_id":"levelo_inurba_marseille","lat":43.28537,"lon":5.44092,"is_reserved":false,"is_disabled":false,"rental_uris":{"android":"levelo://app?vid=6cd08817-61b4-4fc1-aeda-8267dd2c4320","ios":"levelo://app?vid=6cd08817-61b4-4fc1-aeda-8267dd2c4320"},"vehicle_type_id":"4","last_reported":1774701101,"current_range_meters":10000,"station_id":"st_d3j3df2ikq2c7380ej80","pricing_plan_id":"cebpf4jnsgd1na2vs0mg"},{"bike_id":"ef6e80df-df45-4557-a5ab-581f08e275bf","system_id":"levelo_inurba_marseille","lat":43.31288,"lon":5.40163,"is_reserved":false,"is_disabled":false,"rental_uris":{"android":"levelo://app?vid=ef6e80df-df45-4557-a5ab-581f08e275bf","ios":"levelo://app?vid=ef6e80df-df45-4557-a5ab-581f08e275bf"},"vehicle_type_id":"4","last_reported":1774701101,"current_range_meters":10000,"station_id":"ce4bh092rcd13ifvqd30","pricing_plan_id":"cebpf4jnsgd1na2vs0mg"},{"bike_id":"e45f7e6b-41f9-4a8a-b54b-f571152c9fa4","system_id":"levelo_inurba_marseille","lat":43.23897,"lon":5.37461,"is_reserved":false,"is_disabled":false,"rental_uris":{"android":"levelo://app?vid=e45f7e6b-41f9-4a8a-b54b-f571152c9fa4","ios":"levelo://app?vid=e45f7e6b-41f9-4a8a-b54b-f571152c9fa4"},"vehicle_type_id":"4","last_reported":1774701101,"current_range_meters":10000,"station_id":"st_d6sm7csbq4hs73f8fpjg","pricing_plan_id":"cebpf4jnsgd1na2vs0mg"},{"bike_id":"dcddd6f4-f750-4f90-ae83-25c178716cb7","system_id":"levelo_inurba_marseille","lat":43.28867,"lon":5.42508,"is_reserved":false,"is_disabled":false,"rental_uris":{"android":"levelo://app?vid=dcddd6f4-f750-4f90-ae83-25c178716cb7","ios":"levelo://app?vid=dcddd6f4-f750-4f90-ae83-25c178716cb7"},"vehicle_type_id":"4","last_reported":1774701101,"current_range_meters":10000,"station_id":"st_d3b462108ojc7389ooeg","pricing_plan_id":"cebpf4jnsgd1na2vs0mg"},{"bike_id":"957a0b57-65aa-4f85-b733-20b4c16b82f3","system_id":"levelo_inurba_marseille","lat":43.29978,"lon":5.37189,"is_reserved":false,"is_disabled":false,"rental_uris":{"android":"levelo://app?vid=957a0b57-65aa-4f85-b733-20b4c16b82f3","ios":"levelo://app?vid=957a0b57-65aa-4f85-b733-20b4c16b82f3"},"vehicle_type_id":"4","last_reported":1774701101,"current_range_meters":10000,"station_id":"ce4bgr92rcd13ifvqc7g","pricing_plan_id":"cebpf4jnsgd1na2vs0mg"},{"bike_id":"831afe97-5b46-40a3-b3a8-9267430cd93d","system_id":"levelo_inurba_marseille","lat":43.22942,"lon":5.3539,"is_reserved":false,"is_disabled":false,"rental_uris":{"android":"levelo://app?vid=831afe97-5b46-40a3-b3a8-9267430cd93d","ios":"levelo://app?vid=831afe97-5b46-40a3-b3a8-9267430cd93d"},"vehicle_type_id":"4","last_reported":1774701101,"current_range_meters":10000,"station_id":"cpo3532slgdg3j2ikp40","pricing_plan_id":"cebpf4jnsgd1na2vs0mg"},{"bike_id":"bd8493c5-b850-43d9-adbd-83211120f40b","system_id":"levelo_inurba_marseille","lat":43.28723,"lon":5.37924,"is_reserved":false,"is_disabled":false,"rental_uris":{"android":"levelo://app?vid=bd8493c5-b850-43d9-adbd-83211120f40b","ios":"levelo://app?vid=bd8493c5-b850-43d9-adbd-83211120f40b"},"vehicle_type_id":"4","last_reported":1774701101,"current_range_meters":10000,"station_id":"ce4bh9p2rcd13ifvqec0","pricing_plan_id":"cebpf4jnsgd1na2vs0mg"},{"bike_id":"723c82aa-8db8-4c2b-b552-b5db079fd16a","system_id":"levelo_inurba_marseille","lat":43.29245,"lon":5.37619,"is_reserved":false,"is_disabled":false,"rental_uris":{"android":"levelo://app?vid=723c82aa-8db8-4c2b-b552-b5db079fd16a","ios":"levelo://app?vid=723c82aa-8db8-4c2b-b552-b5db079fd16a"},"vehicle_type_id":"4","last_reported":1774701101,"current_range_meters":10000,"station_id":"ce4bgi12rcd13ifvqb80","pricing_plan_id":"cebpf4jnsgd1na2vs0mg"},{"bike_id":"0f0b817c-1e20-44ad-834a-2e05a295d81e","system_id":"levelo_inurba_marseille","lat":43.27942,"lon":5.41038,"is_reserved":false,"is_disabled":false,"rental_uris":{"android":"levelo://app?vid=0f0b817c-1e20-44ad-834a-2e05a295d81e","ios":"levelo://app?vid=0f0b817c-1e20-44ad-834a-2e05a295d81e"},"vehicle_type_id":"4","last_reported":1774701101,"current_range_meters":10000,"station_id":"ce4bhnp2rcd13ifvqh0g","pricing_plan_id":"cebpf4jnsgd1na2vs0mg"},{"bike_id":"db101cdd-b424-4afb-97c3-1ee5618f71c1","system_id":"levelo_inurba_marseille","lat":43.24411,"lon":5.37044,"is_reserved":false,"is_disabled":false,"rental_uris":{"android":"levelo://app?vid=db101cdd-b424-4afb-97c3-1ee5618f71c1","ios":"levelo://app?vid=db101cdd-b424-4afb-97c3-1ee5618f71c1"},"vehicle_type_id":"4","last_reported":1774701101,"current_range_meters":10000,"station_id":"ce4bhhh2rcd13ifvqfk0","pricing_plan_id":"cebpf4jnsgd1na2vs0mg"},{"bike_id":"2d66df27-f724-47e0-8997-7c4b2d275045","system_id":"levelo_inurba_marseille","lat":43.25086,"lon":5.39526,"is_reserved":false,"is_disabled":false,"rental_uris":{"android":"levelo://app?vid=2d66df27-f724-47e0-8997-7c4b2d275045","ios":"levelo://app?vid=2d66df27-f724-47e0-8997-7c4b2d275045"},"vehicle_type_id":"4","last_reported":1774701101,"current_range_meters":10800,"station_id":"ce4bhm12rcd13ifvqgkg","pricing_plan_id":"cebpf4jnsgd1na2vs0mg"},{"bike_id":"e4b38eda-5537-47d6-bbd5-44614996148b","system_id":"levelo_inurba_marseille","lat":43.28945,"lon":5.36405,"is_reserved":false,"is_disabled":false,"rental_uris":{"android":"levelo://app?vid=e4b38eda-5537-47d6-bbd5-44614996148b","ios":"levelo://app?vid=e4b38eda-5537-47d6-bbd5-44614996148b"},"vehicle_type_id":"4","last_reported":1774701101,"current_range_meters":10800,"station_id":"ce4bhc92rcd13ifvqetg","pricing_plan_id":"cebpf4jnsgd1na2vs0mg"},{"bike_id":"08e3146d-1adb-4258-8222-b7b80330efcd","system_id":"levelo_inurba_marseille","lat":43.28431,"lon":5.34975,"is_reserved":false,"is_disabled":false,"rental_uris":{"android":"levelo://app?vid=08e3146d-1adb-4258-8222-b7b80330efcd","ios":"levelo://app?vid=08e3146d-1adb-4258-8222-b7b80330efcd"},"vehicle_type_id":"4","last_reported":1774701101,"current_range_meters":10800,"station_id":"ce4bhbh2rcd13ifvqepg","pricing_plan_id":"cebpf4jnsgd1na2vs0mg"},{"bike_id":"253bfbd1-c3f6-4b72-a716-55890f3b4db7","system_id":"levelo_inurba_marseille","lat":43.28483,"lon":5.48391,"is_reserved":false,"is_disabled":false,"rental_uris":{"android":"levelo://app?vid=253bfbd1-c3f6-4b72-a716-55890f3b4db7","ios":"levelo://app?vid=253bfbd1-c3f6-4b72-a716-55890f3b4db7"},"vehicle_type_id":"4","last_reported":1774701101,"current_range_meters":10800,"station_id":"","pricing_plan_id":"cebpf4jnsgd1na2vs0mg"},{"bike_id":"e999a6a6-d09b-4968-8512-64c2383e1a59","system_id":"levelo_inurba_marseille","lat":43.28476,"lon":5.38416,"is_reserved":false,"is_disabled":false,"rental_uris":{"android":"levelo://app?vid=e999a6a6-d09b-4968-8512-64c2383e1a59","ios":"levelo://app?vid=e999a6a6-d09b-4968-8512-64c2383e1a59"},"vehicle_type_id":"4","last_reported":1774701101,"current_range_meters":10800,"station_id":"ce4bh512rcd13ifvqe3g","pricing_plan_id":"cebpf4jnsgd1na2vs0mg"},{"bike_id":"aeca9453-ce08-40c1-8c68-c50a96f12fa4","system_id":"levelo_inurba_marseille","lat":43.28628,"lon":5.35106,"is_reserved":false,"is_disabled":false,"rental_uris":{"android":"levelo://app?vid=aeca9453-ce08-40c1-8c68-c50a96f12fa4","ios":"levelo://app?vid=aeca9453-ce08-40c1-8c68-c50a96f12fa4"},"vehicle_type_id":"4","last_reported":1774701101,"current_range_meters":10800,"station_id":"ce4bhch2rcd13ifvqeug","pricing_plan_id":"cebpf4jnsgd1na2vs0mg"},{"bike_id":"2de38fd0-4d56-4129-8633-4ee1741a5e1b","system_id":"levelo_inurba_marseille","lat":43.21189,"lon":5.35073,"is_reserved":false,"is_disabled":false,"rental_uris":{"android":"levelo://app?vid=2de38fd0-4d56-4129-8633-4ee1741a5e1b","ios":"levelo://app?vid=2de38fd0-4d56-4129-8633-4ee1741a5e1b"},"vehicle_type_id":"4","last_reported":1774701101,"current_range_meters":10800,"station_id":"st_cvj6sg6p6f1abm77japg","pricing_plan_id":"cebpf4jnsgd1na2vs0mg"},{"bike_id":"b91fec3e-bd7a-4b01-ac66-ad34b78d3a4a","system_id":"levelo_inurba_marseille","lat":43.27624,"lon":5.36111,"is_reserved":false,"is_disabled":false,"rental_uris":{"android":"levelo://app?vid=b91fec3e-bd7a-4b01-ac66-ad34b78d3a4a","ios":"levelo://app?vid=b91fec3e-bd7a-4b01-ac66-ad34b78d3a4a"},"vehicle_type_id":"4","last_reported":1774701101,"current_range_meters":10800,"station_id":"ce4bgj92rcd13ifvqbe0","pricing_plan_id":"cebpf4jnsgd1na2vs0mg"},{"bike_id":"9ac5ac09-4dcd-43d1-ac91-8b63c353f5d3","system_id":"levelo_inurba_marseille","lat":43.27989,"lon":5.4099,"is_reserved":false,"is_disabled":false,"rental_uris":{"android":"levelo://app?vid=9ac5ac09-4dcd-43d1-ac91-8b63c353f5d3","ios":"levelo://app?vid=9ac5ac09-4dcd-43d1-ac91-8b63c353f5d3"},"vehicle_type_id":"4","last_reported":1774701101,"current_range_meters":10800,"station_id":"","pricing_plan_id":"cebpf4jnsgd1na2vs0mg"},