{"last_updated":1703588773,"ttl":30,"version":"2.2","data":{"bikes":[{"bike_id":"0e17039e-5c53-44c0-a6c9-767d501cc2b8","system_id":"levelo_inurba_marseille","lat":43.31341,"lon":5.367098,"is_reserved":false,"is_disabled":false,"rental_uris":{"android":"levelo://app?vid=0e17039e-5c53-44c0-a6c9-767d501cc2b8","ios":"levelo://app?vid=0e17039e-5c53-44c0-a6c9-767d501cc2b8"},"vehicle_type_id":"4","last_reported":1703588774,"current_range_meters":30800,"station_id":"ce4bgr92rcd13ifvqc6g","pricing_plan_id":"free"},{"bike_id":"a5d1be60-fee2-43ad-8a89-98a0c9ca47f3","system_id":"levelo_inurba_marseille","lat":43.31341,"lon":5.367098,"is_reserved":false,"is_disabled":false,"rental_uris":{"android":"levelo://app?vid=a5d1be60-fee2-43ad-8a89-98a0c9ca47f3","ios":"levelo://app?vid=a5d1be60-fee2-43ad-8a89-98a0c9ca47f3"},"vehicle_type_id":"4","last_reported":1703588774,"current_range_meters":31200,"station_id":"ce4bgr92rcd13ifvqc6g","pricing_plan_id":"free"},{"bike_id":"ff914119-8f96-4e5f-a4e6-bb0fe2afd7f9","system_id":"levelo_inurba_marseille","lat":43.313467,"lon":5.367255,"is_reserved":false,"is_disabled":false,"rental_uris":{"android":"levelo://app?vid=ff914119-8f96-4e5f-a4e6-bb0fe2afd7f9","ios":"levelo://app?vid=ff914119-8f96-4e5f-a4e6-bb0fe2afd7f9"},"vehicle_type_id":"4","last_reported":1703588774,"current_range_meters":14000,"station_id":"ce4bgr92rcd13ifvqc6g","pricing_plan_id":"free"},{"bike_id":"459145f2-149e-4143-9c61-d5c7c7749096","system_id":"levelo_inurba_marseille","lat":43.313391,"lon":5.36706,"is_reserved":false,"is_disabled":false,"rental_uris":{"android":"levelo://app?vid=459145f2-149e-4143-9c61-d5c7c7749096","ios":"levelo://app?vid=459145f2-149e-4143-9c61-d5c7c7749096"},"vehicle_type_id":"4","last_reported":1703588774,"current_range_meters":31200,"station_id":"ce4bgr92rcd13ifvqc6g","pricing_plan_id":"free"},{"bike_id":"77e98b10-02ee-4fdf-add2-aa821941726e","system_id":"levelo_inurba_marseille","lat":43.313391,"lon":5.36706,"is_reserved":false,"is_disabled":false,"rental_uris":{"android":"levelo://app?vid=77e98b10-02ee-4fdf-add2-aa821941726e","ios":"levelo://app?vid=77e98b10-02ee-4fdf-add2-aa821941726e"},"vehicle_type_id":"4","last_reported":1703588774,"current_range_meters":29200,"station_id":"ce4bgr92rcd13ifvqc6g","pricing_plan_id":"free"},{"bike_id":"2c20670a-daab-4e9c-aa30-f2b77860da59","system_id":"levelo_inurba_marseille","lat":43.313391,"lon":5.36706,"is_reserved":false,"is_disabled":false,"rental_uris":{"android":"levelo://app?vid=2c20670a-daab-4e9c-aa30-f2b77860da59","ios":"levelo://app?vid=2c20670a-daab-4e9c-aa30-f2b77860da59"},"vehicle_type_id":"4","last_reported":1703588774,"current_range_meters":15200,"station_id":"ce4bgr92rcd13ifvqc6g","pricing_plan_id":"free"},{"bike_id":"1db23601-7836-405c-9f10-d64b87239e1b","system_id":"levelo_inurba_marseille","lat":43.313391,"lon":5.36706,"is_reserved":false,"is_disabled":false,"rental_uris":{"android":"levelo://app?vid=1db23601-7836-405c-9f10-d64b87239e1b","ios":"levelo://app?vid=1db23601-7836-405c-9f10-d64b87239e1b"},"vehicle_type_id":"4","last_reported":1703588774,"current_range_meters":31200,"station_id":"ce4bgr92rcd13ifvqc6g","pricing_plan_id":"free"},{"bike_id":"8b5e95fd-4e98-4140-baca-6776965bc033","system_id":"levelo_inurba_marseille","lat":43.313391,"lon":5.36706,"is_reserved":false,"is_disabled":false,"rental_uris":{"android":"levelo://app?vid=8b5e95fd-4e98-4140-baca-6776965bc033","ios":"levelo://app?vid=8b5e95fd-4e98-4140-baca-6776965bc033"},"vehicle_type_id":"4","last_reported":1703588774,"current_range_meters":28800,"station_id":"ce4bgr92rcd13ifvqc6g","pricing_plan_id":"free"},{"bike_id":"fa15e03f-0b04-42ff-b11d-b118fac42a28","system_id":"levelo_inurba_marseille","lat":43.31341,"lon":5.367098,"is_reserved":false,"is_disabled":false,"rental_uris":{"android":"levelo://app?vid=fa15e03f-0b04-42ff-b11d-b118fac42a28","ios":"levelo://app?vid=fa15e03f-0b04-42ff-b11d-b118fac42a28"},"vehicle_type_id":"4","last_reported":1703588774,"current_range_meters":27600,"station_id":"ce4bgr92rcd13ifvqc6g","pricing_plan_id":"free"},{"bike_id":"5638fa84-5757-41eb-9f19-89da68b06bc4","system_id":"levelo_inurba_marseille","lat":43.312239,"lon":5.368562,"is_reserved":false,"is_disabled":false,"rental_uris":{"android":"levelo://app?vid=5638fa84-5757-41eb-9f19-89da68b06bc4","ios":"levelo://app?vid=5638fa84-5757-41eb-9f19-89da68b06bc4"},"vehicle_type_id":"4","last_reported":1703588774,"current_range_meters":31600,"station_id":"ce4bgl92rcd13ifvqbq0","pricing_plan_id":"free"},{"bike_id":"6047d2a6-cbb7-4495-9b65-4a9c9bcf6b96","system_id":"levelo_inurba_marseille","lat":43.312239,"lon":5.368562,"is_reserved":false,"is_disabled":false,"rental_uris":{"android":"levelo://app?vid=6047d2a6-cbb7-4495-9b65-4a9c9bcf6b96","ios":"levelo://app?vid=6047d2a6-cbb7-4495-9b65-4a9c9bcf6b96"},"vehicle_type_id":"4","last_reported":1703588774,"current_range_meters":20000,"station_id":"ce4bgl92rcd13ifvqbq0","pricing_plan_id":"free"},{"bike_id":"61a1391a-a674-4f6d-ba66-d65b48bfa817","system_id":"levelo_inurba_marseille","lat":43.312239,"lon":5.368562,"is_reserved":false,"is_disabled":false,"rental_uris":{"android":"levelo://app?vid=61a1391a-a674-4f6d-ba66-d65b48bfa817","ios":"levelo://app?vid=61a1391a-a674-4f6d-ba66-d65b48bfa817"},"vehicle_type_id":"4","last_reported":1703588774,"current_range_meters":30400,"station_id":"ce4bgl92rcd13ifvqbq0","pricing_plan_id":"free"},{"bike_id":"920fa6af-cbc1-461b-b6d9-f11b20baaa6b","system_id":"levelo_inurba_marseille","lat":43.309076,"lon":5.368465,"is_reserved":false,"is_disabled":false,"rental_uris":{"android":"levelo://app?vid=920fa6af-cbc1-461b-b6d9-f11b20baaa6b","ios":"levelo://app?vid=920fa6af-cbc1-461b-b6d9-f11b20baaa6b"},"vehicle_type_id":"4","last_reported":1703588774,"current_range_meters":30000,"station_id":"ce4bgn92rcd13ifvqbvg","pricing_plan_id":"free"},{"bike_id":"c3454a6e-404f-4357-a2af-827e8766c727","system_id":"levelo_inurba_marseille","lat":43.309076,"lon":5.368465,"is_reserved":false,"is_disabled":false,"rental_uris":{"android":"levelo://app?vid=c3454a6e-404f-4357-a2af-827e8766c727","ios":"levelo://app?vid=c3454a6e-404f-4357-a2af-827e8766c727"},"vehicle_type_id":"4","last_reported":1703588774,"current_range_meters":31200,"station_id":"ce4bgn92rcd13ifvqbvg","pricing_plan_id":"free"},{"bike_id":"ac91f12e-be8c-4cce-8999-d38502cbec5a","system_id":"levelo_inurba_marseille","lat":43.309076,"lon":5.368465,"is_reserved":false,"is_disabled":false,"rental_uris":{"android":"levelo://app?vid=ac91f12e-be8c-4cce-8999-d38502cbec5a","ios":"levelo://app?vid=ac91f12e-be8c-4cce-8999-d38502cbec5a"},"vehicle_type_id":"4","last_reported":1703588774,"current_range_meters":16000,"station_id":"ce4bgn92rcd13ifvqbvg","pricing_plan_id":"free"},{"bike_id":"90c4e781-4718-4887-9d11-bc440c61018f","system_id":"levelo_inurba_marseille","lat":43.308988,"lon":5.368415,"is_reserved":false,"is_disabled":false,"rental_uris":{"android":"levelo://app?vid=90c4e781-4718-4887-9d11-bc440c61018f","ios":"levelo://app?vid=90c4e781-4718-4887-9d11-bc440c61018f"},"vehicle_type_id":"4","last_reported":1703588774,"current_range_meters":16800,"station_id":"ce4bgn92rcd13ifvqbvg","pricing_plan_id":"free"},{"bike_id":"5f162392-05c8-45d3-a5c7-3c645c8f8d32","system_id":"levelo_inurba_marseille","lat":43.309039,"lon":5.371797,"is_reserved":false,"is_disabled":false,"rental_uris":{"android":"levelo://app?vid=5f162392-05c8-45d3-a5c7-3c645c8f8d32","ios":"levelo://app?vid=5f162392-05c8-45d3-a5c7-3c645c8f8d32"},"vehicle_type_id":"4","last_reported":1703588774,"current_range_meters":30800,"station_id":"ce4bguh2rcd13ifvqckg","pricing_plan_id":"free"},{"bike_id":"ed548604-98fc-4d5b-af6c-c6e805daef2f","system_id":"levelo_inurba_marseille","lat":43.309039,"lon":5.371797,"is_reserved":false,"is_disabled":false,"rental_uris":{"android":"levelo://app?vid=ed548604-98fc-4d5b-af6c-c6e805daef2f","ios":"levelo://app?vid=ed548604-98fc-4d5b-af6c-c6e805daef2f"},"vehicle_type_id":"4","last_reported":1703588774,"current_range_meters":26400,"station_id":"ce4bguh2rcd13ifvqckg","pricing_plan_id":"free"},{"bike_id":"98fc8f36-009c-49c0-bde9-eaacf0237add","system_id":"levelo_inurba_marseille","lat":43.31489,"lon":5.37393,"is_reserved":false,"is_disabled":false,"rental_uris":{"android":"levelo://app?vid=98fc8f36-009c-49c0-bde9-eaacf0237add","ios":"levelo://app?vid=98fc8f36-009c-49c0-bde9-eaacf0237add"},"vehicle_type_id":"4","last_reported":1703588774,"current_range_meters":26000,"station_id":"","pricing_plan_id":"free"},{"bike_id":"d2be49f4-d512-450f-80de-370a6da97420","system_id":"levelo_inurba_marseille","lat":43.318964,"lon":5.36877,"is_reserved":false,"is_disabled":false,"rental_uris":{"android":"levelo://app?vid=d2be49f4-d512-450f-80de-370a6da97420","ios":"levelo://app?vid=d2be49f4-d512-450f-80de-370a6da97420"},"vehicle_type_id":"4","last_reported":1703588774,"current_range_meters":7200,"station_id":"","pricing_plan_id":"free"},{"bike_id":"b234029a-dcfe-4cf6-b1b4-72ff3f2fa5c6","system_id":"levelo_inurba_marseille","lat":43.30554,"lon":5.36558,"is_reserved":false,"is_disabled":false,"rental_uris":{"android":"levelo://app?vid=b234029a-dcfe-4cf6-b1b4-72ff3f2fa5c6","ios":"levelo://app?vid=b234029a-dcfe-4cf6-b1b4-72ff3f2fa5c6"},"vehicle_type_id":"4","last_reported":1703588774,"current_range_meters":26400,"station_id":"ce4bgs12rcd13ifvqcag","pricing_plan_id":"free"},{"bike_id":"28d0aea3-ba89-4a30-a189-699926df1f53","system_id":"levelo_inurba_marseille","lat":43.305368,"lon":5.367343,"is_reserved":false,"is_disabled":false,"rental_uris":{"android":"levelo://app?vid=28d0aea3-ba89-4a30-a189-699926df1f53","ios":"levelo://app?vid=28d0aea3-ba89-4a30-a189-699926df1f53"},"vehicle_type_id":"4","last_reported":1703588774,"current_range_meters":8800,"station_id":"ce4bgrp2rcd13ifvqc9g","pricing_plan_id":"free"},{"bike_id":"f7514a0c-6076-4682-9449-f25672bb2582","system_id":"levelo_inurba_marseille","lat":43.305368,"lon":5.367343,"is_reserved":false,"is_disabled":false,"rental_uris":{"android":"levelo://app?vid=f7514a0c-6076-4682-9449-f25672bb2582","ios":"levelo://app?vid=f7514a0c-6076-4682-9449-f25672bb2582"},"vehicle_type_id":"4","last_reported":1703588774,"current_range_meters":26400,"station_id":"ce4bgrp2rcd13ifvqc9g","pricing_plan_id":"free"},{"bike_id":"a5da94a7-6cee-4d44-81c4-2d87d1eaf137","system_id":"levelo_inurba_marseille","lat":43.305712,"lon":5.365641,"is_reserved":false,"is_disabled":false,"rental_uris":{"android":"levelo://app?vid=a5da94a7-6cee-4d44-81c4-2d87d1eaf137","ios":"levelo://app?vid=a5da94a7-6cee-4d44-81c4-2d87d1eaf137"},"vehicle_type_id":"4","last_reported":1703588774,"current_range_meters":18800,"station_id":"ce4bgs12rcd13ifvqcag","pricing_plan_id":"free"},{"bike_id":"dcf0e77b-82ad-4694-b220-fac9175fe083","system_id":"levelo_inurba_marseille","lat":43.305368,"lon":5.367343,"is_reserved":false,"is_disabled":false,"rental_uris":{"android":"levelo://app?vid=dcf0e77b-82ad-4694-b220-fac9175fe083","ios":"levelo://app?vid=dcf0e77b-82ad-4694-b220-fac9175fe083"},"vehicle_type_id":"4","last_reported":1703588774,"current_range_meters":20400,"station_id":"ce4bgrp2rcd13ifvqc9g","pricing_plan_id":"free"},{"bike_id":"9c31f8ad-b9fe-4023-84ab-590788371a38","system_id":"levelo_inurba_marseille","lat":43.305712,"lon":5.365641,"is_reserved":false,"is_disabled":false,"rental_uris":{"android":"levelo://app?vid=9c31f8ad-b9fe-4023-84ab-590788371a38","ios":"levelo://app?vid=9c31f8ad-b9fe-4023-84ab-590788371a38"},"vehicle_type_id":"4","last_reported":1703588774,"current_range_meters":19200,"station_id":"ce4bgs12rcd13ifvqcag","pricing_plan_id":"free"},{"bike_id":"639cd281-238a-49d6-9908-8cf198650b20","system_id":"levelo_inurba_marseille","lat":43.305714,"lon":5.365633,"is_reserved":false,"is_disabled":false,"rental_uris":{"android":"levelo://app?vid=639cd281-238a-49d6-9908-8cf198650b20","ios":"levelo://app?vid=639cd281-238a-49d6-9908-8cf198650b20"},"vehicle_type_id":"4","last_reported":1703588774,"current_range_meters":28400,"station_id":"ce4bgs12rcd13ifvqcag","pricing_plan_id":"free"},{"bike_id":"d6de6120-bad9-4792-8893-1e7baec6a7b4","system_id":"levelo_inurba_marseille","lat":43.305714,"lon":5.365633,"is_reserved":false,"is_disabled":false,"rental_uris":{"android":"levelo://app?vid=d6de6120-bad9-4792-8893-1e7baec6a7b4","ios":"levelo://app?vid=d6de6120-bad9-4792-8893-1e7baec6a7b4"},"vehicle_type_id":"4","last_reported":1703588774,"current_range_meters":31200,"station_id":"ce4bgs12rcd13ifvqcag","pricing_plan_id":"free"},{"bike_id":"ad92a783-8216-4561-8d7f-89ffa9bd34d3","system_id":"levelo_inurba_marseille","lat":43.305706,"lon":5.365654,"is_reserved":false,"is_disabled":false,"rental_uris":{"android":"levelo://app?vid=ad92a783-8216-4561-8d7f-89ffa9bd34d3","ios":"levelo://app?vid=ad92a783-8216-4561-8d7f-89ffa9bd34d3"},"vehicle_type_id":"4","last_reported":1703588774,"current_range_meters":18800,"station_id":"ce4bgs12rcd13ifvqcag","pricing_plan_id":"free"},{"bike_id":"ed0ee458-d167-4624-8c61-96e3c5ea9645","system_id":"levelo_inurba_marseille","lat":43.305706,"lon":5.365654,"is_reserved":false,"is_disabled":false,"rental_uris":{"android":"levelo://app?vid=ed0ee458-d167-4624-8c61-96e3c5ea9645","ios":"levelo://app?vid=ed0ee458-d167-4624-8c61-96e3c5ea9645"},"vehicle_type_id":"4","last_reported":1703588774,"current_range_meters":2400,"station_id":"ce4bgs12rcd13ifvqcag","pricing_plan_id":"free"},{"bike_id":"86aa3cc2-a230-43ff-8192-c5d86bbc6da8","system_id":"levelo_inurba_marseille","lat":43.305706,"lon":5.365654,"is_reserved":false,"is_disabled":false,"rental_uris":{"android":"levelo://app?vid=86aa3cc2-a230-43ff-8192-c5d86bbc6da8","ios":"levelo://app?vid=86aa3cc2-a230-43ff-8192-c5d86bbc6da8"},"vehicle_type_id":"4","last_reported":1703588774,"current_range_meters":20000,"station_id":"ce4bgs12rcd13ifvqcag","pricing_plan_id":"free"},{"bike_id":"f78bd481-81ee-4e47-ba4a-37808bca09e7","system_id":"levelo_inurba_marseille","lat":43.305706,"lon":5.365654,"is_reserved":false,"is_disabled":false,"rental_uris":{"android":"levelo://app?vid=f78bd481-81ee-4e47-ba4a-37808bca09e7","ios":"levelo://app?vid=f78bd481-81ee-4e47-ba4a-37808bca09e7"},"vehicle_type_id":"4","last_reported":1703588774,"current_range_meters":27200,"station_id":"ce4bgs12rcd13ifvqcag","pricing_plan_id":"free"},{"bike_id":"7e9f55ad-ccb2-417f-8bc9-cf5770aaa445","system_id":"levelo_inurba_marseille","lat":43.305706,"lon":5.365654,"is_reserved":false,"is_disabled":false,"rental_uris":{"android":"levelo://app?vid=7e9f55ad-ccb2-417f-8bc9-cf5770aaa445","ios":"levelo://app?vid=7e9f55ad-ccb2-417f-8bc9-cf5770aaa445"},"vehicle_type_id":"4","last_reported":1703588774,"current_range_meters":31600,"station_id":"ce4bgs12rcd13ifvqcag","pricing_plan_id":"free"},{"bike_id":"2794fa06-a287-4132-b978-ba3bdb8bb5a5","system_id":"levelo_inurba_marseille","lat":43.305706,"lon":5.365654,"is_reserved":false,"is_disabled":false,"rental_uris":{"android":"levelo://app?vid=2794fa06-a287-4132-b978-ba3bdb8bb5a5","ios":"levelo://app?vid=2794fa06-a287-4132-b978-ba3bdb8bb5a5"},"vehicle_type_id":"4","last_reported":1703588774,"current_range_meters":31600,"station_id":"ce4bgs12rcd13ifvqcag","pricing_plan_id":"free"},{"bike_id":"1e54f021-063b-4c86-a73d-ef50e0f7ef2d","system_id":"levelo_inurba_marseille","lat":43.305706,"lon":5.365654,"is_reserved":false,"is_disabled":false,"rental_uris":{"android":"levelo://app?vid=1e54f021-063b-4c86-a73d-ef50e0f7ef2d","ios":"levelo://app?vid=1e54f021-063b-4c86-a73d-ef50e0f7ef2d"},"vehicle_type_id":"4","last_reported":1703588774,"current_range_meters":30400,"station_id":"ce4bgs12rcd13ifvqcag","pricing_plan_id":"free"},{"bike_id":"295776c7-9cc2-4d02-9bf7-2d922acc6ead","system_id":"levelo_inurba_marseille","lat":43.305368,"lon":5.367343,"is_reserved":false,"is_disabled":false,"rental_uris":{"android":"levelo://app?vid=295776c7-9cc2-4d02-9bf7-2d922acc6ead","ios":"levelo://app?vid=295776c7-9cc2-4d02-9bf7-2d922acc6ead"},"vehicle_type_id":"4","last_reported":1703588774,"current_range_meters":23200,"station_id":"ce4bgrp2rcd13ifvqc9g","pricing_plan_id":"free"},{"bike_id":"8a5a65b7-888e-4cfd-9956-5762ca0fdc86","system_id":"levelo_inurba_marseille","lat":43.305706,"lon":5.365654,"is_reserved":false,"is_disabled":false,"rental_uris":{"android":"levelo://app?vid=8a5a65b7-888e-4cfd-9956-5762ca0fdc86","ios":"levelo://app?vid=8a5a65b7-888e-4cfd-9956-5762ca0fdc86"},"vehicle_type_id":"4","last_reported":1703588774,"current_range_meters":29200,"station_id":"ce4bgs12rcd13ifvqcag","pricing_plan_id":"free"},{"bike_id":"a3f00bdd-dc45-409e-8a4a-476fe226b5e1","system_id":"levelo_inurba_marseille","lat":43.305989,"lon":5.37225,"is_reserved":false,"is_disabled":false,"rental_uris":{"android":"levelo://app?vid=a3f00bdd-dc45-409e-8a4a-476fe226b5e1","ios":"levelo://app?vid=a3f00bdd-dc45-409e-8a4a-476fe226b5e1"},"vehicle_type_id":"4","last_reported":1703588774,"current_range_meters":28400,"station_id":"ce4bgqh2rcd13ifvqc4g","pricing_plan_id":"free"},{"bike_id":"988c8d7f-bb79-4a6c-b63c-0e5007b7494b","system_id":"levelo_inurba_marseille","lat":43.311185,"lon":5.377635,"is_reserved":false,"is_disabled":false,"rental_uris":{"android":"levelo://app?vid=988c8d7f-bb79-4a6c-b63c-0e5007b7494b","ios":"levelo://app?vid=988c8d7f-bb79-4a6c-b63c-0e5007b7494b"},"vehicle_type_id":"4","last_reported":1703588774,"current_range_meters":9600,"station_id":"ce4bgt92rcd13ifvqcg0","pricing_plan_id":"free"},{"bike_id":"5a73aab7-09b4-48d6-b54c-5aaa4ec3dcc0","system_id":"levelo_inurba_marseille","lat":43.311131,"lon":5.377651,"is_reserved":false,"is_disabled":false,"rental_uris":{"android":"levelo://app?vid=5a73aab7-09b4-48d6-b54c-5aaa4ec3dcc0","ios":"levelo://app?vid=5a73aab7-09b4-48d6-b54c-5aaa4ec3dcc0"},"vehicle_type_id":"4","last_reported":1703588774,"current_range_meters":7600,"station_id":"ce4bgt92rcd13ifvqcg0","pricing_plan_id":"free"},{"bike_id":"693bab79-617b-49b0-a20f-464e84378b4a","system_id":"levelo_inurba_marseille","lat":43.311196,"lon":5.377718,"is_reserved":false,"is_disabled":false,"rental_uris":{"android":"levelo://app?vid=693bab79-617b-49b0-a20f-464e84378b4a","ios":"levelo://app?vid=693bab79-617b-49b0-a20f-464e84378b4a"},"vehicle_type_id":"4","last_reported":1703588774,"current_range_meters":8000,"station_id":"ce4bgt92rcd13ifvqcg0","pricing_plan_id":"free"},{"bike_id":"ee954a6a-a6c1-4186-a1d3-88b49413f38a","system_id":"levelo_inurba_marseille","lat":43.311125,"lon":5.377624,"is_reserved":false,"is_disabled":false,"rental_uris":{"android":"levelo://app?vid=ee954a6a-a6c1-4186-a1d3-88b49413f38a","ios":"levelo://app?vid=ee954a6a-a6c1-4186-a1d3-88b49413f38a"},"vehicle_type_id":"4","last_reported":1703588774,"current_range_meters":16400,"station_id":"ce4bgt92rcd13ifvqcg0","pricing_plan_id":"free"},{"bike_id":"36c4061c-c567-431e-87f1-6a753cd4db92","system_id":"levelo_inurba_marseille","lat":43.303046,"lon":5.368981,"is_reserved":false,"is_disabled":false,"rental_uris":{"android":"levelo://app?vid=36c4061c-c567-431e-87f1-6a753cd4db92","ios":"levelo://app?vid=36c4061c-c567-431e-87f1-6a753cd4db92"},"vehicle_type_id":"4","last_reported":1703588774,"current_range_meters":29200,"station_id":"ce4bgqh2rcd13ifvqc5g","pricing_plan_id":"free"},{"bike_id":"2c21b2f6-c661-4586-bc44-4f6e58a798da","system_id":"levelo_inurba_marseille","lat":43.30304,"lon":5.368987,"is_reserved":false,"is_disabled":false,"rental_uris":{"android":"levelo://app?vid=2c21b2f6-c661-4586-bc44-4f6e58a798da","ios":"levelo://app?vid=2c21b2f6-c661-4586-bc44-4f6e58a798da"},"vehicle_type_id":"4","last_reported":1703588774,"current_range_meters":30000,"station_id":"ce4bgqh2rcd13ifvqc5g","pricing_plan_id":"free"},{"bike_id":"0e248e90-c6e3-4fca-8b14-3fbbd568d31d","system_id":"levelo_inurba_marseille","lat":43.30304,"lon":5.368987,"is_reserved":false,"is_disabled":false,"rental_uris":{"android":"levelo://app?vid=0e248e90-c6e3-4fca-8b14-3fbbd568d31d","ios":"levelo://app?vid=0e248e90-c6e3-4fca-8b14-3fbbd568d31d"},"vehicle_type_id":"4","last_reported":1703588774,"current_range_meters":29600,"station_id":"ce4bgqh2rcd13ifvqc5g","pricing_plan_id":"free"},{"bike_id":"6d93ea9e-d4f5-406c-91e7-4b8fcaa3ec4e","system_id":"levelo_inurba_marseille","lat":43.301939,"lon":5.366286,"is_reserved":false,"is_disabled":false,"rental_uris":{"android":"levelo://app?vid=6d93ea9e-d4f5-406c-91e7-4b8fcaa3ec4e","ios":"levelo://app?vid=6d93ea9e-d4f5-406c-91e7-4b8fcaa3ec4e"},"vehicle_type_id":"4","last_reported":1703588774,"current_range_meters":24800,"station_id":"ce4bgrh2rcd13ifvqc8g","pricing_plan_id":"free"},{"bike_id":"d31963a5-e743-462f-8e6f-afbac997a781","system_id":"levelo_inurba_marseille","lat":43.301939,"lon":5.366286,"is_reserved":false,"is_disabled":false,"rental_uris":{"android":"levelo://app?vid=d31963a5-e743-462f-8e6f-afbac997a781","ios":"levelo://app?vid=d31963a5-e743-462f-8e6f-afbac997a781"},"vehicle_type_id":"4","last_reported":1703588774,"current_range_meters":22000,"station_id":"ce4bgrh2rcd13ifvqc8g","pricing_plan_id":"free"},{"bike_id":"d3f87648-fa46-4e0f-85a3-39f063b748e0","system_id":"levelo_inurba_marseille","lat":43.319148,"lon":5.379243,"is_reserved":false,"is_disabled":false,"rental_uris":{"android":"levelo://app?vid=d3f87648-fa46-4e0f-85a3-39f063b748e0","ios":"levelo://app?vid=d3f87648-fa46-4e0f-85a3-39f063b748e0"},"vehicle_type_id":"4","last_reported":1703588774,"current_range_meters":28000,"station_id":"","pricing_plan_id":"free"},{"bike_id":"e6019c28-bda0-401e-9ad9-c1ecabadcb27","system_id":"levelo_inurba_marseille","lat":43.308012,"lon":5.381511,"is_reserved":false,"is_disabled":false,"rental_uris":{"android":"levelo://app?vid=e6019c28-bda0-401e-9ad9-c1ecabadcb27","ios":"levelo://app?vid=e6019c28-bda0-401e-9ad9-c1ecabadcb27"},"vehicle_type_id":"4","last_reported":1703588774,"current_range_meters":25200,"station_id":"ce4bgt12rcd13ifvqce0","pricing_plan_id":"free"},{"bike_id":"2e8ef0b6-0e25-4a25-b0c4-95067ca8fe79","system_id":"levelo_inurba_marseille","lat":43.304606,"lon":5.379026,"is_reserved":false,"is_disabled":false,"rental_uris":{"android":"levelo://app?vid=2e8ef0b6-0e25-4a25-b0c4-95067ca8fe79","ios":"levelo://app?vid=2e8ef0b6-0e25-4a25-b0c4-95067ca8fe79"},"vehicle_type_id":"4","last_reported":1703588774,"current_range_meters":4800,"station_id":"ce4bgup2rcd13ifvqcn0","pricing_plan_id":"free"},{"bike_id":"89812890-171a-4d09-94a2-91fd9134ff5d","system_id":"levelo_inurba_marseille","lat":43.304606,"lon":5.379026,"is_reserved":false,"is_disabled":false,"rental_uris":{"android":"levelo://app?vid=89812890-171a-4d09-94a2-91fd9134ff5d","ios":"levelo://app?vid=89812890-171a-4d09-94a2-91fd9134ff5d"},"vehicle_type_id":"4","last_reported":1703588774,"current_range_meters":30800,"station_id":"ce4bgup2rcd13ifvqcn0","pricing_plan_id":"free"},{"bike_id":"b08d8217-c508-4e41-bb28-6a9633555a10","system_id":"levelo_inurba_marseille","lat":43.304606,"lon":5.379026,"is_reserved":false,"is_disabled":false,"rental_uris":{"android":"levelo://app?vid=b08d8217-c508-4e41-bb28-6a9633555a10","ios":"levelo://app?vid=b08d8217-c508-4e41-bb28-6a9633555a10"},"vehicle_type_id":"4","last_reported":1703588774,"current_range_meters":15200,"station_id":"ce4bgup2rcd13ifvqcn0","pricing_plan_id":"free"},{"bike_id":"7a4c5a25-8cae-495c-a8f7-f324eb7efd52","system_id":"levelo_inurba_marseille","lat":43.304606,"lon":5.379026,"is_reserved":false,"is_disabled":false,"rental_uris":{"android":"levelo://app?vid=7a4c5a25-8cae-495c-a8f7-f324eb7efd52","ios":"levelo://app?vid=7a4c5a25-8cae-495c-a8f7-f324eb7efd52"},"vehicle_type_id":"4","last_reported":1703588774,"current_range_meters":31200,"station_id":"ce4bgup2rcd13ifvqcn0","pricing_plan_id":"free"},{"bike_id":"f5c0e4d6-16bd-47eb-ba92-aa201d0984ce","system_id":"levelo_inurba_marseille","lat":43.324807,"lon":5.365641,"is_reserved":false,"is_disabled":false,"rental_uris":{"android":"levelo://app?vid=f5c0e4d6-16bd-47eb-ba92-aa201d0984ce","ios":"levelo://app?vid=f5c0e4d6-16bd-47eb-ba92-aa201d0984ce"},"vehicle_type_id":"4","last_reported":1703588774,"current_range_meters":30000,"station_id":"ce4bhs12rcd13ifvqhvg","pricing_plan_id":"free"},{"bike_id":"f5d96c3b-c605-4a6d-8ef9-fcc24b70a15d","system_id":"levelo_inurba_marseille","lat":43.302784,"lon":5.377158,"is_reserved":false,"is_disabled":false,"rental_uris":{"android":"levelo://app?vid=f5d96c3b-c605-4a6d-8ef9-fcc24b70a15d","ios":"levelo://app?vid=f5d96c3b-c605-4a6d-8ef9-fcc24b70a15d"},"vehicle_type_id":"4","last_reported":1703588774,"current_range_meters":29200,"station_id":"ce4bguh2rcd13ifvqcj0","pricing_plan_id":"free"},{"bike_id":"0adc796d-5772-4240-ad80-b90682bbeb1d","system_id":"levelo_inurba_marseille","lat":43.302784,"lon":5.377158,"is_reserved":false,"is_disabled":false,"rental_uris":{"android":"levelo://app?vid=0adc796d-5772-4240-ad80-b90682bbeb1d","ios":"levelo://app?vid=0adc796d-5772-4240-ad80-b90682bbeb1d"},"vehicle_type_id":"4","last_reported":1703588774,"current_range_meters":27600,"station_id":"ce4bguh2rcd13ifvqcj0","pricing_plan_id":"free"},{"bike_id":"673afe24-13ca-4117-906e-0ada444292f1","system_id":"levelo_inurba_marseille","lat":43.324771,"lon":5.36557,"is_reserved":false,"is_disabled":false,"rental_uris":{"android":"levelo://app?vid=673afe24-13ca-4117-906e-0ada444292f1","ios":"levelo://app?vid=673afe24-13ca-4117-906e-0ada444292f1"},"vehicle_type_id":"4","last_reported":1703588774,"current_range_meters":22000,"station_id":"ce4bhs12rcd13ifvqhvg","pricing_plan_id":"free"},{"bike_id":"b9944e25-bfa8-494a-acfe-c5fbdff81ba1","system_id":"levelo_inurba_marseille","lat":43.302784,"lon":5.377158,"is_reserved":false,"is_disabled":false,"rental_uris":{"android":"levelo://app?vid=b9944e25-bfa8-494a-acfe-c5fbdff81ba1","ios":"levelo://app?vid=b9944e25-bfa8-494a-acfe-c5fbdff81ba1"},"vehicle_type_id":"4","last_reported":1703588774,"current_range_meters":29600,"station_id":"ce4bguh2rcd13ifvqcj0","pricing_plan_id":"free"},{"bike_id":"db888e2c-229e-41f1-95db-65ee0aca4b79","system_id":"levelo_inurba_marseille","lat":43.30143,"lon":5.37413,"is_reserved":false,"is_disabled":false,"rental_uris":{"android":"levelo://app?vid=db888e2c-229e-41f1-95db-65ee0aca4b79","ios":"levelo://app?vid=db888e2c-229e-41f1-95db-65ee0aca4b79"},"vehicle_type_id":"4","last_reported":1703588774,"current_range_meters":29600,"station_id":"ce4bgs92rcd13ifvqcc0","pricing_plan_id":"free"},{"bike_id":"9965999e-b6ee-4764-88a3-cb9c58e992b8","system_id":"levelo_inurba_marseille","lat":43.302701,"lon":5.376944,"is_reserved":false,"is_disabled":false,"rental_uris":{"android":"levelo://app?vid=9965999e-b6ee-4764-88a3-cb9c58e992b8","ios":"levelo://app?vid=9965999e-b6ee-4764-88a3-cb9c58e992b8"},"vehicle_type_id":"4","last_reported":1703588774,"current_range_meters":30800,"station_id":"ce4bguh2rcd13ifvqcj0","pricing_plan_id":"free"},{"bike_id":"0f2f937d-76fd-40c6-b60d-f8845eb7f120","system_id":"levelo_inurba_marseille","lat":43.30143,"lon":5.37413,"is_reserved":false,"is_disabled":false,"rental_uris":{"android":"levelo://app?vid=0f2f937d-76fd-40c6-b60d-f8845eb7f120","ios":"levelo://app?vid=0f2f937d-76fd-40c6-b60d-f8845eb7f120"},"vehicle_type_id":"4","last_reported":1703588774,"current_range_meters":14000,"station_id":"ce4bgs92rcd13ifvqcc0","pricing_plan_id":"free"},{"bike_id":"70b0ad2a-6533-4324-9176-53aa3f1f6a7a","system_id":"levelo_inurba_marseille","lat":43.32,"lon":5.3814,"is_reserved":false,"is_disabled":false,"rental_uris":{"android":"levelo://app?vid=70b0ad2a-6533-4324-9176-53aa3f1f6a7a","ios":"levelo://app?vid=70b0ad2a-6533-4324-9176-53aa3f1f6a7a"},"vehicle_type_id":"4","last_reported":1703588774,"current_range_meters":3200,"station_id":"ce4bhr12rcd13ifvqhpg","pricing_plan_id":"free"},{"bike_id":"6229263c-108d-4bd5-9b30-eff981ca1f5e","system_id":"levelo_inurba_marseille","lat":43.29935,"lon":5.36547,"is_reserved":false,"is_disabled":false,"rental_uris":{"android":"levelo://app?vid=6229263c-108d-4bd5-9b30-eff981ca1f5e","ios":"levelo://app?vid=6229263c-108d-4bd5-9b30-eff981ca1f5e"},"vehicle_type_id":"4","last_reported":1703588774,"current_range_meters":21200,"station_id":"ce4bgm92rcd13ifvqbr0","pricing_plan_id":"free"},{"bike_id":"902d482f-a338-4635-b343-d5ee8f58e6fb","system_id":"levelo_inurba_marseille","lat":43.299222,"lon":5.365554,"is_reserved":false,"is_disabled":false,"rental_uris":{"android":"levelo://app?vid=902d482f-a338-4635-b343-d5ee8f58e6fb","ios":"levelo://app?vid=902d482f-a338-4635-b343-d5ee8f58e6fb"},"vehicle_type_id":"4","last_reported":1703588774,"current_range_meters":7600,"station_id":"ce4bgm92rcd13ifvqbr0","pricing_plan_id":"free"},{"bike_id":"238379d7-fc29-4a3e-a93a-971edd591167","system_id":"levelo_inurba_marseille","lat":43.299222,"lon":5.365554,"is_reserved":false,"is_disabled":false,"rental_uris":{"android":"levelo://app?vid=238379d7-fc29-4a3e-a93a-971edd591167","ios":"levelo://app?vid=238379d7-fc29-4a3e-a93a-971edd591167"},"vehicle_type_id":"4","last_reported":1703588774,"current_range_meters":28000,"station_id":"ce4bgm92rcd13ifvqbr0","pricing_plan_id":"free"},{"bike_id":"4c3ed2b4-809d-4edd-a900-686bd5a03584","system_id":"levelo_inurba_marseille","lat":43.299222,"lon":5.365554,"is_reserved":false,"is_disabled":false,"rental_uris":{"android":"levelo://app?vid=4c3ed2b4-809d-4edd-a900-686bd5a03584","ios":"levelo://app?vid=4c3ed2b4-809d-4edd-a900-686bd5a03584"},"vehicle_type_id":"4","last_reported":1703588774,"current_range_meters":11200,"station_id":"ce4bgm92rcd13ifvqbr0","pricing_plan_id":"free"},{"bike_id":"4fdc7eae-3c03-40f8-8d94-810f5386fefd","system_id":"levelo_inurba_marseille","lat":43.298433,"lon":5.362774,"is_reserved":false,"is_disabled":false,"rental_uris":{"android":"levelo://app?vid=4fdc7eae-3c03-40f8-8d94-810f5386fefd","ios":"levelo://app?vid=4fdc7eae-3c03-40f8-8d94-810f5386fefd"},"vehicle_type_id":"4","last_reported":1703588774,"current_range_meters":22400,"station_id":"ce4bgpp2rcd13ifvqc3g","pricing_plan_id":"free"},{"bike_id":"7e84003f-7a56-4d49-87de-5e93a687029e","system_id":"levelo_inurba_marseille","lat":43.298433,"lon":5.362774,"is_reserved":false,"is_disabled":false,"rental_uris":{"android":"levelo://app?vid=7e84003f-7a56-4d49-87de-5e93a687029e","ios":"levelo://app?vid=7e84003f-7a56-4d49-87de-5e93a687029e"},"vehicle_type_id":"4","last_reported":1703588774,"current_range_meters":24000,"station_id":"ce4bgpp2rcd13ifvqc3g","pricing_plan_id":"free"},{"bike_id":"0b027942-0182-4d86-990d-704fbc027420","system_id":"levelo_inurba_marseille","lat":43.298433,"lon":5.362774,"is_reserved":false,"is_disabled":false,"rental_uris":{"android":"levelo://app?vid=0b027942-0182-4d86-990d-704fbc027420","ios":"levelo://app?vid=0b027942-0182-4d86-990d-704fbc027420"},"vehicle_type_id":"4","last_reported":1703588774,"current_range_meters":30800,"station_id":"ce4bgpp2rcd13ifvqc3g","pricing_plan_id":"free"},{"bike_id":"14e113e1-e172-4c57-ae02-7bf73a95d21b","system_id":"levelo_inurba_marseille","lat":43.298433,"lon":5.362774,"is_reserved":false,"is_disabled":false,"rental_uris":{"android":"levelo://app?vid=14e113e1-e172-4c57-ae02-7bf73a95d21b","ios":"levelo://app?vid=14e113e1-e172-4c57-ae02-7bf73a95d21b"},"vehicle_type_id":"4","last_reported":1703588774,"current_range_meters":31200,"station_id":"ce4bgpp2rcd13ifvqc3g","pricing_plan_id":"free"},{"bike_id":"eb9abf2c-1715-493d-a3e0-80a1d2745767","system_id":"levelo_inurba_marseille","lat":43.305364,"lon":5.384119,"is_reserved":false,"is_disabled":false,"rental_uris":{"android":"levelo://app?vid=eb9abf2c-1715-493d-a3e0-80a1d2745767","ios":"levelo://app?vid=eb9abf2c-1715-493d-a3e0-80a1d2745767"},"vehicle_type_id":"4","last_reported":1703588774,"current_range_meters":17200,"station_id":"ce4bgg92rcd13ifvqb30","pricing_plan_id":"free"},{"bike_id":"3540d652-83ee-4e54-82bb-c4527c65e1e6","system_id":"levelo_inurba_marseille","lat":43.299243,"lon":5.374807,"is_reserved":false,"is_disabled":false,"rental_uris":{"android":"levelo://app?vid=3540d652-83ee-4e54-82bb-c4527c65e1e6","ios":"levelo://app?vid=3540d652-83ee-4e54-82bb-c4527c65e1e6"},"vehicle_type_id":"4","last_reported":1703588774,"current_range_meters":22000,"station_id":"ce4bgjh2rcd13ifvqbg0","pricing_plan_id":"free"},{"bike_id":"ffa18e00-56e1-42d2-b5e3-5555b04a51b4","system_id":"levelo_inurba_marseille","lat":43.29843,"lon":5.36263,"is_reserved":false,"is_disabled":false,"rental_uris":{"android":"levelo://app?vid=ffa18e00-56e1-42d2-b5e3-5555b04a51b4","ios":"levelo://app?vid=ffa18e00-56e1-42d2-b5e3-5555b04a51b4"},"vehicle_type_id":"4","last_reported":1703588774,"current_range_meters":31200,"station_id":"ce4bgpp2rcd13ifvqc3g","pricing_plan_id":"free"},{"bike_id":"755e31db-0c7e-4e3e-9d1d-38bd7d5b4038","system_id":"levelo_inurba_marseille","lat":43.298433,"lon":5.362774,"is_reserved":false,"is_disabled":false,"rental_uris":{"android":"levelo://app?vid=755e31db-0c7e-4e3e-9d1d-38bd7d5b4038","ios":"levelo://app?vid=755e31db-0c7e-4e3e-9d1d-38bd7d5b4038"},"vehicle_type_id":"4","last_reported":1703588774,"current_range_meters":31200,"station_id":"ce4bgpp2rcd13ifvqc3g","pricing_plan_id":"free"},{"bike_id":"6c62ef82-e859-43d5-87dc-a88497758ab5","system_id":"levelo_inurba_marseille","lat":43.2984,"lon":5.36265,"is_reserved":false,"is_disabled":false,"rental_uris":{"android":"levelo://app?vid=6c62ef82-e859-43d5-87dc-a88497758ab5","ios":"levelo://app?vid=6c62ef82-e859-43d5-87dc-a88497758ab5"},"vehicle_type_id":"4","last_reported":1703588774,"current_range_meters":27200,"station_id":"ce4bgpp2rcd13ifvqc3g","pricing_plan_id":"free"},{"bike_id":"8b414ef6-e648-4831-9810-a223151100af","system_id":"levelo_inurba_marseille","lat":43.29836,"lon":5.36264,"is_reserved":false,"is_disabled":false,"rental_uris":{"android":"levelo://app?vid=8b414ef6-e648-4831-9810-a223151100af","ios":"levelo://app?vid=8b414ef6-e648-4831-9810-a223151100af"},"vehicle_type_id":"4","last_reported":1703588774,"current_range_meters":31200,"station_id":"ce4bgpp2rcd13ifvqc3g","pricing_plan_id":"free"},{"bike_id":"c17127a1-5834-401d-a635-16f5d0d3625b","system_id":"levelo_inurba_marseille","lat":43.29836,"lon":5.36259,"is_reserved":false,"is_disabled":false,"rental_uris":{"android":"levelo://app?vid=c17127a1-5834-401d-a635-16f5d0d3625b","ios":"levelo://app?vid=c17127a1-5834-401d-a635-16f5d0d3625b"},"vehicle_type_id":"4","last_reported":1703588774,"current_range_meters":26800,"station_id":"ce4bgpp2rcd13ifvqc3g","pricing_plan_id":"free"},{"bike_id":"6b851782-af4a-469a-90d1-befb1e03d233","system_id":"levelo_inurba_marseille","lat":43.29831,"lon":5.36262,"is_reserved":false,"is_disabled":false,"rental_uris":{"android":"levelo://app?vid=6b851782-af4a-469a-90d1-befb1e03d233","ios":"levelo://app?vid=6b851782-af4a-469a-90d1-befb1e03d233"},"vehicle_type_id":"4","last_reported":1703588774,"current_range_meters":28000,"station_id":"ce4bgpp2rcd13ifvqc3g","pricing_plan_id":"free"},{"bike_id":"c91716a1-48dc-4cb1-8a51-436355561633","system_id":"levelo_inurba_marseille","lat":43.311722,"lon":5.387247,"is_reserved":false,"is_disabled":false,"rental_uris":{"android":"levelo://app?vid=c91716a1-48dc-4cb1-8a51-436355561633","ios":"levelo://app?vid=c91716a1-48dc-4cb1-8a51-436355561633"},"vehicle_type_id":"4","last_reported":1703588774,"current_range_meters":19600,"station_id":"ce4bgv12rcd13ifvqcp0","pricing_plan_id":"free"},{"bike_id":"51714c4a-3132-4951-88ec-80e85fa125e8","system_id":"levelo_inurba_marseille","lat":43.328248,"lon":5.366846,"is_reserved":false,"is_disabled":false,"rental_uris":{"android":"levelo://app?vid=51714c4a-3132-4951-88ec-80e85fa125e8","ios":"levelo://app?vid=51714c4a-3132-4951-88ec-80e85fa125e8"},"vehicle_type_id":"4","last_reported":1703588774,"current_range_meters":6000,"station_id":"ce4bhs92rcd13ifvqi0g","pricing_plan_id":"free"},{"bike_id":"605ea525-b7e3-49e5-9226-8acaed7e2b8b","system_id":"levelo_inurba_marseille","lat":43.297163,"lon":5.365866,"is_reserved":false,"is_disabled":false,"rental_uris":{"android":"levelo://app?vid=605ea525-b7e3-49e5-9226-8acaed7e2b8b","ios":"levelo://app?vid=605ea525-b7e3-49e5-9226-8acaed7e2b8b"},"vehicle_type_id":"4","last_reported":1703588774,"current_range_meters":30800,"station_id":"ce4bgn12rcd13ifvqbt0","pricing_plan_id":"free"},{"bike_id":"a448ca86-2b35-41e1-89c4-32a99bab0563","system_id":"levelo_inurba_marseille","lat":43.328371,"lon":5.366909,"is_reserved":false,"is_disabled":false,"rental_uris":{"android":"levelo://app?vid=a448ca86-2b35-41e1-89c4-32a99bab0563","ios":"levelo://app?vid=a448ca86-2b35-41e1-89c4-32a99bab0563"},"vehicle_type_id":"4","last_reported":1703588774,"current_range_meters":8000,"station_id":"ce4bhs92rcd13ifvqi0g","pricing_plan_id":"free"},{"bike_id":"6f67326a-1664-406f-9978-902e013e2357","system_id":"levelo_inurba_marseille","lat":43.328371,"lon":5.366909,"is_reserved":false,"is_disabled":false,"rental_uris":{"android":"levelo://app?vid=6f67326a-1664-406f-9978-902e013e2357","ios":"levelo://app?vid=6f67326a-1664-406f-9978-902e013e2357"},"vehicle_type_id":"4","last_reported":1703588774,"current_range_meters":11600,"station_id":"ce4bhs92rcd13ifvqi0g","pricing_plan_id":"free"},{"bike_id":"904f83aa-e9ab-401d-84c1-9edfed82b884","system_id":"levelo_inurba_marseille","lat":43.328371,"lon":5.366909,"is_reserved":false,"is_disabled":false,"rental_uris":{"android":"levelo://app?vid=904f83aa-e9ab-401d-84c1-9edfed82b884","ios":"levelo://app?vid=904f83aa-e9ab-401d-84c1-9edfed82b884"},"vehicle_type_id":"4","last_reported":1703588774,"current_range_meters":19600,"station_id":"ce4bhs92rcd13ifvqi0g","pricing_plan_id":"free"},{"bike_id":"5c89eee7-6e83-42b4-bd81-efdcf68f6666","system_id":"levelo_inurba_marseille","lat":43.32829,"lon":5.36676,"is_reserved":false,"is_disabled":false,"rental_uris":{"android":"levelo://app?vid=5c89eee7-6e83-42b4-bd81-efdcf68f6666","ios":"levelo://app?vid=5c89eee7-6e83-42b4-bd81-efdcf68f6666"},"vehicle_type_id":"4","last_reported":1703588774,"current_range_meters":28800,"station_id":"ce4bhs92rcd13ifvqi0g","pricing_plan_id":"free"},{"bike_id":"de708f00-7118-4d7c-9021-d7dcbd798473","system_id":"levelo_inurba_marseille","lat":43.328371,"lon":5.366909,"is_reserved":false,"is_disabled":false,"rental_uris":{"android":"levelo://app?vid=de708f00-7118-4d7c-9021-d7dcbd798473","ios":"levelo://app?vid=de708f00-7118-4d7c-9021-d7dcbd798473"},"vehicle_type_id":"4","last_reported":1703588774,"current_range_meters":25600,"station_id":"ce4bhs92rcd13ifvqi0g","pricing_plan_id":"free"},{"bike_id":"32491447-8a99-4e49-98f4-28632e29d375","system_id":"levelo_inurba_marseille","lat":43.297163,"lon":5.365866,"is_reserved":false,"is_disabled":false,"rental_uris":{"android":"levelo://app?vid=32491447-8a99-4e49-98f4-28632e29d375","ios":"levelo://app?vid=32491447-8a99-4e49-98f4-28632e29d375"},"vehicle_type_id":"4","last_reported":1703588774,"current_range_meters":31200,"station_id":"ce4bgn12rcd13ifvqbt0","pricing_plan_id":"free"},{"bike_id":"0bb4153f-1504-485b-aa48-4570feec2be4","system_id":"levelo_inurba_marseille","lat":43.297163,"lon":5.365866,"is_reserved":false,"is_disabled":false,"rental_uris":{"android":"levelo://app?vid=0bb4153f-1504-485b-aa48-4570feec2be4","ios":"levelo://app?vid=0bb4153f-1504-485b-aa48-4570feec2be4"},"vehicle_type_id":"4","last_reported":1703588774,"current_range_meters":30800,"station_id":"ce4bgn12rcd13ifvqbt0","pricing_plan_id":"free"},{"bike_id":"de3017d7-a30f-40cd-9d98-96289046d72c","system_id":"levelo_inurba_marseille","lat":43.297163,"lon":5.365866,"is_reserved":false,"is_disabled":false,"rental_uris":{"android":"levelo://app?vid=de3017d7-a30f-40cd-9d98-96289046d72c","ios":"levelo://app?vid=de3017d7-a30f-40cd-9d98-96289046d72c"},"vehicle_type_id":"4","last_reported":1703588774,"current_range_meters":31200,"station_id":"ce4bgn12rcd13ifvqbt0","pricing_plan_id":"free"},{"bike_id":"6f1b7b06-1f77-4b88-bf73-5d81f3ee7e07","system_id":"levelo_inurba_marseille","lat":43.2968,"lon":5.37291,"is_reserved":false,"is_disabled":false,"rental_uris":{"android":"levelo://app?vid=6f1b7b06-1f77-4b88-bf73-5d81f3ee7e07","ios":"levelo://app?vid=6f1b7b06-1f77-4b88-bf73-5d81f3ee7e07"},"vehicle_type_id":"4","last_reported":1703588774,"current_range_meters":22800,"station_id":"ce4bgk12rcd13ifvqbj0","pricing_plan_id":"free"},{"bike_id":"921b424d-ad0d-4c7a-9d74-66e3a49bfa19","system_id":"levelo_inurba_marseille","lat":43.32934,"lon":5.36612,"is_reserved":false,"is_disabled":false,"rental_uris":{"android":"levelo://app?vid=921b424d-ad0d-4c7a-9d74-66e3a49bfa19","ios":"levelo://app?vid=921b424d-ad0d-4c7a-9d74-66e3a49bfa19"},"vehicle_type_id":"4","last_reported":1703588774,"current_range_meters":21600,"station_id":"","pricing_plan_id":"free"},{"bike_id":"2694beb7-c997-4c13-b5c6-1442f2d4623e","system_id":"levelo_inurba_marseille","lat":43.296131,"lon":5.370791,"is_reserved":false,"is_disabled":false,"rental_uris":{"android":"levelo://app?vid=2694beb7-c997-4c13-b5c6-1442f2d4623e","ios":"levelo://app?vid=2694beb7-c997-4c13-b5c6-1442f2d4623e"},"vehicle_type_id":"4","last_reported":1703588774,"current_range_meters":1200,"station_id":"ce4bgnh2rcd13ifvqc0g","pricing_plan_id":"free"},{"bike_id":"6e55184b-78e3-4a87-958d-848d93eaa1cc","system_id":"levelo_inurba_marseille","lat":43.296129,"lon":5.370777,"is_reserved":false,"is_disabled":false,"rental_uris":{"android":"levelo://app?vid=6e55184b-78e3-4a87-958d-848d93eaa1cc","ios":"levelo://app?vid=6e55184b-78e3-4a87-958d-848d93eaa1cc"},"vehicle_type_id":"4","last_reported":1703588774,"current_range_meters":25600,"station_id":"ce4bgnh2rcd13ifvqc0g","pricing_plan_id":"free"},{"bike_id":"168ff66e-d3f0-4405-8a42-4e492b51d94f","system_id":"levelo_inurba_marseille","lat":43.295847,"lon":5.367583,"is_reserved":false,"is_disabled":false,"rental_uris":{"android":"levelo://app?vid=168ff66e-d3f0-4405-8a42-4e492b51d94f","ios":"levelo://app?vid=168ff66e-d3f0-4405-8a42-4e492b51d94f"},"vehicle_type_id":"4","last_reported":1703588774,"current_range_meters":9200,"station_id":"ce4bgph2rcd13ifvqc2g","pricing_plan_id":"free"},{"bike_id":"f6d4fbbb-4c83-43c9-b09a-0279dc597afb","system_id":"levelo_inurba_marseille","lat":43.296129,"lon":5.370777,"is_reserved":false,"is_disabled":false,"rental_uris":{"android":"levelo://app?vid=f6d4fbbb-4c83-43c9-b09a-0279dc597afb","ios":"levelo://app?vid=f6d4fbbb-4c83-43c9-b09a-0279dc597afb"},"vehicle_type_id":"4","last_reported":1703588774,"current_range_meters":15600,"station_id":"ce4bgnh2rcd13ifvqc0g","pricing_plan_id":"free"},{"bike_id":"06e957bd-df49-4d32-abc4-2e72cf631ab7","system_id":"levelo_inurba_marseille","lat":43.29573,"lon":5.367355,"is_reserved":false,"is_disabled":false,"rental_uris":{"android":"levelo://app?vid=06e957bd-df49-4d32-abc4-2e72cf631ab7","ios":"levelo://app?vid=06e957bd-df49-4d32-abc4-2e72cf631ab7"},"vehicle_type_id":"4","last_reported":1703588774,"current_range_meters":28000,"station_id":"ce4bgph2rcd13ifvqc2g","pricing_plan_id":"free"},{"bike_id":"5abf45c0-3a97-4bb4-9789-b5338b09fb91","system_id":"levelo_inurba_marseille","lat":43.29573,"lon":5.367355,"is_reserved":false,"is_disabled":false,"rental_uris":{"android":"levelo://app?vid=5abf45c0-3a97-4bb4-9789-b5338b09fb91","ios":"levelo://app?vid=5abf45c0-3a97-4bb4-9789-b5338b09fb91"},"vehicle_type_id":"4","last_reported":1703588774,"current_range_meters":27200,"station_id":"ce4bgph2rcd13ifvqc2g","pricing_plan_id":"free"},{"bike_id":"8beb582a-00c8-4e62-966b-a4bcdf0aa12c","system_id":"levelo_inurba_marseille","lat":43.296921,"lon":5.376579,"is_reserved":false,"is_disabled":false,"rental_uris":{"android":"levelo://app?vid=8beb582a-00c8-4e62-966b-a4bcdf0aa12c","ios":"levelo://app?vid=8beb582a-00c8-4e62-966b-a4bcdf0aa12c"},"vehicle_type_id":"4","last_reported":1703588774,"current_range_meters":12800,"station_id":"ce4bgkh2rcd13ifvqbl0","pricing_plan_id":"free"},{"bike_id":"82d2b1bc-3076-46d3-870d-67cdfd465ecc","system_id":"levelo_inurba_marseille","lat":43.296921,"lon":5.376579,"is_reserved":false,"is_disabled":false,"rental_uris":{"android":"levelo://app?vid=82d2b1bc-3076-46d3-870d-67cdfd465ecc","ios":"levelo://app?vid=82d2b1bc-3076-46d3-870d-67cdfd465ecc"},"vehicle_type_id":"4","last_reported":1703588774,"current_range_meters":23200,"station_id":"ce4bgkh2rcd13ifvqbl0","pricing_plan_id":"free"},{"bike_id":"786c4fdd-3fd2-4758-8e34-6d54b3336e81","system_id":"levelo_inurba_marseille","lat":43.309589,"lon":5.390258,"is_reserved":false,"is_disabled":false,"rental_uris":{"android":"levelo://app?vid=786c4fdd-3fd2-4758-8e34-6d54b3336e81","ios":"levelo://app?vid=786c4fdd-3fd2-4758-8e34-6d54b3336e81"},"vehicle_type_id":"4","last_reported":1703588774,"current_range_meters":23200,"station_id":"ce4bgup2rcd13ifvqco0","pricing_plan_id":"free"},{"bike_id":"006cf0ff-e347-4e8e-8318-e4f44bd3b2c0","system_id":"levelo_inurba_marseille","lat":43.295748,"lon":5.37522,"is_reserved":false,"is_disabled":false,"rental_uris":{"android":"levelo://app?vid=006cf0ff-e347-4e8e-8318-e4f44bd3b2c0","ios":"levelo://app?vid=006cf0ff-e347-4e8e-8318-e4f44bd3b2c0"},"vehicle_type_id":"4","last_reported":1703588774,"current_range_meters":22000,"station_id":"ce4bgh92rcd13ifvqb50","pricing_plan_id":"free"},{"bike_id":"fd6f95a1-a509-40f2-94dc-914126922d5a","system_id":"levelo_inurba_marseille","lat":43.295748,"lon":5.37522,"is_reserved":false,"is_disabled":false,"rental_uris":{"android":"levelo://app?vid=fd6f95a1-a509-40f2-94dc-914126922d5a","ios":"levelo://app?vid=fd6f95a1-a509-40f2-94dc-914126922d5a"},"vehicle_type_id":"4","last_reported":1703588774,"current_range_meters":18000,"station_id":"ce4bgh92rcd13ifvqb50","pricing_plan_id":"free"},{"bike_id":"528d74df-97a2-4a51-bce0-9701bee8d44b","system_id":"levelo_inurba_marseille","lat":43.295279,"lon":5.375048,"is_reserved":false,"is_disabled":false,"rental_uris":{"android":"levelo://app?vid=528d74df-97a2-4a51-bce0-9701bee8d44b","ios":"levelo://app?vid=528d74df-97a2-4a51-bce0-9701bee8d44b"},"vehicle_type_id":"4","last_reported":1703588774,"current_range_meters":27200,"station_id":"ce4bgkp2rcd13ifvqbmg","pricing_plan_id":"free"},{"bike_id":"d0da24b2-17fb-4cff-bff8-b3ec31946b78","system_id":"levelo_inurba_marseille","lat":43.299717,"lon":5.384845,"is_reserved":false,"is_disabled":false,"rental_uris":{"android":"levelo://app?vid=d0da24b2-17fb-4cff-bff8-b3ec31946b78","ios":"levelo://app?vid=d0da24b2-17fb-4cff-bff8-b3ec31946b78"},"vehicle_type_id":"4","last_reported":1703588774,"current_range_meters":21200,"station_id":"ce4bgj92rcd13ifvqbd0","pricing_plan_id":"free"},{"bike_id":"673066c2-4ffa-4b28-878a-0b8a240090f9","system_id":"levelo_inurba_marseille","lat":43.299724,"lon":5.384848,"is_reserved":false,"is_disabled":false,"rental_uris":{"android":"levelo://app?vid=673066c2-4ffa-4b28-878a-0b8a240090f9","ios":"levelo://app?vid=673066c2-4ffa-4b28-878a-0b8a240090f9"},"vehicle_type_id":"4","last_reported":1703588774,"current_range_meters":22800,"station_id":"ce4bgj92rcd13ifvqbd0","pricing_plan_id":"free"},{"bike_id":"e0f74817-3071-444d-9d77-cd26f5d66ea5","system_id":"levelo_inurba_marseille","lat":43.293259,"lon":5.371586,"is_reserved":false,"is_disabled":false,"rental_uris":{"android":"levelo://app?vid=e0f74817-3071-444d-9d77-cd26f5d66ea5","ios":"levelo://app?vid=e0f74817-3071-444d-9d77-cd26f5d66ea5"},"vehicle_type_id":"4","last_reported":1703588774,"current_range_meters":30000,"station_id":"ce4bgh92rcd13ifvqb40","pricing_plan_id":"free"},{"bike_id":"ec5e7752-ff06-45f0-ac1e-973b3f7134b9","system_id":"levelo_inurba_marseille","lat":43.292749,"lon":5.368402,"is_reserved":false,"is_disabled":false,"rental_uris":{"android":"levelo://app?vid=ec5e7752-ff06-45f0-ac1e-973b3f7134b9","ios":"levelo://app?vid=ec5e7752-ff06-45f0-ac1e-973b3f7134b9"},"vehicle_type_id":"4","last_reported":1703588774,"current_range_meters":22800,"station_id":"ce4bhbp2rcd13ifvqesg","pricing_plan_id":"free"},{"bike_id":"2293a425-b9a3-40b2-bb13-63f4fa997a78","system_id":"levelo_inurba_marseille","lat":43.292749,"lon":5.368402,"is_reserved":false,"is_disabled":false,"rental_uris":{"android":"levelo://app?vid=2293a425-b9a3-40b2-bb13-63f4fa997a78","ios":"levelo://app?vid=2293a425-b9a3-40b2-bb13-63f4fa997a78"},"vehicle_type_id":"4","last_reported":1703588774,"current_range_meters":27200,"station_id":"ce4bhbp2rcd13ifvqesg","pricing_plan_id":"free"},{"bike_id":"66090169-56d0-4327-ac4a-5a0739ff15e9","system_id":"levelo_inurba_marseille","lat":43.29267,"lon":5.36843,"is_reserved":false,"is_disabled":false,"rental_uris":{"android":"levelo://app?vid=66090169-56d0-4327-ac4a-5a0739ff15e9","ios":"levelo://app?vid=66090169-56d0-4327-ac4a-5a0739ff15e9"},"vehicle_type_id":"4","last_reported":1703588774,"current_range_meters":11600,"station_id":"ce4bhbp2rcd13ifvqesg","pricing_plan_id":"free"},{"bike_id":"51a33f7d-52cd-4cfb-ada2-c38446a131f1","system_id":"levelo_inurba_marseille","lat":43.293009,"lon":5.374584,"is_reserved":false,"is_disabled":false,"rental_uris":{"android":"levelo://app?vid=51a33f7d-52cd-4cfb-ada2-c38446a131f1","ios":"levelo://app?vid=51a33f7d-52cd-4cfb-ada2-c38446a131f1"},"vehicle_type_id":"4","last_reported":1703588774,"current_range_meters":26800,"station_id":"ce4bgi12rcd13ifvqb70","pricing_plan_id":"free"},{"bike_id":"3d7d1176-b94c-4d2a-a758-235d88ebbaf8","system_id":"levelo_inurba_marseille","lat":43.293009,"lon":5.374584,"is_reserved":false,"is_disabled":false,"rental_uris":{"android":"levelo://app?vid=3d7d1176-b94c-4d2a-a758-235d88ebbaf8","ios":"levelo://app?vid=3d7d1176-b94c-4d2a-a758-235d88ebbaf8"},"vehicle_type_id":"4","last_reported":1703588774,"current_range_meters":28400,"station_id":"ce4bgi12rcd13ifvqb70","pricing_plan_id":"free"},{"bike_id":"92e172b5-fe10-4e7f-a29a-affb022b87c3","system_id":"levelo_inurba_marseille","lat":43.305994,"lon":5.393687,"is_reserved":false,"is_disabled":false,"rental_uris":{"android":"levelo://app?vid=92e172b5-fe10-4e7f-a29a-affb022b87c3","ios":"levelo://app?vid=92e172b5-fe10-4e7f-a29a-affb022b87c3"},"vehicle_type_id":"4","last_reported":1703588774,"current_range_meters":24000,"station_id":"ce4bh0p2rcd13ifvqd80","pricing_plan_id":"free"},{"bike_id":"53efd91f-5d6d-4bb1-8462-773a93c17fb6","system_id":"levelo_inurba_marseille","lat":43.303002,"lon":5.392142,"is_reserved":false,"is_disabled":false,"rental_uris":{"android":"levelo://app?vid=53efd91f-5d6d-4bb1-8462-773a93c17fb6","ios":"levelo://app?vid=53efd91f-5d6d-4bb1-8462-773a93c17fb6"},"vehicle_type_id":"4","last_reported":1703588774,"current_range_meters":9600,"station_id":"ce4bgkh2rcd13ifvqbk0","pricing_plan_id":"free"},{"bike_id":"d0b56b6f-dfda-4761-ba8e-e263776992b4","system_id":"levelo_inurba_marseille","lat":43.2936,"lon":5.37835,"is_reserved":false,"is_disabled":false,"rental_uris":{"android":"levelo://app?vid=d0b56b6f-dfda-4761-ba8e-e263776992b4","ios":"levelo://app?vid=d0b56b6f-dfda-4761-ba8e-e263776992b4"},"vehicle_type_id":"4","last_reported":1703588774,"current_range_meters":12000,"station_id":"ce4bgjh2rcd13ifvqbf0","pricing_plan_id":"free"},{"bike_id":"4ffcec7f-b9af-40bb-bd27-03acee74042a","system_id":"levelo_inurba_marseille","lat":43.292311,"lon":5.360731,"is_reserved":false,"is_disabled":false,"rental_uris":{"android":"levelo://app?vid=4ffcec7f-b9af-40bb-bd27-03acee74042a","ios":"levelo://app?vid=4ffcec7f-b9af-40bb-bd27-03acee74042a"},"vehicle_type_id":"4","last_reported":1703588774,"current_range_meters":23200,"station_id":"ce4bhbh2rcd13ifvqeqg","pricing_plan_id":"free"},{"bike_id":"5c94be44-7b0e-44be-997a-524308fe1385","system_id":"levelo_inurba_marseille","lat":43.300852,"lon":5.390859,"is_reserved":false,"is_disabled":false,"rental_uris":{"android":"levelo://app?vid=5c94be44-7b0e-44be-997a-524308fe1385","ios":"levelo://app?vid=5c94be44-7b0e-44be-997a-524308fe1385"},"vehicle_type_id":"4","last_reported":1703588774,"current_range_meters":21600,"station_id":"ce4bh192rcd13ifvqdb0","pricing_plan_id":"free"},{"bike_id":"25031812-165b-449e-b3ee-efaecb66cc68","system_id":"levelo_inurba_marseille","lat":43.291671,"lon":5.371575,"is_reserved":false,"is_disabled":false,"rental_uris":{"android":"levelo://app?vid=25031812-165b-449e-b3ee-efaecb66cc68","ios":"levelo://app?vid=25031812-165b-449e-b3ee-efaecb66cc68"},"vehicle_type_id":"4","last_reported":1703588774,"current_range_meters":17200,"station_id":"ce4bha92rcd13ifvqeh0","pricing_plan_id":"free"},{"bike_id":"99b74e2b-0102-4b35-aacc-086f13a32b3a","system_id":"levelo_inurba_marseille","lat":43.291675,"lon":5.371583,"is_reserved":false,"is_disabled":false,"rental_uris":{"android":"levelo://app?vid=99b74e2b-0102-4b35-aacc-086f13a32b3a","ios":"levelo://app?vid=99b74e2b-0102-4b35-aacc-086f13a32b3a"},"vehicle_type_id":"4","last_reported":1703588774,"current_range_meters":13600,"station_id":"ce4bha92rcd13ifvqeh0","pricing_plan_id":"free"},{"bike_id":"4fd2feb0-611b-4071-a8a2-6eed4f535cdb","system_id":"levelo_inurba_marseille","lat":43.291994,"lon":5.357886,"is_reserved":false,"is_disabled":false,"rental_uris":{"android":"levelo://app?vid=4fd2feb0-611b-4071-a8a2-6eed4f535cdb","ios":"levelo://app?vid=4fd2feb0-611b-4071-a8a2-6eed4f535cdb"},"vehicle_type_id":"4","last_reported":1703588774,"current_range_meters":27600,"station_id":"ce4bhb12rcd13ifvqel0","pricing_plan_id":"free"},{"bike_id":"900a7d5a-884a-44c7-948a-75135b7c6ab9","system_id":"levelo_inurba_marseille","lat":43.291994,"lon":5.357886,"is_reserved":false,"is_disabled":false,"rental_uris":{"android":"levelo://app?vid=900a7d5a-884a-44c7-948a-75135b7c6ab9","ios":"levelo://app?vid=900a7d5a-884a-44c7-948a-75135b7c6ab9"},"vehicle_type_id":"4","last_reported":1703588774,"current_range_meters":21200,"station_id":"ce4bhb12rcd13ifvqel0","pricing_plan_id":"free"},{"bike_id":"eaa19bc9-0c2f-43a1-9d13-a08e335ec1e3","system_id":"levelo_inurba_marseille","lat":43.309047,"lon":5.396551,"is_reserved":false,"is_disabled":false,"rental_uris":{"android":"levelo://app?vid=eaa19bc9-0c2f-43a1-9d13-a08e335ec1e3","ios":"levelo://app?vid=eaa19bc9-0c2f-43a1-9d13-a08e335ec1e3"},"vehicle_type_id":"4","last_reported":1703588774,"current_range_meters":21200,"station_id":"ce4bh012rcd13ifvqcv0","pricing_plan_id":"free"},{"bike_id":"4660ae1c-719d-4309-b8d6-261235db8fc5","system_id":"levelo_inurba_marseille","lat":43.313291,"lon":5.396838,"is_reserved":false,"is_disabled":false,"rental_uris":{"android":"levelo://app?vid=4660ae1c-719d-4309-b8d6-261235db8fc5","ios":"levelo://app?vid=4660ae1c-719d-4309-b8d6-261235db8fc5"},"vehicle_type_id":"4","last_reported":1703588774,"current_range_meters":25200,"station_id":"ce4bgvp2rcd13ifvqcu0","pricing_plan_id":"free"},{"bike_id":"1a947842-6a32-4891-8237-099e31200adf","system_id":"levelo_inurba_marseille","lat":43.29529,"lon":5.385581,"is_reserved":false,"is_disabled":false,"rental_uris":{"android":"levelo://app?vid=1a947842-6a32-4891-8237-099e31200adf","ios":"levelo://app?vid=1a947842-6a32-4891-8237-099e31200adf"},"vehicle_type_id":"4","last_reported":1703588774,"current_range_meters":21200,"station_id":"ce4bgih2rcd13ifvqba0","pricing_plan_id":"free"},{"bike_id":"91053bf1-6dda-452a-89aa-ca64ea3ebe79","system_id":"levelo_inurba_marseille","lat":43.302008,"lon":5.394694,"is_reserved":false,"is_disabled":false,"rental_uris":{"android":"levelo://app?vid=91053bf1-6dda-452a-89aa-ca64ea3ebe79","ios":"levelo://app?vid=91053bf1-6dda-452a-89aa-ca64ea3ebe79"},"vehicle_type_id":"4","last_reported":1703588774,"current_range_meters":11600,"station_id":"ce4bh0p2rcd13ifvqd70","pricing_plan_id":"free"},{"bike_id":"cb5b3c02-0c8d-4fe8-8138-58380e391447","system_id":"levelo_inurba_marseille","lat":43.290327,"lon":5.375711,"is_reserved":false,"is_disabled":false,"rental_uris":{"android":"levelo://app?vid=cb5b3c02-0c8d-4fe8-8138-58380e391447","ios":"levelo://app?vid=cb5b3c02-0c8d-4fe8-8138-58380e391447"},"vehicle_type_id":"4","last_reported":1703588774,"current_range_meters":16800,"station_id":"ce4bh692rcd13ifvqe90","pricing_plan_id":"free"},{"bike_id":"8f66f97b-b359-45a7-8fe4-b7d2b957e1a5","system_id":"levelo_inurba_marseille","lat":43.290327,"lon":5.375711,"is_reserved":false,"is_disabled":false,"rental_uris":{"android":"levelo://app?vid=8f66f97b-b359-45a7-8fe4-b7d2b957e1a5","ios":"levelo://app?vid=8f66f97b-b359-45a7-8fe4-b7d2b957e1a5"},"vehicle_type_id":"4","last_reported":1703588774,"current_range_meters":31200,"station_id":"ce4bh692rcd13ifvqe90","pricing_plan_id":"free"},{"bike_id":"f3348832-969f-400d-8699-2944c8857ed9","system_id":"levelo_inurba_marseille","lat":43.289184,"lon":5.366408,"is_reserved":false,"is_disabled":false,"rental_uris":{"android":"levelo://app?vid=f3348832-969f-400d-8699-2944c8857ed9","ios":"levelo://app?vid=f3348832-969f-400d-8699-2944c8857ed9"},"vehicle_type_id":"4","last_reported":1703588774,"current_range_meters":26400,"station_id":"ce4bhap2rcd13ifvqek0","pricing_plan_id":"free"},{"bike_id":"f64b2816-740f-4ed3-9c66-5f8302a4b6ad","system_id":"levelo_inurba_marseille","lat":43.289184,"lon":5.366408,"is_reserved":false,"is_disabled":false,"rental_uris":{"android":"levelo://app?vid=f64b2816-740f-4ed3-9c66-5f8302a4b6ad","ios":"levelo://app?vid=f64b2816-740f-4ed3-9c66-5f8302a4b6ad"},"vehicle_type_id":"4","last_reported":1703588774,"current_range_meters":15600,"station_id":"ce4bhap2rcd13ifvqek0","pricing_plan_id":"free"},{"bike_id":"963711f0-27ea-4d3f-b209-0975e976afc6","system_id":"levelo_inurba_marseille","lat":43.292644,"lon":5.384257,"is_reserved":false,"is_disabled":false,"rental_uris":{"android":"levelo://app?vid=963711f0-27ea-4d3f-b209-0975e976afc6","ios":"levelo://app?vid=963711f0-27ea-4d3f-b209-0975e976afc6"},"vehicle_type_id":"4","last_reported":1703588774,"current_range_meters":16800,"station_id":"ce4bh692rcd13ifvqea0","pricing_plan_id":"free"},{"bike_id":"c973aac4-b3b6-43a0-8bdf-a75c1dcc5699","system_id":"levelo_inurba_marseille","lat":43.304296,"lon":5.397513,"is_reserved":false,"is_disabled":false,"rental_uris":{"android":"levelo://app?vid=c973aac4-b3b6-43a0-8bdf-a75c1dcc5699","ios":"levelo://app?vid=c973aac4-b3b6-43a0-8bdf-a75c1dcc5699"},"vehicle_type_id":"4","last_reported":1703588774,"current_range_meters":29600,"station_id":"ce4bh092rcd13ifvqd20","pricing_plan_id":"free"},{"bike_id":"59b7e654-4fb5-45e7-ae58-e9028e820afc","system_id":"levelo_inurba_marseille","lat":43.290103,"lon":5.356114,"is_reserved":false,"is_disabled":false,"rental_uris":{"android":"levelo://app?vid=59b7e654-4fb5-45e7-ae58-e9028e820afc","ios":"levelo://app?vid=59b7e654-4fb5-45e7-ae58-e9028e820afc"},"vehicle_type_id":"4","last_reported":1703588774,"current_range_meters":30000,"station_id":"ce4bhb92rcd13ifvqen0","pricing_plan_id":"free"},{"bike_id":"b7790625-0a71-4502-8bf1-0161fd3d6986","system_id":"levelo_inurba_marseille","lat":43.290104,"lon":5.356111,"is_reserved":false,"is_disabled":false,"rental_uris":{"android":"levelo://app?vid=b7790625-0a71-4502-8bf1-0161fd3d6986","ios":"levelo://app?vid=b7790625-0a71-4502-8bf1-0161fd3d6986"},"vehicle_type_id":"4","last_reported":1703588774,"current_range_meters":26800,"station_id":"ce4bhb92rcd13ifvqen0","pricing_plan_id":"free"},{"bike_id":"58de29a8-bdb6-4770-9271-833f074dc5e6","system_id":"levelo_inurba_marseille","lat":43.289743,"lon":5.378304,"is_reserved":false,"is_disabled":false,"rental_uris":{"android":"levelo://app?vid=58de29a8-bdb6-4770-9271-833f074dc5e6","ios":"levelo://app?vid=58de29a8-bdb6-4770-9271-833f074dc5e6"},"vehicle_type_id":"4","last_reported":1703588774,"current_range_meters":25200,"station_id":"ce4bh9p2rcd13ifvqed0","pricing_plan_id":"free"},{"bike_id":"7a543b19-90cd-4a87-b80d-37f423d89307","system_id":"levelo_inurba_marseille","lat":43.330442,"lon":5.389148,"is_reserved":false,"is_disabled":false,"rental_uris":{"android":"levelo://app?vid=7a543b19-90cd-4a87-b80d-37f423d89307","ios":"levelo://app?vid=7a543b19-90cd-4a87-b80d-37f423d89307"},"vehicle_type_id":"4","last_reported":1703588774,"current_range_meters":9200,"station_id":"ce4bhr92rcd13ifvqhrg","pricing_plan_id":"free"},{"bike_id":"7244b12c-a4ed-4fcc-a53c-0222ae84e7e2","system_id":"levelo_inurba_marseille","lat":43.331171,"lon":5.38974,"is_reserved":false,"is_disabled":false,"rental_uris":{"android":"levelo://app?vid=7244b12c-a4ed-4fcc-a53c-0222ae84e7e2","ios":"levelo://app?vid=7244b12c-a4ed-4fcc-a53c-0222ae84e7e2"},"vehicle_type_id":"4","last_reported":1703588774,"current_range_meters":28000,"station_id":"","pricing_plan_id":"free"},{"bike_id":"1fa01ef1-495d-4894-a283-d84a1ae05c4e","system_id":"levelo_inurba_marseille","lat":43.2901,"lon":5.381269,"is_reserved":false,"is_disabled":false,"rental_uris":{"android":"levelo://app?vid=1fa01ef1-495d-4894-a283-d84a1ae05c4e","ios":"levelo://app?vid=1fa01ef1-495d-4894-a283-d84a1ae05c4e"},"vehicle_type_id":"4","last_reported":1703588774,"current_range_meters":27600,"station_id":"ce4bh4p2rcd13ifvqe1g","pricing_plan_id":"free"},{"bike_id":"57cede06-c5d5-44cd-a128-6eee12680341","system_id":"levelo_inurba_marseille","lat":43.28856,"lon":5.358371,"is_reserved":false,"is_disabled":false,"rental_uris":{"android":"levelo://app?vid=57cede06-c5d5-44cd-a128-6eee12680341","ios":"levelo://app?vid=57cede06-c5d5-44cd-a128-6eee12680341"},"vehicle_type_id":"4","last_reported":1703588774,"current_range_meters":19200,"station_id":"ce4bhb12rcd13ifvqem0","pricing_plan_id":"free"},{"bike_id":"d179eb05-7da3-48de-ad3d-9a127c9ecd2d","system_id":"levelo_inurba_marseille","lat":43.33746,"lon":5.37445,"is_reserved":false,"is_disabled":false,"rental_uris":{"android":"levelo://app?vid=d179eb05-7da3-48de-ad3d-9a127c9ecd2d","ios":"levelo://app?vid=d179eb05-7da3-48de-ad3d-9a127c9ecd2d"},"vehicle_type_id":"4","last_reported":1703588774,"current_range_meters":30800,"station_id":"","pricing_plan_id":"free"},{"bike_id":"05f60699-d306-4dc0-8713-a65bd483b7ae","system_id":"levelo_inurba_marseille","lat":43.30642,"lon":5.401031,"is_reserved":false,"is_disabled":false,"rental_uris":{"android":"levelo://app?vid=05f60699-d306-4dc0-8713-a65bd483b7ae","ios":"levelo://app?vid=05f60699-d306-4dc0-8713-a65bd483b7ae"},"vehicle_type_id":"4","last_reported":1703588774,"current_range_meters":30000,"station_id":"ce4bh112rcd13ifvqda0","pricing_plan_id":"free"},{"bike_id":"cf3bcdef-9112-499b-8593-7046211fcf2c","system_id":"levelo_inurba_marseille","lat":43.30642,"lon":5.401031,"is_reserved":false,"is_disabled":false,"rental_uris":{"android":"levelo://app?vid=cf3bcdef-9112-499b-8593-7046211fcf2c","ios":"levelo://app?vid=cf3bcdef-9112-499b-8593-7046211fcf2c"},"vehicle_type_id":"4","last_reported":1703588774,"current_range_meters":22000,"station_id":"ce4bh112rcd13ifvqda0","pricing_plan_id":"free"},{"bike_id":"f0880f64-e3ff-4d68-8c90-468a6f74cecf","system_id":"levelo_inurba_marseille","lat":43.306412,"lon":5.401035,"is_reserved":false,"is_disabled":false,"rental_uris":{"android":"levelo://app?vid=f0880f64-e3ff-4d68-8c90-468a6f74cecf","ios":"levelo://app?vid=f0880f64-e3ff-4d68-8c90-468a6f74cecf"},"vehicle_type_id":"4","last_reported":1703588774,"current_range_meters":10000,"station_id":"ce4bh112rcd13ifvqda0","pricing_plan_id":"free"},{"bike_id":"85590026-3268-484a-8aa8-1569355ddd91","system_id":"levelo_inurba_marseille","lat":43.337569,"lon":5.37461,"is_reserved":false,"is_disabled":false,"rental_uris":{"android":"levelo://app?vid=85590026-3268-484a-8aa8-1569355ddd91","ios":"levelo://app?vid=85590026-3268-484a-8aa8-1569355ddd91"},"vehicle_type_id":"4","last_reported":1703588774,"current_range_meters":29200,"station_id":"","pricing_plan_id":"free"},{"bike_id":"0ad8af51-b27a-4f5b-ab07-4992d640e5a3","system_id":"levelo_inurba_marseille","lat":43.30642,"lon":5.401031,"is_reserved":false,"is_disabled":false,"rental_uris":{"android":"levelo://app?vid=0ad8af51-b27a-4f5b-ab07-4992d640e5a3","ios":"levelo://app?vid=0ad8af51-b27a-4f5b-ab07-4992d640e5a3"},"vehicle_type_id":"4","last_reported":1703588774,"current_range_meters":22400,"station_id":"ce4bh112rcd13ifvqda0","pricing_plan_id":"free"},{"bike_id":"bb673a80-2a57-4898-938b-17656cebb96f","system_id":"levelo_inurba_marseille","lat":43.30645,"lon":5.40097,"is_reserved":false,"is_disabled":false,"rental_uris":{"android":"levelo://app?vid=bb673a80-2a57-4898-938b-17656cebb96f","ios":"levelo://app?vid=bb673a80-2a57-4898-938b-17656cebb96f"},"vehicle_type_id":"4","last_reported":1703588774,"current_range_meters":22400,"station_id":"ce4bh112rcd13ifvqda0","pricing_plan_id":"free"},{"bike_id":"5f96d868-43a2-464e-a721-82d7fe7661af","system_id":"levelo_inurba_marseille","lat":43.301117,"lon":5.398795,"is_reserved":false,"is_disabled":false,"rental_uris":{"android":"levelo://app?vid=5f96d868-43a2-464e-a721-82d7fe7661af","ios":"levelo://app?vid=5f96d868-43a2-464e-a721-82d7fe7661af"},"vehicle_type_id":"4","last_reported":1703588774,"current_range_meters":18800,"station_id":"ce4bh0h2rcd13ifvqd40","pricing_plan_id":"free"},{"bike_id":"ee438aba-24b9-4839-9635-702b9af38974","system_id":"levelo_inurba_marseille","lat":43.286591,"lon":5.363346,"is_reserved":false,"is_disabled":false,"rental_uris":{"android":"levelo://app?vid=ee438aba-24b9-4839-9635-702b9af38974","ios":"levelo://app?vid=ee438aba-24b9-4839-9635-702b9af38974"},"vehicle_type_id":"4","last_reported":1703588774,"current_range_meters":29200,"station_id":"ce4bhah2rcd13ifvqej0","pricing_plan_id":"free"},{"bike_id":"9d25bbe6-6121-406d-8803-a340738149c8","system_id":"levelo_inurba_marseille","lat":43.289307,"lon":5.38406,"is_reserved":false,"is_disabled":false,"rental_uris":{"android":"levelo://app?vid=9d25bbe6-6121-406d-8803-a340738149c8","ios":"levelo://app?vid=9d25bbe6-6121-406d-8803-a340738149c8"},"vehicle_type_id":"4","last_reported":1703588774,"current_range_meters":31600,"station_id":"ce4bh612rcd13ifvqe6g","pricing_plan_id":"free"},{"bike_id":"69043c95-7f11-44e3-9d9e-48493c9210d8","system_id":"levelo_inurba_marseille","lat":43.289307,"lon":5.38406,"is_reserved":false,"is_disabled":false,"rental_uris":{"android":"levelo://app?vid=69043c95-7f11-44e3-9d9e-48493c9210d8","ios":"levelo://app?vid=69043c95-7f11-44e3-9d9e-48493c9210d8"},"vehicle_type_id":"4","last_reported":1703588774,"current_range_meters":31600,"station_id":"ce4bh612rcd13ifvqe6g","pricing_plan_id":"free"},{"bike_id":"dd4e62a3-de3f-40f1-ac41-1cbcff04517d","system_id":"levelo_inurba_marseille","lat":43.302759,"lon":5.400793,"is_reserved":false,"is_disabled":false,"rental_uris":{"android":"levelo://app?vid=dd4e62a3-de3f-40f1-ac41-1cbcff04517d","ios":"levelo://app?vid=dd4e62a3-de3f-40f1-ac41-1cbcff04517d"},"vehicle_type_id":"4","last_reported":1703588774,"current_range_meters":24000,"station_id":"ce4bgvh2rcd13ifvqcs0","pricing_plan_id":"free"},{"bike_id":"18a5f46a-0554-41f2-a4c2-dba24b08d849","system_id":"levelo_inurba_marseille","lat":43.289307,"lon":5.38406,"is_reserved":false,"is_disabled":false,"rental_uris":{"android":"levelo://app?vid=18a5f46a-0554-41f2-a4c2-dba24b08d849","ios":"levelo://app?vid=18a5f46a-0554-41f2-a4c2-dba24b08d849"},"vehicle_type_id":"4","last_reported":1703588774,"current_range_meters":30400,"station_id":"ce4bh612rcd13ifvqe6g","pricing_plan_id":"free"},{"bike_id":"85c1a856-61d0-4e54-8fca-53166ea63a5c","system_id":"levelo_inurba_marseille","lat":43.302759,"lon":5.400793,"is_reserved":false,"is_disabled":false,"rental_uris":{"android":"levelo://app?vid=85c1a856-61d0-4e54-8fca-53166ea63a5c","ios":"levelo://app?vid=85c1a856-61d0-4e54-8fca-53166ea63a5c"},"vehicle_type_id":"4","last_reported":1703588774,"current_range_meters":29600,"station_id":"ce4bgvh2rcd13ifvqcs0","pricing_plan_id":"free"},{"bike_id":"c4491d0c-74af-4d88-864d-4c53251d5027","system_id":"levelo_inurba_marseille","lat":43.286039,"lon":5.370679,"is_reserved":false,"is_disabled":false,"rental_uris":{"android":"levelo://app?vid=c4491d0c-74af-4d88-864d-4c53251d5027","ios":"levelo://app?vid=c4491d0c-74af-4d88-864d-4c53251d5027"},"vehicle_type_id":"4","last_reported":1703588774,"current_range_meters":27600,"station_id":"ce4bht12rcd13ifvqi60","pricing_plan_id":"free"},{"bike_id":"b8ae8959-d827-4ceb-8ce0-3e03906d250d","system_id":"levelo_inurba_marseille","lat":43.28605,"lon":5.37068,"is_reserved":false,"is_disabled":false,"rental_uris":{"android":"levelo://app?vid=b8ae8959-d827-4ceb-8ce0-3e03906d250d","ios":"levelo://app?vid=b8ae8959-d827-4ceb-8ce0-3e03906d250d"},"vehicle_type_id":"4","last_reported":1703588774,"current_range_meters":27200,"station_id":"ce4bht12rcd13ifvqi60","pricing_plan_id":"free"},{"bike_id":"e42f2d48-1eac-4ea9-97da-9a200b97c493","system_id":"levelo_inurba_marseille","lat":43.28604,"lon":5.37065,"is_reserved":false,"is_disabled":false,"rental_uris":{"android":"levelo://app?vid=e42f2d48-1eac-4ea9-97da-9a200b97c493","ios":"levelo://app?vid=e42f2d48-1eac-4ea9-97da-9a200b97c493"},"vehicle_type_id":"4","last_reported":1703588774,"current_range_meters":25200,"station_id":"ce4bht12rcd13ifvqi60","pricing_plan_id":"free"},{"bike_id":"0ade99fb-20fc-423b-a697-58876a6bf0b1","system_id":"levelo_inurba_marseille","lat":43.28699,"lon":5.379445,"is_reserved":false,"is_disabled":false,"rental_uris":{"android":"levelo://app?vid=0ade99fb-20fc-423b-a697-58876a6bf0b1","ios":"levelo://app?vid=0ade99fb-20fc-423b-a697-58876a6bf0b1"},"vehicle_type_id":"4","last_reported":1703588774,"current_range_meters":18400,"station_id":"ce4bh9p2rcd13ifvqec0","pricing_plan_id":"free"},{"bike_id":"f041beca-093c-4fb7-9075-9f3882d6dd1d","system_id":"levelo_inurba_marseille","lat":43.316828,"lon":5.404723,"is_reserved":false,"is_disabled":false,"rental_uris":{"android":"levelo://app?vid=f041beca-093c-4fb7-9075-9f3882d6dd1d","ios":"levelo://app?vid=f041beca-093c-4fb7-9075-9f3882d6dd1d"},"vehicle_type_id":"4","last_reported":1703588774,"current_range_meters":22000,"station_id":"ce4bh012rcd13ifvqd00","pricing_plan_id":"free"},{"bike_id":"f7ed3370-523c-4c2f-845c-836ae642af5e","system_id":"levelo_inurba_marseille","lat":43.291994,"lon":5.392907,"is_reserved":false,"is_disabled":false,"rental_uris":{"android":"levelo://app?vid=f7ed3370-523c-4c2f-845c-836ae642af5e","ios":"levelo://app?vid=f7ed3370-523c-4c2f-845c-836ae642af5e"},"vehicle_type_id":"4","last_reported":1703588774,"current_range_meters":27600,"station_id":"ce4bh192rcd13ifvqdd0","pricing_plan_id":"free"},{"bike_id":"348d89af-fb15-4286-8089-715605917a9d","system_id":"levelo_inurba_marseille","lat":43.291994,"lon":5.392907,"is_reserved":false,"is_disabled":false,"rental_uris":{"android":"levelo://app?vid=348d89af-fb15-4286-8089-715605917a9d","ios":"levelo://app?vid=348d89af-fb15-4286-8089-715605917a9d"},"vehicle_type_id":"4","last_reported":1703588774,"current_range_meters":21600,"station_id":"ce4bh192rcd13ifvqdd0","pricing_plan_id":"free"},{"bike_id":"74593e8e-7e67-4e56-8ce4-3ee5cc75532d","system_id":"levelo_inurba_marseille","lat":43.291994,"lon":5.392907,"is_reserved":false,"is_disabled":false,"rental_uris":{"android":"levelo://app?vid=74593e8e-7e67-4e56-8ce4-3ee5cc75532d","ios":"levelo://app?vid=74593e8e-7e67-4e56-8ce4-3ee5cc75532d"},"vehicle_type_id":"4","last_reported":1703588774,"current_range_meters":30800,"station_id":"ce4bh192rcd13ifvqdd0","pricing_plan_id":"free"},{"bike_id":"fcb2927b-41c2-46f0-a085-ab2a10a8a5ee","system_id":"levelo_inurba_marseille","lat":43.292,"lon":5.39322,"is_reserved":false,"is_disabled":false,"rental_uris":{"android":"levelo://app?vid=fcb2927b-41c2-46f0-a085-ab2a10a8a5ee","ios":"levelo://app?vid=fcb2927b-41c2-46f0-a085-ab2a10a8a5ee"},"vehicle_type_id":"4","last_reported":1703588774,"current_range_meters":20000,"station_id":"ce4bh192rcd13ifvqdd0","pricing_plan_id":"free"},{"bike_id":"f16a6b9b-cf18-402f-b580-9f5494b3a1fa","system_id":"levelo_inurba_marseille","lat":43.291973,"lon":5.39323,"is_reserved":false,"is_disabled":false,"rental_uris":{"android":"levelo://app?vid=f16a6b9b-cf18-402f-b580-9f5494b3a1fa","ios":"levelo://app?vid=f16a6b9b-cf18-402f-b580-9f5494b3a1fa"},"vehicle_type_id":"4","last_reported":1703588774,"current_range_meters":26000,"station_id":"ce4bh192rcd13ifvqdd0","pricing_plan_id":"free"},{"bike_id":"4b388e93-8359-494a-93e7-a691dd1edc09","system_id":"levelo_inurba_marseille","lat":43.33166,"lon":5.39577,"is_reserved":false,"is_disabled":false,"rental_uris":{"android":"levelo://app?vid=4b388e93-8359-494a-93e7-a691dd1edc09","ios":"levelo://app?vid=4b388e93-8359-494a-93e7-a691dd1edc09"},"vehicle_type_id":"4","last_reported":1703588774,"current_range_meters":26800,"station_id":"","pricing_plan_id":"free"},{"bike_id":"e2adfa7c-882e-48a1-9ee4-b36e6186ebbf","system_id":"levelo_inurba_marseille","lat":43.330912,"lon":5.396935,"is_reserved":false,"is_disabled":false,"rental_uris":{"android":"levelo://app?vid=e2adfa7c-882e-48a1-9ee4-b36e6186ebbf","ios":"levelo://app?vid=e2adfa7c-882e-48a1-9ee4-b36e6186ebbf"},"vehicle_type_id":"4","last_reported":1703588774,"current_range_meters":3200,"station_id":"","pricing_plan_id":"free"},{"bike_id":"bcb850ea-4558-48f8-884b-17064076fc95","system_id":"levelo_inurba_marseille","lat":43.283998,"lon":5.375062,"is_reserved":false,"is_disabled":false,"rental_uris":{"android":"levelo://app?vid=bcb850ea-4558-48f8-884b-17064076fc95","ios":"levelo://app?vid=bcb850ea-4558-48f8-884b-17064076fc95"},"vehicle_type_id":"4","last_reported":1703588774,"current_range_meters":16800,"station_id":"ce4bh412rcd13ifvqds0","pricing_plan_id":"free"},{"bike_id":"c8e4841c-10ff-4802-9b08-54b764c03bb3","system_id":"levelo_inurba_marseille","lat":43.319179,"lon":5.407725,"is_reserved":false,"is_disabled":false,"rental_uris":{"android":"levelo://app?vid=c8e4841c-10ff-4802-9b08-54b764c03bb3","ios":"levelo://app?vid=c8e4841c-10ff-4802-9b08-54b764c03bb3"},"vehicle_type_id":"4","last_reported":1703588774,"current_range_meters":31200,"station_id":"ce4bhq12rcd13ifvqhig","pricing_plan_id":"free"},{"bike_id":"c2a4e9fa-d127-4873-a166-c6085deebf8d","system_id":"levelo_inurba_marseille","lat":43.319179,"lon":5.407725,"is_reserved":false,"is_disabled":false,"rental_uris":{"android":"levelo://app?vid=c2a4e9fa-d127-4873-a166-c6085deebf8d","ios":"levelo://app?vid=c2a4e9fa-d127-4873-a166-c6085deebf8d"},"vehicle_type_id":"4","last_reported":1703588774,"current_range_meters":31200,"station_id":"ce4bhq12rcd13ifvqhig","pricing_plan_id":"free"},{"bike_id":"5cabe397-6251-4948-a1fa-30c3b35b1f83","system_id":"levelo_inurba_marseille","lat":43.282969,"lon":5.374426,"is_reserved":false,"is_disabled":false,"rental_uris":{"android":"levelo://app?vid=5cabe397-6251-4948-a1fa-30c3b35b1f83","ios":"levelo://app?vid=5cabe397-6251-4948-a1fa-30c3b35b1f83"},"vehicle_type_id":"4","last_reported":1703588774,"current_range_meters":23600,"station_id":"ce4bh3p2rcd13ifvqdq0","pricing_plan_id":"free"},{"bike_id":"ff6ebe2d-10e0-4bee-8d5b-0d34d0573673","system_id":"levelo_inurba_marseille","lat":43.33715,"lon":5.391616,"is_reserved":false,"is_disabled":false,"rental_uris":{"android":"levelo://app?vid=ff6ebe2d-10e0-4bee-8d5b-0d34d0573673","ios":"levelo://app?vid=ff6ebe2d-10e0-4bee-8d5b-0d34d0573673"},"vehicle_type_id":"4","last_reported":1703588774,"current_range_meters":18000,"station_id":"ce4bhr92rcd13ifvqhsg","pricing_plan_id":"free"},{"bike_id":"32358c1c-e30e-473f-9e3b-ee56f5e3d31c","system_id":"levelo_inurba_marseille","lat":43.323464,"lon":5.406297,"is_reserved":false,"is_disabled":false,"rental_uris":{"android":"levelo://app?vid=32358c1c-e30e-473f-9e3b-ee56f5e3d31c","ios":"levelo://app?vid=32358c1c-e30e-473f-9e3b-ee56f5e3d31c"},"vehicle_type_id":"4","last_reported":1703588774,"current_range_meters":27600,"station_id":"ce4bhq92rcd13ifvqhjg","pricing_plan_id":"free"},{"bike_id":"a330c8f1-3748-4c5a-a422-58099001eb59","system_id":"levelo_inurba_marseille","lat":43.284793,"lon":5.384119,"is_reserved":false,"is_disabled":false,"rental_uris":{"android":"levelo://app?vid=a330c8f1-3748-4c5a-a422-58099001eb59","ios":"levelo://app?vid=a330c8f1-3748-4c5a-a422-58099001eb59"},"vehicle_type_id":"4","last_reported":1703588774,"current_range_meters":30000,"station_id":"ce4bh512rcd13ifvqe3g","pricing_plan_id":"free"},{"bike_id":"75fde808-007a-4afa-9a46-7adb04ced517","system_id":"levelo_inurba_marseille","lat":43.284787,"lon":5.384116,"is_reserved":false,"is_disabled":false,"rental_uris":{"android":"levelo://app?vid=75fde808-007a-4afa-9a46-7adb04ced517","ios":"levelo://app?vid=75fde808-007a-4afa-9a46-7adb04ced517"},"vehicle_type_id":"4","last_reported":1703588774,"current_range_meters":22000,"station_id":"ce4bh512rcd13ifvqe3g","pricing_plan_id":"free"},{"bike_id":"999e0348-6d3b-40a6-9da1-a6a66958f0ef","system_id":"levelo_inurba_marseille","lat":43.284787,"lon":5.384116,"is_reserved":false,"is_disabled":false,"rental_uris":{"android":"levelo://app?vid=999e0348-6d3b-40a6-9da1-a6a66958f0ef","ios":"levelo://app?vid=999e0348-6d3b-40a6-9da1-a6a66958f0ef"},"vehicle_type_id":"4","last_reported":1703588774,"current_range_meters":15600,"station_id":"ce4bh512rcd13ifvqe3g","pricing_plan_id":"free"},{"bike_id":"34f4dfd6-8503-43a9-81eb-497df57ba81b","system_id":"levelo_inurba_marseille","lat":43.284793,"lon":5.384119,"is_reserved":false,"is_disabled":false,"rental_uris":{"android":"levelo://app?vid=34f4dfd6-8503-43a9-81eb-497df57ba81b","ios":"levelo://app?vid=34f4dfd6-8503-43a9-81eb-497df57ba81b"},"vehicle_type_id":"4","last_reported":1703588774,"current_range_meters":26000,"station_id":"ce4bh512rcd13ifvqe3g","pricing_plan_id":"free"},{"bike_id":"0eda1752-b43a-4615-91cf-2104d6ee6173","system_id":"levelo_inurba_marseille","lat":43.283494,"lon":5.380945,"is_reserved":false,"is_disabled":false,"rental_uris":{"android":"levelo://app?vid=0eda1752-b43a-4615-91cf-2104d6ee6173","ios":"levelo://app?vid=0eda1752-b43a-4615-91cf-2104d6ee6173"},"vehicle_type_id":"4","last_reported":1703588774,"current_range_meters":30000,"station_id":"ce4bh412rcd13ifvqdr0","pricing_plan_id":"free"},{"bike_id":"e485450b-2736-4f4c-b94b-0da5a69b88aa","system_id":"levelo_inurba_marseille","lat":43.33385,"lon":5.39822,"is_reserved":false,"is_disabled":false,"rental_uris":{"android":"levelo://app?vid=e485450b-2736-4f4c-b94b-0da5a69b88aa","ios":"levelo://app?vid=e485450b-2736-4f4c-b94b-0da5a69b88aa"},"vehicle_type_id":"4","last_reported":1703588774,"current_range_meters":22800,"station_id":"","pricing_plan_id":"free"},{"bike_id":"67ae5831-4c86-4fde-abec-323d9c04c228","system_id":"levelo_inurba_marseille","lat":43.284217,"lon":5.349697,"is_reserved":false,"is_disabled":false,"rental_uris":{"android":"levelo://app?vid=67ae5831-4c86-4fde-abec-323d9c04c228","ios":"levelo://app?vid=67ae5831-4c86-4fde-abec-323d9c04c228"},"vehicle_type_id":"4","last_reported":1703588774,"current_range_meters":20800,"station_id":"ce4bhbh2rcd13ifvqepg","pricing_plan_id":"free"},{"bike_id":"9d30baa4-6500-41da-a01a-b1bfeccd8f86","system_id":"levelo_inurba_marseille","lat":43.289363,"lon":5.396322,"is_reserved":false,"is_disabled":false,"rental_uris":{"android":"levelo://app?vid=9d30baa4-6500-41da-a01a-b1bfeccd8f86","ios":"levelo://app?vid=9d30baa4-6500-41da-a01a-b1bfeccd8f86"},"vehicle_type_id":"4","last_reported":1703588774,"current_range_meters":28000,"station_id":"ce4bh3h2rcd13ifvqdn0","pricing_plan_id":"free"},{"bike_id":"b8ea60c7-15e4-4335-a9ed-35afb03889dc","system_id":"levelo_inurba_marseille","lat":43.289363,"lon":5.396322,"is_reserved":false,"is_disabled":false,"rental_uris":{"android":"levelo://app?vid=b8ea60c7-15e4-4335-a9ed-35afb03889dc","ios":"levelo://app?vid=b8ea60c7-15e4-4335-a9ed-35afb03889dc"},"vehicle_type_id":"4","last_reported":1703588774,"current_range_meters":28400,"station_id":"ce4bh3h2rcd13ifvqdn0","pricing_plan_id":"free"},{"bike_id":"ab1ce2cb-5f68-4c4c-933d-862730efc0dd","system_id":"levelo_inurba_marseille","lat":43.289363,"lon":5.396322,"is_reserved":false,"is_disabled":false,"rental_uris":{"android":"levelo://app?vid=ab1ce2cb-5f68-4c4c-933d-862730efc0dd","ios":"levelo://app?vid=ab1ce2cb-5f68-4c4c-933d-862730efc0dd"},"vehicle_type_id":"4","last_reported":1703588774,"current_range_meters":12000,"station_id":"ce4bh3h2rcd13ifvqdn0","pricing_plan_id":"free"},{"bike_id":"8aa7cae7-bb97-43d9-99cc-7d07f4d07176","system_id":"levelo_inurba_marseille","lat":43.289363,"lon":5.396322,"is_reserved":false,"is_disabled":false,"rental_uris":{"android":"levelo://app?vid=8aa7cae7-bb97-43d9-99cc-7d07f4d07176","ios":"levelo://app?vid=8aa7cae7-bb97-43d9-99cc-7d07f4d07176"},"vehicle_type_id":"4","last_reported":1703588774,"current_range_meters":31200,"station_id":"ce4bh3h2rcd13ifvqdn0","pricing_plan_id":"free"},{"bike_id":"626aa55a-21ec-4f00-9c0a-153bf1d6c38e","system_id":"levelo_inurba_marseille","lat":43.292724,"lon":5.401131,"is_reserved":false,"is_disabled":false,"rental_uris":{"android":"levelo://app?vid=626aa55a-21ec-4f00-9c0a-153bf1d6c38e","ios":"levelo://app?vid=626aa55a-21ec-4f00-9c0a-153bf1d6c38e"},"vehicle_type_id":"4","last_reported":1703588774,"current_range_meters":27600,"station_id":"ce4bh312rcd13ifvqdk0","pricing_plan_id":"free"},{"bike_id":"d7897a46-8820-4e59-95c3-ebd1feac516a","system_id":"levelo_inurba_marseille","lat":43.283502,"lon":5.386471,"is_reserved":false,"is_disabled":false,"rental_uris":{"android":"levelo://app?vid=d7897a46-8820-4e59-95c3-ebd1feac516a","ios":"levelo://app?vid=d7897a46-8820-4e59-95c3-ebd1feac516a"},"vehicle_type_id":"4","last_reported":1703588774,"current_range_meters":26400,"station_id":"ce4bh492rcd13ifvqdvg","pricing_plan_id":"free"},{"bike_id":"d03955f4-3aec-46ba-8ee0-2cefed34dab6","system_id":"levelo_inurba_marseille","lat":43.283502,"lon":5.386471,"is_reserved":false,"is_disabled":false,"rental_uris":{"android":"levelo://app?vid=d03955f4-3aec-46ba-8ee0-2cefed34dab6","ios":"levelo://app?vid=d03955f4-3aec-46ba-8ee0-2cefed34dab6"},"vehicle_type_id":"4","last_reported":1703588774,"current_range_meters":26400,"station_id":"ce4bh492rcd13ifvqdvg","pricing_plan_id":"free"},{"bike_id":"c4bcbbac-16e8-4357-9234-2efc52129072","system_id":"levelo_inurba_marseille","lat":43.282754,"lon":5.350519,"is_reserved":false,"is_disabled":false,"rental_uris":{"android":"levelo://app?vid=c4bcbbac-16e8-4357-9234-2efc52129072","ios":"levelo://app?vid=c4bcbbac-16e8-4357-9234-2efc52129072"},"vehicle_type_id":"4","last_reported":1703588774,"current_range_meters":26400,"station_id":"ce4bhbp2rcd13ifvqerg","pricing_plan_id":"free"},{"bike_id":"35a7df02-89b6-41a6-8540-edd70633d54b","system_id":"levelo_inurba_marseille","lat":43.283502,"lon":5.386471,"is_reserved":false,"is_disabled":false,"rental_uris":{"android":"levelo://app?vid=35a7df02-89b6-41a6-8540-edd70633d54b","ios":"levelo://app?vid=35a7df02-89b6-41a6-8540-edd70633d54b"},"vehicle_type_id":"4","last_reported":1703588774,"current_range_meters":16800,"station_id":"ce4bh492rcd13ifvqdvg","pricing_plan_id":"free"},{"bike_id":"d9456755-88d2-4516-a2c1-891a546c885a","system_id":"levelo_inurba_marseille","lat":43.28039,"lon":5.369297,"is_reserved":false,"is_disabled":false,"rental_uris":{"android":"levelo://app?vid=d9456755-88d2-4516-a2c1-891a546c885a","ios":"levelo://app?vid=d9456755-88d2-4516-a2c1-891a546c885a"},"vehicle_type_id":"4","last_reported":1703588774,"current_range_meters":19200,"station_id":"ce4bha12rcd13ifvqef0","pricing_plan_id":"free"},{"bike_id":"1635839a-b1fb-4dfc-a28a-920a50182d44","system_id":"levelo_inurba_marseille","lat":43.28105,"lon":5.37838,"is_reserved":false,"is_disabled":false,"rental_uris":{"android":"levelo://app?vid=1635839a-b1fb-4dfc-a28a-920a50182d44","ios":"levelo://app?vid=1635839a-b1fb-4dfc-a28a-920a50182d44"},"vehicle_type_id":"4","last_reported":1703588774,"current_range_meters":24400,"station_id":"ce4bha12rcd13ifvqee0","pricing_plan_id":"free"},{"bike_id":"c9029fdb-6b28-4937-9e57-397e4a9d9c8f","system_id":"levelo_inurba_marseille","lat":43.28101,"lon":5.37837,"is_reserved":false,"is_disabled":false,"rental_uris":{"android":"levelo://app?vid=c9029fdb-6b28-4937-9e57-397e4a9d9c8f","ios":"levelo://app?vid=c9029fdb-6b28-4937-9e57-397e4a9d9c8f"},"vehicle_type_id":"4","last_reported":1703588774,"current_range_meters":20000,"station_id":"ce4bha12rcd13ifvqee0","pricing_plan_id":"free"},{"bike_id":"363c6043-9b5f-4df9-aa02-ab6a8382de4a","system_id":"levelo_inurba_marseille","lat":43.284462,"lon":5.392121,"is_reserved":false,"is_disabled":false,"rental_uris":{"android":"levelo://app?vid=363c6043-9b5f-4df9-aa02-ab6a8382de4a","ios":"levelo://app?vid=363c6043-9b5f-4df9-aa02-ab6a8382de4a"},"vehicle_type_id":"4","last_reported":1703588774,"current_range_meters":31200,"station_id":"ce4bhoh2rcd13ifvqh5g","pricing_plan_id":"free"},{"bike_id":"e616b786-e4c0-4d73-9d4b-4bcba879a3ed","system_id":"levelo_inurba_marseille","lat":43.28573,"lon":5.394992,"is_reserved":false,"is_disabled":false,"rental_uris":{"android":"levelo://app?vid=e616b786-e4c0-4d73-9d4b-4bcba879a3ed","ios":"levelo://app?vid=e616b786-e4c0-4d73-9d4b-4bcba879a3ed"},"vehicle_type_id":"4","last_reported":1703588774,"current_range_meters":24800,"station_id":"ce4bh292rcd13ifvqdg0","pricing_plan_id":"free"},{"bike_id":"3f64d92d-bd78-4747-8a6e-ff5758299350","system_id":"levelo_inurba_marseille","lat":43.326605,"lon":5.409903,"is_reserved":false,"is_disabled":false,"rental_uris":{"android":"levelo://app?vid=3f64d92d-bd78-4747-8a6e-ff5758299350","ios":"levelo://app?vid=3f64d92d-bd78-4747-8a6e-ff5758299350"},"vehicle_type_id":"4","last_reported":1703588774,"current_range_meters":27600,"station_id":"ce4bhpp2rcd13ifvqhgg","pricing_plan_id":"free"},{"bike_id":"27d7a55f-3a69-4154-a15a-cefa71bbbc9a","system_id":"levelo_inurba_marseille","lat":43.304188,"lon":5.412904,"is_reserved":false,"is_disabled":false,"rental_uris":{"android":"levelo://app?vid=27d7a55f-3a69-4154-a15a-cefa71bbbc9a","ios":"levelo://app?vid=27d7a55f-3a69-4154-a15a-cefa71bbbc9a"},"vehicle_type_id":"4","last_reported":1703588774,"current_range_meters":7200,"station_id":"ce4bhop2rcd13ifvqh8g","pricing_plan_id":"free"},{"bike_id":"68af8495-603a-4702-8c75-51e4192cd681","system_id":"levelo_inurba_marseille","lat":43.283502,"lon":5.386471,"is_reserved":false,"is_disabled":false,"rental_uris":{"android":"levelo://app?vid=68af8495-603a-4702-8c75-51e4192cd681","ios":"levelo://app?vid=68af8495-603a-4702-8c75-51e4192cd681"},"vehicle_type_id":"4","last_reported":1703588774,"current_range_meters":8800,"station_id":"ce4bh492rcd13ifvqdvg","pricing_plan_id":"free"},{"bike_id":"56e53660-aeab-4a79-9809-bf2435d74454","system_id":"levelo_inurba_marseille","lat":43.317075,"lon":5.377367,"is_reserved":false,"is_disabled":false,"rental_uris":{"android":"levelo://app?vid=56e53660-aeab-4a79-9809-bf2435d74454","ios":"levelo://app?vid=56e53660-aeab-4a79-9809-bf2435d74454"},"vehicle_type_id":"4","last_reported":1703588774,"current_range_meters":26400,"station_id":"ce4bgth2rcd13ifvqch0","pricing_plan_id":"free"},{"bike_id":"bc1f7b15-1c1c-41f9-9939-342701df6c92","system_id":"levelo_inurba_marseille","lat":43.279087,"lon":5.380114,"is_reserved":false,"is_disabled":false,"rental_uris":{"android":"levelo://app?vid=bc1f7b15-1c1c-41f9-9939-342701df6c92","ios":"levelo://app?vid=bc1f7b15-1c1c-41f9-9939-342701df6c92"},"vehicle_type_id":"4","last_reported":1703588774,"current_range_meters":31600,"station_id":"ce4bhf92rcd13ifvqf50","pricing_plan_id":"free"},{"bike_id":"db62219d-adda-499c-afdd-3f69e6da2848","system_id":"levelo_inurba_marseille","lat":43.287154,"lon":5.399979,"is_reserved":false,"is_disabled":false,"rental_uris":{"android":"levelo://app?vid=db62219d-adda-499c-afdd-3f69e6da2848","ios":"levelo://app?vid=db62219d-adda-499c-afdd-3f69e6da2848"},"vehicle_type_id":"4","last_reported":1703588774,"current_range_meters":16800,"station_id":"ce4bho92rcd13ifvqh3g","pricing_plan_id":"free"},{"bike_id":"1f49b234-69ed-438e-8d08-179a4fc9c8c6","system_id":"levelo_inurba_marseille","lat":43.320045,"lon":5.415046,"is_reserved":false,"is_disabled":false,"rental_uris":{"android":"levelo://app?vid=1f49b234-69ed-438e-8d08-179a4fc9c8c6","ios":"levelo://app?vid=1f49b234-69ed-438e-8d08-179a4fc9c8c6"},"vehicle_type_id":"4","last_reported":1703588774,"current_range_meters":29200,"station_id":"ce4bhq92rcd13ifvqhkg","pricing_plan_id":"free"},{"bike_id":"0f9ba54f-2d34-4815-a7a3-85ee9d8e32a4","system_id":"levelo_inurba_marseille","lat":43.320045,"lon":5.415048,"is_reserved":false,"is_disabled":false,"rental_uris":{"android":"levelo://app?vid=0f9ba54f-2d34-4815-a7a3-85ee9d8e32a4","ios":"levelo://app?vid=0f9ba54f-2d34-4815-a7a3-85ee9d8e32a4"},"vehicle_type_id":"4","last_reported":1703588774,"current_range_meters":27200,"station_id":"ce4bhq92rcd13ifvqhkg","pricing_plan_id":"free"},{"bike_id":"8dc1a192-1b6f-467a-861b-d4c6f7601906","system_id":"levelo_inurba_marseille","lat":43.299579,"lon":5.413255,"is_reserved":false,"is_disabled":false,"rental_uris":{"android":"levelo://app?vid=8dc1a192-1b6f-467a-861b-d4c6f7601906","ios":"levelo://app?vid=8dc1a192-1b6f-467a-861b-d4c6f7601906"},"vehicle_type_id":"4","last_reported":1703588774,"current_range_meters":30400,"station_id":"ce4bhp12rcd13ifvqh9g","pricing_plan_id":"free"},{"bike_id":"e8110f26-a445-4761-bbe9-da94b86786bb","system_id":"levelo_inurba_marseille","lat":43.279742,"lon":5.38744,"is_reserved":false,"is_disabled":false,"rental_uris":{"android":"levelo://app?vid=e8110f26-a445-4761-bbe9-da94b86786bb","ios":"levelo://app?vid=e8110f26-a445-4761-bbe9-da94b86786bb"},"vehicle_type_id":"4","last_reported":1703588774,"current_range_meters":27600,"station_id":"ce4bhg12rcd13ifvqf80","pricing_plan_id":"free"},{"bike_id":"e8d7c8e8-f580-4a5a-be89-d55611bd878f","system_id":"levelo_inurba_marseille","lat":43.27705,"lon":5.35692,"is_reserved":false,"is_disabled":false,"rental_uris":{"android":"levelo://app?vid=e8d7c8e8-f580-4a5a-be89-d55611bd878f","ios":"levelo://app?vid=e8d7c8e8-f580-4a5a-be89-d55611bd878f"},"vehicle_type_id":"4","last_reported":1703588774,"current_range_meters":10400,"station_id":"","pricing_plan_id":"free"},{"bike_id":"9ddb08fd-51df-4570-af8d-eabafae5e8b8","system_id":"levelo_inurba_marseille","lat":43.292571,"lon":5.409107,"is_reserved":false,"is_disabled":false,"rental_uris":{"android":"levelo://app?vid=9ddb08fd-51df-4570-af8d-eabafae5e8b8","ios":"levelo://app?vid=9ddb08fd-51df-4570-af8d-eabafae5e8b8"},"vehicle_type_id":"4","last_reported":1703588774,"current_range_meters":29200,"station_id":"ce4bh192rcd13ifvqdc0","pricing_plan_id":"free"},{"bike_id":"2316e8ee-f386-464a-852e-eabe92d886b0","system_id":"levelo_inurba_marseille","lat":43.27618,"lon":5.361009,"is_reserved":false,"is_disabled":false,"rental_uris":{"android":"levelo://app?vid=2316e8ee-f386-464a-852e-eabe92d886b0","ios":"levelo://app?vid=2316e8ee-f386-464a-852e-eabe92d886b0"},"vehicle_type_id":"4","last_reported":1703588774,"current_range_meters":22400,"station_id":"ce4bgj92rcd13ifvqbe0","pricing_plan_id":"free"},{"bike_id":"6c2305fb-9fde-45d4-a66a-2a4dcdd06eaf","system_id":"levelo_inurba_marseille","lat":43.276179,"lon":5.361009,"is_reserved":false,"is_disabled":false,"rental_uris":{"android":"levelo://app?vid=6c2305fb-9fde-45d4-a66a-2a4dcdd06eaf","ios":"levelo://app?vid=6c2305fb-9fde-45d4-a66a-2a4dcdd06eaf"},"vehicle_type_id":"4","last_reported":1703588774,"current_range_meters":18800,"station_id":"ce4bgj92rcd13ifvqbe0","pricing_plan_id":"free"},{"bike_id":"918de661-f57e-4317-8f41-4202b0d4f7c6","system_id":"levelo_inurba_marseille","lat":43.325233,"lon":5.414318,"is_reserved":false,"is_disabled":false,"rental_uris":{"android":"levelo://app?vid=918de661-f57e-4317-8f41-4202b0d4f7c6","ios":"levelo://app?vid=918de661-f57e-4317-8f41-4202b0d4f7c6"},"vehicle_type_id":"4","last_reported":1703588774,"current_range_meters":30400,"station_id":"ce4bhq12rcd13ifvqhhg","pricing_plan_id":"free"},{"bike_id":"6e427886-ca39-455a-baea-3e57ea9f6192","system_id":"levelo_inurba_marseille","lat":43.276179,"lon":5.361009,"is_reserved":false,"is_disabled":false,"rental_uris":{"android":"levelo://app?vid=6e427886-ca39-455a-baea-3e57ea9f6192","ios":"levelo://app?vid=6e427886-ca39-455a-baea-3e57ea9f6192"},"vehicle_type_id":"4","last_reported":1703588774,"current_range_meters":29600,"station_id":"ce4bgj92rcd13ifvqbe0","pricing_plan_id":"free"},{"bike_id":"f7a83ecf-3a87-446c-b40e-6e61e255da01","system_id":"levelo_inurba_marseille","lat":43.280784,"lon":5.396622,"is_reserved":false,"is_disabled":false,"rental_uris":{"android":"levelo://app?vid=f7a83ecf-3a87-446c-b40e-6e61e255da01","ios":"levelo://app?vid=f7a83ecf-3a87-446c-b40e-6e61e255da01"},"vehicle_type_id":"4","last_reported":1703588774,"current_range_meters":31200,"station_id":"ce4bho12rcd13ifvqh2g","pricing_plan_id":"free"},{"bike_id":"c7ceffd7-15f8-4a1a-a814-cd1193a51445","system_id":"levelo_inurba_marseille","lat":43.303837,"lon":5.418724,"is_reserved":false,"is_disabled":false,"rental_uris":{"android":"levelo://app?vid=c7ceffd7-15f8-4a1a-a814-cd1193a51445","ios":"levelo://app?vid=c7ceffd7-15f8-4a1a-a814-cd1193a51445"},"vehicle_type_id":"4","last_reported":1703588774,"current_range_meters":31200,"station_id":"ce4bhop2rcd13ifvqh7g","pricing_plan_id":"free"},{"bike_id":"f069e1ac-cffd-4c40-b676-82534a24f373","system_id":"levelo_inurba_marseille","lat":43.303837,"lon":5.418724,"is_reserved":false,"is_disabled":false,"rental_uris":{"android":"levelo://app?vid=f069e1ac-cffd-4c40-b676-82534a24f373","ios":"levelo://app?vid=f069e1ac-cffd-4c40-b676-82534a24f373"},"vehicle_type_id":"4","last_reported":1703588774,"current_range_meters":28800,"station_id":"ce4bhop2rcd13ifvqh7g","pricing_plan_id":"free"},{"bike_id":"e924da40-7846-42b7-a84e-0317e074b38b","system_id":"levelo_inurba_marseille","lat":43.273613,"lon":5.362705,"is_reserved":false,"is_disabled":false,"rental_uris":{"android":"levelo://app?vid=e924da40-7846-42b7-a84e-0317e074b38b","ios":"levelo://app?vid=e924da40-7846-42b7-a84e-0317e074b38b"},"vehicle_type_id":"4","last_reported":1703588774,"current_range_meters":26000,"station_id":"ce4bhbh2rcd13ifvqeo0","pricing_plan_id":"free"},{"bike_id":"65431dc2-7219-4fc5-9aca-fdf25e4e1084","system_id":"levelo_inurba_marseille","lat":43.273613,"lon":5.362705,"is_reserved":false,"is_disabled":false,"rental_uris":{"android":"levelo://app?vid=65431dc2-7219-4fc5-9aca-fdf25e4e1084","ios":"levelo://app?vid=65431dc2-7219-4fc5-9aca-fdf25e4e1084"},"vehicle_type_id":"4","last_reported":1703588774,"current_range_meters":22000,"station_id":"ce4bhbh2rcd13ifvqeo0","pricing_plan_id":"free"},{"bike_id":"124e65a3-2ead-49d0-b68d-0fc0caf39aa0","system_id":"levelo_inurba_marseille","lat":43.275625,"lon":5.384392,"is_reserved":false,"is_disabled":false,"rental_uris":{"android":"levelo://app?vid=124e65a3-2ead-49d0-b68d-0fc0caf39aa0","ios":"levelo://app?vid=124e65a3-2ead-49d0-b68d-0fc0caf39aa0"},"vehicle_type_id":"4","last_reported":1703588774,"current_range_meters":17600,"station_id":"ce4bhh92rcd13ifvqfi0","pricing_plan_id":"free"},{"bike_id":"b202d92f-0a12-475d-acb4-3eb43c39e712","system_id":"levelo_inurba_marseille","lat":43.273613,"lon":5.362705,"is_reserved":false,"is_disabled":false,"rental_uris":{"android":"levelo://app?vid=b202d92f-0a12-475d-acb4-3eb43c39e712","ios":"levelo://app?vid=b202d92f-0a12-475d-acb4-3eb43c39e712"},"vehicle_type_id":"4","last_reported":1703588774,"current_range_meters":25600,"station_id":"ce4bhbh2rcd13ifvqeo0","pricing_plan_id":"free"},{"bike_id":"7ce30daf-cbfe-4153-9586-63e249e70b2e","system_id":"levelo_inurba_marseille","lat":43.27563,"lon":5.3842,"is_reserved":false,"is_disabled":false,"rental_uris":{"android":"levelo://app?vid=7ce30daf-cbfe-4153-9586-63e249e70b2e","ios":"levelo://app?vid=7ce30daf-cbfe-4153-9586-63e249e70b2e"},"vehicle_type_id":"4","last_reported":1703588774,"current_range_meters":24400,"station_id":"ce4bhh92rcd13ifvqfi0","pricing_plan_id":"free"},{"bike_id":"96219706-eade-41a5-9039-1c8472f61054","system_id":"levelo_inurba_marseille","lat":43.336134,"lon":5.410341,"is_reserved":false,"is_disabled":false,"rental_uris":{"android":"levelo://app?vid=96219706-eade-41a5-9039-1c8472f61054","ios":"levelo://app?vid=96219706-eade-41a5-9039-1c8472f61054"},"vehicle_type_id":"4","last_reported":1703588774,"current_range_meters":28800,"station_id":"ce4bhqh2rcd13ifvqhmg","pricing_plan_id":"free"},{"bike_id":"341cb2e8-c774-4293-8624-a62876ee0143","system_id":"levelo_inurba_marseille","lat":43.2769,"lon":5.38901,"is_reserved":false,"is_disabled":false,"rental_uris":{"android":"levelo://app?vid=341cb2e8-c774-4293-8624-a62876ee0143","ios":"levelo://app?vid=341cb2e8-c774-4293-8624-a62876ee0143"},"vehicle_type_id":"4","last_reported":1703588774,"current_range_meters":31200,"station_id":"ce4bhi12rcd13ifvqfo0","pricing_plan_id":"free"},{"bike_id":"73feabb7-ce89-4ce6-afa7-dac737f9d1a7","system_id":"levelo_inurba_marseille","lat":43.2768,"lon":5.38873,"is_reserved":false,"is_disabled":false,"rental_uris":{"android":"levelo://app?vid=73feabb7-ce89-4ce6-afa7-dac737f9d1a7","ios":"levelo://app?vid=73feabb7-ce89-4ce6-afa7-dac737f9d1a7"},"vehicle_type_id":"4","last_reported":1703588774,"current_range_meters":18400,"station_id":"ce4bhi12rcd13ifvqfo0","pricing_plan_id":"free"},{"bike_id":"dddd7a57-2e99-44e9-b1cb-046df443171b","system_id":"levelo_inurba_marseille","lat":43.276769,"lon":5.388787,"is_reserved":false,"is_disabled":false,"rental_uris":{"android":"levelo://app?vid=dddd7a57-2e99-44e9-b1cb-046df443171b","ios":"levelo://app?vid=dddd7a57-2e99-44e9-b1cb-046df443171b"},"vehicle_type_id":"4","last_reported":1703588774,"current_range_meters":31200,"station_id":"ce4bhi12rcd13ifvqfo0","pricing_plan_id":"free"},{"bike_id":"f65cbc67-1fff-4158-860b-ffc729293d89","system_id":"levelo_inurba_marseille","lat":43.336148,"lon":5.410349,"is_reserved":false,"is_disabled":false,"rental_uris":{"android":"levelo://app?vid=f65cbc67-1fff-4158-860b-ffc729293d89","ios":"levelo://app?vid=f65cbc67-1fff-4158-860b-ffc729293d89"},"vehicle_type_id":"4","last_reported":1703588774,"current_range_meters":28400,"station_id":"ce4bhqh2rcd13ifvqhmg","pricing_plan_id":"free"},{"bike_id":"ee91a5ba-7783-4498-b046-34f5f5c76785","system_id":"levelo_inurba_marseille","lat":43.276769,"lon":5.388787,"is_reserved":false,"is_disabled":false,"rental_uris":{"android":"levelo://app?vid=ee91a5ba-7783-4498-b046-34f5f5c76785","ios":"levelo://app?vid=ee91a5ba-7783-4498-b046-34f5f5c76785"},"vehicle_type_id":"4","last_reported":1703588774,"current_range_meters":31200,"station_id":"ce4bhi12rcd13ifvqfo0","pricing_plan_id":"free"},{"bike_id":"7f37fa09-aa76-4699-ab0a-c39433cf7bd0","system_id":"levelo_inurba_marseille","lat":43.279975,"lon":5.40009,"is_reserved":false,"is_disabled":false,"rental_uris":{"android":"levelo://app?vid=7f37fa09-aa76-4699-ab0a-c39433cf7bd0","ios":"levelo://app?vid=7f37fa09-aa76-4699-ab0a-c39433cf7bd0"},"vehicle_type_id":"4","last_reported":1703588774,"current_range_meters":25200,"station_id":"ce4bho92rcd13ifvqh4g","pricing_plan_id":"free"},{"bike_id":"0cb1f2eb-8cf7-41b3-a669-4f7fbe1029d3","system_id":"levelo_inurba_marseille","lat":43.279975,"lon":5.40009,"is_reserved":false,"is_disabled":false,"rental_uris":{"android":"levelo://app?vid=0cb1f2eb-8cf7-41b3-a669-4f7fbe1029d3","ios":"levelo://app?vid=0cb1f2eb-8cf7-41b3-a669-4f7fbe1029d3"},"vehicle_type_id":"4","last_reported":1703588774,"current_range_meters":31200,"station_id":"ce4bho92rcd13ifvqh4g","pricing_plan_id":"free"},{"bike_id":"107041c1-9f5b-4def-83c9-0ec3cddd810a","system_id":"levelo_inurba_marseille","lat":43.279975,"lon":5.40009,"is_reserved":false,"is_disabled":false,"rental_uris":{"android":"levelo://app?vid=107041c1-9f5b-4def-83c9-0ec3cddd810a","ios":"levelo://app?vid=107041c1-9f5b-4def-83c9-0ec3cddd810a"},"vehicle_type_id":"4","last_reported":1703588774,"current_range_meters":30800,"station_id":"ce4bho92rcd13ifvqh4g","pricing_plan_id":"free"},{"bike_id":"a31403d3-3f52-46c5-bf04-84e097645452","system_id":"levelo_inurba_marseille","lat":43.317121,"lon":5.423936,"is_reserved":false,"is_disabled":false,"rental_uris":{"android":"levelo://app?vid=a31403d3-3f52-46c5-bf04-84e097645452","ios":"levelo://app?vid=a31403d3-3f52-46c5-bf04-84e097645452"},"vehicle_type_id":"4","last_reported":1703588774,"current_range_meters":27600,"station_id":"ce4bhp92rcd13ifvqhbg","pricing_plan_id":"free"},{"bike_id":"136cb9da-15ee-40e3-bc2c-40c9c9d6a86d","system_id":"levelo_inurba_marseille","lat":43.317121,"lon":5.423936,"is_reserved":false,"is_disabled":false,"rental_uris":{"android":"levelo://app?vid=136cb9da-15ee-40e3-bc2c-40c9c9d6a86d","ios":"levelo://app?vid=136cb9da-15ee-40e3-bc2c-40c9c9d6a86d"},"vehicle_type_id":"4","last_reported":1703588774,"current_range_meters":30000,"station_id":"ce4bhp92rcd13ifvqhbg","pricing_plan_id":"free"},{"bike_id":"ec9bed21-ab15-4437-b93e-3ba68087485a","system_id":"levelo_inurba_marseille","lat":43.31079,"lon":5.4243,"is_reserved":false,"is_disabled":false,"rental_uris":{"android":"levelo://app?vid=ec9bed21-ab15-4437-b93e-3ba68087485a","ios":"levelo://app?vid=ec9bed21-ab15-4437-b93e-3ba68087485a"},"vehicle_type_id":"4","last_reported":1703588774,"current_range_meters":20400,"station_id":"ce4bhp92rcd13ifvqhag","pricing_plan_id":"free"},