{"last_updated":1704674219,"ttl":30,"version":"2.2","data":{"bikes":[{"bike_id":"b10b63da-8f6d-4693-9358-23d257fcef2d","system_id":"levelo_inurba_marseille","lat":43.31341,"lon":5.367098,"is_reserved":false,"is_disabled":false,"rental_uris":{"android":"levelo://app?vid=b10b63da-8f6d-4693-9358-23d257fcef2d","ios":"levelo://app?vid=b10b63da-8f6d-4693-9358-23d257fcef2d"},"vehicle_type_id":"4","last_reported":1704674219,"current_range_meters":28800,"station_id":"ce4bgr92rcd13ifvqc6g","pricing_plan_id":"free"},{"bike_id":"1f69f0c3-a087-4f5d-99e2-76cacd42b5b6","system_id":"levelo_inurba_marseille","lat":43.313391,"lon":5.36706,"is_reserved":false,"is_disabled":false,"rental_uris":{"android":"levelo://app?vid=1f69f0c3-a087-4f5d-99e2-76cacd42b5b6","ios":"levelo://app?vid=1f69f0c3-a087-4f5d-99e2-76cacd42b5b6"},"vehicle_type_id":"4","last_reported":1704674219,"current_range_meters":28400,"station_id":"ce4bgr92rcd13ifvqc6g","pricing_plan_id":"free"},{"bike_id":"2d97f0fe-5f0e-4804-98b7-8d76f85d3ea0","system_id":"levelo_inurba_marseille","lat":43.314811,"lon":5.373103,"is_reserved":false,"is_disabled":false,"rental_uris":{"android":"levelo://app?vid=2d97f0fe-5f0e-4804-98b7-8d76f85d3ea0","ios":"levelo://app?vid=2d97f0fe-5f0e-4804-98b7-8d76f85d3ea0"},"vehicle_type_id":"4","last_reported":1704674219,"current_range_meters":20000,"station_id":"ce4bgt12rcd13ifvqcd0","pricing_plan_id":"free"},{"bike_id":"a18c9f18-dd23-4fa3-ae4c-750a813ec2dd","system_id":"levelo_inurba_marseille","lat":43.317028,"lon":5.373985,"is_reserved":false,"is_disabled":false,"rental_uris":{"android":"levelo://app?vid=a18c9f18-dd23-4fa3-ae4c-750a813ec2dd","ios":"levelo://app?vid=a18c9f18-dd23-4fa3-ae4c-750a813ec2dd"},"vehicle_type_id":"4","last_reported":1704674219,"current_range_meters":12400,"station_id":"","pricing_plan_id":"free"},{"bike_id":"e9d62abe-72b8-4ea7-be6b-000966464cb3","system_id":"levelo_inurba_marseille","lat":43.307945,"lon":5.376487,"is_reserved":false,"is_disabled":false,"rental_uris":{"android":"levelo://app?vid=e9d62abe-72b8-4ea7-be6b-000966464cb3","ios":"levelo://app?vid=e9d62abe-72b8-4ea7-be6b-000966464cb3"},"vehicle_type_id":"4","last_reported":1704674219,"current_range_meters":31600,"station_id":"ce4bgv92rcd13ifvqcq0","pricing_plan_id":"free"},{"bike_id":"49a99d3b-59e9-4df2-ae58-53f7c9e3ac42","system_id":"levelo_inurba_marseille","lat":43.307945,"lon":5.376487,"is_reserved":false,"is_disabled":false,"rental_uris":{"android":"levelo://app?vid=49a99d3b-59e9-4df2-ae58-53f7c9e3ac42","ios":"levelo://app?vid=49a99d3b-59e9-4df2-ae58-53f7c9e3ac42"},"vehicle_type_id":"4","last_reported":1704674219,"current_range_meters":24800,"station_id":"ce4bgv92rcd13ifvqcq0","pricing_plan_id":"free"},{"bike_id":"b330918a-5a7b-4f40-8de6-e64a08f072ac","system_id":"levelo_inurba_marseille","lat":43.317075,"lon":5.377367,"is_reserved":false,"is_disabled":false,"rental_uris":{"android":"levelo://app?vid=b330918a-5a7b-4f40-8de6-e64a08f072ac","ios":"levelo://app?vid=b330918a-5a7b-4f40-8de6-e64a08f072ac"},"vehicle_type_id":"4","last_reported":1704674219,"current_range_meters":28000,"station_id":"ce4bgth2rcd13ifvqch0","pricing_plan_id":"free"},{"bike_id":"c4e90871-bb94-4085-82dc-ccbd997a22ca","system_id":"levelo_inurba_marseille","lat":43.315294,"lon":5.379148,"is_reserved":false,"is_disabled":false,"rental_uris":{"android":"levelo://app?vid=c4e90871-bb94-4085-82dc-ccbd997a22ca","ios":"levelo://app?vid=c4e90871-bb94-4085-82dc-ccbd997a22ca"},"vehicle_type_id":"4","last_reported":1704674219,"current_range_meters":3600,"station_id":"","pricing_plan_id":"free"},{"bike_id":"6016eefc-8003-4ade-b528-e01b90e2c84c","system_id":"levelo_inurba_marseille","lat":43.303046,"lon":5.368981,"is_reserved":false,"is_disabled":false,"rental_uris":{"android":"levelo://app?vid=6016eefc-8003-4ade-b528-e01b90e2c84c","ios":"levelo://app?vid=6016eefc-8003-4ade-b528-e01b90e2c84c"},"vehicle_type_id":"4","last_reported":1704674219,"current_range_meters":27600,"station_id":"ce4bgqh2rcd13ifvqc5g","pricing_plan_id":"free"},{"bike_id":"9d7c1399-ebea-4961-accf-55e52e3ffa47","system_id":"levelo_inurba_marseille","lat":43.31538,"lon":5.38024,"is_reserved":false,"is_disabled":false,"rental_uris":{"android":"levelo://app?vid=9d7c1399-ebea-4961-accf-55e52e3ffa47","ios":"levelo://app?vid=9d7c1399-ebea-4961-accf-55e52e3ffa47"},"vehicle_type_id":"4","last_reported":1704674219,"current_range_meters":26000,"station_id":"ce4bhsp2rcd13ifvqi50","pricing_plan_id":"free"},{"bike_id":"bc1e6eec-4023-4348-8842-b50dc462dae2","system_id":"levelo_inurba_marseille","lat":43.31538,"lon":5.380265,"is_reserved":false,"is_disabled":false,"rental_uris":{"android":"levelo://app?vid=bc1e6eec-4023-4348-8842-b50dc462dae2","ios":"levelo://app?vid=bc1e6eec-4023-4348-8842-b50dc462dae2"},"vehicle_type_id":"4","last_reported":1704674219,"current_range_meters":20800,"station_id":"ce4bhsp2rcd13ifvqi50","pricing_plan_id":"free"},{"bike_id":"d71ef144-9d7e-420e-80f1-e11a016c74bf","system_id":"levelo_inurba_marseille","lat":43.301939,"lon":5.366286,"is_reserved":false,"is_disabled":false,"rental_uris":{"android":"levelo://app?vid=d71ef144-9d7e-420e-80f1-e11a016c74bf","ios":"levelo://app?vid=d71ef144-9d7e-420e-80f1-e11a016c74bf"},"vehicle_type_id":"4","last_reported":1704674219,"current_range_meters":20400,"station_id":"ce4bgrh2rcd13ifvqc8g","pricing_plan_id":"free"},{"bike_id":"1c5fd6e4-e9e7-4e68-a469-b0ea22d9598c","system_id":"levelo_inurba_marseille","lat":43.308012,"lon":5.381511,"is_reserved":false,"is_disabled":false,"rental_uris":{"android":"levelo://app?vid=1c5fd6e4-e9e7-4e68-a469-b0ea22d9598c","ios":"levelo://app?vid=1c5fd6e4-e9e7-4e68-a469-b0ea22d9598c"},"vehicle_type_id":"4","last_reported":1704674219,"current_range_meters":6800,"station_id":"ce4bgt12rcd13ifvqce0","pricing_plan_id":"free"},{"bike_id":"65a55753-5e6c-4f1f-ac5b-2457213cafb3","system_id":"levelo_inurba_marseille","lat":43.308061,"lon":5.381546,"is_reserved":false,"is_disabled":false,"rental_uris":{"android":"levelo://app?vid=65a55753-5e6c-4f1f-ac5b-2457213cafb3","ios":"levelo://app?vid=65a55753-5e6c-4f1f-ac5b-2457213cafb3"},"vehicle_type_id":"4","last_reported":1704674219,"current_range_meters":0,"station_id":"ce4bgt12rcd13ifvqce0","pricing_plan_id":"free"},{"bike_id":"d5a9df50-c864-4773-a88d-9866e0741d37","system_id":"levelo_inurba_marseille","lat":43.308012,"lon":5.381511,"is_reserved":false,"is_disabled":false,"rental_uris":{"android":"levelo://app?vid=d5a9df50-c864-4773-a88d-9866e0741d37","ios":"levelo://app?vid=d5a9df50-c864-4773-a88d-9866e0741d37"},"vehicle_type_id":"4","last_reported":1704674219,"current_range_meters":23200,"station_id":"ce4bgt12rcd13ifvqce0","pricing_plan_id":"free"},{"bike_id":"4dbacdfe-028e-4045-9fe3-8cbb46be59b7","system_id":"levelo_inurba_marseille","lat":43.308012,"lon":5.381511,"is_reserved":false,"is_disabled":false,"rental_uris":{"android":"levelo://app?vid=4dbacdfe-028e-4045-9fe3-8cbb46be59b7","ios":"levelo://app?vid=4dbacdfe-028e-4045-9fe3-8cbb46be59b7"},"vehicle_type_id":"4","last_reported":1704674219,"current_range_meters":32000,"station_id":"ce4bgt12rcd13ifvqce0","pricing_plan_id":"free"},{"bike_id":"ab246373-ceb8-42ec-9f1d-33c20169c150","system_id":"levelo_inurba_marseille","lat":43.308012,"lon":5.381511,"is_reserved":false,"is_disabled":false,"rental_uris":{"android":"levelo://app?vid=ab246373-ceb8-42ec-9f1d-33c20169c150","ios":"levelo://app?vid=ab246373-ceb8-42ec-9f1d-33c20169c150"},"vehicle_type_id":"4","last_reported":1704674219,"current_range_meters":8800,"station_id":"ce4bgt12rcd13ifvqce0","pricing_plan_id":"free"},{"bike_id":"39df1d00-7893-4a5a-8010-268dcd896a29","system_id":"levelo_inurba_marseille","lat":43.308012,"lon":5.381511,"is_reserved":false,"is_disabled":false,"rental_uris":{"android":"levelo://app?vid=39df1d00-7893-4a5a-8010-268dcd896a29","ios":"levelo://app?vid=39df1d00-7893-4a5a-8010-268dcd896a29"},"vehicle_type_id":"4","last_reported":1704674219,"current_range_meters":31200,"station_id":"ce4bgt12rcd13ifvqce0","pricing_plan_id":"free"},{"bike_id":"75fb655f-7ccd-46ef-bd5d-4c45a6369881","system_id":"levelo_inurba_marseille","lat":43.308012,"lon":5.381511,"is_reserved":false,"is_disabled":false,"rental_uris":{"android":"levelo://app?vid=75fb655f-7ccd-46ef-bd5d-4c45a6369881","ios":"levelo://app?vid=75fb655f-7ccd-46ef-bd5d-4c45a6369881"},"vehicle_type_id":"4","last_reported":1704674219,"current_range_meters":1200,"station_id":"ce4bgt12rcd13ifvqce0","pricing_plan_id":"free"},{"bike_id":"e41acb79-248a-43ef-8999-68f6514849c9","system_id":"levelo_inurba_marseille","lat":43.304606,"lon":5.379026,"is_reserved":false,"is_disabled":false,"rental_uris":{"android":"levelo://app?vid=e41acb79-248a-43ef-8999-68f6514849c9","ios":"levelo://app?vid=e41acb79-248a-43ef-8999-68f6514849c9"},"vehicle_type_id":"4","last_reported":1704674219,"current_range_meters":30000,"station_id":"ce4bgup2rcd13ifvqcn0","pricing_plan_id":"free"},{"bike_id":"50495549-09ae-43f8-8ade-f352a56d8ac4","system_id":"levelo_inurba_marseille","lat":43.304606,"lon":5.379026,"is_reserved":false,"is_disabled":false,"rental_uris":{"android":"levelo://app?vid=50495549-09ae-43f8-8ade-f352a56d8ac4","ios":"levelo://app?vid=50495549-09ae-43f8-8ade-f352a56d8ac4"},"vehicle_type_id":"4","last_reported":1704674219,"current_range_meters":28000,"station_id":"ce4bgup2rcd13ifvqcn0","pricing_plan_id":"free"},{"bike_id":"df2d1d2f-b592-479c-bf22-20329818d5fe","system_id":"levelo_inurba_marseille","lat":43.324771,"lon":5.36557,"is_reserved":false,"is_disabled":false,"rental_uris":{"android":"levelo://app?vid=df2d1d2f-b592-479c-bf22-20329818d5fe","ios":"levelo://app?vid=df2d1d2f-b592-479c-bf22-20329818d5fe"},"vehicle_type_id":"4","last_reported":1704674219,"current_range_meters":21600,"station_id":"ce4bhs12rcd13ifvqhvg","pricing_plan_id":"free"},{"bike_id":"7016b837-46e9-4637-95cf-02e2c5743a4a","system_id":"levelo_inurba_marseille","lat":43.324771,"lon":5.36557,"is_reserved":false,"is_disabled":false,"rental_uris":{"android":"levelo://app?vid=7016b837-46e9-4637-95cf-02e2c5743a4a","ios":"levelo://app?vid=7016b837-46e9-4637-95cf-02e2c5743a4a"},"vehicle_type_id":"4","last_reported":1704674219,"current_range_meters":19200,"station_id":"ce4bhs12rcd13ifvqhvg","pricing_plan_id":"free"},{"bike_id":"2aa100e7-2671-4c1b-a1f0-ab7832afcbad","system_id":"levelo_inurba_marseille","lat":43.324771,"lon":5.36557,"is_reserved":false,"is_disabled":false,"rental_uris":{"android":"levelo://app?vid=2aa100e7-2671-4c1b-a1f0-ab7832afcbad","ios":"levelo://app?vid=2aa100e7-2671-4c1b-a1f0-ab7832afcbad"},"vehicle_type_id":"4","last_reported":1704674219,"current_range_meters":23600,"station_id":"ce4bhs12rcd13ifvqhvg","pricing_plan_id":"free"},{"bike_id":"9a5d20fc-5739-4188-aece-a966211e1333","system_id":"levelo_inurba_marseille","lat":43.324771,"lon":5.36557,"is_reserved":false,"is_disabled":false,"rental_uris":{"android":"levelo://app?vid=9a5d20fc-5739-4188-aece-a966211e1333","ios":"levelo://app?vid=9a5d20fc-5739-4188-aece-a966211e1333"},"vehicle_type_id":"4","last_reported":1704674219,"current_range_meters":12800,"station_id":"ce4bhs12rcd13ifvqhvg","pricing_plan_id":"free"},{"bike_id":"390a0dfa-725a-405e-955e-b3fed9fd48ac","system_id":"levelo_inurba_marseille","lat":43.30288,"lon":5.37699,"is_reserved":false,"is_disabled":false,"rental_uris":{"android":"levelo://app?vid=390a0dfa-725a-405e-955e-b3fed9fd48ac","ios":"levelo://app?vid=390a0dfa-725a-405e-955e-b3fed9fd48ac"},"vehicle_type_id":"4","last_reported":1704674219,"current_range_meters":0,"station_id":"","pricing_plan_id":"free"},{"bike_id":"5cdb613b-3680-4609-91e6-a007d90c2ad8","system_id":"levelo_inurba_marseille","lat":43.30143,"lon":5.37413,"is_reserved":false,"is_disabled":false,"rental_uris":{"android":"levelo://app?vid=5cdb613b-3680-4609-91e6-a007d90c2ad8","ios":"levelo://app?vid=5cdb613b-3680-4609-91e6-a007d90c2ad8"},"vehicle_type_id":"4","last_reported":1704674219,"current_range_meters":25600,"station_id":"ce4bgs92rcd13ifvqcc0","pricing_plan_id":"free"},{"bike_id":"32da13ed-6769-465e-8a53-2ccf4eff17c0","system_id":"levelo_inurba_marseille","lat":43.30143,"lon":5.37413,"is_reserved":false,"is_disabled":false,"rental_uris":{"android":"levelo://app?vid=32da13ed-6769-465e-8a53-2ccf4eff17c0","ios":"levelo://app?vid=32da13ed-6769-465e-8a53-2ccf4eff17c0"},"vehicle_type_id":"4","last_reported":1704674219,"current_range_meters":26400,"station_id":"ce4bgs92rcd13ifvqcc0","pricing_plan_id":"free"},{"bike_id":"5a561eea-0a52-4a9d-8a3c-ffcea76ff050","system_id":"levelo_inurba_marseille","lat":43.30411,"lon":5.379373,"is_reserved":false,"is_disabled":false,"rental_uris":{"android":"levelo://app?vid=5a561eea-0a52-4a9d-8a3c-ffcea76ff050","ios":"levelo://app?vid=5a561eea-0a52-4a9d-8a3c-ffcea76ff050"},"vehicle_type_id":"4","last_reported":1704674219,"current_range_meters":4000,"station_id":"","pricing_plan_id":"free"},{"bike_id":"3b895bb9-7233-4d46-99c9-62a50ed78e04","system_id":"levelo_inurba_marseille","lat":43.319935,"lon":5.381699,"is_reserved":false,"is_disabled":false,"rental_uris":{"android":"levelo://app?vid=3b895bb9-7233-4d46-99c9-62a50ed78e04","ios":"levelo://app?vid=3b895bb9-7233-4d46-99c9-62a50ed78e04"},"vehicle_type_id":"4","last_reported":1704674219,"current_range_meters":11200,"station_id":"ce4bhr12rcd13ifvqhpg","pricing_plan_id":"free"},{"bike_id":"b0b70358-3844-4c87-8ab7-6ae53c22f40b","system_id":"levelo_inurba_marseille","lat":43.313571,"lon":5.384829,"is_reserved":false,"is_disabled":false,"rental_uris":{"android":"levelo://app?vid=b0b70358-3844-4c87-8ab7-6ae53c22f40b","ios":"levelo://app?vid=b0b70358-3844-4c87-8ab7-6ae53c22f40b"},"vehicle_type_id":"4","last_reported":1704674219,"current_range_meters":26000,"station_id":"ce4bgt92rcd13ifvqcf0","pricing_plan_id":"free"},{"bike_id":"3931d105-ff65-4921-9e0c-31a0e33ea608","system_id":"levelo_inurba_marseille","lat":43.313571,"lon":5.384829,"is_reserved":false,"is_disabled":false,"rental_uris":{"android":"levelo://app?vid=3931d105-ff65-4921-9e0c-31a0e33ea608","ios":"levelo://app?vid=3931d105-ff65-4921-9e0c-31a0e33ea608"},"vehicle_type_id":"4","last_reported":1704674219,"current_range_meters":32000,"station_id":"ce4bgt92rcd13ifvqcf0","pricing_plan_id":"free"},{"bike_id":"adcf2b35-51df-4a71-919b-a579b484c8b0","system_id":"levelo_inurba_marseille","lat":43.313571,"lon":5.384829,"is_reserved":false,"is_disabled":false,"rental_uris":{"android":"levelo://app?vid=adcf2b35-51df-4a71-919b-a579b484c8b0","ios":"levelo://app?vid=adcf2b35-51df-4a71-919b-a579b484c8b0"},"vehicle_type_id":"4","last_reported":1704674219,"current_range_meters":23600,"station_id":"ce4bgt92rcd13ifvqcf0","pricing_plan_id":"free"},{"bike_id":"b1b25950-ea0a-4d2a-8443-22e392518349","system_id":"levelo_inurba_marseille","lat":43.313571,"lon":5.384829,"is_reserved":false,"is_disabled":false,"rental_uris":{"android":"levelo://app?vid=b1b25950-ea0a-4d2a-8443-22e392518349","ios":"levelo://app?vid=b1b25950-ea0a-4d2a-8443-22e392518349"},"vehicle_type_id":"4","last_reported":1704674219,"current_range_meters":10000,"station_id":"ce4bgt92rcd13ifvqcf0","pricing_plan_id":"free"},{"bike_id":"17504bde-947a-4cd6-98b3-9a4c66aca99b","system_id":"levelo_inurba_marseille","lat":43.313827,"lon":5.385007,"is_reserved":false,"is_disabled":false,"rental_uris":{"android":"levelo://app?vid=17504bde-947a-4cd6-98b3-9a4c66aca99b","ios":"levelo://app?vid=17504bde-947a-4cd6-98b3-9a4c66aca99b"},"vehicle_type_id":"4","last_reported":1704674219,"current_range_meters":0,"station_id":"","pricing_plan_id":"free"},{"bike_id":"f5f482e3-d57a-41b6-a02a-219602f18024","system_id":"levelo_inurba_marseille","lat":43.313571,"lon":5.384829,"is_reserved":false,"is_disabled":false,"rental_uris":{"android":"levelo://app?vid=f5f482e3-d57a-41b6-a02a-219602f18024","ios":"levelo://app?vid=f5f482e3-d57a-41b6-a02a-219602f18024"},"vehicle_type_id":"4","last_reported":1704674219,"current_range_meters":24800,"station_id":"ce4bgt92rcd13ifvqcf0","pricing_plan_id":"free"},{"bike_id":"0eb32ac2-a88f-4300-b22f-71882fc48395","system_id":"levelo_inurba_marseille","lat":43.313571,"lon":5.384829,"is_reserved":false,"is_disabled":false,"rental_uris":{"android":"levelo://app?vid=0eb32ac2-a88f-4300-b22f-71882fc48395","ios":"levelo://app?vid=0eb32ac2-a88f-4300-b22f-71882fc48395"},"vehicle_type_id":"4","last_reported":1704674219,"current_range_meters":14400,"station_id":"ce4bgt92rcd13ifvqcf0","pricing_plan_id":"free"},{"bike_id":"97bf5000-aae4-4158-ad17-50edc7d5b1e8","system_id":"levelo_inurba_marseille","lat":43.299724,"lon":5.371829,"is_reserved":false,"is_disabled":false,"rental_uris":{"android":"levelo://app?vid=97bf5000-aae4-4158-ad17-50edc7d5b1e8","ios":"levelo://app?vid=97bf5000-aae4-4158-ad17-50edc7d5b1e8"},"vehicle_type_id":"4","last_reported":1704674219,"current_range_meters":30400,"station_id":"ce4bgr92rcd13ifvqc7g","pricing_plan_id":"free"},{"bike_id":"b22604ec-0c4b-41b4-a20e-38add68f7682","system_id":"levelo_inurba_marseille","lat":43.32573,"lon":5.37485,"is_reserved":false,"is_disabled":false,"rental_uris":{"android":"levelo://app?vid=b22604ec-0c4b-41b4-a20e-38add68f7682","ios":"levelo://app?vid=b22604ec-0c4b-41b4-a20e-38add68f7682"},"vehicle_type_id":"4","last_reported":1704674219,"current_range_meters":6800,"station_id":"","pricing_plan_id":"free"},{"bike_id":"90f624c9-e920-42f0-bdb2-c7157855cdc0","system_id":"levelo_inurba_marseille","lat":43.311543,"lon":5.386814,"is_reserved":false,"is_disabled":false,"rental_uris":{"android":"levelo://app?vid=90f624c9-e920-42f0-bdb2-c7157855cdc0","ios":"levelo://app?vid=90f624c9-e920-42f0-bdb2-c7157855cdc0"},"vehicle_type_id":"4","last_reported":1704674219,"current_range_meters":6800,"station_id":"ce4bgv12rcd13ifvqcp0","pricing_plan_id":"free"},{"bike_id":"8e09100d-d712-49a4-899e-602e898f32e3","system_id":"levelo_inurba_marseille","lat":43.299243,"lon":5.37481,"is_reserved":false,"is_disabled":false,"rental_uris":{"android":"levelo://app?vid=8e09100d-d712-49a4-899e-602e898f32e3","ios":"levelo://app?vid=8e09100d-d712-49a4-899e-602e898f32e3"},"vehicle_type_id":"4","last_reported":1704674219,"current_range_meters":23600,"station_id":"ce4bgjh2rcd13ifvqbg0","pricing_plan_id":"free"},{"bike_id":"680602da-adab-4120-bc8d-24b8f29344c5","system_id":"levelo_inurba_marseille","lat":43.311722,"lon":5.387247,"is_reserved":false,"is_disabled":false,"rental_uris":{"android":"levelo://app?vid=680602da-adab-4120-bc8d-24b8f29344c5","ios":"levelo://app?vid=680602da-adab-4120-bc8d-24b8f29344c5"},"vehicle_type_id":"4","last_reported":1704674219,"current_range_meters":25600,"station_id":"ce4bgv12rcd13ifvqcp0","pricing_plan_id":"free"},{"bike_id":"b22a17aa-5dc1-4f6c-a1cb-08379ac1f808","system_id":"levelo_inurba_marseille","lat":43.322872,"lon":5.382756,"is_reserved":false,"is_disabled":false,"rental_uris":{"android":"levelo://app?vid=b22a17aa-5dc1-4f6c-a1cb-08379ac1f808","ios":"levelo://app?vid=b22a17aa-5dc1-4f6c-a1cb-08379ac1f808"},"vehicle_type_id":"4","last_reported":1704674219,"current_range_meters":30400,"station_id":"ce4bhr12rcd13ifvqhqg","pricing_plan_id":"free"},{"bike_id":"cc495013-a9b7-4492-a4e4-0f0aca4a9939","system_id":"levelo_inurba_marseille","lat":43.32286,"lon":5.382698,"is_reserved":false,"is_disabled":false,"rental_uris":{"android":"levelo://app?vid=cc495013-a9b7-4492-a4e4-0f0aca4a9939","ios":"levelo://app?vid=cc495013-a9b7-4492-a4e4-0f0aca4a9939"},"vehicle_type_id":"4","last_reported":1704674219,"current_range_meters":5200,"station_id":"ce4bhr12rcd13ifvqhqg","pricing_plan_id":"free"},{"bike_id":"297a7823-4b34-45b3-8282-c78d31cc9f05","system_id":"levelo_inurba_marseille","lat":43.32285,"lon":5.38275,"is_reserved":false,"is_disabled":false,"rental_uris":{"android":"levelo://app?vid=297a7823-4b34-45b3-8282-c78d31cc9f05","ios":"levelo://app?vid=297a7823-4b34-45b3-8282-c78d31cc9f05"},"vehicle_type_id":"4","last_reported":1704674219,"current_range_meters":27600,"station_id":"ce4bhr12rcd13ifvqhqg","pricing_plan_id":"free"},{"bike_id":"09da622d-5ec6-4261-a95d-695d32c570ab","system_id":"levelo_inurba_marseille","lat":43.32287,"lon":5.382791,"is_reserved":false,"is_disabled":false,"rental_uris":{"android":"levelo://app?vid=09da622d-5ec6-4261-a95d-695d32c570ab","ios":"levelo://app?vid=09da622d-5ec6-4261-a95d-695d32c570ab"},"vehicle_type_id":"4","last_reported":1704674219,"current_range_meters":8400,"station_id":"ce4bhr12rcd13ifvqhqg","pricing_plan_id":"free"},{"bike_id":"387c1dff-fb7e-4547-838e-1af3f69c4219","system_id":"levelo_inurba_marseille","lat":43.32823,"lon":5.36678,"is_reserved":false,"is_disabled":false,"rental_uris":{"android":"levelo://app?vid=387c1dff-fb7e-4547-838e-1af3f69c4219","ios":"levelo://app?vid=387c1dff-fb7e-4547-838e-1af3f69c4219"},"vehicle_type_id":"4","last_reported":1704674219,"current_range_meters":20800,"station_id":"ce4bhs92rcd13ifvqi0g","pricing_plan_id":"free"},{"bike_id":"5021f406-3153-4a9e-a450-00a19314acbe","system_id":"levelo_inurba_marseille","lat":43.32823,"lon":5.36674,"is_reserved":false,"is_disabled":false,"rental_uris":{"android":"levelo://app?vid=5021f406-3153-4a9e-a450-00a19314acbe","ios":"levelo://app?vid=5021f406-3153-4a9e-a450-00a19314acbe"},"vehicle_type_id":"4","last_reported":1704674219,"current_range_meters":29600,"station_id":"ce4bhs92rcd13ifvqi0g","pricing_plan_id":"free"},{"bike_id":"48de57f3-12a8-4253-90b5-aab66c42162c","system_id":"levelo_inurba_marseille","lat":43.328236,"lon":5.36679,"is_reserved":false,"is_disabled":false,"rental_uris":{"android":"levelo://app?vid=48de57f3-12a8-4253-90b5-aab66c42162c","ios":"levelo://app?vid=48de57f3-12a8-4253-90b5-aab66c42162c"},"vehicle_type_id":"4","last_reported":1704674219,"current_range_meters":15600,"station_id":"ce4bhs92rcd13ifvqi0g","pricing_plan_id":"free"},{"bike_id":"c224ea64-7bb8-45be-8a3a-d137d9e17684","system_id":"levelo_inurba_marseille","lat":43.32824,"lon":5.36678,"is_reserved":false,"is_disabled":false,"rental_uris":{"android":"levelo://app?vid=c224ea64-7bb8-45be-8a3a-d137d9e17684","ios":"levelo://app?vid=c224ea64-7bb8-45be-8a3a-d137d9e17684"},"vehicle_type_id":"4","last_reported":1704674219,"current_range_meters":11600,"station_id":"ce4bhs92rcd13ifvqi0g","pricing_plan_id":"free"},{"bike_id":"ca02ca89-8dd5-4fc4-9a30-db37a36b7ff7","system_id":"levelo_inurba_marseille","lat":43.328241,"lon":5.366769,"is_reserved":false,"is_disabled":false,"rental_uris":{"android":"levelo://app?vid=ca02ca89-8dd5-4fc4-9a30-db37a36b7ff7","ios":"levelo://app?vid=ca02ca89-8dd5-4fc4-9a30-db37a36b7ff7"},"vehicle_type_id":"4","last_reported":1704674219,"current_range_meters":26800,"station_id":"ce4bhs92rcd13ifvqi0g","pricing_plan_id":"free"},{"bike_id":"a791cb05-0716-4f7c-bfab-5cd10f4022f6","system_id":"levelo_inurba_marseille","lat":43.32825,"lon":5.36678,"is_reserved":false,"is_disabled":false,"rental_uris":{"android":"levelo://app?vid=a791cb05-0716-4f7c-bfab-5cd10f4022f6","ios":"levelo://app?vid=a791cb05-0716-4f7c-bfab-5cd10f4022f6"},"vehicle_type_id":"4","last_reported":1704674219,"current_range_meters":14800,"station_id":"ce4bhs92rcd13ifvqi0g","pricing_plan_id":"free"},{"bike_id":"66addf4b-70b7-4ac4-8e17-37956e9ecfbb","system_id":"levelo_inurba_marseille","lat":43.328258,"lon":5.36684,"is_reserved":false,"is_disabled":false,"rental_uris":{"android":"levelo://app?vid=66addf4b-70b7-4ac4-8e17-37956e9ecfbb","ios":"levelo://app?vid=66addf4b-70b7-4ac4-8e17-37956e9ecfbb"},"vehicle_type_id":"4","last_reported":1704674219,"current_range_meters":17600,"station_id":"ce4bhs92rcd13ifvqi0g","pricing_plan_id":"free"},{"bike_id":"72905f78-9c33-4138-8385-d331d9223abd","system_id":"levelo_inurba_marseille","lat":43.32827,"lon":5.36681,"is_reserved":false,"is_disabled":false,"rental_uris":{"android":"levelo://app?vid=72905f78-9c33-4138-8385-d331d9223abd","ios":"levelo://app?vid=72905f78-9c33-4138-8385-d331d9223abd"},"vehicle_type_id":"4","last_reported":1704674219,"current_range_meters":12800,"station_id":"ce4bhs92rcd13ifvqi0g","pricing_plan_id":"free"},{"bike_id":"8341e063-523f-4d25-880b-99eb6edf220f","system_id":"levelo_inurba_marseille","lat":43.32829,"lon":5.36676,"is_reserved":false,"is_disabled":false,"rental_uris":{"android":"levelo://app?vid=8341e063-523f-4d25-880b-99eb6edf220f","ios":"levelo://app?vid=8341e063-523f-4d25-880b-99eb6edf220f"},"vehicle_type_id":"4","last_reported":1704674219,"current_range_meters":13600,"station_id":"ce4bhs92rcd13ifvqi0g","pricing_plan_id":"free"},{"bike_id":"42895378-a21e-445b-8e89-325727904609","system_id":"levelo_inurba_marseille","lat":43.328371,"lon":5.366909,"is_reserved":false,"is_disabled":false,"rental_uris":{"android":"levelo://app?vid=42895378-a21e-445b-8e89-325727904609","ios":"levelo://app?vid=42895378-a21e-445b-8e89-325727904609"},"vehicle_type_id":"4","last_reported":1704674219,"current_range_meters":20000,"station_id":"ce4bhs92rcd13ifvqi0g","pricing_plan_id":"free"},{"bike_id":"ee966a52-c4f3-4b5b-b8b2-c85b17eb5fb4","system_id":"levelo_inurba_marseille","lat":43.328371,"lon":5.366909,"is_reserved":false,"is_disabled":false,"rental_uris":{"android":"levelo://app?vid=ee966a52-c4f3-4b5b-b8b2-c85b17eb5fb4","ios":"levelo://app?vid=ee966a52-c4f3-4b5b-b8b2-c85b17eb5fb4"},"vehicle_type_id":"4","last_reported":1704674219,"current_range_meters":14000,"station_id":"ce4bhs92rcd13ifvqi0g","pricing_plan_id":"free"},{"bike_id":"e22d5d66-2c33-444c-9a95-5d6517dd879c","system_id":"levelo_inurba_marseille","lat":43.328371,"lon":5.366909,"is_reserved":false,"is_disabled":false,"rental_uris":{"android":"levelo://app?vid=e22d5d66-2c33-444c-9a95-5d6517dd879c","ios":"levelo://app?vid=e22d5d66-2c33-444c-9a95-5d6517dd879c"},"vehicle_type_id":"4","last_reported":1704674219,"current_range_meters":4000,"station_id":"ce4bhs92rcd13ifvqi0g","pricing_plan_id":"free"},{"bike_id":"0725f2a6-de18-43ea-a245-f699ddc19b55","system_id":"levelo_inurba_marseille","lat":43.328371,"lon":5.366909,"is_reserved":false,"is_disabled":false,"rental_uris":{"android":"levelo://app?vid=0725f2a6-de18-43ea-a245-f699ddc19b55","ios":"levelo://app?vid=0725f2a6-de18-43ea-a245-f699ddc19b55"},"vehicle_type_id":"4","last_reported":1704674219,"current_range_meters":6000,"station_id":"ce4bhs92rcd13ifvqi0g","pricing_plan_id":"free"},{"bike_id":"9383789e-2a1a-4049-a767-e1f78cbdfc52","system_id":"levelo_inurba_marseille","lat":43.328371,"lon":5.366909,"is_reserved":false,"is_disabled":false,"rental_uris":{"android":"levelo://app?vid=9383789e-2a1a-4049-a767-e1f78cbdfc52","ios":"levelo://app?vid=9383789e-2a1a-4049-a767-e1f78cbdfc52"},"vehicle_type_id":"4","last_reported":1704674219,"current_range_meters":15600,"station_id":"ce4bhs92rcd13ifvqi0g","pricing_plan_id":"free"},{"bike_id":"064b14d2-f3e9-43be-a725-c95d6c66fd15","system_id":"levelo_inurba_marseille","lat":43.328371,"lon":5.366909,"is_reserved":false,"is_disabled":false,"rental_uris":{"android":"levelo://app?vid=064b14d2-f3e9-43be-a725-c95d6c66fd15","ios":"levelo://app?vid=064b14d2-f3e9-43be-a725-c95d6c66fd15"},"vehicle_type_id":"4","last_reported":1704674219,"current_range_meters":20400,"station_id":"ce4bhs92rcd13ifvqi0g","pricing_plan_id":"free"},{"bike_id":"aad8c4aa-27cf-4afb-b43f-3d3771ded244","system_id":"levelo_inurba_marseille","lat":43.297163,"lon":5.365866,"is_reserved":false,"is_disabled":false,"rental_uris":{"android":"levelo://app?vid=aad8c4aa-27cf-4afb-b43f-3d3771ded244","ios":"levelo://app?vid=aad8c4aa-27cf-4afb-b43f-3d3771ded244"},"vehicle_type_id":"4","last_reported":1704674219,"current_range_meters":11600,"station_id":"ce4bgn12rcd13ifvqbt0","pricing_plan_id":"free"},{"bike_id":"43f47c35-ec23-411b-b2fa-7957e35eab11","system_id":"levelo_inurba_marseille","lat":43.328371,"lon":5.366909,"is_reserved":false,"is_disabled":false,"rental_uris":{"android":"levelo://app?vid=43f47c35-ec23-411b-b2fa-7957e35eab11","ios":"levelo://app?vid=43f47c35-ec23-411b-b2fa-7957e35eab11"},"vehicle_type_id":"4","last_reported":1704674219,"current_range_meters":8400,"station_id":"ce4bhs92rcd13ifvqi0g","pricing_plan_id":"free"},{"bike_id":"13b4ff1c-b5e7-483e-b26e-e758eee6f6d4","system_id":"levelo_inurba_marseille","lat":43.2968,"lon":5.37291,"is_reserved":false,"is_disabled":false,"rental_uris":{"android":"levelo://app?vid=13b4ff1c-b5e7-483e-b26e-e758eee6f6d4","ios":"levelo://app?vid=13b4ff1c-b5e7-483e-b26e-e758eee6f6d4"},"vehicle_type_id":"4","last_reported":1704674219,"current_range_meters":26400,"station_id":"ce4bgk12rcd13ifvqbj0","pricing_plan_id":"free"},{"bike_id":"700734c4-0361-4940-a20b-7e1892400ca7","system_id":"levelo_inurba_marseille","lat":43.299028,"lon":5.381509,"is_reserved":false,"is_disabled":false,"rental_uris":{"android":"levelo://app?vid=700734c4-0361-4940-a20b-7e1892400ca7","ios":"levelo://app?vid=700734c4-0361-4940-a20b-7e1892400ca7"},"vehicle_type_id":"4","last_reported":1704674219,"current_range_meters":29600,"station_id":"ce4bgj12rcd13ifvqbc0","pricing_plan_id":"free"},{"bike_id":"cd63022c-174c-445c-82a9-0734a79f51a3","system_id":"levelo_inurba_marseille","lat":43.309589,"lon":5.390258,"is_reserved":false,"is_disabled":false,"rental_uris":{"android":"levelo://app?vid=cd63022c-174c-445c-82a9-0734a79f51a3","ios":"levelo://app?vid=cd63022c-174c-445c-82a9-0734a79f51a3"},"vehicle_type_id":"4","last_reported":1704674219,"current_range_meters":28800,"station_id":"ce4bgup2rcd13ifvqco0","pricing_plan_id":"free"},{"bike_id":"83d4a2a9-2de8-4ea4-816a-cd0aa0b903dd","system_id":"levelo_inurba_marseille","lat":43.309589,"lon":5.390258,"is_reserved":false,"is_disabled":false,"rental_uris":{"android":"levelo://app?vid=83d4a2a9-2de8-4ea4-816a-cd0aa0b903dd","ios":"levelo://app?vid=83d4a2a9-2de8-4ea4-816a-cd0aa0b903dd"},"vehicle_type_id":"4","last_reported":1704674219,"current_range_meters":28800,"station_id":"ce4bgup2rcd13ifvqco0","pricing_plan_id":"free"},{"bike_id":"61476850-c4de-413e-970d-a92f8daf3fa4","system_id":"levelo_inurba_marseille","lat":43.317557,"lon":5.390173,"is_reserved":false,"is_disabled":false,"rental_uris":{"android":"levelo://app?vid=61476850-c4de-413e-970d-a92f8daf3fa4","ios":"levelo://app?vid=61476850-c4de-413e-970d-a92f8daf3fa4"},"vehicle_type_id":"4","last_reported":1704674219,"current_range_meters":7200,"station_id":"ce4bhqp2rcd13ifvqhng","pricing_plan_id":"free"},{"bike_id":"2a5f0946-7ccd-4287-8ff6-6a83c5e85a85","system_id":"levelo_inurba_marseille","lat":43.309589,"lon":5.390258,"is_reserved":false,"is_disabled":false,"rental_uris":{"android":"levelo://app?vid=2a5f0946-7ccd-4287-8ff6-6a83c5e85a85","ios":"levelo://app?vid=2a5f0946-7ccd-4287-8ff6-6a83c5e85a85"},"vehicle_type_id":"4","last_reported":1704674219,"current_range_meters":22800,"station_id":"ce4bgup2rcd13ifvqco0","pricing_plan_id":"free"},{"bike_id":"34f69dbf-8e5f-4125-8bb4-d00f66d37abf","system_id":"levelo_inurba_marseille","lat":43.317557,"lon":5.390173,"is_reserved":false,"is_disabled":false,"rental_uris":{"android":"levelo://app?vid=34f69dbf-8e5f-4125-8bb4-d00f66d37abf","ios":"levelo://app?vid=34f69dbf-8e5f-4125-8bb4-d00f66d37abf"},"vehicle_type_id":"4","last_reported":1704674219,"current_range_meters":22000,"station_id":"ce4bhqp2rcd13ifvqhng","pricing_plan_id":"free"},{"bike_id":"53ca5172-cfdf-4293-9da1-a285e228bc20","system_id":"levelo_inurba_marseille","lat":43.317557,"lon":5.390173,"is_reserved":false,"is_disabled":false,"rental_uris":{"android":"levelo://app?vid=53ca5172-cfdf-4293-9da1-a285e228bc20","ios":"levelo://app?vid=53ca5172-cfdf-4293-9da1-a285e228bc20"},"vehicle_type_id":"4","last_reported":1704674219,"current_range_meters":27600,"station_id":"ce4bhqp2rcd13ifvqhng","pricing_plan_id":"free"},{"bike_id":"851f5fea-8323-496c-9ac7-fefca932e732","system_id":"levelo_inurba_marseille","lat":43.317557,"lon":5.390173,"is_reserved":false,"is_disabled":false,"rental_uris":{"android":"levelo://app?vid=851f5fea-8323-496c-9ac7-fefca932e732","ios":"levelo://app?vid=851f5fea-8323-496c-9ac7-fefca932e732"},"vehicle_type_id":"4","last_reported":1704674219,"current_range_meters":30400,"station_id":"ce4bhqp2rcd13ifvqhng","pricing_plan_id":"free"},{"bike_id":"b7413d6a-edd8-420c-9a03-945d7b1ff7d7","system_id":"levelo_inurba_marseille","lat":43.317557,"lon":5.390173,"is_reserved":false,"is_disabled":false,"rental_uris":{"android":"levelo://app?vid=b7413d6a-edd8-420c-9a03-945d7b1ff7d7","ios":"levelo://app?vid=b7413d6a-edd8-420c-9a03-945d7b1ff7d7"},"vehicle_type_id":"4","last_reported":1704674219,"current_range_meters":18000,"station_id":"ce4bhqp2rcd13ifvqhng","pricing_plan_id":"free"},{"bike_id":"38862af0-fa44-4c70-9b4a-0a115ec9e9c9","system_id":"levelo_inurba_marseille","lat":43.317557,"lon":5.390173,"is_reserved":false,"is_disabled":false,"rental_uris":{"android":"levelo://app?vid=38862af0-fa44-4c70-9b4a-0a115ec9e9c9","ios":"levelo://app?vid=38862af0-fa44-4c70-9b4a-0a115ec9e9c9"},"vehicle_type_id":"4","last_reported":1704674219,"current_range_meters":32000,"station_id":"ce4bhqp2rcd13ifvqhng","pricing_plan_id":"free"},{"bike_id":"9cd9c501-8c6a-4065-8f51-55d91fdaca99","system_id":"levelo_inurba_marseille","lat":43.304274,"lon":5.388873,"is_reserved":false,"is_disabled":false,"rental_uris":{"android":"levelo://app?vid=9cd9c501-8c6a-4065-8f51-55d91fdaca99","ios":"levelo://app?vid=9cd9c501-8c6a-4065-8f51-55d91fdaca99"},"vehicle_type_id":"4","last_reported":1704674219,"current_range_meters":28000,"station_id":"ce4bgk12rcd13ifvqbi0","pricing_plan_id":"free"},{"bike_id":"60873d91-00a0-4298-b576-5b15f46f254b","system_id":"levelo_inurba_marseille","lat":43.296163,"lon":5.377093,"is_reserved":false,"is_disabled":false,"rental_uris":{"android":"levelo://app?vid=60873d91-00a0-4298-b576-5b15f46f254b","ios":"levelo://app?vid=60873d91-00a0-4298-b576-5b15f46f254b"},"vehicle_type_id":"4","last_reported":1704674219,"current_range_meters":8800,"station_id":"ce4bgi92rcd13ifvqb90","pricing_plan_id":"free"},{"bike_id":"f5aa8e7a-d977-43fd-9e1e-f2a48336f450","system_id":"levelo_inurba_marseille","lat":43.298037,"lon":5.381066,"is_reserved":false,"is_disabled":false,"rental_uris":{"android":"levelo://app?vid=f5aa8e7a-d977-43fd-9e1e-f2a48336f450","ios":"levelo://app?vid=f5aa8e7a-d977-43fd-9e1e-f2a48336f450"},"vehicle_type_id":"4","last_reported":1704674219,"current_range_meters":22400,"station_id":"ce4bgip2rcd13ifvqbb0","pricing_plan_id":"free"},{"bike_id":"0efff00c-f67c-49df-b03a-d6db790fb812","system_id":"levelo_inurba_marseille","lat":43.296123,"lon":5.37719,"is_reserved":false,"is_disabled":false,"rental_uris":{"android":"levelo://app?vid=0efff00c-f67c-49df-b03a-d6db790fb812","ios":"levelo://app?vid=0efff00c-f67c-49df-b03a-d6db790fb812"},"vehicle_type_id":"4","last_reported":1704674219,"current_range_meters":24000,"station_id":"ce4bgi92rcd13ifvqb90","pricing_plan_id":"free"},{"bike_id":"204dea3f-87e7-4326-9f54-6cdab23e9e5a","system_id":"levelo_inurba_marseille","lat":43.32367,"lon":5.38874,"is_reserved":false,"is_disabled":false,"rental_uris":{"android":"levelo://app?vid=204dea3f-87e7-4326-9f54-6cdab23e9e5a","ios":"levelo://app?vid=204dea3f-87e7-4326-9f54-6cdab23e9e5a"},"vehicle_type_id":"4","last_reported":1704674219,"current_range_meters":28800,"station_id":"ce4bhqp2rcd13ifvqhog","pricing_plan_id":"free"},{"bike_id":"d231353b-7fd4-4ac2-9500-ea00fcfaa1b8","system_id":"levelo_inurba_marseille","lat":43.32367,"lon":5.388836,"is_reserved":false,"is_disabled":false,"rental_uris":{"android":"levelo://app?vid=d231353b-7fd4-4ac2-9500-ea00fcfaa1b8","ios":"levelo://app?vid=d231353b-7fd4-4ac2-9500-ea00fcfaa1b8"},"vehicle_type_id":"4","last_reported":1704674219,"current_range_meters":4000,"station_id":"ce4bhqp2rcd13ifvqhog","pricing_plan_id":"free"},{"bike_id":"f50de7d3-4799-445d-b2ef-aefe0e6f2d43","system_id":"levelo_inurba_marseille","lat":43.32367,"lon":5.388836,"is_reserved":false,"is_disabled":false,"rental_uris":{"android":"levelo://app?vid=f50de7d3-4799-445d-b2ef-aefe0e6f2d43","ios":"levelo://app?vid=f50de7d3-4799-445d-b2ef-aefe0e6f2d43"},"vehicle_type_id":"4","last_reported":1704674219,"current_range_meters":17600,"station_id":"ce4bhqp2rcd13ifvqhog","pricing_plan_id":"free"},{"bike_id":"77f9acd8-83b5-4086-b571-102739d2b32d","system_id":"levelo_inurba_marseille","lat":43.29602,"lon":5.381084,"is_reserved":false,"is_disabled":false,"rental_uris":{"android":"levelo://app?vid=77f9acd8-83b5-4086-b571-102739d2b32d","ios":"levelo://app?vid=77f9acd8-83b5-4086-b571-102739d2b32d"},"vehicle_type_id":"4","last_reported":1704674219,"current_range_meters":28800,"station_id":"ce4bgl12rcd13ifvqbo0","pricing_plan_id":"free"},{"bike_id":"625e9029-a5b3-4061-a426-9c7f5bdd45c2","system_id":"levelo_inurba_marseille","lat":43.305994,"lon":5.393687,"is_reserved":false,"is_disabled":false,"rental_uris":{"android":"levelo://app?vid=625e9029-a5b3-4061-a426-9c7f5bdd45c2","ios":"levelo://app?vid=625e9029-a5b3-4061-a426-9c7f5bdd45c2"},"vehicle_type_id":"4","last_reported":1704674219,"current_range_meters":30000,"station_id":"ce4bh0p2rcd13ifvqd80","pricing_plan_id":"free"},{"bike_id":"a0b7c1e8-5a82-4da1-a4c7-4a21936d43af","system_id":"levelo_inurba_marseille","lat":43.305994,"lon":5.393687,"is_reserved":false,"is_disabled":false,"rental_uris":{"android":"levelo://app?vid=a0b7c1e8-5a82-4da1-a4c7-4a21936d43af","ios":"levelo://app?vid=a0b7c1e8-5a82-4da1-a4c7-4a21936d43af"},"vehicle_type_id":"4","last_reported":1704674219,"current_range_meters":26400,"station_id":"ce4bh0p2rcd13ifvqd80","pricing_plan_id":"free"},{"bike_id":"77dfd296-4211-42f4-8647-41769c16546a","system_id":"levelo_inurba_marseille","lat":43.2936,"lon":5.37835,"is_reserved":false,"is_disabled":false,"rental_uris":{"android":"levelo://app?vid=77dfd296-4211-42f4-8647-41769c16546a","ios":"levelo://app?vid=77dfd296-4211-42f4-8647-41769c16546a"},"vehicle_type_id":"4","last_reported":1704674219,"current_range_meters":8800,"station_id":"ce4bgjh2rcd13ifvqbf0","pricing_plan_id":"free"},{"bike_id":"ec442a65-1a3d-4c92-b56b-1a0c85d2e5a7","system_id":"levelo_inurba_marseille","lat":43.300852,"lon":5.390859,"is_reserved":false,"is_disabled":false,"rental_uris":{"android":"levelo://app?vid=ec442a65-1a3d-4c92-b56b-1a0c85d2e5a7","ios":"levelo://app?vid=ec442a65-1a3d-4c92-b56b-1a0c85d2e5a7"},"vehicle_type_id":"4","last_reported":1704674219,"current_range_meters":32000,"station_id":"ce4bh192rcd13ifvqdb0","pricing_plan_id":"free"},{"bike_id":"c4017918-c122-45af-b706-6bbb4e007705","system_id":"levelo_inurba_marseille","lat":43.292311,"lon":5.360731,"is_reserved":false,"is_disabled":false,"rental_uris":{"android":"levelo://app?vid=c4017918-c122-45af-b706-6bbb4e007705","ios":"levelo://app?vid=c4017918-c122-45af-b706-6bbb4e007705"},"vehicle_type_id":"4","last_reported":1704674219,"current_range_meters":22000,"station_id":"ce4bhbh2rcd13ifvqeqg","pricing_plan_id":"free"},{"bike_id":"37e3bf0f-87b5-43d4-80c7-bf1136dffdee","system_id":"levelo_inurba_marseille","lat":43.292311,"lon":5.360731,"is_reserved":false,"is_disabled":false,"rental_uris":{"android":"levelo://app?vid=37e3bf0f-87b5-43d4-80c7-bf1136dffdee","ios":"levelo://app?vid=37e3bf0f-87b5-43d4-80c7-bf1136dffdee"},"vehicle_type_id":"4","last_reported":1704674219,"current_range_meters":0,"station_id":"ce4bhbh2rcd13ifvqeqg","pricing_plan_id":"free"},{"bike_id":"d3de800f-5f42-4aaf-b6fe-e15ca53bb686","system_id":"levelo_inurba_marseille","lat":43.300852,"lon":5.390859,"is_reserved":false,"is_disabled":false,"rental_uris":{"android":"levelo://app?vid=d3de800f-5f42-4aaf-b6fe-e15ca53bb686","ios":"levelo://app?vid=d3de800f-5f42-4aaf-b6fe-e15ca53bb686"},"vehicle_type_id":"4","last_reported":1704674219,"current_range_meters":6000,"station_id":"ce4bh192rcd13ifvqdb0","pricing_plan_id":"free"},{"bike_id":"1e724137-fc15-4814-b8a0-c2347dad4acb","system_id":"levelo_inurba_marseille","lat":43.2989,"lon":5.38884,"is_reserved":false,"is_disabled":false,"rental_uris":{"android":"levelo://app?vid=1e724137-fc15-4814-b8a0-c2347dad4acb","ios":"levelo://app?vid=1e724137-fc15-4814-b8a0-c2347dad4acb"},"vehicle_type_id":"4","last_reported":1704674219,"current_range_meters":27200,"station_id":"","pricing_plan_id":"free"},{"bike_id":"68d88274-17c9-4fc3-a393-d35103fb46c1","system_id":"levelo_inurba_marseille","lat":43.309038,"lon":5.396546,"is_reserved":false,"is_disabled":false,"rental_uris":{"android":"levelo://app?vid=68d88274-17c9-4fc3-a393-d35103fb46c1","ios":"levelo://app?vid=68d88274-17c9-4fc3-a393-d35103fb46c1"},"vehicle_type_id":"4","last_reported":1704674219,"current_range_meters":7600,"station_id":"ce4bh012rcd13ifvqcv0","pricing_plan_id":"free"},{"bike_id":"847a226e-c1b4-4332-949b-493aba78b5c1","system_id":"levelo_inurba_marseille","lat":43.291994,"lon":5.357886,"is_reserved":false,"is_disabled":false,"rental_uris":{"android":"levelo://app?vid=847a226e-c1b4-4332-949b-493aba78b5c1","ios":"levelo://app?vid=847a226e-c1b4-4332-949b-493aba78b5c1"},"vehicle_type_id":"4","last_reported":1704674219,"current_range_meters":7600,"station_id":"ce4bhb12rcd13ifvqel0","pricing_plan_id":"free"},{"bike_id":"1c485bad-78f0-46cf-ad29-e03148eb67bd","system_id":"levelo_inurba_marseille","lat":43.309047,"lon":5.396551,"is_reserved":false,"is_disabled":false,"rental_uris":{"android":"levelo://app?vid=1c485bad-78f0-46cf-ad29-e03148eb67bd","ios":"levelo://app?vid=1c485bad-78f0-46cf-ad29-e03148eb67bd"},"vehicle_type_id":"4","last_reported":1704674219,"current_range_meters":27600,"station_id":"ce4bh012rcd13ifvqcv0","pricing_plan_id":"free"},{"bike_id":"4697f0e8-7477-4b8b-ad79-fead01185cdd","system_id":"levelo_inurba_marseille","lat":43.313291,"lon":5.396838,"is_reserved":false,"is_disabled":false,"rental_uris":{"android":"levelo://app?vid=4697f0e8-7477-4b8b-ad79-fead01185cdd","ios":"levelo://app?vid=4697f0e8-7477-4b8b-ad79-fead01185cdd"},"vehicle_type_id":"4","last_reported":1704674219,"current_range_meters":28800,"station_id":"ce4bgvp2rcd13ifvqcu0","pricing_plan_id":"free"},{"bike_id":"3225ef29-6994-4ee7-a893-d2625db87bc9","system_id":"levelo_inurba_marseille","lat":43.309038,"lon":5.396546,"is_reserved":false,"is_disabled":false,"rental_uris":{"android":"levelo://app?vid=3225ef29-6994-4ee7-a893-d2625db87bc9","ios":"levelo://app?vid=3225ef29-6994-4ee7-a893-d2625db87bc9"},"vehicle_type_id":"4","last_reported":1704674219,"current_range_meters":31600,"station_id":"ce4bh012rcd13ifvqcv0","pricing_plan_id":"free"},{"bike_id":"381528b0-d19f-4289-b4ab-ca494aad36ce","system_id":"levelo_inurba_marseille","lat":43.309038,"lon":5.396546,"is_reserved":false,"is_disabled":false,"rental_uris":{"android":"levelo://app?vid=381528b0-d19f-4289-b4ab-ca494aad36ce","ios":"levelo://app?vid=381528b0-d19f-4289-b4ab-ca494aad36ce"},"vehicle_type_id":"4","last_reported":1704674219,"current_range_meters":26400,"station_id":"ce4bh012rcd13ifvqcv0","pricing_plan_id":"free"},{"bike_id":"15fe48bb-d908-4d78-b180-ca4f01b023b0","system_id":"levelo_inurba_marseille","lat":43.313291,"lon":5.396838,"is_reserved":false,"is_disabled":false,"rental_uris":{"android":"levelo://app?vid=15fe48bb-d908-4d78-b180-ca4f01b023b0","ios":"levelo://app?vid=15fe48bb-d908-4d78-b180-ca4f01b023b0"},"vehicle_type_id":"4","last_reported":1704674219,"current_range_meters":25600,"station_id":"ce4bgvp2rcd13ifvqcu0","pricing_plan_id":"free"},{"bike_id":"dfa601fe-29d0-47c4-9e6f-78cb4f07e5d9","system_id":"levelo_inurba_marseille","lat":43.313291,"lon":5.396838,"is_reserved":false,"is_disabled":false,"rental_uris":{"android":"levelo://app?vid=dfa601fe-29d0-47c4-9e6f-78cb4f07e5d9","ios":"levelo://app?vid=dfa601fe-29d0-47c4-9e6f-78cb4f07e5d9"},"vehicle_type_id":"4","last_reported":1704674219,"current_range_meters":20800,"station_id":"ce4bgvp2rcd13ifvqcu0","pricing_plan_id":"free"},{"bike_id":"2535d2d9-3fdc-413e-be08-88887881b22b","system_id":"levelo_inurba_marseille","lat":43.309038,"lon":5.396546,"is_reserved":false,"is_disabled":false,"rental_uris":{"android":"levelo://app?vid=2535d2d9-3fdc-413e-be08-88887881b22b","ios":"levelo://app?vid=2535d2d9-3fdc-413e-be08-88887881b22b"},"vehicle_type_id":"4","last_reported":1704674219,"current_range_meters":28800,"station_id":"ce4bh012rcd13ifvqcv0","pricing_plan_id":"free"},{"bike_id":"89493ea4-81a7-4055-b3b4-c15bed3ac72f","system_id":"levelo_inurba_marseille","lat":43.309047,"lon":5.396551,"is_reserved":false,"is_disabled":false,"rental_uris":{"android":"levelo://app?vid=89493ea4-81a7-4055-b3b4-c15bed3ac72f","ios":"levelo://app?vid=89493ea4-81a7-4055-b3b4-c15bed3ac72f"},"vehicle_type_id":"4","last_reported":1704674219,"current_range_meters":26800,"station_id":"ce4bh012rcd13ifvqcv0","pricing_plan_id":"free"},{"bike_id":"13891aaa-69b1-4f7b-89ca-818cd6913a95","system_id":"levelo_inurba_marseille","lat":43.302622,"lon":5.394118,"is_reserved":false,"is_disabled":false,"rental_uris":{"android":"levelo://app?vid=13891aaa-69b1-4f7b-89ca-818cd6913a95","ios":"levelo://app?vid=13891aaa-69b1-4f7b-89ca-818cd6913a95"},"vehicle_type_id":"4","last_reported":1704674219,"current_range_meters":2000,"station_id":"","pricing_plan_id":"free"},{"bike_id":"8987acdf-201e-4f6d-8027-ee7151708afe","system_id":"levelo_inurba_marseille","lat":43.302008,"lon":5.394694,"is_reserved":false,"is_disabled":false,"rental_uris":{"android":"levelo://app?vid=8987acdf-201e-4f6d-8027-ee7151708afe","ios":"levelo://app?vid=8987acdf-201e-4f6d-8027-ee7151708afe"},"vehicle_type_id":"4","last_reported":1704674219,"current_range_meters":28000,"station_id":"ce4bh0p2rcd13ifvqd70","pricing_plan_id":"free"},{"bike_id":"47a9fee2-a550-4f9e-aafb-0a3296e98895","system_id":"levelo_inurba_marseille","lat":43.302008,"lon":5.394694,"is_reserved":false,"is_disabled":false,"rental_uris":{"android":"levelo://app?vid=47a9fee2-a550-4f9e-aafb-0a3296e98895","ios":"levelo://app?vid=47a9fee2-a550-4f9e-aafb-0a3296e98895"},"vehicle_type_id":"4","last_reported":1704674219,"current_range_meters":24400,"station_id":"ce4bh0p2rcd13ifvqd70","pricing_plan_id":"free"},{"bike_id":"a985de9e-b4b9-478d-ae2b-e67b3613ffa1","system_id":"levelo_inurba_marseille","lat":43.302008,"lon":5.394694,"is_reserved":false,"is_disabled":false,"rental_uris":{"android":"levelo://app?vid=a985de9e-b4b9-478d-ae2b-e67b3613ffa1","ios":"levelo://app?vid=a985de9e-b4b9-478d-ae2b-e67b3613ffa1"},"vehicle_type_id":"4","last_reported":1704674219,"current_range_meters":30000,"station_id":"ce4bh0p2rcd13ifvqd70","pricing_plan_id":"free"},{"bike_id":"0c352422-4e98-4c7a-b10a-9e5130f55543","system_id":"levelo_inurba_marseille","lat":43.290631,"lon":5.359244,"is_reserved":false,"is_disabled":false,"rental_uris":{"android":"levelo://app?vid=0c352422-4e98-4c7a-b10a-9e5130f55543","ios":"levelo://app?vid=0c352422-4e98-4c7a-b10a-9e5130f55543"},"vehicle_type_id":"4","last_reported":1704674219,"current_range_meters":26400,"station_id":"ce4bha92rcd13ifvqeg0","pricing_plan_id":"free"},{"bike_id":"c9ed5d2b-ec49-4ea2-a7ca-2aa6d333d855","system_id":"levelo_inurba_marseille","lat":43.290624,"lon":5.359245,"is_reserved":false,"is_disabled":false,"rental_uris":{"android":"levelo://app?vid=c9ed5d2b-ec49-4ea2-a7ca-2aa6d333d855","ios":"levelo://app?vid=c9ed5d2b-ec49-4ea2-a7ca-2aa6d333d855"},"vehicle_type_id":"4","last_reported":1704674219,"current_range_meters":30400,"station_id":"ce4bha92rcd13ifvqeg0","pricing_plan_id":"free"},{"bike_id":"501e7205-9b47-4b26-b644-3d7de43ff536","system_id":"levelo_inurba_marseille","lat":43.289396,"lon":5.3664,"is_reserved":false,"is_disabled":false,"rental_uris":{"android":"levelo://app?vid=501e7205-9b47-4b26-b644-3d7de43ff536","ios":"levelo://app?vid=501e7205-9b47-4b26-b644-3d7de43ff536"},"vehicle_type_id":"4","last_reported":1704674219,"current_range_meters":22000,"station_id":"ce4bhap2rcd13ifvqek0","pricing_plan_id":"free"},{"bike_id":"ab5f0df8-033b-4ad3-bc35-fa555e12946f","system_id":"levelo_inurba_marseille","lat":43.28934,"lon":5.36636,"is_reserved":false,"is_disabled":false,"rental_uris":{"android":"levelo://app?vid=ab5f0df8-033b-4ad3-bc35-fa555e12946f","ios":"levelo://app?vid=ab5f0df8-033b-4ad3-bc35-fa555e12946f"},"vehicle_type_id":"4","last_reported":1704674219,"current_range_meters":26800,"station_id":"ce4bhap2rcd13ifvqek0","pricing_plan_id":"free"},{"bike_id":"4362b637-72c4-4714-87bd-ccae5115e0e6","system_id":"levelo_inurba_marseille","lat":43.292644,"lon":5.384257,"is_reserved":false,"is_disabled":false,"rental_uris":{"android":"levelo://app?vid=4362b637-72c4-4714-87bd-ccae5115e0e6","ios":"levelo://app?vid=4362b637-72c4-4714-87bd-ccae5115e0e6"},"vehicle_type_id":"4","last_reported":1704674219,"current_range_meters":31200,"station_id":"ce4bh692rcd13ifvqea0","pricing_plan_id":"free"},{"bike_id":"3aff1b3d-0f17-42e3-befc-b6d1854c221c","system_id":"levelo_inurba_marseille","lat":43.30417,"lon":5.39734,"is_reserved":false,"is_disabled":false,"rental_uris":{"android":"levelo://app?vid=3aff1b3d-0f17-42e3-befc-b6d1854c221c","ios":"levelo://app?vid=3aff1b3d-0f17-42e3-befc-b6d1854c221c"},"vehicle_type_id":"4","last_reported":1704674219,"current_range_meters":16400,"station_id":"ce4bh092rcd13ifvqd20","pricing_plan_id":"free"},{"bike_id":"0f245030-54d1-4539-9f32-74b2b3fcd187","system_id":"levelo_inurba_marseille","lat":43.292644,"lon":5.384257,"is_reserved":false,"is_disabled":false,"rental_uris":{"android":"levelo://app?vid=0f245030-54d1-4539-9f32-74b2b3fcd187","ios":"levelo://app?vid=0f245030-54d1-4539-9f32-74b2b3fcd187"},"vehicle_type_id":"4","last_reported":1704674219,"current_range_meters":26000,"station_id":"ce4bh692rcd13ifvqea0","pricing_plan_id":"free"},{"bike_id":"a44f69a3-e41f-4982-a94f-90046cf1c247","system_id":"levelo_inurba_marseille","lat":43.290995,"lon":5.381361,"is_reserved":false,"is_disabled":false,"rental_uris":{"android":"levelo://app?vid=a44f69a3-e41f-4982-a94f-90046cf1c247","ios":"levelo://app?vid=a44f69a3-e41f-4982-a94f-90046cf1c247"},"vehicle_type_id":"4","last_reported":1704674219,"current_range_meters":28800,"station_id":"ce4bh512rcd13ifvqe2g","pricing_plan_id":"free"},{"bike_id":"620d648c-5c01-4b8b-92af-64affa367508","system_id":"levelo_inurba_marseille","lat":43.297815,"lon":5.393548,"is_reserved":false,"is_disabled":false,"rental_uris":{"android":"levelo://app?vid=620d648c-5c01-4b8b-92af-64affa367508","ios":"levelo://app?vid=620d648c-5c01-4b8b-92af-64affa367508"},"vehicle_type_id":"4","last_reported":1704674219,"current_range_meters":24000,"station_id":"chh1huq6cuj3fo74tm60","pricing_plan_id":"free"},{"bike_id":"604d70e1-4bfc-4c1a-ad50-5c45b428d61e","system_id":"levelo_inurba_marseille","lat":43.330442,"lon":5.389148,"is_reserved":false,"is_disabled":false,"rental_uris":{"android":"levelo://app?vid=604d70e1-4bfc-4c1a-ad50-5c45b428d61e","ios":"levelo://app?vid=604d70e1-4bfc-4c1a-ad50-5c45b428d61e"},"vehicle_type_id":"4","last_reported":1704674219,"current_range_meters":16800,"station_id":"ce4bhr92rcd13ifvqhrg","pricing_plan_id":"free"},{"bike_id":"29877edf-f914-4818-a395-be7aee9e9d72","system_id":"levelo_inurba_marseille","lat":43.330442,"lon":5.389148,"is_reserved":false,"is_disabled":false,"rental_uris":{"android":"levelo://app?vid=29877edf-f914-4818-a395-be7aee9e9d72","ios":"levelo://app?vid=29877edf-f914-4818-a395-be7aee9e9d72"},"vehicle_type_id":"4","last_reported":1704674219,"current_range_meters":13200,"station_id":"ce4bhr92rcd13ifvqhrg","pricing_plan_id":"free"},{"bike_id":"f3b8aff6-1573-490f-9079-b945ad399353","system_id":"levelo_inurba_marseille","lat":43.289743,"lon":5.378304,"is_reserved":false,"is_disabled":false,"rental_uris":{"android":"levelo://app?vid=f3b8aff6-1573-490f-9079-b945ad399353","ios":"levelo://app?vid=f3b8aff6-1573-490f-9079-b945ad399353"},"vehicle_type_id":"4","last_reported":1704674219,"current_range_meters":14400,"station_id":"ce4bh9p2rcd13ifvqed0","pricing_plan_id":"free"},{"bike_id":"7c7a6206-545f-4749-ace7-a0c9f17d3062","system_id":"levelo_inurba_marseille","lat":43.330442,"lon":5.389148,"is_reserved":false,"is_disabled":false,"rental_uris":{"android":"levelo://app?vid=7c7a6206-545f-4749-ace7-a0c9f17d3062","ios":"levelo://app?vid=7c7a6206-545f-4749-ace7-a0c9f17d3062"},"vehicle_type_id":"4","last_reported":1704674219,"current_range_meters":11600,"station_id":"ce4bhr92rcd13ifvqhrg","pricing_plan_id":"free"},{"bike_id":"8625464e-66d0-4621-bd34-1a2874fb7a19","system_id":"levelo_inurba_marseille","lat":43.330442,"lon":5.389148,"is_reserved":false,"is_disabled":false,"rental_uris":{"android":"levelo://app?vid=8625464e-66d0-4621-bd34-1a2874fb7a19","ios":"levelo://app?vid=8625464e-66d0-4621-bd34-1a2874fb7a19"},"vehicle_type_id":"4","last_reported":1704674219,"current_range_meters":30000,"station_id":"ce4bhr92rcd13ifvqhrg","pricing_plan_id":"free"},{"bike_id":"57a59c67-703f-4a83-aae5-f27109cb99b9","system_id":"levelo_inurba_marseille","lat":43.330442,"lon":5.389148,"is_reserved":false,"is_disabled":false,"rental_uris":{"android":"levelo://app?vid=57a59c67-703f-4a83-aae5-f27109cb99b9","ios":"levelo://app?vid=57a59c67-703f-4a83-aae5-f27109cb99b9"},"vehicle_type_id":"4","last_reported":1704674219,"current_range_meters":17200,"station_id":"ce4bhr92rcd13ifvqhrg","pricing_plan_id":"free"},{"bike_id":"43bfe4a4-1e80-4f20-82e4-d69d15bc4f61","system_id":"levelo_inurba_marseille","lat":43.2901,"lon":5.381269,"is_reserved":false,"is_disabled":false,"rental_uris":{"android":"levelo://app?vid=43bfe4a4-1e80-4f20-82e4-d69d15bc4f61","ios":"levelo://app?vid=43bfe4a4-1e80-4f20-82e4-d69d15bc4f61"},"vehicle_type_id":"4","last_reported":1704674219,"current_range_meters":29600,"station_id":"ce4bh4p2rcd13ifvqe1g","pricing_plan_id":"free"},{"bike_id":"51e49ad7-a5e2-44ba-aef5-cc1321cffcf6","system_id":"levelo_inurba_marseille","lat":43.28856,"lon":5.358371,"is_reserved":false,"is_disabled":false,"rental_uris":{"android":"levelo://app?vid=51e49ad7-a5e2-44ba-aef5-cc1321cffcf6","ios":"levelo://app?vid=51e49ad7-a5e2-44ba-aef5-cc1321cffcf6"},"vehicle_type_id":"4","last_reported":1704674219,"current_range_meters":22000,"station_id":"ce4bhb12rcd13ifvqem0","pricing_plan_id":"free"},{"bike_id":"a65bc9e7-1650-49dd-a2d6-f19d8c8554df","system_id":"levelo_inurba_marseille","lat":43.28856,"lon":5.358371,"is_reserved":false,"is_disabled":false,"rental_uris":{"android":"levelo://app?vid=a65bc9e7-1650-49dd-a2d6-f19d8c8554df","ios":"levelo://app?vid=a65bc9e7-1650-49dd-a2d6-f19d8c8554df"},"vehicle_type_id":"4","last_reported":1704674219,"current_range_meters":19600,"station_id":"ce4bhb12rcd13ifvqem0","pricing_plan_id":"free"},{"bike_id":"a1a87bdc-0eae-4a7b-b02a-4453fcbd701b","system_id":"levelo_inurba_marseille","lat":43.28856,"lon":5.358371,"is_reserved":false,"is_disabled":false,"rental_uris":{"android":"levelo://app?vid=a1a87bdc-0eae-4a7b-b02a-4453fcbd701b","ios":"levelo://app?vid=a1a87bdc-0eae-4a7b-b02a-4453fcbd701b"},"vehicle_type_id":"4","last_reported":1704674219,"current_range_meters":18800,"station_id":"ce4bhb12rcd13ifvqem0","pricing_plan_id":"free"},{"bike_id":"0076ad9a-038a-4802-b9a7-67a0e35d5ea6","system_id":"levelo_inurba_marseille","lat":43.28856,"lon":5.358371,"is_reserved":false,"is_disabled":false,"rental_uris":{"android":"levelo://app?vid=0076ad9a-038a-4802-b9a7-67a0e35d5ea6","ios":"levelo://app?vid=0076ad9a-038a-4802-b9a7-67a0e35d5ea6"},"vehicle_type_id":"4","last_reported":1704674219,"current_range_meters":29600,"station_id":"ce4bhb12rcd13ifvqem0","pricing_plan_id":"free"},{"bike_id":"d6f00016-2caa-4fb7-ad64-b586fd34b4cf","system_id":"levelo_inurba_marseille","lat":43.306412,"lon":5.401035,"is_reserved":false,"is_disabled":false,"rental_uris":{"android":"levelo://app?vid=d6f00016-2caa-4fb7-ad64-b586fd34b4cf","ios":"levelo://app?vid=d6f00016-2caa-4fb7-ad64-b586fd34b4cf"},"vehicle_type_id":"4","last_reported":1704674219,"current_range_meters":12800,"station_id":"ce4bh112rcd13ifvqda0","pricing_plan_id":"free"},{"bike_id":"b3a9ba89-bb27-4572-bce3-056d68fa3144","system_id":"levelo_inurba_marseille","lat":43.306412,"lon":5.401035,"is_reserved":false,"is_disabled":false,"rental_uris":{"android":"levelo://app?vid=b3a9ba89-bb27-4572-bce3-056d68fa3144","ios":"levelo://app?vid=b3a9ba89-bb27-4572-bce3-056d68fa3144"},"vehicle_type_id":"4","last_reported":1704674219,"current_range_meters":32000,"station_id":"ce4bh112rcd13ifvqda0","pricing_plan_id":"free"},{"bike_id":"a3421f26-c82a-4d35-82df-dfa0359c624c","system_id":"levelo_inurba_marseille","lat":43.30642,"lon":5.401031,"is_reserved":false,"is_disabled":false,"rental_uris":{"android":"levelo://app?vid=a3421f26-c82a-4d35-82df-dfa0359c624c","ios":"levelo://app?vid=a3421f26-c82a-4d35-82df-dfa0359c624c"},"vehicle_type_id":"4","last_reported":1704674219,"current_range_meters":28800,"station_id":"ce4bh112rcd13ifvqda0","pricing_plan_id":"free"},{"bike_id":"cb5673f2-8e00-42b6-9abc-90f0db021c41","system_id":"levelo_inurba_marseille","lat":43.30642,"lon":5.401031,"is_reserved":false,"is_disabled":false,"rental_uris":{"android":"levelo://app?vid=cb5673f2-8e00-42b6-9abc-90f0db021c41","ios":"levelo://app?vid=cb5673f2-8e00-42b6-9abc-90f0db021c41"},"vehicle_type_id":"4","last_reported":1704674219,"current_range_meters":27200,"station_id":"ce4bh112rcd13ifvqda0","pricing_plan_id":"free"},{"bike_id":"9d253311-278c-40b5-8ca8-7d22747ded83","system_id":"levelo_inurba_marseille","lat":43.309371,"lon":5.401449,"is_reserved":false,"is_disabled":false,"rental_uris":{"android":"levelo://app?vid=9d253311-278c-40b5-8ca8-7d22747ded83","ios":"levelo://app?vid=9d253311-278c-40b5-8ca8-7d22747ded83"},"vehicle_type_id":"4","last_reported":1704674219,"current_range_meters":0,"station_id":"ce4bgvp2rcd13ifvqct0","pricing_plan_id":"free"},{"bike_id":"4551aee0-a601-4bbc-b5d3-9e76b365473b","system_id":"levelo_inurba_marseille","lat":43.28727,"lon":5.36078,"is_reserved":false,"is_disabled":false,"rental_uris":{"android":"levelo://app?vid=4551aee0-a601-4bbc-b5d3-9e76b365473b","ios":"levelo://app?vid=4551aee0-a601-4bbc-b5d3-9e76b365473b"},"vehicle_type_id":"4","last_reported":1704674219,"current_range_meters":26000,"station_id":"cki0cbj6b192h4jlfktg","pricing_plan_id":"free"},{"bike_id":"ad40a207-0aa8-49c7-be48-61ba4d5e0e38","system_id":"levelo_inurba_marseille","lat":43.287288,"lon":5.360805,"is_reserved":false,"is_disabled":false,"rental_uris":{"android":"levelo://app?vid=ad40a207-0aa8-49c7-be48-61ba4d5e0e38","ios":"levelo://app?vid=ad40a207-0aa8-49c7-be48-61ba4d5e0e38"},"vehicle_type_id":"4","last_reported":1704674219,"current_range_meters":19600,"station_id":"cki0cbj6b192h4jlfktg","pricing_plan_id":"free"},{"bike_id":"042fda9e-03c2-422c-9eb1-ad7dacd4732e","system_id":"levelo_inurba_marseille","lat":43.287275,"lon":5.360798,"is_reserved":false,"is_disabled":false,"rental_uris":{"android":"levelo://app?vid=042fda9e-03c2-422c-9eb1-ad7dacd4732e","ios":"levelo://app?vid=042fda9e-03c2-422c-9eb1-ad7dacd4732e"},"vehicle_type_id":"4","last_reported":1704674219,"current_range_meters":15200,"station_id":"cki0cbj6b192h4jlfktg","pricing_plan_id":"free"},{"bike_id":"94b3ddfa-090a-43a9-858e-5ccda96b1594","system_id":"levelo_inurba_marseille","lat":43.28727,"lon":5.36078,"is_reserved":false,"is_disabled":false,"rental_uris":{"android":"levelo://app?vid=94b3ddfa-090a-43a9-858e-5ccda96b1594","ios":"levelo://app?vid=94b3ddfa-090a-43a9-858e-5ccda96b1594"},"vehicle_type_id":"4","last_reported":1704674219,"current_range_meters":26400,"station_id":"cki0cbj6b192h4jlfktg","pricing_plan_id":"free"},{"bike_id":"1bc3d37a-1760-4675-9326-081430932173","system_id":"levelo_inurba_marseille","lat":43.28724,"lon":5.36092,"is_reserved":false,"is_disabled":false,"rental_uris":{"android":"levelo://app?vid=1bc3d37a-1760-4675-9326-081430932173","ios":"levelo://app?vid=1bc3d37a-1760-4675-9326-081430932173"},"vehicle_type_id":"4","last_reported":1704674219,"current_range_meters":8400,"station_id":"cki0cbj6b192h4jlfktg","pricing_plan_id":"free"},{"bike_id":"d0d3f525-c414-4457-8e5e-8f0d21170b15","system_id":"levelo_inurba_marseille","lat":43.304708,"lon":5.400736,"is_reserved":false,"is_disabled":false,"rental_uris":{"android":"levelo://app?vid=d0d3f525-c414-4457-8e5e-8f0d21170b15","ios":"levelo://app?vid=d0d3f525-c414-4457-8e5e-8f0d21170b15"},"vehicle_type_id":"4","last_reported":1704674219,"current_range_meters":9200,"station_id":"","pricing_plan_id":"free"},{"bike_id":"78cbef46-88c0-4d52-8fd9-6801cf65847b","system_id":"levelo_inurba_marseille","lat":43.28727,"lon":5.36078,"is_reserved":false,"is_disabled":false,"rental_uris":{"android":"levelo://app?vid=78cbef46-88c0-4d52-8fd9-6801cf65847b","ios":"levelo://app?vid=78cbef46-88c0-4d52-8fd9-6801cf65847b"},"vehicle_type_id":"4","last_reported":1704674219,"current_range_meters":20400,"station_id":"cki0cbj6b192h4jlfktg","pricing_plan_id":"free"},{"bike_id":"c23a8040-7b01-4d2f-949d-bdbfb0e3e476","system_id":"levelo_inurba_marseille","lat":43.287216,"lon":5.360869,"is_reserved":false,"is_disabled":false,"rental_uris":{"android":"levelo://app?vid=c23a8040-7b01-4d2f-949d-bdbfb0e3e476","ios":"levelo://app?vid=c23a8040-7b01-4d2f-949d-bdbfb0e3e476"},"vehicle_type_id":"4","last_reported":1704674219,"current_range_meters":16800,"station_id":"cki0cbj6b192h4jlfktg","pricing_plan_id":"free"},{"bike_id":"e61c9591-cda5-45ca-ac9a-d7d69aff6756","system_id":"levelo_inurba_marseille","lat":43.286961,"lon":5.373785,"is_reserved":false,"is_disabled":false,"rental_uris":{"android":"levelo://app?vid=e61c9591-cda5-45ca-ac9a-d7d69aff6756","ios":"levelo://app?vid=e61c9591-cda5-45ca-ac9a-d7d69aff6756"},"vehicle_type_id":"4","last_reported":1704674219,"current_range_meters":21600,"station_id":"ce4bh3p2rcd13ifvqdq0","pricing_plan_id":"free"},{"bike_id":"83b091a7-ce0d-47e8-aa42-231b8912e805","system_id":"levelo_inurba_marseille","lat":43.295196,"lon":5.39397,"is_reserved":false,"is_disabled":false,"rental_uris":{"android":"levelo://app?vid=83b091a7-ce0d-47e8-aa42-231b8912e805","ios":"levelo://app?vid=83b091a7-ce0d-47e8-aa42-231b8912e805"},"vehicle_type_id":"4","last_reported":1704674219,"current_range_meters":26000,"station_id":"ce4bh292rcd13ifvqdf0","pricing_plan_id":"free"},{"bike_id":"dd7fdad6-088c-45b2-b5c2-6a9ffbdcfcb8","system_id":"levelo_inurba_marseille","lat":43.298681,"lon":5.397225,"is_reserved":false,"is_disabled":false,"rental_uris":{"android":"levelo://app?vid=dd7fdad6-088c-45b2-b5c2-6a9ffbdcfcb8","ios":"levelo://app?vid=dd7fdad6-088c-45b2-b5c2-6a9ffbdcfcb8"},"vehicle_type_id":"4","last_reported":1704674219,"current_range_meters":26400,"station_id":"ce4bh0h2rcd13ifvqd50","pricing_plan_id":"free"},{"bike_id":"76eca19a-eb7d-48ad-803f-1b31773e812b","system_id":"levelo_inurba_marseille","lat":43.286961,"lon":5.373785,"is_reserved":false,"is_disabled":false,"rental_uris":{"android":"levelo://app?vid=76eca19a-eb7d-48ad-803f-1b31773e812b","ios":"levelo://app?vid=76eca19a-eb7d-48ad-803f-1b31773e812b"},"vehicle_type_id":"4","last_reported":1704674219,"current_range_meters":31200,"station_id":"ce4bh3p2rcd13ifvqdq0","pricing_plan_id":"free"},{"bike_id":"3129905b-7d61-4b8b-93a7-d40ba030b3f7","system_id":"levelo_inurba_marseille","lat":43.289307,"lon":5.38406,"is_reserved":false,"is_disabled":false,"rental_uris":{"android":"levelo://app?vid=3129905b-7d61-4b8b-93a7-d40ba030b3f7","ios":"levelo://app?vid=3129905b-7d61-4b8b-93a7-d40ba030b3f7"},"vehicle_type_id":"4","last_reported":1704674219,"current_range_meters":27600,"station_id":"ce4bh612rcd13ifvqe6g","pricing_plan_id":"free"},{"bike_id":"b0d5a761-ee8b-47e0-9a44-ee5eef617eda","system_id":"levelo_inurba_marseille","lat":43.289307,"lon":5.38406,"is_reserved":false,"is_disabled":false,"rental_uris":{"android":"levelo://app?vid=b0d5a761-ee8b-47e0-9a44-ee5eef617eda","ios":"levelo://app?vid=b0d5a761-ee8b-47e0-9a44-ee5eef617eda"},"vehicle_type_id":"4","last_reported":1704674219,"current_range_meters":25600,"station_id":"ce4bh612rcd13ifvqe6g","pricing_plan_id":"free"},{"bike_id":"775402d8-f928-4185-9051-ce1a1f1a96c0","system_id":"levelo_inurba_marseille","lat":43.286039,"lon":5.370679,"is_reserved":false,"is_disabled":false,"rental_uris":{"android":"levelo://app?vid=775402d8-f928-4185-9051-ce1a1f1a96c0","ios":"levelo://app?vid=775402d8-f928-4185-9051-ce1a1f1a96c0"},"vehicle_type_id":"4","last_reported":1704674219,"current_range_meters":28000,"station_id":"ce4bht12rcd13ifvqi60","pricing_plan_id":"free"},{"bike_id":"4ca48828-b76f-4b36-9df2-ad86be569508","system_id":"levelo_inurba_marseille","lat":43.286039,"lon":5.370679,"is_reserved":false,"is_disabled":false,"rental_uris":{"android":"levelo://app?vid=4ca48828-b76f-4b36-9df2-ad86be569508","ios":"levelo://app?vid=4ca48828-b76f-4b36-9df2-ad86be569508"},"vehicle_type_id":"4","last_reported":1704674219,"current_range_meters":31600,"station_id":"ce4bht12rcd13ifvqi60","pricing_plan_id":"free"},{"bike_id":"0f221119-267a-4f7d-a052-c67fe7ca31b8","system_id":"levelo_inurba_marseille","lat":43.286039,"lon":5.370681,"is_reserved":false,"is_disabled":false,"rental_uris":{"android":"levelo://app?vid=0f221119-267a-4f7d-a052-c67fe7ca31b8","ios":"levelo://app?vid=0f221119-267a-4f7d-a052-c67fe7ca31b8"},"vehicle_type_id":"4","last_reported":1704674219,"current_range_meters":17200,"station_id":"ce4bht12rcd13ifvqi60","pricing_plan_id":"free"},{"bike_id":"e9e8caca-0bcc-46f9-b82b-56fe2c67521b","system_id":"levelo_inurba_marseille","lat":43.286039,"lon":5.370681,"is_reserved":false,"is_disabled":false,"rental_uris":{"android":"levelo://app?vid=e9e8caca-0bcc-46f9-b82b-56fe2c67521b","ios":"levelo://app?vid=e9e8caca-0bcc-46f9-b82b-56fe2c67521b"},"vehicle_type_id":"4","last_reported":1704674219,"current_range_meters":11200,"station_id":"ce4bht12rcd13ifvqi60","pricing_plan_id":"free"},{"bike_id":"8695fb65-f1fe-40bd-826d-b48be7094694","system_id":"levelo_inurba_marseille","lat":43.291994,"lon":5.392907,"is_reserved":false,"is_disabled":false,"rental_uris":{"android":"levelo://app?vid=8695fb65-f1fe-40bd-826d-b48be7094694","ios":"levelo://app?vid=8695fb65-f1fe-40bd-826d-b48be7094694"},"vehicle_type_id":"4","last_reported":1704674219,"current_range_meters":2400,"station_id":"ce4bh192rcd13ifvqdd0","pricing_plan_id":"free"},{"bike_id":"15789396-3928-430d-9d93-4182c82332b9","system_id":"levelo_inurba_marseille","lat":43.284538,"lon":5.358657,"is_reserved":false,"is_disabled":false,"rental_uris":{"android":"levelo://app?vid=15789396-3928-430d-9d93-4182c82332b9","ios":"levelo://app?vid=15789396-3928-430d-9d93-4182c82332b9"},"vehicle_type_id":"4","last_reported":1704674219,"current_range_meters":27600,"station_id":"ce4bhah2rcd13ifvqei0","pricing_plan_id":"free"},{"bike_id":"36a1eac0-a778-473c-a36d-19e73c7406f9","system_id":"levelo_inurba_marseille","lat":43.284556,"lon":5.358854,"is_reserved":false,"is_disabled":false,"rental_uris":{"android":"levelo://app?vid=36a1eac0-a778-473c-a36d-19e73c7406f9","ios":"levelo://app?vid=36a1eac0-a778-473c-a36d-19e73c7406f9"},"vehicle_type_id":"4","last_reported":1704674219,"current_range_meters":16400,"station_id":"ce4bhah2rcd13ifvqei0","pricing_plan_id":"free"},{"bike_id":"5fc165d2-35fe-4dec-9117-16a832f03d10","system_id":"levelo_inurba_marseille","lat":43.284523,"lon":5.358952,"is_reserved":false,"is_disabled":false,"rental_uris":{"android":"levelo://app?vid=5fc165d2-35fe-4dec-9117-16a832f03d10","ios":"levelo://app?vid=5fc165d2-35fe-4dec-9117-16a832f03d10"},"vehicle_type_id":"4","last_reported":1704674219,"current_range_meters":10400,"station_id":"ce4bhah2rcd13ifvqei0","pricing_plan_id":"free"},{"bike_id":"327c80cc-07cd-42ec-b8b8-396c0b81d9a9","system_id":"levelo_inurba_marseille","lat":43.284533,"lon":5.358864,"is_reserved":false,"is_disabled":false,"rental_uris":{"android":"levelo://app?vid=327c80cc-07cd-42ec-b8b8-396c0b81d9a9","ios":"levelo://app?vid=327c80cc-07cd-42ec-b8b8-396c0b81d9a9"},"vehicle_type_id":"4","last_reported":1704674219,"current_range_meters":28000,"station_id":"ce4bhah2rcd13ifvqei0","pricing_plan_id":"free"},{"bike_id":"5d012a2c-42bc-4622-b489-2034f0be361e","system_id":"levelo_inurba_marseille","lat":43.294314,"lon":5.397498,"is_reserved":false,"is_disabled":false,"rental_uris":{"android":"levelo://app?vid=5d012a2c-42bc-4622-b489-2034f0be361e","ios":"levelo://app?vid=5d012a2c-42bc-4622-b489-2034f0be361e"},"vehicle_type_id":"4","last_reported":1704674219,"current_range_meters":26000,"station_id":"ce4bh3h2rcd13ifvqdo0","pricing_plan_id":"free"},{"bike_id":"77dcd9db-8541-482e-80ea-3465701dc93c","system_id":"levelo_inurba_marseille","lat":43.28624,"lon":5.35106,"is_reserved":false,"is_disabled":false,"rental_uris":{"android":"levelo://app?vid=77dcd9db-8541-482e-80ea-3465701dc93c","ios":"levelo://app?vid=77dcd9db-8541-482e-80ea-3465701dc93c"},"vehicle_type_id":"4","last_reported":1704674219,"current_range_meters":12400,"station_id":"ce4bhch2rcd13ifvqeug","pricing_plan_id":"free"},{"bike_id":"00b48936-7085-4cf8-b9f8-bfaeaa1c2437","system_id":"levelo_inurba_marseille","lat":43.28623,"lon":5.351,"is_reserved":false,"is_disabled":false,"rental_uris":{"android":"levelo://app?vid=00b48936-7085-4cf8-b9f8-bfaeaa1c2437","ios":"levelo://app?vid=00b48936-7085-4cf8-b9f8-bfaeaa1c2437"},"vehicle_type_id":"4","last_reported":1704674219,"current_range_meters":15600,"station_id":"ce4bhch2rcd13ifvqeug","pricing_plan_id":"free"},{"bike_id":"154efb84-26fc-49e6-ada6-5bf0c44dd6f0","system_id":"levelo_inurba_marseille","lat":43.28618,"lon":5.35105,"is_reserved":false,"is_disabled":false,"rental_uris":{"android":"levelo://app?vid=154efb84-26fc-49e6-ada6-5bf0c44dd6f0","ios":"levelo://app?vid=154efb84-26fc-49e6-ada6-5bf0c44dd6f0"},"vehicle_type_id":"4","last_reported":1704674219,"current_range_meters":29200,"station_id":"ce4bhch2rcd13ifvqeug","pricing_plan_id":"free"},{"bike_id":"201de145-0cbc-41ef-8017-7e3c8bcb89f1","system_id":"levelo_inurba_marseille","lat":43.285856,"lon":5.350771,"is_reserved":false,"is_disabled":false,"rental_uris":{"android":"levelo://app?vid=201de145-0cbc-41ef-8017-7e3c8bcb89f1","ios":"levelo://app?vid=201de145-0cbc-41ef-8017-7e3c8bcb89f1"},"vehicle_type_id":"4","last_reported":1704674219,"current_range_meters":13200,"station_id":"ce4bhch2rcd13ifvqeug","pricing_plan_id":"free"},{"bike_id":"01e59b64-29e9-4e48-86ad-7a3b4b582e04","system_id":"levelo_inurba_marseille","lat":43.285856,"lon":5.350771,"is_reserved":false,"is_disabled":false,"rental_uris":{"android":"levelo://app?vid=01e59b64-29e9-4e48-86ad-7a3b4b582e04","ios":"levelo://app?vid=01e59b64-29e9-4e48-86ad-7a3b4b582e04"},"vehicle_type_id":"4","last_reported":1704674219,"current_range_meters":25200,"station_id":"ce4bhch2rcd13ifvqeug","pricing_plan_id":"free"},{"bike_id":"24eba78a-c372-41c1-bed0-57b50127114e","system_id":"levelo_inurba_marseille","lat":43.28618,"lon":5.35098,"is_reserved":false,"is_disabled":false,"rental_uris":{"android":"levelo://app?vid=24eba78a-c372-41c1-bed0-57b50127114e","ios":"levelo://app?vid=24eba78a-c372-41c1-bed0-57b50127114e"},"vehicle_type_id":"4","last_reported":1704674219,"current_range_meters":18800,"station_id":"ce4bhch2rcd13ifvqeug","pricing_plan_id":"free"},{"bike_id":"e7d08906-0d87-4715-8ffa-bdb9be03abd3","system_id":"levelo_inurba_marseille","lat":43.28617,"lon":5.35101,"is_reserved":false,"is_disabled":false,"rental_uris":{"android":"levelo://app?vid=e7d08906-0d87-4715-8ffa-bdb9be03abd3","ios":"levelo://app?vid=e7d08906-0d87-4715-8ffa-bdb9be03abd3"},"vehicle_type_id":"4","last_reported":1704674219,"current_range_meters":15200,"station_id":"ce4bhch2rcd13ifvqeug","pricing_plan_id":"free"},{"bike_id":"43b3ea92-a636-409a-a2bf-2cfcdf83346d","system_id":"levelo_inurba_marseille","lat":43.285856,"lon":5.350771,"is_reserved":false,"is_disabled":false,"rental_uris":{"android":"levelo://app?vid=43b3ea92-a636-409a-a2bf-2cfcdf83346d","ios":"levelo://app?vid=43b3ea92-a636-409a-a2bf-2cfcdf83346d"},"vehicle_type_id":"4","last_reported":1704674219,"current_range_meters":22000,"station_id":"ce4bhch2rcd13ifvqeug","pricing_plan_id":"free"},{"bike_id":"5688a380-9bf4-41fc-824e-d906fd2a2179","system_id":"levelo_inurba_marseille","lat":43.285856,"lon":5.350771,"is_reserved":false,"is_disabled":false,"rental_uris":{"android":"levelo://app?vid=5688a380-9bf4-41fc-824e-d906fd2a2179","ios":"levelo://app?vid=5688a380-9bf4-41fc-824e-d906fd2a2179"},"vehicle_type_id":"4","last_reported":1704674219,"current_range_meters":10000,"station_id":"ce4bhch2rcd13ifvqeug","pricing_plan_id":"free"},{"bike_id":"8c6eeb45-c128-4b96-b66c-af4f71c249ba","system_id":"levelo_inurba_marseille","lat":43.285856,"lon":5.350771,"is_reserved":false,"is_disabled":false,"rental_uris":{"android":"levelo://app?vid=8c6eeb45-c128-4b96-b66c-af4f71c249ba","ios":"levelo://app?vid=8c6eeb45-c128-4b96-b66c-af4f71c249ba"},"vehicle_type_id":"4","last_reported":1704674219,"current_range_meters":14400,"station_id":"ce4bhch2rcd13ifvqeug","pricing_plan_id":"free"},{"bike_id":"7e545478-533c-4cff-816a-9cd5b9b3b5a2","system_id":"levelo_inurba_marseille","lat":43.28616,"lon":5.35101,"is_reserved":false,"is_disabled":false,"rental_uris":{"android":"levelo://app?vid=7e545478-533c-4cff-816a-9cd5b9b3b5a2","ios":"levelo://app?vid=7e545478-533c-4cff-816a-9cd5b9b3b5a2"},"vehicle_type_id":"4","last_reported":1704674219,"current_range_meters":26800,"station_id":"ce4bhch2rcd13ifvqeug","pricing_plan_id":"free"},{"bike_id":"ab696d19-e390-44ba-b572-f2505948ecd4","system_id":"levelo_inurba_marseille","lat":43.28614,"lon":5.35104,"is_reserved":false,"is_disabled":false,"rental_uris":{"android":"levelo://app?vid=ab696d19-e390-44ba-b572-f2505948ecd4","ios":"levelo://app?vid=ab696d19-e390-44ba-b572-f2505948ecd4"},"vehicle_type_id":"4","last_reported":1704674219,"current_range_meters":28800,"station_id":"ce4bhch2rcd13ifvqeug","pricing_plan_id":"free"},{"bike_id":"dffb7f5d-3b19-429d-ac37-bf521bd72a68","system_id":"levelo_inurba_marseille","lat":43.286094,"lon":5.351016,"is_reserved":false,"is_disabled":false,"rental_uris":{"android":"levelo://app?vid=dffb7f5d-3b19-429d-ac37-bf521bd72a68","ios":"levelo://app?vid=dffb7f5d-3b19-429d-ac37-bf521bd72a68"},"vehicle_type_id":"4","last_reported":1704674219,"current_range_meters":28800,"station_id":"ce4bhch2rcd13ifvqeug","pricing_plan_id":"free"},{"bike_id":"e3115337-7eae-4539-82fe-830d1b9d1580","system_id":"levelo_inurba_marseille","lat":43.283998,"lon":5.375062,"is_reserved":false,"is_disabled":false,"rental_uris":{"android":"levelo://app?vid=e3115337-7eae-4539-82fe-830d1b9d1580","ios":"levelo://app?vid=e3115337-7eae-4539-82fe-830d1b9d1580"},"vehicle_type_id":"4","last_reported":1704674219,"current_range_meters":15600,"station_id":"ce4bh412rcd13ifvqds0","pricing_plan_id":"free"},{"bike_id":"09170a11-a5a4-495d-830c-42bf64224f7b","system_id":"levelo_inurba_marseille","lat":43.286595,"lon":5.386795,"is_reserved":false,"is_disabled":false,"rental_uris":{"android":"levelo://app?vid=09170a11-a5a4-495d-830c-42bf64224f7b","ios":"levelo://app?vid=09170a11-a5a4-495d-830c-42bf64224f7b"},"vehicle_type_id":"4","last_reported":1704674219,"current_range_meters":12800,"station_id":"ce4bh492rcd13ifvqdug","pricing_plan_id":"free"},{"bike_id":"97d9d91d-22fb-41a3-80cd-081a59ed5abf","system_id":"levelo_inurba_marseille","lat":43.319179,"lon":5.407725,"is_reserved":false,"is_disabled":false,"rental_uris":{"android":"levelo://app?vid=97d9d91d-22fb-41a3-80cd-081a59ed5abf","ios":"levelo://app?vid=97d9d91d-22fb-41a3-80cd-081a59ed5abf"},"vehicle_type_id":"4","last_reported":1704674219,"current_range_meters":27200,"station_id":"ce4bhq12rcd13ifvqhig","pricing_plan_id":"free"},{"bike_id":"19ec5f37-e7a1-40dc-a04c-4522d8994ca3","system_id":"levelo_inurba_marseille","lat":43.286595,"lon":5.386795,"is_reserved":false,"is_disabled":false,"rental_uris":{"android":"levelo://app?vid=19ec5f37-e7a1-40dc-a04c-4522d8994ca3","ios":"levelo://app?vid=19ec5f37-e7a1-40dc-a04c-4522d8994ca3"},"vehicle_type_id":"4","last_reported":1704674219,"current_range_meters":23600,"station_id":"ce4bh492rcd13ifvqdug","pricing_plan_id":"free"},{"bike_id":"728c58ac-3ac6-447b-b406-5706c85ad82e","system_id":"levelo_inurba_marseille","lat":43.33717,"lon":5.391857,"is_reserved":false,"is_disabled":false,"rental_uris":{"android":"levelo://app?vid=728c58ac-3ac6-447b-b406-5706c85ad82e","ios":"levelo://app?vid=728c58ac-3ac6-447b-b406-5706c85ad82e"},"vehicle_type_id":"4","last_reported":1704674219,"current_range_meters":27600,"station_id":"ce4bhr92rcd13ifvqhsg","pricing_plan_id":"free"},{"bike_id":"ca041dc8-28ff-460c-b5eb-d44b29c8681b","system_id":"levelo_inurba_marseille","lat":43.323464,"lon":5.406297,"is_reserved":false,"is_disabled":false,"rental_uris":{"android":"levelo://app?vid=ca041dc8-28ff-460c-b5eb-d44b29c8681b","ios":"levelo://app?vid=ca041dc8-28ff-460c-b5eb-d44b29c8681b"},"vehicle_type_id":"4","last_reported":1704674219,"current_range_meters":25200,"station_id":"ce4bhq92rcd13ifvqhjg","pricing_plan_id":"free"},{"bike_id":"747b4a07-a8db-40b3-a2bf-387b48385f47","system_id":"levelo_inurba_marseille","lat":43.323464,"lon":5.406297,"is_reserved":false,"is_disabled":false,"rental_uris":{"android":"levelo://app?vid=747b4a07-a8db-40b3-a2bf-387b48385f47","ios":"levelo://app?vid=747b4a07-a8db-40b3-a2bf-387b48385f47"},"vehicle_type_id":"4","last_reported":1704674219,"current_range_meters":18800,"station_id":"ce4bhq92rcd13ifvqhjg","pricing_plan_id":"free"},{"bike_id":"54bec85a-3ad1-4ccc-9cab-e86a90c0ca6c","system_id":"levelo_inurba_marseille","lat":43.323464,"lon":5.406297,"is_reserved":false,"is_disabled":false,"rental_uris":{"android":"levelo://app?vid=54bec85a-3ad1-4ccc-9cab-e86a90c0ca6c","ios":"levelo://app?vid=54bec85a-3ad1-4ccc-9cab-e86a90c0ca6c"},"vehicle_type_id":"4","last_reported":1704674219,"current_range_meters":32000,"station_id":"ce4bhq92rcd13ifvqhjg","pricing_plan_id":"free"},{"bike_id":"e6e5a06b-c87e-4f2a-8b34-1f7db27939fe","system_id":"levelo_inurba_marseille","lat":43.337168,"lon":5.391825,"is_reserved":false,"is_disabled":false,"rental_uris":{"android":"levelo://app?vid=e6e5a06b-c87e-4f2a-8b34-1f7db27939fe","ios":"levelo://app?vid=e6e5a06b-c87e-4f2a-8b34-1f7db27939fe"},"vehicle_type_id":"4","last_reported":1704674219,"current_range_meters":30000,"station_id":"ce4bhr92rcd13ifvqhsg","pricing_plan_id":"free"},{"bike_id":"9a026a9c-e1f2-43d3-8608-c6ab90da980a","system_id":"levelo_inurba_marseille","lat":43.323464,"lon":5.406297,"is_reserved":false,"is_disabled":false,"rental_uris":{"android":"levelo://app?vid=9a026a9c-e1f2-43d3-8608-c6ab90da980a","ios":"levelo://app?vid=9a026a9c-e1f2-43d3-8608-c6ab90da980a"},"vehicle_type_id":"4","last_reported":1704674219,"current_range_meters":7600,"station_id":"ce4bhq92rcd13ifvqhjg","pricing_plan_id":"free"},{"bike_id":"4f2d6879-e71b-4c31-8419-1a3fbf59a310","system_id":"levelo_inurba_marseille","lat":43.323464,"lon":5.406297,"is_reserved":false,"is_disabled":false,"rental_uris":{"android":"levelo://app?vid=4f2d6879-e71b-4c31-8419-1a3fbf59a310","ios":"levelo://app?vid=4f2d6879-e71b-4c31-8419-1a3fbf59a310"},"vehicle_type_id":"4","last_reported":1704674219,"current_range_meters":13200,"station_id":"ce4bhq92rcd13ifvqhjg","pricing_plan_id":"free"},{"bike_id":"4dbab7c7-7902-4803-94af-695f4a9cd5c2","system_id":"levelo_inurba_marseille","lat":43.288501,"lon":5.393087,"is_reserved":false,"is_disabled":false,"rental_uris":{"android":"levelo://app?vid=4dbab7c7-7902-4803-94af-695f4a9cd5c2","ios":"levelo://app?vid=4dbab7c7-7902-4803-94af-695f4a9cd5c2"},"vehicle_type_id":"4","last_reported":1704674219,"current_range_meters":28000,"station_id":"ce4bh2p2rcd13ifvqdi0","pricing_plan_id":"free"},{"bike_id":"5f984a5a-3bdc-4868-89f4-18c4ab1a3770","system_id":"levelo_inurba_marseille","lat":43.288497,"lon":5.393089,"is_reserved":false,"is_disabled":false,"rental_uris":{"android":"levelo://app?vid=5f984a5a-3bdc-4868-89f4-18c4ab1a3770","ios":"levelo://app?vid=5f984a5a-3bdc-4868-89f4-18c4ab1a3770"},"vehicle_type_id":"4","last_reported":1704674219,"current_range_meters":0,"station_id":"ce4bh2p2rcd13ifvqdi0","pricing_plan_id":"free"},{"bike_id":"54209400-5640-4404-8c95-7f5f40780393","system_id":"levelo_inurba_marseille","lat":43.288501,"lon":5.393087,"is_reserved":false,"is_disabled":false,"rental_uris":{"android":"levelo://app?vid=54209400-5640-4404-8c95-7f5f40780393","ios":"levelo://app?vid=54209400-5640-4404-8c95-7f5f40780393"},"vehicle_type_id":"4","last_reported":1704674219,"current_range_meters":28800,"station_id":"ce4bh2p2rcd13ifvqdi0","pricing_plan_id":"free"},{"bike_id":"d026fd53-4516-4575-9c67-753d40e8e197","system_id":"levelo_inurba_marseille","lat":43.283494,"lon":5.380945,"is_reserved":false,"is_disabled":false,"rental_uris":{"android":"levelo://app?vid=d026fd53-4516-4575-9c67-753d40e8e197","ios":"levelo://app?vid=d026fd53-4516-4575-9c67-753d40e8e197"},"vehicle_type_id":"4","last_reported":1704674219,"current_range_meters":23600,"station_id":"ce4bh412rcd13ifvqdr0","pricing_plan_id":"free"},{"bike_id":"9329076a-0d3e-4112-be77-66dd924dd8e2","system_id":"levelo_inurba_marseille","lat":43.284286,"lon":5.349895,"is_reserved":false,"is_disabled":false,"rental_uris":{"android":"levelo://app?vid=9329076a-0d3e-4112-be77-66dd924dd8e2","ios":"levelo://app?vid=9329076a-0d3e-4112-be77-66dd924dd8e2"},"vehicle_type_id":"4","last_reported":1704674219,"current_range_meters":27600,"station_id":"ce4bhbh2rcd13ifvqepg","pricing_plan_id":"free"},{"bike_id":"74c757a3-57f5-43bc-9cbd-c0caf045d565","system_id":"levelo_inurba_marseille","lat":43.284219,"lon":5.3497,"is_reserved":false,"is_disabled":false,"rental_uris":{"android":"levelo://app?vid=74c757a3-57f5-43bc-9cbd-c0caf045d565","ios":"levelo://app?vid=74c757a3-57f5-43bc-9cbd-c0caf045d565"},"vehicle_type_id":"4","last_reported":1704674219,"current_range_meters":23600,"station_id":"ce4bhbh2rcd13ifvqepg","pricing_plan_id":"free"},{"bike_id":"9117797d-3df0-46d0-9e5c-883fbec69ea3","system_id":"levelo_inurba_marseille","lat":43.284277,"lon":5.349889,"is_reserved":false,"is_disabled":false,"rental_uris":{"android":"levelo://app?vid=9117797d-3df0-46d0-9e5c-883fbec69ea3","ios":"levelo://app?vid=9117797d-3df0-46d0-9e5c-883fbec69ea3"},"vehicle_type_id":"4","last_reported":1704674219,"current_range_meters":31600,"station_id":"ce4bhbh2rcd13ifvqepg","pricing_plan_id":"free"},{"bike_id":"6a1e180d-f929-4d8f-8941-3479abb7bbca","system_id":"levelo_inurba_marseille","lat":43.284251,"lon":5.349827,"is_reserved":false,"is_disabled":false,"rental_uris":{"android":"levelo://app?vid=6a1e180d-f929-4d8f-8941-3479abb7bbca","ios":"levelo://app?vid=6a1e180d-f929-4d8f-8941-3479abb7bbca"},"vehicle_type_id":"4","last_reported":1704674219,"current_range_meters":31600,"station_id":"ce4bhbh2rcd13ifvqepg","pricing_plan_id":"free"},{"bike_id":"65081758-8d5a-417c-ae49-51c913bd9529","system_id":"levelo_inurba_marseille","lat":43.284217,"lon":5.349697,"is_reserved":false,"is_disabled":false,"rental_uris":{"android":"levelo://app?vid=65081758-8d5a-417c-ae49-51c913bd9529","ios":"levelo://app?vid=65081758-8d5a-417c-ae49-51c913bd9529"},"vehicle_type_id":"4","last_reported":1704674219,"current_range_meters":31200,"station_id":"ce4bhbh2rcd13ifvqepg","pricing_plan_id":"free"},{"bike_id":"4714bef9-5f38-4c26-b888-7b40cc11f281","system_id":"levelo_inurba_marseille","lat":43.284191,"lon":5.349874,"is_reserved":false,"is_disabled":false,"rental_uris":{"android":"levelo://app?vid=4714bef9-5f38-4c26-b888-7b40cc11f281","ios":"levelo://app?vid=4714bef9-5f38-4c26-b888-7b40cc11f281"},"vehicle_type_id":"4","last_reported":1704674219,"current_range_meters":31600,"station_id":"ce4bhbh2rcd13ifvqepg","pricing_plan_id":"free"},{"bike_id":"a4994757-30ad-43ed-973a-abef49fb79f6","system_id":"levelo_inurba_marseille","lat":43.289363,"lon":5.396322,"is_reserved":false,"is_disabled":false,"rental_uris":{"android":"levelo://app?vid=a4994757-30ad-43ed-973a-abef49fb79f6","ios":"levelo://app?vid=a4994757-30ad-43ed-973a-abef49fb79f6"},"vehicle_type_id":"4","last_reported":1704674219,"current_range_meters":27600,"station_id":"ce4bh3h2rcd13ifvqdn0","pricing_plan_id":"free"},{"bike_id":"09194f40-338c-48e7-984a-f79a54720ed6","system_id":"levelo_inurba_marseille","lat":43.282744,"lon":5.350533,"is_reserved":false,"is_disabled":false,"rental_uris":{"android":"levelo://app?vid=09194f40-338c-48e7-984a-f79a54720ed6","ios":"levelo://app?vid=09194f40-338c-48e7-984a-f79a54720ed6"},"vehicle_type_id":"4","last_reported":1704674219,"current_range_meters":21600,"station_id":"ce4bhbp2rcd13ifvqerg","pricing_plan_id":"free"},{"bike_id":"d2999070-907e-470e-a12d-1613311bcd08","system_id":"levelo_inurba_marseille","lat":43.292724,"lon":5.401131,"is_reserved":false,"is_disabled":false,"rental_uris":{"android":"levelo://app?vid=d2999070-907e-470e-a12d-1613311bcd08","ios":"levelo://app?vid=d2999070-907e-470e-a12d-1613311bcd08"},"vehicle_type_id":"4","last_reported":1704674219,"current_range_meters":30000,"station_id":"ce4bh312rcd13ifvqdk0","pricing_plan_id":"free"},{"bike_id":"ce6c28bc-41f0-4e30-9b0b-8bcde8c39f38","system_id":"levelo_inurba_marseille","lat":43.283502,"lon":5.386471,"is_reserved":false,"is_disabled":false,"rental_uris":{"android":"levelo://app?vid=ce6c28bc-41f0-4e30-9b0b-8bcde8c39f38","ios":"levelo://app?vid=ce6c28bc-41f0-4e30-9b0b-8bcde8c39f38"},"vehicle_type_id":"4","last_reported":1704674219,"current_range_meters":400,"station_id":"ce4bh492rcd13ifvqdvg","pricing_plan_id":"free"},{"bike_id":"0c58910e-8ce9-4b39-97aa-93db621c0721","system_id":"levelo_inurba_marseille","lat":43.283502,"lon":5.386471,"is_reserved":false,"is_disabled":false,"rental_uris":{"android":"levelo://app?vid=0c58910e-8ce9-4b39-97aa-93db621c0721","ios":"levelo://app?vid=0c58910e-8ce9-4b39-97aa-93db621c0721"},"vehicle_type_id":"4","last_reported":1704674219,"current_range_meters":30000,"station_id":"ce4bh492rcd13ifvqdvg","pricing_plan_id":"free"},{"bike_id":"a6390eb2-a31b-4be9-95cc-27b9d360d427","system_id":"levelo_inurba_marseille","lat":43.283617,"lon":5.386431,"is_reserved":false,"is_disabled":false,"rental_uris":{"android":"levelo://app?vid=a6390eb2-a31b-4be9-95cc-27b9d360d427","ios":"levelo://app?vid=a6390eb2-a31b-4be9-95cc-27b9d360d427"},"vehicle_type_id":"4","last_reported":1704674219,"current_range_meters":0,"station_id":"ce4bh492rcd13ifvqdvg","pricing_plan_id":"free"},{"bike_id":"8c00c5ac-8505-424c-aeae-0339335ebb65","system_id":"levelo_inurba_marseille","lat":43.29041,"lon":5.399634,"is_reserved":false,"is_disabled":false,"rental_uris":{"android":"levelo://app?vid=8c00c5ac-8505-424c-aeae-0339335ebb65","ios":"levelo://app?vid=8c00c5ac-8505-424c-aeae-0339335ebb65"},"vehicle_type_id":"4","last_reported":1704674219,"current_range_meters":16400,"station_id":"ce4bh392rcd13ifvqdm0","pricing_plan_id":"free"},{"bike_id":"760bda0e-ad66-4ab9-ab90-8a7d3fb59182","system_id":"levelo_inurba_marseille","lat":43.290412,"lon":5.399633,"is_reserved":false,"is_disabled":false,"rental_uris":{"android":"levelo://app?vid=760bda0e-ad66-4ab9-ab90-8a7d3fb59182","ios":"levelo://app?vid=760bda0e-ad66-4ab9-ab90-8a7d3fb59182"},"vehicle_type_id":"4","last_reported":1704674219,"current_range_meters":27600,"station_id":"ce4bh392rcd13ifvqdm0","pricing_plan_id":"free"},{"bike_id":"2ca10c7c-5243-4929-b994-135705821736","system_id":"levelo_inurba_marseille","lat":43.296263,"lon":5.40601,"is_reserved":false,"is_disabled":false,"rental_uris":{"android":"levelo://app?vid=2ca10c7c-5243-4929-b994-135705821736","ios":"levelo://app?vid=2ca10c7c-5243-4929-b994-135705821736"},"vehicle_type_id":"4","last_reported":1704674219,"current_range_meters":24800,"station_id":"ce4bh0h2rcd13ifvqd60","pricing_plan_id":"free"},{"bike_id":"eb2736b8-ddaf-46da-95f4-bfc548e4508c","system_id":"levelo_inurba_marseille","lat":43.281044,"lon":5.378308,"is_reserved":false,"is_disabled":false,"rental_uris":{"android":"levelo://app?vid=eb2736b8-ddaf-46da-95f4-bfc548e4508c","ios":"levelo://app?vid=eb2736b8-ddaf-46da-95f4-bfc548e4508c"},"vehicle_type_id":"4","last_reported":1704674219,"current_range_meters":29200,"station_id":"ce4bha12rcd13ifvqee0","pricing_plan_id":"free"},{"bike_id":"5495bc00-3b3e-4ef6-9b09-925470e71b82","system_id":"levelo_inurba_marseille","lat":43.284462,"lon":5.392121,"is_reserved":false,"is_disabled":false,"rental_uris":{"android":"levelo://app?vid=5495bc00-3b3e-4ef6-9b09-925470e71b82","ios":"levelo://app?vid=5495bc00-3b3e-4ef6-9b09-925470e71b82"},"vehicle_type_id":"4","last_reported":1704674219,"current_range_meters":26400,"station_id":"ce4bhoh2rcd13ifvqh5g","pricing_plan_id":"free"},{"bike_id":"c1f0e4f3-dbea-4280-ba0f-ced32c56b927","system_id":"levelo_inurba_marseille","lat":43.284462,"lon":5.392121,"is_reserved":false,"is_disabled":false,"rental_uris":{"android":"levelo://app?vid=c1f0e4f3-dbea-4280-ba0f-ced32c56b927","ios":"levelo://app?vid=c1f0e4f3-dbea-4280-ba0f-ced32c56b927"},"vehicle_type_id":"4","last_reported":1704674219,"current_range_meters":28000,"station_id":"ce4bhoh2rcd13ifvqh5g","pricing_plan_id":"free"},{"bike_id":"b71f329e-3e60-4679-95cd-8bd58aa7741c","system_id":"levelo_inurba_marseille","lat":43.284462,"lon":5.392121,"is_reserved":false,"is_disabled":false,"rental_uris":{"android":"levelo://app?vid=b71f329e-3e60-4679-95cd-8bd58aa7741c","ios":"levelo://app?vid=b71f329e-3e60-4679-95cd-8bd58aa7741c"},"vehicle_type_id":"4","last_reported":1704674219,"current_range_meters":29200,"station_id":"ce4bhoh2rcd13ifvqh5g","pricing_plan_id":"free"},{"bike_id":"3c20101a-5c5e-4d73-9bb0-309dd553784f","system_id":"levelo_inurba_marseille","lat":43.28573,"lon":5.394992,"is_reserved":false,"is_disabled":false,"rental_uris":{"android":"levelo://app?vid=3c20101a-5c5e-4d73-9bb0-309dd553784f","ios":"levelo://app?vid=3c20101a-5c5e-4d73-9bb0-309dd553784f"},"vehicle_type_id":"4","last_reported":1704674219,"current_range_meters":32000,"station_id":"ce4bh292rcd13ifvqdg0","pricing_plan_id":"free"},{"bike_id":"c6fc5391-4430-407d-b273-6fd13b0dcda4","system_id":"levelo_inurba_marseille","lat":43.28573,"lon":5.394992,"is_reserved":false,"is_disabled":false,"rental_uris":{"android":"levelo://app?vid=c6fc5391-4430-407d-b273-6fd13b0dcda4","ios":"levelo://app?vid=c6fc5391-4430-407d-b273-6fd13b0dcda4"},"vehicle_type_id":"4","last_reported":1704674219,"current_range_meters":10400,"station_id":"ce4bh292rcd13ifvqdg0","pricing_plan_id":"free"},{"bike_id":"bda88bd1-7ec6-4bcc-9b2a-2e7679347bed","system_id":"levelo_inurba_marseille","lat":43.28573,"lon":5.394992,"is_reserved":false,"is_disabled":false,"rental_uris":{"android":"levelo://app?vid=bda88bd1-7ec6-4bcc-9b2a-2e7679347bed","ios":"levelo://app?vid=bda88bd1-7ec6-4bcc-9b2a-2e7679347bed"},"vehicle_type_id":"4","last_reported":1704674219,"current_range_meters":6000,"station_id":"ce4bh292rcd13ifvqdg0","pricing_plan_id":"free"},{"bike_id":"a0d20dd8-a3b3-4fa3-a6e9-2896226abf35","system_id":"levelo_inurba_marseille","lat":43.3266,"lon":5.40987,"is_reserved":false,"is_disabled":false,"rental_uris":{"android":"levelo://app?vid=a0d20dd8-a3b3-4fa3-a6e9-2896226abf35","ios":"levelo://app?vid=a0d20dd8-a3b3-4fa3-a6e9-2896226abf35"},"vehicle_type_id":"4","last_reported":1704674219,"current_range_meters":5200,"station_id":"","pricing_plan_id":"free"},{"bike_id":"5a738bd9-dc0f-452a-9a31-4033b8244259","system_id":"levelo_inurba_marseille","lat":43.304188,"lon":5.412904,"is_reserved":false,"is_disabled":false,"rental_uris":{"android":"levelo://app?vid=5a738bd9-dc0f-452a-9a31-4033b8244259","ios":"levelo://app?vid=5a738bd9-dc0f-452a-9a31-4033b8244259"},"vehicle_type_id":"4","last_reported":1704674219,"current_range_meters":28400,"station_id":"ce4bhop2rcd13ifvqh8g","pricing_plan_id":"free"},{"bike_id":"91c645d6-71f9-491e-9b49-0ba5f28b5fc7","system_id":"levelo_inurba_marseille","lat":43.279087,"lon":5.380114,"is_reserved":false,"is_disabled":false,"rental_uris":{"android":"levelo://app?vid=91c645d6-71f9-491e-9b49-0ba5f28b5fc7","ios":"levelo://app?vid=91c645d6-71f9-491e-9b49-0ba5f28b5fc7"},"vehicle_type_id":"4","last_reported":1704674219,"current_range_meters":32000,"station_id":"ce4bhf92rcd13ifvqf50","pricing_plan_id":"free"},{"bike_id":"8c43d867-7621-45cc-b0c6-b54ef667f206","system_id":"levelo_inurba_marseille","lat":43.279087,"lon":5.380114,"is_reserved":false,"is_disabled":false,"rental_uris":{"android":"levelo://app?vid=8c43d867-7621-45cc-b0c6-b54ef667f206","ios":"levelo://app?vid=8c43d867-7621-45cc-b0c6-b54ef667f206"},"vehicle_type_id":"4","last_reported":1704674219,"current_range_meters":19600,"station_id":"ce4bhf92rcd13ifvqf50","pricing_plan_id":"free"},{"bike_id":"12cfcec6-fa4d-41f4-9f19-c761baabc13a","system_id":"levelo_inurba_marseille","lat":43.287154,"lon":5.399979,"is_reserved":false,"is_disabled":false,"rental_uris":{"android":"levelo://app?vid=12cfcec6-fa4d-41f4-9f19-c761baabc13a","ios":"levelo://app?vid=12cfcec6-fa4d-41f4-9f19-c761baabc13a"},"vehicle_type_id":"4","last_reported":1704674219,"current_range_meters":10000,"station_id":"ce4bho92rcd13ifvqh3g","pricing_plan_id":"free"},{"bike_id":"f85ef102-940a-47fc-9759-b18b7654fc79","system_id":"levelo_inurba_marseille","lat":43.287154,"lon":5.399979,"is_reserved":false,"is_disabled":false,"rental_uris":{"android":"levelo://app?vid=f85ef102-940a-47fc-9759-b18b7654fc79","ios":"levelo://app?vid=f85ef102-940a-47fc-9759-b18b7654fc79"},"vehicle_type_id":"4","last_reported":1704674219,"current_range_meters":30400,"station_id":"ce4bho92rcd13ifvqh3g","pricing_plan_id":"free"},{"bike_id":"ffdba0b6-fb83-45a0-87f2-0b265213d53e","system_id":"levelo_inurba_marseille","lat":43.287154,"lon":5.399979,"is_reserved":false,"is_disabled":false,"rental_uris":{"android":"levelo://app?vid=ffdba0b6-fb83-45a0-87f2-0b265213d53e","ios":"levelo://app?vid=ffdba0b6-fb83-45a0-87f2-0b265213d53e"},"vehicle_type_id":"4","last_reported":1704674219,"current_range_meters":28000,"station_id":"ce4bho92rcd13ifvqh3g","pricing_plan_id":"free"},{"bike_id":"c6b979a1-646f-43bc-a945-52466ef43c2b","system_id":"levelo_inurba_marseille","lat":43.28712,"lon":5.40024,"is_reserved":false,"is_disabled":false,"rental_uris":{"android":"levelo://app?vid=c6b979a1-646f-43bc-a945-52466ef43c2b","ios":"levelo://app?vid=c6b979a1-646f-43bc-a945-52466ef43c2b"},"vehicle_type_id":"4","last_reported":1704674219,"current_range_meters":25600,"station_id":"ce4bho92rcd13ifvqh3g","pricing_plan_id":"free"},{"bike_id":"b0060db1-acfa-404c-8b22-3b01fe03b468","system_id":"levelo_inurba_marseille","lat":43.279742,"lon":5.38744,"is_reserved":false,"is_disabled":false,"rental_uris":{"android":"levelo://app?vid=b0060db1-acfa-404c-8b22-3b01fe03b468","ios":"levelo://app?vid=b0060db1-acfa-404c-8b22-3b01fe03b468"},"vehicle_type_id":"4","last_reported":1704674219,"current_range_meters":26400,"station_id":"ce4bhg12rcd13ifvqf80","pricing_plan_id":"free"},{"bike_id":"2dc8f3d0-5e90-43a1-9403-6b5e28fc116d","system_id":"levelo_inurba_marseille","lat":43.27618,"lon":5.361009,"is_reserved":false,"is_disabled":false,"rental_uris":{"android":"levelo://app?vid=2dc8f3d0-5e90-43a1-9403-6b5e28fc116d","ios":"levelo://app?vid=2dc8f3d0-5e90-43a1-9403-6b5e28fc116d"},"vehicle_type_id":"4","last_reported":1704674219,"current_range_meters":20400,"station_id":"ce4bgj92rcd13ifvqbe0","pricing_plan_id":"free"},{"bike_id":"523863fa-e6fa-4b14-8884-602c332d5c4d","system_id":"levelo_inurba_marseille","lat":43.27618,"lon":5.361009,"is_reserved":false,"is_disabled":false,"rental_uris":{"android":"levelo://app?vid=523863fa-e6fa-4b14-8884-602c332d5c4d","ios":"levelo://app?vid=523863fa-e6fa-4b14-8884-602c332d5c4d"},"vehicle_type_id":"4","last_reported":1704674219,"current_range_meters":28400,"station_id":"ce4bgj92rcd13ifvqbe0","pricing_plan_id":"free"},{"bike_id":"72a5756a-b282-4368-a100-de977146136c","system_id":"levelo_inurba_marseille","lat":43.276179,"lon":5.361009,"is_reserved":false,"is_disabled":false,"rental_uris":{"android":"levelo://app?vid=72a5756a-b282-4368-a100-de977146136c","ios":"levelo://app?vid=72a5756a-b282-4368-a100-de977146136c"},"vehicle_type_id":"4","last_reported":1704674219,"current_range_meters":28800,"station_id":"ce4bgj92rcd13ifvqbe0","pricing_plan_id":"free"},{"bike_id":"17322b9d-f7b4-4df3-8d2b-b8cefe8acb8d","system_id":"levelo_inurba_marseille","lat":43.27618,"lon":5.361009,"is_reserved":false,"is_disabled":false,"rental_uris":{"android":"levelo://app?vid=17322b9d-f7b4-4df3-8d2b-b8cefe8acb8d","ios":"levelo://app?vid=17322b9d-f7b4-4df3-8d2b-b8cefe8acb8d"},"vehicle_type_id":"4","last_reported":1704674219,"current_range_meters":12000,"station_id":"ce4bgj92rcd13ifvqbe0","pricing_plan_id":"free"},{"bike_id":"6839e748-dc98-4408-8bd8-32786d880019","system_id":"levelo_inurba_marseille","lat":43.280755,"lon":5.39657,"is_reserved":false,"is_disabled":false,"rental_uris":{"android":"levelo://app?vid=6839e748-dc98-4408-8bd8-32786d880019","ios":"levelo://app?vid=6839e748-dc98-4408-8bd8-32786d880019"},"vehicle_type_id":"4","last_reported":1704674219,"current_range_meters":12400,"station_id":"","pricing_plan_id":"free"},{"bike_id":"f048df00-4a27-4271-a2b8-a3075c65d656","system_id":"levelo_inurba_marseille","lat":43.303837,"lon":5.418724,"is_reserved":false,"is_disabled":false,"rental_uris":{"android":"levelo://app?vid=f048df00-4a27-4271-a2b8-a3075c65d656","ios":"levelo://app?vid=f048df00-4a27-4271-a2b8-a3075c65d656"},"vehicle_type_id":"4","last_reported":1704674219,"current_range_meters":25200,"station_id":"ce4bhop2rcd13ifvqh7g","pricing_plan_id":"free"},{"bike_id":"fba911de-24ed-44b3-9638-3159465196b8","system_id":"levelo_inurba_marseille","lat":43.303837,"lon":5.418724,"is_reserved":false,"is_disabled":false,"rental_uris":{"android":"levelo://app?vid=fba911de-24ed-44b3-9638-3159465196b8","ios":"levelo://app?vid=fba911de-24ed-44b3-9638-3159465196b8"},"vehicle_type_id":"4","last_reported":1704674219,"current_range_meters":32000,"station_id":"ce4bhop2rcd13ifvqh7g","pricing_plan_id":"free"},{"bike_id":"3064ed36-cadb-4a40-88b8-487d718a350c","system_id":"levelo_inurba_marseille","lat":43.278399,"lon":5.392139,"is_reserved":false,"is_disabled":false,"rental_uris":{"android":"levelo://app?vid=3064ed36-cadb-4a40-88b8-487d718a350c","ios":"levelo://app?vid=3064ed36-cadb-4a40-88b8-487d718a350c"},"vehicle_type_id":"4","last_reported":1704674219,"current_range_meters":26400,"station_id":"ce4bhjp2rcd13ifvqga0","pricing_plan_id":"free"},{"bike_id":"5866ec10-ffbd-4e2c-90a7-186700fd7059","system_id":"levelo_inurba_marseille","lat":43.278401,"lon":5.392152,"is_reserved":false,"is_disabled":false,"rental_uris":{"android":"levelo://app?vid=5866ec10-ffbd-4e2c-90a7-186700fd7059","ios":"levelo://app?vid=5866ec10-ffbd-4e2c-90a7-186700fd7059"},"vehicle_type_id":"4","last_reported":1704674219,"current_range_meters":30000,"station_id":"ce4bhjp2rcd13ifvqga0","pricing_plan_id":"free"},{"bike_id":"de323003-cdb1-41b7-9053-867b9cc167c1","system_id":"levelo_inurba_marseille","lat":43.278399,"lon":5.392139,"is_reserved":false,"is_disabled":false,"rental_uris":{"android":"levelo://app?vid=de323003-cdb1-41b7-9053-867b9cc167c1","ios":"levelo://app?vid=de323003-cdb1-41b7-9053-867b9cc167c1"},"vehicle_type_id":"4","last_reported":1704674219,"current_range_meters":27600,"station_id":"ce4bhjp2rcd13ifvqga0","pricing_plan_id":"free"},{"bike_id":"0feeea24-b1ed-498b-8518-267b7c530738","system_id":"levelo_inurba_marseille","lat":43.278399,"lon":5.392139,"is_reserved":false,"is_disabled":false,"rental_uris":{"android":"levelo://app?vid=0feeea24-b1ed-498b-8518-267b7c530738","ios":"levelo://app?vid=0feeea24-b1ed-498b-8518-267b7c530738"},"vehicle_type_id":"4","last_reported":1704674219,"current_range_meters":14800,"station_id":"ce4bhjp2rcd13ifvqga0","pricing_plan_id":"free"},{"bike_id":"b834387e-9e8d-42c3-95f4-75df872f984f","system_id":"levelo_inurba_marseille","lat":43.336134,"lon":5.410341,"is_reserved":false,"is_disabled":false,"rental_uris":{"android":"levelo://app?vid=b834387e-9e8d-42c3-95f4-75df872f984f","ios":"levelo://app?vid=b834387e-9e8d-42c3-95f4-75df872f984f"},"vehicle_type_id":"4","last_reported":1704674219,"current_range_meters":23600,"station_id":"ce4bhqh2rcd13ifvqhmg","pricing_plan_id":"free"},{"bike_id":"8bd54d2a-e77f-41a5-82c0-048a4b4e4100","system_id":"levelo_inurba_marseille","lat":43.336148,"lon":5.410349,"is_reserved":false,"is_disabled":false,"rental_uris":{"android":"levelo://app?vid=8bd54d2a-e77f-41a5-82c0-048a4b4e4100","ios":"levelo://app?vid=8bd54d2a-e77f-41a5-82c0-048a4b4e4100"},"vehicle_type_id":"4","last_reported":1704674219,"current_range_meters":28800,"station_id":"ce4bhqh2rcd13ifvqhmg","pricing_plan_id":"free"},{"bike_id":"d91c3b50-981c-4c81-a683-25f543ca5b69","system_id":"levelo_inurba_marseille","lat":43.275625,"lon":5.384392,"is_reserved":false,"is_disabled":false,"rental_uris":{"android":"levelo://app?vid=d91c3b50-981c-4c81-a683-25f543ca5b69","ios":"levelo://app?vid=d91c3b50-981c-4c81-a683-25f543ca5b69"},"vehicle_type_id":"4","last_reported":1704674219,"current_range_meters":31600,"station_id":"ce4bhh92rcd13ifvqfi0","pricing_plan_id":"free"},