{"last_updated":1729206543,"ttl":60,"version":"2.2","data":{"bikes":[{"bike_id":"ad3740dd-d1ed-4d39-a629-64e6b998150a","system_id":"levelo_inurba_marseille","lat":43.25104,"lon":5.40327,"is_reserved":false,"is_disabled":false,"rental_uris":{"android":"levelo://app?vid=ad3740dd-d1ed-4d39-a629-64e6b998150a","ios":"levelo://app?vid=ad3740dd-d1ed-4d39-a629-64e6b998150a"},"vehicle_type_id":"4","last_reported":1729206543,"current_range_meters":22400,"station_id":"ce4bhlh2rcd13ifvqgig","pricing_plan_id":"cebpf4jnsgd1na2vs0mg"},{"bike_id":"827c24bf-14df-499c-8c0e-70e69a8ae529","system_id":"levelo_inurba_marseille","lat":43.29551,"lon":5.42295,"is_reserved":false,"is_disabled":false,"rental_uris":{"android":"levelo://app?vid=827c24bf-14df-499c-8c0e-70e69a8ae529","ios":"levelo://app?vid=827c24bf-14df-499c-8c0e-70e69a8ae529"},"vehicle_type_id":"4","last_reported":1729206543,"current_range_meters":38800,"station_id":"ce4bhph2rcd13ifvqhdg","pricing_plan_id":"cebpf4jnsgd1na2vs0mg"},{"bike_id":"9a878f42-9b8c-4083-b673-12ab1f3990c0","system_id":"levelo_inurba_marseille","lat":43.29258,"lon":5.40916,"is_reserved":false,"is_disabled":false,"rental_uris":{"android":"levelo://app?vid=9a878f42-9b8c-4083-b673-12ab1f3990c0","ios":"levelo://app?vid=9a878f42-9b8c-4083-b673-12ab1f3990c0"},"vehicle_type_id":"4","last_reported":1729206543,"current_range_meters":27600,"station_id":"ce4bh192rcd13ifvqdc0","pricing_plan_id":"cebpf4jnsgd1na2vs0mg"},{"bike_id":"1676df87-c891-480b-8efd-76a8ca828e4a","system_id":"levelo_inurba_marseille","lat":43.2582,"lon":5.3943,"is_reserved":false,"is_disabled":false,"rental_uris":{"android":"levelo://app?vid=1676df87-c891-480b-8efd-76a8ca828e4a","ios":"levelo://app?vid=1676df87-c891-480b-8efd-76a8ca828e4a"},"vehicle_type_id":"4","last_reported":1729206543,"current_range_meters":38000,"station_id":"ce4bhip2rcd13ifvqft0","pricing_plan_id":"cebpf4jnsgd1na2vs0mg"},{"bike_id":"676ec6c4-6b42-43e0-81fe-327782965da5","system_id":"levelo_inurba_marseille","lat":43.33765,"lon":5.37484,"is_reserved":false,"is_disabled":false,"rental_uris":{"android":"levelo://app?vid=676ec6c4-6b42-43e0-81fe-327782965da5","ios":"levelo://app?vid=676ec6c4-6b42-43e0-81fe-327782965da5"},"vehicle_type_id":"4","last_reported":1729206543,"current_range_meters":20400,"station_id":"","pricing_plan_id":"cebpf4jnsgd1na2vs0mg"},{"bike_id":"bb760198-0abf-477e-b045-e4592285b8b4","system_id":"levelo_inurba_marseille","lat":43.29563,"lon":5.39961,"is_reserved":false,"is_disabled":false,"rental_uris":{"android":"levelo://app?vid=bb760198-0abf-477e-b045-e4592285b8b4","ios":"levelo://app?vid=bb760198-0abf-477e-b045-e4592285b8b4"},"vehicle_type_id":"4","last_reported":1729206543,"current_range_meters":26800,"station_id":"ce4bh312rcd13ifvqdj0","pricing_plan_id":"cebpf4jnsgd1na2vs0mg"},{"bike_id":"92dc8821-c96b-4b9f-9476-1c05f305b93e","system_id":"levelo_inurba_marseille","lat":43.26213,"lon":5.37441,"is_reserved":false,"is_disabled":false,"rental_uris":{"android":"levelo://app?vid=92dc8821-c96b-4b9f-9476-1c05f305b93e","ios":"levelo://app?vid=92dc8821-c96b-4b9f-9476-1c05f305b93e"},"vehicle_type_id":"4","last_reported":1729206543,"current_range_meters":37600,"station_id":"ce4bhgp2rcd13ifvqfc0","pricing_plan_id":"cebpf4jnsgd1na2vs0mg"},{"bike_id":"6475d355-317a-4e73-a7f0-14698c7623fc","system_id":"levelo_inurba_marseille","lat":43.31165,"lon":5.38707,"is_reserved":false,"is_disabled":false,"rental_uris":{"android":"levelo://app?vid=6475d355-317a-4e73-a7f0-14698c7623fc","ios":"levelo://app?vid=6475d355-317a-4e73-a7f0-14698c7623fc"},"vehicle_type_id":"4","last_reported":1729206543,"current_range_meters":28000,"station_id":"ce4bgv12rcd13ifvqcp0","pricing_plan_id":"cebpf4jnsgd1na2vs0mg"},{"bike_id":"0981fbc4-b08e-41c2-aa3f-23c80685a91f","system_id":"levelo_inurba_marseille","lat":43.30795,"lon":5.38167,"is_reserved":false,"is_disabled":false,"rental_uris":{"android":"levelo://app?vid=0981fbc4-b08e-41c2-aa3f-23c80685a91f","ios":"levelo://app?vid=0981fbc4-b08e-41c2-aa3f-23c80685a91f"},"vehicle_type_id":"4","last_reported":1729206543,"current_range_meters":20000,"station_id":"ce4bgt12rcd13ifvqce0","pricing_plan_id":"cebpf4jnsgd1na2vs0mg"},{"bike_id":"27a7a7f9-e4d8-48f5-a3db-737780b9e514","system_id":"levelo_inurba_marseille","lat":43.32108,"lon":5.36774,"is_reserved":false,"is_disabled":false,"rental_uris":{"android":"levelo://app?vid=27a7a7f9-e4d8-48f5-a3db-737780b9e514","ios":"levelo://app?vid=27a7a7f9-e4d8-48f5-a3db-737780b9e514"},"vehicle_type_id":"4","last_reported":1729206543,"current_range_meters":35200,"station_id":"ce4bhrh2rcd13ifvqhug","pricing_plan_id":"cebpf4jnsgd1na2vs0mg"},{"bike_id":"30e850d0-9aaf-49b7-8c98-c01d201a2a88","system_id":"levelo_inurba_marseille","lat":43.30879,"lon":5.39646,"is_reserved":false,"is_disabled":false,"rental_uris":{"android":"levelo://app?vid=30e850d0-9aaf-49b7-8c98-c01d201a2a88","ios":"levelo://app?vid=30e850d0-9aaf-49b7-8c98-c01d201a2a88"},"vehicle_type_id":"4","last_reported":1729206543,"current_range_meters":30000,"station_id":"ce4bh012rcd13ifvqcv0","pricing_plan_id":"cebpf4jnsgd1na2vs0mg"},{"bike_id":"a087c050-b95c-4a4a-af86-b09eec04df0c","system_id":"levelo_inurba_marseille","lat":43.28701,"lon":5.39975,"is_reserved":false,"is_disabled":false,"rental_uris":{"android":"levelo://app?vid=a087c050-b95c-4a4a-af86-b09eec04df0c","ios":"levelo://app?vid=a087c050-b95c-4a4a-af86-b09eec04df0c"},"vehicle_type_id":"4","last_reported":1729206543,"current_range_meters":24800,"station_id":"ce4bho92rcd13ifvqh3g","pricing_plan_id":"cebpf4jnsgd1na2vs0mg"},{"bike_id":"3b17167c-8a69-44d8-8aed-f8c6e41e7aa0","system_id":"levelo_inurba_marseille","lat":43.2621,"lon":5.37442,"is_reserved":false,"is_disabled":false,"rental_uris":{"android":"levelo://app?vid=3b17167c-8a69-44d8-8aed-f8c6e41e7aa0","ios":"levelo://app?vid=3b17167c-8a69-44d8-8aed-f8c6e41e7aa0"},"vehicle_type_id":"4","last_reported":1729206543,"current_range_meters":38800,"station_id":"ce4bhgp2rcd13ifvqfc0","pricing_plan_id":"cebpf4jnsgd1na2vs0mg"},{"bike_id":"a7a9c125-54d9-440d-847f-49ac30798c25","system_id":"levelo_inurba_marseille","lat":43.31174,"lon":5.3871,"is_reserved":false,"is_disabled":false,"rental_uris":{"android":"levelo://app?vid=a7a9c125-54d9-440d-847f-49ac30798c25","ios":"levelo://app?vid=a7a9c125-54d9-440d-847f-49ac30798c25"},"vehicle_type_id":"4","last_reported":1729206543,"current_range_meters":39200,"station_id":"ce4bgv12rcd13ifvqcp0","pricing_plan_id":"cebpf4jnsgd1na2vs0mg"},{"bike_id":"d34adc7d-d621-4ffc-8c8a-c608ef9c23f3","system_id":"levelo_inurba_marseille","lat":43.30217,"lon":5.394715,"is_reserved":false,"is_disabled":false,"rental_uris":{"android":"levelo://app?vid=d34adc7d-d621-4ffc-8c8a-c608ef9c23f3","ios":"levelo://app?vid=d34adc7d-d621-4ffc-8c8a-c608ef9c23f3"},"vehicle_type_id":"4","last_reported":1729206543,"current_range_meters":38800,"station_id":"ce4bh0p2rcd13ifvqd70","pricing_plan_id":"cebpf4jnsgd1na2vs0mg"},{"bike_id":"3f66dd1c-9be6-4b94-886c-d04770b03feb","system_id":"levelo_inurba_marseille","lat":43.33024,"lon":5.39039,"is_reserved":false,"is_disabled":false,"rental_uris":{"android":"levelo://app?vid=3f66dd1c-9be6-4b94-886c-d04770b03feb","ios":"levelo://app?vid=3f66dd1c-9be6-4b94-886c-d04770b03feb"},"vehicle_type_id":"4","last_reported":1729206543,"current_range_meters":39200,"station_id":"ce4bhr92rcd13ifvqhrg","pricing_plan_id":"cebpf4jnsgd1na2vs0mg"},{"bike_id":"9c3612f1-7535-4092-b3c2-9687af5e3b48","system_id":"levelo_inurba_marseille","lat":43.29255,"lon":5.40909,"is_reserved":false,"is_disabled":false,"rental_uris":{"android":"levelo://app?vid=9c3612f1-7535-4092-b3c2-9687af5e3b48","ios":"levelo://app?vid=9c3612f1-7535-4092-b3c2-9687af5e3b48"},"vehicle_type_id":"4","last_reported":1729206543,"current_range_meters":28400,"station_id":"ce4bh192rcd13ifvqdc0","pricing_plan_id":"cebpf4jnsgd1na2vs0mg"},{"bike_id":"29689e71-334c-4200-aca7-1d7023ddf226","system_id":"levelo_inurba_marseille","lat":43.32289,"lon":5.38274,"is_reserved":false,"is_disabled":false,"rental_uris":{"android":"levelo://app?vid=29689e71-334c-4200-aca7-1d7023ddf226","ios":"levelo://app?vid=29689e71-334c-4200-aca7-1d7023ddf226"},"vehicle_type_id":"4","last_reported":1729206543,"current_range_meters":38800,"station_id":"ce4bhr12rcd13ifvqhqg","pricing_plan_id":"cebpf4jnsgd1na2vs0mg"},{"bike_id":"0e9ad9af-e89b-412e-a7df-344fe8f113f7","system_id":"levelo_inurba_marseille","lat":43.24998,"lon":5.38928,"is_reserved":false,"is_disabled":false,"rental_uris":{"android":"levelo://app?vid=0e9ad9af-e89b-412e-a7df-344fe8f113f7","ios":"levelo://app?vid=0e9ad9af-e89b-412e-a7df-344fe8f113f7"},"vehicle_type_id":"4","last_reported":1729206543,"current_range_meters":39200,"station_id":"ce4bhgp2rcd13ifvqfd0","pricing_plan_id":"cebpf4jnsgd1na2vs0mg"},{"bike_id":"91ac8fa7-b7c8-4143-be6d-e2ffbaedc096","system_id":"levelo_inurba_marseille","lat":43.27068,"lon":5.42276,"is_reserved":false,"is_disabled":false,"rental_uris":{"android":"levelo://app?vid=91ac8fa7-b7c8-4143-be6d-e2ffbaedc096","ios":"levelo://app?vid=91ac8fa7-b7c8-4143-be6d-e2ffbaedc096"},"vehicle_type_id":"4","last_reported":1729206543,"current_range_meters":36800,"station_id":"ce4bhk92rcd13ifvqgb0","pricing_plan_id":"cebpf4jnsgd1na2vs0mg"},{"bike_id":"191b113b-be16-492e-a876-32c12d6b048b","system_id":"levelo_inurba_marseille","lat":43.24076,"lon":5.37747,"is_reserved":false,"is_disabled":false,"rental_uris":{"android":"levelo://app?vid=191b113b-be16-492e-a876-32c12d6b048b","ios":"levelo://app?vid=191b113b-be16-492e-a876-32c12d6b048b"},"vehicle_type_id":"4","last_reported":1729206543,"current_range_meters":29600,"station_id":"ce4bhnp2rcd13ifvqgvg","pricing_plan_id":"cebpf4jnsgd1na2vs0mg"},{"bike_id":"ebac8b2d-a49c-4e0f-98ad-4b44fd876553","system_id":"levelo_inurba_marseille","lat":43.28653,"lon":5.36346,"is_reserved":false,"is_disabled":false,"rental_uris":{"android":"levelo://app?vid=ebac8b2d-a49c-4e0f-98ad-4b44fd876553","ios":"levelo://app?vid=ebac8b2d-a49c-4e0f-98ad-4b44fd876553"},"vehicle_type_id":"4","last_reported":1729206543,"current_range_meters":30000,"station_id":"ce4bhah2rcd13ifvqej0","pricing_plan_id":"cebpf4jnsgd1na2vs0mg"},{"bike_id":"5e5c7c6d-b1d9-410c-8522-a2e7fbaf1826","system_id":"levelo_inurba_marseille","lat":43.24073,"lon":5.37759,"is_reserved":false,"is_disabled":false,"rental_uris":{"android":"levelo://app?vid=5e5c7c6d-b1d9-410c-8522-a2e7fbaf1826","ios":"levelo://app?vid=5e5c7c6d-b1d9-410c-8522-a2e7fbaf1826"},"vehicle_type_id":"4","last_reported":1729206543,"current_range_meters":38800,"station_id":"ce4bhnp2rcd13ifvqgvg","pricing_plan_id":"cebpf4jnsgd1na2vs0mg"},{"bike_id":"a71414de-d2ee-4a17-94ea-50f620ba8558","system_id":"levelo_inurba_marseille","lat":43.28427,"lon":5.34995,"is_reserved":false,"is_disabled":false,"rental_uris":{"android":"levelo://app?vid=a71414de-d2ee-4a17-94ea-50f620ba8558","ios":"levelo://app?vid=a71414de-d2ee-4a17-94ea-50f620ba8558"},"vehicle_type_id":"4","last_reported":1729206543,"current_range_meters":38800,"station_id":"ce4bhbh2rcd13ifvqepg","pricing_plan_id":"cebpf4jnsgd1na2vs0mg"},{"bike_id":"9eb71d62-6643-4eb1-8b31-753efbf08c4b","system_id":"levelo_inurba_marseille","lat":43.25727,"lon":5.41109,"is_reserved":false,"is_disabled":false,"rental_uris":{"android":"levelo://app?vid=9eb71d62-6643-4eb1-8b31-753efbf08c4b","ios":"levelo://app?vid=9eb71d62-6643-4eb1-8b31-753efbf08c4b"},"vehicle_type_id":"4","last_reported":1729206543,"current_range_meters":36800,"station_id":"ce4bhkp2rcd13ifvqgd0","pricing_plan_id":"cebpf4jnsgd1na2vs0mg"},{"bike_id":"1f499db5-03af-42de-8640-026510d7e725","system_id":"levelo_inurba_marseille","lat":43.29263,"lon":5.40897,"is_reserved":false,"is_disabled":false,"rental_uris":{"android":"levelo://app?vid=1f499db5-03af-42de-8640-026510d7e725","ios":"levelo://app?vid=1f499db5-03af-42de-8640-026510d7e725"},"vehicle_type_id":"4","last_reported":1729206543,"current_range_meters":8400,"station_id":"ce4bh192rcd13ifvqdc0","pricing_plan_id":"cebpf4jnsgd1na2vs0mg"},{"bike_id":"af20b398-05ac-4062-b8ae-48c7424733e1","system_id":"levelo_inurba_marseille","lat":43.26036,"lon":5.37554,"is_reserved":false,"is_disabled":false,"rental_uris":{"android":"levelo://app?vid=af20b398-05ac-4062-b8ae-48c7424733e1","ios":"levelo://app?vid=af20b398-05ac-4062-b8ae-48c7424733e1"},"vehicle_type_id":"4","last_reported":1729206543,"current_range_meters":38000,"station_id":"ce4bhgh2rcd13ifvqfa0","pricing_plan_id":"cebpf4jnsgd1na2vs0mg"},{"bike_id":"4ae2c184-8c50-452d-87fb-8f7bf4f540f3","system_id":"levelo_inurba_marseille","lat":43.24656,"lon":5.38899,"is_reserved":false,"is_disabled":false,"rental_uris":{"android":"levelo://app?vid=4ae2c184-8c50-452d-87fb-8f7bf4f540f3","ios":"levelo://app?vid=4ae2c184-8c50-452d-87fb-8f7bf4f540f3"},"vehicle_type_id":"4","last_reported":1729206543,"current_range_meters":38800,"station_id":"ce4bhg12rcd13ifvqf60","pricing_plan_id":"cebpf4jnsgd1na2vs0mg"},{"bike_id":"791641b8-dabe-4982-982b-c8e7fc7abd5d","system_id":"levelo_inurba_marseille","lat":43.25116,"lon":5.40316,"is_reserved":false,"is_disabled":false,"rental_uris":{"android":"levelo://app?vid=791641b8-dabe-4982-982b-c8e7fc7abd5d","ios":"levelo://app?vid=791641b8-dabe-4982-982b-c8e7fc7abd5d"},"vehicle_type_id":"4","last_reported":1729206543,"current_range_meters":12400,"station_id":"ce4bhlh2rcd13ifvqgig","pricing_plan_id":"cebpf4jnsgd1na2vs0mg"},{"bike_id":"ccb21c06-b27a-4307-9e7c-1a0e8140fade","system_id":"levelo_inurba_marseille","lat":43.28463,"lon":5.3588,"is_reserved":false,"is_disabled":false,"rental_uris":{"android":"levelo://app?vid=ccb21c06-b27a-4307-9e7c-1a0e8140fade","ios":"levelo://app?vid=ccb21c06-b27a-4307-9e7c-1a0e8140fade"},"vehicle_type_id":"4","last_reported":1729206543,"current_range_meters":30800,"station_id":"ce4bhah2rcd13ifvqei0","pricing_plan_id":"cebpf4jnsgd1na2vs0mg"},{"bike_id":"575fc5e9-14c0-48b5-8448-51911b01a1ea","system_id":"levelo_inurba_marseille","lat":43.27667,"lon":5.38881,"is_reserved":false,"is_disabled":false,"rental_uris":{"android":"levelo://app?vid=575fc5e9-14c0-48b5-8448-51911b01a1ea","ios":"levelo://app?vid=575fc5e9-14c0-48b5-8448-51911b01a1ea"},"vehicle_type_id":"4","last_reported":1729206543,"current_range_meters":30000,"station_id":"ce4bhi12rcd13ifvqfo0","pricing_plan_id":"cebpf4jnsgd1na2vs0mg"},{"bike_id":"7668ac82-f874-422b-bc29-d2ba352a44eb","system_id":"levelo_inurba_marseille","lat":43.25112,"lon":5.40325,"is_reserved":false,"is_disabled":false,"rental_uris":{"android":"levelo://app?vid=7668ac82-f874-422b-bc29-d2ba352a44eb","ios":"levelo://app?vid=7668ac82-f874-422b-bc29-d2ba352a44eb"},"vehicle_type_id":"4","last_reported":1729206543,"current_range_meters":38800,"station_id":"ce4bhlh2rcd13ifvqgig","pricing_plan_id":"cebpf4jnsgd1na2vs0mg"},{"bike_id":"5a4320fd-668e-47a8-9a0f-748e783877c2","system_id":"levelo_inurba_marseille","lat":43.31714,"lon":5.43704,"is_reserved":false,"is_disabled":false,"rental_uris":{"android":"levelo://app?vid=5a4320fd-668e-47a8-9a0f-748e783877c2","ios":"levelo://app?vid=5a4320fd-668e-47a8-9a0f-748e783877c2"},"vehicle_type_id":"4","last_reported":1729206543,"current_range_meters":18800,"station_id":"ce4bhp92rcd13ifvqhcg","pricing_plan_id":"cebpf4jnsgd1na2vs0mg"},{"bike_id":"3a97a36c-a579-4b58-978c-268e72317eee","system_id":"levelo_inurba_marseille","lat":43.28728,"lon":5.36084,"is_reserved":false,"is_disabled":false,"rental_uris":{"android":"levelo://app?vid=3a97a36c-a579-4b58-978c-268e72317eee","ios":"levelo://app?vid=3a97a36c-a579-4b58-978c-268e72317eee"},"vehicle_type_id":"4","last_reported":1729206543,"current_range_meters":10800,"station_id":"cki0cbj6b192h4jlfktg","pricing_plan_id":"cebpf4jnsgd1na2vs0mg"},{"bike_id":"06f58fa7-da52-492a-891e-9fcde30cb4ad","system_id":"levelo_inurba_marseille","lat":43.3108,"lon":5.42434,"is_reserved":false,"is_disabled":false,"rental_uris":{"android":"levelo://app?vid=06f58fa7-da52-492a-891e-9fcde30cb4ad","ios":"levelo://app?vid=06f58fa7-da52-492a-891e-9fcde30cb4ad"},"vehicle_type_id":"4","last_reported":1729206543,"current_range_meters":38800,"station_id":"ce4bhp92rcd13ifvqhag","pricing_plan_id":"cebpf4jnsgd1na2vs0mg"},{"bike_id":"ba385696-1c00-4366-b0a7-b17da0e20789","system_id":"levelo_inurba_marseille","lat":43.317594,"lon":5.390174,"is_reserved":false,"is_disabled":false,"rental_uris":{"android":"levelo://app?vid=ba385696-1c00-4366-b0a7-b17da0e20789","ios":"levelo://app?vid=ba385696-1c00-4366-b0a7-b17da0e20789"},"vehicle_type_id":"4","last_reported":1729206543,"current_range_meters":9200,"station_id":"ce4bhqp2rcd13ifvqhng","pricing_plan_id":"cebpf4jnsgd1na2vs0mg"},{"bike_id":"9ac423c9-a4bb-4dfa-a2bb-1650c9a1ad36","system_id":"levelo_inurba_marseille","lat":43.28406,"lon":5.37519,"is_reserved":false,"is_disabled":false,"rental_uris":{"android":"levelo://app?vid=9ac423c9-a4bb-4dfa-a2bb-1650c9a1ad36","ios":"levelo://app?vid=9ac423c9-a4bb-4dfa-a2bb-1650c9a1ad36"},"vehicle_type_id":"4","last_reported":1729206543,"current_range_meters":38800,"station_id":"ce4bh412rcd13ifvqds0","pricing_plan_id":"cebpf4jnsgd1na2vs0mg"},{"bike_id":"d5d87b96-496a-454b-9e81-b0e5a09c72cf","system_id":"levelo_inurba_marseille","lat":43.28607,"lon":5.37072,"is_reserved":false,"is_disabled":false,"rental_uris":{"android":"levelo://app?vid=d5d87b96-496a-454b-9e81-b0e5a09c72cf","ios":"levelo://app?vid=d5d87b96-496a-454b-9e81-b0e5a09c72cf"},"vehicle_type_id":"4","last_reported":1729206543,"current_range_meters":38800,"station_id":"ce4bht12rcd13ifvqi60","pricing_plan_id":"cebpf4jnsgd1na2vs0mg"},{"bike_id":"052b3563-392a-4857-8174-027696f961ab","system_id":"levelo_inurba_marseille","lat":43.2465,"lon":5.38895,"is_reserved":false,"is_disabled":false,"rental_uris":{"android":"levelo://app?vid=052b3563-392a-4857-8174-027696f961ab","ios":"levelo://app?vid=052b3563-392a-4857-8174-027696f961ab"},"vehicle_type_id":"4","last_reported":1729206543,"current_range_meters":21600,"station_id":"ce4bhg12rcd13ifvqf60","pricing_plan_id":"cebpf4jnsgd1na2vs0mg"},{"bike_id":"919f97dd-27c0-40bb-8c98-a14e06a759dd","system_id":"levelo_inurba_marseille","lat":43.31077,"lon":5.38352,"is_reserved":false,"is_disabled":false,"rental_uris":{"android":"levelo://app?vid=919f97dd-27c0-40bb-8c98-a14e06a759dd","ios":"levelo://app?vid=919f97dd-27c0-40bb-8c98-a14e06a759dd"},"vehicle_type_id":"4","last_reported":1729206543,"current_range_meters":32800,"station_id":"ce4bgv92rcd13ifvqcr0","pricing_plan_id":"cebpf4jnsgd1na2vs0mg"},{"bike_id":"0822912b-aa59-4ed3-8c68-5d699efb7d77","system_id":"levelo_inurba_marseille","lat":43.32366,"lon":5.38881,"is_reserved":false,"is_disabled":false,"rental_uris":{"android":"levelo://app?vid=0822912b-aa59-4ed3-8c68-5d699efb7d77","ios":"levelo://app?vid=0822912b-aa59-4ed3-8c68-5d699efb7d77"},"vehicle_type_id":"4","last_reported":1729206543,"current_range_meters":14800,"station_id":"ce4bhqp2rcd13ifvqhog","pricing_plan_id":"cebpf4jnsgd1na2vs0mg"},{"bike_id":"332056e4-427f-41fb-bdf1-369b1e37f758","system_id":"levelo_inurba_marseille","lat":43.28698,"lon":5.39981,"is_reserved":false,"is_disabled":false,"rental_uris":{"android":"levelo://app?vid=332056e4-427f-41fb-bdf1-369b1e37f758","ios":"levelo://app?vid=332056e4-427f-41fb-bdf1-369b1e37f758"},"vehicle_type_id":"4","last_reported":1729206543,"current_range_meters":14000,"station_id":"ce4bho92rcd13ifvqh3g","pricing_plan_id":"cebpf4jnsgd1na2vs0mg"},{"bike_id":"02a6d687-7506-40ac-9e29-b610bc7995e8","system_id":"levelo_inurba_marseille","lat":43.30441,"lon":5.38889,"is_reserved":false,"is_disabled":false,"rental_uris":{"android":"levelo://app?vid=02a6d687-7506-40ac-9e29-b610bc7995e8","ios":"levelo://app?vid=02a6d687-7506-40ac-9e29-b610bc7995e8"},"vehicle_type_id":"4","last_reported":1729206543,"current_range_meters":38800,"station_id":"ce4bgk12rcd13ifvqbi0","pricing_plan_id":"cebpf4jnsgd1na2vs0mg"},{"bike_id":"530d79f0-6141-4d63-8b51-6d259c94ad18","system_id":"levelo_inurba_marseille","lat":43.27901,"lon":5.39595,"is_reserved":false,"is_disabled":false,"rental_uris":{"android":"levelo://app?vid=530d79f0-6141-4d63-8b51-6d259c94ad18","ios":"levelo://app?vid=530d79f0-6141-4d63-8b51-6d259c94ad18"},"vehicle_type_id":"4","last_reported":1729206543,"current_range_meters":32800,"station_id":"ce4bhf92rcd13ifvqf40","pricing_plan_id":"cebpf4jnsgd1na2vs0mg"},{"bike_id":"58c69b12-7467-4279-b980-9aa21ca6358f","system_id":"levelo_inurba_marseille","lat":43.239628,"lon":5.366337,"is_reserved":false,"is_disabled":false,"rental_uris":{"android":"levelo://app?vid=58c69b12-7467-4279-b980-9aa21ca6358f","ios":"levelo://app?vid=58c69b12-7467-4279-b980-9aa21ca6358f"},"vehicle_type_id":"4","last_reported":1729206543,"current_range_meters":27200,"station_id":"ce4bhi12rcd13ifvqfp0","pricing_plan_id":"cebpf4jnsgd1na2vs0mg"},{"bike_id":"29560972-d337-41d6-8d3b-b4a62b5f405b","system_id":"levelo_inurba_marseille","lat":43.2904,"lon":5.39955,"is_reserved":false,"is_disabled":false,"rental_uris":{"android":"levelo://app?vid=29560972-d337-41d6-8d3b-b4a62b5f405b","ios":"levelo://app?vid=29560972-d337-41d6-8d3b-b4a62b5f405b"},"vehicle_type_id":"4","last_reported":1729206543,"current_range_meters":37600,"station_id":"ce4bh392rcd13ifvqdm0","pricing_plan_id":"cebpf4jnsgd1na2vs0mg"},{"bike_id":"517a12d5-bc79-4ded-8944-a7ca7fac983e","system_id":"levelo_inurba_marseille","lat":43.2743,"lon":5.39416,"is_reserved":false,"is_disabled":false,"rental_uris":{"android":"levelo://app?vid=517a12d5-bc79-4ded-8944-a7ca7fac983e","ios":"levelo://app?vid=517a12d5-bc79-4ded-8944-a7ca7fac983e"},"vehicle_type_id":"4","last_reported":1729206543,"current_range_meters":18800,"station_id":"ce4bhdp2rcd13ifvqf20","pricing_plan_id":"cebpf4jnsgd1na2vs0mg"},{"bike_id":"5fcd8f6e-ba15-45e1-94c8-9f2b14eaa9ad","system_id":"levelo_inurba_marseille","lat":43.28277,"lon":5.35082,"is_reserved":false,"is_disabled":false,"rental_uris":{"android":"levelo://app?vid=5fcd8f6e-ba15-45e1-94c8-9f2b14eaa9ad","ios":"levelo://app?vid=5fcd8f6e-ba15-45e1-94c8-9f2b14eaa9ad"},"vehicle_type_id":"4","last_reported":1729206543,"current_range_meters":38800,"station_id":"ce4bhbp2rcd13ifvqerg","pricing_plan_id":"cebpf4jnsgd1na2vs0mg"},{"bike_id":"dfb0999c-59a2-4e4f-9718-ee766ca01b0e","system_id":"levelo_inurba_marseille","lat":43.30788,"lon":5.37653,"is_reserved":false,"is_disabled":false,"rental_uris":{"android":"levelo://app?vid=dfb0999c-59a2-4e4f-9718-ee766ca01b0e","ios":"levelo://app?vid=dfb0999c-59a2-4e4f-9718-ee766ca01b0e"},"vehicle_type_id":"4","last_reported":1729206543,"current_range_meters":21600,"station_id":"ce4bgv92rcd13ifvqcq0","pricing_plan_id":"cebpf4jnsgd1na2vs0mg"},{"bike_id":"05528477-872b-4594-bb9c-05aeb34670b6","system_id":"levelo_inurba_marseille","lat":43.31532,"lon":5.38022,"is_reserved":false,"is_disabled":false,"rental_uris":{"android":"levelo://app?vid=05528477-872b-4594-bb9c-05aeb34670b6","ios":"levelo://app?vid=05528477-872b-4594-bb9c-05aeb34670b6"},"vehicle_type_id":"4","last_reported":1729206543,"current_range_meters":28400,"station_id":"ce4bhsp2rcd13ifvqi50","pricing_plan_id":"cebpf4jnsgd1na2vs0mg"},{"bike_id":"f1f54018-12f5-4b4e-9d61-fc23fa4a951a","system_id":"levelo_inurba_marseille","lat":43.32285,"lon":5.38271,"is_reserved":false,"is_disabled":false,"rental_uris":{"android":"levelo://app?vid=f1f54018-12f5-4b4e-9d61-fc23fa4a951a","ios":"levelo://app?vid=f1f54018-12f5-4b4e-9d61-fc23fa4a951a"},"vehicle_type_id":"4","last_reported":1729206543,"current_range_meters":38800,"station_id":"ce4bhr12rcd13ifvqhqg","pricing_plan_id":"cebpf4jnsgd1na2vs0mg"},{"bike_id":"5393a1bd-7e62-40e5-a51c-59eec108671a","system_id":"levelo_inurba_marseille","lat":43.30601,"lon":5.37212,"is_reserved":false,"is_disabled":false,"rental_uris":{"android":"levelo://app?vid=5393a1bd-7e62-40e5-a51c-59eec108671a","ios":"levelo://app?vid=5393a1bd-7e62-40e5-a51c-59eec108671a"},"vehicle_type_id":"4","last_reported":1729206543,"current_range_meters":36400,"station_id":"ce4bgqh2rcd13ifvqc4g","pricing_plan_id":"cebpf4jnsgd1na2vs0mg"},{"bike_id":"2ba45753-5a01-4bd9-ad09-799662844f09","system_id":"levelo_inurba_marseille","lat":43.30352,"lon":5.4187,"is_reserved":false,"is_disabled":false,"rental_uris":{"android":"levelo://app?vid=2ba45753-5a01-4bd9-ad09-799662844f09","ios":"levelo://app?vid=2ba45753-5a01-4bd9-ad09-799662844f09"},"vehicle_type_id":"4","last_reported":1729206543,"current_range_meters":18000,"station_id":"ce4bhop2rcd13ifvqh7g","pricing_plan_id":"cebpf4jnsgd1na2vs0mg"},{"bike_id":"241ec68c-ac36-4501-bb5b-e6da66662d0b","system_id":"levelo_inurba_marseille","lat":43.30888,"lon":5.39645,"is_reserved":false,"is_disabled":false,"rental_uris":{"android":"levelo://app?vid=241ec68c-ac36-4501-bb5b-e6da66662d0b","ios":"levelo://app?vid=241ec68c-ac36-4501-bb5b-e6da66662d0b"},"vehicle_type_id":"4","last_reported":1729206543,"current_range_meters":16000,"station_id":"ce4bh012rcd13ifvqcv0","pricing_plan_id":"cebpf4jnsgd1na2vs0mg"},{"bike_id":"282b3d80-6821-487a-a914-810f553b0264","system_id":"levelo_inurba_marseille","lat":43.31705,"lon":5.43697,"is_reserved":false,"is_disabled":false,"rental_uris":{"android":"levelo://app?vid=282b3d80-6821-487a-a914-810f553b0264","ios":"levelo://app?vid=282b3d80-6821-487a-a914-810f553b0264"},"vehicle_type_id":"4","last_reported":1729206543,"current_range_meters":38800,"station_id":"ce4bhp92rcd13ifvqhcg","pricing_plan_id":"cebpf4jnsgd1na2vs0mg"},{"bike_id":"82dcb5a6-00bb-45be-80cf-6f236f0974f1","system_id":"levelo_inurba_marseille","lat":43.30652,"lon":5.40075,"is_reserved":false,"is_disabled":false,"rental_uris":{"android":"levelo://app?vid=82dcb5a6-00bb-45be-80cf-6f236f0974f1","ios":"levelo://app?vid=82dcb5a6-00bb-45be-80cf-6f236f0974f1"},"vehicle_type_id":"4","last_reported":1729206543,"current_range_meters":38800,"station_id":"ce4bh112rcd13ifvqda0","pricing_plan_id":"cebpf4jnsgd1na2vs0mg"},{"bike_id":"438d453c-0cf4-403c-a8f1-59c87baf6e12","system_id":"levelo_inurba_marseille","lat":43.28462,"lon":5.35888,"is_reserved":false,"is_disabled":false,"rental_uris":{"android":"levelo://app?vid=438d453c-0cf4-403c-a8f1-59c87baf6e12","ios":"levelo://app?vid=438d453c-0cf4-403c-a8f1-59c87baf6e12"},"vehicle_type_id":"4","last_reported":1729206543,"current_range_meters":37600,"station_id":"ce4bhah2rcd13ifvqei0","pricing_plan_id":"cebpf4jnsgd1na2vs0mg"},{"bike_id":"2eaadce4-679c-4e46-897d-344ade65d802","system_id":"levelo_inurba_marseille","lat":43.30597,"lon":5.37215,"is_reserved":false,"is_disabled":false,"rental_uris":{"android":"levelo://app?vid=2eaadce4-679c-4e46-897d-344ade65d802","ios":"levelo://app?vid=2eaadce4-679c-4e46-897d-344ade65d802"},"vehicle_type_id":"4","last_reported":1729206543,"current_range_meters":38000,"station_id":"ce4bgqh2rcd13ifvqc4g","pricing_plan_id":"cebpf4jnsgd1na2vs0mg"},{"bike_id":"17ee19d6-b9e8-4238-89ea-9c5b355a40b2","system_id":"levelo_inurba_marseille","lat":43.28732,"lon":5.36094,"is_reserved":false,"is_disabled":false,"rental_uris":{"android":"levelo://app?vid=17ee19d6-b9e8-4238-89ea-9c5b355a40b2","ios":"levelo://app?vid=17ee19d6-b9e8-4238-89ea-9c5b355a40b2"},"vehicle_type_id":"4","last_reported":1729206543,"current_range_meters":22400,"station_id":"cki0cbj6b192h4jlfktg","pricing_plan_id":"cebpf4jnsgd1na2vs0mg"},{"bike_id":"b1491400-0877-4e4a-94b9-0b74303ed910","system_id":"levelo_inurba_marseille","lat":43.27814,"lon":5.40713,"is_reserved":false,"is_disabled":false,"rental_uris":{"android":"levelo://app?vid=b1491400-0877-4e4a-94b9-0b74303ed910","ios":"levelo://app?vid=b1491400-0877-4e4a-94b9-0b74303ed910"},"vehicle_type_id":"4","last_reported":1729206543,"current_range_meters":38800,"station_id":"ce4bhnh2rcd13ifvqgtg","pricing_plan_id":"cebpf4jnsgd1na2vs0mg"},{"bike_id":"f6483cbf-b6b8-436f-ac64-c39468f3bd92","system_id":"levelo_inurba_marseille","lat":43.31749,"lon":5.39027,"is_reserved":false,"is_disabled":false,"rental_uris":{"android":"levelo://app?vid=f6483cbf-b6b8-436f-ac64-c39468f3bd92","ios":"levelo://app?vid=f6483cbf-b6b8-436f-ac64-c39468f3bd92"},"vehicle_type_id":"4","last_reported":1729206543,"current_range_meters":32800,"station_id":"ce4bhqp2rcd13ifvqhng","pricing_plan_id":"cebpf4jnsgd1na2vs0mg"},{"bike_id":"c0aea6bf-9822-4eef-a7c6-ea0b29185a8d","system_id":"levelo_inurba_marseille","lat":43.279311,"lon":5.410433,"is_reserved":false,"is_disabled":false,"rental_uris":{"android":"levelo://app?vid=c0aea6bf-9822-4eef-a7c6-ea0b29185a8d","ios":"levelo://app?vid=c0aea6bf-9822-4eef-a7c6-ea0b29185a8d"},"vehicle_type_id":"4","last_reported":1729206543,"current_range_meters":26000,"station_id":"ce4bhnp2rcd13ifvqh0g","pricing_plan_id":"cebpf4jnsgd1na2vs0mg"},{"bike_id":"aa33ddc9-38b2-4034-9975-a236fa514f69","system_id":"levelo_inurba_marseille","lat":43.28104,"lon":5.37848,"is_reserved":false,"is_disabled":false,"rental_uris":{"android":"levelo://app?vid=aa33ddc9-38b2-4034-9975-a236fa514f69","ios":"levelo://app?vid=aa33ddc9-38b2-4034-9975-a236fa514f69"},"vehicle_type_id":"4","last_reported":1729206543,"current_range_meters":37600,"station_id":"ce4bha12rcd13ifvqee0","pricing_plan_id":"cebpf4jnsgd1na2vs0mg"},{"bike_id":"3d7546d0-4dba-4212-88c9-dfe9a2032237","system_id":"levelo_inurba_marseille","lat":43.24169,"lon":5.36389,"is_reserved":false,"is_disabled":false,"rental_uris":{"android":"levelo://app?vid=3d7546d0-4dba-4212-88c9-dfe9a2032237","ios":"levelo://app?vid=3d7546d0-4dba-4212-88c9-dfe9a2032237"},"vehicle_type_id":"4","last_reported":1729206543,"current_range_meters":38800,"station_id":"cpo36qri1sfpv3e86is0","pricing_plan_id":"cebpf4jnsgd1na2vs0mg"},{"bike_id":"f79ebb7e-e60a-4f98-be51-3535536798cb","system_id":"levelo_inurba_marseille","lat":43.30601,"lon":5.37219,"is_reserved":false,"is_disabled":false,"rental_uris":{"android":"levelo://app?vid=f79ebb7e-e60a-4f98-be51-3535536798cb","ios":"levelo://app?vid=f79ebb7e-e60a-4f98-be51-3535536798cb"},"vehicle_type_id":"4","last_reported":1729206543,"current_range_meters":38800,"station_id":"ce4bgqh2rcd13ifvqc4g","pricing_plan_id":"cebpf4jnsgd1na2vs0mg"},{"bike_id":"5f66d9b1-dc9b-46e4-ab6f-979d6221f9ab","system_id":"levelo_inurba_marseille","lat":43.32294,"lon":5.38257,"is_reserved":false,"is_disabled":false,"rental_uris":{"android":"levelo://app?vid=5f66d9b1-dc9b-46e4-ab6f-979d6221f9ab","ios":"levelo://app?vid=5f66d9b1-dc9b-46e4-ab6f-979d6221f9ab"},"vehicle_type_id":"4","last_reported":1729206543,"current_range_meters":13600,"station_id":"ce4bhr12rcd13ifvqhqg","pricing_plan_id":"cebpf4jnsgd1na2vs0mg"},{"bike_id":"7e10c79d-66ad-4a45-8f2d-3c307621027d","system_id":"levelo_inurba_marseille","lat":43.29278,"lon":5.40119,"is_reserved":false,"is_disabled":false,"rental_uris":{"android":"levelo://app?vid=7e10c79d-66ad-4a45-8f2d-3c307621027d","ios":"levelo://app?vid=7e10c79d-66ad-4a45-8f2d-3c307621027d"},"vehicle_type_id":"4","last_reported":1729206543,"current_range_meters":36400,"station_id":"ce4bh312rcd13ifvqdk0","pricing_plan_id":"cebpf4jnsgd1na2vs0mg"},{"bike_id":"544f7afc-844d-4ea0-a2be-13dd77c8ea21","system_id":"levelo_inurba_marseille","lat":43.29558,"lon":5.42287,"is_reserved":false,"is_disabled":false,"rental_uris":{"android":"levelo://app?vid=544f7afc-844d-4ea0-a2be-13dd77c8ea21","ios":"levelo://app?vid=544f7afc-844d-4ea0-a2be-13dd77c8ea21"},"vehicle_type_id":"4","last_reported":1729206543,"current_range_meters":37600,"station_id":"ce4bhph2rcd13ifvqhdg","pricing_plan_id":"cebpf4jnsgd1na2vs0mg"},{"bike_id":"41ce5f20-257f-46c3-be46-6ab7325ba38a","system_id":"levelo_inurba_marseille","lat":43.2871,"lon":5.3998,"is_reserved":false,"is_disabled":false,"rental_uris":{"android":"levelo://app?vid=41ce5f20-257f-46c3-be46-6ab7325ba38a","ios":"levelo://app?vid=41ce5f20-257f-46c3-be46-6ab7325ba38a"},"vehicle_type_id":"4","last_reported":1729206543,"current_range_meters":38800,"station_id":"ce4bho92rcd13ifvqh3g","pricing_plan_id":"cebpf4jnsgd1na2vs0mg"},{"bike_id":"3fbd3cb7-fcc2-42c3-b4cf-ec729dd8c1b6","system_id":"levelo_inurba_marseille","lat":43.25086,"lon":5.3951,"is_reserved":false,"is_disabled":false,"rental_uris":{"android":"levelo://app?vid=3fbd3cb7-fcc2-42c3-b4cf-ec729dd8c1b6","ios":"levelo://app?vid=3fbd3cb7-fcc2-42c3-b4cf-ec729dd8c1b6"},"vehicle_type_id":"4","last_reported":1729206543,"current_range_meters":38800,"station_id":"ce4bhm12rcd13ifvqgkg","pricing_plan_id":"cebpf4jnsgd1na2vs0mg"},{"bike_id":"19085ac5-ffc2-40a3-8146-8a3a881c9fa7","system_id":"levelo_inurba_marseille","lat":43.23099,"lon":5.40476,"is_reserved":false,"is_disabled":false,"rental_uris":{"android":"levelo://app?vid=19085ac5-ffc2-40a3-8146-8a3a881c9fa7","ios":"levelo://app?vid=19085ac5-ffc2-40a3-8146-8a3a881c9fa7"},"vehicle_type_id":"4","last_reported":1729206543,"current_range_meters":33200,"station_id":"","pricing_plan_id":"cebpf4jnsgd1na2vs0mg"},{"bike_id":"90b7df2b-2805-4913-a745-07d80216980c","system_id":"levelo_inurba_marseille","lat":43.30803,"lon":5.43522,"is_reserved":false,"is_disabled":false,"rental_uris":{"android":"levelo://app?vid=90b7df2b-2805-4913-a745-07d80216980c","ios":"levelo://app?vid=90b7df2b-2805-4913-a745-07d80216980c"},"vehicle_type_id":"4","last_reported":1729206543,"current_range_meters":16000,"station_id":"ce4bhph2rcd13ifvqheg","pricing_plan_id":"cebpf4jnsgd1na2vs0mg"},{"bike_id":"32ce68a3-3fc7-4257-974f-ab657619c295","system_id":"levelo_inurba_marseille","lat":43.33751,"lon":5.37436,"is_reserved":false,"is_disabled":false,"rental_uris":{"android":"levelo://app?vid=32ce68a3-3fc7-4257-974f-ab657619c295","ios":"levelo://app?vid=32ce68a3-3fc7-4257-974f-ab657619c295"},"vehicle_type_id":"4","last_reported":1729206543,"current_range_meters":31200,"station_id":"","pricing_plan_id":"cebpf4jnsgd1na2vs0mg"},{"bike_id":"ee75166d-f846-4917-827e-ead88959022b","system_id":"levelo_inurba_marseille","lat":43.31482,"lon":5.37309,"is_reserved":false,"is_disabled":false,"rental_uris":{"android":"levelo://app?vid=ee75166d-f846-4917-827e-ead88959022b","ios":"levelo://app?vid=ee75166d-f846-4917-827e-ead88959022b"},"vehicle_type_id":"4","last_reported":1729206543,"current_range_meters":30800,"station_id":"ce4bgt12rcd13ifvqcd0","pricing_plan_id":"cebpf4jnsgd1na2vs0mg"},{"bike_id":"9655669f-3a9d-44c3-99fc-394c9bf510d3","system_id":"levelo_inurba_marseille","lat":43.29255,"lon":5.40908,"is_reserved":false,"is_disabled":false,"rental_uris":{"android":"levelo://app?vid=9655669f-3a9d-44c3-99fc-394c9bf510d3","ios":"levelo://app?vid=9655669f-3a9d-44c3-99fc-394c9bf510d3"},"vehicle_type_id":"4","last_reported":1729206543,"current_range_meters":30800,"station_id":"ce4bh192rcd13ifvqdc0","pricing_plan_id":"cebpf4jnsgd1na2vs0mg"},{"bike_id":"4e8de57d-d74b-47a8-80d1-2fd8b9244275","system_id":"levelo_inurba_marseille","lat":43.29285,"lon":5.40114,"is_reserved":false,"is_disabled":false,"rental_uris":{"android":"levelo://app?vid=4e8de57d-d74b-47a8-80d1-2fd8b9244275","ios":"levelo://app?vid=4e8de57d-d74b-47a8-80d1-2fd8b9244275"},"vehicle_type_id":"4","last_reported":1729206543,"current_range_meters":25600,"station_id":"ce4bh312rcd13ifvqdk0","pricing_plan_id":"cebpf4jnsgd1na2vs0mg"},{"bike_id":"5a1b62f7-8a9e-42be-aefa-217aca5b6f27","system_id":"levelo_inurba_marseille","lat":43.23961,"lon":5.36632,"is_reserved":false,"is_disabled":false,"rental_uris":{"android":"levelo://app?vid=5a1b62f7-8a9e-42be-aefa-217aca5b6f27","ios":"levelo://app?vid=5a1b62f7-8a9e-42be-aefa-217aca5b6f27"},"vehicle_type_id":"4","last_reported":1729206543,"current_range_meters":38800,"station_id":"ce4bhi12rcd13ifvqfp0","pricing_plan_id":"cebpf4jnsgd1na2vs0mg"},{"bike_id":"f1d65e2e-7c16-4e76-acfd-52aafe2184b3","system_id":"levelo_inurba_marseille","lat":43.26932,"lon":5.38924,"is_reserved":false,"is_disabled":false,"rental_uris":{"android":"levelo://app?vid=f1d65e2e-7c16-4e76-acfd-52aafe2184b3","ios":"levelo://app?vid=f1d65e2e-7c16-4e76-acfd-52aafe2184b3"},"vehicle_type_id":"4","last_reported":1729206543,"current_range_meters":34000,"station_id":"ce4bhhh2rcd13ifvqfl0","pricing_plan_id":"cebpf4jnsgd1na2vs0mg"},{"bike_id":"fa7bbdc9-afbe-404d-8676-647037cc76a9","system_id":"levelo_inurba_marseille","lat":43.23195,"lon":5.35546,"is_reserved":false,"is_disabled":false,"rental_uris":{"android":"levelo://app?vid=fa7bbdc9-afbe-404d-8676-647037cc76a9","ios":"levelo://app?vid=fa7bbdc9-afbe-404d-8676-647037cc76a9"},"vehicle_type_id":"4","last_reported":1729206543,"current_range_meters":31200,"station_id":"ce4bhu92rcd13ifvqi70","pricing_plan_id":"cebpf4jnsgd1na2vs0mg"},{"bike_id":"9a4b7f99-e11e-4f0b-b857-0dbeb1b8e0a6","system_id":"levelo_inurba_marseille","lat":43.33022,"lon":5.39042,"is_reserved":false,"is_disabled":false,"rental_uris":{"android":"levelo://app?vid=9a4b7f99-e11e-4f0b-b857-0dbeb1b8e0a6","ios":"levelo://app?vid=9a4b7f99-e11e-4f0b-b857-0dbeb1b8e0a6"},"vehicle_type_id":"4","last_reported":1729206543,"current_range_meters":31200,"station_id":"ce4bhr92rcd13ifvqhrg","pricing_plan_id":"cebpf4jnsgd1na2vs0mg"},{"bike_id":"752671c2-9054-492c-9263-fc5cb1c19d98","system_id":"levelo_inurba_marseille","lat":43.330254,"lon":5.390466,"is_reserved":false,"is_disabled":false,"rental_uris":{"android":"levelo://app?vid=752671c2-9054-492c-9263-fc5cb1c19d98","ios":"levelo://app?vid=752671c2-9054-492c-9263-fc5cb1c19d98"},"vehicle_type_id":"4","last_reported":1729206543,"current_range_meters":24800,"station_id":"ce4bhr92rcd13ifvqhrg","pricing_plan_id":"cebpf4jnsgd1na2vs0mg"},{"bike_id":"ff726813-2517-4302-b4b8-60455484d8f6","system_id":"levelo_inurba_marseille","lat":43.33021,"lon":5.39035,"is_reserved":false,"is_disabled":false,"rental_uris":{"android":"levelo://app?vid=ff726813-2517-4302-b4b8-60455484d8f6","ios":"levelo://app?vid=ff726813-2517-4302-b4b8-60455484d8f6"},"vehicle_type_id":"4","last_reported":1729206543,"current_range_meters":38800,"station_id":"ce4bhr92rcd13ifvqhrg","pricing_plan_id":"cebpf4jnsgd1na2vs0mg"},{"bike_id":"f8d2e239-573b-4f9d-8955-e6720aa9663e","system_id":"levelo_inurba_marseille","lat":43.24648,"lon":5.38896,"is_reserved":false,"is_disabled":false,"rental_uris":{"android":"levelo://app?vid=f8d2e239-573b-4f9d-8955-e6720aa9663e","ios":"levelo://app?vid=f8d2e239-573b-4f9d-8955-e6720aa9663e"},"vehicle_type_id":"4","last_reported":1729206543,"current_range_meters":34800,"station_id":"ce4bhg12rcd13ifvqf60","pricing_plan_id":"cebpf4jnsgd1na2vs0mg"},{"bike_id":"e6a27805-d8f8-49c1-8c9e-220ae3406e20","system_id":"levelo_inurba_marseille","lat":43.31372,"lon":5.38494,"is_reserved":false,"is_disabled":false,"rental_uris":{"android":"levelo://app?vid=e6a27805-d8f8-49c1-8c9e-220ae3406e20","ios":"levelo://app?vid=e6a27805-d8f8-49c1-8c9e-220ae3406e20"},"vehicle_type_id":"4","last_reported":1729206543,"current_range_meters":37600,"station_id":"ce4bgt92rcd13ifvqcf0","pricing_plan_id":"cebpf4jnsgd1na2vs0mg"},{"bike_id":"139c35c4-8018-4db9-ad1e-9ab572b93210","system_id":"levelo_inurba_marseille","lat":43.30882,"lon":5.37189,"is_reserved":false,"is_disabled":false,"rental_uris":{"android":"levelo://app?vid=139c35c4-8018-4db9-ad1e-9ab572b93210","ios":"levelo://app?vid=139c35c4-8018-4db9-ad1e-9ab572b93210"},"vehicle_type_id":"4","last_reported":1729206543,"current_range_meters":38800,"station_id":"ce4bguh2rcd13ifvqckg","pricing_plan_id":"cebpf4jnsgd1na2vs0mg"},{"bike_id":"9313a787-13e9-4747-aa6d-776c45943b9d","system_id":"levelo_inurba_marseille","lat":43.28077,"lon":5.39646,"is_reserved":false,"is_disabled":false,"rental_uris":{"android":"levelo://app?vid=9313a787-13e9-4747-aa6d-776c45943b9d","ios":"levelo://app?vid=9313a787-13e9-4747-aa6d-776c45943b9d"},"vehicle_type_id":"4","last_reported":1729206543,"current_range_meters":39200,"station_id":"ce4bho12rcd13ifvqh2g","pricing_plan_id":"cebpf4jnsgd1na2vs0mg"},{"bike_id":"4e82a983-4406-4fc1-9c7d-45090c1e4862","system_id":"levelo_inurba_marseille","lat":43.24545,"lon":5.39527,"is_reserved":false,"is_disabled":false,"rental_uris":{"android":"levelo://app?vid=4e82a983-4406-4fc1-9c7d-45090c1e4862","ios":"levelo://app?vid=4e82a983-4406-4fc1-9c7d-45090c1e4862"},"vehicle_type_id":"4","last_reported":1729206543,"current_range_meters":33600,"station_id":"ce4bhlp2rcd13ifvqgjg","pricing_plan_id":"cebpf4jnsgd1na2vs0mg"},{"bike_id":"8c1ec6cb-2291-4814-837b-be8625c706f3","system_id":"levelo_inurba_marseille","lat":43.23193,"lon":5.35547,"is_reserved":false,"is_disabled":false,"rental_uris":{"android":"levelo://app?vid=8c1ec6cb-2291-4814-837b-be8625c706f3","ios":"levelo://app?vid=8c1ec6cb-2291-4814-837b-be8625c706f3"},"vehicle_type_id":"4","last_reported":1729206543,"current_range_meters":36000,"station_id":"ce4bhu92rcd13ifvqi70","pricing_plan_id":"cebpf4jnsgd1na2vs0mg"},{"bike_id":"8febca0a-24f7-499b-a335-527c394647a5","system_id":"levelo_inurba_marseille","lat":43.23965,"lon":5.36623,"is_reserved":false,"is_disabled":false,"rental_uris":{"android":"levelo://app?vid=8febca0a-24f7-499b-a335-527c394647a5","ios":"levelo://app?vid=8febca0a-24f7-499b-a335-527c394647a5"},"vehicle_type_id":"4","last_reported":1729206543,"current_range_meters":36800,"station_id":"ce4bhi12rcd13ifvqfp0","pricing_plan_id":"cebpf4jnsgd1na2vs0mg"},{"bike_id":"beb72918-238e-4aaf-b7dd-16aa67ed43f5","system_id":"levelo_inurba_marseille","lat":43.28416,"lon":5.37519,"is_reserved":false,"is_disabled":false,"rental_uris":{"android":"levelo://app?vid=beb72918-238e-4aaf-b7dd-16aa67ed43f5","ios":"levelo://app?vid=beb72918-238e-4aaf-b7dd-16aa67ed43f5"},"vehicle_type_id":"4","last_reported":1729206543,"current_range_meters":34000,"station_id":"ce4bh412rcd13ifvqds0","pricing_plan_id":"cebpf4jnsgd1na2vs0mg"},{"bike_id":"1811bf72-d969-4fc5-940b-d6b24bfa6052","system_id":"levelo_inurba_marseille","lat":43.28082,"lon":5.39647,"is_reserved":false,"is_disabled":false,"rental_uris":{"android":"levelo://app?vid=1811bf72-d969-4fc5-940b-d6b24bfa6052","ios":"levelo://app?vid=1811bf72-d969-4fc5-940b-d6b24bfa6052"},"vehicle_type_id":"4","last_reported":1729206543,"current_range_meters":20400,"station_id":"ce4bho12rcd13ifvqh2g","pricing_plan_id":"cebpf4jnsgd1na2vs0mg"},{"bike_id":"b98fcdd0-c769-4f78-8788-8a4deee929e2","system_id":"levelo_inurba_marseille","lat":43.30418,"lon":5.41277,"is_reserved":false,"is_disabled":false,"rental_uris":{"android":"levelo://app?vid=b98fcdd0-c769-4f78-8788-8a4deee929e2","ios":"levelo://app?vid=b98fcdd0-c769-4f78-8788-8a4deee929e2"},"vehicle_type_id":"4","last_reported":1729206543,"current_range_meters":38000,"station_id":"ce4bhop2rcd13ifvqh8g","pricing_plan_id":"cebpf4jnsgd1na2vs0mg"},{"bike_id":"bf62d727-38c8-4ded-b7ab-cf02407697a1","system_id":"levelo_inurba_marseille","lat":43.31994,"lon":5.38159,"is_reserved":false,"is_disabled":false,"rental_uris":{"android":"levelo://app?vid=bf62d727-38c8-4ded-b7ab-cf02407697a1","ios":"levelo://app?vid=bf62d727-38c8-4ded-b7ab-cf02407697a1"},"vehicle_type_id":"4","last_reported":1729206543,"current_range_meters":38000,"station_id":"ce4bhr12rcd13ifvqhpg","pricing_plan_id":"cebpf4jnsgd1na2vs0mg"},{"bike_id":"c775e878-13c3-4f44-abc8-4bc280e28c06","system_id":"levelo_inurba_marseille","lat":43.24994,"lon":5.38929,"is_reserved":false,"is_disabled":false,"rental_uris":{"android":"levelo://app?vid=c775e878-13c3-4f44-abc8-4bc280e28c06","ios":"levelo://app?vid=c775e878-13c3-4f44-abc8-4bc280e28c06"},"vehicle_type_id":"4","last_reported":1729206543,"current_range_meters":6000,"station_id":"ce4bhgp2rcd13ifvqfd0","pricing_plan_id":"cebpf4jnsgd1na2vs0mg"},{"bike_id":"c89c2319-61a9-47ef-9229-e31c9eaab143","system_id":"levelo_inurba_marseille","lat":43.23195,"lon":5.3555,"is_reserved":false,"is_disabled":false,"rental_uris":{"android":"levelo://app?vid=c89c2319-61a9-47ef-9229-e31c9eaab143","ios":"levelo://app?vid=c89c2319-61a9-47ef-9229-e31c9eaab143"},"vehicle_type_id":"4","last_reported":1729206543,"current_range_meters":38400,"station_id":"ce4bhu92rcd13ifvqi70","pricing_plan_id":"cebpf4jnsgd1na2vs0mg"},{"bike_id":"f6a1b352-6c77-475a-ac49-22832c081b06","system_id":"levelo_inurba_marseille","lat":43.27576,"lon":5.38412,"is_reserved":false,"is_disabled":false,"rental_uris":{"android":"levelo://app?vid=f6a1b352-6c77-475a-ac49-22832c081b06","ios":"levelo://app?vid=f6a1b352-6c77-475a-ac49-22832c081b06"},"vehicle_type_id":"4","last_reported":1729206543,"current_range_meters":38000,"station_id":"ce4bhh92rcd13ifvqfi0","pricing_plan_id":"cebpf4jnsgd1na2vs0mg"},{"bike_id":"c1b4d58c-7d67-4800-b5de-bf664ea422e8","system_id":"levelo_inurba_marseille","lat":43.2465,"lon":5.38894,"is_reserved":false,"is_disabled":false,"rental_uris":{"android":"levelo://app?vid=c1b4d58c-7d67-4800-b5de-bf664ea422e8","ios":"levelo://app?vid=c1b4d58c-7d67-4800-b5de-bf664ea422e8"},"vehicle_type_id":"4","last_reported":1729206543,"current_range_meters":8400,"station_id":"ce4bhg12rcd13ifvqf60","pricing_plan_id":"cebpf4jnsgd1na2vs0mg"},{"bike_id":"25ac3f0b-4df2-4f5e-9cc6-f9507fe0d59a","system_id":"levelo_inurba_marseille","lat":43.26567,"lon":5.39008,"is_reserved":false,"is_disabled":false,"rental_uris":{"android":"levelo://app?vid=25ac3f0b-4df2-4f5e-9cc6-f9507fe0d59a","ios":"levelo://app?vid=25ac3f0b-4df2-4f5e-9cc6-f9507fe0d59a"},"vehicle_type_id":"4","last_reported":1729206543,"current_range_meters":24400,"station_id":"ce4bhe12rcd13ifvqf30","pricing_plan_id":"cebpf4jnsgd1na2vs0mg"},{"bike_id":"a800e079-dcf5-4efc-806b-259cb163e899","system_id":"levelo_inurba_marseille","lat":43.231795,"lon":5.399852,"is_reserved":false,"is_disabled":false,"rental_uris":{"android":"levelo://app?vid=a800e079-dcf5-4efc-806b-259cb163e899","ios":"levelo://app?vid=a800e079-dcf5-4efc-806b-259cb163e899"},"vehicle_type_id":"4","last_reported":1729206543,"current_range_meters":24800,"station_id":"ce4bhn12rcd13ifvqgqg","pricing_plan_id":"cebpf4jnsgd1na2vs0mg"},{"bike_id":"1f83888a-b6f2-480c-87e7-6b07142c1dd0","system_id":"levelo_inurba_marseille","lat":43.298923,"lon":5.436761,"is_reserved":false,"is_disabled":false,"rental_uris":{"android":"levelo://app?vid=1f83888a-b6f2-480c-87e7-6b07142c1dd0","ios":"levelo://app?vid=1f83888a-b6f2-480c-87e7-6b07142c1dd0"},"vehicle_type_id":"4","last_reported":1729206543,"current_range_meters":28400,"station_id":"ce4bhpp2rcd13ifvqhfg","pricing_plan_id":"cebpf4jnsgd1na2vs0mg"},{"bike_id":"794acdc8-c17c-4149-b903-ed4baea396b4","system_id":"levelo_inurba_marseille","lat":43.23181,"lon":5.39986,"is_reserved":false,"is_disabled":false,"rental_uris":{"android":"levelo://app?vid=794acdc8-c17c-4149-b903-ed4baea396b4","ios":"levelo://app?vid=794acdc8-c17c-4149-b903-ed4baea396b4"},"vehicle_type_id":"4","last_reported":1729206543,"current_range_meters":14400,"station_id":"ce4bhn12rcd13ifvqgqg","pricing_plan_id":"cebpf4jnsgd1na2vs0mg"},{"bike_id":"a638a42f-2c86-4a47-9fce-e8d77bee8966","system_id":"levelo_inurba_marseille","lat":43.307993,"lon":5.43526,"is_reserved":false,"is_disabled":false,"rental_uris":{"android":"levelo://app?vid=a638a42f-2c86-4a47-9fce-e8d77bee8966","ios":"levelo://app?vid=a638a42f-2c86-4a47-9fce-e8d77bee8966"},"vehicle_type_id":"4","last_reported":1729206543,"current_range_meters":30800,"station_id":"ce4bhph2rcd13ifvqheg","pricing_plan_id":"cebpf4jnsgd1na2vs0mg"},{"bike_id":"a12fd2c3-b5fe-497f-a9a1-b48106f9e4f3","system_id":"levelo_inurba_marseille","lat":43.2861,"lon":5.37068,"is_reserved":false,"is_disabled":false,"rental_uris":{"android":"levelo://app?vid=a12fd2c3-b5fe-497f-a9a1-b48106f9e4f3","ios":"levelo://app?vid=a12fd2c3-b5fe-497f-a9a1-b48106f9e4f3"},"vehicle_type_id":"4","last_reported":1729206543,"current_range_meters":38400,"station_id":"ce4bht12rcd13ifvqi60","pricing_plan_id":"cebpf4jnsgd1na2vs0mg"},{"bike_id":"819aa051-762d-4884-9bbf-4d175d3c1053","system_id":"levelo_inurba_marseille","lat":43.30148,"lon":5.39874,"is_reserved":false,"is_disabled":false,"rental_uris":{"android":"levelo://app?vid=819aa051-762d-4884-9bbf-4d175d3c1053","ios":"levelo://app?vid=819aa051-762d-4884-9bbf-4d175d3c1053"},"vehicle_type_id":"4","last_reported":1729206543,"current_range_meters":10800,"station_id":"ce4bh0h2rcd13ifvqd40","pricing_plan_id":"cebpf4jnsgd1na2vs0mg"},{"bike_id":"c6ef7807-f387-424b-8ef0-0612d41c79a5","system_id":"levelo_inurba_marseille","lat":43.28411,"lon":5.37524,"is_reserved":false,"is_disabled":false,"rental_uris":{"android":"levelo://app?vid=c6ef7807-f387-424b-8ef0-0612d41c79a5","ios":"levelo://app?vid=c6ef7807-f387-424b-8ef0-0612d41c79a5"},"vehicle_type_id":"4","last_reported":1729206543,"current_range_meters":38000,"station_id":"ce4bh412rcd13ifvqds0","pricing_plan_id":"cebpf4jnsgd1na2vs0mg"},{"bike_id":"5a6e3f2c-fd31-454f-ad50-80431c5807a4","system_id":"levelo_inurba_marseille","lat":43.30554,"lon":5.38433,"is_reserved":false,"is_disabled":false,"rental_uris":{"android":"levelo://app?vid=5a6e3f2c-fd31-454f-ad50-80431c5807a4","ios":"levelo://app?vid=5a6e3f2c-fd31-454f-ad50-80431c5807a4"},"vehicle_type_id":"4","last_reported":1729206543,"current_range_meters":38800,"station_id":"ce4bgg92rcd13ifvqb30","pricing_plan_id":"cebpf4jnsgd1na2vs0mg"},{"bike_id":"874494de-7452-4f47-9fec-c5ec79478035","system_id":"levelo_inurba_marseille","lat":43.23972,"lon":5.36624,"is_reserved":false,"is_disabled":false,"rental_uris":{"android":"levelo://app?vid=874494de-7452-4f47-9fec-c5ec79478035","ios":"levelo://app?vid=874494de-7452-4f47-9fec-c5ec79478035"},"vehicle_type_id":"4","last_reported":1729206543,"current_range_meters":26800,"station_id":"ce4bhi12rcd13ifvqfp0","pricing_plan_id":"cebpf4jnsgd1na2vs0mg"},{"bike_id":"8b33911e-5d42-46bd-b00d-c1d5ce72f577","system_id":"levelo_inurba_marseille","lat":43.23188,"lon":5.39982,"is_reserved":false,"is_disabled":false,"rental_uris":{"android":"levelo://app?vid=8b33911e-5d42-46bd-b00d-c1d5ce72f577","ios":"levelo://app?vid=8b33911e-5d42-46bd-b00d-c1d5ce72f577"},"vehicle_type_id":"4","last_reported":1729206543,"current_range_meters":38800,"station_id":"ce4bhn12rcd13ifvqgqg","pricing_plan_id":"cebpf4jnsgd1na2vs0mg"},{"bike_id":"6c8025ee-c53a-4387-ad8b-1d9319dce202","system_id":"levelo_inurba_marseille","lat":43.23149,"lon":5.43714,"is_reserved":false,"is_disabled":false,"rental_uris":{"android":"levelo://app?vid=6c8025ee-c53a-4387-ad8b-1d9319dce202","ios":"levelo://app?vid=6c8025ee-c53a-4387-ad8b-1d9319dce202"},"vehicle_type_id":"4","last_reported":1729206543,"current_range_meters":36000,"station_id":"ce4bhmp2rcd13ifvqgog","pricing_plan_id":"cebpf4jnsgd1na2vs0mg"},{"bike_id":"8f737a78-1bc1-46fa-9bdc-ce1776714f5d","system_id":"levelo_inurba_marseille","lat":43.31367,"lon":5.38501,"is_reserved":false,"is_disabled":false,"rental_uris":{"android":"levelo://app?vid=8f737a78-1bc1-46fa-9bdc-ce1776714f5d","ios":"levelo://app?vid=8f737a78-1bc1-46fa-9bdc-ce1776714f5d"},"vehicle_type_id":"4","last_reported":1729206543,"current_range_meters":36400,"station_id":"ce4bgt92rcd13ifvqcf0","pricing_plan_id":"cebpf4jnsgd1na2vs0mg"},{"bike_id":"b12d939d-2b51-4746-861e-ebf81c9e0726","system_id":"levelo_inurba_marseille","lat":43.31278,"lon":5.40153,"is_reserved":false,"is_disabled":false,"rental_uris":{"android":"levelo://app?vid=b12d939d-2b51-4746-861e-ebf81c9e0726","ios":"levelo://app?vid=b12d939d-2b51-4746-861e-ebf81c9e0726"},"vehicle_type_id":"4","last_reported":1729206543,"current_range_meters":6800,"station_id":"ce4bh092rcd13ifvqd30","pricing_plan_id":"cebpf4jnsgd1na2vs0mg"},{"bike_id":"3d4617f5-270c-4884-8857-7a9ed43ac7f4","system_id":"levelo_inurba_marseille","lat":43.30611,"lon":5.37221,"is_reserved":false,"is_disabled":false,"rental_uris":{"android":"levelo://app?vid=3d4617f5-270c-4884-8857-7a9ed43ac7f4","ios":"levelo://app?vid=3d4617f5-270c-4884-8857-7a9ed43ac7f4"},"vehicle_type_id":"4","last_reported":1729206543,"current_range_meters":16000,"station_id":"ce4bgqh2rcd13ifvqc4g","pricing_plan_id":"cebpf4jnsgd1na2vs0mg"},{"bike_id":"0994d7f0-fa2e-480f-b967-2b1e1b476b78","system_id":"levelo_inurba_marseille","lat":43.2319,"lon":5.35553,"is_reserved":false,"is_disabled":false,"rental_uris":{"android":"levelo://app?vid=0994d7f0-fa2e-480f-b967-2b1e1b476b78","ios":"levelo://app?vid=0994d7f0-fa2e-480f-b967-2b1e1b476b78"},"vehicle_type_id":"4","last_reported":1729206543,"current_range_meters":11200,"station_id":"ce4bhu92rcd13ifvqi70","pricing_plan_id":"cebpf4jnsgd1na2vs0mg"},{"bike_id":"cafacf31-3dc4-4662-b543-8a143108fe4d","system_id":"levelo_inurba_marseille","lat":43.23185,"lon":5.39975,"is_reserved":false,"is_disabled":false,"rental_uris":{"android":"levelo://app?vid=cafacf31-3dc4-4662-b543-8a143108fe4d","ios":"levelo://app?vid=cafacf31-3dc4-4662-b543-8a143108fe4d"},"vehicle_type_id":"4","last_reported":1729206543,"current_range_meters":22800,"station_id":"ce4bhn12rcd13ifvqgqg","pricing_plan_id":"cebpf4jnsgd1na2vs0mg"},{"bike_id":"b2b04d11-b9da-412e-89b3-0a9fe8a8aefc","system_id":"levelo_inurba_marseille","lat":43.273071,"lon":5.390629,"is_reserved":false,"is_disabled":false,"rental_uris":{"android":"levelo://app?vid=b2b04d11-b9da-412e-89b3-0a9fe8a8aefc","ios":"levelo://app?vid=b2b04d11-b9da-412e-89b3-0a9fe8a8aefc"},"vehicle_type_id":"4","last_reported":1729206543,"current_range_meters":32800,"station_id":"ce4bhgp2rcd13ifvqfe0","pricing_plan_id":"cebpf4jnsgd1na2vs0mg"},{"bike_id":"d89ec09f-fe91-4a61-9b9f-a3abe3c8f6d8","system_id":"levelo_inurba_marseille","lat":43.32365,"lon":5.38881,"is_reserved":false,"is_disabled":false,"rental_uris":{"android":"levelo://app?vid=d89ec09f-fe91-4a61-9b9f-a3abe3c8f6d8","ios":"levelo://app?vid=d89ec09f-fe91-4a61-9b9f-a3abe3c8f6d8"},"vehicle_type_id":"4","last_reported":1729206543,"current_range_meters":33600,"station_id":"ce4bhqp2rcd13ifvqhog","pricing_plan_id":"cebpf4jnsgd1na2vs0mg"},{"bike_id":"66ccc46d-618e-4760-b09c-27382152bdab","system_id":"levelo_inurba_marseille","lat":43.23196,"lon":5.35544,"is_reserved":false,"is_disabled":false,"rental_uris":{"android":"levelo://app?vid=66ccc46d-618e-4760-b09c-27382152bdab","ios":"levelo://app?vid=66ccc46d-618e-4760-b09c-27382152bdab"},"vehicle_type_id":"4","last_reported":1729206543,"current_range_meters":30800,"station_id":"ce4bhu92rcd13ifvqi70","pricing_plan_id":"cebpf4jnsgd1na2vs0mg"},{"bike_id":"152a6295-86c6-48db-ba52-d0069877131a","system_id":"levelo_inurba_marseille","lat":43.31068,"lon":5.38349,"is_reserved":false,"is_disabled":false,"rental_uris":{"android":"levelo://app?vid=152a6295-86c6-48db-ba52-d0069877131a","ios":"levelo://app?vid=152a6295-86c6-48db-ba52-d0069877131a"},"vehicle_type_id":"4","last_reported":1729206543,"current_range_meters":31200,"station_id":"ce4bgv92rcd13ifvqcr0","pricing_plan_id":"cebpf4jnsgd1na2vs0mg"},{"bike_id":"4b786b2b-6a90-4a1f-a17f-44f0a2c12f39","system_id":"levelo_inurba_marseille","lat":43.28081,"lon":5.39661,"is_reserved":false,"is_disabled":false,"rental_uris":{"android":"levelo://app?vid=4b786b2b-6a90-4a1f-a17f-44f0a2c12f39","ios":"levelo://app?vid=4b786b2b-6a90-4a1f-a17f-44f0a2c12f39"},"vehicle_type_id":"4","last_reported":1729206543,"current_range_meters":31200,"station_id":"ce4bho12rcd13ifvqh2g","pricing_plan_id":"cebpf4jnsgd1na2vs0mg"},{"bike_id":"1070ebfa-7575-426c-82da-2ce4dd1e2817","system_id":"levelo_inurba_marseille","lat":43.28467,"lon":5.3588,"is_reserved":false,"is_disabled":false,"rental_uris":{"android":"levelo://app?vid=1070ebfa-7575-426c-82da-2ce4dd1e2817","ios":"levelo://app?vid=1070ebfa-7575-426c-82da-2ce4dd1e2817"},"vehicle_type_id":"4","last_reported":1729206543,"current_range_meters":38800,"station_id":"ce4bhah2rcd13ifvqei0","pricing_plan_id":"cebpf4jnsgd1na2vs0mg"},{"bike_id":"ed7b5e0b-1f1a-41ec-b201-a9edb4931872","system_id":"levelo_inurba_marseille","lat":43.28693,"lon":5.39976,"is_reserved":false,"is_disabled":false,"rental_uris":{"android":"levelo://app?vid=ed7b5e0b-1f1a-41ec-b201-a9edb4931872","ios":"levelo://app?vid=ed7b5e0b-1f1a-41ec-b201-a9edb4931872"},"vehicle_type_id":"4","last_reported":1729206543,"current_range_meters":30400,"station_id":"ce4bho92rcd13ifvqh3g","pricing_plan_id":"cebpf4jnsgd1na2vs0mg"},{"bike_id":"e4931e34-e843-4fa6-bef8-69f937e96cc9","system_id":"levelo_inurba_marseille","lat":43.25118,"lon":5.40319,"is_reserved":false,"is_disabled":false,"rental_uris":{"android":"levelo://app?vid=e4931e34-e843-4fa6-bef8-69f937e96cc9","ios":"levelo://app?vid=e4931e34-e843-4fa6-bef8-69f937e96cc9"},"vehicle_type_id":"4","last_reported":1729206543,"current_range_meters":14400,"station_id":"ce4bhlh2rcd13ifvqgig","pricing_plan_id":"cebpf4jnsgd1na2vs0mg"},{"bike_id":"06613c50-a72b-46cd-9c02-5c8d7a380936","system_id":"levelo_inurba_marseille","lat":43.31722,"lon":5.42389,"is_reserved":false,"is_disabled":false,"rental_uris":{"android":"levelo://app?vid=06613c50-a72b-46cd-9c02-5c8d7a380936","ios":"levelo://app?vid=06613c50-a72b-46cd-9c02-5c8d7a380936"},"vehicle_type_id":"4","last_reported":1729206543,"current_range_meters":28000,"station_id":"ce4bhp92rcd13ifvqhbg","pricing_plan_id":"cebpf4jnsgd1na2vs0mg"},{"bike_id":"fc262b45-2b88-4d3d-8020-e7c946d1fec3","system_id":"levelo_inurba_marseille","lat":43.32106,"lon":5.3678,"is_reserved":false,"is_disabled":false,"rental_uris":{"android":"levelo://app?vid=fc262b45-2b88-4d3d-8020-e7c946d1fec3","ios":"levelo://app?vid=fc262b45-2b88-4d3d-8020-e7c946d1fec3"},"vehicle_type_id":"4","last_reported":1729206543,"current_range_meters":38800,"station_id":"ce4bhrh2rcd13ifvqhug","pricing_plan_id":"cebpf4jnsgd1na2vs0mg"},{"bike_id":"15927fac-f292-4abe-ba8f-86291cdd5e03","system_id":"levelo_inurba_marseille","lat":43.29045,"lon":5.39969,"is_reserved":false,"is_disabled":false,"rental_uris":{"android":"levelo://app?vid=15927fac-f292-4abe-ba8f-86291cdd5e03","ios":"levelo://app?vid=15927fac-f292-4abe-ba8f-86291cdd5e03"},"vehicle_type_id":"4","last_reported":1729206543,"current_range_meters":36000,"station_id":"ce4bh392rcd13ifvqdm0","pricing_plan_id":"cebpf4jnsgd1na2vs0mg"},{"bike_id":"0b03270e-5e6d-4ba5-a579-bef2e5d0025a","system_id":"levelo_inurba_marseille","lat":43.26207,"lon":5.37443,"is_reserved":false,"is_disabled":false,"rental_uris":{"android":"levelo://app?vid=0b03270e-5e6d-4ba5-a579-bef2e5d0025a","ios":"levelo://app?vid=0b03270e-5e6d-4ba5-a579-bef2e5d0025a"},"vehicle_type_id":"4","last_reported":1729206543,"current_range_meters":25200,"station_id":"ce4bhgp2rcd13ifvqfc0","pricing_plan_id":"cebpf4jnsgd1na2vs0mg"},{"bike_id":"c609e345-4c2e-4977-8aee-bc38c94a4dab","system_id":"levelo_inurba_marseille","lat":43.27975,"lon":5.38739,"is_reserved":false,"is_disabled":false,"rental_uris":{"android":"levelo://app?vid=c609e345-4c2e-4977-8aee-bc38c94a4dab","ios":"levelo://app?vid=c609e345-4c2e-4977-8aee-bc38c94a4dab"},"vehicle_type_id":"4","last_reported":1729206543,"current_range_meters":4800,"station_id":"ce4bhg12rcd13ifvqf80","pricing_plan_id":"cebpf4jnsgd1na2vs0mg"},{"bike_id":"217d36cc-bb89-49d9-8719-57188c40467f","system_id":"levelo_inurba_marseille","lat":43.24994,"lon":5.38935,"is_reserved":false,"is_disabled":false,"rental_uris":{"android":"levelo://app?vid=217d36cc-bb89-49d9-8719-57188c40467f","ios":"levelo://app?vid=217d36cc-bb89-49d9-8719-57188c40467f"},"vehicle_type_id":"4","last_reported":1729206543,"current_range_meters":22800,"station_id":"ce4bhgp2rcd13ifvqfd0","pricing_plan_id":"cebpf4jnsgd1na2vs0mg"},{"bike_id":"59238a0c-de64-46a6-a64a-5a5563ed932a","system_id":"levelo_inurba_marseille","lat":43.22937,"lon":5.35378,"is_reserved":false,"is_disabled":false,"rental_uris":{"android":"levelo://app?vid=59238a0c-de64-46a6-a64a-5a5563ed932a","ios":"levelo://app?vid=59238a0c-de64-46a6-a64a-5a5563ed932a"},"vehicle_type_id":"4","last_reported":1729206543,"current_range_meters":28400,"station_id":"cpo3532slgdg3j2ikp40","pricing_plan_id":"cebpf4jnsgd1na2vs0mg"},{"bike_id":"2093bf18-35bc-436e-9db9-4de625eae52b","system_id":"levelo_inurba_marseille","lat":43.29022,"lon":5.37571,"is_reserved":false,"is_disabled":false,"rental_uris":{"android":"levelo://app?vid=2093bf18-35bc-436e-9db9-4de625eae52b","ios":"levelo://app?vid=2093bf18-35bc-436e-9db9-4de625eae52b"},"vehicle_type_id":"4","last_reported":1729206543,"current_range_meters":36800,"station_id":"ce4bh692rcd13ifvqe90","pricing_plan_id":"cebpf4jnsgd1na2vs0mg"},{"bike_id":"9e91d2fe-fed7-48bf-b81d-6f5bb14f23c5","system_id":"levelo_inurba_marseille","lat":43.27059,"lon":5.40256,"is_reserved":false,"is_disabled":false,"rental_uris":{"android":"levelo://app?vid=9e91d2fe-fed7-48bf-b81d-6f5bb14f23c5","ios":"levelo://app?vid=9e91d2fe-fed7-48bf-b81d-6f5bb14f23c5"},"vehicle_type_id":"4","last_reported":1729206543,"current_range_meters":25200,"station_id":"ce4bhk92rcd13ifvqgc0","pricing_plan_id":"cebpf4jnsgd1na2vs0mg"},{"bike_id":"0a12077a-64ea-4f82-9cc2-6d30cd8f221d","system_id":"levelo_inurba_marseille","lat":43.25108,"lon":5.40327,"is_reserved":false,"is_disabled":false,"rental_uris":{"android":"levelo://app?vid=0a12077a-64ea-4f82-9cc2-6d30cd8f221d","ios":"levelo://app?vid=0a12077a-64ea-4f82-9cc2-6d30cd8f221d"},"vehicle_type_id":"4","last_reported":1729206543,"current_range_meters":24800,"station_id":"ce4bhlh2rcd13ifvqgig","pricing_plan_id":"cebpf4jnsgd1na2vs0mg"},{"bike_id":"4c450603-3f04-4e5c-94f9-9405560445fc","system_id":"levelo_inurba_marseille","lat":43.30422,"lon":5.41281,"is_reserved":false,"is_disabled":false,"rental_uris":{"android":"levelo://app?vid=4c450603-3f04-4e5c-94f9-9405560445fc","ios":"levelo://app?vid=4c450603-3f04-4e5c-94f9-9405560445fc"},"vehicle_type_id":"4","last_reported":1729206543,"current_range_meters":38000,"station_id":"ce4bhop2rcd13ifvqh8g","pricing_plan_id":"cebpf4jnsgd1na2vs0mg"},{"bike_id":"fff57f58-00f3-4eb5-9b9f-517b6e0a746d","system_id":"levelo_inurba_marseille","lat":43.23965,"lon":5.36622,"is_reserved":false,"is_disabled":false,"rental_uris":{"android":"levelo://app?vid=fff57f58-00f3-4eb5-9b9f-517b6e0a746d","ios":"levelo://app?vid=fff57f58-00f3-4eb5-9b9f-517b6e0a746d"},"vehicle_type_id":"4","last_reported":1729206543,"current_range_meters":38800,"station_id":"ce4bhi12rcd13ifvqfp0","pricing_plan_id":"cebpf4jnsgd1na2vs0mg"},{"bike_id":"94dad7f8-6585-4b37-b691-74420d23ef13","system_id":"levelo_inurba_marseille","lat":43.30796,"lon":5.43526,"is_reserved":false,"is_disabled":false,"rental_uris":{"android":"levelo://app?vid=94dad7f8-6585-4b37-b691-74420d23ef13","ios":"levelo://app?vid=94dad7f8-6585-4b37-b691-74420d23ef13"},"vehicle_type_id":"4","last_reported":1729206543,"current_range_meters":38000,"station_id":"ce4bhph2rcd13ifvqheg","pricing_plan_id":"cebpf4jnsgd1na2vs0mg"},{"bike_id":"0e82c7fb-5add-407e-877f-436cc7295acb","system_id":"levelo_inurba_marseille","lat":43.28568,"lon":5.39494,"is_reserved":false,"is_disabled":false,"rental_uris":{"android":"levelo://app?vid=0e82c7fb-5add-407e-877f-436cc7295acb","ios":"levelo://app?vid=0e82c7fb-5add-407e-877f-436cc7295acb"},"vehicle_type_id":"4","last_reported":1729206543,"current_range_meters":30400,"station_id":"ce4bh292rcd13ifvqdg0","pricing_plan_id":"cebpf4jnsgd1na2vs0mg"},{"bike_id":"4562e9bb-7c1e-4e0e-95e1-858d0f8d86d1","system_id":"levelo_inurba_marseille","lat":43.23194,"lon":5.35562,"is_reserved":false,"is_disabled":false,"rental_uris":{"android":"levelo://app?vid=4562e9bb-7c1e-4e0e-95e1-858d0f8d86d1","ios":"levelo://app?vid=4562e9bb-7c1e-4e0e-95e1-858d0f8d86d1"},"vehicle_type_id":"4","last_reported":1729206543,"current_range_meters":38000,"station_id":"ce4bhu92rcd13ifvqi70","pricing_plan_id":"cebpf4jnsgd1na2vs0mg"},{"bike_id":"79e1eed1-16d9-44cd-bd2b-ecc125f9d017","system_id":"levelo_inurba_marseille","lat":43.28703,"lon":5.39986,"is_reserved":false,"is_disabled":false,"rental_uris":{"android":"levelo://app?vid=79e1eed1-16d9-44cd-bd2b-ecc125f9d017","ios":"levelo://app?vid=79e1eed1-16d9-44cd-bd2b-ecc125f9d017"},"vehicle_type_id":"4","last_reported":1729206543,"current_range_meters":38800,"station_id":"ce4bho92rcd13ifvqh3g","pricing_plan_id":"cebpf4jnsgd1na2vs0mg"},{"bike_id":"439234c6-7189-4dab-95ff-c08c915402ac","system_id":"levelo_inurba_marseille","lat":43.308816,"lon":5.396467,"is_reserved":false,"is_disabled":false,"rental_uris":{"android":"levelo://app?vid=439234c6-7189-4dab-95ff-c08c915402ac","ios":"levelo://app?vid=439234c6-7189-4dab-95ff-c08c915402ac"},"vehicle_type_id":"4","last_reported":1729206543,"current_range_meters":38800,"station_id":"ce4bh012rcd13ifvqcv0","pricing_plan_id":"cebpf4jnsgd1na2vs0mg"},{"bike_id":"6837ac97-30a8-4145-8047-b6d6df61ac48","system_id":"levelo_inurba_marseille","lat":43.23188,"lon":5.39987,"is_reserved":false,"is_disabled":false,"rental_uris":{"android":"levelo://app?vid=6837ac97-30a8-4145-8047-b6d6df61ac48","ios":"levelo://app?vid=6837ac97-30a8-4145-8047-b6d6df61ac48"},"vehicle_type_id":"4","last_reported":1729206543,"current_range_meters":38800,"station_id":"ce4bhn12rcd13ifvqgqg","pricing_plan_id":"cebpf4jnsgd1na2vs0mg"},{"bike_id":"2140b6a3-5118-4150-823e-9225aeb56201","system_id":"levelo_inurba_marseille","lat":43.2319,"lon":5.35546,"is_reserved":false,"is_disabled":false,"rental_uris":{"android":"levelo://app?vid=2140b6a3-5118-4150-823e-9225aeb56201","ios":"levelo://app?vid=2140b6a3-5118-4150-823e-9225aeb56201"},"vehicle_type_id":"4","last_reported":1729206543,"current_range_meters":34800,"station_id":"ce4bhu92rcd13ifvqi70","pricing_plan_id":"cebpf4jnsgd1na2vs0mg"},{"bike_id":"2d26828d-d90f-4409-8e3f-2bdaa5ca0cb2","system_id":"levelo_inurba_marseille","lat":43.23186,"lon":5.39984,"is_reserved":false,"is_disabled":false,"rental_uris":{"android":"levelo://app?vid=2d26828d-d90f-4409-8e3f-2bdaa5ca0cb2","ios":"levelo://app?vid=2d26828d-d90f-4409-8e3f-2bdaa5ca0cb2"},"vehicle_type_id":"4","last_reported":1729206543,"current_range_meters":36400,"station_id":"ce4bhn12rcd13ifvqgqg","pricing_plan_id":"cebpf4jnsgd1na2vs0mg"},{"bike_id":"8015e1d7-aa1b-4e39-8862-6cac0e4f7565","system_id":"levelo_inurba_marseille","lat":43.28567,"lon":5.39494,"is_reserved":false,"is_disabled":false,"rental_uris":{"android":"levelo://app?vid=8015e1d7-aa1b-4e39-8862-6cac0e4f7565","ios":"levelo://app?vid=8015e1d7-aa1b-4e39-8862-6cac0e4f7565"},"vehicle_type_id":"4","last_reported":1729206543,"current_range_meters":18000,"station_id":"ce4bh292rcd13ifvqdg0","pricing_plan_id":"cebpf4jnsgd1na2vs0mg"},{"bike_id":"e0d02837-606c-4fb0-bae6-b9a9ef8eaaee","system_id":"levelo_inurba_marseille","lat":43.29438,"lon":5.39749,"is_reserved":false,"is_disabled":false,"rental_uris":{"android":"levelo://app?vid=e0d02837-606c-4fb0-bae6-b9a9ef8eaaee","ios":"levelo://app?vid=e0d02837-606c-4fb0-bae6-b9a9ef8eaaee"},"vehicle_type_id":"4","last_reported":1729206543,"current_range_meters":25200,"station_id":"ce4bh3h2rcd13ifvqdo0","pricing_plan_id":"cebpf4jnsgd1na2vs0mg"},{"bike_id":"274fdafa-4b9d-4114-a02f-88b1b7077b5d","system_id":"levelo_inurba_marseille","lat":43.31759,"lon":5.39014,"is_reserved":false,"is_disabled":false,"rental_uris":{"android":"levelo://app?vid=274fdafa-4b9d-4114-a02f-88b1b7077b5d","ios":"levelo://app?vid=274fdafa-4b9d-4114-a02f-88b1b7077b5d"},"vehicle_type_id":"4","last_reported":1729206543,"current_range_meters":38800,"station_id":"ce4bhqp2rcd13ifvqhng","pricing_plan_id":"cebpf4jnsgd1na2vs0mg"},{"bike_id":"ab7dd9d4-41f9-462e-8030-94f1c16fff7a","system_id":"levelo_inurba_marseille","lat":43.2866,"lon":5.36337,"is_reserved":false,"is_disabled":false,"rental_uris":{"android":"levelo://app?vid=ab7dd9d4-41f9-462e-8030-94f1c16fff7a","ios":"levelo://app?vid=ab7dd9d4-41f9-462e-8030-94f1c16fff7a"},"vehicle_type_id":"4","last_reported":1729206543,"current_range_meters":17200,"station_id":"ce4bhah2rcd13ifvqej0","pricing_plan_id":"cebpf4jnsgd1na2vs0mg"},{"bike_id":"66273aaf-4a3f-4ab1-95c9-9102359831d5","system_id":"levelo_inurba_marseille","lat":43.26028,"lon":5.37552,"is_reserved":false,"is_disabled":false,"rental_uris":{"android":"levelo://app?vid=66273aaf-4a3f-4ab1-95c9-9102359831d5","ios":"levelo://app?vid=66273aaf-4a3f-4ab1-95c9-9102359831d5"},"vehicle_type_id":"4","last_reported":1729206543,"current_range_meters":39200,"station_id":"ce4bhgh2rcd13ifvqfa0","pricing_plan_id":"cebpf4jnsgd1na2vs0mg"},{"bike_id":"788b4ec0-b74e-4879-8b8e-bfeada4ddf7f","system_id":"levelo_inurba_marseille","lat":43.28711,"lon":5.39994,"is_reserved":false,"is_disabled":false,"rental_uris":{"android":"levelo://app?vid=788b4ec0-b74e-4879-8b8e-bfeada4ddf7f","ios":"levelo://app?vid=788b4ec0-b74e-4879-8b8e-bfeada4ddf7f"},"vehicle_type_id":"4","last_reported":1729206543,"current_range_meters":38400,"station_id":"ce4bho92rcd13ifvqh3g","pricing_plan_id":"cebpf4jnsgd1na2vs0mg"},{"bike_id":"974e9931-6d20-4545-9e5e-b40e518c0577","system_id":"levelo_inurba_marseille","lat":43.27814,"lon":5.40709,"is_reserved":false,"is_disabled":false,"rental_uris":{"android":"levelo://app?vid=974e9931-6d20-4545-9e5e-b40e518c0577","ios":"levelo://app?vid=974e9931-6d20-4545-9e5e-b40e518c0577"},"vehicle_type_id":"4","last_reported":1729206543,"current_range_meters":29600,"station_id":"ce4bhnh2rcd13ifvqgtg","pricing_plan_id":"cebpf4jnsgd1na2vs0mg"},{"bike_id":"7881bde0-85f9-40bc-91e7-38ff25c71b58","system_id":"levelo_inurba_marseille","lat":43.29571,"lon":5.3997,"is_reserved":false,"is_disabled":false,"rental_uris":{"android":"levelo://app?vid=7881bde0-85f9-40bc-91e7-38ff25c71b58","ios":"levelo://app?vid=7881bde0-85f9-40bc-91e7-38ff25c71b58"},"vehicle_type_id":"4","last_reported":1729206543,"current_range_meters":38800,"station_id":"ce4bh312rcd13ifvqdj0","pricing_plan_id":"cebpf4jnsgd1na2vs0mg"},{"bike_id":"71095f19-95cd-4724-a1a5-c0e9f7375980","system_id":"levelo_inurba_marseille","lat":43.2827,"lon":5.35081,"is_reserved":false,"is_disabled":false,"rental_uris":{"android":"levelo://app?vid=71095f19-95cd-4724-a1a5-c0e9f7375980","ios":"levelo://app?vid=71095f19-95cd-4724-a1a5-c0e9f7375980"},"vehicle_type_id":"4","last_reported":1729206543,"current_range_meters":38800,"station_id":"ce4bhbp2rcd13ifvqerg","pricing_plan_id":"cebpf4jnsgd1na2vs0mg"},{"bike_id":"521c673e-7033-4999-9ba4-100fe2ca5465","system_id":"levelo_inurba_marseille","lat":43.24646,"lon":5.38893,"is_reserved":false,"is_disabled":false,"rental_uris":{"android":"levelo://app?vid=521c673e-7033-4999-9ba4-100fe2ca5465","ios":"levelo://app?vid=521c673e-7033-4999-9ba4-100fe2ca5465"},"vehicle_type_id":"4","last_reported":1729206543,"current_range_meters":34800,"station_id":"ce4bhg12rcd13ifvqf60","pricing_plan_id":"cebpf4jnsgd1na2vs0mg"},{"bike_id":"83bcafb6-7740-4133-8b56-4bf302222f17","system_id":"levelo_inurba_marseille","lat":43.23967,"lon":5.36633,"is_reserved":false,"is_disabled":false,"rental_uris":{"android":"levelo://app?vid=83bcafb6-7740-4133-8b56-4bf302222f17","ios":"levelo://app?vid=83bcafb6-7740-4133-8b56-4bf302222f17"},"vehicle_type_id":"4","last_reported":1729206543,"current_range_meters":38800,"station_id":"ce4bhi12rcd13ifvqfp0","pricing_plan_id":"cebpf4jnsgd1na2vs0mg"},{"bike_id":"22d00216-a29a-43e6-a4d8-940fc8529d64","system_id":"levelo_inurba_marseille","lat":43.308885,"lon":5.396475,"is_reserved":false,"is_disabled":false,"rental_uris":{"android":"levelo://app?vid=22d00216-a29a-43e6-a4d8-940fc8529d64","ios":"levelo://app?vid=22d00216-a29a-43e6-a4d8-940fc8529d64"},"vehicle_type_id":"4","last_reported":1729206543,"current_range_meters":8000,"station_id":"ce4bh012rcd13ifvqcv0","pricing_plan_id":"cebpf4jnsgd1na2vs0mg"},{"bike_id":"7772d39f-5e28-445c-af91-069b0cf63793","system_id":"levelo_inurba_marseille","lat":43.33765,"lon":5.37438,"is_reserved":false,"is_disabled":false,"rental_uris":{"android":"levelo://app?vid=7772d39f-5e28-445c-af91-069b0cf63793","ios":"levelo://app?vid=7772d39f-5e28-445c-af91-069b0cf63793"},"vehicle_type_id":"4","last_reported":1729206543,"current_range_meters":16000,"station_id":"","pricing_plan_id":"cebpf4jnsgd1na2vs0mg"},{"bike_id":"168e4cce-554c-4e27-a4eb-4002cfc7a0e3","system_id":"levelo_inurba_marseille","lat":43.30208,"lon":5.39458,"is_reserved":false,"is_disabled":false,"rental_uris":{"android":"levelo://app?vid=168e4cce-554c-4e27-a4eb-4002cfc7a0e3","ios":"levelo://app?vid=168e4cce-554c-4e27-a4eb-4002cfc7a0e3"},"vehicle_type_id":"4","last_reported":1729206543,"current_range_meters":38000,"station_id":"ce4bh0p2rcd13ifvqd70","pricing_plan_id":"cebpf4jnsgd1na2vs0mg"},{"bike_id":"341c6749-6474-42a4-8be3-1a1a4be540a3","system_id":"levelo_inurba_marseille","lat":43.330168,"lon":5.390416,"is_reserved":false,"is_disabled":false,"rental_uris":{"android":"levelo://app?vid=341c6749-6474-42a4-8be3-1a1a4be540a3","ios":"levelo://app?vid=341c6749-6474-42a4-8be3-1a1a4be540a3"},"vehicle_type_id":"4","last_reported":1729206543,"current_range_meters":16400,"station_id":"ce4bhr92rcd13ifvqhrg","pricing_plan_id":"cebpf4jnsgd1na2vs0mg"},{"bike_id":"d8eb113e-a350-4b67-9422-42aa94d51fec","system_id":"levelo_inurba_marseille","lat":43.281,"lon":5.37845,"is_reserved":false,"is_disabled":false,"rental_uris":{"android":"levelo://app?vid=d8eb113e-a350-4b67-9422-42aa94d51fec","ios":"levelo://app?vid=d8eb113e-a350-4b67-9422-42aa94d51fec"},"vehicle_type_id":"4","last_reported":1729206543,"current_range_meters":38800,"station_id":"ce4bha12rcd13ifvqee0","pricing_plan_id":"cebpf4jnsgd1na2vs0mg"},{"bike_id":"3213665e-989c-4d22-9f5a-31c8522597dd","system_id":"levelo_inurba_marseille","lat":43.296,"lon":5.36142,"is_reserved":false,"is_disabled":false,"rental_uris":{"android":"levelo://app?vid=3213665e-989c-4d22-9f5a-31c8522597dd","ios":"levelo://app?vid=3213665e-989c-4d22-9f5a-31c8522597dd"},"vehicle_type_id":"4","last_reported":1729206543,"current_range_meters":26800,"station_id":"","pricing_plan_id":"cebpf4jnsgd1na2vs0mg"},{"bike_id":"340668a8-406a-42a1-a4cc-3dee34ea2f60","system_id":"levelo_inurba_marseille","lat":43.31714,"lon":5.37762,"is_reserved":false,"is_disabled":false,"rental_uris":{"android":"levelo://app?vid=340668a8-406a-42a1-a4cc-3dee34ea2f60","ios":"levelo://app?vid=340668a8-406a-42a1-a4cc-3dee34ea2f60"},"vehicle_type_id":"4","last_reported":1729206543,"current_range_meters":26800,"station_id":"ce4bgth2rcd13ifvqch0","pricing_plan_id":"cebpf4jnsgd1na2vs0mg"},{"bike_id":"cddb2538-acdb-46a5-bc95-6e0a8d74ef0c","system_id":"levelo_inurba_marseille","lat":43.30797,"lon":5.43524,"is_reserved":false,"is_disabled":false,"rental_uris":{"android":"levelo://app?vid=cddb2538-acdb-46a5-bc95-6e0a8d74ef0c","ios":"levelo://app?vid=cddb2538-acdb-46a5-bc95-6e0a8d74ef0c"},"vehicle_type_id":"4","last_reported":1729206543,"current_range_meters":35200,"station_id":"ce4bhph2rcd13ifvqheg","pricing_plan_id":"cebpf4jnsgd1na2vs0mg"},{"bike_id":"a8eba3d5-b3c0-4f18-b60f-aa3687e1d6de","system_id":"levelo_inurba_marseille","lat":43.2319,"lon":5.39987,"is_reserved":false,"is_disabled":false,"rental_uris":{"android":"levelo://app?vid=a8eba3d5-b3c0-4f18-b60f-aa3687e1d6de","ios":"levelo://app?vid=a8eba3d5-b3c0-4f18-b60f-aa3687e1d6de"},"vehicle_type_id":"4","last_reported":1729206543,"current_range_meters":35600,"station_id":"ce4bhn12rcd13ifvqgqg","pricing_plan_id":"cebpf4jnsgd1na2vs0mg"},{"bike_id":"232c9916-430c-4f2f-99b6-45e55a18a493","system_id":"levelo_inurba_marseille","lat":43.24073,"lon":5.37757,"is_reserved":false,"is_disabled":false,"rental_uris":{"android":"levelo://app?vid=232c9916-430c-4f2f-99b6-45e55a18a493","ios":"levelo://app?vid=232c9916-430c-4f2f-99b6-45e55a18a493"},"vehicle_type_id":"4","last_reported":1729206543,"current_range_meters":38800,"station_id":"ce4bhnp2rcd13ifvqgvg","pricing_plan_id":"cebpf4jnsgd1na2vs0mg"},{"bike_id":"5ccf9646-207d-4ec3-8750-95ff14851d06","system_id":"levelo_inurba_marseille","lat":43.32331,"lon":5.40619,"is_reserved":false,"is_disabled":false,"rental_uris":{"android":"levelo://app?vid=5ccf9646-207d-4ec3-8750-95ff14851d06","ios":"levelo://app?vid=5ccf9646-207d-4ec3-8750-95ff14851d06"},"vehicle_type_id":"4","last_reported":1729206543,"current_range_meters":24800,"station_id":"ce4bhq92rcd13ifvqhjg","pricing_plan_id":"cebpf4jnsgd1na2vs0mg"},{"bike_id":"1641b826-604a-4181-8231-dca386f637a6","system_id":"levelo_inurba_marseille","lat":43.23193,"lon":5.35548,"is_reserved":false,"is_disabled":false,"rental_uris":{"android":"levelo://app?vid=1641b826-604a-4181-8231-dca386f637a6","ios":"levelo://app?vid=1641b826-604a-4181-8231-dca386f637a6"},"vehicle_type_id":"4","last_reported":1729206543,"current_range_meters":32000,"station_id":"ce4bhu92rcd13ifvqi70","pricing_plan_id":"cebpf4jnsgd1na2vs0mg"},{"bike_id":"89211ee2-076f-4df3-92bd-cd8885f2e76d","system_id":"levelo_inurba_marseille","lat":43.23194,"lon":5.35553,"is_reserved":false,"is_disabled":false,"rental_uris":{"android":"levelo://app?vid=89211ee2-076f-4df3-92bd-cd8885f2e76d","ios":"levelo://app?vid=89211ee2-076f-4df3-92bd-cd8885f2e76d"},"vehicle_type_id":"4","last_reported":1729206543,"current_range_meters":30800,"station_id":"ce4bhu92rcd13ifvqi70","pricing_plan_id":"cebpf4jnsgd1na2vs0mg"},{"bike_id":"7005b884-c448-4d46-a5a8-96ad3296ac07","system_id":"levelo_inurba_marseille","lat":43.23149,"lon":5.43722,"is_reserved":false,"is_disabled":false,"rental_uris":{"android":"levelo://app?vid=7005b884-c448-4d46-a5a8-96ad3296ac07","ios":"levelo://app?vid=7005b884-c448-4d46-a5a8-96ad3296ac07"},"vehicle_type_id":"4","last_reported":1729206543,"current_range_meters":12800,"station_id":"ce4bhmp2rcd13ifvqgog","pricing_plan_id":"cebpf4jnsgd1na2vs0mg"},{"bike_id":"3006d2e9-2181-4c00-9dc2-e200a90526fb","system_id":"levelo_inurba_marseille","lat":43.27814,"lon":5.40707,"is_reserved":false,"is_disabled":false,"rental_uris":{"android":"levelo://app?vid=3006d2e9-2181-4c00-9dc2-e200a90526fb","ios":"levelo://app?vid=3006d2e9-2181-4c00-9dc2-e200a90526fb"},"vehicle_type_id":"4","last_reported":1729206543,"current_range_meters":8800,"station_id":"ce4bhnh2rcd13ifvqgtg","pricing_plan_id":"cebpf4jnsgd1na2vs0mg"},{"bike_id":"a3c5a5f4-a245-44e7-a623-76fdceeba507","system_id":"levelo_inurba_marseille","lat":43.28698,"lon":5.39982,"is_reserved":false,"is_disabled":false,"rental_uris":{"android":"levelo://app?vid=a3c5a5f4-a245-44e7-a623-76fdceeba507","ios":"levelo://app?vid=a3c5a5f4-a245-44e7-a623-76fdceeba507"},"vehicle_type_id":"4","last_reported":1729206543,"current_range_meters":14400,"station_id":"ce4bho92rcd13ifvqh3g","pricing_plan_id":"cebpf4jnsgd1na2vs0mg"},{"bike_id":"35c933d6-0efe-4363-9428-3f39de1cb728","system_id":"levelo_inurba_marseille","lat":43.25822,"lon":5.39424,"is_reserved":false,"is_disabled":false,"rental_uris":{"android":"levelo://app?vid=35c933d6-0efe-4363-9428-3f39de1cb728","ios":"levelo://app?vid=35c933d6-0efe-4363-9428-3f39de1cb728"},"vehicle_type_id":"4","last_reported":1729206543,"current_range_meters":37600,"station_id":"ce4bhip2rcd13ifvqft0","pricing_plan_id":"cebpf4jnsgd1na2vs0mg"},{"bike_id":"87b80bb0-1dc5-44c1-9c7b-c0ae5bdcc6ea","system_id":"levelo_inurba_marseille","lat":43.27073,"lon":5.42271,"is_reserved":false,"is_disabled":false,"rental_uris":{"android":"levelo://app?vid=87b80bb0-1dc5-44c1-9c7b-c0ae5bdcc6ea","ios":"levelo://app?vid=87b80bb0-1dc5-44c1-9c7b-c0ae5bdcc6ea"},"vehicle_type_id":"4","last_reported":1729206543,"current_range_meters":12800,"station_id":"ce4bhk92rcd13ifvqgb0","pricing_plan_id":"cebpf4jnsgd1na2vs0mg"},{"bike_id":"21d1f8ef-3dea-4cf6-ae2f-5dbc36b38fdb","system_id":"levelo_inurba_marseille","lat":43.32658,"lon":5.40995,"is_reserved":false,"is_disabled":false,"rental_uris":{"android":"levelo://app?vid=21d1f8ef-3dea-4cf6-ae2f-5dbc36b38fdb","ios":"levelo://app?vid=21d1f8ef-3dea-4cf6-ae2f-5dbc36b38fdb"},"vehicle_type_id":"4","last_reported":1729206543,"current_range_meters":28400,"station_id":"ce4bhpp2rcd13ifvqhgg","pricing_plan_id":"cebpf4jnsgd1na2vs0mg"},{"bike_id":"40233ae9-57bb-4fd3-a69e-691a1da68434","system_id":"levelo_inurba_marseille","lat":43.28709,"lon":5.39982,"is_reserved":false,"is_disabled":false,"rental_uris":{"android":"levelo://app?vid=40233ae9-57bb-4fd3-a69e-691a1da68434","ios":"levelo://app?vid=40233ae9-57bb-4fd3-a69e-691a1da68434"},"vehicle_type_id":"4","last_reported":1729206543,"current_range_meters":16400,"station_id":"ce4bho92rcd13ifvqh3g","pricing_plan_id":"cebpf4jnsgd1na2vs0mg"},{"bike_id":"f88c7e01-bc8c-4735-8a37-e29425c30c87","system_id":"levelo_inurba_marseille","lat":43.23185,"lon":5.39985,"is_reserved":false,"is_disabled":false,"rental_uris":{"android":"levelo://app?vid=f88c7e01-bc8c-4735-8a37-e29425c30c87","ios":"levelo://app?vid=f88c7e01-bc8c-4735-8a37-e29425c30c87"},"vehicle_type_id":"4","last_reported":1729206543,"current_range_meters":10000,"station_id":"ce4bhn12rcd13ifvqgqg","pricing_plan_id":"cebpf4jnsgd1na2vs0mg"},{"bike_id":"e8fa0c67-c553-4a87-9c32-6644007fca22","system_id":"levelo_inurba_marseille","lat":43.28615,"lon":5.35102,"is_reserved":false,"is_disabled":false,"rental_uris":{"android":"levelo://app?vid=e8fa0c67-c553-4a87-9c32-6644007fca22","ios":"levelo://app?vid=e8fa0c67-c553-4a87-9c32-6644007fca22"},"vehicle_type_id":"4","last_reported":1729206543,"current_range_meters":16400,"station_id":"ce4bhch2rcd13ifvqeug","pricing_plan_id":"cebpf4jnsgd1na2vs0mg"},{"bike_id":"14deb1b1-b495-4b35-97c2-895a5ef7ad23","system_id":"levelo_inurba_marseille","lat":43.32332,"lon":5.4062,"is_reserved":false,"is_disabled":false,"rental_uris":{"android":"levelo://app?vid=14deb1b1-b495-4b35-97c2-895a5ef7ad23","ios":"levelo://app?vid=14deb1b1-b495-4b35-97c2-895a5ef7ad23"},"vehicle_type_id":"4","last_reported":1729206543,"current_range_meters":39200,"station_id":"ce4bhq92rcd13ifvqhjg","pricing_plan_id":"cebpf4jnsgd1na2vs0mg"},{"bike_id":"e8ef5cb5-6238-47d3-8a6c-90dea33414df","system_id":"levelo_inurba_marseille","lat":43.2926,"lon":5.40917,"is_reserved":false,"is_disabled":false,"rental_uris":{"android":"levelo://app?vid=e8ef5cb5-6238-47d3-8a6c-90dea33414df","ios":"levelo://app?vid=e8ef5cb5-6238-47d3-8a6c-90dea33414df"},"vehicle_type_id":"4","last_reported":1729206543,"current_range_meters":28000,"station_id":"ce4bh192rcd13ifvqdc0","pricing_plan_id":"cebpf4jnsgd1na2vs0mg"},{"bike_id":"158c34ce-8e86-4473-93fd-4a32017ada12","system_id":"levelo_inurba_marseille","lat":43.30256,"lon":5.40065,"is_reserved":false,"is_disabled":false,"rental_uris":{"android":"levelo://app?vid=158c34ce-8e86-4473-93fd-4a32017ada12","ios":"levelo://app?vid=158c34ce-8e86-4473-93fd-4a32017ada12"},"vehicle_type_id":"4","last_reported":1729206543,"current_range_meters":13600,"station_id":"ce4bgvh2rcd13ifvqcs0","pricing_plan_id":"cebpf4jnsgd1na2vs0mg"},{"bike_id":"c99a9cdd-b5c6-4f27-8cec-99faa53b1c05","system_id":"levelo_inurba_marseille","lat":43.29032,"lon":5.39972,"is_reserved":false,"is_disabled":false,"rental_uris":{"android":"levelo://app?vid=c99a9cdd-b5c6-4f27-8cec-99faa53b1c05","ios":"levelo://app?vid=c99a9cdd-b5c6-4f27-8cec-99faa53b1c05"},"vehicle_type_id":"4","last_reported":1729206543,"current_range_meters":20800,"station_id":"ce4bh392rcd13ifvqdm0","pricing_plan_id":"cebpf4jnsgd1na2vs0mg"},{"bike_id":"87440bd7-4730-412f-b52f-03b263c3d6ba","system_id":"levelo_inurba_marseille","lat":43.231944,"lon":5.355516,"is_reserved":false,"is_disabled":false,"rental_uris":{"android":"levelo://app?vid=87440bd7-4730-412f-b52f-03b263c3d6ba","ios":"levelo://app?vid=87440bd7-4730-412f-b52f-03b263c3d6ba"},"vehicle_type_id":"4","last_reported":1729206543,"current_range_meters":16800,"station_id":"ce4bhu92rcd13ifvqi70","pricing_plan_id":"cebpf4jnsgd1na2vs0mg"},{"bike_id":"853aab9d-438c-4237-b86a-b2c5d81ecaf9","system_id":"levelo_inurba_marseille","lat":43.29872,"lon":5.39726,"is_reserved":false,"is_disabled":false,"rental_uris":{"android":"levelo://app?vid=853aab9d-438c-4237-b86a-b2c5d81ecaf9","ios":"levelo://app?vid=853aab9d-438c-4237-b86a-b2c5d81ecaf9"},"vehicle_type_id":"4","last_reported":1729206543,"current_range_meters":38000,"station_id":"ce4bh0h2rcd13ifvqd50","pricing_plan_id":"cebpf4jnsgd1na2vs0mg"},{"bike_id":"417ef51f-8761-4251-ba70-12de3fd708f4","system_id":"levelo_inurba_marseille","lat":43.30598,"lon":5.37227,"is_reserved":false,"is_disabled":false,"rental_uris":{"android":"levelo://app?vid=417ef51f-8761-4251-ba70-12de3fd708f4","ios":"levelo://app?vid=417ef51f-8761-4251-ba70-12de3fd708f4"},"vehicle_type_id":"4","last_reported":1729206543,"current_range_meters":36800,"station_id":"ce4bgqh2rcd13ifvqc4g","pricing_plan_id":"cebpf4jnsgd1na2vs0mg"},{"bike_id":"5cec743a-f3b2-49db-ac4a-190c5400ede9","system_id":"levelo_inurba_marseille","lat":43.28858,"lon":5.35848,"is_reserved":false,"is_disabled":false,"rental_uris":{"android":"levelo://app?vid=5cec743a-f3b2-49db-ac4a-190c5400ede9","ios":"levelo://app?vid=5cec743a-f3b2-49db-ac4a-190c5400ede9"},"vehicle_type_id":"4","last_reported":1729206543,"current_range_meters":38000,"station_id":"ce4bhb12rcd13ifvqem0","pricing_plan_id":"cebpf4jnsgd1na2vs0mg"},{"bike_id":"8c5293d6-35a0-4aa1-a33a-4251bf05d055","system_id":"levelo_inurba_marseille","lat":43.27178,"lon":5.40994,"is_reserved":false,"is_disabled":false,"rental_uris":{"android":"levelo://app?vid=8c5293d6-35a0-4aa1-a33a-4251bf05d055","ios":"levelo://app?vid=8c5293d6-35a0-4aa1-a33a-4251bf05d055"},"vehicle_type_id":"4","last_reported":1729206543,"current_range_meters":38800,"station_id":"ce4bhl12rcd13ifvqgf0","pricing_plan_id":"cebpf4jnsgd1na2vs0mg"},{"bike_id":"1c61c240-9d00-4c1f-b112-113ee598425d","system_id":"levelo_inurba_marseille","lat":43.33023,"lon":5.39046,"is_reserved":false,"is_disabled":false,"rental_uris":{"android":"levelo://app?vid=1c61c240-9d00-4c1f-b112-113ee598425d","ios":"levelo://app?vid=1c61c240-9d00-4c1f-b112-113ee598425d"},"vehicle_type_id":"4","last_reported":1729206543,"current_range_meters":24000,"station_id":"ce4bhr92rcd13ifvqhrg","pricing_plan_id":"cebpf4jnsgd1na2vs0mg"},{"bike_id":"e3b06c22-adb6-446f-b8c8-112e592baa42","system_id":"levelo_inurba_marseille","lat":43.25729,"lon":5.41106,"is_reserved":false,"is_disabled":false,"rental_uris":{"android":"levelo://app?vid=e3b06c22-adb6-446f-b8c8-112e592baa42","ios":"levelo://app?vid=e3b06c22-adb6-446f-b8c8-112e592baa42"},"vehicle_type_id":"4","last_reported":1729206543,"current_range_meters":37600,"station_id":"ce4bhkp2rcd13ifvqgd0","pricing_plan_id":"cebpf4jnsgd1na2vs0mg"},{"bike_id":"cb443c4a-3cc3-4c6a-a2f4-6f386431b5bc","system_id":"levelo_inurba_marseille","lat":43.27493,"lon":5.42448,"is_reserved":false,"is_disabled":false,"rental_uris":{"android":"levelo://app?vid=cb443c4a-3cc3-4c6a-a2f4-6f386431b5bc","ios":"levelo://app?vid=cb443c4a-3cc3-4c6a-a2f4-6f386431b5bc"},"vehicle_type_id":"4","last_reported":1729206543,"current_range_meters":37600,"station_id":"ce4bhn92rcd13ifvqgrg","pricing_plan_id":"cebpf4jnsgd1na2vs0mg"},{"bike_id":"42f264b5-ce90-44e6-8adf-ecc77c1fd4b7","system_id":"levelo_inurba_marseille","lat":43.31075,"lon":5.38338,"is_reserved":false,"is_disabled":false,"rental_uris":{"android":"levelo://app?vid=42f264b5-ce90-44e6-8adf-ecc77c1fd4b7","ios":"levelo://app?vid=42f264b5-ce90-44e6-8adf-ecc77c1fd4b7"},"vehicle_type_id":"4","last_reported":1729206543,"current_range_meters":38800,"station_id":"ce4bgv92rcd13ifvqcr0","pricing_plan_id":"cebpf4jnsgd1na2vs0mg"},{"bike_id":"4d08a006-a6ef-49b4-8051-c13297637cad","system_id":"levelo_inurba_marseille","lat":43.31173,"lon":5.38705,"is_reserved":false,"is_disabled":false,"rental_uris":{"android":"levelo://app?vid=4d08a006-a6ef-49b4-8051-c13297637cad","ios":"levelo://app?vid=4d08a006-a6ef-49b4-8051-c13297637cad"},"vehicle_type_id":"4","last_reported":1729206543,"current_range_meters":38800,"station_id":"ce4bgv12rcd13ifvqcp0","pricing_plan_id":"cebpf4jnsgd1na2vs0mg"},{"bike_id":"037e7d08-a78c-4974-ac0b-96c939dea0e0","system_id":"levelo_inurba_marseille","lat":43.3081,"lon":5.43522,"is_reserved":false,"is_disabled":false,"rental_uris":{"android":"levelo://app?vid=037e7d08-a78c-4974-ac0b-96c939dea0e0","ios":"levelo://app?vid=037e7d08-a78c-4974-ac0b-96c939dea0e0"},"vehicle_type_id":"4","last_reported":1729206543,"current_range_meters":14800,"station_id":"ce4bhph2rcd13ifvqheg","pricing_plan_id":"cebpf4jnsgd1na2vs0mg"},{"bike_id":"e06a63a5-0369-4e02-84e5-fbc8d5b7b68c","system_id":"levelo_inurba_marseille","lat":43.27948,"lon":5.41036,"is_reserved":false,"is_disabled":false,"rental_uris":{"android":"levelo://app?vid=e06a63a5-0369-4e02-84e5-fbc8d5b7b68c","ios":"levelo://app?vid=e06a63a5-0369-4e02-84e5-fbc8d5b7b68c"},"vehicle_type_id":"4","last_reported":1729206543,"current_range_meters":17200,"station_id":"ce4bhnp2rcd13ifvqh0g","pricing_plan_id":"cebpf4jnsgd1na2vs0mg"},{"bike_id":"b2a5087f-ee0d-4b32-8a93-92715cb5d8a5","system_id":"levelo_inurba_marseille","lat":43.28615,"lon":5.35106,"is_reserved":false,"is_disabled":false,"rental_uris":{"android":"levelo://app?vid=b2a5087f-ee0d-4b32-8a93-92715cb5d8a5","ios":"levelo://app?vid=b2a5087f-ee0d-4b32-8a93-92715cb5d8a5"},"vehicle_type_id":"4","last_reported":1729206543,"current_range_meters":38800,"station_id":"ce4bhch2rcd13ifvqeug","pricing_plan_id":"cebpf4jnsgd1na2vs0mg"},{"bike_id":"ecdffe81-4124-4f3a-8ea8-000d22b7503b","system_id":"levelo_inurba_marseille","lat":43.2511,"lon":5.40323,"is_reserved":false,"is_disabled":false,"rental_uris":{"android":"levelo://app?vid=ecdffe81-4124-4f3a-8ea8-000d22b7503b","ios":"levelo://app?vid=ecdffe81-4124-4f3a-8ea8-000d22b7503b"},"vehicle_type_id":"4","last_reported":1729206543,"current_range_meters":24000,"station_id":"ce4bhlh2rcd13ifvqgig","pricing_plan_id":"cebpf4jnsgd1na2vs0mg"},{"bike_id":"5aad7362-03a1-4cb4-8b19-d1bc0a90019b","system_id":"levelo_inurba_marseille","lat":43.28725,"lon":5.36084,"is_reserved":false,"is_disabled":false,"rental_uris":{"android":"levelo://app?vid=5aad7362-03a1-4cb4-8b19-d1bc0a90019b","ios":"levelo://app?vid=5aad7362-03a1-4cb4-8b19-d1bc0a90019b"},"vehicle_type_id":"4","last_reported":1729206543,"current_range_meters":38800,"station_id":"cki0cbj6b192h4jlfktg","pricing_plan_id":"cebpf4jnsgd1na2vs0mg"},{"bike_id":"e880b349-2a71-433c-b7d1-415018a5cfa0","system_id":"levelo_inurba_marseille","lat":43.281047,"lon":5.37841,"is_reserved":false,"is_disabled":false,"rental_uris":{"android":"levelo://app?vid=e880b349-2a71-433c-b7d1-415018a5cfa0","ios":"levelo://app?vid=e880b349-2a71-433c-b7d1-415018a5cfa0"},"vehicle_type_id":"4","last_reported":1729206543,"current_range_meters":38800,"station_id":"ce4bha12rcd13ifvqee0","pricing_plan_id":"cebpf4jnsgd1na2vs0mg"},{"bike_id":"a42336f1-6fcd-4045-891e-701347f41b85","system_id":"levelo_inurba_marseille","lat":43.23182,"lon":5.3998,"is_reserved":false,"is_disabled":false,"rental_uris":{"android":"levelo://app?vid=a42336f1-6fcd-4045-891e-701347f41b85","ios":"levelo://app?vid=a42336f1-6fcd-4045-891e-701347f41b85"},"vehicle_type_id":"4","last_reported":1729206543,"current_range_meters":6400,"station_id":"ce4bhn12rcd13ifvqgqg","pricing_plan_id":"cebpf4jnsgd1na2vs0mg"},{"bike_id":"2901ff37-0119-4f7b-91fb-d7fdf0736260","system_id":"levelo_inurba_marseille","lat":43.2293,"lon":5.35374,"is_reserved":false,"is_disabled":false,"rental_uris":{"android":"levelo://app?vid=2901ff37-0119-4f7b-91fb-d7fdf0736260","ios":"levelo://app?vid=2901ff37-0119-4f7b-91fb-d7fdf0736260"},"vehicle_type_id":"4","last_reported":1729206543,"current_range_meters":30000,"station_id":"cpo3532slgdg3j2ikp40","pricing_plan_id":"cebpf4jnsgd1na2vs0mg"},{"bike_id":"cb76f825-9dab-46a9-8a65-cc589bf2be41","system_id":"levelo_inurba_marseille","lat":43.31082,"lon":5.38359,"is_reserved":false,"is_disabled":false,"rental_uris":{"android":"levelo://app?vid=cb76f825-9dab-46a9-8a65-cc589bf2be41","ios":"levelo://app?vid=cb76f825-9dab-46a9-8a65-cc589bf2be41"},"vehicle_type_id":"4","last_reported":1729206543,"current_range_meters":12800,"station_id":"ce4bgv92rcd13ifvqcr0","pricing_plan_id":"cebpf4jnsgd1na2vs0mg"},{"bike_id":"b37d02fb-217e-462c-94d2-099f9eb690a2","system_id":"levelo_inurba_marseille","lat":43.32367,"lon":5.38881,"is_reserved":false,"is_disabled":false,"rental_uris":{"android":"levelo://app?vid=b37d02fb-217e-462c-94d2-099f9eb690a2","ios":"levelo://app?vid=b37d02fb-217e-462c-94d2-099f9eb690a2"},"vehicle_type_id":"4","last_reported":1729206543,"current_range_meters":38800,"station_id":"ce4bhqp2rcd13ifvqhog","pricing_plan_id":"cebpf4jnsgd1na2vs0mg"},{"bike_id":"f66ffd87-5ff1-4fe4-9b72-c8ecfcf4a110","system_id":"levelo_inurba_marseille","lat":43.28708,"lon":5.3998,"is_reserved":false,"is_disabled":false,"rental_uris":{"android":"levelo://app?vid=f66ffd87-5ff1-4fe4-9b72-c8ecfcf4a110","ios":"levelo://app?vid=f66ffd87-5ff1-4fe4-9b72-c8ecfcf4a110"},"vehicle_type_id":"4","last_reported":1729206543,"current_range_meters":33600,"station_id":"ce4bho92rcd13ifvqh3g","pricing_plan_id":"cebpf4jnsgd1na2vs0mg"},{"bike_id":"b76a5105-a423-43f5-aec7-bd99ea0efcb3","system_id":"levelo_inurba_marseille","lat":43.27996,"lon":5.4,"is_reserved":false,"is_disabled":false,"rental_uris":{"android":"levelo://app?vid=b76a5105-a423-43f5-aec7-bd99ea0efcb3","ios":"levelo://app?vid=b76a5105-a423-43f5-aec7-bd99ea0efcb3"},"vehicle_type_id":"4","last_reported":1729206543,"current_range_meters":14000,"station_id":"ce4bho92rcd13ifvqh4g","pricing_plan_id":"cebpf4jnsgd1na2vs0mg"},{"bike_id":"61296efc-2989-4d06-bf1e-eb0e4d43d68e","system_id":"levelo_inurba_marseille","lat":43.29894,"lon":5.43659,"is_reserved":false,"is_disabled":false,"rental_uris":{"android":"levelo://app?vid=61296efc-2989-4d06-bf1e-eb0e4d43d68e","ios":"levelo://app?vid=61296efc-2989-4d06-bf1e-eb0e4d43d68e"},"vehicle_type_id":"4","last_reported":1729206543,"current_range_meters":20400,"station_id":"ce4bhpp2rcd13ifvqhfg","pricing_plan_id":"cebpf4jnsgd1na2vs0mg"},{"bike_id":"b942abc5-d022-4842-94bb-2945d7b46dd5","system_id":"levelo_inurba_marseille","lat":43.29253,"lon":5.40907,"is_reserved":false,"is_disabled":false,"rental_uris":{"android":"levelo://app?vid=b942abc5-d022-4842-94bb-2945d7b46dd5","ios":"levelo://app?vid=b942abc5-d022-4842-94bb-2945d7b46dd5"},"vehicle_type_id":"4","last_reported":1729206543,"current_range_meters":30000,"station_id":"ce4bh192rcd13ifvqdc0","pricing_plan_id":"cebpf4jnsgd1na2vs0mg"},{"bike_id":"915d8fda-eaef-4a60-9d36-992c88c1e042","system_id":"levelo_inurba_marseille","lat":43.25001,"lon":5.38919,"is_reserved":false,"is_disabled":false,"rental_uris":{"android":"levelo://app?vid=915d8fda-eaef-4a60-9d36-992c88c1e042","ios":"levelo://app?vid=915d8fda-eaef-4a60-9d36-992c88c1e042"},"vehicle_type_id":"4","last_reported":1729206543,"current_range_meters":39200,"station_id":"ce4bhgp2rcd13ifvqfd0","pricing_plan_id":"cebpf4jnsgd1na2vs0mg"},{"bike_id":"7a76e164-6b75-4577-a223-fcbb4c2d551b","system_id":"levelo_inurba_marseille","lat":43.28086,"lon":5.39644,"is_reserved":false,"is_disabled":false,"rental_uris":{"android":"levelo://app?vid=7a76e164-6b75-4577-a223-fcbb4c2d551b","ios":"levelo://app?vid=7a76e164-6b75-4577-a223-fcbb4c2d551b"},"vehicle_type_id":"4","last_reported":1729206543,"current_range_meters":39200,"station_id":"ce4bho12rcd13ifvqh2g","pricing_plan_id":"cebpf4jnsgd1na2vs0mg"},{"bike_id":"a9295dde-ceb4-4ca6-940b-7dd28fc752be","system_id":"levelo_inurba_marseille","lat":43.32487,"lon":5.3656,"is_reserved":false,"is_disabled":false,"rental_uris":{"android":"levelo://app?vid=a9295dde-ceb4-4ca6-940b-7dd28fc752be","ios":"levelo://app?vid=a9295dde-ceb4-4ca6-940b-7dd28fc752be"},"vehicle_type_id":"4","last_reported":1729206543,"current_range_meters":25600,"station_id":"ce4bhs12rcd13ifvqhvg","pricing_plan_id":"cebpf4jnsgd1na2vs0mg"},{"bike_id":"f2fa2f4a-c894-477b-b08a-8bf3fc505540","system_id":"levelo_inurba_marseille","lat":43.28615,"lon":5.35099,"is_reserved":false,"is_disabled":false,"rental_uris":{"android":"levelo://app?vid=f2fa2f4a-c894-477b-b08a-8bf3fc505540","ios":"levelo://app?vid=f2fa2f4a-c894-477b-b08a-8bf3fc505540"},"vehicle_type_id":"4","last_reported":1729206543,"current_range_meters":7200,"station_id":"ce4bhch2rcd13ifvqeug","pricing_plan_id":"cebpf4jnsgd1na2vs0mg"},{"bike_id":"a6a73ca6-affe-49e5-aafd-ef0d88666863","system_id":"levelo_inurba_marseille","lat":43.298776,"lon":5.397316,"is_reserved":false,"is_disabled":false,"rental_uris":{"android":"levelo://app?vid=a6a73ca6-affe-49e5-aafd-ef0d88666863","ios":"levelo://app?vid=a6a73ca6-affe-49e5-aafd-ef0d88666863"},"vehicle_type_id":"4","last_reported":1729206543,"current_range_meters":34000,"station_id":"ce4bh0h2rcd13ifvqd50","pricing_plan_id":"cebpf4jnsgd1na2vs0mg"},{"bike_id":"292b9425-1372-40d4-bf0a-fe57aa779a41","system_id":"levelo_inurba_marseille","lat":43.23065,"lon":5.35492,"is_reserved":false,"is_disabled":false,"rental_uris":{"android":"levelo://app?vid=292b9425-1372-40d4-bf0a-fe57aa779a41","ios":"levelo://app?vid=292b9425-1372-40d4-bf0a-fe57aa779a41"},"vehicle_type_id":"4","last_reported":1729206543,"current_range_meters":22400,"station_id":"cpo3342slgdg3j2ifvpg","pricing_plan_id":"cebpf4jnsgd1na2vs0mg"},{"bike_id":"72d583f6-85fd-4657-bd42-f80f503b085b","system_id":"levelo_inurba_marseille","lat":43.2928,"lon":5.40112,"is_reserved":false,"is_disabled":false,"rental_uris":{"android":"levelo://app?vid=72d583f6-85fd-4657-bd42-f80f503b085b","ios":"levelo://app?vid=72d583f6-85fd-4657-bd42-f80f503b085b"},"vehicle_type_id":"4","last_reported":1729206543,"current_range_meters":28800,"station_id":"ce4bh312rcd13ifvqdk0","pricing_plan_id":"cebpf4jnsgd1na2vs0mg"},{"bike_id":"cbb0509b-7841-4fe4-8474-aa3f9fae860f","system_id":"levelo_inurba_marseille","lat":43.28349,"lon":5.38106,"is_reserved":false,"is_disabled":false,"rental_uris":{"android":"levelo://app?vid=cbb0509b-7841-4fe4-8474-aa3f9fae860f","ios":"levelo://app?vid=cbb0509b-7841-4fe4-8474-aa3f9fae860f"},"vehicle_type_id":"4","last_reported":1729206543,"current_range_meters":26000,"station_id":"ce4bh412rcd13ifvqdr0","pricing_plan_id":"cebpf4jnsgd1na2vs0mg"},{"bike_id":"afe9ff89-1b31-492e-9dea-f8a33b0bd764","system_id":"levelo_inurba_marseille","lat":43.27823,"lon":5.40717,"is_reserved":false,"is_disabled":false,"rental_uris":{"android":"levelo://app?vid=afe9ff89-1b31-492e-9dea-f8a33b0bd764","ios":"levelo://app?vid=afe9ff89-1b31-492e-9dea-f8a33b0bd764"},"vehicle_type_id":"4","last_reported":1729206543,"current_range_meters":11200,"station_id":"ce4bhnh2rcd13ifvqgtg","pricing_plan_id":"cebpf4jnsgd1na2vs0mg"},{"bike_id":"a019f1e8-7848-405c-b673-5dfc2714b862","system_id":"levelo_inurba_marseille","lat":43.28661,"lon":5.36353,"is_reserved":false,"is_disabled":false,"rental_uris":{"android":"levelo://app?vid=a019f1e8-7848-405c-b673-5dfc2714b862","ios":"levelo://app?vid=a019f1e8-7848-405c-b673-5dfc2714b862"},"vehicle_type_id":"4","last_reported":1729206543,"current_range_meters":24800,"station_id":"ce4bhah2rcd13ifvqej0","pricing_plan_id":"cebpf4jnsgd1na2vs0mg"},{"bike_id":"fab2e734-8a0e-44c8-8d84-bc27f6e147a4","system_id":"levelo_inurba_marseille","lat":43.27947,"lon":5.41035,"is_reserved":false,"is_disabled":false,"rental_uris":{"android":"levelo://app?vid=fab2e734-8a0e-44c8-8d84-bc27f6e147a4","ios":"levelo://app?vid=fab2e734-8a0e-44c8-8d84-bc27f6e147a4"},"vehicle_type_id":"4","last_reported":1729206543,"current_range_meters":32000,"station_id":"ce4bhnp2rcd13ifvqh0g","pricing_plan_id":"cebpf4jnsgd1na2vs0mg"},{"bike_id":"38706bf9-3b79-442f-9546-e032d556aede","system_id":"levelo_inurba_marseille","lat":43.31488,"lon":5.37303,"is_reserved":false,"is_disabled":false,"rental_uris":{"android":"levelo://app?vid=38706bf9-3b79-442f-9546-e032d556aede","ios":"levelo://app?vid=38706bf9-3b79-442f-9546-e032d556aede"},"vehicle_type_id":"4","last_reported":1729206543,"current_range_meters":38800,"station_id":"ce4bgt12rcd13ifvqcd0","pricing_plan_id":"cebpf4jnsgd1na2vs0mg"},{"bike_id":"1399823a-85ce-453e-a63d-32f824ad6d29","system_id":"levelo_inurba_marseille","lat":43.298,"lon":5.37102,"is_reserved":false,"is_disabled":false,"rental_uris":{"android":"levelo://app?vid=1399823a-85ce-453e-a63d-32f824ad6d29","ios":"levelo://app?vid=1399823a-85ce-453e-a63d-32f824ad6d29"},"vehicle_type_id":"4","last_reported":1729206543,"current_range_meters":35600,"station_id":"ce4bgop2rcd13ifvqc1g","pricing_plan_id":"cebpf4jnsgd1na2vs0mg"},{"bike_id":"b633155f-92f7-4c2b-8e4d-d4d0be37cdf8","system_id":"levelo_inurba_marseille","lat":43.28943,"lon":5.39615,"is_reserved":false,"is_disabled":false,"rental_uris":{"android":"levelo://app?vid=b633155f-92f7-4c2b-8e4d-d4d0be37cdf8","ios":"levelo://app?vid=b633155f-92f7-4c2b-8e4d-d4d0be37cdf8"},"vehicle_type_id":"4","last_reported":1729206543,"current_range_meters":28000,"station_id":"ce4bh3h2rcd13ifvqdn0","pricing_plan_id":"cebpf4jnsgd1na2vs0mg"},{"bike_id":"4ed73ab4-6fec-44b9-a871-42cb4f5e6248","system_id":"levelo_inurba_marseille","lat":43.248,"lon":5.37451,"is_reserved":false,"is_disabled":false,"rental_uris":{"android":"levelo://app?vid=4ed73ab4-6fec-44b9-a871-42cb4f5e6248","ios":"levelo://app?vid=4ed73ab4-6fec-44b9-a871-42cb4f5e6248"},"vehicle_type_id":"4","last_reported":1729206543,"current_range_meters":38800,"station_id":"ce4bhgh2rcd13ifvqfb0","pricing_plan_id":"cebpf4jnsgd1na2vs0mg"},{"bike_id":"01cbf671-4826-495e-a376-b47a0ddca874","system_id":"levelo_inurba_marseille","lat":43.32338,"lon":5.40625,"is_reserved":false,"is_disabled":false,"rental_uris":{"android":"levelo://app?vid=01cbf671-4826-495e-a376-b47a0ddca874","ios":"levelo://app?vid=01cbf671-4826-495e-a376-b47a0ddca874"},