{"last_updated":1712250364,"ttl":30,"version":"2.2","data":{"bikes":[{"bike_id":"e773acc6-dd59-47a0-9345-f9abe8025f24","system_id":"levelo_inurba_marseille","lat":43.312259,"lon":5.367375,"is_reserved":false,"is_disabled":false,"rental_uris":{"android":"levelo://app?vid=e773acc6-dd59-47a0-9345-f9abe8025f24","ios":"levelo://app?vid=e773acc6-dd59-47a0-9345-f9abe8025f24"},"vehicle_type_id":"4","last_reported":1712250364,"current_range_meters":6800,"station_id":"","pricing_plan_id":"cebpf4jnsgd1na2vs0mg"},{"bike_id":"46f20c2a-50af-45aa-b95c-e7f930599f02","system_id":"levelo_inurba_marseille","lat":43.312239,"lon":5.368562,"is_reserved":false,"is_disabled":false,"rental_uris":{"android":"levelo://app?vid=46f20c2a-50af-45aa-b95c-e7f930599f02","ios":"levelo://app?vid=46f20c2a-50af-45aa-b95c-e7f930599f02"},"vehicle_type_id":"4","last_reported":1712250364,"current_range_meters":0,"station_id":"ce4bgl92rcd13ifvqbq0","pricing_plan_id":"cebpf4jnsgd1na2vs0mg"},{"bike_id":"5e5d5b2b-1753-4308-8052-679e064c22ba","system_id":"levelo_inurba_marseille","lat":43.312239,"lon":5.368562,"is_reserved":false,"is_disabled":false,"rental_uris":{"android":"levelo://app?vid=5e5d5b2b-1753-4308-8052-679e064c22ba","ios":"levelo://app?vid=5e5d5b2b-1753-4308-8052-679e064c22ba"},"vehicle_type_id":"4","last_reported":1712250364,"current_range_meters":0,"station_id":"ce4bgl92rcd13ifvqbq0","pricing_plan_id":"cebpf4jnsgd1na2vs0mg"},{"bike_id":"9ec851ed-44c9-40fb-a5ee-36ad3077d7ba","system_id":"levelo_inurba_marseille","lat":43.309076,"lon":5.368465,"is_reserved":false,"is_disabled":false,"rental_uris":{"android":"levelo://app?vid=9ec851ed-44c9-40fb-a5ee-36ad3077d7ba","ios":"levelo://app?vid=9ec851ed-44c9-40fb-a5ee-36ad3077d7ba"},"vehicle_type_id":"4","last_reported":1712250364,"current_range_meters":11600,"station_id":"ce4bgn92rcd13ifvqbvg","pricing_plan_id":"cebpf4jnsgd1na2vs0mg"},{"bike_id":"a3391c50-bdad-424a-bfec-b08afc1df990","system_id":"levelo_inurba_marseille","lat":43.305994,"lon":5.393687,"is_reserved":false,"is_disabled":false,"rental_uris":{"android":"levelo://app?vid=a3391c50-bdad-424a-bfec-b08afc1df990","ios":"levelo://app?vid=a3391c50-bdad-424a-bfec-b08afc1df990"},"vehicle_type_id":"4","last_reported":1712250364,"current_range_meters":1200,"station_id":"ce4bh0p2rcd13ifvqd80","pricing_plan_id":"cebpf4jnsgd1na2vs0mg"},{"bike_id":"a6625335-2ab8-495c-9991-5682883be11a","system_id":"levelo_inurba_marseille","lat":43.310476,"lon":5.3731,"is_reserved":false,"is_disabled":false,"rental_uris":{"android":"levelo://app?vid=a6625335-2ab8-495c-9991-5682883be11a","ios":"levelo://app?vid=a6625335-2ab8-495c-9991-5682883be11a"},"vehicle_type_id":"4","last_reported":1712250364,"current_range_meters":31200,"station_id":"","pricing_plan_id":"cebpf4jnsgd1na2vs0mg"},{"bike_id":"309f3944-51ea-4484-95c8-cee864622f13","system_id":"levelo_inurba_marseille","lat":43.309039,"lon":5.371797,"is_reserved":false,"is_disabled":false,"rental_uris":{"android":"levelo://app?vid=309f3944-51ea-4484-95c8-cee864622f13","ios":"levelo://app?vid=309f3944-51ea-4484-95c8-cee864622f13"},"vehicle_type_id":"4","last_reported":1712250364,"current_range_meters":8800,"station_id":"ce4bguh2rcd13ifvqckg","pricing_plan_id":"cebpf4jnsgd1na2vs0mg"},{"bike_id":"e50a7bce-7442-48ab-8d24-7d54b7a99fe6","system_id":"levelo_inurba_marseille","lat":43.305503,"lon":5.36536,"is_reserved":false,"is_disabled":false,"rental_uris":{"android":"levelo://app?vid=e50a7bce-7442-48ab-8d24-7d54b7a99fe6","ios":"levelo://app?vid=e50a7bce-7442-48ab-8d24-7d54b7a99fe6"},"vehicle_type_id":"4","last_reported":1712250364,"current_range_meters":0,"station_id":"ce4bgs12rcd13ifvqcag","pricing_plan_id":"cebpf4jnsgd1na2vs0mg"},{"bike_id":"576eebd9-078d-4cf4-b386-4af15c830b21","system_id":"levelo_inurba_marseille","lat":43.30547,"lon":5.36539,"is_reserved":false,"is_disabled":false,"rental_uris":{"android":"levelo://app?vid=576eebd9-078d-4cf4-b386-4af15c830b21","ios":"levelo://app?vid=576eebd9-078d-4cf4-b386-4af15c830b21"},"vehicle_type_id":"4","last_reported":1712250364,"current_range_meters":0,"station_id":"ce4bgs12rcd13ifvqcag","pricing_plan_id":"cebpf4jnsgd1na2vs0mg"},{"bike_id":"0860f04c-d173-45f9-9541-983e92f35f20","system_id":"levelo_inurba_marseille","lat":43.30541,"lon":5.36546,"is_reserved":false,"is_disabled":false,"rental_uris":{"android":"levelo://app?vid=0860f04c-d173-45f9-9541-983e92f35f20","ios":"levelo://app?vid=0860f04c-d173-45f9-9541-983e92f35f20"},"vehicle_type_id":"4","last_reported":1712250364,"current_range_meters":0,"station_id":"ce4bgs12rcd13ifvqcag","pricing_plan_id":"cebpf4jnsgd1na2vs0mg"},{"bike_id":"3c1b9914-a16f-4d45-87d0-7e41c08a7c43","system_id":"levelo_inurba_marseille","lat":43.270721,"lon":5.422764,"is_reserved":false,"is_disabled":false,"rental_uris":{"android":"levelo://app?vid=3c1b9914-a16f-4d45-87d0-7e41c08a7c43","ios":"levelo://app?vid=3c1b9914-a16f-4d45-87d0-7e41c08a7c43"},"vehicle_type_id":"4","last_reported":1712250364,"current_range_meters":9200,"station_id":"ce4bhk92rcd13ifvqgb0","pricing_plan_id":"cebpf4jnsgd1na2vs0mg"},{"bike_id":"536b89a8-e422-43e6-aebe-f562f43d1b74","system_id":"levelo_inurba_marseille","lat":43.305989,"lon":5.37225,"is_reserved":false,"is_disabled":false,"rental_uris":{"android":"levelo://app?vid=536b89a8-e422-43e6-aebe-f562f43d1b74","ios":"levelo://app?vid=536b89a8-e422-43e6-aebe-f562f43d1b74"},"vehicle_type_id":"4","last_reported":1712250364,"current_range_meters":400,"station_id":"ce4bgqh2rcd13ifvqc4g","pricing_plan_id":"cebpf4jnsgd1na2vs0mg"},{"bike_id":"ad737066-c5e1-4150-84e6-0552225fcd0a","system_id":"levelo_inurba_marseille","lat":43.305989,"lon":5.37225,"is_reserved":false,"is_disabled":false,"rental_uris":{"android":"levelo://app?vid=ad737066-c5e1-4150-84e6-0552225fcd0a","ios":"levelo://app?vid=ad737066-c5e1-4150-84e6-0552225fcd0a"},"vehicle_type_id":"4","last_reported":1712250364,"current_range_meters":0,"station_id":"ce4bgqh2rcd13ifvqc4g","pricing_plan_id":"cebpf4jnsgd1na2vs0mg"},{"bike_id":"6939cfb8-c787-4033-a5f7-4ce95357d0df","system_id":"levelo_inurba_marseille","lat":43.290319,"lon":5.375732,"is_reserved":false,"is_disabled":false,"rental_uris":{"android":"levelo://app?vid=6939cfb8-c787-4033-a5f7-4ce95357d0df","ios":"levelo://app?vid=6939cfb8-c787-4033-a5f7-4ce95357d0df"},"vehicle_type_id":"4","last_reported":1712250364,"current_range_meters":3600,"station_id":"ce4bh692rcd13ifvqe90","pricing_plan_id":"cebpf4jnsgd1na2vs0mg"},{"bike_id":"013df0d5-d17b-4216-9edb-565f71415b63","system_id":"levelo_inurba_marseille","lat":43.311131,"lon":5.377651,"is_reserved":false,"is_disabled":false,"rental_uris":{"android":"levelo://app?vid=013df0d5-d17b-4216-9edb-565f71415b63","ios":"levelo://app?vid=013df0d5-d17b-4216-9edb-565f71415b63"},"vehicle_type_id":"4","last_reported":1712250364,"current_range_meters":400,"station_id":"ce4bgt92rcd13ifvqcg0","pricing_plan_id":"cebpf4jnsgd1na2vs0mg"},{"bike_id":"77e93a27-0aac-4e57-9546-7349eaee62f2","system_id":"levelo_inurba_marseille","lat":43.307945,"lon":5.376487,"is_reserved":false,"is_disabled":false,"rental_uris":{"android":"levelo://app?vid=77e93a27-0aac-4e57-9546-7349eaee62f2","ios":"levelo://app?vid=77e93a27-0aac-4e57-9546-7349eaee62f2"},"vehicle_type_id":"4","last_reported":1712250364,"current_range_meters":15600,"station_id":"ce4bgv92rcd13ifvqcq0","pricing_plan_id":"cebpf4jnsgd1na2vs0mg"},{"bike_id":"bbfed310-f5ca-41c8-bf3a-f83cd6959697","system_id":"levelo_inurba_marseille","lat":43.313254,"lon":5.37881,"is_reserved":false,"is_disabled":false,"rental_uris":{"android":"levelo://app?vid=bbfed310-f5ca-41c8-bf3a-f83cd6959697","ios":"levelo://app?vid=bbfed310-f5ca-41c8-bf3a-f83cd6959697"},"vehicle_type_id":"4","last_reported":1712250364,"current_range_meters":8400,"station_id":"","pricing_plan_id":"cebpf4jnsgd1na2vs0mg"},{"bike_id":"ca804a44-574c-4532-8b95-cbdefa6a7dae","system_id":"levelo_inurba_marseille","lat":43.317075,"lon":5.377367,"is_reserved":false,"is_disabled":false,"rental_uris":{"android":"levelo://app?vid=ca804a44-574c-4532-8b95-cbdefa6a7dae","ios":"levelo://app?vid=ca804a44-574c-4532-8b95-cbdefa6a7dae"},"vehicle_type_id":"4","last_reported":1712250364,"current_range_meters":18800,"station_id":"ce4bgth2rcd13ifvqch0","pricing_plan_id":"cebpf4jnsgd1na2vs0mg"},{"bike_id":"a4156579-c088-48fe-8ad5-0a99405695b3","system_id":"levelo_inurba_marseille","lat":43.317075,"lon":5.377367,"is_reserved":false,"is_disabled":false,"rental_uris":{"android":"levelo://app?vid=a4156579-c088-48fe-8ad5-0a99405695b3","ios":"levelo://app?vid=a4156579-c088-48fe-8ad5-0a99405695b3"},"vehicle_type_id":"4","last_reported":1712250364,"current_range_meters":8400,"station_id":"ce4bgth2rcd13ifvqch0","pricing_plan_id":"cebpf4jnsgd1na2vs0mg"},{"bike_id":"60244655-0ac9-4561-98a9-7b1587d24c2c","system_id":"levelo_inurba_marseille","lat":43.317075,"lon":5.377367,"is_reserved":false,"is_disabled":false,"rental_uris":{"android":"levelo://app?vid=60244655-0ac9-4561-98a9-7b1587d24c2c","ios":"levelo://app?vid=60244655-0ac9-4561-98a9-7b1587d24c2c"},"vehicle_type_id":"4","last_reported":1712250364,"current_range_meters":22800,"station_id":"ce4bgth2rcd13ifvqch0","pricing_plan_id":"cebpf4jnsgd1na2vs0mg"},{"bike_id":"8b55d6d4-c35f-4899-868a-bf332d5e2f8b","system_id":"levelo_inurba_marseille","lat":43.291994,"lon":5.392907,"is_reserved":false,"is_disabled":false,"rental_uris":{"android":"levelo://app?vid=8b55d6d4-c35f-4899-868a-bf332d5e2f8b","ios":"levelo://app?vid=8b55d6d4-c35f-4899-868a-bf332d5e2f8b"},"vehicle_type_id":"4","last_reported":1712250364,"current_range_meters":8000,"station_id":"ce4bh192rcd13ifvqdd0","pricing_plan_id":"cebpf4jnsgd1na2vs0mg"},{"bike_id":"b1501be9-9bab-47d2-a4bf-560af2c7ab49","system_id":"levelo_inurba_marseille","lat":43.30357,"lon":5.36509,"is_reserved":false,"is_disabled":false,"rental_uris":{"android":"levelo://app?vid=b1501be9-9bab-47d2-a4bf-560af2c7ab49","ios":"levelo://app?vid=b1501be9-9bab-47d2-a4bf-560af2c7ab49"},"vehicle_type_id":"4","last_reported":1712250364,"current_range_meters":0,"station_id":"","pricing_plan_id":"cebpf4jnsgd1na2vs0mg"},{"bike_id":"3604428e-5d5b-4432-bd9c-6b1ee5b187aa","system_id":"levelo_inurba_marseille","lat":43.315293,"lon":5.380349,"is_reserved":false,"is_disabled":false,"rental_uris":{"android":"levelo://app?vid=3604428e-5d5b-4432-bd9c-6b1ee5b187aa","ios":"levelo://app?vid=3604428e-5d5b-4432-bd9c-6b1ee5b187aa"},"vehicle_type_id":"4","last_reported":1712250364,"current_range_meters":0,"station_id":"ce4bhsp2rcd13ifvqi50","pricing_plan_id":"cebpf4jnsgd1na2vs0mg"},{"bike_id":"efa28afc-2a41-4658-9ba7-a287e0bbf81e","system_id":"levelo_inurba_marseille","lat":43.303046,"lon":5.368981,"is_reserved":false,"is_disabled":false,"rental_uris":{"android":"levelo://app?vid=efa28afc-2a41-4658-9ba7-a287e0bbf81e","ios":"levelo://app?vid=efa28afc-2a41-4658-9ba7-a287e0bbf81e"},"vehicle_type_id":"4","last_reported":1712250364,"current_range_meters":0,"station_id":"ce4bgqh2rcd13ifvqc5g","pricing_plan_id":"cebpf4jnsgd1na2vs0mg"},{"bike_id":"d76dc8c6-7635-4cbb-aea4-f5da92ece1c1","system_id":"levelo_inurba_marseille","lat":43.303046,"lon":5.368981,"is_reserved":false,"is_disabled":false,"rental_uris":{"android":"levelo://app?vid=d76dc8c6-7635-4cbb-aea4-f5da92ece1c1","ios":"levelo://app?vid=d76dc8c6-7635-4cbb-aea4-f5da92ece1c1"},"vehicle_type_id":"4","last_reported":1712250364,"current_range_meters":0,"station_id":"ce4bgqh2rcd13ifvqc5g","pricing_plan_id":"cebpf4jnsgd1na2vs0mg"},{"bike_id":"d58cb24e-3b8f-4089-a104-b95f4a06b7dc","system_id":"levelo_inurba_marseille","lat":43.303028,"lon":5.368961,"is_reserved":false,"is_disabled":false,"rental_uris":{"android":"levelo://app?vid=d58cb24e-3b8f-4089-a104-b95f4a06b7dc","ios":"levelo://app?vid=d58cb24e-3b8f-4089-a104-b95f4a06b7dc"},"vehicle_type_id":"4","last_reported":1712250364,"current_range_meters":0,"station_id":"ce4bgs92rcd13ifvqcc0","pricing_plan_id":"cebpf4jnsgd1na2vs0mg"},{"bike_id":"547a46d7-10b8-4bc9-8c52-7faad72ba0fc","system_id":"levelo_inurba_marseille","lat":43.31542,"lon":5.38019,"is_reserved":false,"is_disabled":false,"rental_uris":{"android":"levelo://app?vid=547a46d7-10b8-4bc9-8c52-7faad72ba0fc","ios":"levelo://app?vid=547a46d7-10b8-4bc9-8c52-7faad72ba0fc"},"vehicle_type_id":"4","last_reported":1712250364,"current_range_meters":5600,"station_id":"ce4bhsp2rcd13ifvqi50","pricing_plan_id":"cebpf4jnsgd1na2vs0mg"},{"bike_id":"e6bbf41e-c799-4a33-bbb3-74004d2353d7","system_id":"levelo_inurba_marseille","lat":43.315365,"lon":5.38025,"is_reserved":false,"is_disabled":false,"rental_uris":{"android":"levelo://app?vid=e6bbf41e-c799-4a33-bbb3-74004d2353d7","ios":"levelo://app?vid=e6bbf41e-c799-4a33-bbb3-74004d2353d7"},"vehicle_type_id":"4","last_reported":1712250364,"current_range_meters":3600,"station_id":"ce4bhsp2rcd13ifvqi50","pricing_plan_id":"cebpf4jnsgd1na2vs0mg"},{"bike_id":"1179b424-e642-4cc9-8eef-6573e93ba9dd","system_id":"levelo_inurba_marseille","lat":43.302957,"lon":5.372327,"is_reserved":false,"is_disabled":false,"rental_uris":{"android":"levelo://app?vid=1179b424-e642-4cc9-8eef-6573e93ba9dd","ios":"levelo://app?vid=1179b424-e642-4cc9-8eef-6573e93ba9dd"},"vehicle_type_id":"4","last_reported":1712250364,"current_range_meters":3200,"station_id":"","pricing_plan_id":"cebpf4jnsgd1na2vs0mg"},{"bike_id":"9d573b9b-3dd4-4018-8bc6-6895757cb8f1","system_id":"levelo_inurba_marseille","lat":43.301939,"lon":5.366286,"is_reserved":false,"is_disabled":false,"rental_uris":{"android":"levelo://app?vid=9d573b9b-3dd4-4018-8bc6-6895757cb8f1","ios":"levelo://app?vid=9d573b9b-3dd4-4018-8bc6-6895757cb8f1"},"vehicle_type_id":"4","last_reported":1712250364,"current_range_meters":26000,"station_id":"ce4bgrh2rcd13ifvqc8g","pricing_plan_id":"cebpf4jnsgd1na2vs0mg"},{"bike_id":"335324f3-a8fa-4187-93e6-d575ff93ffb1","system_id":"levelo_inurba_marseille","lat":43.3079,"lon":5.38149,"is_reserved":false,"is_disabled":false,"rental_uris":{"android":"levelo://app?vid=335324f3-a8fa-4187-93e6-d575ff93ffb1","ios":"levelo://app?vid=335324f3-a8fa-4187-93e6-d575ff93ffb1"},"vehicle_type_id":"4","last_reported":1712250364,"current_range_meters":0,"station_id":"ce4bgt12rcd13ifvqce0","pricing_plan_id":"cebpf4jnsgd1na2vs0mg"},{"bike_id":"e4a7a0da-5dcc-44de-802f-0aeead03d1ae","system_id":"levelo_inurba_marseille","lat":43.304606,"lon":5.379026,"is_reserved":false,"is_disabled":false,"rental_uris":{"android":"levelo://app?vid=e4a7a0da-5dcc-44de-802f-0aeead03d1ae","ios":"levelo://app?vid=e4a7a0da-5dcc-44de-802f-0aeead03d1ae"},"vehicle_type_id":"4","last_reported":1712250364,"current_range_meters":0,"station_id":"ce4bgup2rcd13ifvqcn0","pricing_plan_id":"cebpf4jnsgd1na2vs0mg"},{"bike_id":"a772d9e0-bdb8-487f-9a85-d07b8eb6d93e","system_id":"levelo_inurba_marseille","lat":43.304606,"lon":5.379026,"is_reserved":false,"is_disabled":false,"rental_uris":{"android":"levelo://app?vid=a772d9e0-bdb8-487f-9a85-d07b8eb6d93e","ios":"levelo://app?vid=a772d9e0-bdb8-487f-9a85-d07b8eb6d93e"},"vehicle_type_id":"4","last_reported":1712250364,"current_range_meters":800,"station_id":"ce4bgup2rcd13ifvqcn0","pricing_plan_id":"cebpf4jnsgd1na2vs0mg"},{"bike_id":"f04343be-8708-43f0-ae89-951faef58641","system_id":"levelo_inurba_marseille","lat":43.301979,"lon":5.374444,"is_reserved":false,"is_disabled":false,"rental_uris":{"android":"levelo://app?vid=f04343be-8708-43f0-ae89-951faef58641","ios":"levelo://app?vid=f04343be-8708-43f0-ae89-951faef58641"},"vehicle_type_id":"4","last_reported":1712250364,"current_range_meters":14000,"station_id":"","pricing_plan_id":"cebpf4jnsgd1na2vs0mg"},{"bike_id":"c1ad5f00-0066-45e9-8319-1dea773a253d","system_id":"levelo_inurba_marseille","lat":43.3248,"lon":5.36561,"is_reserved":false,"is_disabled":false,"rental_uris":{"android":"levelo://app?vid=c1ad5f00-0066-45e9-8319-1dea773a253d","ios":"levelo://app?vid=c1ad5f00-0066-45e9-8319-1dea773a253d"},"vehicle_type_id":"4","last_reported":1712250364,"current_range_meters":18400,"station_id":"ce4bhs12rcd13ifvqhvg","pricing_plan_id":"cebpf4jnsgd1na2vs0mg"},{"bike_id":"d1508609-edb6-4547-9092-3a0d255ab6ab","system_id":"levelo_inurba_marseille","lat":43.324771,"lon":5.36557,"is_reserved":false,"is_disabled":false,"rental_uris":{"android":"levelo://app?vid=d1508609-edb6-4547-9092-3a0d255ab6ab","ios":"levelo://app?vid=d1508609-edb6-4547-9092-3a0d255ab6ab"},"vehicle_type_id":"4","last_reported":1712250364,"current_range_meters":30000,"station_id":"ce4bhs12rcd13ifvqhvg","pricing_plan_id":"cebpf4jnsgd1na2vs0mg"},{"bike_id":"e1fd5e5a-5ac1-4228-a575-548cbeb63e2e","system_id":"levelo_inurba_marseille","lat":43.32482,"lon":5.36567,"is_reserved":false,"is_disabled":false,"rental_uris":{"android":"levelo://app?vid=e1fd5e5a-5ac1-4228-a575-548cbeb63e2e","ios":"levelo://app?vid=e1fd5e5a-5ac1-4228-a575-548cbeb63e2e"},"vehicle_type_id":"4","last_reported":1712250364,"current_range_meters":6400,"station_id":"ce4bhs12rcd13ifvqhvg","pricing_plan_id":"cebpf4jnsgd1na2vs0mg"},{"bike_id":"62a961e6-9a77-4a48-b785-17f7a76e126f","system_id":"levelo_inurba_marseille","lat":43.324771,"lon":5.36557,"is_reserved":false,"is_disabled":false,"rental_uris":{"android":"levelo://app?vid=62a961e6-9a77-4a48-b785-17f7a76e126f","ios":"levelo://app?vid=62a961e6-9a77-4a48-b785-17f7a76e126f"},"vehicle_type_id":"4","last_reported":1712250364,"current_range_meters":27200,"station_id":"ce4bhs12rcd13ifvqhvg","pricing_plan_id":"cebpf4jnsgd1na2vs0mg"},{"bike_id":"a35e5ff0-8132-4b77-bba8-dac05d1c0272","system_id":"levelo_inurba_marseille","lat":43.32484,"lon":5.36554,"is_reserved":false,"is_disabled":false,"rental_uris":{"android":"levelo://app?vid=a35e5ff0-8132-4b77-bba8-dac05d1c0272","ios":"levelo://app?vid=a35e5ff0-8132-4b77-bba8-dac05d1c0272"},"vehicle_type_id":"4","last_reported":1712250364,"current_range_meters":16000,"station_id":"ce4bhs12rcd13ifvqhvg","pricing_plan_id":"cebpf4jnsgd1na2vs0mg"},{"bike_id":"728b6c0d-76de-46b5-8db9-fe74fbe8a2c6","system_id":"levelo_inurba_marseille","lat":43.32487,"lon":5.36558,"is_reserved":false,"is_disabled":false,"rental_uris":{"android":"levelo://app?vid=728b6c0d-76de-46b5-8db9-fe74fbe8a2c6","ios":"levelo://app?vid=728b6c0d-76de-46b5-8db9-fe74fbe8a2c6"},"vehicle_type_id":"4","last_reported":1712250364,"current_range_meters":6000,"station_id":"ce4bhs12rcd13ifvqhvg","pricing_plan_id":"cebpf4jnsgd1na2vs0mg"},{"bike_id":"a812ff1a-d068-44a9-9872-fcd43f0caeb4","system_id":"levelo_inurba_marseille","lat":43.310804,"lon":5.38359,"is_reserved":false,"is_disabled":false,"rental_uris":{"android":"levelo://app?vid=a812ff1a-d068-44a9-9872-fcd43f0caeb4","ios":"levelo://app?vid=a812ff1a-d068-44a9-9872-fcd43f0caeb4"},"vehicle_type_id":"4","last_reported":1712250364,"current_range_meters":13600,"station_id":"ce4bgv92rcd13ifvqcr0","pricing_plan_id":"cebpf4jnsgd1na2vs0mg"},{"bike_id":"b2d42511-bb15-4573-8ee7-08999bd63772","system_id":"levelo_inurba_marseille","lat":43.302784,"lon":5.377158,"is_reserved":false,"is_disabled":false,"rental_uris":{"android":"levelo://app?vid=b2d42511-bb15-4573-8ee7-08999bd63772","ios":"levelo://app?vid=b2d42511-bb15-4573-8ee7-08999bd63772"},"vehicle_type_id":"4","last_reported":1712250364,"current_range_meters":21600,"station_id":"ce4bguh2rcd13ifvqcj0","pricing_plan_id":"cebpf4jnsgd1na2vs0mg"},{"bike_id":"32e6864e-416c-4bb9-9889-81cfab35fdb1","system_id":"levelo_inurba_marseille","lat":43.330442,"lon":5.389148,"is_reserved":false,"is_disabled":false,"rental_uris":{"android":"levelo://app?vid=32e6864e-416c-4bb9-9889-81cfab35fdb1","ios":"levelo://app?vid=32e6864e-416c-4bb9-9889-81cfab35fdb1"},"vehicle_type_id":"4","last_reported":1712250364,"current_range_meters":13600,"station_id":"ce4bhr92rcd13ifvqhrg","pricing_plan_id":"cebpf4jnsgd1na2vs0mg"},{"bike_id":"d078eb6a-5b99-4a83-8acb-2310cd89b40e","system_id":"levelo_inurba_marseille","lat":43.30143,"lon":5.37413,"is_reserved":false,"is_disabled":false,"rental_uris":{"android":"levelo://app?vid=d078eb6a-5b99-4a83-8acb-2310cd89b40e","ios":"levelo://app?vid=d078eb6a-5b99-4a83-8acb-2310cd89b40e"},"vehicle_type_id":"4","last_reported":1712250364,"current_range_meters":20400,"station_id":"ce4bgs92rcd13ifvqcc0","pricing_plan_id":"cebpf4jnsgd1na2vs0mg"},{"bike_id":"3885b0e0-87d3-4a6b-a544-7b59755fcfed","system_id":"levelo_inurba_marseille","lat":43.31993,"lon":5.38145,"is_reserved":false,"is_disabled":false,"rental_uris":{"android":"levelo://app?vid=3885b0e0-87d3-4a6b-a544-7b59755fcfed","ios":"levelo://app?vid=3885b0e0-87d3-4a6b-a544-7b59755fcfed"},"vehicle_type_id":"4","last_reported":1712250364,"current_range_meters":24800,"station_id":"ce4bhr12rcd13ifvqhpg","pricing_plan_id":"cebpf4jnsgd1na2vs0mg"},{"bike_id":"1cb7f366-3047-40db-b1ba-e5bbb0f28fb2","system_id":"levelo_inurba_marseille","lat":43.319926,"lon":5.381462,"is_reserved":false,"is_disabled":false,"rental_uris":{"android":"levelo://app?vid=1cb7f366-3047-40db-b1ba-e5bbb0f28fb2","ios":"levelo://app?vid=1cb7f366-3047-40db-b1ba-e5bbb0f28fb2"},"vehicle_type_id":"4","last_reported":1712250364,"current_range_meters":26000,"station_id":"ce4bhr12rcd13ifvqhpg","pricing_plan_id":"cebpf4jnsgd1na2vs0mg"},{"bike_id":"ca73e08d-bc7b-4376-893d-cfd00a5b54a1","system_id":"levelo_inurba_marseille","lat":43.319952,"lon":5.381493,"is_reserved":false,"is_disabled":false,"rental_uris":{"android":"levelo://app?vid=ca73e08d-bc7b-4376-893d-cfd00a5b54a1","ios":"levelo://app?vid=ca73e08d-bc7b-4376-893d-cfd00a5b54a1"},"vehicle_type_id":"4","last_reported":1712250364,"current_range_meters":10000,"station_id":"ce4bhr12rcd13ifvqhpg","pricing_plan_id":"cebpf4jnsgd1na2vs0mg"},{"bike_id":"1d69cb88-6235-449f-a9b8-ac033d06768a","system_id":"levelo_inurba_marseille","lat":43.319931,"lon":5.381526,"is_reserved":false,"is_disabled":false,"rental_uris":{"android":"levelo://app?vid=1d69cb88-6235-449f-a9b8-ac033d06768a","ios":"levelo://app?vid=1d69cb88-6235-449f-a9b8-ac033d06768a"},"vehicle_type_id":"4","last_reported":1712250364,"current_range_meters":18400,"station_id":"ce4bhr12rcd13ifvqhpg","pricing_plan_id":"cebpf4jnsgd1na2vs0mg"},{"bike_id":"483471ba-ca8f-474c-b3ed-2c654b8bada5","system_id":"levelo_inurba_marseille","lat":43.31996,"lon":5.3815,"is_reserved":false,"is_disabled":false,"rental_uris":{"android":"levelo://app?vid=483471ba-ca8f-474c-b3ed-2c654b8bada5","ios":"levelo://app?vid=483471ba-ca8f-474c-b3ed-2c654b8bada5"},"vehicle_type_id":"4","last_reported":1712250364,"current_range_meters":3600,"station_id":"ce4bhr12rcd13ifvqhpg","pricing_plan_id":"cebpf4jnsgd1na2vs0mg"},{"bike_id":"0ecfd4da-1664-4c46-9fb3-a54e99743280","system_id":"levelo_inurba_marseille","lat":43.31993,"lon":5.38155,"is_reserved":false,"is_disabled":false,"rental_uris":{"android":"levelo://app?vid=0ecfd4da-1664-4c46-9fb3-a54e99743280","ios":"levelo://app?vid=0ecfd4da-1664-4c46-9fb3-a54e99743280"},"vehicle_type_id":"4","last_reported":1712250364,"current_range_meters":4800,"station_id":"ce4bhr12rcd13ifvqhpg","pricing_plan_id":"cebpf4jnsgd1na2vs0mg"},{"bike_id":"88fa972c-b268-4226-b8b5-2d8bd7881f4c","system_id":"levelo_inurba_marseille","lat":43.32002,"lon":5.38149,"is_reserved":false,"is_disabled":false,"rental_uris":{"android":"levelo://app?vid=88fa972c-b268-4226-b8b5-2d8bd7881f4c","ios":"levelo://app?vid=88fa972c-b268-4226-b8b5-2d8bd7881f4c"},"vehicle_type_id":"4","last_reported":1712250364,"current_range_meters":0,"station_id":"ce4bhr12rcd13ifvqhpg","pricing_plan_id":"cebpf4jnsgd1na2vs0mg"},{"bike_id":"0fd67049-137c-4b3d-96a9-17a8d5e1a793","system_id":"levelo_inurba_marseille","lat":43.32002,"lon":5.3815,"is_reserved":false,"is_disabled":false,"rental_uris":{"android":"levelo://app?vid=0fd67049-137c-4b3d-96a9-17a8d5e1a793","ios":"levelo://app?vid=0fd67049-137c-4b3d-96a9-17a8d5e1a793"},"vehicle_type_id":"4","last_reported":1712250364,"current_range_meters":8400,"station_id":"ce4bhr12rcd13ifvqhpg","pricing_plan_id":"cebpf4jnsgd1na2vs0mg"},{"bike_id":"85ed6cb6-61f4-46b2-bda3-7e405524523f","system_id":"levelo_inurba_marseille","lat":43.31997,"lon":5.38161,"is_reserved":false,"is_disabled":false,"rental_uris":{"android":"levelo://app?vid=85ed6cb6-61f4-46b2-bda3-7e405524523f","ios":"levelo://app?vid=85ed6cb6-61f4-46b2-bda3-7e405524523f"},"vehicle_type_id":"4","last_reported":1712250364,"current_range_meters":26800,"station_id":"ce4bhr12rcd13ifvqhpg","pricing_plan_id":"cebpf4jnsgd1na2vs0mg"},{"bike_id":"67a6ae06-aef2-483d-9ba3-a96130a005bd","system_id":"levelo_inurba_marseille","lat":43.31369,"lon":5.38483,"is_reserved":false,"is_disabled":false,"rental_uris":{"android":"levelo://app?vid=67a6ae06-aef2-483d-9ba3-a96130a005bd","ios":"levelo://app?vid=67a6ae06-aef2-483d-9ba3-a96130a005bd"},"vehicle_type_id":"4","last_reported":1712250364,"current_range_meters":14800,"station_id":"","pricing_plan_id":"cebpf4jnsgd1na2vs0mg"},{"bike_id":"8d29a336-9413-4d0d-a185-561d89504b11","system_id":"levelo_inurba_marseille","lat":43.3136,"lon":5.38492,"is_reserved":false,"is_disabled":false,"rental_uris":{"android":"levelo://app?vid=8d29a336-9413-4d0d-a185-561d89504b11","ios":"levelo://app?vid=8d29a336-9413-4d0d-a185-561d89504b11"},"vehicle_type_id":"4","last_reported":1712250364,"current_range_meters":7200,"station_id":"ce4bgt92rcd13ifvqcf0","pricing_plan_id":"cebpf4jnsgd1na2vs0mg"},{"bike_id":"ac5f3cea-4e60-4ab2-bc16-24b30802e04e","system_id":"levelo_inurba_marseille","lat":43.3136,"lon":5.38503,"is_reserved":false,"is_disabled":false,"rental_uris":{"android":"levelo://app?vid=ac5f3cea-4e60-4ab2-bc16-24b30802e04e","ios":"levelo://app?vid=ac5f3cea-4e60-4ab2-bc16-24b30802e04e"},"vehicle_type_id":"4","last_reported":1712250364,"current_range_meters":0,"station_id":"ce4bgt92rcd13ifvqcf0","pricing_plan_id":"cebpf4jnsgd1na2vs0mg"},{"bike_id":"84198938-f740-4180-85a5-1296119040f1","system_id":"levelo_inurba_marseille","lat":43.299222,"lon":5.365554,"is_reserved":false,"is_disabled":false,"rental_uris":{"android":"levelo://app?vid=84198938-f740-4180-85a5-1296119040f1","ios":"levelo://app?vid=84198938-f740-4180-85a5-1296119040f1"},"vehicle_type_id":"4","last_reported":1712250364,"current_range_meters":9600,"station_id":"ce4bgm92rcd13ifvqbr0","pricing_plan_id":"cebpf4jnsgd1na2vs0mg"},{"bike_id":"92b9a908-07bb-49c8-b5e6-b35349a19f52","system_id":"levelo_inurba_marseille","lat":43.309371,"lon":5.401449,"is_reserved":false,"is_disabled":false,"rental_uris":{"android":"levelo://app?vid=92b9a908-07bb-49c8-b5e6-b35349a19f52","ios":"levelo://app?vid=92b9a908-07bb-49c8-b5e6-b35349a19f52"},"vehicle_type_id":"4","last_reported":1712250364,"current_range_meters":30800,"station_id":"ce4bgvp2rcd13ifvqct0","pricing_plan_id":"cebpf4jnsgd1na2vs0mg"},{"bike_id":"82dc61d9-99c3-4fe4-9cc1-ff05116aef19","system_id":"levelo_inurba_marseille","lat":43.305364,"lon":5.384119,"is_reserved":false,"is_disabled":false,"rental_uris":{"android":"levelo://app?vid=82dc61d9-99c3-4fe4-9cc1-ff05116aef19","ios":"levelo://app?vid=82dc61d9-99c3-4fe4-9cc1-ff05116aef19"},"vehicle_type_id":"4","last_reported":1712250364,"current_range_meters":2000,"station_id":"ce4bgg92rcd13ifvqb30","pricing_plan_id":"cebpf4jnsgd1na2vs0mg"},{"bike_id":"afc7bad3-bf4f-4715-a5f8-d4e5b810377d","system_id":"levelo_inurba_marseille","lat":43.299243,"lon":5.37481,"is_reserved":false,"is_disabled":false,"rental_uris":{"android":"levelo://app?vid=afc7bad3-bf4f-4715-a5f8-d4e5b810377d","ios":"levelo://app?vid=afc7bad3-bf4f-4715-a5f8-d4e5b810377d"},"vehicle_type_id":"4","last_reported":1712250364,"current_range_meters":21200,"station_id":"ce4bgjh2rcd13ifvqbg0","pricing_plan_id":"cebpf4jnsgd1na2vs0mg"},{"bike_id":"0ad6968d-cdbc-494c-9c18-1943e47cc071","system_id":"levelo_inurba_marseille","lat":43.305364,"lon":5.384119,"is_reserved":false,"is_disabled":false,"rental_uris":{"android":"levelo://app?vid=0ad6968d-cdbc-494c-9c18-1943e47cc071","ios":"levelo://app?vid=0ad6968d-cdbc-494c-9c18-1943e47cc071"},"vehicle_type_id":"4","last_reported":1712250364,"current_range_meters":0,"station_id":"ce4bgg92rcd13ifvqb30","pricing_plan_id":"cebpf4jnsgd1na2vs0mg"},{"bike_id":"82593af6-d2f8-4e67-bd5e-ebc2fd9c51ff","system_id":"levelo_inurba_marseille","lat":43.299243,"lon":5.37481,"is_reserved":false,"is_disabled":false,"rental_uris":{"android":"levelo://app?vid=82593af6-d2f8-4e67-bd5e-ebc2fd9c51ff","ios":"levelo://app?vid=82593af6-d2f8-4e67-bd5e-ebc2fd9c51ff"},"vehicle_type_id":"4","last_reported":1712250364,"current_range_meters":0,"station_id":"ce4bgjh2rcd13ifvqbg0","pricing_plan_id":"cebpf4jnsgd1na2vs0mg"},{"bike_id":"072ebe64-681c-49d0-a504-d93953371ec3","system_id":"levelo_inurba_marseille","lat":43.299243,"lon":5.374807,"is_reserved":false,"is_disabled":false,"rental_uris":{"android":"levelo://app?vid=072ebe64-681c-49d0-a504-d93953371ec3","ios":"levelo://app?vid=072ebe64-681c-49d0-a504-d93953371ec3"},"vehicle_type_id":"4","last_reported":1712250364,"current_range_meters":7600,"station_id":"ce4bgjh2rcd13ifvqbg0","pricing_plan_id":"cebpf4jnsgd1na2vs0mg"},{"bike_id":"68084ccc-9435-4ca8-ae9c-02ae79fb1747","system_id":"levelo_inurba_marseille","lat":43.309371,"lon":5.401449,"is_reserved":false,"is_disabled":false,"rental_uris":{"android":"levelo://app?vid=68084ccc-9435-4ca8-ae9c-02ae79fb1747","ios":"levelo://app?vid=68084ccc-9435-4ca8-ae9c-02ae79fb1747"},"vehicle_type_id":"4","last_reported":1712250364,"current_range_meters":14800,"station_id":"ce4bgvp2rcd13ifvqct0","pricing_plan_id":"cebpf4jnsgd1na2vs0mg"},{"bike_id":"c9e8e8e8-577c-4186-ba41-a5a6a887a230","system_id":"levelo_inurba_marseille","lat":43.311722,"lon":5.387247,"is_reserved":false,"is_disabled":false,"rental_uris":{"android":"levelo://app?vid=c9e8e8e8-577c-4186-ba41-a5a6a887a230","ios":"levelo://app?vid=c9e8e8e8-577c-4186-ba41-a5a6a887a230"},"vehicle_type_id":"4","last_reported":1712250364,"current_range_meters":12800,"station_id":"ce4bgv12rcd13ifvqcp0","pricing_plan_id":"cebpf4jnsgd1na2vs0mg"},{"bike_id":"37d512f2-7209-48bc-b94c-f1ad5ca50aec","system_id":"levelo_inurba_marseille","lat":43.311722,"lon":5.387247,"is_reserved":false,"is_disabled":false,"rental_uris":{"android":"levelo://app?vid=37d512f2-7209-48bc-b94c-f1ad5ca50aec","ios":"levelo://app?vid=37d512f2-7209-48bc-b94c-f1ad5ca50aec"},"vehicle_type_id":"4","last_reported":1712250364,"current_range_meters":2000,"station_id":"ce4bgv12rcd13ifvqcp0","pricing_plan_id":"cebpf4jnsgd1na2vs0mg"},{"bike_id":"fdc56f20-9c3a-4047-871e-ddc652c3bb81","system_id":"levelo_inurba_marseille","lat":43.311722,"lon":5.387247,"is_reserved":false,"is_disabled":false,"rental_uris":{"android":"levelo://app?vid=fdc56f20-9c3a-4047-871e-ddc652c3bb81","ios":"levelo://app?vid=fdc56f20-9c3a-4047-871e-ddc652c3bb81"},"vehicle_type_id":"4","last_reported":1712250364,"current_range_meters":8000,"station_id":"ce4bgv12rcd13ifvqcp0","pricing_plan_id":"cebpf4jnsgd1na2vs0mg"},{"bike_id":"33a07bfc-cc36-47c2-9dec-259b2bf6c191","system_id":"levelo_inurba_marseille","lat":43.295169,"lon":5.390426,"is_reserved":false,"is_disabled":false,"rental_uris":{"android":"levelo://app?vid=33a07bfc-cc36-47c2-9dec-259b2bf6c191","ios":"levelo://app?vid=33a07bfc-cc36-47c2-9dec-259b2bf6c191"},"vehicle_type_id":"4","last_reported":1712250364,"current_range_meters":12800,"station_id":"ce4bh3p2rcd13ifvqdp0","pricing_plan_id":"cebpf4jnsgd1na2vs0mg"},{"bike_id":"744f0ad0-1951-4af9-820c-43f286f2092b","system_id":"levelo_inurba_marseille","lat":43.322872,"lon":5.382756,"is_reserved":false,"is_disabled":false,"rental_uris":{"android":"levelo://app?vid=744f0ad0-1951-4af9-820c-43f286f2092b","ios":"levelo://app?vid=744f0ad0-1951-4af9-820c-43f286f2092b"},"vehicle_type_id":"4","last_reported":1712250364,"current_range_meters":10800,"station_id":"ce4bhr12rcd13ifvqhqg","pricing_plan_id":"cebpf4jnsgd1na2vs0mg"},{"bike_id":"cabb2eba-e467-4b9e-98e6-0a60d4014cfc","system_id":"levelo_inurba_marseille","lat":43.322872,"lon":5.382756,"is_reserved":false,"is_disabled":false,"rental_uris":{"android":"levelo://app?vid=cabb2eba-e467-4b9e-98e6-0a60d4014cfc","ios":"levelo://app?vid=cabb2eba-e467-4b9e-98e6-0a60d4014cfc"},"vehicle_type_id":"4","last_reported":1712250364,"current_range_meters":11200,"station_id":"ce4bhr12rcd13ifvqhqg","pricing_plan_id":"cebpf4jnsgd1na2vs0mg"},{"bike_id":"7bc390eb-493d-4a16-9757-cf41a5ee55d3","system_id":"levelo_inurba_marseille","lat":43.322872,"lon":5.382756,"is_reserved":false,"is_disabled":false,"rental_uris":{"android":"levelo://app?vid=7bc390eb-493d-4a16-9757-cf41a5ee55d3","ios":"levelo://app?vid=7bc390eb-493d-4a16-9757-cf41a5ee55d3"},"vehicle_type_id":"4","last_reported":1712250364,"current_range_meters":31200,"station_id":"ce4bhr12rcd13ifvqhqg","pricing_plan_id":"cebpf4jnsgd1na2vs0mg"},{"bike_id":"6db4ba56-cdbd-44f6-826d-1abf96302385","system_id":"levelo_inurba_marseille","lat":43.322872,"lon":5.382756,"is_reserved":false,"is_disabled":false,"rental_uris":{"android":"levelo://app?vid=6db4ba56-cdbd-44f6-826d-1abf96302385","ios":"levelo://app?vid=6db4ba56-cdbd-44f6-826d-1abf96302385"},"vehicle_type_id":"4","last_reported":1712250364,"current_range_meters":31200,"station_id":"ce4bhr12rcd13ifvqhqg","pricing_plan_id":"cebpf4jnsgd1na2vs0mg"},{"bike_id":"159952c8-379d-42be-bace-cfa962c6b8b2","system_id":"levelo_inurba_marseille","lat":43.322872,"lon":5.382756,"is_reserved":false,"is_disabled":false,"rental_uris":{"android":"levelo://app?vid=159952c8-379d-42be-bace-cfa962c6b8b2","ios":"levelo://app?vid=159952c8-379d-42be-bace-cfa962c6b8b2"},"vehicle_type_id":"4","last_reported":1712250364,"current_range_meters":17200,"station_id":"ce4bhr12rcd13ifvqhqg","pricing_plan_id":"cebpf4jnsgd1na2vs0mg"},{"bike_id":"85562e32-41f8-44ad-867e-d7f8a544ea58","system_id":"levelo_inurba_marseille","lat":43.297163,"lon":5.365866,"is_reserved":false,"is_disabled":false,"rental_uris":{"android":"levelo://app?vid=85562e32-41f8-44ad-867e-d7f8a544ea58","ios":"levelo://app?vid=85562e32-41f8-44ad-867e-d7f8a544ea58"},"vehicle_type_id":"4","last_reported":1712250364,"current_range_meters":0,"station_id":"ce4bgn12rcd13ifvqbt0","pricing_plan_id":"cebpf4jnsgd1na2vs0mg"},{"bike_id":"9ae4dd1d-ef14-4a4f-b57b-81435192461f","system_id":"levelo_inurba_marseille","lat":43.296165,"lon":5.36722,"is_reserved":false,"is_disabled":false,"rental_uris":{"android":"levelo://app?vid=9ae4dd1d-ef14-4a4f-b57b-81435192461f","ios":"levelo://app?vid=9ae4dd1d-ef14-4a4f-b57b-81435192461f"},"vehicle_type_id":"4","last_reported":1712250364,"current_range_meters":31200,"station_id":"","pricing_plan_id":"cebpf4jnsgd1na2vs0mg"},{"bike_id":"3afa5531-d42c-497d-adf9-a61b9e451460","system_id":"levelo_inurba_marseille","lat":43.32865,"lon":5.37498,"is_reserved":false,"is_disabled":false,"rental_uris":{"android":"levelo://app?vid=3afa5531-d42c-497d-adf9-a61b9e451460","ios":"levelo://app?vid=3afa5531-d42c-497d-adf9-a61b9e451460"},"vehicle_type_id":"4","last_reported":1712250364,"current_range_meters":25200,"station_id":"","pricing_plan_id":"cebpf4jnsgd1na2vs0mg"},{"bike_id":"461e0eb5-c126-48e7-83aa-97705403502c","system_id":"levelo_inurba_marseille","lat":43.299028,"lon":5.381509,"is_reserved":false,"is_disabled":false,"rental_uris":{"android":"levelo://app?vid=461e0eb5-c126-48e7-83aa-97705403502c","ios":"levelo://app?vid=461e0eb5-c126-48e7-83aa-97705403502c"},"vehicle_type_id":"4","last_reported":1712250364,"current_range_meters":7200,"station_id":"ce4bgj12rcd13ifvqbc0","pricing_plan_id":"cebpf4jnsgd1na2vs0mg"},{"bike_id":"b39826f6-fa6c-4117-a2b8-88d05325a822","system_id":"levelo_inurba_marseille","lat":43.309589,"lon":5.390258,"is_reserved":false,"is_disabled":false,"rental_uris":{"android":"levelo://app?vid=b39826f6-fa6c-4117-a2b8-88d05325a822","ios":"levelo://app?vid=b39826f6-fa6c-4117-a2b8-88d05325a822"},"vehicle_type_id":"4","last_reported":1712250364,"current_range_meters":5600,"station_id":"ce4bgup2rcd13ifvqco0","pricing_plan_id":"cebpf4jnsgd1na2vs0mg"},{"bike_id":"d4f7e968-447e-4efc-b930-7474c66ccbf3","system_id":"levelo_inurba_marseille","lat":43.309589,"lon":5.390258,"is_reserved":false,"is_disabled":false,"rental_uris":{"android":"levelo://app?vid=d4f7e968-447e-4efc-b930-7474c66ccbf3","ios":"levelo://app?vid=d4f7e968-447e-4efc-b930-7474c66ccbf3"},"vehicle_type_id":"4","last_reported":1712250364,"current_range_meters":0,"station_id":"ce4bgup2rcd13ifvqco0","pricing_plan_id":"cebpf4jnsgd1na2vs0mg"},{"bike_id":"36a4fc10-f29c-4b38-8aa4-f83fbd22f4a0","system_id":"levelo_inurba_marseille","lat":43.299028,"lon":5.381509,"is_reserved":false,"is_disabled":false,"rental_uris":{"android":"levelo://app?vid=36a4fc10-f29c-4b38-8aa4-f83fbd22f4a0","ios":"levelo://app?vid=36a4fc10-f29c-4b38-8aa4-f83fbd22f4a0"},"vehicle_type_id":"4","last_reported":1712250364,"current_range_meters":800,"station_id":"ce4bgj12rcd13ifvqbc0","pricing_plan_id":"cebpf4jnsgd1na2vs0mg"},{"bike_id":"2e3c9a29-66fe-40c2-be8c-12722719824e","system_id":"levelo_inurba_marseille","lat":43.309589,"lon":5.390258,"is_reserved":false,"is_disabled":false,"rental_uris":{"android":"levelo://app?vid=2e3c9a29-66fe-40c2-be8c-12722719824e","ios":"levelo://app?vid=2e3c9a29-66fe-40c2-be8c-12722719824e"},"vehicle_type_id":"4","last_reported":1712250364,"current_range_meters":31200,"station_id":"ce4bgup2rcd13ifvqco0","pricing_plan_id":"cebpf4jnsgd1na2vs0mg"},{"bike_id":"9b17a4d9-7df3-46cf-97d0-429a256c5a12","system_id":"levelo_inurba_marseille","lat":43.309589,"lon":5.390258,"is_reserved":false,"is_disabled":false,"rental_uris":{"android":"levelo://app?vid=9b17a4d9-7df3-46cf-97d0-429a256c5a12","ios":"levelo://app?vid=9b17a4d9-7df3-46cf-97d0-429a256c5a12"},"vehicle_type_id":"4","last_reported":1712250364,"current_range_meters":9200,"station_id":"ce4bgup2rcd13ifvqco0","pricing_plan_id":"cebpf4jnsgd1na2vs0mg"},{"bike_id":"30ee37ff-266a-42a6-96ad-835c9fd0c91d","system_id":"levelo_inurba_marseille","lat":43.309589,"lon":5.390258,"is_reserved":false,"is_disabled":false,"rental_uris":{"android":"levelo://app?vid=30ee37ff-266a-42a6-96ad-835c9fd0c91d","ios":"levelo://app?vid=30ee37ff-266a-42a6-96ad-835c9fd0c91d"},"vehicle_type_id":"4","last_reported":1712250364,"current_range_meters":0,"station_id":"ce4bgup2rcd13ifvqco0","pricing_plan_id":"cebpf4jnsgd1na2vs0mg"},{"bike_id":"311c5eec-aa43-4974-87bd-f8d13047b375","system_id":"levelo_inurba_marseille","lat":43.3176,"lon":5.39003,"is_reserved":false,"is_disabled":false,"rental_uris":{"android":"levelo://app?vid=311c5eec-aa43-4974-87bd-f8d13047b375","ios":"levelo://app?vid=311c5eec-aa43-4974-87bd-f8d13047b375"},"vehicle_type_id":"4","last_reported":1712250364,"current_range_meters":1600,"station_id":"ce4bhqp2rcd13ifvqhng","pricing_plan_id":"cebpf4jnsgd1na2vs0mg"},{"bike_id":"f18f0997-bf5b-47c5-b1f6-a95bc2381e57","system_id":"levelo_inurba_marseille","lat":43.31753,"lon":5.3901,"is_reserved":false,"is_disabled":false,"rental_uris":{"android":"levelo://app?vid=f18f0997-bf5b-47c5-b1f6-a95bc2381e57","ios":"levelo://app?vid=f18f0997-bf5b-47c5-b1f6-a95bc2381e57"},"vehicle_type_id":"4","last_reported":1712250364,"current_range_meters":23600,"station_id":"ce4bhqp2rcd13ifvqhng","pricing_plan_id":"cebpf4jnsgd1na2vs0mg"},{"bike_id":"3ad35e45-dbc0-4aa4-ac94-1020cbf77460","system_id":"levelo_inurba_marseille","lat":43.317557,"lon":5.390173,"is_reserved":false,"is_disabled":false,"rental_uris":{"android":"levelo://app?vid=3ad35e45-dbc0-4aa4-ac94-1020cbf77460","ios":"levelo://app?vid=3ad35e45-dbc0-4aa4-ac94-1020cbf77460"},"vehicle_type_id":"4","last_reported":1712250364,"current_range_meters":16800,"station_id":"ce4bhqp2rcd13ifvqhng","pricing_plan_id":"cebpf4jnsgd1na2vs0mg"},{"bike_id":"feebd0a8-855a-4123-83cb-ab2828e417a2","system_id":"levelo_inurba_marseille","lat":43.317557,"lon":5.390173,"is_reserved":false,"is_disabled":false,"rental_uris":{"android":"levelo://app?vid=feebd0a8-855a-4123-83cb-ab2828e417a2","ios":"levelo://app?vid=feebd0a8-855a-4123-83cb-ab2828e417a2"},"vehicle_type_id":"4","last_reported":1712250364,"current_range_meters":24000,"station_id":"ce4bhqp2rcd13ifvqhng","pricing_plan_id":"cebpf4jnsgd1na2vs0mg"},{"bike_id":"16340e3b-e48d-4687-924a-e74977ddf3d4","system_id":"levelo_inurba_marseille","lat":43.317557,"lon":5.390173,"is_reserved":false,"is_disabled":false,"rental_uris":{"android":"levelo://app?vid=16340e3b-e48d-4687-924a-e74977ddf3d4","ios":"levelo://app?vid=16340e3b-e48d-4687-924a-e74977ddf3d4"},"vehicle_type_id":"4","last_reported":1712250364,"current_range_meters":26800,"station_id":"ce4bhqp2rcd13ifvqhng","pricing_plan_id":"cebpf4jnsgd1na2vs0mg"},{"bike_id":"7c599bbb-e1e3-46f2-8293-3261a453d88a","system_id":"levelo_inurba_marseille","lat":43.31757,"lon":5.39013,"is_reserved":false,"is_disabled":false,"rental_uris":{"android":"levelo://app?vid=7c599bbb-e1e3-46f2-8293-3261a453d88a","ios":"levelo://app?vid=7c599bbb-e1e3-46f2-8293-3261a453d88a"},"vehicle_type_id":"4","last_reported":1712250364,"current_range_meters":30000,"station_id":"ce4bhqp2rcd13ifvqhng","pricing_plan_id":"cebpf4jnsgd1na2vs0mg"},{"bike_id":"44203c65-4ca8-4bc0-87a2-c1d2c6342de3","system_id":"levelo_inurba_marseille","lat":43.317557,"lon":5.390173,"is_reserved":false,"is_disabled":false,"rental_uris":{"android":"levelo://app?vid=44203c65-4ca8-4bc0-87a2-c1d2c6342de3","ios":"levelo://app?vid=44203c65-4ca8-4bc0-87a2-c1d2c6342de3"},"vehicle_type_id":"4","last_reported":1712250364,"current_range_meters":30400,"station_id":"ce4bhqp2rcd13ifvqhng","pricing_plan_id":"cebpf4jnsgd1na2vs0mg"},{"bike_id":"518f661a-16d2-498d-b26e-95b730a0fbc5","system_id":"levelo_inurba_marseille","lat":43.317557,"lon":5.390173,"is_reserved":false,"is_disabled":false,"rental_uris":{"android":"levelo://app?vid=518f661a-16d2-498d-b26e-95b730a0fbc5","ios":"levelo://app?vid=518f661a-16d2-498d-b26e-95b730a0fbc5"},"vehicle_type_id":"4","last_reported":1712250364,"current_range_meters":24800,"station_id":"ce4bhqp2rcd13ifvqhng","pricing_plan_id":"cebpf4jnsgd1na2vs0mg"},{"bike_id":"0a15758f-fa3a-4308-8ab6-52b61d5d86b8","system_id":"levelo_inurba_marseille","lat":43.317557,"lon":5.390173,"is_reserved":false,"is_disabled":false,"rental_uris":{"android":"levelo://app?vid=0a15758f-fa3a-4308-8ab6-52b61d5d86b8","ios":"levelo://app?vid=0a15758f-fa3a-4308-8ab6-52b61d5d86b8"},"vehicle_type_id":"4","last_reported":1712250364,"current_range_meters":24000,"station_id":"ce4bhqp2rcd13ifvqhng","pricing_plan_id":"cebpf4jnsgd1na2vs0mg"},{"bike_id":"5901ef69-d765-4574-bda2-1c73c20aa959","system_id":"levelo_inurba_marseille","lat":43.31757,"lon":5.3902,"is_reserved":false,"is_disabled":false,"rental_uris":{"android":"levelo://app?vid=5901ef69-d765-4574-bda2-1c73c20aa959","ios":"levelo://app?vid=5901ef69-d765-4574-bda2-1c73c20aa959"},"vehicle_type_id":"4","last_reported":1712250364,"current_range_meters":6000,"station_id":"ce4bhqp2rcd13ifvqhng","pricing_plan_id":"cebpf4jnsgd1na2vs0mg"},{"bike_id":"e6cd1654-7fc1-4cba-94b3-3d4de5632552","system_id":"levelo_inurba_marseille","lat":43.317557,"lon":5.390173,"is_reserved":false,"is_disabled":false,"rental_uris":{"android":"levelo://app?vid=e6cd1654-7fc1-4cba-94b3-3d4de5632552","ios":"levelo://app?vid=e6cd1654-7fc1-4cba-94b3-3d4de5632552"},"vehicle_type_id":"4","last_reported":1712250364,"current_range_meters":31200,"station_id":"ce4bhqp2rcd13ifvqhng","pricing_plan_id":"cebpf4jnsgd1na2vs0mg"},{"bike_id":"ab7360fc-7b2d-4d49-94d0-94fbfa677d88","system_id":"levelo_inurba_marseille","lat":43.317557,"lon":5.390173,"is_reserved":false,"is_disabled":false,"rental_uris":{"android":"levelo://app?vid=ab7360fc-7b2d-4d49-94d0-94fbfa677d88","ios":"levelo://app?vid=ab7360fc-7b2d-4d49-94d0-94fbfa677d88"},"vehicle_type_id":"4","last_reported":1712250364,"current_range_meters":15200,"station_id":"ce4bhqp2rcd13ifvqhng","pricing_plan_id":"cebpf4jnsgd1na2vs0mg"},{"bike_id":"5930861b-7ee8-4a88-be3d-7ac5be478c74","system_id":"levelo_inurba_marseille","lat":43.317557,"lon":5.390173,"is_reserved":false,"is_disabled":false,"rental_uris":{"android":"levelo://app?vid=5930861b-7ee8-4a88-be3d-7ac5be478c74","ios":"levelo://app?vid=5930861b-7ee8-4a88-be3d-7ac5be478c74"},"vehicle_type_id":"4","last_reported":1712250364,"current_range_meters":20400,"station_id":"ce4bhqp2rcd13ifvqhng","pricing_plan_id":"cebpf4jnsgd1na2vs0mg"},{"bike_id":"6b334819-4e79-4d9b-8ce0-a8c28429d176","system_id":"levelo_inurba_marseille","lat":43.317557,"lon":5.390173,"is_reserved":false,"is_disabled":false,"rental_uris":{"android":"levelo://app?vid=6b334819-4e79-4d9b-8ce0-a8c28429d176","ios":"levelo://app?vid=6b334819-4e79-4d9b-8ce0-a8c28429d176"},"vehicle_type_id":"4","last_reported":1712250364,"current_range_meters":13600,"station_id":"ce4bhqp2rcd13ifvqhng","pricing_plan_id":"cebpf4jnsgd1na2vs0mg"},{"bike_id":"00cc613a-3d1a-40dc-aae6-d279e14a9e8c","system_id":"levelo_inurba_marseille","lat":43.292749,"lon":5.368402,"is_reserved":false,"is_disabled":false,"rental_uris":{"android":"levelo://app?vid=00cc613a-3d1a-40dc-aae6-d279e14a9e8c","ios":"levelo://app?vid=00cc613a-3d1a-40dc-aae6-d279e14a9e8c"},"vehicle_type_id":"4","last_reported":1712250364,"current_range_meters":0,"station_id":"ce4bhbp2rcd13ifvqesg","pricing_plan_id":"cebpf4jnsgd1na2vs0mg"},{"bike_id":"8630b8ce-6392-4a71-b154-f9c656507deb","system_id":"levelo_inurba_marseille","lat":43.298037,"lon":5.381066,"is_reserved":false,"is_disabled":false,"rental_uris":{"android":"levelo://app?vid=8630b8ce-6392-4a71-b154-f9c656507deb","ios":"levelo://app?vid=8630b8ce-6392-4a71-b154-f9c656507deb"},"vehicle_type_id":"4","last_reported":1712250364,"current_range_meters":27600,"station_id":"ce4bgip2rcd13ifvqbb0","pricing_plan_id":"cebpf4jnsgd1na2vs0mg"},{"bike_id":"5f2ace3a-5d58-416b-995e-3bf9c451a64d","system_id":"levelo_inurba_marseille","lat":43.299028,"lon":5.381509,"is_reserved":false,"is_disabled":false,"rental_uris":{"android":"levelo://app?vid=5f2ace3a-5d58-416b-995e-3bf9c451a64d","ios":"levelo://app?vid=5f2ace3a-5d58-416b-995e-3bf9c451a64d"},"vehicle_type_id":"4","last_reported":1712250364,"current_range_meters":7200,"station_id":"ce4bgj12rcd13ifvqbc0","pricing_plan_id":"cebpf4jnsgd1na2vs0mg"},{"bike_id":"7e14a050-5f77-458f-9978-0433cdffe7dc","system_id":"levelo_inurba_marseille","lat":43.30436,"lon":5.3887,"is_reserved":false,"is_disabled":false,"rental_uris":{"android":"levelo://app?vid=7e14a050-5f77-458f-9978-0433cdffe7dc","ios":"levelo://app?vid=7e14a050-5f77-458f-9978-0433cdffe7dc"},"vehicle_type_id":"4","last_reported":1712250364,"current_range_meters":0,"station_id":"ce4bgk12rcd13ifvqbi0","pricing_plan_id":"cebpf4jnsgd1na2vs0mg"},{"bike_id":"79ee8f9f-0eb9-49d7-a636-8bf5fefe72de","system_id":"levelo_inurba_marseille","lat":43.297949,"lon":5.380905,"is_reserved":false,"is_disabled":false,"rental_uris":{"android":"levelo://app?vid=79ee8f9f-0eb9-49d7-a636-8bf5fefe72de","ios":"levelo://app?vid=79ee8f9f-0eb9-49d7-a636-8bf5fefe72de"},"vehicle_type_id":"4","last_reported":1712250364,"current_range_meters":0,"station_id":"ce4bgip2rcd13ifvqbb0","pricing_plan_id":"cebpf4jnsgd1na2vs0mg"},{"bike_id":"1275f177-d2d6-4584-adb5-4b70f455117d","system_id":"levelo_inurba_marseille","lat":43.298037,"lon":5.381066,"is_reserved":false,"is_disabled":false,"rental_uris":{"android":"levelo://app?vid=1275f177-d2d6-4584-adb5-4b70f455117d","ios":"levelo://app?vid=1275f177-d2d6-4584-adb5-4b70f455117d"},"vehicle_type_id":"4","last_reported":1712250364,"current_range_meters":27200,"station_id":"ce4bgip2rcd13ifvqbb0","pricing_plan_id":"cebpf4jnsgd1na2vs0mg"},{"bike_id":"6f2e876b-7b38-4937-9452-8cc07ad1eabb","system_id":"levelo_inurba_marseille","lat":43.304278,"lon":5.388868,"is_reserved":false,"is_disabled":false,"rental_uris":{"android":"levelo://app?vid=6f2e876b-7b38-4937-9452-8cc07ad1eabb","ios":"levelo://app?vid=6f2e876b-7b38-4937-9452-8cc07ad1eabb"},"vehicle_type_id":"4","last_reported":1712250364,"current_range_meters":12400,"station_id":"ce4bgk12rcd13ifvqbi0","pricing_plan_id":"cebpf4jnsgd1na2vs0mg"},{"bike_id":"9fa91c2e-a585-40de-8950-749c2b08e9ac","system_id":"levelo_inurba_marseille","lat":43.304315,"lon":5.388825,"is_reserved":false,"is_disabled":false,"rental_uris":{"android":"levelo://app?vid=9fa91c2e-a585-40de-8950-749c2b08e9ac","ios":"levelo://app?vid=9fa91c2e-a585-40de-8950-749c2b08e9ac"},"vehicle_type_id":"4","last_reported":1712250364,"current_range_meters":0,"station_id":"ce4bgk12rcd13ifvqbi0","pricing_plan_id":"cebpf4jnsgd1na2vs0mg"},{"bike_id":"f56fc088-edc2-4d46-975b-a98c4700b11a","system_id":"levelo_inurba_marseille","lat":43.304278,"lon":5.388868,"is_reserved":false,"is_disabled":false,"rental_uris":{"android":"levelo://app?vid=f56fc088-edc2-4d46-975b-a98c4700b11a","ios":"levelo://app?vid=f56fc088-edc2-4d46-975b-a98c4700b11a"},"vehicle_type_id":"4","last_reported":1712250364,"current_range_meters":3600,"station_id":"ce4bgk12rcd13ifvqbi0","pricing_plan_id":"cebpf4jnsgd1na2vs0mg"},{"bike_id":"d509023c-f31d-491f-9958-726639697828","system_id":"levelo_inurba_marseille","lat":43.29631,"lon":5.37718,"is_reserved":false,"is_disabled":false,"rental_uris":{"android":"levelo://app?vid=d509023c-f31d-491f-9958-726639697828","ios":"levelo://app?vid=d509023c-f31d-491f-9958-726639697828"},"vehicle_type_id":"4","last_reported":1712250364,"current_range_meters":0,"station_id":"ce4bgi92rcd13ifvqb90","pricing_plan_id":"cebpf4jnsgd1na2vs0mg"},{"bike_id":"483c2b7d-e7f8-4ca9-b8cc-ca4eb18cf896","system_id":"levelo_inurba_marseille","lat":43.295748,"lon":5.37522,"is_reserved":false,"is_disabled":false,"rental_uris":{"android":"levelo://app?vid=483c2b7d-e7f8-4ca9-b8cc-ca4eb18cf896","ios":"levelo://app?vid=483c2b7d-e7f8-4ca9-b8cc-ca4eb18cf896"},"vehicle_type_id":"4","last_reported":1712250364,"current_range_meters":6000,"station_id":"ce4bgh92rcd13ifvqb50","pricing_plan_id":"cebpf4jnsgd1na2vs0mg"},{"bike_id":"59c29d73-dab0-4dfd-aec4-1ec5e4e0fa05","system_id":"levelo_inurba_marseille","lat":43.296277,"lon":5.377108,"is_reserved":false,"is_disabled":false,"rental_uris":{"android":"levelo://app?vid=59c29d73-dab0-4dfd-aec4-1ec5e4e0fa05","ios":"levelo://app?vid=59c29d73-dab0-4dfd-aec4-1ec5e4e0fa05"},"vehicle_type_id":"4","last_reported":1712250364,"current_range_meters":0,"station_id":"ce4bgi92rcd13ifvqb90","pricing_plan_id":"cebpf4jnsgd1na2vs0mg"},{"bike_id":"572a967b-c576-4011-9242-ee02d7300c99","system_id":"levelo_inurba_marseille","lat":43.289184,"lon":5.366408,"is_reserved":false,"is_disabled":false,"rental_uris":{"android":"levelo://app?vid=572a967b-c576-4011-9242-ee02d7300c99","ios":"levelo://app?vid=572a967b-c576-4011-9242-ee02d7300c99"},"vehicle_type_id":"4","last_reported":1712250364,"current_range_meters":8000,"station_id":"ce4bhap2rcd13ifvqek0","pricing_plan_id":"cebpf4jnsgd1na2vs0mg"},{"bike_id":"0c3bc7f2-0d3f-4ed7-a2c7-180cef1047f1","system_id":"levelo_inurba_marseille","lat":43.304278,"lon":5.388868,"is_reserved":false,"is_disabled":false,"rental_uris":{"android":"levelo://app?vid=0c3bc7f2-0d3f-4ed7-a2c7-180cef1047f1","ios":"levelo://app?vid=0c3bc7f2-0d3f-4ed7-a2c7-180cef1047f1"},"vehicle_type_id":"4","last_reported":1712250364,"current_range_meters":18800,"station_id":"ce4bgk12rcd13ifvqbi0","pricing_plan_id":"cebpf4jnsgd1na2vs0mg"},{"bike_id":"26f3d241-1f18-4100-a833-bef9abec3050","system_id":"levelo_inurba_marseille","lat":43.29783,"lon":5.381452,"is_reserved":false,"is_disabled":false,"rental_uris":{"android":"levelo://app?vid=26f3d241-1f18-4100-a833-bef9abec3050","ios":"levelo://app?vid=26f3d241-1f18-4100-a833-bef9abec3050"},"vehicle_type_id":"4","last_reported":1712250364,"current_range_meters":4000,"station_id":"ce4bgip2rcd13ifvqbb0","pricing_plan_id":"cebpf4jnsgd1na2vs0mg"},{"bike_id":"8e954be5-6a5e-4623-8c3a-c73176eab902","system_id":"levelo_inurba_marseille","lat":43.29544,"lon":5.37508,"is_reserved":false,"is_disabled":false,"rental_uris":{"android":"levelo://app?vid=8e954be5-6a5e-4623-8c3a-c73176eab902","ios":"levelo://app?vid=8e954be5-6a5e-4623-8c3a-c73176eab902"},"vehicle_type_id":"4","last_reported":1712250364,"current_range_meters":0,"station_id":"ce4bgkp2rcd13ifvqbmg","pricing_plan_id":"cebpf4jnsgd1na2vs0mg"},{"bike_id":"3574b98c-ba2d-4a95-8292-8833430e8aa4","system_id":"levelo_inurba_marseille","lat":43.2997,"lon":5.38483,"is_reserved":false,"is_disabled":false,"rental_uris":{"android":"levelo://app?vid=3574b98c-ba2d-4a95-8292-8833430e8aa4","ios":"levelo://app?vid=3574b98c-ba2d-4a95-8292-8833430e8aa4"},"vehicle_type_id":"4","last_reported":1712250364,"current_range_meters":0,"station_id":"ce4bgj92rcd13ifvqbd0","pricing_plan_id":"cebpf4jnsgd1na2vs0mg"},{"bike_id":"39599605-51ea-4bc9-a0cc-ffec66b00920","system_id":"levelo_inurba_marseille","lat":43.29973,"lon":5.38488,"is_reserved":false,"is_disabled":false,"rental_uris":{"android":"levelo://app?vid=39599605-51ea-4bc9-a0cc-ffec66b00920","ios":"levelo://app?vid=39599605-51ea-4bc9-a0cc-ffec66b00920"},"vehicle_type_id":"4","last_reported":1712250364,"current_range_meters":0,"station_id":"ce4bgj92rcd13ifvqbd0","pricing_plan_id":"cebpf4jnsgd1na2vs0mg"},{"bike_id":"0c8b8464-d436-4b7d-9e93-c2275dd31352","system_id":"levelo_inurba_marseille","lat":43.29972,"lon":5.38494,"is_reserved":false,"is_disabled":false,"rental_uris":{"android":"levelo://app?vid=0c8b8464-d436-4b7d-9e93-c2275dd31352","ios":"levelo://app?vid=0c8b8464-d436-4b7d-9e93-c2275dd31352"},"vehicle_type_id":"4","last_reported":1712250364,"current_range_meters":0,"station_id":"ce4bgj92rcd13ifvqbd0","pricing_plan_id":"cebpf4jnsgd1na2vs0mg"},{"bike_id":"827f3e9e-65ae-49d4-b867-cbc6d205f952","system_id":"levelo_inurba_marseille","lat":43.311722,"lon":5.387247,"is_reserved":false,"is_disabled":false,"rental_uris":{"android":"levelo://app?vid=827f3e9e-65ae-49d4-b867-cbc6d205f952","ios":"levelo://app?vid=827f3e9e-65ae-49d4-b867-cbc6d205f952"},"vehicle_type_id":"4","last_reported":1712250364,"current_range_meters":7600,"station_id":"ce4bgv12rcd13ifvqcp0","pricing_plan_id":"cebpf4jnsgd1na2vs0mg"},{"bike_id":"50441847-57ad-4ac7-a490-0e2301ee3802","system_id":"levelo_inurba_marseille","lat":43.32367,"lon":5.388823,"is_reserved":false,"is_disabled":false,"rental_uris":{"android":"levelo://app?vid=50441847-57ad-4ac7-a490-0e2301ee3802","ios":"levelo://app?vid=50441847-57ad-4ac7-a490-0e2301ee3802"},"vehicle_type_id":"4","last_reported":1712250364,"current_range_meters":11600,"station_id":"ce4bhqp2rcd13ifvqhog","pricing_plan_id":"cebpf4jnsgd1na2vs0mg"},{"bike_id":"16338670-25a3-4108-863f-672d11b66bf2","system_id":"levelo_inurba_marseille","lat":43.32365,"lon":5.38886,"is_reserved":false,"is_disabled":false,"rental_uris":{"android":"levelo://app?vid=16338670-25a3-4108-863f-672d11b66bf2","ios":"levelo://app?vid=16338670-25a3-4108-863f-672d11b66bf2"},"vehicle_type_id":"4","last_reported":1712250364,"current_range_meters":12800,"station_id":"ce4bhqp2rcd13ifvqhog","pricing_plan_id":"cebpf4jnsgd1na2vs0mg"},{"bike_id":"624f243d-e19a-48d7-9a99-60b0f632c7bf","system_id":"levelo_inurba_marseille","lat":43.32367,"lon":5.388836,"is_reserved":false,"is_disabled":false,"rental_uris":{"android":"levelo://app?vid=624f243d-e19a-48d7-9a99-60b0f632c7bf","ios":"levelo://app?vid=624f243d-e19a-48d7-9a99-60b0f632c7bf"},"vehicle_type_id":"4","last_reported":1712250364,"current_range_meters":22400,"station_id":"ce4bhqp2rcd13ifvqhog","pricing_plan_id":"cebpf4jnsgd1na2vs0mg"},{"bike_id":"12a9b64b-2d34-4746-a4b1-f9ea02f40435","system_id":"levelo_inurba_marseille","lat":43.32368,"lon":5.38888,"is_reserved":false,"is_disabled":false,"rental_uris":{"android":"levelo://app?vid=12a9b64b-2d34-4746-a4b1-f9ea02f40435","ios":"levelo://app?vid=12a9b64b-2d34-4746-a4b1-f9ea02f40435"},"vehicle_type_id":"4","last_reported":1712250364,"current_range_meters":22800,"station_id":"ce4bhqp2rcd13ifvqhog","pricing_plan_id":"cebpf4jnsgd1na2vs0mg"},{"bike_id":"ee8e0884-3d5e-4eea-a26b-d75acb9f1355","system_id":"levelo_inurba_marseille","lat":43.32366,"lon":5.3889,"is_reserved":false,"is_disabled":false,"rental_uris":{"android":"levelo://app?vid=ee8e0884-3d5e-4eea-a26b-d75acb9f1355","ios":"levelo://app?vid=ee8e0884-3d5e-4eea-a26b-d75acb9f1355"},"vehicle_type_id":"4","last_reported":1712250364,"current_range_meters":22400,"station_id":"ce4bhqp2rcd13ifvqhog","pricing_plan_id":"cebpf4jnsgd1na2vs0mg"},{"bike_id":"3a4b7283-0705-4c36-bfb6-d102418289ec","system_id":"levelo_inurba_marseille","lat":43.32369,"lon":5.3889,"is_reserved":false,"is_disabled":false,"rental_uris":{"android":"levelo://app?vid=3a4b7283-0705-4c36-bfb6-d102418289ec","ios":"levelo://app?vid=3a4b7283-0705-4c36-bfb6-d102418289ec"},"vehicle_type_id":"4","last_reported":1712250364,"current_range_meters":1600,"station_id":"ce4bhqp2rcd13ifvqhog","pricing_plan_id":"cebpf4jnsgd1na2vs0mg"},{"bike_id":"b4505edd-2a1f-4b5f-9afd-629579b591a0","system_id":"levelo_inurba_marseille","lat":43.302784,"lon":5.377158,"is_reserved":false,"is_disabled":false,"rental_uris":{"android":"levelo://app?vid=b4505edd-2a1f-4b5f-9afd-629579b591a0","ios":"levelo://app?vid=b4505edd-2a1f-4b5f-9afd-629579b591a0"},"vehicle_type_id":"4","last_reported":1712250364,"current_range_meters":19600,"station_id":"ce4bguh2rcd13ifvqcj0","pricing_plan_id":"cebpf4jnsgd1na2vs0mg"},{"bike_id":"af98f7fb-a470-435c-af15-bb218af6908c","system_id":"levelo_inurba_marseille","lat":43.299717,"lon":5.384845,"is_reserved":false,"is_disabled":false,"rental_uris":{"android":"levelo://app?vid=af98f7fb-a470-435c-af15-bb218af6908c","ios":"levelo://app?vid=af98f7fb-a470-435c-af15-bb218af6908c"},"vehicle_type_id":"4","last_reported":1712250364,"current_range_meters":0,"station_id":"ce4bgj92rcd13ifvqbd0","pricing_plan_id":"cebpf4jnsgd1na2vs0mg"},{"bike_id":"765e4509-0366-4046-9313-7ee1aba3cd9d","system_id":"levelo_inurba_marseille","lat":43.293249,"lon":5.371578,"is_reserved":false,"is_disabled":false,"rental_uris":{"android":"levelo://app?vid=765e4509-0366-4046-9313-7ee1aba3cd9d","ios":"levelo://app?vid=765e4509-0366-4046-9313-7ee1aba3cd9d"},"vehicle_type_id":"4","last_reported":1712250364,"current_range_meters":0,"station_id":"ce4bgh92rcd13ifvqb40","pricing_plan_id":"cebpf4jnsgd1na2vs0mg"},{"bike_id":"1c012d55-be5e-4416-91d8-9edee9a77e30","system_id":"levelo_inurba_marseille","lat":43.299247,"lon":5.386847,"is_reserved":false,"is_disabled":false,"rental_uris":{"android":"levelo://app?vid=1c012d55-be5e-4416-91d8-9edee9a77e30","ios":"levelo://app?vid=1c012d55-be5e-4416-91d8-9edee9a77e30"},"vehicle_type_id":"4","last_reported":1712250364,"current_range_meters":10000,"station_id":"ce4bh2h2rcd13ifvqdh0","pricing_plan_id":"cebpf4jnsgd1na2vs0mg"},{"bike_id":"18babb6b-ea4a-4070-b34e-8de0661bd924","system_id":"levelo_inurba_marseille","lat":43.299028,"lon":5.381509,"is_reserved":false,"is_disabled":false,"rental_uris":{"android":"levelo://app?vid=18babb6b-ea4a-4070-b34e-8de0661bd924","ios":"levelo://app?vid=18babb6b-ea4a-4070-b34e-8de0661bd924"},"vehicle_type_id":"4","last_reported":1712250364,"current_range_meters":18800,"station_id":"ce4bgj12rcd13ifvqbc0","pricing_plan_id":"cebpf4jnsgd1na2vs0mg"},{"bike_id":"595553b0-b455-4b27-a21e-b1a77aad6e03","system_id":"levelo_inurba_marseille","lat":43.292749,"lon":5.368398,"is_reserved":false,"is_disabled":false,"rental_uris":{"android":"levelo://app?vid=595553b0-b455-4b27-a21e-b1a77aad6e03","ios":"levelo://app?vid=595553b0-b455-4b27-a21e-b1a77aad6e03"},"vehicle_type_id":"4","last_reported":1712250364,"current_range_meters":13600,"station_id":"ce4bhbp2rcd13ifvqesg","pricing_plan_id":"cebpf4jnsgd1na2vs0mg"},{"bike_id":"53419e56-00db-4965-a40e-42b25d861037","system_id":"levelo_inurba_marseille","lat":43.282744,"lon":5.350533,"is_reserved":false,"is_disabled":false,"rental_uris":{"android":"levelo://app?vid=53419e56-00db-4965-a40e-42b25d861037","ios":"levelo://app?vid=53419e56-00db-4965-a40e-42b25d861037"},"vehicle_type_id":"4","last_reported":1712250364,"current_range_meters":23600,"station_id":"ce4bhbp2rcd13ifvqerg","pricing_plan_id":"cebpf4jnsgd1na2vs0mg"},{"bike_id":"dc61a623-2a3b-46a7-a201-ca62fd370050","system_id":"levelo_inurba_marseille","lat":43.292749,"lon":5.368402,"is_reserved":false,"is_disabled":false,"rental_uris":{"android":"levelo://app?vid=dc61a623-2a3b-46a7-a201-ca62fd370050","ios":"levelo://app?vid=dc61a623-2a3b-46a7-a201-ca62fd370050"},"vehicle_type_id":"4","last_reported":1712250364,"current_range_meters":0,"station_id":"ce4bhbp2rcd13ifvqesg","pricing_plan_id":"cebpf4jnsgd1na2vs0mg"},{"bike_id":"78563143-772f-4796-8be6-d34d559d2c9e","system_id":"levelo_inurba_marseille","lat":43.292749,"lon":5.368398,"is_reserved":false,"is_disabled":false,"rental_uris":{"android":"levelo://app?vid=78563143-772f-4796-8be6-d34d559d2c9e","ios":"levelo://app?vid=78563143-772f-4796-8be6-d34d559d2c9e"},"vehicle_type_id":"4","last_reported":1712250364,"current_range_meters":13600,"station_id":"ce4bhbp2rcd13ifvqesg","pricing_plan_id":"cebpf4jnsgd1na2vs0mg"},{"bike_id":"05d1bfb2-9b57-4aa1-bcd7-7d75958e8297","system_id":"levelo_inurba_marseille","lat":43.292749,"lon":5.368402,"is_reserved":false,"is_disabled":false,"rental_uris":{"android":"levelo://app?vid=05d1bfb2-9b57-4aa1-bcd7-7d75958e8297","ios":"levelo://app?vid=05d1bfb2-9b57-4aa1-bcd7-7d75958e8297"},"vehicle_type_id":"4","last_reported":1712250364,"current_range_meters":31200,"station_id":"ce4bhbp2rcd13ifvqesg","pricing_plan_id":"cebpf4jnsgd1na2vs0mg"},{"bike_id":"6e747d45-dcc5-4983-9ca7-c4396fb21b0b","system_id":"levelo_inurba_marseille","lat":43.292749,"lon":5.368398,"is_reserved":false,"is_disabled":false,"rental_uris":{"android":"levelo://app?vid=6e747d45-dcc5-4983-9ca7-c4396fb21b0b","ios":"levelo://app?vid=6e747d45-dcc5-4983-9ca7-c4396fb21b0b"},"vehicle_type_id":"4","last_reported":1712250364,"current_range_meters":13200,"station_id":"ce4bhbp2rcd13ifvqesg","pricing_plan_id":"cebpf4jnsgd1na2vs0mg"},{"bike_id":"5fa2400e-0cc6-4f79-aebf-41d89a5f8708","system_id":"levelo_inurba_marseille","lat":43.29274,"lon":5.36843,"is_reserved":false,"is_disabled":false,"rental_uris":{"android":"levelo://app?vid=5fa2400e-0cc6-4f79-aebf-41d89a5f8708","ios":"levelo://app?vid=5fa2400e-0cc6-4f79-aebf-41d89a5f8708"},"vehicle_type_id":"4","last_reported":1712250364,"current_range_meters":9600,"station_id":"ce4bhbp2rcd13ifvqesg","pricing_plan_id":"cebpf4jnsgd1na2vs0mg"},{"bike_id":"5e1636c5-70d8-4bc8-85a7-d1fe1f12b594","system_id":"levelo_inurba_marseille","lat":43.292749,"lon":5.368402,"is_reserved":false,"is_disabled":false,"rental_uris":{"android":"levelo://app?vid=5e1636c5-70d8-4bc8-85a7-d1fe1f12b594","ios":"levelo://app?vid=5e1636c5-70d8-4bc8-85a7-d1fe1f12b594"},"vehicle_type_id":"4","last_reported":1712250364,"current_range_meters":29200,"station_id":"ce4bhbp2rcd13ifvqesg","pricing_plan_id":"cebpf4jnsgd1na2vs0mg"},{"bike_id":"461021c2-7463-4a4f-bbe2-70666785d2e6","system_id":"levelo_inurba_marseille","lat":43.292749,"lon":5.368398,"is_reserved":false,"is_disabled":false,"rental_uris":{"android":"levelo://app?vid=461021c2-7463-4a4f-bbe2-70666785d2e6","ios":"levelo://app?vid=461021c2-7463-4a4f-bbe2-70666785d2e6"},"vehicle_type_id":"4","last_reported":1712250364,"current_range_meters":0,"station_id":"ce4bhbp2rcd13ifvqesg","pricing_plan_id":"cebpf4jnsgd1na2vs0mg"},{"bike_id":"9727b8be-302f-4da3-be13-156730c77f87","system_id":"levelo_inurba_marseille","lat":43.293259,"lon":5.371586,"is_reserved":false,"is_disabled":false,"rental_uris":{"android":"levelo://app?vid=9727b8be-302f-4da3-be13-156730c77f87","ios":"levelo://app?vid=9727b8be-302f-4da3-be13-156730c77f87"},"vehicle_type_id":"4","last_reported":1712250364,"current_range_meters":9600,"station_id":"ce4bgh92rcd13ifvqb40","pricing_plan_id":"cebpf4jnsgd1na2vs0mg"},{"bike_id":"3114d888-d1f4-4366-b3dd-ed11576db306","system_id":"levelo_inurba_marseille","lat":43.320045,"lon":5.415048,"is_reserved":false,"is_disabled":false,"rental_uris":{"android":"levelo://app?vid=3114d888-d1f4-4366-b3dd-ed11576db306","ios":"levelo://app?vid=3114d888-d1f4-4366-b3dd-ed11576db306"},"vehicle_type_id":"4","last_reported":1712250364,"current_range_meters":20400,"station_id":"ce4bhq92rcd13ifvqhkg","pricing_plan_id":"cebpf4jnsgd1na2vs0mg"},{"bike_id":"32782931-1b66-4978-b4c9-f25c0e964979","system_id":"levelo_inurba_marseille","lat":43.279087,"lon":5.380114,"is_reserved":false,"is_disabled":false,"rental_uris":{"android":"levelo://app?vid=32782931-1b66-4978-b4c9-f25c0e964979","ios":"levelo://app?vid=32782931-1b66-4978-b4c9-f25c0e964979"},"vehicle_type_id":"4","last_reported":1712250364,"current_range_meters":9600,"station_id":"ce4bhf92rcd13ifvqf50","pricing_plan_id":"cebpf4jnsgd1na2vs0mg"},{"bike_id":"069032d5-d55e-428f-a2d4-d782c555e101","system_id":"levelo_inurba_marseille","lat":43.30598,"lon":5.3936,"is_reserved":false,"is_disabled":false,"rental_uris":{"android":"levelo://app?vid=069032d5-d55e-428f-a2d4-d782c555e101","ios":"levelo://app?vid=069032d5-d55e-428f-a2d4-d782c555e101"},"vehicle_type_id":"4","last_reported":1712250364,"current_range_meters":0,"station_id":"ce4bh0p2rcd13ifvqd80","pricing_plan_id":"cebpf4jnsgd1na2vs0mg"},{"bike_id":"493aa20c-37c4-4fa9-b896-f5337910887e","system_id":"levelo_inurba_marseille","lat":43.293009,"lon":5.374584,"is_reserved":false,"is_disabled":false,"rental_uris":{"android":"levelo://app?vid=493aa20c-37c4-4fa9-b896-f5337910887e","ios":"levelo://app?vid=493aa20c-37c4-4fa9-b896-f5337910887e"},"vehicle_type_id":"4","last_reported":1712250364,"current_range_meters":0,"station_id":"ce4bgi12rcd13ifvqb70","pricing_plan_id":"cebpf4jnsgd1na2vs0mg"},{"bike_id":"1ac61844-3889-4eca-897c-64217eaa5244","system_id":"levelo_inurba_marseille","lat":43.305994,"lon":5.393687,"is_reserved":false,"is_disabled":false,"rental_uris":{"android":"levelo://app?vid=1ac61844-3889-4eca-897c-64217eaa5244","ios":"levelo://app?vid=1ac61844-3889-4eca-897c-64217eaa5244"},"vehicle_type_id":"4","last_reported":1712250364,"current_range_meters":16400,"station_id":"ce4bh0p2rcd13ifvqd80","pricing_plan_id":"cebpf4jnsgd1na2vs0mg"},{"bike_id":"bdc545a6-30f3-4018-8fff-392452280c6f","system_id":"levelo_inurba_marseille","lat":43.303074,"lon":5.391934,"is_reserved":false,"is_disabled":false,"rental_uris":{"android":"levelo://app?vid=bdc545a6-30f3-4018-8fff-392452280c6f","ios":"levelo://app?vid=bdc545a6-30f3-4018-8fff-392452280c6f"},"vehicle_type_id":"4","last_reported":1712250364,"current_range_meters":0,"station_id":"ce4bgkh2rcd13ifvqbk0","pricing_plan_id":"cebpf4jnsgd1na2vs0mg"},{"bike_id":"0daa5c92-792d-4482-a86a-6a826126e9f4","system_id":"levelo_inurba_marseille","lat":43.302992,"lon":5.392136,"is_reserved":false,"is_disabled":false,"rental_uris":{"android":"levelo://app?vid=0daa5c92-792d-4482-a86a-6a826126e9f4","ios":"levelo://app?vid=0daa5c92-792d-4482-a86a-6a826126e9f4"},"vehicle_type_id":"4","last_reported":1712250364,"current_range_meters":13200,"station_id":"ce4bgkh2rcd13ifvqbk0","pricing_plan_id":"cebpf4jnsgd1na2vs0mg"},{"bike_id":"e568b7d2-db45-4d08-80b1-3809677308b4","system_id":"levelo_inurba_marseille","lat":43.2936,"lon":5.37835,"is_reserved":false,"is_disabled":false,"rental_uris":{"android":"levelo://app?vid=e568b7d2-db45-4d08-80b1-3809677308b4","ios":"levelo://app?vid=e568b7d2-db45-4d08-80b1-3809677308b4"},"vehicle_type_id":"4","last_reported":1712250364,"current_range_meters":15200,"station_id":"ce4bgjh2rcd13ifvqbf0","pricing_plan_id":"cebpf4jnsgd1na2vs0mg"},{"bike_id":"3b36e78f-55cd-468c-ad4c-eb143ef707fd","system_id":"levelo_inurba_marseille","lat":43.300852,"lon":5.390859,"is_reserved":false,"is_disabled":false,"rental_uris":{"android":"levelo://app?vid=3b36e78f-55cd-468c-ad4c-eb143ef707fd","ios":"levelo://app?vid=3b36e78f-55cd-468c-ad4c-eb143ef707fd"},"vehicle_type_id":"4","last_reported":1712250364,"current_range_meters":17200,"station_id":"ce4bh192rcd13ifvqdb0","pricing_plan_id":"cebpf4jnsgd1na2vs0mg"},{"bike_id":"46bf6748-6a13-42db-b5fe-bc1bdf1d80ee","system_id":"levelo_inurba_marseille","lat":43.30097,"lon":5.39075,"is_reserved":false,"is_disabled":false,"rental_uris":{"android":"levelo://app?vid=46bf6748-6a13-42db-b5fe-bc1bdf1d80ee","ios":"levelo://app?vid=46bf6748-6a13-42db-b5fe-bc1bdf1d80ee"},"vehicle_type_id":"4","last_reported":1712250364,"current_range_meters":0,"station_id":"ce4bh192rcd13ifvqdb0","pricing_plan_id":"cebpf4jnsgd1na2vs0mg"},{"bike_id":"877bd79a-f609-4054-9f49-57a91f00ac98","system_id":"levelo_inurba_marseille","lat":43.311722,"lon":5.387247,"is_reserved":false,"is_disabled":false,"rental_uris":{"android":"levelo://app?vid=877bd79a-f609-4054-9f49-57a91f00ac98","ios":"levelo://app?vid=877bd79a-f609-4054-9f49-57a91f00ac98"},"vehicle_type_id":"4","last_reported":1712250364,"current_range_meters":400,"station_id":"ce4bgv12rcd13ifvqcp0","pricing_plan_id":"cebpf4jnsgd1na2vs0mg"},{"bike_id":"2e1db954-910d-44e9-9ef9-10273871045e","system_id":"levelo_inurba_marseille","lat":43.298764,"lon":5.388973,"is_reserved":false,"is_disabled":false,"rental_uris":{"android":"levelo://app?vid=2e1db954-910d-44e9-9ef9-10273871045e","ios":"levelo://app?vid=2e1db954-910d-44e9-9ef9-10273871045e"},"vehicle_type_id":"4","last_reported":1712250364,"current_range_meters":16800,"station_id":"ce4bh392rcd13ifvqdl0","pricing_plan_id":"cebpf4jnsgd1na2vs0mg"},{"bike_id":"1eee53a0-b2af-4152-b69a-a4a6012c86fc","system_id":"levelo_inurba_marseille","lat":43.298764,"lon":5.388973,"is_reserved":false,"is_disabled":false,"rental_uris":{"android":"levelo://app?vid=1eee53a0-b2af-4152-b69a-a4a6012c86fc","ios":"levelo://app?vid=1eee53a0-b2af-4152-b69a-a4a6012c86fc"},"vehicle_type_id":"4","last_reported":1712250364,"current_range_meters":3600,"station_id":"ce4bh392rcd13ifvqdl0","pricing_plan_id":"cebpf4jnsgd1na2vs0mg"},{"bike_id":"81bd9c82-75a6-49e4-8c56-0e8cbdd49e96","system_id":"levelo_inurba_marseille","lat":43.291671,"lon":5.371575,"is_reserved":false,"is_disabled":false,"rental_uris":{"android":"levelo://app?vid=81bd9c82-75a6-49e4-8c56-0e8cbdd49e96","ios":"levelo://app?vid=81bd9c82-75a6-49e4-8c56-0e8cbdd49e96"},"vehicle_type_id":"4","last_reported":1712250364,"current_range_meters":1600,"station_id":"ce4bha92rcd13ifvqeh0","pricing_plan_id":"cebpf4jnsgd1na2vs0mg"},{"bike_id":"0fbf64f1-f5af-4e3e-b69c-8b45d7b9659e","system_id":"levelo_inurba_marseille","lat":43.298764,"lon":5.388973,"is_reserved":false,"is_disabled":false,"rental_uris":{"android":"levelo://app?vid=0fbf64f1-f5af-4e3e-b69c-8b45d7b9659e","ios":"levelo://app?vid=0fbf64f1-f5af-4e3e-b69c-8b45d7b9659e"},"vehicle_type_id":"4","last_reported":1712250364,"current_range_meters":12800,"station_id":"ce4bh392rcd13ifvqdl0","pricing_plan_id":"cebpf4jnsgd1na2vs0mg"},{"bike_id":"0d817f3c-1e3d-4a14-8e24-fdcf955a575c","system_id":"levelo_inurba_marseille","lat":43.298764,"lon":5.388973,"is_reserved":false,"is_disabled":false,"rental_uris":{"android":"levelo://app?vid=0d817f3c-1e3d-4a14-8e24-fdcf955a575c","ios":"levelo://app?vid=0d817f3c-1e3d-4a14-8e24-fdcf955a575c"},"vehicle_type_id":"4","last_reported":1712250364,"current_range_meters":6000,"station_id":"ce4bh392rcd13ifvqdl0","pricing_plan_id":"cebpf4jnsgd1na2vs0mg"},{"bike_id":"984c289c-3503-431e-ac25-b1b5cd6dc6f2","system_id":"levelo_inurba_marseille","lat":43.291675,"lon":5.371583,"is_reserved":false,"is_disabled":false,"rental_uris":{"android":"levelo://app?vid=984c289c-3503-431e-ac25-b1b5cd6dc6f2","ios":"levelo://app?vid=984c289c-3503-431e-ac25-b1b5cd6dc6f2"},"vehicle_type_id":"4","last_reported":1712250364,"current_range_meters":22800,"station_id":"ce4bha92rcd13ifvqeh0","pricing_plan_id":"cebpf4jnsgd1na2vs0mg"},{"bike_id":"14a21f40-58a0-47df-be99-ed8d793504e6","system_id":"levelo_inurba_marseille","lat":43.292108,"lon":5.358908,"is_reserved":false,"is_disabled":false,"rental_uris":{"android":"levelo://app?vid=14a21f40-58a0-47df-be99-ed8d793504e6","ios":"levelo://app?vid=14a21f40-58a0-47df-be99-ed8d793504e6"},"vehicle_type_id":"4","last_reported":1712250364,"current_range_meters":20000,"station_id":"","pricing_plan_id":"cebpf4jnsgd1na2vs0mg"},{"bike_id":"291b6e56-4268-4c30-86e4-37c446462529","system_id":"levelo_inurba_marseille","lat":43.292005,"lon":5.357875,"is_reserved":false,"is_disabled":false,"rental_uris":{"android":"levelo://app?vid=291b6e56-4268-4c30-86e4-37c446462529","ios":"levelo://app?vid=291b6e56-4268-4c30-86e4-37c446462529"},"vehicle_type_id":"4","last_reported":1712250364,"current_range_meters":2400,"station_id":"ce4bhb12rcd13ifvqel0","pricing_plan_id":"cebpf4jnsgd1na2vs0mg"},{"bike_id":"a33a9b99-28c8-4f8c-9f07-0982e0ebf959","system_id":"levelo_inurba_marseille","lat":43.291994,"lon":5.357886,"is_reserved":false,"is_disabled":false,"rental_uris":{"android":"levelo://app?vid=a33a9b99-28c8-4f8c-9f07-0982e0ebf959","ios":"levelo://app?vid=a33a9b99-28c8-4f8c-9f07-0982e0ebf959"},"vehicle_type_id":"4","last_reported":1712250364,"current_range_meters":0,"station_id":"ce4bhb12rcd13ifvqel0","pricing_plan_id":"cebpf4jnsgd1na2vs0mg"},{"bike_id":"36a23685-4c47-471c-97bd-7d7e2e06985b","system_id":"levelo_inurba_marseille","lat":43.291994,"lon":5.357886,"is_reserved":false,"is_disabled":false,"rental_uris":{"android":"levelo://app?vid=36a23685-4c47-471c-97bd-7d7e2e06985b","ios":"levelo://app?vid=36a23685-4c47-471c-97bd-7d7e2e06985b"},"vehicle_type_id":"4","last_reported":1712250364,"current_range_meters":12800,"station_id":"ce4bhb12rcd13ifvqel0","pricing_plan_id":"cebpf4jnsgd1na2vs0mg"},{"bike_id":"588a054d-65dc-4565-a90c-e48db2cf3a5d","system_id":"levelo_inurba_marseille","lat":43.291994,"lon":5.357886,"is_reserved":false,"is_disabled":false,"rental_uris":{"android":"levelo://app?vid=588a054d-65dc-4565-a90c-e48db2cf3a5d","ios":"levelo://app?vid=588a054d-65dc-4565-a90c-e48db2cf3a5d"},"vehicle_type_id":"4","last_reported":1712250364,"current_range_meters":23600,"station_id":"ce4bhb12rcd13ifvqel0","pricing_plan_id":"cebpf4jnsgd1na2vs0mg"},{"bike_id":"c2b6cdbd-fd12-4a1d-9ba7-b446117de628","system_id":"levelo_inurba_marseille","lat":43.291994,"lon":5.357886,"is_reserved":false,"is_disabled":false,"rental_uris":{"android":"levelo://app?vid=c2b6cdbd-fd12-4a1d-9ba7-b446117de628","ios":"levelo://app?vid=c2b6cdbd-fd12-4a1d-9ba7-b446117de628"},"vehicle_type_id":"4","last_reported":1712250364,"current_range_meters":0,"station_id":"ce4bhb12rcd13ifvqel0","pricing_plan_id":"cebpf4jnsgd1na2vs0mg"},{"bike_id":"3cbdba4a-7307-4047-8c34-716a00604c6f","system_id":"levelo_inurba_marseille","lat":43.31326,"lon":5.39684,"is_reserved":false,"is_disabled":false,"rental_uris":{"android":"levelo://app?vid=3cbdba4a-7307-4047-8c34-716a00604c6f","ios":"levelo://app?vid=3cbdba4a-7307-4047-8c34-716a00604c6f"},"vehicle_type_id":"4","last_reported":1712250364,"current_range_meters":0,"station_id":"ce4bgvp2rcd13ifvqcu0","pricing_plan_id":"cebpf4jnsgd1na2vs0mg"},{"bike_id":"ff7bd1ac-70ae-435a-ba3c-409a85519358","system_id":"levelo_inurba_marseille","lat":43.291994,"lon":5.357886,"is_reserved":false,"is_disabled":false,"rental_uris":{"android":"levelo://app?vid=ff7bd1ac-70ae-435a-ba3c-409a85519358","ios":"levelo://app?vid=ff7bd1ac-70ae-435a-ba3c-409a85519358"},"vehicle_type_id":"4","last_reported":1712250364,"current_range_meters":7600,"station_id":"ce4bhb12rcd13ifvqel0","pricing_plan_id":"cebpf4jnsgd1na2vs0mg"},{"bike_id":"e06ed62a-2a92-4845-b9ad-301addb01354","system_id":"levelo_inurba_marseille","lat":43.291994,"lon":5.357886,"is_reserved":false,"is_disabled":false,"rental_uris":{"android":"levelo://app?vid=e06ed62a-2a92-4845-b9ad-301addb01354","ios":"levelo://app?vid=e06ed62a-2a92-4845-b9ad-301addb01354"},"vehicle_type_id":"4","last_reported":1712250364,"current_range_meters":0,"station_id":"ce4bhb12rcd13ifvqel0","pricing_plan_id":"cebpf4jnsgd1na2vs0mg"},{"bike_id":"2223d3fa-239e-42a3-97e4-992abcc9f532","system_id":"levelo_inurba_marseille","lat":43.261782,"lon":5.374515,"is_reserved":false,"is_disabled":false,"rental_uris":{"android":"levelo://app?vid=2223d3fa-239e-42a3-97e4-992abcc9f532","ios":"levelo://app?vid=2223d3fa-239e-42a3-97e4-992abcc9f532"},"vehicle_type_id":"4","last_reported":1712250364,"current_range_meters":12000,"station_id":"ce4bhgp2rcd13ifvqfc0","pricing_plan_id":"cebpf4jnsgd1na2vs0mg"},{"bike_id":"b7601621-c6aa-4d24-a9df-75db7d1c35d8","system_id":"levelo_inurba_marseille","lat":43.29529,"lon":5.385581,"is_reserved":false,"is_disabled":false,"rental_uris":{"android":"levelo://app?vid=b7601621-c6aa-4d24-a9df-75db7d1c35d8","ios":"levelo://app?vid=b7601621-c6aa-4d24-a9df-75db7d1c35d8"},"vehicle_type_id":"4","last_reported":1712250364,"current_range_meters":1600,"station_id":"ce4bgih2rcd13ifvqba0","pricing_plan_id":"cebpf4jnsgd1na2vs0mg"},{"bike_id":"b73c7c67-1742-459a-bc8f-3b3f0f0d523c","system_id":"levelo_inurba_marseille","lat":43.29529,"lon":5.385581,"is_reserved":false,"is_disabled":false,"rental_uris":{"android":"levelo://app?vid=b73c7c67-1742-459a-bc8f-3b3f0f0d523c","ios":"levelo://app?vid=b73c7c67-1742-459a-bc8f-3b3f0f0d523c"},"vehicle_type_id":"4","last_reported":1712250364,"current_range_meters":0,"station_id":"ce4bgih2rcd13ifvqba0","pricing_plan_id":"cebpf4jnsgd1na2vs0mg"},{"bike_id":"03f97dc4-52c8-45a7-8e7e-6040900b5aaa","system_id":"levelo_inurba_marseille","lat":43.29529,"lon":5.385581,"is_reserved":false,"is_disabled":false,"rental_uris":{"android":"levelo://app?vid=03f97dc4-52c8-45a7-8e7e-6040900b5aaa","ios":"levelo://app?vid=03f97dc4-52c8-45a7-8e7e-6040900b5aaa"},"vehicle_type_id":"4","last_reported":1712250364,"current_range_meters":18400,"station_id":"ce4bgih2rcd13ifvqba0","pricing_plan_id":"cebpf4jnsgd1na2vs0mg"},{"bike_id":"f664fd34-f2eb-4a3d-8894-c9d54f61defa","system_id":"levelo_inurba_marseille","lat":43.29061,"lon":5.37183,"is_reserved":false,"is_disabled":false,"rental_uris":{"android":"levelo://app?vid=f664fd34-f2eb-4a3d-8894-c9d54f61defa","ios":"levelo://app?vid=f664fd34-f2eb-4a3d-8894-c9d54f61defa"},"vehicle_type_id":"4","last_reported":1712250364,"current_range_meters":800,"station_id":"ce4bh5p2rcd13ifvqe4g","pricing_plan_id":"cebpf4jnsgd1na2vs0mg"},{"bike_id":"c9694b59-c145-49a0-b350-5023561d03ce","system_id":"levelo_inurba_marseille","lat":43.284219,"lon":5.3497,"is_reserved":false,"is_disabled":false,"rental_uris":{"android":"levelo://app?vid=c9694b59-c145-49a0-b350-5023561d03ce","ios":"levelo://app?vid=c9694b59-c145-49a0-b350-5023561d03ce"},"vehicle_type_id":"4","last_reported":1712250364,"current_range_meters":13200,"station_id":"ce4bhbh2rcd13ifvqepg","pricing_plan_id":"cebpf4jnsgd1na2vs0mg"},{"bike_id":"c0f2b8c7-659d-486f-a708-2c98dfa12607","system_id":"levelo_inurba_marseille","lat":43.302008,"lon":5.394694,"is_reserved":false,"is_disabled":false,"rental_uris":{"android":"levelo://app?vid=c0f2b8c7-659d-486f-a708-2c98dfa12607","ios":"levelo://app?vid=c0f2b8c7-659d-486f-a708-2c98dfa12607"},"vehicle_type_id":"4","last_reported":1712250364,"current_range_meters":0,"station_id":"ce4bh0p2rcd13ifvqd70","pricing_plan_id":"cebpf4jnsgd1na2vs0mg"},{"bike_id":"6aa65e02-3e08-474a-ba03-e423b3e65080","system_id":"levelo_inurba_marseille","lat":43.30208,"lon":5.39462,"is_reserved":false,"is_disabled":false,"rental_uris":{"android":"levelo://app?vid=6aa65e02-3e08-474a-ba03-e423b3e65080","ios":"levelo://app?vid=6aa65e02-3e08-474a-ba03-e423b3e65080"},"vehicle_type_id":"4","last_reported":1712250364,"current_range_meters":23200,"station_id":"ce4bh0p2rcd13ifvqd70","pricing_plan_id":"cebpf4jnsgd1na2vs0mg"},{"bike_id":"545115dd-a48d-4298-80d8-d002b1067c42","system_id":"levelo_inurba_marseille","lat":43.290631,"lon":5.359244,"is_reserved":false,"is_disabled":false,"rental_uris":{"android":"levelo://app?vid=545115dd-a48d-4298-80d8-d002b1067c42","ios":"levelo://app?vid=545115dd-a48d-4298-80d8-d002b1067c42"},"vehicle_type_id":"4","last_reported":1712250364,"current_range_meters":6000,"station_id":"ce4bha92rcd13ifvqeg0","pricing_plan_id":"cebpf4jnsgd1na2vs0mg"},{"bike_id":"f9120687-ed30-43f7-8729-c271d58d7b2c","system_id":"levelo_inurba_marseille","lat":43.290319,"lon":5.375732,"is_reserved":false,"is_disabled":false,"rental_uris":{"android":"levelo://app?vid=f9120687-ed30-43f7-8729-c271d58d7b2c","ios":"levelo://app?vid=f9120687-ed30-43f7-8729-c271d58d7b2c"},"vehicle_type_id":"4","last_reported":1712250364,"current_range_meters":0,"station_id":"ce4bh692rcd13ifvqe90","pricing_plan_id":"cebpf4jnsgd1na2vs0mg"},{"bike_id":"9e0157ee-7a2f-4e9e-b717-a599f5b1cd7f","system_id":"levelo_inurba_marseille","lat":43.290041,"lon":5.371954,"is_reserved":false,"is_disabled":false,"rental_uris":{"android":"levelo://app?vid=9e0157ee-7a2f-4e9e-b717-a599f5b1cd7f","ios":"levelo://app?vid=9e0157ee-7a2f-4e9e-b717-a599f5b1cd7f"},"vehicle_type_id":"4","last_reported":1712250364,"current_range_meters":0,"station_id":"","pricing_plan_id":"cebpf4jnsgd1na2vs0mg"},{"bike_id":"29c3b537-0bfd-4c5f-ad79-0cc254fe3440","system_id":"levelo_inurba_marseille","lat":43.29427,"lon":5.38622,"is_reserved":false,"is_disabled":false,"rental_uris":{"android":"levelo://app?vid=29c3b537-0bfd-4c5f-ad79-0cc254fe3440","ios":"levelo://app?vid=29c3b537-0bfd-4c5f-ad79-0cc254fe3440"},"vehicle_type_id":"4","last_reported":1712250364,"current_range_meters":13200,"station_id":"ce4bh2h2rcd13ifvqdh0","pricing_plan_id":"cebpf4jnsgd1na2vs0mg"},{"bike_id":"e4bbccc6-954e-4bcc-b610-80e5c6842883","system_id":"levelo_inurba_marseille","lat":43.29427,"lon":5.38623,"is_reserved":false,"is_disabled":false,"rental_uris":{"android":"levelo://app?vid=e4bbccc6-954e-4bcc-b610-80e5c6842883","ios":"levelo://app?vid=e4bbccc6-954e-4bcc-b610-80e5c6842883"},"vehicle_type_id":"4","last_reported":1712250364,"current_range_meters":0,"station_id":"ce4bh2h2rcd13ifvqdh0","pricing_plan_id":"cebpf4jnsgd1na2vs0mg"},{"bike_id":"0ded9df5-2ac6-4f4e-a2ba-9fa84a53fda0","system_id":"levelo_inurba_marseille","lat":43.29422,"lon":5.38616,"is_reserved":false,"is_disabled":false,"rental_uris":{"android":"levelo://app?vid=0ded9df5-2ac6-4f4e-a2ba-9fa84a53fda0","ios":"levelo://app?vid=0ded9df5-2ac6-4f4e-a2ba-9fa84a53fda0"},"vehicle_type_id":"4","last_reported":1712250364,"current_range_meters":28000,"station_id":"ce4bh2h2rcd13ifvqdh0","pricing_plan_id":"cebpf4jnsgd1na2vs0mg"},{"bike_id":"c6b14f7b-3de1-4186-998d-d1fc60277bf0","system_id":"levelo_inurba_marseille","lat":43.29423,"lon":5.38621,"is_reserved":false,"is_disabled":false,"rental_uris":{"android":"levelo://app?vid=c6b14f7b-3de1-4186-998d-d1fc60277bf0","ios":"levelo://app?vid=c6b14f7b-3de1-4186-998d-d1fc60277bf0"},"vehicle_type_id":"4","last_reported":1712250364,"current_range_meters":2800,"station_id":"ce4bh2h2rcd13ifvqdh0","pricing_plan_id":"cebpf4jnsgd1na2vs0mg"},{"bike_id":"f10f7785-889b-42e0-91e9-b34b1827d671","system_id":"levelo_inurba_marseille","lat":43.29416,"lon":5.38612,"is_reserved":false,"is_disabled":false,"rental_uris":{"android":"levelo://app?vid=f10f7785-889b-42e0-91e9-b34b1827d671","ios":"levelo://app?vid=f10f7785-889b-42e0-91e9-b34b1827d671"},"vehicle_type_id":"4","last_reported":1712250364,"current_range_meters":4000,"station_id":"ce4bh2h2rcd13ifvqdh0","pricing_plan_id":"cebpf4jnsgd1na2vs0mg"},{"bike_id":"dcfbd7ab-4b04-407b-85fa-cc5127a42665","system_id":"levelo_inurba_marseille","lat":43.29422,"lon":5.38623,"is_reserved":false,"is_disabled":false,"rental_uris":{"android":"levelo://app?vid=dcfbd7ab-4b04-407b-85fa-cc5127a42665","ios":"levelo://app?vid=dcfbd7ab-4b04-407b-85fa-cc5127a42665"},"vehicle_type_id":"4","last_reported":1712250364,"current_range_meters":2400,"station_id":"ce4bh2h2rcd13ifvqdh0","pricing_plan_id":"cebpf4jnsgd1na2vs0mg"},{"bike_id":"ed825d4d-9857-45df-8c0f-67df4aafe617","system_id":"levelo_inurba_marseille","lat":43.290319,"lon":5.375732,"is_reserved":false,"is_disabled":false,"rental_uris":{"android":"levelo://app?vid=ed825d4d-9857-45df-8c0f-67df4aafe617","ios":"levelo://app?vid=ed825d4d-9857-45df-8c0f-67df4aafe617"},"vehicle_type_id":"4","last_reported":1712250364,"current_range_meters":8000,"station_id":"ce4bh692rcd13ifvqe90","pricing_plan_id":"cebpf4jnsgd1na2vs0mg"},{"bike_id":"96ee0962-9533-4c06-8d4d-2d1303bce8bf","system_id":"levelo_inurba_marseille","lat":43.29422,"lon":5.38625,"is_reserved":false,"is_disabled":false,"rental_uris":{"android":"levelo://app?vid=96ee0962-9533-4c06-8d4d-2d1303bce8bf","ios":"levelo://app?vid=96ee0962-9533-4c06-8d4d-2d1303bce8bf"},"vehicle_type_id":"4","last_reported":1712250364,"current_range_meters":0,"station_id":"ce4bh2h2rcd13ifvqdh0","pricing_plan_id":"cebpf4jnsgd1na2vs0mg"},{"bike_id":"7bf179ad-9c15-412d-9872-4043d30c2da8","system_id":"levelo_inurba_marseille","lat":43.309589,"lon":5.390258,"is_reserved":false,"is_disabled":false,"rental_uris":{"android":"levelo://app?vid=7bf179ad-9c15-412d-9872-4043d30c2da8","ios":"levelo://app?vid=7bf179ad-9c15-412d-9872-4043d30c2da8"},"vehicle_type_id":"4","last_reported":1712250364,"current_range_meters":5200,"station_id":"ce4bgup2rcd13ifvqco0","pricing_plan_id":"cebpf4jnsgd1na2vs0mg"},{"bike_id":"792465a9-93ba-417b-9829-5838ad4ad7a4","system_id":"levelo_inurba_marseille","lat":43.290319,"lon":5.375732,"is_reserved":false,"is_disabled":false,"rental_uris":{"android":"levelo://app?vid=792465a9-93ba-417b-9829-5838ad4ad7a4","ios":"levelo://app?vid=792465a9-93ba-417b-9829-5838ad4ad7a4"},"vehicle_type_id":"4","last_reported":1712250364,"current_range_meters":12800,"station_id":"ce4bh692rcd13ifvqe90","pricing_plan_id":"cebpf4jnsgd1na2vs0mg"},{"bike_id":"d3bffefe-fdd6-4f54-b7cc-0eddf5161d52","system_id":"levelo_inurba_marseille","lat":43.290319,"lon":5.375732,"is_reserved":false,"is_disabled":false,"rental_uris":{"android":"levelo://app?vid=d3bffefe-fdd6-4f54-b7cc-0eddf5161d52","ios":"levelo://app?vid=d3bffefe-fdd6-4f54-b7cc-0eddf5161d52"},"vehicle_type_id":"4","last_reported":1712250364,"current_range_meters":4400,"station_id":"ce4bh692rcd13ifvqe90","pricing_plan_id":"cebpf4jnsgd1na2vs0mg"},{"bike_id":"3da7ada6-dba7-4bbd-81d2-601c38edeffb","system_id":"levelo_inurba_marseille","lat":43.29416,"lon":5.3862,"is_reserved":false,"is_disabled":false,"rental_uris":{"android":"levelo://app?vid=3da7ada6-dba7-4bbd-81d2-601c38edeffb","ios":"levelo://app?vid=3da7ada6-dba7-4bbd-81d2-601c38edeffb"},"vehicle_type_id":"4","last_reported":1712250364,"current_range_meters":9600,"station_id":"ce4bh2h2rcd13ifvqdh0","pricing_plan_id":"cebpf4jnsgd1na2vs0mg"},{"bike_id":"6fa53718-9201-40b2-a492-e2bb72d93903","system_id":"levelo_inurba_marseille","lat":43.29416,"lon":5.3862,"is_reserved":false,"is_disabled":false,"rental_uris":{"android":"levelo://app?vid=6fa53718-9201-40b2-a492-e2bb72d93903","ios":"levelo://app?vid=6fa53718-9201-40b2-a492-e2bb72d93903"},"vehicle_type_id":"4","last_reported":1712250364,"current_range_meters":2800,"station_id":"ce4bh2h2rcd13ifvqdh0","pricing_plan_id":"cebpf4jnsgd1na2vs0mg"},{"bike_id":"2fdb4dcd-505a-44f2-b06f-ecb40a2b9055","system_id":"levelo_inurba_marseille","lat":43.29422,"lon":5.38631,"is_reserved":false,"is_disabled":false,"rental_uris":{"android":"levelo://app?vid=2fdb4dcd-505a-44f2-b06f-ecb40a2b9055","ios":"levelo://app?vid=2fdb4dcd-505a-44f2-b06f-ecb40a2b9055"},"vehicle_type_id":"4","last_reported":1712250364,"current_range_meters":2800,"station_id":"ce4bh2h2rcd13ifvqdh0","pricing_plan_id":"cebpf4jnsgd1na2vs0mg"},{"bike_id":"e0290d32-9c5a-4f4d-8915-0988b5754366","system_id":"levelo_inurba_marseille","lat":43.294131,"lon":5.386154,"is_reserved":false,"is_disabled":false,"rental_uris":{"android":"levelo://app?vid=e0290d32-9c5a-4f4d-8915-0988b5754366","ios":"levelo://app?vid=e0290d32-9c5a-4f4d-8915-0988b5754366"},"vehicle_type_id":"4","last_reported":1712250364,"current_range_meters":0,"station_id":"ce4bh2h2rcd13ifvqdh0","pricing_plan_id":"cebpf4jnsgd1na2vs0mg"},{"bike_id":"f676c3e4-52d7-4543-b6fc-79c11f34b3aa","system_id":"levelo_inurba_marseille","lat":43.289184,"lon":5.366408,"is_reserved":false,"is_disabled":false,"rental_uris":{"android":"levelo://app?vid=f676c3e4-52d7-4543-b6fc-79c11f34b3aa","ios":"levelo://app?vid=f676c3e4-52d7-4543-b6fc-79c11f34b3aa"},"vehicle_type_id":"4","last_reported":1712250364,"current_range_meters":20000,"station_id":"ce4bhap2rcd13ifvqek0","pricing_plan_id":"cebpf4jnsgd1na2vs0mg"},{"bike_id":"4ad61285-e12e-437e-99f7-4603db35856e","system_id":"levelo_inurba_marseille","lat":43.296263,"lon":5.40601,"is_reserved":false,"is_disabled":false,"rental_uris":{"android":"levelo://app?vid=4ad61285-e12e-437e-99f7-4603db35856e","ios":"levelo://app?vid=4ad61285-e12e-437e-99f7-4603db35856e"},"vehicle_type_id":"4","last_reported":1712250364,"current_range_meters":9200,"station_id":"ce4bh0h2rcd13ifvqd60","pricing_plan_id":"cebpf4jnsgd1na2vs0mg"},{"bike_id":"2be465fe-c388-451f-ab4a-783468546e9e","system_id":"levelo_inurba_marseille","lat":43.289184,"lon":5.366408,"is_reserved":false,"is_disabled":false,"rental_uris":{"android":"levelo://app?vid=2be465fe-c388-451f-ab4a-783468546e9e","ios":"levelo://app?vid=2be465fe-c388-451f-ab4a-783468546e9e"},"vehicle_type_id":"4","last_reported":1712250364,"current_range_meters":23200,"station_id":"ce4bhap2rcd13ifvqek0","pricing_plan_id":"cebpf4jnsgd1na2vs0mg"},{"bike_id":"a006e506-ae82-4384-aba4-2a34d1b81e5b","system_id":"levelo_inurba_marseille","lat":43.290319,"lon":5.375732,"is_reserved":false,"is_disabled":false,"rental_uris":{"android":"levelo://app?vid=a006e506-ae82-4384-aba4-2a34d1b81e5b","ios":"levelo://app?vid=a006e506-ae82-4384-aba4-2a34d1b81e5b"},"vehicle_type_id":"4","last_reported":1712250364,"current_range_meters":6400,"station_id":"ce4bh692rcd13ifvqe90","pricing_plan_id":"cebpf4jnsgd1na2vs0mg"},{"bike_id":"0cfbfa0b-f88d-483a-97c0-acfecb62d464","system_id":"levelo_inurba_marseille","lat":43.289184,"lon":5.366408,"is_reserved":false,"is_disabled":false,"rental_uris":{"android":"levelo://app?vid=0cfbfa0b-f88d-483a-97c0-acfecb62d464","ios":"levelo://app?vid=0cfbfa0b-f88d-483a-97c0-acfecb62d464"},"vehicle_type_id":"4","last_reported":1712250364,"current_range_meters":3600,"station_id":"ce4bhap2rcd13ifvqek0","pricing_plan_id":"cebpf4jnsgd1na2vs0mg"},{"bike_id":"7a5f6868-2800-4ee9-80f9-3d9ff38348f1","system_id":"levelo_inurba_marseille","lat":43.29417,"lon":5.38628,"is_reserved":false,"is_disabled":false,"rental_uris":{"android":"levelo://app?vid=7a5f6868-2800-4ee9-80f9-3d9ff38348f1","ios":"levelo://app?vid=7a5f6868-2800-4ee9-80f9-3d9ff38348f1"},"vehicle_type_id":"4","last_reported":1712250364,"current_range_meters":0,"station_id":"ce4bh2h2rcd13ifvqdh0","pricing_plan_id":"cebpf4jnsgd1na2vs0mg"},{"bike_id":"3a724730-f7c5-4fe1-98ef-f0a549f6398d","system_id":"levelo_inurba_marseille","lat":43.289184,"lon":5.366408,"is_reserved":false,"is_disabled":false,"rental_uris":{"android":"levelo://app?vid=3a724730-f7c5-4fe1-98ef-f0a549f6398d","ios":"levelo://app?vid=3a724730-f7c5-4fe1-98ef-f0a549f6398d"},"vehicle_type_id":"4","last_reported":1712250364,"current_range_meters":18800,"station_id":"ce4bhap2rcd13ifvqek0","pricing_plan_id":"cebpf4jnsgd1na2vs0mg"},{"bike_id":"2bc526bd-757b-4009-9c61-bf7c3cef86a6","system_id":"levelo_inurba_marseille","lat":43.289184,"lon":5.366408,"is_reserved":false,"is_disabled":false,"rental_uris":{"android":"levelo://app?vid=2bc526bd-757b-4009-9c61-bf7c3cef86a6","ios":"levelo://app?vid=2bc526bd-757b-4009-9c61-bf7c3cef86a6"},"vehicle_type_id":"4","last_reported":1712250364,"current_range_meters":4000,"station_id":"ce4bhap2rcd13ifvqek0","pricing_plan_id":"cebpf4jnsgd1na2vs0mg"},{"bike_id":"e62b3e5c-c9f4-4e56-835a-b18ecea9fb59","system_id":"levelo_inurba_marseille","lat":43.289184,"lon":5.366408,"is_reserved":false,"is_disabled":false,"rental_uris":{"android":"levelo://app?vid=e62b3e5c-c9f4-4e56-835a-b18ecea9fb59","ios":"levelo://app?vid=e62b3e5c-c9f4-4e56-835a-b18ecea9fb59"},"vehicle_type_id":"4","last_reported":1712250364,"current_range_meters":27600,"station_id":"ce4bhap2rcd13ifvqek0","pricing_plan_id":"cebpf4jnsgd1na2vs0mg"},{"bike_id":"20e3dc8a-c93b-4397-a4bc-fdd8648f8d33","system_id":"levelo_inurba_marseille","lat":43.289184,"lon":5.366408,"is_reserved":false,"is_disabled":false,"rental_uris":{"android":"levelo://app?vid=20e3dc8a-c93b-4397-a4bc-fdd8648f8d33","ios":"levelo://app?vid=20e3dc8a-c93b-4397-a4bc-fdd8648f8d33"},"vehicle_type_id":"4","last_reported":1712250364,"current_range_meters":20800,"station_id":"ce4bhap2rcd13ifvqek0","pricing_plan_id":"cebpf4jnsgd1na2vs0mg"},{"bike_id":"d3bda5db-9868-4ae4-abc2-2618eda50b9a","system_id":"levelo_inurba_marseille","lat":43.29277,"lon":5.38436,"is_reserved":false,"is_disabled":false,"rental_uris":{"android":"levelo://app?vid=d3bda5db-9868-4ae4-abc2-2618eda50b9a","ios":"levelo://app?vid=d3bda5db-9868-4ae4-abc2-2618eda50b9a"},"vehicle_type_id":"4","last_reported":1712250364,"current_range_meters":16400,"station_id":"","pricing_plan_id":"cebpf4jnsgd1na2vs0mg"},{"bike_id":"3825958b-cc1b-4702-8e83-74b7845e88e1","system_id":"levelo_inurba_marseille","lat":43.30435,"lon":5.39743,"is_reserved":false,"is_disabled":false,"rental_uris":{"android":"levelo://app?vid=3825958b-cc1b-4702-8e83-74b7845e88e1","ios":"levelo://app?vid=3825958b-cc1b-4702-8e83-74b7845e88e1"},"vehicle_type_id":"4","last_reported":1712250364,"current_range_meters":0,"station_id":"ce4bh092rcd13ifvqd20","pricing_plan_id":"cebpf4jnsgd1na2vs0mg"},{"bike_id":"1d77f75a-4e02-4dda-9453-470e10f71388","system_id":"levelo_inurba_marseille","lat":43.292642,"lon":5.384254,"is_reserved":false,"is_disabled":false,"rental_uris":{"android":"levelo://app?vid=1d77f75a-4e02-4dda-9453-470e10f71388","ios":"levelo://app?vid=1d77f75a-4e02-4dda-9453-470e10f71388"},"vehicle_type_id":"4","last_reported":1712250364,"current_range_meters":1600,"station_id":"ce4bh692rcd13ifvqea0","pricing_plan_id":"cebpf4jnsgd1na2vs0mg"},{"bike_id":"2091d0bd-7ffc-41df-ba5a-29278b0b0f7b","system_id":"levelo_inurba_marseille","lat":43.292644,"lon":5.384257,"is_reserved":false,"is_disabled":false,"rental_uris":{"android":"levelo://app?vid=2091d0bd-7ffc-41df-ba5a-29278b0b0f7b","ios":"levelo://app?vid=2091d0bd-7ffc-41df-ba5a-29278b0b0f7b"},"vehicle_type_id":"4","last_reported":1712250364,"current_range_meters":0,"station_id":"ce4bh692rcd13ifvqea0","pricing_plan_id":"cebpf4jnsgd1na2vs0mg"},{"bike_id":"c616d541-d11f-4cc6-a482-a020eccd6b02","system_id":"levelo_inurba_marseille","lat":43.29264,"lon":5.38431,"is_reserved":false,"is_disabled":false,"rental_uris":{"android":"levelo://app?vid=c616d541-d11f-4cc6-a482-a020eccd6b02","ios":"levelo://app?vid=c616d541-d11f-4cc6-a482-a020eccd6b02"},"vehicle_type_id":"4","last_reported":1712250364,"current_range_meters":0,"station_id":"ce4bh692rcd13ifvqea0","pricing_plan_id":"cebpf4jnsgd1na2vs0mg"},{"bike_id":"607a4959-af0e-466b-a1d3-b522bcad38e6","system_id":"levelo_inurba_marseille","lat":43.29267,"lon":5.38441,"is_reserved":false,"is_disabled":false,"rental_uris":{"android":"levelo://app?vid=607a4959-af0e-466b-a1d3-b522bcad38e6","ios":"levelo://app?vid=607a4959-af0e-466b-a1d3-b522bcad38e6"},"vehicle_type_id":"4","last_reported":1712250364,"current_range_meters":1600,"station_id":"ce4bh692rcd13ifvqea0","pricing_plan_id":"cebpf4jnsgd1na2vs0mg"},{"bike_id":"e3fb3e5b-2fb3-49fa-b580-e0333466d0e0","system_id":"levelo_inurba_marseille","lat":43.292642,"lon":5.384254,"is_reserved":false,"is_disabled":false,"rental_uris":{"android":"levelo://app?vid=e3fb3e5b-2fb3-49fa-b580-e0333466d0e0","ios":"levelo://app?vid=e3fb3e5b-2fb3-49fa-b580-e0333466d0e0"},"vehicle_type_id":"4","last_reported":1712250364,"current_range_meters":0,"station_id":"ce4bh692rcd13ifvqea0","pricing_plan_id":"cebpf4jnsgd1na2vs0mg"},{"bike_id":"3a530641-a48f-44f7-838f-382659c7daa3","system_id":"levelo_inurba_marseille","lat":43.292644,"lon":5.384257,"is_reserved":false,"is_disabled":false,"rental_uris":{"android":"levelo://app?vid=3a530641-a48f-44f7-838f-382659c7daa3","ios":"levelo://app?vid=3a530641-a48f-44f7-838f-382659c7daa3"},"vehicle_type_id":"4","last_reported":1712250364,"current_range_meters":2000,"station_id":"ce4bh692rcd13ifvqea0","pricing_plan_id":"cebpf4jnsgd1na2vs0mg"},{"bike_id":"8049636e-2f7d-476d-9062-988b8411264e","system_id":"levelo_inurba_marseille","lat":43.292644,"lon":5.384257,"is_reserved":false,"is_disabled":false,"rental_uris":{"android":"levelo://app?vid=8049636e-2f7d-476d-9062-988b8411264e","ios":"levelo://app?vid=8049636e-2f7d-476d-9062-988b8411264e"},"vehicle_type_id":"4","last_reported":1712250364,"current_range_meters":0,"station_id":"ce4bh692rcd13ifvqea0","pricing_plan_id":"cebpf4jnsgd1na2vs0mg"},{"bike_id":"7359ba87-b9ea-41b0-af29-fd69d38098f5","system_id":"levelo_inurba_marseille","lat":43.290104,"lon":5.356111,"is_reserved":false,"is_disabled":false,"rental_uris":{"android":"levelo://app?vid=7359ba87-b9ea-41b0-af29-fd69d38098f5","ios":"levelo://app?vid=7359ba87-b9ea-41b0-af29-fd69d38098f5"},"vehicle_type_id":"4","last_reported":1712250364,"current_range_meters":14000,"station_id":"ce4bhb92rcd13ifvqen0","pricing_plan_id":"cebpf4jnsgd1na2vs0mg"},{"bike_id":"8d7ca42b-f453-41c8-8747-07d0e626db74","system_id":"levelo_inurba_marseille","lat":43.290103,"lon":5.356114,"is_reserved":false,"is_disabled":false,"rental_uris":{"android":"levelo://app?vid=8d7ca42b-f453-41c8-8747-07d0e626db74","ios":"levelo://app?vid=8d7ca42b-f453-41c8-8747-07d0e626db74"},"vehicle_type_id":"4","last_reported":1712250364,"current_range_meters":10800,"station_id":"ce4bhb92rcd13ifvqen0","pricing_plan_id":"cebpf4jnsgd1na2vs0mg"},{"bike_id":"d77510e7-01df-4343-a029-31358d8f9b88","system_id":"levelo_inurba_marseille","lat":43.290104,"lon":5.356111,"is_reserved":false,"is_disabled":false,"rental_uris":{"android":"levelo://app?vid=d77510e7-01df-4343-a029-31358d8f9b88","ios":"levelo://app?vid=d77510e7-01df-4343-a029-31358d8f9b88"},"vehicle_type_id":"4","last_reported":1712250364,"current_range_meters":13200,"station_id":"ce4bhb92rcd13ifvqen0","pricing_plan_id":"cebpf4jnsgd1na2vs0mg"},{"bike_id":"066e8e82-fb3d-4e6d-8397-1690c0b7a85e","system_id":"levelo_inurba_marseille","lat":43.290104,"lon":5.356111,"is_reserved":false,"is_disabled":false,"rental_uris":{"android":"levelo://app?vid=066e8e82-fb3d-4e6d-8397-1690c0b7a85e","ios":"levelo://app?vid=066e8e82-fb3d-4e6d-8397-1690c0b7a85e"},"vehicle_type_id":"4","last_reported":1712250364,"current_range_meters":1600,"station_id":"ce4bhb92rcd13ifvqen0","pricing_plan_id":"cebpf4jnsgd1na2vs0mg"},{"bike_id":"00a70dd3-b1c1-4c28-b4e8-0d21415e7343","system_id":"levelo_inurba_marseille","lat":43.290104,"lon":5.356111,"is_reserved":false,"is_disabled":false,"rental_uris":{"android":"levelo://app?vid=00a70dd3-b1c1-4c28-b4e8-0d21415e7343","ios":"levelo://app?vid=00a70dd3-b1c1-4c28-b4e8-0d21415e7343"},"vehicle_type_id":"4","last_reported":1712250364,"current_range_meters":0,"station_id":"ce4bhb92rcd13ifvqen0","pricing_plan_id":"cebpf4jnsgd1na2vs0mg"},{"bike_id":"43e6c53b-9999-4b89-b044-05e68d16a7d9","system_id":"levelo_inurba_marseille","lat":43.290103,"lon":5.356114,"is_reserved":false,"is_disabled":false,"rental_uris":{"android":"levelo://app?vid=43e6c53b-9999-4b89-b044-05e68d16a7d9","ios":"levelo://app?vid=43e6c53b-9999-4b89-b044-05e68d16a7d9"},"vehicle_type_id":"4","last_reported":1712250364,"current_range_meters":22000,"station_id":"ce4bhb92rcd13ifvqen0","pricing_plan_id":"cebpf4jnsgd1na2vs0mg"},{"bike_id":"b709cade-e718-40dd-81fb-4ec3249c84e2","system_id":"levelo_inurba_marseille","lat":43.290104,"lon":5.356111,"is_reserved":false,"is_disabled":false,"rental_uris":{"android":"levelo://app?vid=b709cade-e718-40dd-81fb-4ec3249c84e2","ios":"levelo://app?vid=b709cade-e718-40dd-81fb-4ec3249c84e2"},"vehicle_type_id":"4","last_reported":1712250364,"current_range_meters":6000,"station_id":"ce4bhb92rcd13ifvqen0","pricing_plan_id":"cebpf4jnsgd1na2vs0mg"},{"bike_id":"71da2e76-5ed7-435c-b85b-6440fa78243d","system_id":"levelo_inurba_marseille","lat":43.290104,"lon":5.356111,"is_reserved":false,"is_disabled":false,"rental_uris":{"android":"levelo://app?vid=71da2e76-5ed7-435c-b85b-6440fa78243d","ios":"levelo://app?vid=71da2e76-5ed7-435c-b85b-6440fa78243d"},"vehicle_type_id":"4","last_reported":1712250364,"current_range_meters":7600,"station_id":"ce4bhb92rcd13ifvqen0","pricing_plan_id":"cebpf4jnsgd1na2vs0mg"},{"bike_id":"690c29ee-553a-4e42-a652-a041728ccd25","system_id":"levelo_inurba_marseille","lat":43.290103,"lon":5.356114,"is_reserved":false,"is_disabled":false,"rental_uris":{"android":"levelo://app?vid=690c29ee-553a-4e42-a652-a041728ccd25","ios":"levelo://app?vid=690c29ee-553a-4e42-a652-a041728ccd25"},"vehicle_type_id":"4","last_reported":1712250364,"current_range_meters":19200,"station_id":"ce4bhb92rcd13ifvqen0","pricing_plan_id":"cebpf4jnsgd1na2vs0mg"},{"bike_id":"a401eb32-8316-4c81-8523-cafce1c5df36","system_id":"levelo_inurba_marseille","lat":43.290104,"lon":5.356111,"is_reserved":false,"is_disabled":false,"rental_uris":{"android":"levelo://app?vid=a401eb32-8316-4c81-8523-cafce1c5df36","ios":"levelo://app?vid=a401eb32-8316-4c81-8523-cafce1c5df36"},"vehicle_type_id":"4","last_reported":1712250364,"current_range_meters":7200,"station_id":"ce4bhb92rcd13ifvqen0","pricing_plan_id":"cebpf4jnsgd1na2vs0mg"},