{"last_updated":1702199182,"ttl":30,"version":"2.2","data":{"bikes":[{"bike_id":"b8cfaa12-a0be-4156-8f5f-64c2540d1f5d","system_id":"levelo_inurba_marseille","lat":43.314857,"lon":5.37287,"is_reserved":false,"is_disabled":false,"rental_uris":{"android":"levelo://app?vid=b8cfaa12-a0be-4156-8f5f-64c2540d1f5d","ios":"levelo://app?vid=b8cfaa12-a0be-4156-8f5f-64c2540d1f5d"},"vehicle_type_id":"4","last_reported":1702199182,"current_range_meters":24400,"station_id":"ce4bgt12rcd13ifvqcd0","pricing_plan_id":"free"},{"bike_id":"2ebe9719-a8e1-4c38-a2a3-4c0c675e8ea4","system_id":"levelo_inurba_marseille","lat":43.314811,"lon":5.373103,"is_reserved":false,"is_disabled":false,"rental_uris":{"android":"levelo://app?vid=2ebe9719-a8e1-4c38-a2a3-4c0c675e8ea4","ios":"levelo://app?vid=2ebe9719-a8e1-4c38-a2a3-4c0c675e8ea4"},"vehicle_type_id":"4","last_reported":1702199182,"current_range_meters":26800,"station_id":"ce4bgt12rcd13ifvqcd0","pricing_plan_id":"free"},{"bike_id":"5da1de88-852f-41de-b4d1-cd000a4dfd57","system_id":"levelo_inurba_marseille","lat":43.305712,"lon":5.365641,"is_reserved":false,"is_disabled":false,"rental_uris":{"android":"levelo://app?vid=5da1de88-852f-41de-b4d1-cd000a4dfd57","ios":"levelo://app?vid=5da1de88-852f-41de-b4d1-cd000a4dfd57"},"vehicle_type_id":"4","last_reported":1702199182,"current_range_meters":28000,"station_id":"ce4bgs12rcd13ifvqcag","pricing_plan_id":"free"},{"bike_id":"449f2853-8531-47b9-8ac9-658c721ae078","system_id":"levelo_inurba_marseille","lat":43.305706,"lon":5.365654,"is_reserved":false,"is_disabled":false,"rental_uris":{"android":"levelo://app?vid=449f2853-8531-47b9-8ac9-658c721ae078","ios":"levelo://app?vid=449f2853-8531-47b9-8ac9-658c721ae078"},"vehicle_type_id":"4","last_reported":1702199182,"current_range_meters":26000,"station_id":"ce4bgs12rcd13ifvqcag","pricing_plan_id":"free"},{"bike_id":"41bf67d1-de69-40cf-884f-9ee8998877ed","system_id":"levelo_inurba_marseille","lat":43.305706,"lon":5.365654,"is_reserved":false,"is_disabled":false,"rental_uris":{"android":"levelo://app?vid=41bf67d1-de69-40cf-884f-9ee8998877ed","ios":"levelo://app?vid=41bf67d1-de69-40cf-884f-9ee8998877ed"},"vehicle_type_id":"4","last_reported":1702199182,"current_range_meters":22400,"station_id":"ce4bgs12rcd13ifvqcag","pricing_plan_id":"free"},{"bike_id":"e38a4c55-b6a2-4190-b541-54c83feb6b4f","system_id":"levelo_inurba_marseille","lat":43.305706,"lon":5.365654,"is_reserved":false,"is_disabled":false,"rental_uris":{"android":"levelo://app?vid=e38a4c55-b6a2-4190-b541-54c83feb6b4f","ios":"levelo://app?vid=e38a4c55-b6a2-4190-b541-54c83feb6b4f"},"vehicle_type_id":"4","last_reported":1702199182,"current_range_meters":10800,"station_id":"ce4bgs12rcd13ifvqcag","pricing_plan_id":"free"},{"bike_id":"9dfa86be-08a3-4713-9986-01a1b0e7bc6e","system_id":"levelo_inurba_marseille","lat":43.305706,"lon":5.365654,"is_reserved":false,"is_disabled":false,"rental_uris":{"android":"levelo://app?vid=9dfa86be-08a3-4713-9986-01a1b0e7bc6e","ios":"levelo://app?vid=9dfa86be-08a3-4713-9986-01a1b0e7bc6e"},"vehicle_type_id":"4","last_reported":1702199182,"current_range_meters":30800,"station_id":"ce4bgs12rcd13ifvqcag","pricing_plan_id":"free"},{"bike_id":"aa85708b-55c6-4d2f-ab83-2b21858646a4","system_id":"levelo_inurba_marseille","lat":43.306,"lon":5.37238,"is_reserved":false,"is_disabled":false,"rental_uris":{"android":"levelo://app?vid=aa85708b-55c6-4d2f-ab83-2b21858646a4","ios":"levelo://app?vid=aa85708b-55c6-4d2f-ab83-2b21858646a4"},"vehicle_type_id":"4","last_reported":1702199182,"current_range_meters":13200,"station_id":"ce4bgqh2rcd13ifvqc4g","pricing_plan_id":"free"},{"bike_id":"733ac139-31b1-43b0-8225-269a800be920","system_id":"levelo_inurba_marseille","lat":43.30304,"lon":5.368987,"is_reserved":false,"is_disabled":false,"rental_uris":{"android":"levelo://app?vid=733ac139-31b1-43b0-8225-269a800be920","ios":"levelo://app?vid=733ac139-31b1-43b0-8225-269a800be920"},"vehicle_type_id":"4","last_reported":1702199182,"current_range_meters":30000,"station_id":"ce4bgqh2rcd13ifvqc5g","pricing_plan_id":"free"},{"bike_id":"3de9ccb9-7807-49a8-8f26-49b0d1fb051a","system_id":"levelo_inurba_marseille","lat":43.303046,"lon":5.368981,"is_reserved":false,"is_disabled":false,"rental_uris":{"android":"levelo://app?vid=3de9ccb9-7807-49a8-8f26-49b0d1fb051a","ios":"levelo://app?vid=3de9ccb9-7807-49a8-8f26-49b0d1fb051a"},"vehicle_type_id":"4","last_reported":1702199182,"current_range_meters":29600,"station_id":"ce4bgqh2rcd13ifvqc5g","pricing_plan_id":"free"},{"bike_id":"0bf08ecd-fb9f-47a7-be7f-16e5abc93f88","system_id":"levelo_inurba_marseille","lat":43.30304,"lon":5.368987,"is_reserved":false,"is_disabled":false,"rental_uris":{"android":"levelo://app?vid=0bf08ecd-fb9f-47a7-be7f-16e5abc93f88","ios":"levelo://app?vid=0bf08ecd-fb9f-47a7-be7f-16e5abc93f88"},"vehicle_type_id":"4","last_reported":1702199182,"current_range_meters":30400,"station_id":"ce4bgqh2rcd13ifvqc5g","pricing_plan_id":"free"},{"bike_id":"0e1ef088-dda2-41d3-8ae6-b7e09d4c96e7","system_id":"levelo_inurba_marseille","lat":43.30304,"lon":5.368987,"is_reserved":false,"is_disabled":false,"rental_uris":{"android":"levelo://app?vid=0e1ef088-dda2-41d3-8ae6-b7e09d4c96e7","ios":"levelo://app?vid=0e1ef088-dda2-41d3-8ae6-b7e09d4c96e7"},"vehicle_type_id":"4","last_reported":1702199182,"current_range_meters":30000,"station_id":"ce4bgqh2rcd13ifvqc5g","pricing_plan_id":"free"},{"bike_id":"e606102b-a630-4793-8c67-412e6b33c3ae","system_id":"levelo_inurba_marseille","lat":43.31997,"lon":5.38155,"is_reserved":false,"is_disabled":false,"rental_uris":{"android":"levelo://app?vid=e606102b-a630-4793-8c67-412e6b33c3ae","ios":"levelo://app?vid=e606102b-a630-4793-8c67-412e6b33c3ae"},"vehicle_type_id":"4","last_reported":1702199182,"current_range_meters":11200,"station_id":"ce4bhr12rcd13ifvqhpg","pricing_plan_id":"free"},{"bike_id":"d8be298e-f4c0-4479-a66b-e307c680d7cc","system_id":"levelo_inurba_marseille","lat":43.31356,"lon":5.38493,"is_reserved":false,"is_disabled":false,"rental_uris":{"android":"levelo://app?vid=d8be298e-f4c0-4479-a66b-e307c680d7cc","ios":"levelo://app?vid=d8be298e-f4c0-4479-a66b-e307c680d7cc"},"vehicle_type_id":"4","last_reported":1702199182,"current_range_meters":20800,"station_id":"ce4bgt92rcd13ifvqcf0","pricing_plan_id":"free"},{"bike_id":"fa0f6121-5666-4aa2-ba4b-b8713fbc9e2d","system_id":"levelo_inurba_marseille","lat":43.29944,"lon":5.36556,"is_reserved":false,"is_disabled":false,"rental_uris":{"android":"levelo://app?vid=fa0f6121-5666-4aa2-ba4b-b8713fbc9e2d","ios":"levelo://app?vid=fa0f6121-5666-4aa2-ba4b-b8713fbc9e2d"},"vehicle_type_id":"4","last_reported":1702199182,"current_range_meters":30800,"station_id":"ce4bgm92rcd13ifvqbr0","pricing_plan_id":"free"},{"bike_id":"ed8066de-4d9b-4f3e-b2de-fc11eb0c1ce1","system_id":"levelo_inurba_marseille","lat":43.299222,"lon":5.365554,"is_reserved":false,"is_disabled":false,"rental_uris":{"android":"levelo://app?vid=ed8066de-4d9b-4f3e-b2de-fc11eb0c1ce1","ios":"levelo://app?vid=ed8066de-4d9b-4f3e-b2de-fc11eb0c1ce1"},"vehicle_type_id":"4","last_reported":1702199182,"current_range_meters":30400,"station_id":"ce4bgm92rcd13ifvqbr0","pricing_plan_id":"free"},{"bike_id":"39f8c234-b410-410a-80ef-1039e309d610","system_id":"levelo_inurba_marseille","lat":43.299222,"lon":5.365554,"is_reserved":false,"is_disabled":false,"rental_uris":{"android":"levelo://app?vid=39f8c234-b410-410a-80ef-1039e309d610","ios":"levelo://app?vid=39f8c234-b410-410a-80ef-1039e309d610"},"vehicle_type_id":"4","last_reported":1702199182,"current_range_meters":22400,"station_id":"ce4bgm92rcd13ifvqbr0","pricing_plan_id":"free"},{"bike_id":"781b9188-ff14-435b-81b5-eb14aa9c30b4","system_id":"levelo_inurba_marseille","lat":43.29932,"lon":5.36551,"is_reserved":false,"is_disabled":false,"rental_uris":{"android":"levelo://app?vid=781b9188-ff14-435b-81b5-eb14aa9c30b4","ios":"levelo://app?vid=781b9188-ff14-435b-81b5-eb14aa9c30b4"},"vehicle_type_id":"4","last_reported":1702199182,"current_range_meters":30400,"station_id":"ce4bgm92rcd13ifvqbr0","pricing_plan_id":"free"},{"bike_id":"c0a64277-f5dd-4691-8acb-5c084fb0cfac","system_id":"levelo_inurba_marseille","lat":43.298433,"lon":5.362774,"is_reserved":false,"is_disabled":false,"rental_uris":{"android":"levelo://app?vid=c0a64277-f5dd-4691-8acb-5c084fb0cfac","ios":"levelo://app?vid=c0a64277-f5dd-4691-8acb-5c084fb0cfac"},"vehicle_type_id":"4","last_reported":1702199182,"current_range_meters":26400,"station_id":"ce4bgpp2rcd13ifvqc3g","pricing_plan_id":"free"},{"bike_id":"3fb272ad-b923-40ef-ad47-53fb17c945b4","system_id":"levelo_inurba_marseille","lat":43.298433,"lon":5.362774,"is_reserved":false,"is_disabled":false,"rental_uris":{"android":"levelo://app?vid=3fb272ad-b923-40ef-ad47-53fb17c945b4","ios":"levelo://app?vid=3fb272ad-b923-40ef-ad47-53fb17c945b4"},"vehicle_type_id":"4","last_reported":1702199182,"current_range_meters":22400,"station_id":"ce4bgpp2rcd13ifvqc3g","pricing_plan_id":"free"},{"bike_id":"b5bf9ac7-37c1-4dcf-a6ab-5f20f4514355","system_id":"levelo_inurba_marseille","lat":43.298433,"lon":5.362774,"is_reserved":false,"is_disabled":false,"rental_uris":{"android":"levelo://app?vid=b5bf9ac7-37c1-4dcf-a6ab-5f20f4514355","ios":"levelo://app?vid=b5bf9ac7-37c1-4dcf-a6ab-5f20f4514355"},"vehicle_type_id":"4","last_reported":1702199182,"current_range_meters":11200,"station_id":"ce4bgpp2rcd13ifvqc3g","pricing_plan_id":"free"},{"bike_id":"e9493a6f-af65-4b64-9213-23ca1b95b4c4","system_id":"levelo_inurba_marseille","lat":43.297794,"lon":5.370888,"is_reserved":false,"is_disabled":false,"rental_uris":{"android":"levelo://app?vid=e9493a6f-af65-4b64-9213-23ca1b95b4c4","ios":"levelo://app?vid=e9493a6f-af65-4b64-9213-23ca1b95b4c4"},"vehicle_type_id":"4","last_reported":1702199182,"current_range_meters":23600,"station_id":"ce4bgop2rcd13ifvqc1g","pricing_plan_id":"free"},{"bike_id":"0370f0dd-02e1-44c3-b626-7cdd11d7ffac","system_id":"levelo_inurba_marseille","lat":43.32287,"lon":5.38266,"is_reserved":false,"is_disabled":false,"rental_uris":{"android":"levelo://app?vid=0370f0dd-02e1-44c3-b626-7cdd11d7ffac","ios":"levelo://app?vid=0370f0dd-02e1-44c3-b626-7cdd11d7ffac"},"vehicle_type_id":"4","last_reported":1702199182,"current_range_meters":31200,"station_id":"ce4bhr12rcd13ifvqhqg","pricing_plan_id":"free"},{"bike_id":"2b2a628f-d493-40e0-8307-36f80352c9f9","system_id":"levelo_inurba_marseille","lat":43.297774,"lon":5.370875,"is_reserved":false,"is_disabled":false,"rental_uris":{"android":"levelo://app?vid=2b2a628f-d493-40e0-8307-36f80352c9f9","ios":"levelo://app?vid=2b2a628f-d493-40e0-8307-36f80352c9f9"},"vehicle_type_id":"4","last_reported":1702199182,"current_range_meters":30000,"station_id":"ce4bgop2rcd13ifvqc1g","pricing_plan_id":"free"},{"bike_id":"6ac675f1-e0be-498c-ad2f-b742a949d4b0","system_id":"levelo_inurba_marseille","lat":43.298218,"lon":5.374416,"is_reserved":false,"is_disabled":false,"rental_uris":{"android":"levelo://app?vid=6ac675f1-e0be-498c-ad2f-b742a949d4b0","ios":"levelo://app?vid=6ac675f1-e0be-498c-ad2f-b742a949d4b0"},"vehicle_type_id":"4","last_reported":1702199182,"current_range_meters":0,"station_id":"","pricing_plan_id":"free"},{"bike_id":"9a75aac0-2e54-4ffe-8b56-07e48315b873","system_id":"levelo_inurba_marseille","lat":43.32832,"lon":5.36686,"is_reserved":false,"is_disabled":false,"rental_uris":{"android":"levelo://app?vid=9a75aac0-2e54-4ffe-8b56-07e48315b873","ios":"levelo://app?vid=9a75aac0-2e54-4ffe-8b56-07e48315b873"},"vehicle_type_id":"4","last_reported":1702199182,"current_range_meters":24400,"station_id":"ce4bhs92rcd13ifvqi0g","pricing_plan_id":"free"},{"bike_id":"2173e759-f238-48f8-9561-5f434d35a60d","system_id":"levelo_inurba_marseille","lat":43.297163,"lon":5.365866,"is_reserved":false,"is_disabled":false,"rental_uris":{"android":"levelo://app?vid=2173e759-f238-48f8-9561-5f434d35a60d","ios":"levelo://app?vid=2173e759-f238-48f8-9561-5f434d35a60d"},"vehicle_type_id":"4","last_reported":1702199182,"current_range_meters":28800,"station_id":"ce4bgn12rcd13ifvqbt0","pricing_plan_id":"free"},{"bike_id":"fea9fdfd-d55e-4d08-9250-6336a8c94509","system_id":"levelo_inurba_marseille","lat":43.2968,"lon":5.37291,"is_reserved":false,"is_disabled":false,"rental_uris":{"android":"levelo://app?vid=fea9fdfd-d55e-4d08-9250-6336a8c94509","ios":"levelo://app?vid=fea9fdfd-d55e-4d08-9250-6336a8c94509"},"vehicle_type_id":"4","last_reported":1702199182,"current_range_meters":27200,"station_id":"ce4bgk12rcd13ifvqbj0","pricing_plan_id":"free"},{"bike_id":"616e8526-5b38-4994-9814-0ba76b59228f","system_id":"levelo_inurba_marseille","lat":43.2968,"lon":5.37291,"is_reserved":false,"is_disabled":false,"rental_uris":{"android":"levelo://app?vid=616e8526-5b38-4994-9814-0ba76b59228f","ios":"levelo://app?vid=616e8526-5b38-4994-9814-0ba76b59228f"},"vehicle_type_id":"4","last_reported":1702199182,"current_range_meters":29200,"station_id":"ce4bgk12rcd13ifvqbj0","pricing_plan_id":"free"},{"bike_id":"b7599588-63bb-4a7e-bf94-38e7eac475d8","system_id":"levelo_inurba_marseille","lat":43.296129,"lon":5.370777,"is_reserved":false,"is_disabled":false,"rental_uris":{"android":"levelo://app?vid=b7599588-63bb-4a7e-bf94-38e7eac475d8","ios":"levelo://app?vid=b7599588-63bb-4a7e-bf94-38e7eac475d8"},"vehicle_type_id":"4","last_reported":1702199182,"current_range_meters":31200,"station_id":"ce4bgnh2rcd13ifvqc0g","pricing_plan_id":"free"},{"bike_id":"a1b079a7-774a-47f3-a80b-968dcb185698","system_id":"levelo_inurba_marseille","lat":43.29573,"lon":5.367355,"is_reserved":false,"is_disabled":false,"rental_uris":{"android":"levelo://app?vid=a1b079a7-774a-47f3-a80b-968dcb185698","ios":"levelo://app?vid=a1b079a7-774a-47f3-a80b-968dcb185698"},"vehicle_type_id":"4","last_reported":1702199182,"current_range_meters":11600,"station_id":"ce4bgph2rcd13ifvqc2g","pricing_plan_id":"free"},{"bike_id":"92dc65d6-6823-4de3-93d4-056f738f090c","system_id":"levelo_inurba_marseille","lat":43.316538,"lon":5.38954,"is_reserved":false,"is_disabled":false,"rental_uris":{"android":"levelo://app?vid=92dc65d6-6823-4de3-93d4-056f738f090c","ios":"levelo://app?vid=92dc65d6-6823-4de3-93d4-056f738f090c"},"vehicle_type_id":"4","last_reported":1702199182,"current_range_meters":0,"station_id":"","pricing_plan_id":"free"},{"bike_id":"3ac01fee-4687-430d-8e90-19b9e8655136","system_id":"levelo_inurba_marseille","lat":43.29573,"lon":5.367355,"is_reserved":false,"is_disabled":false,"rental_uris":{"android":"levelo://app?vid=3ac01fee-4687-430d-8e90-19b9e8655136","ios":"levelo://app?vid=3ac01fee-4687-430d-8e90-19b9e8655136"},"vehicle_type_id":"4","last_reported":1702199182,"current_range_meters":12000,"station_id":"ce4bgph2rcd13ifvqc2g","pricing_plan_id":"free"},{"bike_id":"76c0d334-27f1-4d6e-ba52-b131f608aaa2","system_id":"levelo_inurba_marseille","lat":43.2958,"lon":5.3673,"is_reserved":false,"is_disabled":false,"rental_uris":{"android":"levelo://app?vid=76c0d334-27f1-4d6e-ba52-b131f608aaa2","ios":"levelo://app?vid=76c0d334-27f1-4d6e-ba52-b131f608aaa2"},"vehicle_type_id":"4","last_reported":1702199182,"current_range_meters":0,"station_id":"ce4bgph2rcd13ifvqc2g","pricing_plan_id":"free"},{"bike_id":"0715df4a-755d-4309-b39d-c9ef96da5409","system_id":"levelo_inurba_marseille","lat":43.29573,"lon":5.367355,"is_reserved":false,"is_disabled":false,"rental_uris":{"android":"levelo://app?vid=0715df4a-755d-4309-b39d-c9ef96da5409","ios":"levelo://app?vid=0715df4a-755d-4309-b39d-c9ef96da5409"},"vehicle_type_id":"4","last_reported":1702199182,"current_range_meters":26800,"station_id":"ce4bgph2rcd13ifvqc2g","pricing_plan_id":"free"},{"bike_id":"c2adb916-d991-4ba7-8f83-7a3f8fa4db2d","system_id":"levelo_inurba_marseille","lat":43.296935,"lon":5.376544,"is_reserved":false,"is_disabled":false,"rental_uris":{"android":"levelo://app?vid=c2adb916-d991-4ba7-8f83-7a3f8fa4db2d","ios":"levelo://app?vid=c2adb916-d991-4ba7-8f83-7a3f8fa4db2d"},"vehicle_type_id":"4","last_reported":1702199182,"current_range_meters":13600,"station_id":"ce4bgkh2rcd13ifvqbl0","pricing_plan_id":"free"},{"bike_id":"8614987b-66bb-4059-a31c-795db326ffe0","system_id":"levelo_inurba_marseille","lat":43.296935,"lon":5.376544,"is_reserved":false,"is_disabled":false,"rental_uris":{"android":"levelo://app?vid=8614987b-66bb-4059-a31c-795db326ffe0","ios":"levelo://app?vid=8614987b-66bb-4059-a31c-795db326ffe0"},"vehicle_type_id":"4","last_reported":1702199182,"current_range_meters":30800,"station_id":"ce4bgkh2rcd13ifvqbl0","pricing_plan_id":"free"},{"bike_id":"d69f04d9-84df-4f26-bc64-9f532752e790","system_id":"levelo_inurba_marseille","lat":43.31755,"lon":5.39017,"is_reserved":false,"is_disabled":false,"rental_uris":{"android":"levelo://app?vid=d69f04d9-84df-4f26-bc64-9f532752e790","ios":"levelo://app?vid=d69f04d9-84df-4f26-bc64-9f532752e790"},"vehicle_type_id":"4","last_reported":1702199182,"current_range_meters":6000,"station_id":"ce4bhqp2rcd13ifvqhng","pricing_plan_id":"free"},{"bike_id":"6b563076-5794-4ff4-aa49-6c87963efe82","system_id":"levelo_inurba_marseille","lat":43.295748,"lon":5.37522,"is_reserved":false,"is_disabled":false,"rental_uris":{"android":"levelo://app?vid=6b563076-5794-4ff4-aa49-6c87963efe82","ios":"levelo://app?vid=6b563076-5794-4ff4-aa49-6c87963efe82"},"vehicle_type_id":"4","last_reported":1702199182,"current_range_meters":20800,"station_id":"ce4bgh92rcd13ifvqb50","pricing_plan_id":"free"},{"bike_id":"2413d3f2-d755-4e7c-9cad-d9cdf0549e24","system_id":"levelo_inurba_marseille","lat":43.29577,"lon":5.37517,"is_reserved":false,"is_disabled":false,"rental_uris":{"android":"levelo://app?vid=2413d3f2-d755-4e7c-9cad-d9cdf0549e24","ios":"levelo://app?vid=2413d3f2-d755-4e7c-9cad-d9cdf0549e24"},"vehicle_type_id":"4","last_reported":1702199182,"current_range_meters":12800,"station_id":"ce4bgh92rcd13ifvqb50","pricing_plan_id":"free"},{"bike_id":"89a91752-240b-43a6-b6f5-d9bcebfb7aad","system_id":"levelo_inurba_marseille","lat":43.293009,"lon":5.374584,"is_reserved":false,"is_disabled":false,"rental_uris":{"android":"levelo://app?vid=89a91752-240b-43a6-b6f5-d9bcebfb7aad","ios":"levelo://app?vid=89a91752-240b-43a6-b6f5-d9bcebfb7aad"},"vehicle_type_id":"4","last_reported":1702199182,"current_range_meters":18400,"station_id":"ce4bgi12rcd13ifvqb70","pricing_plan_id":"free"},{"bike_id":"84f4cdcf-c199-4789-9683-5a3f2582e0a2","system_id":"levelo_inurba_marseille","lat":43.29355,"lon":5.37438,"is_reserved":false,"is_disabled":false,"rental_uris":{"android":"levelo://app?vid=84f4cdcf-c199-4789-9683-5a3f2582e0a2","ios":"levelo://app?vid=84f4cdcf-c199-4789-9683-5a3f2582e0a2"},"vehicle_type_id":"4","last_reported":1702199182,"current_range_meters":7600,"station_id":"","pricing_plan_id":"free"},{"bike_id":"3fcc8145-4163-4dc4-b4f2-798ab0a925c4","system_id":"levelo_inurba_marseille","lat":43.293009,"lon":5.374584,"is_reserved":false,"is_disabled":false,"rental_uris":{"android":"levelo://app?vid=3fcc8145-4163-4dc4-b4f2-798ab0a925c4","ios":"levelo://app?vid=3fcc8145-4163-4dc4-b4f2-798ab0a925c4"},"vehicle_type_id":"4","last_reported":1702199182,"current_range_meters":25600,"station_id":"ce4bgi12rcd13ifvqb70","pricing_plan_id":"free"},{"bike_id":"0ba8eb8b-6b88-4a17-a2a2-58d0bff0aeef","system_id":"levelo_inurba_marseille","lat":43.292311,"lon":5.360731,"is_reserved":false,"is_disabled":false,"rental_uris":{"android":"levelo://app?vid=0ba8eb8b-6b88-4a17-a2a2-58d0bff0aeef","ios":"levelo://app?vid=0ba8eb8b-6b88-4a17-a2a2-58d0bff0aeef"},"vehicle_type_id":"4","last_reported":1702199182,"current_range_meters":5600,"station_id":"ce4bhbh2rcd13ifvqeqg","pricing_plan_id":"free"},{"bike_id":"fd25a0e6-bcdd-49be-ad78-d33a3f898c6f","system_id":"levelo_inurba_marseille","lat":43.292311,"lon":5.360731,"is_reserved":false,"is_disabled":false,"rental_uris":{"android":"levelo://app?vid=fd25a0e6-bcdd-49be-ad78-d33a3f898c6f","ios":"levelo://app?vid=fd25a0e6-bcdd-49be-ad78-d33a3f898c6f"},"vehicle_type_id":"4","last_reported":1702199182,"current_range_meters":10000,"station_id":"ce4bhbh2rcd13ifvqeqg","pricing_plan_id":"free"},{"bike_id":"f6c5f525-b908-406a-81e6-1e25dde9d7b1","system_id":"levelo_inurba_marseille","lat":43.292311,"lon":5.360731,"is_reserved":false,"is_disabled":false,"rental_uris":{"android":"levelo://app?vid=f6c5f525-b908-406a-81e6-1e25dde9d7b1","ios":"levelo://app?vid=f6c5f525-b908-406a-81e6-1e25dde9d7b1"},"vehicle_type_id":"4","last_reported":1702199182,"current_range_meters":24000,"station_id":"ce4bhbh2rcd13ifvqeqg","pricing_plan_id":"free"},{"bike_id":"ffe8e861-9583-46be-9da3-462d5c1037ee","system_id":"levelo_inurba_marseille","lat":43.29257,"lon":5.37613,"is_reserved":false,"is_disabled":false,"rental_uris":{"android":"levelo://app?vid=ffe8e861-9583-46be-9da3-462d5c1037ee","ios":"levelo://app?vid=ffe8e861-9583-46be-9da3-462d5c1037ee"},"vehicle_type_id":"4","last_reported":1702199182,"current_range_meters":7600,"station_id":"ce4bgi12rcd13ifvqb80","pricing_plan_id":"free"},{"bike_id":"dde6a579-81dc-40ad-a823-26483f045cd7","system_id":"levelo_inurba_marseille","lat":43.313291,"lon":5.396838,"is_reserved":false,"is_disabled":false,"rental_uris":{"android":"levelo://app?vid=dde6a579-81dc-40ad-a823-26483f045cd7","ios":"levelo://app?vid=dde6a579-81dc-40ad-a823-26483f045cd7"},"vehicle_type_id":"4","last_reported":1702199182,"current_range_meters":17200,"station_id":"ce4bgvp2rcd13ifvqcu0","pricing_plan_id":"free"},{"bike_id":"52124319-b7d6-4782-96a0-3035d48d12e4","system_id":"levelo_inurba_marseille","lat":43.28951,"lon":5.36418,"is_reserved":false,"is_disabled":false,"rental_uris":{"android":"levelo://app?vid=52124319-b7d6-4782-96a0-3035d48d12e4","ios":"levelo://app?vid=52124319-b7d6-4782-96a0-3035d48d12e4"},"vehicle_type_id":"4","last_reported":1702199182,"current_range_meters":24000,"station_id":"ce4bhc92rcd13ifvqetg","pricing_plan_id":"free"},{"bike_id":"9aac591e-b7e3-4a46-ac25-08c62a5297e8","system_id":"levelo_inurba_marseille","lat":43.289184,"lon":5.366408,"is_reserved":false,"is_disabled":false,"rental_uris":{"android":"levelo://app?vid=9aac591e-b7e3-4a46-ac25-08c62a5297e8","ios":"levelo://app?vid=9aac591e-b7e3-4a46-ac25-08c62a5297e8"},"vehicle_type_id":"4","last_reported":1702199182,"current_range_meters":16000,"station_id":"ce4bhap2rcd13ifvqek0","pricing_plan_id":"free"},{"bike_id":"0d55287e-6324-4a21-96f1-2aa124f5d1a5","system_id":"levelo_inurba_marseille","lat":43.290161,"lon":5.375651,"is_reserved":false,"is_disabled":false,"rental_uris":{"android":"levelo://app?vid=0d55287e-6324-4a21-96f1-2aa124f5d1a5","ios":"levelo://app?vid=0d55287e-6324-4a21-96f1-2aa124f5d1a5"},"vehicle_type_id":"4","last_reported":1702199182,"current_range_meters":10400,"station_id":"","pricing_plan_id":"free"},{"bike_id":"a02a1b20-1fb1-4951-988a-77389649024d","system_id":"levelo_inurba_marseille","lat":43.289259,"lon":5.366364,"is_reserved":false,"is_disabled":false,"rental_uris":{"android":"levelo://app?vid=a02a1b20-1fb1-4951-988a-77389649024d","ios":"levelo://app?vid=a02a1b20-1fb1-4951-988a-77389649024d"},"vehicle_type_id":"4","last_reported":1702199182,"current_range_meters":8800,"station_id":"","pricing_plan_id":"free"},{"bike_id":"552c8778-4d77-4245-8921-e46a796e3b3e","system_id":"levelo_inurba_marseille","lat":43.28934,"lon":5.36387,"is_reserved":false,"is_disabled":false,"rental_uris":{"android":"levelo://app?vid=552c8778-4d77-4245-8921-e46a796e3b3e","ios":"levelo://app?vid=552c8778-4d77-4245-8921-e46a796e3b3e"},"vehicle_type_id":"4","last_reported":1702199182,"current_range_meters":14800,"station_id":"ce4bhc92rcd13ifvqetg","pricing_plan_id":"free"},{"bike_id":"9d6f2dfe-c880-4efc-9c27-8e848eb23861","system_id":"levelo_inurba_marseille","lat":43.330442,"lon":5.389148,"is_reserved":false,"is_disabled":false,"rental_uris":{"android":"levelo://app?vid=9d6f2dfe-c880-4efc-9c27-8e848eb23861","ios":"levelo://app?vid=9d6f2dfe-c880-4efc-9c27-8e848eb23861"},"vehicle_type_id":"4","last_reported":1702199182,"current_range_meters":2000,"station_id":"ce4bhr92rcd13ifvqhrg","pricing_plan_id":"free"},{"bike_id":"5a0182c1-3954-4ffc-908b-b9421e9b0a72","system_id":"levelo_inurba_marseille","lat":43.28845,"lon":5.35868,"is_reserved":false,"is_disabled":false,"rental_uris":{"android":"levelo://app?vid=5a0182c1-3954-4ffc-908b-b9421e9b0a72","ios":"levelo://app?vid=5a0182c1-3954-4ffc-908b-b9421e9b0a72"},"vehicle_type_id":"4","last_reported":1702199182,"current_range_meters":25600,"station_id":"ce4bhb12rcd13ifvqem0","pricing_plan_id":"free"},{"bike_id":"d8461ea7-49c1-4589-a964-018cafe4154a","system_id":"levelo_inurba_marseille","lat":43.309371,"lon":5.401449,"is_reserved":false,"is_disabled":false,"rental_uris":{"android":"levelo://app?vid=d8461ea7-49c1-4589-a964-018cafe4154a","ios":"levelo://app?vid=d8461ea7-49c1-4589-a964-018cafe4154a"},"vehicle_type_id":"4","last_reported":1702199182,"current_range_meters":28800,"station_id":"ce4bgvp2rcd13ifvqct0","pricing_plan_id":"free"},{"bike_id":"5c79bc93-8f13-4c40-8a8c-8f35d3902245","system_id":"levelo_inurba_marseille","lat":43.33672,"lon":5.37874,"is_reserved":false,"is_disabled":false,"rental_uris":{"android":"levelo://app?vid=5c79bc93-8f13-4c40-8a8c-8f35d3902245","ios":"levelo://app?vid=5c79bc93-8f13-4c40-8a8c-8f35d3902245"},"vehicle_type_id":"4","last_reported":1702199182,"current_range_meters":12000,"station_id":"","pricing_plan_id":"free"},{"bike_id":"5ed66215-e812-4934-8bd8-05fa06e2778c","system_id":"levelo_inurba_marseille","lat":43.336717,"lon":5.378763,"is_reserved":false,"is_disabled":false,"rental_uris":{"android":"levelo://app?vid=5ed66215-e812-4934-8bd8-05fa06e2778c","ios":"levelo://app?vid=5ed66215-e812-4934-8bd8-05fa06e2778c"},"vehicle_type_id":"4","last_reported":1702199182,"current_range_meters":27200,"station_id":"","pricing_plan_id":"free"},{"bike_id":"16a548ac-a264-4843-91b1-f67b9819a473","system_id":"levelo_inurba_marseille","lat":43.337608,"lon":5.374707,"is_reserved":false,"is_disabled":false,"rental_uris":{"android":"levelo://app?vid=16a548ac-a264-4843-91b1-f67b9819a473","ios":"levelo://app?vid=16a548ac-a264-4843-91b1-f67b9819a473"},"vehicle_type_id":"4","last_reported":1702199182,"current_range_meters":29200,"station_id":"","pricing_plan_id":"free"},{"bike_id":"d3b94379-b2aa-4cd5-aebc-857639d65bbc","system_id":"levelo_inurba_marseille","lat":43.286039,"lon":5.370681,"is_reserved":false,"is_disabled":false,"rental_uris":{"android":"levelo://app?vid=d3b94379-b2aa-4cd5-aebc-857639d65bbc","ios":"levelo://app?vid=d3b94379-b2aa-4cd5-aebc-857639d65bbc"},"vehicle_type_id":"4","last_reported":1702199182,"current_range_meters":12000,"station_id":"ce4bht12rcd13ifvqi60","pricing_plan_id":"free"},{"bike_id":"1739eb12-f7a4-4e61-90a8-1bb69b0d8764","system_id":"levelo_inurba_marseille","lat":43.291994,"lon":5.392907,"is_reserved":false,"is_disabled":false,"rental_uris":{"android":"levelo://app?vid=1739eb12-f7a4-4e61-90a8-1bb69b0d8764","ios":"levelo://app?vid=1739eb12-f7a4-4e61-90a8-1bb69b0d8764"},"vehicle_type_id":"4","last_reported":1702199182,"current_range_meters":31200,"station_id":"ce4bh192rcd13ifvqdd0","pricing_plan_id":"free"},{"bike_id":"3195621a-ecdb-405c-9cb2-5720431dc62d","system_id":"levelo_inurba_marseille","lat":43.283998,"lon":5.375062,"is_reserved":false,"is_disabled":false,"rental_uris":{"android":"levelo://app?vid=3195621a-ecdb-405c-9cb2-5720431dc62d","ios":"levelo://app?vid=3195621a-ecdb-405c-9cb2-5720431dc62d"},"vehicle_type_id":"4","last_reported":1702199182,"current_range_meters":8800,"station_id":"ce4bh412rcd13ifvqds0","pricing_plan_id":"free"},{"bike_id":"dc054975-6a48-4061-bf44-0bc6e5190bf4","system_id":"levelo_inurba_marseille","lat":43.319179,"lon":5.407725,"is_reserved":false,"is_disabled":false,"rental_uris":{"android":"levelo://app?vid=dc054975-6a48-4061-bf44-0bc6e5190bf4","ios":"levelo://app?vid=dc054975-6a48-4061-bf44-0bc6e5190bf4"},"vehicle_type_id":"4","last_reported":1702199182,"current_range_meters":23200,"station_id":"ce4bhq12rcd13ifvqhig","pricing_plan_id":"free"},{"bike_id":"991ddd9a-1c6e-4cbb-a571-16a27948f6ae","system_id":"levelo_inurba_marseille","lat":43.284265,"lon":5.349863,"is_reserved":false,"is_disabled":false,"rental_uris":{"android":"levelo://app?vid=991ddd9a-1c6e-4cbb-a571-16a27948f6ae","ios":"levelo://app?vid=991ddd9a-1c6e-4cbb-a571-16a27948f6ae"},"vehicle_type_id":"4","last_reported":1702199182,"current_range_meters":28800,"station_id":"ce4bhbh2rcd13ifvqepg","pricing_plan_id":"free"},{"bike_id":"04ea0db6-64fe-489b-8130-dafd142542e4","system_id":"levelo_inurba_marseille","lat":43.284219,"lon":5.3497,"is_reserved":false,"is_disabled":false,"rental_uris":{"android":"levelo://app?vid=04ea0db6-64fe-489b-8130-dafd142542e4","ios":"levelo://app?vid=04ea0db6-64fe-489b-8130-dafd142542e4"},"vehicle_type_id":"4","last_reported":1702199182,"current_range_meters":30000,"station_id":"ce4bhbh2rcd13ifvqepg","pricing_plan_id":"free"},{"bike_id":"dadf49d8-97f2-49d1-a70d-3c1893d87ad2","system_id":"levelo_inurba_marseille","lat":43.282754,"lon":5.350519,"is_reserved":false,"is_disabled":false,"rental_uris":{"android":"levelo://app?vid=dadf49d8-97f2-49d1-a70d-3c1893d87ad2","ios":"levelo://app?vid=dadf49d8-97f2-49d1-a70d-3c1893d87ad2"},"vehicle_type_id":"4","last_reported":1702199182,"current_range_meters":20800,"station_id":"ce4bhbp2rcd13ifvqerg","pricing_plan_id":"free"},{"bike_id":"6c390151-91e8-44e4-9abb-4c497d52f69a","system_id":"levelo_inurba_marseille","lat":43.282754,"lon":5.350519,"is_reserved":false,"is_disabled":false,"rental_uris":{"android":"levelo://app?vid=6c390151-91e8-44e4-9abb-4c497d52f69a","ios":"levelo://app?vid=6c390151-91e8-44e4-9abb-4c497d52f69a"},"vehicle_type_id":"4","last_reported":1702199182,"current_range_meters":22400,"station_id":"ce4bhbp2rcd13ifvqerg","pricing_plan_id":"free"},{"bike_id":"4435bfef-b3b8-4058-84bf-68d8cc973a03","system_id":"levelo_inurba_marseille","lat":43.280382,"lon":5.369291,"is_reserved":false,"is_disabled":false,"rental_uris":{"android":"levelo://app?vid=4435bfef-b3b8-4058-84bf-68d8cc973a03","ios":"levelo://app?vid=4435bfef-b3b8-4058-84bf-68d8cc973a03"},"vehicle_type_id":"4","last_reported":1702199182,"current_range_meters":18000,"station_id":"ce4bha12rcd13ifvqef0","pricing_plan_id":"free"},{"bike_id":"b51a65b3-acc3-430c-86c5-989e81ff3c63","system_id":"levelo_inurba_marseille","lat":43.29041,"lon":5.399634,"is_reserved":false,"is_disabled":false,"rental_uris":{"android":"levelo://app?vid=b51a65b3-acc3-430c-86c5-989e81ff3c63","ios":"levelo://app?vid=b51a65b3-acc3-430c-86c5-989e81ff3c63"},"vehicle_type_id":"4","last_reported":1702199182,"current_range_meters":9200,"station_id":"ce4bh392rcd13ifvqdm0","pricing_plan_id":"free"},{"bike_id":"15614c38-3d90-4ac0-99a1-e1d3cb08f965","system_id":"levelo_inurba_marseille","lat":43.290412,"lon":5.399633,"is_reserved":false,"is_disabled":false,"rental_uris":{"android":"levelo://app?vid=15614c38-3d90-4ac0-99a1-e1d3cb08f965","ios":"levelo://app?vid=15614c38-3d90-4ac0-99a1-e1d3cb08f965"},"vehicle_type_id":"4","last_reported":1702199182,"current_range_meters":17200,"station_id":"ce4bh392rcd13ifvqdm0","pricing_plan_id":"free"},{"bike_id":"4ebe9070-e99f-4493-be64-95a2d9dbcde2","system_id":"levelo_inurba_marseille","lat":43.296263,"lon":5.40601,"is_reserved":false,"is_disabled":false,"rental_uris":{"android":"levelo://app?vid=4ebe9070-e99f-4493-be64-95a2d9dbcde2","ios":"levelo://app?vid=4ebe9070-e99f-4493-be64-95a2d9dbcde2"},"vehicle_type_id":"4","last_reported":1702199182,"current_range_meters":24800,"station_id":"ce4bh0h2rcd13ifvqd60","pricing_plan_id":"free"},{"bike_id":"2e198fff-149c-4073-b6b7-00da61909e1d","system_id":"levelo_inurba_marseille","lat":43.284462,"lon":5.392121,"is_reserved":false,"is_disabled":false,"rental_uris":{"android":"levelo://app?vid=2e198fff-149c-4073-b6b7-00da61909e1d","ios":"levelo://app?vid=2e198fff-149c-4073-b6b7-00da61909e1d"},"vehicle_type_id":"4","last_reported":1702199182,"current_range_meters":21600,"station_id":"ce4bhoh2rcd13ifvqh5g","pricing_plan_id":"free"},{"bike_id":"e2d17c71-1426-462e-9c1e-c9fc623ceed1","system_id":"levelo_inurba_marseille","lat":43.326605,"lon":5.409903,"is_reserved":false,"is_disabled":false,"rental_uris":{"android":"levelo://app?vid=e2d17c71-1426-462e-9c1e-c9fc623ceed1","ios":"levelo://app?vid=e2d17c71-1426-462e-9c1e-c9fc623ceed1"},"vehicle_type_id":"4","last_reported":1702199182,"current_range_meters":31600,"station_id":"ce4bhpp2rcd13ifvqhgg","pricing_plan_id":"free"},{"bike_id":"6020eb43-c1b0-4340-aa00-25e2e88e33bf","system_id":"levelo_inurba_marseille","lat":43.326605,"lon":5.409903,"is_reserved":false,"is_disabled":false,"rental_uris":{"android":"levelo://app?vid=6020eb43-c1b0-4340-aa00-25e2e88e33bf","ios":"levelo://app?vid=6020eb43-c1b0-4340-aa00-25e2e88e33bf"},"vehicle_type_id":"4","last_reported":1702199182,"current_range_meters":28000,"station_id":"ce4bhpp2rcd13ifvqhgg","pricing_plan_id":"free"},{"bike_id":"4583bc60-704d-4596-b75e-88e1f01a6bd1","system_id":"levelo_inurba_marseille","lat":43.326605,"lon":5.409903,"is_reserved":false,"is_disabled":false,"rental_uris":{"android":"levelo://app?vid=4583bc60-704d-4596-b75e-88e1f01a6bd1","ios":"levelo://app?vid=4583bc60-704d-4596-b75e-88e1f01a6bd1"},"vehicle_type_id":"4","last_reported":1702199182,"current_range_meters":22800,"station_id":"ce4bhpp2rcd13ifvqhgg","pricing_plan_id":"free"},{"bike_id":"130f4392-f78a-4479-b25d-58a7d67aabe1","system_id":"levelo_inurba_marseille","lat":43.304152,"lon":5.412897,"is_reserved":false,"is_disabled":false,"rental_uris":{"android":"levelo://app?vid=130f4392-f78a-4479-b25d-58a7d67aabe1","ios":"levelo://app?vid=130f4392-f78a-4479-b25d-58a7d67aabe1"},"vehicle_type_id":"4","last_reported":1702199182,"current_range_meters":31200,"station_id":"ce4bhop2rcd13ifvqh8g","pricing_plan_id":"free"},{"bike_id":"f95a19e9-7b32-49ce-a457-a2df8fc69118","system_id":"levelo_inurba_marseille","lat":43.30413,"lon":5.41289,"is_reserved":false,"is_disabled":false,"rental_uris":{"android":"levelo://app?vid=f95a19e9-7b32-49ce-a457-a2df8fc69118","ios":"levelo://app?vid=f95a19e9-7b32-49ce-a457-a2df8fc69118"},"vehicle_type_id":"4","last_reported":1702199182,"current_range_meters":4800,"station_id":"ce4bhop2rcd13ifvqh8g","pricing_plan_id":"free"},{"bike_id":"0bc1eb45-a665-44a3-8a8b-d748ef95b051","system_id":"levelo_inurba_marseille","lat":43.304124,"lon":5.412921,"is_reserved":false,"is_disabled":false,"rental_uris":{"android":"levelo://app?vid=0bc1eb45-a665-44a3-8a8b-d748ef95b051","ios":"levelo://app?vid=0bc1eb45-a665-44a3-8a8b-d748ef95b051"},"vehicle_type_id":"4","last_reported":1702199182,"current_range_meters":24000,"station_id":"ce4bhop2rcd13ifvqh8g","pricing_plan_id":"free"},{"bike_id":"58f52f1b-f682-43f9-888f-474549184cf8","system_id":"levelo_inurba_marseille","lat":43.32215,"lon":5.41464,"is_reserved":false,"is_disabled":false,"rental_uris":{"android":"levelo://app?vid=58f52f1b-f682-43f9-888f-474549184cf8","ios":"levelo://app?vid=58f52f1b-f682-43f9-888f-474549184cf8"},"vehicle_type_id":"4","last_reported":1702199182,"current_range_meters":14000,"station_id":"","pricing_plan_id":"free"},{"bike_id":"84520233-7c1d-425e-b28d-d323f0b15b3b","system_id":"levelo_inurba_marseille","lat":43.299579,"lon":5.413255,"is_reserved":false,"is_disabled":false,"rental_uris":{"android":"levelo://app?vid=84520233-7c1d-425e-b28d-d323f0b15b3b","ios":"levelo://app?vid=84520233-7c1d-425e-b28d-d323f0b15b3b"},"vehicle_type_id":"4","last_reported":1702199182,"current_range_meters":30000,"station_id":"ce4bhp12rcd13ifvqh9g","pricing_plan_id":"free"},{"bike_id":"44c8100c-f6fa-4a5b-9224-234e6380e89c","system_id":"levelo_inurba_marseille","lat":43.320045,"lon":5.415048,"is_reserved":false,"is_disabled":false,"rental_uris":{"android":"levelo://app?vid=44c8100c-f6fa-4a5b-9224-234e6380e89c","ios":"levelo://app?vid=44c8100c-f6fa-4a5b-9224-234e6380e89c"},"vehicle_type_id":"4","last_reported":1702199182,"current_range_meters":31200,"station_id":"ce4bhq92rcd13ifvqhkg","pricing_plan_id":"free"},{"bike_id":"c238bf3c-c0bd-4c49-919b-835785a55078","system_id":"levelo_inurba_marseille","lat":43.320045,"lon":5.415048,"is_reserved":false,"is_disabled":false,"rental_uris":{"android":"levelo://app?vid=c238bf3c-c0bd-4c49-919b-835785a55078","ios":"levelo://app?vid=c238bf3c-c0bd-4c49-919b-835785a55078"},"vehicle_type_id":"4","last_reported":1702199182,"current_range_meters":28800,"station_id":"ce4bhq92rcd13ifvqhkg","pricing_plan_id":"free"},{"bike_id":"1ae047ec-9761-4939-97fc-a17bf2fe6c47","system_id":"levelo_inurba_marseille","lat":43.320045,"lon":5.415046,"is_reserved":false,"is_disabled":false,"rental_uris":{"android":"levelo://app?vid=1ae047ec-9761-4939-97fc-a17bf2fe6c47","ios":"levelo://app?vid=1ae047ec-9761-4939-97fc-a17bf2fe6c47"},"vehicle_type_id":"4","last_reported":1702199182,"current_range_meters":31600,"station_id":"ce4bhq92rcd13ifvqhkg","pricing_plan_id":"free"},{"bike_id":"fa805f11-0cda-4fcf-8a00-c8d93b03eb3c","system_id":"levelo_inurba_marseille","lat":43.320045,"lon":5.415048,"is_reserved":false,"is_disabled":false,"rental_uris":{"android":"levelo://app?vid=fa805f11-0cda-4fcf-8a00-c8d93b03eb3c","ios":"levelo://app?vid=fa805f11-0cda-4fcf-8a00-c8d93b03eb3c"},"vehicle_type_id":"4","last_reported":1702199182,"current_range_meters":22400,"station_id":"ce4bhq92rcd13ifvqhkg","pricing_plan_id":"free"},{"bike_id":"d9ecff20-f8e1-44f7-847f-a1b7f5bb6b0c","system_id":"levelo_inurba_marseille","lat":43.320045,"lon":5.415046,"is_reserved":false,"is_disabled":false,"rental_uris":{"android":"levelo://app?vid=d9ecff20-f8e1-44f7-847f-a1b7f5bb6b0c","ios":"levelo://app?vid=d9ecff20-f8e1-44f7-847f-a1b7f5bb6b0c"},"vehicle_type_id":"4","last_reported":1702199182,"current_range_meters":6800,"station_id":"ce4bhq92rcd13ifvqhkg","pricing_plan_id":"free"},{"bike_id":"60acf5ee-5101-4a63-9e84-8f1eb397caa4","system_id":"levelo_inurba_marseille","lat":43.325243,"lon":5.414326,"is_reserved":false,"is_disabled":false,"rental_uris":{"android":"levelo://app?vid=60acf5ee-5101-4a63-9e84-8f1eb397caa4","ios":"levelo://app?vid=60acf5ee-5101-4a63-9e84-8f1eb397caa4"},"vehicle_type_id":"4","last_reported":1702199182,"current_range_meters":27200,"station_id":"ce4bhq12rcd13ifvqhhg","pricing_plan_id":"free"},{"bike_id":"6653323c-ce52-45ab-b010-5e270f0c1b09","system_id":"levelo_inurba_marseille","lat":43.33615,"lon":5.41023,"is_reserved":false,"is_disabled":false,"rental_uris":{"android":"levelo://app?vid=6653323c-ce52-45ab-b010-5e270f0c1b09","ios":"levelo://app?vid=6653323c-ce52-45ab-b010-5e270f0c1b09"},"vehicle_type_id":"4","last_reported":1702199182,"current_range_meters":26000,"station_id":"ce4bhqh2rcd13ifvqhmg","pricing_plan_id":"free"},{"bike_id":"7496094f-e067-4f4a-ab5f-5ff007e6cd34","system_id":"levelo_inurba_marseille","lat":43.275625,"lon":5.384392,"is_reserved":false,"is_disabled":false,"rental_uris":{"android":"levelo://app?vid=7496094f-e067-4f4a-ab5f-5ff007e6cd34","ios":"levelo://app?vid=7496094f-e067-4f4a-ab5f-5ff007e6cd34"},"vehicle_type_id":"4","last_reported":1702199182,"current_range_meters":25600,"station_id":"ce4bhh92rcd13ifvqfi0","pricing_plan_id":"free"},{"bike_id":"5baf8328-4363-4821-9c76-b6eaf235fdb5","system_id":"levelo_inurba_marseille","lat":43.279952,"lon":5.400085,"is_reserved":false,"is_disabled":false,"rental_uris":{"android":"levelo://app?vid=5baf8328-4363-4821-9c76-b6eaf235fdb5","ios":"levelo://app?vid=5baf8328-4363-4821-9c76-b6eaf235fdb5"},"vehicle_type_id":"4","last_reported":1702199182,"current_range_meters":27200,"station_id":"ce4bho92rcd13ifvqh4g","pricing_plan_id":"free"},{"bike_id":"88e59060-d458-48a8-8abe-8a1913097d92","system_id":"levelo_inurba_marseille","lat":43.31713,"lon":5.424,"is_reserved":false,"is_disabled":false,"rental_uris":{"android":"levelo://app?vid=88e59060-d458-48a8-8abe-8a1913097d92","ios":"levelo://app?vid=88e59060-d458-48a8-8abe-8a1913097d92"},"vehicle_type_id":"4","last_reported":1702199182,"current_range_meters":20800,"station_id":"ce4bhp92rcd13ifvqhbg","pricing_plan_id":"free"},{"bike_id":"02791883-a925-42a0-9dd3-b7193f6a574b","system_id":"levelo_inurba_marseille","lat":43.31718,"lon":5.42401,"is_reserved":false,"is_disabled":false,"rental_uris":{"android":"levelo://app?vid=02791883-a925-42a0-9dd3-b7193f6a574b","ios":"levelo://app?vid=02791883-a925-42a0-9dd3-b7193f6a574b"},"vehicle_type_id":"4","last_reported":1702199182,"current_range_meters":27200,"station_id":"ce4bhp92rcd13ifvqhbg","pricing_plan_id":"free"},{"bike_id":"affb4f45-d821-4c0f-b637-138a01e9a1ab","system_id":"levelo_inurba_marseille","lat":43.310785,"lon":5.424305,"is_reserved":false,"is_disabled":false,"rental_uris":{"android":"levelo://app?vid=affb4f45-d821-4c0f-b637-138a01e9a1ab","ios":"levelo://app?vid=affb4f45-d821-4c0f-b637-138a01e9a1ab"},"vehicle_type_id":"4","last_reported":1702199182,"current_range_meters":7200,"station_id":"ce4bhp92rcd13ifvqhag","pricing_plan_id":"free"},{"bike_id":"e7bd1e73-4f86-473d-905c-a7b0f3d6ad8a","system_id":"levelo_inurba_marseille","lat":43.31723,"lon":5.42405,"is_reserved":false,"is_disabled":false,"rental_uris":{"android":"levelo://app?vid=e7bd1e73-4f86-473d-905c-a7b0f3d6ad8a","ios":"levelo://app?vid=e7bd1e73-4f86-473d-905c-a7b0f3d6ad8a"},"vehicle_type_id":"4","last_reported":1702199182,"current_range_meters":14000,"station_id":"ce4bhp92rcd13ifvqhbg","pricing_plan_id":"free"},{"bike_id":"80038031-3601-4c51-b66a-c6c9131d41d1","system_id":"levelo_inurba_marseille","lat":43.310785,"lon":5.424305,"is_reserved":false,"is_disabled":false,"rental_uris":{"android":"levelo://app?vid=80038031-3601-4c51-b66a-c6c9131d41d1","ios":"levelo://app?vid=80038031-3601-4c51-b66a-c6c9131d41d1"},"vehicle_type_id":"4","last_reported":1702199182,"current_range_meters":30400,"station_id":"ce4bhp92rcd13ifvqhag","pricing_plan_id":"free"},{"bike_id":"12d9e6c5-8093-4626-a4c2-d964ff0400f8","system_id":"levelo_inurba_marseille","lat":43.340804,"lon":5.410219,"is_reserved":false,"is_disabled":false,"rental_uris":{"android":"levelo://app?vid=12d9e6c5-8093-4626-a4c2-d964ff0400f8","ios":"levelo://app?vid=12d9e6c5-8093-4626-a4c2-d964ff0400f8"},"vehicle_type_id":"4","last_reported":1702199182,"current_range_meters":31200,"station_id":"ce4bhqh2rcd13ifvqhlg","pricing_plan_id":"free"},{"bike_id":"63133364-316e-458e-b234-bbd4926c63fc","system_id":"levelo_inurba_marseille","lat":43.27583,"lon":5.39474,"is_reserved":false,"is_disabled":false,"rental_uris":{"android":"levelo://app?vid=63133364-316e-458e-b234-bbd4926c63fc","ios":"levelo://app?vid=63133364-316e-458e-b234-bbd4926c63fc"},"vehicle_type_id":"4","last_reported":1702199182,"current_range_meters":4400,"station_id":"","pricing_plan_id":"free"},{"bike_id":"3573bdd4-2fd7-40b7-9d19-4d2456dbdd86","system_id":"levelo_inurba_marseille","lat":43.27436,"lon":5.39402,"is_reserved":false,"is_disabled":false,"rental_uris":{"android":"levelo://app?vid=3573bdd4-2fd7-40b7-9d19-4d2456dbdd86","ios":"levelo://app?vid=3573bdd4-2fd7-40b7-9d19-4d2456dbdd86"},"vehicle_type_id":"4","last_reported":1702199182,"current_range_meters":30000,"station_id":"ce4bhdp2rcd13ifvqf20","pricing_plan_id":"free"},{"bike_id":"3f28bd7f-9bf4-4101-ba00-7b21f561b4bf","system_id":"levelo_inurba_marseille","lat":43.2743,"lon":5.39417,"is_reserved":false,"is_disabled":false,"rental_uris":{"android":"levelo://app?vid=3f28bd7f-9bf4-4101-ba00-7b21f561b4bf","ios":"levelo://app?vid=3f28bd7f-9bf4-4101-ba00-7b21f561b4bf"},"vehicle_type_id":"4","last_reported":1702199182,"current_range_meters":16800,"station_id":"ce4bhdp2rcd13ifvqf20","pricing_plan_id":"free"},{"bike_id":"582720d7-5aba-41fb-b6f9-84d34bf1e8d0","system_id":"levelo_inurba_marseille","lat":43.272118,"lon":5.391758,"is_reserved":false,"is_disabled":false,"rental_uris":{"android":"levelo://app?vid=582720d7-5aba-41fb-b6f9-84d34bf1e8d0","ios":"levelo://app?vid=582720d7-5aba-41fb-b6f9-84d34bf1e8d0"},"vehicle_type_id":"4","last_reported":1702199182,"current_range_meters":29600,"station_id":"ce4bhhp2rcd13ifvqfm0","pricing_plan_id":"free"},{"bike_id":"24ed6fa6-2cbf-4c77-a8f6-a04af78cdcb5","system_id":"levelo_inurba_marseille","lat":43.272118,"lon":5.391758,"is_reserved":false,"is_disabled":false,"rental_uris":{"android":"levelo://app?vid=24ed6fa6-2cbf-4c77-a8f6-a04af78cdcb5","ios":"levelo://app?vid=24ed6fa6-2cbf-4c77-a8f6-a04af78cdcb5"},"vehicle_type_id":"4","last_reported":1702199182,"current_range_meters":10000,"station_id":"ce4bhhp2rcd13ifvqfm0","pricing_plan_id":"free"},{"bike_id":"f9bdea18-0f29-42dc-be4e-ca0052e80dd3","system_id":"levelo_inurba_marseille","lat":43.272118,"lon":5.391758,"is_reserved":false,"is_disabled":false,"rental_uris":{"android":"levelo://app?vid=f9bdea18-0f29-42dc-be4e-ca0052e80dd3","ios":"levelo://app?vid=f9bdea18-0f29-42dc-be4e-ca0052e80dd3"},"vehicle_type_id":"4","last_reported":1702199182,"current_range_meters":31200,"station_id":"ce4bhhp2rcd13ifvqfm0","pricing_plan_id":"free"},{"bike_id":"88c2f6b3-3ca6-43a2-ad9e-6207d627fd6f","system_id":"levelo_inurba_marseille","lat":43.272116,"lon":5.391747,"is_reserved":false,"is_disabled":false,"rental_uris":{"android":"levelo://app?vid=88c2f6b3-3ca6-43a2-ad9e-6207d627fd6f","ios":"levelo://app?vid=88c2f6b3-3ca6-43a2-ad9e-6207d627fd6f"},"vehicle_type_id":"4","last_reported":1702199182,"current_range_meters":5600,"station_id":"ce4bhhp2rcd13ifvqfm0","pricing_plan_id":"free"},{"bike_id":"8f021145-48f8-459b-aef0-f8921e18b0a0","system_id":"levelo_inurba_marseille","lat":43.27214,"lon":5.3925,"is_reserved":false,"is_disabled":false,"rental_uris":{"android":"levelo://app?vid=8f021145-48f8-459b-aef0-f8921e18b0a0","ios":"levelo://app?vid=8f021145-48f8-459b-aef0-f8921e18b0a0"},"vehicle_type_id":"4","last_reported":1702199182,"current_range_meters":0,"station_id":"","pricing_plan_id":"free"},{"bike_id":"733e3012-8bbd-4558-914e-ab20bdec542a","system_id":"levelo_inurba_marseille","lat":43.269467,"lon":5.386439,"is_reserved":false,"is_disabled":false,"rental_uris":{"android":"levelo://app?vid=733e3012-8bbd-4558-914e-ab20bdec542a","ios":"levelo://app?vid=733e3012-8bbd-4558-914e-ab20bdec542a"},"vehicle_type_id":"4","last_reported":1702199182,"current_range_meters":14800,"station_id":"ce4bhh92rcd13ifvqfh0","pricing_plan_id":"free"},{"bike_id":"eb508083-e921-49a5-924c-43865e7739ed","system_id":"levelo_inurba_marseille","lat":43.26681,"lon":5.382694,"is_reserved":false,"is_disabled":false,"rental_uris":{"android":"levelo://app?vid=eb508083-e921-49a5-924c-43865e7739ed","ios":"levelo://app?vid=eb508083-e921-49a5-924c-43865e7739ed"},"vehicle_type_id":"4","last_reported":1702199182,"current_range_meters":10000,"station_id":"ce4bhg92rcd13ifvqf90","pricing_plan_id":"free"},{"bike_id":"cbc62ad0-c507-4d27-a2c7-a6fa072fa0f8","system_id":"levelo_inurba_marseille","lat":43.27997,"lon":5.41664,"is_reserved":false,"is_disabled":false,"rental_uris":{"android":"levelo://app?vid=cbc62ad0-c507-4d27-a2c7-a6fa072fa0f8","ios":"levelo://app?vid=cbc62ad0-c507-4d27-a2c7-a6fa072fa0f8"},"vehicle_type_id":"4","last_reported":1702199182,"current_range_meters":24000,"station_id":"ce4bho12rcd13ifvqh1g","pricing_plan_id":"free"},{"bike_id":"19cc942f-ece9-40d3-8083-cccfba7fe5b1","system_id":"levelo_inurba_marseille","lat":43.279881,"lon":5.416579,"is_reserved":false,"is_disabled":false,"rental_uris":{"android":"levelo://app?vid=19cc942f-ece9-40d3-8083-cccfba7fe5b1","ios":"levelo://app?vid=19cc942f-ece9-40d3-8083-cccfba7fe5b1"},"vehicle_type_id":"4","last_reported":1702199182,"current_range_meters":0,"station_id":"ce4bho12rcd13ifvqh1g","pricing_plan_id":"free"},{"bike_id":"983fc872-445a-4155-962f-f7aa7381cecd","system_id":"levelo_inurba_marseille","lat":43.265714,"lon":5.372891,"is_reserved":false,"is_disabled":false,"rental_uris":{"android":"levelo://app?vid=983fc872-445a-4155-962f-f7aa7381cecd","ios":"levelo://app?vid=983fc872-445a-4155-962f-f7aa7381cecd"},"vehicle_type_id":"4","last_reported":1702199182,"current_range_meters":30000,"station_id":"ce4bhg12rcd13ifvqf70","pricing_plan_id":"free"},{"bike_id":"12365c85-83d2-4297-b805-62e840dd48cb","system_id":"levelo_inurba_marseille","lat":43.267966,"lon":5.393976,"is_reserved":false,"is_disabled":false,"rental_uris":{"android":"levelo://app?vid=12365c85-83d2-4297-b805-62e840dd48cb","ios":"levelo://app?vid=12365c85-83d2-4297-b805-62e840dd48cb"},"vehicle_type_id":"4","last_reported":1702199182,"current_range_meters":29200,"station_id":"ce4bhh12rcd13ifvqfg0","pricing_plan_id":"free"},{"bike_id":"d9905fd9-fc0a-4c9f-85fa-8aca947c9d38","system_id":"levelo_inurba_marseille","lat":43.30797,"lon":5.43515,"is_reserved":false,"is_disabled":false,"rental_uris":{"android":"levelo://app?vid=d9905fd9-fc0a-4c9f-85fa-8aca947c9d38","ios":"levelo://app?vid=d9905fd9-fc0a-4c9f-85fa-8aca947c9d38"},"vehicle_type_id":"4","last_reported":1702199182,"current_range_meters":27200,"station_id":"ce4bhph2rcd13ifvqheg","pricing_plan_id":"free"},{"bike_id":"1594ab0c-8aba-4a4a-83ff-da41c83152d6","system_id":"levelo_inurba_marseille","lat":43.30798,"lon":5.43525,"is_reserved":false,"is_disabled":false,"rental_uris":{"android":"levelo://app?vid=1594ab0c-8aba-4a4a-83ff-da41c83152d6","ios":"levelo://app?vid=1594ab0c-8aba-4a4a-83ff-da41c83152d6"},"vehicle_type_id":"4","last_reported":1702199182,"current_range_meters":26400,"station_id":"ce4bhph2rcd13ifvqheg","pricing_plan_id":"free"},{"bike_id":"983ed045-1f7b-4579-b9d1-f93588aba3b1","system_id":"levelo_inurba_marseille","lat":43.30797,"lon":5.43531,"is_reserved":false,"is_disabled":false,"rental_uris":{"android":"levelo://app?vid=983ed045-1f7b-4579-b9d1-f93588aba3b1","ios":"levelo://app?vid=983ed045-1f7b-4579-b9d1-f93588aba3b1"},"vehicle_type_id":"4","last_reported":1702199182,"current_range_meters":30000,"station_id":"ce4bhph2rcd13ifvqheg","pricing_plan_id":"free"},{"bike_id":"484c2935-350d-4a8a-a7d1-7125e01c841f","system_id":"levelo_inurba_marseille","lat":43.271388,"lon":5.409269,"is_reserved":false,"is_disabled":false,"rental_uris":{"android":"levelo://app?vid=484c2935-350d-4a8a-a7d1-7125e01c841f","ios":"levelo://app?vid=484c2935-350d-4a8a-a7d1-7125e01c841f"},"vehicle_type_id":"4","last_reported":1702199182,"current_range_meters":25200,"station_id":"ce4bhl12rcd13ifvqgf0","pricing_plan_id":"free"},{"bike_id":"25759460-aacf-40bf-ad26-403c6c6590a1","system_id":"levelo_inurba_marseille","lat":43.261782,"lon":5.374515,"is_reserved":false,"is_disabled":false,"rental_uris":{"android":"levelo://app?vid=25759460-aacf-40bf-ad26-403c6c6590a1","ios":"levelo://app?vid=25759460-aacf-40bf-ad26-403c6c6590a1"},"vehicle_type_id":"4","last_reported":1702199182,"current_range_meters":29200,"station_id":"ce4bhgp2rcd13ifvqfc0","pricing_plan_id":"free"},{"bike_id":"dbacbb4a-9e99-4a7a-9713-43dac221ae4c","system_id":"levelo_inurba_marseille","lat":43.317104,"lon":5.436818,"is_reserved":false,"is_disabled":false,"rental_uris":{"android":"levelo://app?vid=dbacbb4a-9e99-4a7a-9713-43dac221ae4c","ios":"levelo://app?vid=dbacbb4a-9e99-4a7a-9713-43dac221ae4c"},"vehicle_type_id":"4","last_reported":1702199182,"current_range_meters":31200,"station_id":"ce4bhp92rcd13ifvqhcg","pricing_plan_id":"free"},{"bike_id":"3ef100ae-f89f-44f5-89e8-967b4acd17f5","system_id":"levelo_inurba_marseille","lat":43.26202,"lon":5.379299,"is_reserved":false,"is_disabled":false,"rental_uris":{"android":"levelo://app?vid=3ef100ae-f89f-44f5-89e8-967b4acd17f5","ios":"levelo://app?vid=3ef100ae-f89f-44f5-89e8-967b4acd17f5"},"vehicle_type_id":"4","last_reported":1702199182,"current_range_meters":27600,"station_id":"ce4bhjp2rcd13ifvqg90","pricing_plan_id":"free"},{"bike_id":"4f68f183-a711-4386-a731-e8ea8e2f115e","system_id":"levelo_inurba_marseille","lat":43.298768,"lon":5.43643,"is_reserved":false,"is_disabled":false,"rental_uris":{"android":"levelo://app?vid=4f68f183-a711-4386-a731-e8ea8e2f115e","ios":"levelo://app?vid=4f68f183-a711-4386-a731-e8ea8e2f115e"},"vehicle_type_id":"4","last_reported":1702199182,"current_range_meters":25200,"station_id":"ce4bhpp2rcd13ifvqhfg","pricing_plan_id":"free"},{"bike_id":"6b17b896-99f2-456b-929e-df3811eeb274","system_id":"levelo_inurba_marseille","lat":43.298768,"lon":5.43643,"is_reserved":false,"is_disabled":false,"rental_uris":{"android":"levelo://app?vid=6b17b896-99f2-456b-929e-df3811eeb274","ios":"levelo://app?vid=6b17b896-99f2-456b-929e-df3811eeb274"},"vehicle_type_id":"4","last_reported":1702199182,"current_range_meters":27600,"station_id":"ce4bhpp2rcd13ifvqhfg","pricing_plan_id":"free"},{"bike_id":"76c2fea6-b51e-41bc-a586-1bd1efb19f23","system_id":"levelo_inurba_marseille","lat":43.260219,"lon":5.37546,"is_reserved":false,"is_disabled":false,"rental_uris":{"android":"levelo://app?vid=76c2fea6-b51e-41bc-a586-1bd1efb19f23","ios":"levelo://app?vid=76c2fea6-b51e-41bc-a586-1bd1efb19f23"},"vehicle_type_id":"4","last_reported":1702199182,"current_range_meters":29600,"station_id":"ce4bhgh2rcd13ifvqfa0","pricing_plan_id":"free"},{"bike_id":"a9c765b2-0be4-4ec1-9166-ec5933062fcf","system_id":"levelo_inurba_marseille","lat":43.260225,"lon":5.375455,"is_reserved":false,"is_disabled":false,"rental_uris":{"android":"levelo://app?vid=a9c765b2-0be4-4ec1-9166-ec5933062fcf","ios":"levelo://app?vid=a9c765b2-0be4-4ec1-9166-ec5933062fcf"},"vehicle_type_id":"4","last_reported":1702199182,"current_range_meters":26400,"station_id":"ce4bhgh2rcd13ifvqfa0","pricing_plan_id":"free"},{"bike_id":"7fb092be-4e93-469a-b1b9-f5ede56999d4","system_id":"levelo_inurba_marseille","lat":43.260225,"lon":5.375455,"is_reserved":false,"is_disabled":false,"rental_uris":{"android":"levelo://app?vid=7fb092be-4e93-469a-b1b9-f5ede56999d4","ios":"levelo://app?vid=7fb092be-4e93-469a-b1b9-f5ede56999d4"},"vehicle_type_id":"4","last_reported":1702199182,"current_range_meters":31200,"station_id":"ce4bhgh2rcd13ifvqfa0","pricing_plan_id":"free"},{"bike_id":"028a6321-9819-4f1e-9423-19a96f9d959f","system_id":"levelo_inurba_marseille","lat":43.260219,"lon":5.37546,"is_reserved":false,"is_disabled":false,"rental_uris":{"android":"levelo://app?vid=028a6321-9819-4f1e-9423-19a96f9d959f","ios":"levelo://app?vid=028a6321-9819-4f1e-9423-19a96f9d959f"},"vehicle_type_id":"4","last_reported":1702199182,"current_range_meters":29200,"station_id":"ce4bhgh2rcd13ifvqfa0","pricing_plan_id":"free"},{"bike_id":"b9063a33-13b5-4cca-826c-3f51be03f8ec","system_id":"levelo_inurba_marseille","lat":43.281548,"lon":5.42643,"is_reserved":false,"is_disabled":false,"rental_uris":{"android":"levelo://app?vid=b9063a33-13b5-4cca-826c-3f51be03f8ec","ios":"levelo://app?vid=b9063a33-13b5-4cca-826c-3f51be03f8ec"},"vehicle_type_id":"4","last_reported":1702199182,"current_range_meters":31200,"station_id":"ce4bhnh2rcd13ifvqgug","pricing_plan_id":"free"},{"bike_id":"0341a2e7-04a4-4d8e-b96d-44e5882da047","system_id":"levelo_inurba_marseille","lat":43.275028,"lon":5.424534,"is_reserved":false,"is_disabled":false,"rental_uris":{"android":"levelo://app?vid=0341a2e7-04a4-4d8e-b96d-44e5882da047","ios":"levelo://app?vid=0341a2e7-04a4-4d8e-b96d-44e5882da047"},"vehicle_type_id":"4","last_reported":1702199182,"current_range_meters":27600,"station_id":"ce4bhn92rcd13ifvqgrg","pricing_plan_id":"free"},{"bike_id":"2f004831-b00c-4e4a-b7b3-6d00fc459a36","system_id":"levelo_inurba_marseille","lat":43.255756,"lon":5.382303,"is_reserved":false,"is_disabled":false,"rental_uris":{"android":"levelo://app?vid=2f004831-b00c-4e4a-b7b3-6d00fc459a36","ios":"levelo://app?vid=2f004831-b00c-4e4a-b7b3-6d00fc459a36"},"vehicle_type_id":"4","last_reported":1702199182,"current_range_meters":9200,"station_id":"ce4bhih2rcd13ifvqfs0","pricing_plan_id":"free"},{"bike_id":"c84a2b07-1a24-4c2b-9039-a2e319dc57fc","system_id":"levelo_inurba_marseille","lat":43.255756,"lon":5.382303,"is_reserved":false,"is_disabled":false,"rental_uris":{"android":"levelo://app?vid=c84a2b07-1a24-4c2b-9039-a2e319dc57fc","ios":"levelo://app?vid=c84a2b07-1a24-4c2b-9039-a2e319dc57fc"},"vehicle_type_id":"4","last_reported":1702199182,"current_range_meters":3600,"station_id":"ce4bhih2rcd13ifvqfs0","pricing_plan_id":"free"},{"bike_id":"9403a47c-9166-4906-a009-e96cb999ffef","system_id":"levelo_inurba_marseille","lat":43.254947,"lon":5.376454,"is_reserved":false,"is_disabled":false,"rental_uris":{"android":"levelo://app?vid=9403a47c-9166-4906-a009-e96cb999ffef","ios":"levelo://app?vid=9403a47c-9166-4906-a009-e96cb999ffef"},"vehicle_type_id":"4","last_reported":1702199182,"current_range_meters":23200,"station_id":"ce4bhh12rcd13ifvqff0","pricing_plan_id":"free"},{"bike_id":"71e4f32e-ccb2-4c9d-ad16-d9b4cb1405d0","system_id":"levelo_inurba_marseille","lat":43.254947,"lon":5.376454,"is_reserved":false,"is_disabled":false,"rental_uris":{"android":"levelo://app?vid=71e4f32e-ccb2-4c9d-ad16-d9b4cb1405d0","ios":"levelo://app?vid=71e4f32e-ccb2-4c9d-ad16-d9b4cb1405d0"},"vehicle_type_id":"4","last_reported":1702199182,"current_range_meters":15200,"station_id":"ce4bhh12rcd13ifvqff0","pricing_plan_id":"free"},{"bike_id":"46488328-c339-4346-9280-ec5f809f328b","system_id":"levelo_inurba_marseille","lat":43.270721,"lon":5.422764,"is_reserved":false,"is_disabled":false,"rental_uris":{"android":"levelo://app?vid=46488328-c339-4346-9280-ec5f809f328b","ios":"levelo://app?vid=46488328-c339-4346-9280-ec5f809f328b"},"vehicle_type_id":"4","last_reported":1702199182,"current_range_meters":23600,"station_id":"ce4bhk92rcd13ifvqgb0","pricing_plan_id":"free"},{"bike_id":"c4962b24-02bb-4eb6-abd3-b5c966e043fc","system_id":"levelo_inurba_marseille","lat":43.250009,"lon":5.389195,"is_reserved":false,"is_disabled":false,"rental_uris":{"android":"levelo://app?vid=c4962b24-02bb-4eb6-abd3-b5c966e043fc","ios":"levelo://app?vid=c4962b24-02bb-4eb6-abd3-b5c966e043fc"},"vehicle_type_id":"4","last_reported":1702199182,"current_range_meters":28800,"station_id":"ce4bhgp2rcd13ifvqfd0","pricing_plan_id":"free"},{"bike_id":"b254cc68-7ded-4b0c-9b18-01968b6035f5","system_id":"levelo_inurba_marseille","lat":43.24808,"lon":5.37456,"is_reserved":false,"is_disabled":false,"rental_uris":{"android":"levelo://app?vid=b254cc68-7ded-4b0c-9b18-01968b6035f5","ios":"levelo://app?vid=b254cc68-7ded-4b0c-9b18-01968b6035f5"},"vehicle_type_id":"4","last_reported":1702199182,"current_range_meters":26400,"station_id":"ce4bhgh2rcd13ifvqfb0","pricing_plan_id":"free"},{"bike_id":"37a79cee-3c73-43bf-98f2-248543826831","system_id":"levelo_inurba_marseille","lat":43.2479,"lon":5.374457,"is_reserved":false,"is_disabled":false,"rental_uris":{"android":"levelo://app?vid=37a79cee-3c73-43bf-98f2-248543826831","ios":"levelo://app?vid=37a79cee-3c73-43bf-98f2-248543826831"},"vehicle_type_id":"4","last_reported":1702199182,"current_range_meters":30400,"station_id":"ce4bhgh2rcd13ifvqfb0","pricing_plan_id":"free"},{"bike_id":"ecaaa105-2a48-4c50-8e07-9c077b4c4844","system_id":"levelo_inurba_marseille","lat":43.24803,"lon":5.37455,"is_reserved":false,"is_disabled":false,"rental_uris":{"android":"levelo://app?vid=ecaaa105-2a48-4c50-8e07-9c077b4c4844","ios":"levelo://app?vid=ecaaa105-2a48-4c50-8e07-9c077b4c4844"},"vehicle_type_id":"4","last_reported":1702199182,"current_range_meters":19200,"station_id":"ce4bhgh2rcd13ifvqfb0","pricing_plan_id":"free"},{"bike_id":"89f6b9c7-2e47-467d-a5da-27592e88272c","system_id":"levelo_inurba_marseille","lat":43.250966,"lon":5.395186,"is_reserved":false,"is_disabled":false,"rental_uris":{"android":"levelo://app?vid=89f6b9c7-2e47-467d-a5da-27592e88272c","ios":"levelo://app?vid=89f6b9c7-2e47-467d-a5da-27592e88272c"},"vehicle_type_id":"4","last_reported":1702199182,"current_range_meters":31200,"station_id":"ce4bhm12rcd13ifvqgkg","pricing_plan_id":"free"},{"bike_id":"f8751423-247d-463f-84eb-c4492f784372","system_id":"levelo_inurba_marseille","lat":43.24693,"lon":5.382096,"is_reserved":false,"is_disabled":false,"rental_uris":{"android":"levelo://app?vid=f8751423-247d-463f-84eb-c4492f784372","ios":"levelo://app?vid=f8751423-247d-463f-84eb-c4492f784372"},"vehicle_type_id":"4","last_reported":1702199182,"current_range_meters":2800,"station_id":"ce4bhih2rcd13ifvqfr0","pricing_plan_id":"free"},{"bike_id":"7720c45a-16fd-468c-820d-244fcf7910db","system_id":"levelo_inurba_marseille","lat":43.2466,"lon":5.38154,"is_reserved":false,"is_disabled":false,"rental_uris":{"android":"levelo://app?vid=7720c45a-16fd-468c-820d-244fcf7910db","ios":"levelo://app?vid=7720c45a-16fd-468c-820d-244fcf7910db"},"vehicle_type_id":"4","last_reported":1702199182,"current_range_meters":30800,"station_id":"ce4bhih2rcd13ifvqfr0","pricing_plan_id":"free"},{"bike_id":"3f2977c7-2d3e-4b05-813b-c8cad00b1d30","system_id":"levelo_inurba_marseille","lat":43.25102,"lon":5.403214,"is_reserved":false,"is_disabled":false,"rental_uris":{"android":"levelo://app?vid=3f2977c7-2d3e-4b05-813b-c8cad00b1d30","ios":"levelo://app?vid=3f2977c7-2d3e-4b05-813b-c8cad00b1d30"},"vehicle_type_id":"4","last_reported":1702199182,"current_range_meters":4000,"station_id":"ce4bhlh2rcd13ifvqgig","pricing_plan_id":"free"},{"bike_id":"d608bd2a-1e64-45d8-8604-2f7a0c32cafc","system_id":"levelo_inurba_marseille","lat":43.25113,"lon":5.40323,"is_reserved":false,"is_disabled":false,"rental_uris":{"android":"levelo://app?vid=d608bd2a-1e64-45d8-8604-2f7a0c32cafc","ios":"levelo://app?vid=d608bd2a-1e64-45d8-8604-2f7a0c32cafc"},"vehicle_type_id":"4","last_reported":1702199182,"current_range_meters":18800,"station_id":"ce4bhlh2rcd13ifvqgig","pricing_plan_id":"free"},{"bike_id":"9dc6e68a-3233-4e75-b32d-e08b4c53470d","system_id":"levelo_inurba_marseille","lat":43.2511,"lon":5.40323,"is_reserved":false,"is_disabled":false,"rental_uris":{"android":"levelo://app?vid=9dc6e68a-3233-4e75-b32d-e08b4c53470d","ios":"levelo://app?vid=9dc6e68a-3233-4e75-b32d-e08b4c53470d"},"vehicle_type_id":"4","last_reported":1702199182,"current_range_meters":18000,"station_id":"ce4bhlh2rcd13ifvqgig","pricing_plan_id":"free"},{"bike_id":"56212a98-fd64-46da-a8ec-c07e2e3f23e6","system_id":"levelo_inurba_marseille","lat":43.25109,"lon":5.40324,"is_reserved":false,"is_disabled":false,"rental_uris":{"android":"levelo://app?vid=56212a98-fd64-46da-a8ec-c07e2e3f23e6","ios":"levelo://app?vid=56212a98-fd64-46da-a8ec-c07e2e3f23e6"},"vehicle_type_id":"4","last_reported":1702199182,"current_range_meters":23600,"station_id":"ce4bhlh2rcd13ifvqgig","pricing_plan_id":"free"},{"bike_id":"0d1213a3-e784-41d4-aebb-4f491d90bbd2","system_id":"levelo_inurba_marseille","lat":43.25106,"lon":5.40327,"is_reserved":false,"is_disabled":false,"rental_uris":{"android":"levelo://app?vid=0d1213a3-e784-41d4-aebb-4f491d90bbd2","ios":"levelo://app?vid=0d1213a3-e784-41d4-aebb-4f491d90bbd2"},"vehicle_type_id":"4","last_reported":1702199182,"current_range_meters":20800,"station_id":"ce4bhlh2rcd13ifvqgig","pricing_plan_id":"free"},{"bike_id":"5e605dd7-7449-4197-aebf-bcb50d65c55f","system_id":"levelo_inurba_marseille","lat":43.246461,"lon":5.389014,"is_reserved":false,"is_disabled":false,"rental_uris":{"android":"levelo://app?vid=5e605dd7-7449-4197-aebf-bcb50d65c55f","ios":"levelo://app?vid=5e605dd7-7449-4197-aebf-bcb50d65c55f"},"vehicle_type_id":"4","last_reported":1702199182,"current_range_meters":27200,"station_id":"ce4bhg12rcd13ifvqf60","pricing_plan_id":"free"},{"bike_id":"1a23636c-273b-427e-ba3a-4cc57a24dce9","system_id":"levelo_inurba_marseille","lat":43.246467,"lon":5.388984,"is_reserved":false,"is_disabled":false,"rental_uris":{"android":"levelo://app?vid=1a23636c-273b-427e-ba3a-4cc57a24dce9","ios":"levelo://app?vid=1a23636c-273b-427e-ba3a-4cc57a24dce9"},"vehicle_type_id":"4","last_reported":1702199182,"current_range_meters":29200,"station_id":"ce4bhg12rcd13ifvqf60","pricing_plan_id":"free"},{"bike_id":"fd3f6665-316c-41dc-94ab-145c31afc58a","system_id":"levelo_inurba_marseille","lat":43.246461,"lon":5.389014,"is_reserved":false,"is_disabled":false,"rental_uris":{"android":"levelo://app?vid=fd3f6665-316c-41dc-94ab-145c31afc58a","ios":"levelo://app?vid=fd3f6665-316c-41dc-94ab-145c31afc58a"},"vehicle_type_id":"4","last_reported":1702199182,"current_range_meters":26400,"station_id":"ce4bhg12rcd13ifvqf60","pricing_plan_id":"free"},{"bike_id":"c3901b09-d68f-4dd0-9d45-380144f89c00","system_id":"levelo_inurba_marseille","lat":43.243884,"lon":5.370737,"is_reserved":false,"is_disabled":false,"rental_uris":{"android":"levelo://app?vid=c3901b09-d68f-4dd0-9d45-380144f89c00","ios":"levelo://app?vid=c3901b09-d68f-4dd0-9d45-380144f89c00"},"vehicle_type_id":"4","last_reported":1702199182,"current_range_meters":30800,"station_id":"ce4bhhh2rcd13ifvqfk0","pricing_plan_id":"free"},{"bike_id":"07dede9f-b29f-4a51-a4af-7e4eed41d00c","system_id":"levelo_inurba_marseille","lat":43.243884,"lon":5.370736,"is_reserved":false,"is_disabled":false,"rental_uris":{"android":"levelo://app?vid=07dede9f-b29f-4a51-a4af-7e4eed41d00c","ios":"levelo://app?vid=07dede9f-b29f-4a51-a4af-7e4eed41d00c"},"vehicle_type_id":"4","last_reported":1702199182,"current_range_meters":31200,"station_id":"ce4bhhh2rcd13ifvqfk0","pricing_plan_id":"free"},{"bike_id":"4be15561-cb90-4d46-9d25-d93d6ef6aaa0","system_id":"levelo_inurba_marseille","lat":43.243884,"lon":5.370737,"is_reserved":false,"is_disabled":false,"rental_uris":{"android":"levelo://app?vid=4be15561-cb90-4d46-9d25-d93d6ef6aaa0","ios":"levelo://app?vid=4be15561-cb90-4d46-9d25-d93d6ef6aaa0"},"vehicle_type_id":"4","last_reported":1702199182,"current_range_meters":29600,"station_id":"ce4bhhh2rcd13ifvqfk0","pricing_plan_id":"free"},{"bike_id":"2189fc5b-972b-481a-8599-b7f74600c485","system_id":"levelo_inurba_marseille","lat":43.245581,"lon":5.395069,"is_reserved":false,"is_disabled":false,"rental_uris":{"android":"levelo://app?vid=2189fc5b-972b-481a-8599-b7f74600c485","ios":"levelo://app?vid=2189fc5b-972b-481a-8599-b7f74600c485"},"vehicle_type_id":"4","last_reported":1702199182,"current_range_meters":31600,"station_id":"ce4bhlp2rcd13ifvqgjg","pricing_plan_id":"free"},{"bike_id":"c16a1286-3c23-49d2-b110-1ce5ddf6b528","system_id":"levelo_inurba_marseille","lat":43.245581,"lon":5.395069,"is_reserved":false,"is_disabled":false,"rental_uris":{"android":"levelo://app?vid=c16a1286-3c23-49d2-b110-1ce5ddf6b528","ios":"levelo://app?vid=c16a1286-3c23-49d2-b110-1ce5ddf6b528"},"vehicle_type_id":"4","last_reported":1702199182,"current_range_meters":24800,"station_id":"ce4bhlp2rcd13ifvqgjg","pricing_plan_id":"free"},{"bike_id":"92bbcc08-2e4f-4b21-893d-04844baae76e","system_id":"levelo_inurba_marseille","lat":43.245581,"lon":5.395069,"is_reserved":false,"is_disabled":false,"rental_uris":{"android":"levelo://app?vid=92bbcc08-2e4f-4b21-893d-04844baae76e","ios":"levelo://app?vid=92bbcc08-2e4f-4b21-893d-04844baae76e"},"vehicle_type_id":"4","last_reported":1702199182,"current_range_meters":31200,"station_id":"ce4bhlp2rcd13ifvqgjg","pricing_plan_id":"free"},{"bike_id":"4957a337-3ca2-4e57-9d2b-f7ca1f659f14","system_id":"levelo_inurba_marseille","lat":43.240623,"lon":5.377642,"is_reserved":false,"is_disabled":false,"rental_uris":{"android":"levelo://app?vid=4957a337-3ca2-4e57-9d2b-f7ca1f659f14","ios":"levelo://app?vid=4957a337-3ca2-4e57-9d2b-f7ca1f659f14"},"vehicle_type_id":"4","last_reported":1702199182,"current_range_meters":13200,"station_id":"ce4bhnp2rcd13ifvqgvg","pricing_plan_id":"free"},{"bike_id":"e0027151-3876-4e17-8b4a-b5c8f5b31988","system_id":"levelo_inurba_marseille","lat":43.24073,"lon":5.37755,"is_reserved":false,"is_disabled":false,"rental_uris":{"android":"levelo://app?vid=e0027151-3876-4e17-8b4a-b5c8f5b31988","ios":"levelo://app?vid=e0027151-3876-4e17-8b4a-b5c8f5b31988"},"vehicle_type_id":"4","last_reported":1702199182,"current_range_meters":14400,"station_id":"ce4bhnp2rcd13ifvqgvg","pricing_plan_id":"free"},{"bike_id":"73b820bb-0610-462d-a85c-c04f5eefaf25","system_id":"levelo_inurba_marseille","lat":43.239588,"lon":5.366238,"is_reserved":false,"is_disabled":false,"rental_uris":{"android":"levelo://app?vid=73b820bb-0610-462d-a85c-c04f5eefaf25","ios":"levelo://app?vid=73b820bb-0610-462d-a85c-c04f5eefaf25"},"vehicle_type_id":"4","last_reported":1702199182,"current_range_meters":4400,"station_id":"ce4bhi12rcd13ifvqfp0","pricing_plan_id":"free"},{"bike_id":"d57914ba-42eb-43fd-8376-c2a841efeb5b","system_id":"levelo_inurba_marseille","lat":43.239588,"lon":5.366238,"is_reserved":false,"is_disabled":false,"rental_uris":{"android":"levelo://app?vid=d57914ba-42eb-43fd-8376-c2a841efeb5b","ios":"levelo://app?vid=d57914ba-42eb-43fd-8376-c2a841efeb5b"},"vehicle_type_id":"4","last_reported":1702199182,"current_range_meters":31200,"station_id":"ce4bhi12rcd13ifvqfp0","pricing_plan_id":"free"},{"bike_id":"617c2586-f562-4602-ba86-a0b0c829c528","system_id":"levelo_inurba_marseille","lat":43.239588,"lon":5.366238,"is_reserved":false,"is_disabled":false,"rental_uris":{"android":"levelo://app?vid=617c2586-f562-4602-ba86-a0b0c829c528","ios":"levelo://app?vid=617c2586-f562-4602-ba86-a0b0c829c528"},"vehicle_type_id":"4","last_reported":1702199182,"current_range_meters":30400,"station_id":"ce4bhi12rcd13ifvqfp0","pricing_plan_id":"free"},{"bike_id":"5bfc6137-deaa-46c8-b023-706fbe757221","system_id":"levelo_inurba_marseille","lat":43.241782,"lon":5.397261,"is_reserved":false,"is_disabled":false,"rental_uris":{"android":"levelo://app?vid=5bfc6137-deaa-46c8-b023-706fbe757221","ios":"levelo://app?vid=5bfc6137-deaa-46c8-b023-706fbe757221"},"vehicle_type_id":"4","last_reported":1702199182,"current_range_meters":30400,"station_id":"ce4bhn12rcd13ifvqgpg","pricing_plan_id":"free"},{"bike_id":"696980ad-f9d9-4995-b1c3-ecede5046486","system_id":"levelo_inurba_marseille","lat":43.241782,"lon":5.397261,"is_reserved":false,"is_disabled":false,"rental_uris":{"android":"levelo://app?vid=696980ad-f9d9-4995-b1c3-ecede5046486","ios":"levelo://app?vid=696980ad-f9d9-4995-b1c3-ecede5046486"},"vehicle_type_id":"4","last_reported":1702199182,"current_range_meters":26800,"station_id":"ce4bhn12rcd13ifvqgpg","pricing_plan_id":"free"},{"bike_id":"efdf0b62-a012-45f2-a093-48aedd562b0c","system_id":"levelo_inurba_marseille","lat":43.231919,"lon":5.355532,"is_reserved":false,"is_disabled":false,"rental_uris":{"android":"levelo://app?vid=efdf0b62-a012-45f2-a093-48aedd562b0c","ios":"levelo://app?vid=efdf0b62-a012-45f2-a093-48aedd562b0c"},"vehicle_type_id":"4","last_reported":1702199182,"current_range_meters":18800,"station_id":"ce4bhu92rcd13ifvqi70","pricing_plan_id":"free"},{"bike_id":"5ea7d020-ee50-45c9-9444-8ce1c595d7a8","system_id":"levelo_inurba_marseille","lat":43.231923,"lon":5.355545,"is_reserved":false,"is_disabled":false,"rental_uris":{"android":"levelo://app?vid=5ea7d020-ee50-45c9-9444-8ce1c595d7a8","ios":"levelo://app?vid=5ea7d020-ee50-45c9-9444-8ce1c595d7a8"},"vehicle_type_id":"4","last_reported":1702199182,"current_range_meters":8800,"station_id":"ce4bhu92rcd13ifvqi70","pricing_plan_id":"free"},{"bike_id":"cfc4a276-4a67-412c-8f70-0b8c1f09f05d","system_id":"levelo_inurba_marseille","lat":43.23196,"lon":5.35553,"is_reserved":false,"is_disabled":false,"rental_uris":{"android":"levelo://app?vid=cfc4a276-4a67-412c-8f70-0b8c1f09f05d","ios":"levelo://app?vid=cfc4a276-4a67-412c-8f70-0b8c1f09f05d"},"vehicle_type_id":"4","last_reported":1702199182,"current_range_meters":14400,"station_id":"ce4bhu92rcd13ifvqi70","pricing_plan_id":"free"},{"bike_id":"88360225-83fa-42a7-aa9d-04d6e2f27256","system_id":"levelo_inurba_marseille","lat":43.231919,"lon":5.355532,"is_reserved":false,"is_disabled":false,"rental_uris":{"android":"levelo://app?vid=88360225-83fa-42a7-aa9d-04d6e2f27256","ios":"levelo://app?vid=88360225-83fa-42a7-aa9d-04d6e2f27256"},"vehicle_type_id":"4","last_reported":1702199182,"current_range_meters":31200,"station_id":"ce4bhu92rcd13ifvqi70","pricing_plan_id":"free"},{"bike_id":"a8c501f0-1f0c-4126-b8d3-0e787022ce6a","system_id":"levelo_inurba_marseille","lat":43.231919,"lon":5.355532,"is_reserved":false,"is_disabled":false,"rental_uris":{"android":"levelo://app?vid=a8c501f0-1f0c-4126-b8d3-0e787022ce6a","ios":"levelo://app?vid=a8c501f0-1f0c-4126-b8d3-0e787022ce6a"},"vehicle_type_id":"4","last_reported":1702199182,"current_range_meters":31200,"station_id":"ce4bhu92rcd13ifvqi70","pricing_plan_id":"free"},{"bike_id":"92e5148d-4fb4-4386-8a07-4b4b7dd6e12c","system_id":"levelo_inurba_marseille","lat":43.231793,"lon":5.400044,"is_reserved":false,"is_disabled":false,"rental_uris":{"android":"levelo://app?vid=92e5148d-4fb4-4386-8a07-4b4b7dd6e12c","ios":"levelo://app?vid=92e5148d-4fb4-4386-8a07-4b4b7dd6e12c"},"vehicle_type_id":"4","last_reported":1702199182,"current_range_meters":30800,"station_id":"ce4bhn12rcd13ifvqgqg","pricing_plan_id":"free"},{"bike_id":"291500d0-9d8c-4548-9a9d-9a7f79b46317","system_id":"levelo_inurba_marseille","lat":43.231794,"lon":5.400052,"is_reserved":false,"is_disabled":false,"rental_uris":{"android":"levelo://app?vid=291500d0-9d8c-4548-9a9d-9a7f79b46317","ios":"levelo://app?vid=291500d0-9d8c-4548-9a9d-9a7f79b46317"},"vehicle_type_id":"4","last_reported":1702199182,"current_range_meters":31200,"station_id":"ce4bhn12rcd13ifvqgqg","pricing_plan_id":"free"},{"bike_id":"f4e1dd60-16f7-43e3-ad0a-3fe94fa1eb5c","system_id":"levelo_inurba_marseille","lat":43.231562,"lon":5.436933,"is_reserved":false,"is_disabled":false,"rental_uris":{"android":"levelo://app?vid=f4e1dd60-16f7-43e3-ad0a-3fe94fa1eb5c","ios":"levelo://app?vid=f4e1dd60-16f7-43e3-ad0a-3fe94fa1eb5c"},"vehicle_type_id":"4","last_reported":1702199182,"current_range_meters":17600,"station_id":"ce4bhmp2rcd13ifvqgog","pricing_plan_id":"free"},{"bike_id":"fb6cc714-659e-4d67-908c-bf9ffc457342","system_id":"levelo_inurba_marseille","lat":43.231562,"lon":5.436933,"is_reserved":false,"is_disabled":false,"rental_uris":{"android":"levelo://app?vid=fb6cc714-659e-4d67-908c-bf9ffc457342","ios":"levelo://app?vid=fb6cc714-659e-4d67-908c-bf9ffc457342"},"vehicle_type_id":"4","last_reported":1702199182,"current_range_meters":22400,"station_id":"ce4bhmp2rcd13ifvqgog","pricing_plan_id":"free"},{"bike_id":"0c4daa76-20b2-44aa-8f00-39adef08a916","system_id":"levelo_inurba_marseille","lat":43.231562,"lon":5.436933,"is_reserved":false,"is_disabled":false,"rental_uris":{"android":"levelo://app?vid=0c4daa76-20b2-44aa-8f00-39adef08a916","ios":"levelo://app?vid=0c4daa76-20b2-44aa-8f00-39adef08a916"},"vehicle_type_id":"4","last_reported":1702199182,"current_range_meters":31200,"station_id":"ce4bhmp2rcd13ifvqgog","pricing_plan_id":"free"}]}}