{"last_updated":1739214408,"ttl":60,"version":"2.2","data":{"bikes":[{"bike_id":"5cda301b-bce8-41d3-abea-2e981f99524e","system_id":"levelo_inurba_marseille","lat":43.298513,"lon":5.362865,"is_reserved":false,"is_disabled":false,"rental_uris":{"android":"levelo://app?vid=5cda301b-bce8-41d3-abea-2e981f99524e","ios":"levelo://app?vid=5cda301b-bce8-41d3-abea-2e981f99524e"},"vehicle_type_id":"4","last_reported":1739214408,"current_range_meters":28400,"station_id":"ce4bgpp2rcd13ifvqc3g","pricing_plan_id":"cebpf4jnsgd1na2vs0mg"},{"bike_id":"6bebc4c8-69ea-4172-940f-fcdebdb6f8aa","system_id":"levelo_inurba_marseille","lat":43.29275,"lon":5.38418,"is_reserved":false,"is_disabled":false,"rental_uris":{"android":"levelo://app?vid=6bebc4c8-69ea-4172-940f-fcdebdb6f8aa","ios":"levelo://app?vid=6bebc4c8-69ea-4172-940f-fcdebdb6f8aa"},"vehicle_type_id":"4","last_reported":1739214408,"current_range_meters":32400,"station_id":"ce4bh692rcd13ifvqea0","pricing_plan_id":"cebpf4jnsgd1na2vs0mg"},{"bike_id":"e7d8ed8c-85a3-44c3-8805-56fbe310205d","system_id":"levelo_inurba_marseille","lat":43.2841,"lon":5.37511,"is_reserved":false,"is_disabled":false,"rental_uris":{"android":"levelo://app?vid=e7d8ed8c-85a3-44c3-8805-56fbe310205d","ios":"levelo://app?vid=e7d8ed8c-85a3-44c3-8805-56fbe310205d"},"vehicle_type_id":"4","last_reported":1739214408,"current_range_meters":38000,"station_id":"ce4bh412rcd13ifvqds0","pricing_plan_id":"cebpf4jnsgd1na2vs0mg"},{"bike_id":"e77c59bb-44cd-41f3-b534-3732753335a9","system_id":"levelo_inurba_marseille","lat":43.30238,"lon":5.40061,"is_reserved":false,"is_disabled":false,"rental_uris":{"android":"levelo://app?vid=e77c59bb-44cd-41f3-b534-3732753335a9","ios":"levelo://app?vid=e77c59bb-44cd-41f3-b534-3732753335a9"},"vehicle_type_id":"4","last_reported":1739214408,"current_range_meters":8800,"station_id":"ce4bgvh2rcd13ifvqcs0","pricing_plan_id":"cebpf4jnsgd1na2vs0mg"},{"bike_id":"b068362a-3288-489d-9388-78d1aec4149d","system_id":"levelo_inurba_marseille","lat":43.2654,"lon":5.3903,"is_reserved":false,"is_disabled":false,"rental_uris":{"android":"levelo://app?vid=b068362a-3288-489d-9388-78d1aec4149d","ios":"levelo://app?vid=b068362a-3288-489d-9388-78d1aec4149d"},"vehicle_type_id":"4","last_reported":1739214408,"current_range_meters":38800,"station_id":"ce4bhe12rcd13ifvqf30","pricing_plan_id":"cebpf4jnsgd1na2vs0mg"},{"bike_id":"62cfc56f-84f8-4a43-8395-db2ae0fc6f91","system_id":"levelo_inurba_marseille","lat":43.29975,"lon":5.38491,"is_reserved":false,"is_disabled":false,"rental_uris":{"android":"levelo://app?vid=62cfc56f-84f8-4a43-8395-db2ae0fc6f91","ios":"levelo://app?vid=62cfc56f-84f8-4a43-8395-db2ae0fc6f91"},"vehicle_type_id":"4","last_reported":1739214408,"current_range_meters":38400,"station_id":"ce4bgj92rcd13ifvqbd0","pricing_plan_id":"cebpf4jnsgd1na2vs0mg"},{"bike_id":"a0dd54ee-e890-4da0-a7d9-a7f80b816a23","system_id":"levelo_inurba_marseille","lat":43.27995,"lon":5.41661,"is_reserved":false,"is_disabled":false,"rental_uris":{"android":"levelo://app?vid=a0dd54ee-e890-4da0-a7d9-a7f80b816a23","ios":"levelo://app?vid=a0dd54ee-e890-4da0-a7d9-a7f80b816a23"},"vehicle_type_id":"4","last_reported":1739214408,"current_range_meters":36000,"station_id":"ce4bho12rcd13ifvqh1g","pricing_plan_id":"cebpf4jnsgd1na2vs0mg"},{"bike_id":"1e432c46-6902-4068-bc83-c8d18cce47cc","system_id":"levelo_inurba_marseille","lat":43.260571,"lon":5.393895,"is_reserved":false,"is_disabled":false,"rental_uris":{"android":"levelo://app?vid=1e432c46-6902-4068-bc83-c8d18cce47cc","ios":"levelo://app?vid=1e432c46-6902-4068-bc83-c8d18cce47cc"},"vehicle_type_id":"4","last_reported":1739214408,"current_range_meters":38800,"station_id":"ce4bhh92rcd13ifvqfj0","pricing_plan_id":"cebpf4jnsgd1na2vs0mg"},{"bike_id":"e993eb87-94d2-4703-9939-c1e249fc0545","system_id":"levelo_inurba_marseille","lat":43.27675,"lon":5.3891,"is_reserved":false,"is_disabled":false,"rental_uris":{"android":"levelo://app?vid=e993eb87-94d2-4703-9939-c1e249fc0545","ios":"levelo://app?vid=e993eb87-94d2-4703-9939-c1e249fc0545"},"vehicle_type_id":"4","last_reported":1739214408,"current_range_meters":38800,"station_id":"ce4bhi12rcd13ifvqfo0","pricing_plan_id":"cebpf4jnsgd1na2vs0mg"},{"bike_id":"3887b386-3ca2-4422-b535-49b5419b189a","system_id":"levelo_inurba_marseille","lat":43.28381,"lon":5.38095,"is_reserved":false,"is_disabled":false,"rental_uris":{"android":"levelo://app?vid=3887b386-3ca2-4422-b535-49b5419b189a","ios":"levelo://app?vid=3887b386-3ca2-4422-b535-49b5419b189a"},"vehicle_type_id":"4","last_reported":1739214408,"current_range_meters":32000,"station_id":"ce4bh412rcd13ifvqdr0","pricing_plan_id":"cebpf4jnsgd1na2vs0mg"},{"bike_id":"ff82ee3e-6927-4929-9ab9-69d9ba0b2981","system_id":"levelo_inurba_marseille","lat":43.27946,"lon":5.41035,"is_reserved":false,"is_disabled":true,"rental_uris":{"android":"levelo://app?vid=ff82ee3e-6927-4929-9ab9-69d9ba0b2981","ios":"levelo://app?vid=ff82ee3e-6927-4929-9ab9-69d9ba0b2981"},"vehicle_type_id":"4","last_reported":1739214408,"current_range_meters":0,"station_id":"ce4bhnp2rcd13ifvqh0g","pricing_plan_id":"cebpf4jnsgd1na2vs0mg"},{"bike_id":"acfa6e83-9dec-41be-a012-0d6b6130d9d9","system_id":"levelo_inurba_marseille","lat":43.31118,"lon":5.37798,"is_reserved":false,"is_disabled":false,"rental_uris":{"android":"levelo://app?vid=acfa6e83-9dec-41be-a012-0d6b6130d9d9","ios":"levelo://app?vid=acfa6e83-9dec-41be-a012-0d6b6130d9d9"},"vehicle_type_id":"4","last_reported":1739214408,"current_range_meters":34800,"station_id":"ce4bgt92rcd13ifvqcg0","pricing_plan_id":"cebpf4jnsgd1na2vs0mg"},{"bike_id":"b4ad1114-6670-433a-b10e-39de272543b1","system_id":"levelo_inurba_marseille","lat":43.30126,"lon":5.39878,"is_reserved":false,"is_disabled":false,"rental_uris":{"android":"levelo://app?vid=b4ad1114-6670-433a-b10e-39de272543b1","ios":"levelo://app?vid=b4ad1114-6670-433a-b10e-39de272543b1"},"vehicle_type_id":"4","last_reported":1739214408,"current_range_meters":18000,"station_id":"ce4bh0h2rcd13ifvqd40","pricing_plan_id":"cebpf4jnsgd1na2vs0mg"},{"bike_id":"6137e2b6-9f28-4b0a-8923-7198ab8d9ffc","system_id":"levelo_inurba_marseille","lat":43.29025,"lon":5.38642,"is_reserved":false,"is_disabled":false,"rental_uris":{"android":"levelo://app?vid=6137e2b6-9f28-4b0a-8923-7198ab8d9ffc","ios":"levelo://app?vid=6137e2b6-9f28-4b0a-8923-7198ab8d9ffc"},"vehicle_type_id":"4","last_reported":1739214408,"current_range_meters":24000,"station_id":"ce4bh4p2rcd13ifvqe0g","pricing_plan_id":"cebpf4jnsgd1na2vs0mg"},{"bike_id":"33e066b2-1a81-4615-9d50-e0b99ddaf2d5","system_id":"levelo_inurba_marseille","lat":43.29768,"lon":5.38131,"is_reserved":false,"is_disabled":false,"rental_uris":{"android":"levelo://app?vid=33e066b2-1a81-4615-9d50-e0b99ddaf2d5","ios":"levelo://app?vid=33e066b2-1a81-4615-9d50-e0b99ddaf2d5"},"vehicle_type_id":"4","last_reported":1739214408,"current_range_meters":29600,"station_id":"ce4bgip2rcd13ifvqbb0","pricing_plan_id":"cebpf4jnsgd1na2vs0mg"},{"bike_id":"783ee94b-6044-42f0-85b3-7d1aca1b3d61","system_id":"levelo_inurba_marseille","lat":43.29561,"lon":5.37497,"is_reserved":false,"is_disabled":true,"rental_uris":{"android":"levelo://app?vid=783ee94b-6044-42f0-85b3-7d1aca1b3d61","ios":"levelo://app?vid=783ee94b-6044-42f0-85b3-7d1aca1b3d61"},"vehicle_type_id":"4","last_reported":1739214408,"current_range_meters":24000,"station_id":"ce4bgh92rcd13ifvqb50","pricing_plan_id":"cebpf4jnsgd1na2vs0mg"},{"bike_id":"fc63d1c6-39db-42fc-a5f0-8ec761e9b064","system_id":"levelo_inurba_marseille","lat":43.31706,"lon":5.40461,"is_reserved":false,"is_disabled":false,"rental_uris":{"android":"levelo://app?vid=fc63d1c6-39db-42fc-a5f0-8ec761e9b064","ios":"levelo://app?vid=fc63d1c6-39db-42fc-a5f0-8ec761e9b064"},"vehicle_type_id":"4","last_reported":1739214408,"current_range_meters":38800,"station_id":"ce4bh012rcd13ifvqd00","pricing_plan_id":"cebpf4jnsgd1na2vs0mg"},{"bike_id":"9e4564f0-0519-46c9-beea-73f529a3ce6a","system_id":"levelo_inurba_marseille","lat":43.24808,"lon":5.37453,"is_reserved":false,"is_disabled":false,"rental_uris":{"android":"levelo://app?vid=9e4564f0-0519-46c9-beea-73f529a3ce6a","ios":"levelo://app?vid=9e4564f0-0519-46c9-beea-73f529a3ce6a"},"vehicle_type_id":"4","last_reported":1739214408,"current_range_meters":36800,"station_id":"ce4bhgh2rcd13ifvqfb0","pricing_plan_id":"cebpf4jnsgd1na2vs0mg"},{"bike_id":"c06e4f36-e54b-428e-ae8e-e2084d39a4ca","system_id":"levelo_inurba_marseille","lat":43.30106,"lon":5.39072,"is_reserved":false,"is_disabled":false,"rental_uris":{"android":"levelo://app?vid=c06e4f36-e54b-428e-ae8e-e2084d39a4ca","ios":"levelo://app?vid=c06e4f36-e54b-428e-ae8e-e2084d39a4ca"},"vehicle_type_id":"4","last_reported":1739214408,"current_range_meters":9600,"station_id":"ce4bh192rcd13ifvqdb0","pricing_plan_id":"cebpf4jnsgd1na2vs0mg"},{"bike_id":"4fec62a4-5d14-461f-a07c-ceeb3a48fbed","system_id":"levelo_inurba_marseille","lat":43.31091,"lon":5.38331,"is_reserved":false,"is_disabled":false,"rental_uris":{"android":"levelo://app?vid=4fec62a4-5d14-461f-a07c-ceeb3a48fbed","ios":"levelo://app?vid=4fec62a4-5d14-461f-a07c-ceeb3a48fbed"},"vehicle_type_id":"4","last_reported":1739214408,"current_range_meters":38800,"station_id":"ce4bgv92rcd13ifvqcr0","pricing_plan_id":"cebpf4jnsgd1na2vs0mg"},{"bike_id":"555675bd-467b-4200-9877-d25299118c96","system_id":"levelo_inurba_marseille","lat":43.29444,"lon":5.39749,"is_reserved":false,"is_disabled":false,"rental_uris":{"android":"levelo://app?vid=555675bd-467b-4200-9877-d25299118c96","ios":"levelo://app?vid=555675bd-467b-4200-9877-d25299118c96"},"vehicle_type_id":"4","last_reported":1739214408,"current_range_meters":13600,"station_id":"ce4bh3h2rcd13ifvqdo0","pricing_plan_id":"cebpf4jnsgd1na2vs0mg"},{"bike_id":"ab859326-8c26-4d6c-a7c6-3f98b177784c","system_id":"levelo_inurba_marseille","lat":43.27046,"lon":5.4226,"is_reserved":false,"is_disabled":false,"rental_uris":{"android":"levelo://app?vid=ab859326-8c26-4d6c-a7c6-3f98b177784c","ios":"levelo://app?vid=ab859326-8c26-4d6c-a7c6-3f98b177784c"},"vehicle_type_id":"4","last_reported":1739214408,"current_range_meters":38800,"station_id":"ce4bhk92rcd13ifvqgb0","pricing_plan_id":"cebpf4jnsgd1na2vs0mg"},{"bike_id":"111672d5-ab51-46ac-b98d-b7bc77f4bbf9","system_id":"levelo_inurba_marseille","lat":43.28085,"lon":5.3965,"is_reserved":false,"is_disabled":false,"rental_uris":{"android":"levelo://app?vid=111672d5-ab51-46ac-b98d-b7bc77f4bbf9","ios":"levelo://app?vid=111672d5-ab51-46ac-b98d-b7bc77f4bbf9"},"vehicle_type_id":"4","last_reported":1739214408,"current_range_meters":22800,"station_id":"ce4bho12rcd13ifvqh2g","pricing_plan_id":"cebpf4jnsgd1na2vs0mg"},{"bike_id":"8e7ce03c-394f-4066-aafd-5b16027f082f","system_id":"levelo_inurba_marseille","lat":43.28349,"lon":5.38098,"is_reserved":false,"is_disabled":false,"rental_uris":{"android":"levelo://app?vid=8e7ce03c-394f-4066-aafd-5b16027f082f","ios":"levelo://app?vid=8e7ce03c-394f-4066-aafd-5b16027f082f"},"vehicle_type_id":"4","last_reported":1739214408,"current_range_meters":38000,"station_id":"ce4bh412rcd13ifvqdr0","pricing_plan_id":"cebpf4jnsgd1na2vs0mg"},{"bike_id":"1c8ac1b3-a01e-490a-853a-048cd0077ef5","system_id":"levelo_inurba_marseille","lat":43.26193,"lon":5.37456,"is_reserved":false,"is_disabled":false,"rental_uris":{"android":"levelo://app?vid=1c8ac1b3-a01e-490a-853a-048cd0077ef5","ios":"levelo://app?vid=1c8ac1b3-a01e-490a-853a-048cd0077ef5"},"vehicle_type_id":"4","last_reported":1739214408,"current_range_meters":20000,"station_id":"ce4bhgp2rcd13ifvqfc0","pricing_plan_id":"cebpf4jnsgd1na2vs0mg"},{"bike_id":"6803ddfa-d502-42a2-ad93-8e0a9a783768","system_id":"levelo_inurba_marseille","lat":43.26018,"lon":5.37537,"is_reserved":false,"is_disabled":false,"rental_uris":{"android":"levelo://app?vid=6803ddfa-d502-42a2-ad93-8e0a9a783768","ios":"levelo://app?vid=6803ddfa-d502-42a2-ad93-8e0a9a783768"},"vehicle_type_id":"4","last_reported":1739214408,"current_range_meters":24000,"station_id":"ce4bhgh2rcd13ifvqfa0","pricing_plan_id":"cebpf4jnsgd1na2vs0mg"},{"bike_id":"ec577290-415e-4adf-bee8-70a702854fd7","system_id":"levelo_inurba_marseille","lat":43.28449,"lon":5.35875,"is_reserved":false,"is_disabled":false,"rental_uris":{"android":"levelo://app?vid=ec577290-415e-4adf-bee8-70a702854fd7","ios":"levelo://app?vid=ec577290-415e-4adf-bee8-70a702854fd7"},"vehicle_type_id":"4","last_reported":1739214408,"current_range_meters":38800,"station_id":"ce4bhah2rcd13ifvqei0","pricing_plan_id":"cebpf4jnsgd1na2vs0mg"},{"bike_id":"fb500d19-2acb-4daa-b2cf-af7bafed1b9d","system_id":"levelo_inurba_marseille","lat":43.29851,"lon":5.36274,"is_reserved":false,"is_disabled":false,"rental_uris":{"android":"levelo://app?vid=fb500d19-2acb-4daa-b2cf-af7bafed1b9d","ios":"levelo://app?vid=fb500d19-2acb-4daa-b2cf-af7bafed1b9d"},"vehicle_type_id":"4","last_reported":1739214408,"current_range_meters":22400,"station_id":"ce4bgpp2rcd13ifvqc3g","pricing_plan_id":"cebpf4jnsgd1na2vs0mg"},{"bike_id":"e1a1cb17-6051-49c6-8a5e-b8f5a47c715d","system_id":"levelo_inurba_marseille","lat":43.2887,"lon":5.35851,"is_reserved":false,"is_disabled":false,"rental_uris":{"android":"levelo://app?vid=e1a1cb17-6051-49c6-8a5e-b8f5a47c715d","ios":"levelo://app?vid=e1a1cb17-6051-49c6-8a5e-b8f5a47c715d"},"vehicle_type_id":"4","last_reported":1739214408,"current_range_meters":19600,"station_id":"ce4bhb12rcd13ifvqem0","pricing_plan_id":"cebpf4jnsgd1na2vs0mg"},{"bike_id":"f798cbc4-a869-471f-bce8-f64397eebe81","system_id":"levelo_inurba_marseille","lat":43.239563,"lon":5.366277,"is_reserved":false,"is_disabled":false,"rental_uris":{"android":"levelo://app?vid=f798cbc4-a869-471f-bce8-f64397eebe81","ios":"levelo://app?vid=f798cbc4-a869-471f-bce8-f64397eebe81"},"vehicle_type_id":"4","last_reported":1739214408,"current_range_meters":24800,"station_id":"ce4bhi12rcd13ifvqfp0","pricing_plan_id":"cebpf4jnsgd1na2vs0mg"},{"bike_id":"3490dc77-2082-4930-b18d-b016b3b41148","system_id":"levelo_inurba_marseille","lat":43.25503,"lon":5.37656,"is_reserved":false,"is_disabled":false,"rental_uris":{"android":"levelo://app?vid=3490dc77-2082-4930-b18d-b016b3b41148","ios":"levelo://app?vid=3490dc77-2082-4930-b18d-b016b3b41148"},"vehicle_type_id":"4","last_reported":1739214408,"current_range_meters":38800,"station_id":"ce4bhh12rcd13ifvqff0","pricing_plan_id":"cebpf4jnsgd1na2vs0mg"},{"bike_id":"602bd3c5-606b-4957-b2e2-6da68d41f2a1","system_id":"levelo_inurba_marseille","lat":43.28702,"lon":5.39999,"is_reserved":false,"is_disabled":false,"rental_uris":{"android":"levelo://app?vid=602bd3c5-606b-4957-b2e2-6da68d41f2a1","ios":"levelo://app?vid=602bd3c5-606b-4957-b2e2-6da68d41f2a1"},"vehicle_type_id":"4","last_reported":1739214408,"current_range_meters":13600,"station_id":"ce4bho92rcd13ifvqh3g","pricing_plan_id":"cebpf4jnsgd1na2vs0mg"},{"bike_id":"776c444e-ae69-4270-af0f-40003d483afe","system_id":"levelo_inurba_marseille","lat":43.23959,"lon":5.36635,"is_reserved":false,"is_disabled":false,"rental_uris":{"android":"levelo://app?vid=776c444e-ae69-4270-af0f-40003d483afe","ios":"levelo://app?vid=776c444e-ae69-4270-af0f-40003d483afe"},"vehicle_type_id":"4","last_reported":1739214408,"current_range_meters":36800,"station_id":"ce4bhi12rcd13ifvqfp0","pricing_plan_id":"cebpf4jnsgd1na2vs0mg"},{"bike_id":"7284c451-4e56-444a-8411-7c4bf0b4ba45","system_id":"levelo_inurba_marseille","lat":43.29553,"lon":5.4229,"is_reserved":false,"is_disabled":false,"rental_uris":{"android":"levelo://app?vid=7284c451-4e56-444a-8411-7c4bf0b4ba45","ios":"levelo://app?vid=7284c451-4e56-444a-8411-7c4bf0b4ba45"},"vehicle_type_id":"4","last_reported":1739214408,"current_range_meters":32000,"station_id":"ce4bhph2rcd13ifvqhdg","pricing_plan_id":"cebpf4jnsgd1na2vs0mg"},{"bike_id":"491e8afd-e366-4923-bb36-215b1d733ec0","system_id":"levelo_inurba_marseille","lat":43.260569,"lon":5.393994,"is_reserved":false,"is_disabled":false,"rental_uris":{"android":"levelo://app?vid=491e8afd-e366-4923-bb36-215b1d733ec0","ios":"levelo://app?vid=491e8afd-e366-4923-bb36-215b1d733ec0"},"vehicle_type_id":"4","last_reported":1739214408,"current_range_meters":38000,"station_id":"ce4bhh92rcd13ifvqfj0","pricing_plan_id":"cebpf4jnsgd1na2vs0mg"},{"bike_id":"bf8cd02e-ccdc-4523-894a-3fce83d782e3","system_id":"levelo_inurba_marseille","lat":43.33794,"lon":5.38976,"is_reserved":false,"is_disabled":false,"rental_uris":{"android":"levelo://app?vid=bf8cd02e-ccdc-4523-894a-3fce83d782e3","ios":"levelo://app?vid=bf8cd02e-ccdc-4523-894a-3fce83d782e3"},"vehicle_type_id":"4","last_reported":1739214408,"current_range_meters":38400,"station_id":"ce4bhr92rcd13ifvqhsg","pricing_plan_id":"cebpf4jnsgd1na2vs0mg"},{"bike_id":"b1abe312-43ba-41cb-8cf4-8f8b60f0457b","system_id":"levelo_inurba_marseille","lat":43.29622,"lon":5.37725,"is_reserved":false,"is_disabled":false,"rental_uris":{"android":"levelo://app?vid=b1abe312-43ba-41cb-8cf4-8f8b60f0457b","ios":"levelo://app?vid=b1abe312-43ba-41cb-8cf4-8f8b60f0457b"},"vehicle_type_id":"4","last_reported":1739214408,"current_range_meters":38800,"station_id":"ce4bgi92rcd13ifvqb90","pricing_plan_id":"cebpf4jnsgd1na2vs0mg"},{"bike_id":"20ae166b-19b8-4e2c-8018-6388a5f6be55","system_id":"levelo_inurba_marseille","lat":43.29391,"lon":5.37845,"is_reserved":false,"is_disabled":false,"rental_uris":{"android":"levelo://app?vid=20ae166b-19b8-4e2c-8018-6388a5f6be55","ios":"levelo://app?vid=20ae166b-19b8-4e2c-8018-6388a5f6be55"},"vehicle_type_id":"4","last_reported":1739214408,"current_range_meters":36400,"station_id":"ce4bgjh2rcd13ifvqbf0","pricing_plan_id":"cebpf4jnsgd1na2vs0mg"},{"bike_id":"7ca80e67-cb2b-490a-b839-a5cc2b6a357b","system_id":"levelo_inurba_marseille","lat":43.29191,"lon":5.35787,"is_reserved":false,"is_disabled":false,"rental_uris":{"android":"levelo://app?vid=7ca80e67-cb2b-490a-b839-a5cc2b6a357b","ios":"levelo://app?vid=7ca80e67-cb2b-490a-b839-a5cc2b6a357b"},"vehicle_type_id":"4","last_reported":1739214408,"current_range_meters":38000,"station_id":"ce4bhb12rcd13ifvqel0","pricing_plan_id":"cebpf4jnsgd1na2vs0mg"},{"bike_id":"3269462b-d1f8-4e6c-ad17-2a10a27bad7b","system_id":"levelo_inurba_marseille","lat":43.28102,"lon":5.37876,"is_reserved":false,"is_disabled":false,"rental_uris":{"android":"levelo://app?vid=3269462b-d1f8-4e6c-ad17-2a10a27bad7b","ios":"levelo://app?vid=3269462b-d1f8-4e6c-ad17-2a10a27bad7b"},"vehicle_type_id":"4","last_reported":1739214408,"current_range_meters":27600,"station_id":"ce4bha12rcd13ifvqee0","pricing_plan_id":"cebpf4jnsgd1na2vs0mg"},{"bike_id":"9a9f4c20-947f-4204-b525-c3ace04a9755","system_id":"levelo_inurba_marseille","lat":43.30596,"lon":5.39346,"is_reserved":false,"is_disabled":false,"rental_uris":{"android":"levelo://app?vid=9a9f4c20-947f-4204-b525-c3ace04a9755","ios":"levelo://app?vid=9a9f4c20-947f-4204-b525-c3ace04a9755"},"vehicle_type_id":"4","last_reported":1739214408,"current_range_meters":32000,"station_id":"ce4bh0p2rcd13ifvqd80","pricing_plan_id":"cebpf4jnsgd1na2vs0mg"},{"bike_id":"3d775884-6b38-47ff-bdab-a7708da1a655","system_id":"levelo_inurba_marseille","lat":43.26189,"lon":5.37426,"is_reserved":false,"is_disabled":false,"rental_uris":{"android":"levelo://app?vid=3d775884-6b38-47ff-bdab-a7708da1a655","ios":"levelo://app?vid=3d775884-6b38-47ff-bdab-a7708da1a655"},"vehicle_type_id":"4","last_reported":1739214408,"current_range_meters":28400,"station_id":"ce4bhgp2rcd13ifvqfc0","pricing_plan_id":"cebpf4jnsgd1na2vs0mg"},{"bike_id":"6cb22fbd-c227-47a4-8900-9acd5a42e15d","system_id":"levelo_inurba_marseille","lat":43.30105,"lon":5.39084,"is_reserved":false,"is_disabled":false,"rental_uris":{"android":"levelo://app?vid=6cb22fbd-c227-47a4-8900-9acd5a42e15d","ios":"levelo://app?vid=6cb22fbd-c227-47a4-8900-9acd5a42e15d"},"vehicle_type_id":"4","last_reported":1739214408,"current_range_meters":6400,"station_id":"ce4bh192rcd13ifvqdb0","pricing_plan_id":"cebpf4jnsgd1na2vs0mg"},{"bike_id":"a1e1c154-9e5a-4afc-9a7e-cedaf38d9921","system_id":"levelo_inurba_marseille","lat":43.28992,"lon":5.35622,"is_reserved":false,"is_disabled":false,"rental_uris":{"android":"levelo://app?vid=a1e1c154-9e5a-4afc-9a7e-cedaf38d9921","ios":"levelo://app?vid=a1e1c154-9e5a-4afc-9a7e-cedaf38d9921"},"vehicle_type_id":"4","last_reported":1739214408,"current_range_meters":33600,"station_id":"ce4bhb92rcd13ifvqen0","pricing_plan_id":"cebpf4jnsgd1na2vs0mg"},{"bike_id":"726fb099-c3d7-4106-beb8-89951bfba46d","system_id":"levelo_inurba_marseille","lat":43.29568,"lon":5.37499,"is_reserved":false,"is_disabled":true,"rental_uris":{"android":"levelo://app?vid=726fb099-c3d7-4106-beb8-89951bfba46d","ios":"levelo://app?vid=726fb099-c3d7-4106-beb8-89951bfba46d"},"vehicle_type_id":"4","last_reported":1739214408,"current_range_meters":33600,"station_id":"ce4bgh92rcd13ifvqb50","pricing_plan_id":"cebpf4jnsgd1na2vs0mg"},{"bike_id":"0381de35-f333-4648-ac27-3a02f9943927","system_id":"levelo_inurba_marseille","lat":43.3113,"lon":5.37783,"is_reserved":false,"is_disabled":false,"rental_uris":{"android":"levelo://app?vid=0381de35-f333-4648-ac27-3a02f9943927","ios":"levelo://app?vid=0381de35-f333-4648-ac27-3a02f9943927"},"vehicle_type_id":"4","last_reported":1739214408,"current_range_meters":34800,"station_id":"ce4bgt92rcd13ifvqcg0","pricing_plan_id":"cebpf4jnsgd1na2vs0mg"},{"bike_id":"f7497ba6-7f7b-48c4-bbde-c8698d95bccc","system_id":"levelo_inurba_marseille","lat":43.28462,"lon":5.35893,"is_reserved":false,"is_disabled":false,"rental_uris":{"android":"levelo://app?vid=f7497ba6-7f7b-48c4-bbde-c8698d95bccc","ios":"levelo://app?vid=f7497ba6-7f7b-48c4-bbde-c8698d95bccc"},"vehicle_type_id":"4","last_reported":1739214408,"current_range_meters":38800,"station_id":"ce4bhah2rcd13ifvqei0","pricing_plan_id":"cebpf4jnsgd1na2vs0mg"},{"bike_id":"5728af05-01f3-4c14-afd6-c4ebe0f65611","system_id":"levelo_inurba_marseille","lat":43.24993,"lon":5.38946,"is_reserved":false,"is_disabled":false,"rental_uris":{"android":"levelo://app?vid=5728af05-01f3-4c14-afd6-c4ebe0f65611","ios":"levelo://app?vid=5728af05-01f3-4c14-afd6-c4ebe0f65611"},"vehicle_type_id":"4","last_reported":1739214408,"current_range_meters":8000,"station_id":"ce4bhgp2rcd13ifvqfd0","pricing_plan_id":"cebpf4jnsgd1na2vs0mg"},{"bike_id":"e17c61e9-f1fc-4831-9a6e-8280e443802b","system_id":"levelo_inurba_marseille","lat":43.28692,"lon":5.37398,"is_reserved":false,"is_disabled":false,"rental_uris":{"android":"levelo://app?vid=e17c61e9-f1fc-4831-9a6e-8280e443802b","ios":"levelo://app?vid=e17c61e9-f1fc-4831-9a6e-8280e443802b"},"vehicle_type_id":"4","last_reported":1739214408,"current_range_meters":4000,"station_id":"ce4bh3p2rcd13ifvqdq0","pricing_plan_id":"cebpf4jnsgd1na2vs0mg"},{"bike_id":"55fe04a7-d37a-4ee4-965a-2262a655cb55","system_id":"levelo_inurba_marseille","lat":43.23188,"lon":5.399921,"is_reserved":false,"is_disabled":false,"rental_uris":{"android":"levelo://app?vid=55fe04a7-d37a-4ee4-965a-2262a655cb55","ios":"levelo://app?vid=55fe04a7-d37a-4ee4-965a-2262a655cb55"},"vehicle_type_id":"4","last_reported":1739214408,"current_range_meters":39200,"station_id":"ce4bhn12rcd13ifvqgqg","pricing_plan_id":"cebpf4jnsgd1na2vs0mg"},{"bike_id":"3441c74a-282b-45aa-b329-9e43a88c8a80","system_id":"levelo_inurba_marseille","lat":43.24804,"lon":5.37473,"is_reserved":false,"is_disabled":false,"rental_uris":{"android":"levelo://app?vid=3441c74a-282b-45aa-b329-9e43a88c8a80","ios":"levelo://app?vid=3441c74a-282b-45aa-b329-9e43a88c8a80"},"vehicle_type_id":"4","last_reported":1739214408,"current_range_meters":18800,"station_id":"ce4bhgh2rcd13ifvqfb0","pricing_plan_id":"cebpf4jnsgd1na2vs0mg"},{"bike_id":"e00cd517-4a6d-40d8-b46e-27fb98e2bb39","system_id":"levelo_inurba_marseille","lat":43.28467,"lon":5.35888,"is_reserved":false,"is_disabled":false,"rental_uris":{"android":"levelo://app?vid=e00cd517-4a6d-40d8-b46e-27fb98e2bb39","ios":"levelo://app?vid=e00cd517-4a6d-40d8-b46e-27fb98e2bb39"},"vehicle_type_id":"4","last_reported":1739214408,"current_range_meters":38800,"station_id":"ce4bhah2rcd13ifvqei0","pricing_plan_id":"cebpf4jnsgd1na2vs0mg"},{"bike_id":"79796ead-ab78-4aec-a47e-2dbaa29bc627","system_id":"levelo_inurba_marseille","lat":43.24546,"lon":5.39527,"is_reserved":false,"is_disabled":false,"rental_uris":{"android":"levelo://app?vid=79796ead-ab78-4aec-a47e-2dbaa29bc627","ios":"levelo://app?vid=79796ead-ab78-4aec-a47e-2dbaa29bc627"},"vehicle_type_id":"4","last_reported":1739214408,"current_range_meters":39200,"station_id":"ce4bhlp2rcd13ifvqgjg","pricing_plan_id":"cebpf4jnsgd1na2vs0mg"},{"bike_id":"3964663c-b0ef-4fd9-bca2-5e6eb580081e","system_id":"levelo_inurba_marseille","lat":43.28137,"lon":5.39918,"is_reserved":false,"is_disabled":false,"rental_uris":{"android":"levelo://app?vid=3964663c-b0ef-4fd9-bca2-5e6eb580081e","ios":"levelo://app?vid=3964663c-b0ef-4fd9-bca2-5e6eb580081e"},"vehicle_type_id":"4","last_reported":1739214408,"current_range_meters":19200,"station_id":"","pricing_plan_id":"cebpf4jnsgd1na2vs0mg"},{"bike_id":"8e2f681c-56b3-4dbe-acf6-d95949b97842","system_id":"levelo_inurba_marseille","lat":43.301561,"lon":5.380922,"is_reserved":false,"is_disabled":true,"rental_uris":{"android":"levelo://app?vid=8e2f681c-56b3-4dbe-acf6-d95949b97842","ios":"levelo://app?vid=8e2f681c-56b3-4dbe-acf6-d95949b97842"},"vehicle_type_id":"4","last_reported":1739214408,"current_range_meters":25600,"station_id":"","pricing_plan_id":"cebpf4jnsgd1na2vs0mg"},{"bike_id":"6e1b6112-cd26-421f-b157-6ac716f542d7","system_id":"levelo_inurba_marseille","lat":43.27183,"lon":5.40981,"is_reserved":false,"is_disabled":false,"rental_uris":{"android":"levelo://app?vid=6e1b6112-cd26-421f-b157-6ac716f542d7","ios":"levelo://app?vid=6e1b6112-cd26-421f-b157-6ac716f542d7"},"vehicle_type_id":"4","last_reported":1739214408,"current_range_meters":39200,"station_id":"ce4bhl12rcd13ifvqgf0","pricing_plan_id":"cebpf4jnsgd1na2vs0mg"},{"bike_id":"5a712f7b-faea-4b41-b7bd-078b067ddb56","system_id":"levelo_inurba_marseille","lat":43.2558,"lon":5.38242,"is_reserved":false,"is_disabled":true,"rental_uris":{"android":"levelo://app?vid=5a712f7b-faea-4b41-b7bd-078b067ddb56","ios":"levelo://app?vid=5a712f7b-faea-4b41-b7bd-078b067ddb56"},"vehicle_type_id":"4","last_reported":1739214408,"current_range_meters":31200,"station_id":"ce4bhih2rcd13ifvqfs0","pricing_plan_id":"cebpf4jnsgd1na2vs0mg"},{"bike_id":"b41d8475-1b61-4022-b648-2777adae10ea","system_id":"levelo_inurba_marseille","lat":43.24158,"lon":5.36396,"is_reserved":false,"is_disabled":false,"rental_uris":{"android":"levelo://app?vid=b41d8475-1b61-4022-b648-2777adae10ea","ios":"levelo://app?vid=b41d8475-1b61-4022-b648-2777adae10ea"},"vehicle_type_id":"4","last_reported":1739214408,"current_range_meters":28400,"station_id":"cpo36qri1sfpv3e86is0","pricing_plan_id":"cebpf4jnsgd1na2vs0mg"},{"bike_id":"797c91fd-a875-467b-999b-207e5af3706b","system_id":"levelo_inurba_marseille","lat":43.27897,"lon":5.37998,"is_reserved":false,"is_disabled":false,"rental_uris":{"android":"levelo://app?vid=797c91fd-a875-467b-999b-207e5af3706b","ios":"levelo://app?vid=797c91fd-a875-467b-999b-207e5af3706b"},"vehicle_type_id":"4","last_reported":1739214408,"current_range_meters":38800,"station_id":"ce4bhf92rcd13ifvqf50","pricing_plan_id":"cebpf4jnsgd1na2vs0mg"},{"bike_id":"a7835e07-e964-41a5-b983-d86a68e78b9f","system_id":"levelo_inurba_marseille","lat":43.3149,"lon":5.37303,"is_reserved":false,"is_disabled":false,"rental_uris":{"android":"levelo://app?vid=a7835e07-e964-41a5-b983-d86a68e78b9f","ios":"levelo://app?vid=a7835e07-e964-41a5-b983-d86a68e78b9f"},"vehicle_type_id":"4","last_reported":1739214408,"current_range_meters":22800,"station_id":"ce4bgt12rcd13ifvqcd0","pricing_plan_id":"cebpf4jnsgd1na2vs0mg"},{"bike_id":"fa1d3426-6924-4679-877d-315e8d2e7c0a","system_id":"levelo_inurba_marseille","lat":43.25121,"lon":5.40325,"is_reserved":false,"is_disabled":false,"rental_uris":{"android":"levelo://app?vid=fa1d3426-6924-4679-877d-315e8d2e7c0a","ios":"levelo://app?vid=fa1d3426-6924-4679-877d-315e8d2e7c0a"},"vehicle_type_id":"4","last_reported":1739214408,"current_range_meters":38800,"station_id":"ce4bhlh2rcd13ifvqgig","pricing_plan_id":"cebpf4jnsgd1na2vs0mg"},{"bike_id":"f37b2d54-5db6-4dd4-9248-08a017247ec8","system_id":"levelo_inurba_marseille","lat":43.28908,"lon":5.38412,"is_reserved":false,"is_disabled":false,"rental_uris":{"android":"levelo://app?vid=f37b2d54-5db6-4dd4-9248-08a017247ec8","ios":"levelo://app?vid=f37b2d54-5db6-4dd4-9248-08a017247ec8"},"vehicle_type_id":"4","last_reported":1739214408,"current_range_meters":36400,"station_id":"ce4bh612rcd13ifvqe6g","pricing_plan_id":"cebpf4jnsgd1na2vs0mg"},{"bike_id":"ab8b8851-fc81-4397-b7ae-787e68797f4f","system_id":"levelo_inurba_marseille","lat":43.31757,"lon":5.39021,"is_reserved":false,"is_disabled":false,"rental_uris":{"android":"levelo://app?vid=ab8b8851-fc81-4397-b7ae-787e68797f4f","ios":"levelo://app?vid=ab8b8851-fc81-4397-b7ae-787e68797f4f"},"vehicle_type_id":"4","last_reported":1739214408,"current_range_meters":36000,"station_id":"ce4bhqp2rcd13ifvqhng","pricing_plan_id":"cebpf4jnsgd1na2vs0mg"},{"bike_id":"92f07dea-90ac-401f-aa24-d823119dcbf1","system_id":"levelo_inurba_marseille","lat":43.28855,"lon":5.39345,"is_reserved":false,"is_disabled":true,"rental_uris":{"android":"levelo://app?vid=92f07dea-90ac-401f-aa24-d823119dcbf1","ios":"levelo://app?vid=92f07dea-90ac-401f-aa24-d823119dcbf1"},"vehicle_type_id":"4","last_reported":1739214408,"current_range_meters":0,"station_id":"ce4bh2p2rcd13ifvqdi0","pricing_plan_id":"cebpf4jnsgd1na2vs0mg"},{"bike_id":"51ab7186-5043-4bed-baca-73708608a302","system_id":"levelo_inurba_marseille","lat":43.29584,"lon":5.37026,"is_reserved":false,"is_disabled":true,"rental_uris":{"android":"levelo://app?vid=51ab7186-5043-4bed-baca-73708608a302","ios":"levelo://app?vid=51ab7186-5043-4bed-baca-73708608a302"},"vehicle_type_id":"4","last_reported":1739214408,"current_range_meters":10800,"station_id":"","pricing_plan_id":"cebpf4jnsgd1na2vs0mg"},{"bike_id":"3664dbbc-23a1-4cc8-b192-1f5bf82ad2ae","system_id":"levelo_inurba_marseille","lat":43.27176,"lon":5.40992,"is_reserved":false,"is_disabled":false,"rental_uris":{"android":"levelo://app?vid=3664dbbc-23a1-4cc8-b192-1f5bf82ad2ae","ios":"levelo://app?vid=3664dbbc-23a1-4cc8-b192-1f5bf82ad2ae"},"vehicle_type_id":"4","last_reported":1739214408,"current_range_meters":38000,"station_id":"ce4bhl12rcd13ifvqgf0","pricing_plan_id":"cebpf4jnsgd1na2vs0mg"},{"bike_id":"7aea78e9-6742-4e6c-8617-877f951312f7","system_id":"levelo_inurba_marseille","lat":43.30102,"lon":5.39086,"is_reserved":false,"is_disabled":false,"rental_uris":{"android":"levelo://app?vid=7aea78e9-6742-4e6c-8617-877f951312f7","ios":"levelo://app?vid=7aea78e9-6742-4e6c-8617-877f951312f7"},"vehicle_type_id":"4","last_reported":1739214408,"current_range_meters":18000,"station_id":"ce4bh192rcd13ifvqdb0","pricing_plan_id":"cebpf4jnsgd1na2vs0mg"},{"bike_id":"a8158c90-43cd-485b-b227-ab2c6a7833b6","system_id":"levelo_inurba_marseille","lat":43.280386,"lon":5.36948,"is_reserved":false,"is_disabled":false,"rental_uris":{"android":"levelo://app?vid=a8158c90-43cd-485b-b227-ab2c6a7833b6","ios":"levelo://app?vid=a8158c90-43cd-485b-b227-ab2c6a7833b6"},"vehicle_type_id":"4","last_reported":1739214408,"current_range_meters":32000,"station_id":"ce4bha12rcd13ifvqef0","pricing_plan_id":"cebpf4jnsgd1na2vs0mg"},{"bike_id":"0b2730f4-2761-48a6-b43d-961c9e696ec1","system_id":"levelo_inurba_marseille","lat":43.28466,"lon":5.35881,"is_reserved":false,"is_disabled":false,"rental_uris":{"android":"levelo://app?vid=0b2730f4-2761-48a6-b43d-961c9e696ec1","ios":"levelo://app?vid=0b2730f4-2761-48a6-b43d-961c9e696ec1"},"vehicle_type_id":"4","last_reported":1739214408,"current_range_meters":38800,"station_id":"ce4bhah2rcd13ifvqei0","pricing_plan_id":"cebpf4jnsgd1na2vs0mg"},{"bike_id":"890464c4-7185-412e-a93b-79d798bd90c9","system_id":"levelo_inurba_marseille","lat":43.28432,"lon":5.39191,"is_reserved":false,"is_disabled":false,"rental_uris":{"android":"levelo://app?vid=890464c4-7185-412e-a93b-79d798bd90c9","ios":"levelo://app?vid=890464c4-7185-412e-a93b-79d798bd90c9"},"vehicle_type_id":"4","last_reported":1739214408,"current_range_meters":39200,"station_id":"ce4bhoh2rcd13ifvqh5g","pricing_plan_id":"cebpf4jnsgd1na2vs0mg"},{"bike_id":"3d79b4ad-746d-4d37-b786-cccafe1d2d8d","system_id":"levelo_inurba_marseille","lat":43.29552,"lon":5.39052,"is_reserved":false,"is_disabled":false,"rental_uris":{"android":"levelo://app?vid=3d79b4ad-746d-4d37-b786-cccafe1d2d8d","ios":"levelo://app?vid=3d79b4ad-746d-4d37-b786-cccafe1d2d8d"},"vehicle_type_id":"4","last_reported":1739214408,"current_range_meters":27200,"station_id":"ce4bh3p2rcd13ifvqdp0","pricing_plan_id":"cebpf4jnsgd1na2vs0mg"},{"bike_id":"8517ba79-8da0-4668-8cee-0db8d18cba54","system_id":"levelo_inurba_marseille","lat":43.29532,"lon":5.39021,"is_reserved":false,"is_disabled":false,"rental_uris":{"android":"levelo://app?vid=8517ba79-8da0-4668-8cee-0db8d18cba54","ios":"levelo://app?vid=8517ba79-8da0-4668-8cee-0db8d18cba54"},"vehicle_type_id":"4","last_reported":1739214408,"current_range_meters":25200,"station_id":"ce4bh3p2rcd13ifvqdp0","pricing_plan_id":"cebpf4jnsgd1na2vs0mg"},{"bike_id":"6a61494c-64e7-4150-8260-115f4cb420a4","system_id":"levelo_inurba_marseille","lat":43.29259,"lon":5.38442,"is_reserved":false,"is_disabled":false,"rental_uris":{"android":"levelo://app?vid=6a61494c-64e7-4150-8260-115f4cb420a4","ios":"levelo://app?vid=6a61494c-64e7-4150-8260-115f4cb420a4"},"vehicle_type_id":"4","last_reported":1739214408,"current_range_meters":12400,"station_id":"ce4bh692rcd13ifvqea0","pricing_plan_id":"cebpf4jnsgd1na2vs0mg"},{"bike_id":"d77ebab4-8330-4bd8-b943-62e52e95c5a3","system_id":"levelo_inurba_marseille","lat":43.29862,"lon":5.39763,"is_reserved":false,"is_disabled":true,"rental_uris":{"android":"levelo://app?vid=d77ebab4-8330-4bd8-b943-62e52e95c5a3","ios":"levelo://app?vid=d77ebab4-8330-4bd8-b943-62e52e95c5a3"},"vehicle_type_id":"4","last_reported":1739214408,"current_range_meters":1600,"station_id":"ce4bh0h2rcd13ifvqd50","pricing_plan_id":"cebpf4jnsgd1na2vs0mg"},{"bike_id":"0cdcc8f7-f674-43f1-9b73-0f1949650402","system_id":"levelo_inurba_marseille","lat":43.23957,"lon":5.3662,"is_reserved":false,"is_disabled":false,"rental_uris":{"android":"levelo://app?vid=0cdcc8f7-f674-43f1-9b73-0f1949650402","ios":"levelo://app?vid=0cdcc8f7-f674-43f1-9b73-0f1949650402"},"vehicle_type_id":"4","last_reported":1739214408,"current_range_meters":37600,"station_id":"ce4bhi12rcd13ifvqfp0","pricing_plan_id":"cebpf4jnsgd1na2vs0mg"},{"bike_id":"de77abfa-6f74-40e9-8131-b7884eda37eb","system_id":"levelo_inurba_marseille","lat":43.29961,"lon":5.39401,"is_reserved":false,"is_disabled":false,"rental_uris":{"android":"levelo://app?vid=de77abfa-6f74-40e9-8131-b7884eda37eb","ios":"levelo://app?vid=de77abfa-6f74-40e9-8131-b7884eda37eb"},"vehicle_type_id":"4","last_reported":1739214408,"current_range_meters":31200,"station_id":"","pricing_plan_id":"cebpf4jnsgd1na2vs0mg"},{"bike_id":"44dd6324-cf8b-4645-bc5d-6f2dbec52f2a","system_id":"levelo_inurba_marseille","lat":43.26569,"lon":5.39037,"is_reserved":false,"is_disabled":false,"rental_uris":{"android":"levelo://app?vid=44dd6324-cf8b-4645-bc5d-6f2dbec52f2a","ios":"levelo://app?vid=44dd6324-cf8b-4645-bc5d-6f2dbec52f2a"},"vehicle_type_id":"4","last_reported":1739214408,"current_range_meters":17600,"station_id":"ce4bhe12rcd13ifvqf30","pricing_plan_id":"cebpf4jnsgd1na2vs0mg"},{"bike_id":"309d585e-dbf0-41e7-92ef-ca52fc3136e2","system_id":"levelo_inurba_marseille","lat":43.30816,"lon":5.3816,"is_reserved":false,"is_disabled":false,"rental_uris":{"android":"levelo://app?vid=309d585e-dbf0-41e7-92ef-ca52fc3136e2","ios":"levelo://app?vid=309d585e-dbf0-41e7-92ef-ca52fc3136e2"},"vehicle_type_id":"4","last_reported":1739214408,"current_range_meters":22000,"station_id":"ce4bgt12rcd13ifvqce0","pricing_plan_id":"cebpf4jnsgd1na2vs0mg"},{"bike_id":"ee079ffa-4416-4a91-bc98-3bd665acea3b","system_id":"levelo_inurba_marseille","lat":43.33728,"lon":5.3918,"is_reserved":false,"is_disabled":false,"rental_uris":{"android":"levelo://app?vid=ee079ffa-4416-4a91-bc98-3bd665acea3b","ios":"levelo://app?vid=ee079ffa-4416-4a91-bc98-3bd665acea3b"},"vehicle_type_id":"4","last_reported":1739214408,"current_range_meters":39200,"station_id":"ce4bhr92rcd13ifvqhsg","pricing_plan_id":"cebpf4jnsgd1na2vs0mg"},{"bike_id":"1fa82dc6-47d4-4356-bbca-393bf4461726","system_id":"levelo_inurba_marseille","lat":43.23959,"lon":5.36625,"is_reserved":false,"is_disabled":false,"rental_uris":{"android":"levelo://app?vid=1fa82dc6-47d4-4356-bbca-393bf4461726","ios":"levelo://app?vid=1fa82dc6-47d4-4356-bbca-393bf4461726"},"vehicle_type_id":"4","last_reported":1739214408,"current_range_meters":22400,"station_id":"ce4bhi12rcd13ifvqfp0","pricing_plan_id":"cebpf4jnsgd1na2vs0mg"},{"bike_id":"c6a4319f-5177-4e2c-a761-978445166b5f","system_id":"levelo_inurba_marseille","lat":43.292521,"lon":5.409042,"is_reserved":false,"is_disabled":false,"rental_uris":{"android":"levelo://app?vid=c6a4319f-5177-4e2c-a761-978445166b5f","ios":"levelo://app?vid=c6a4319f-5177-4e2c-a761-978445166b5f"},"vehicle_type_id":"4","last_reported":1739214408,"current_range_meters":19200,"station_id":"ce4bh192rcd13ifvqdc0","pricing_plan_id":"cebpf4jnsgd1na2vs0mg"},{"bike_id":"c541a0d7-9436-4829-85be-20e200e6c1e5","system_id":"levelo_inurba_marseille","lat":43.30947,"lon":5.39029,"is_reserved":false,"is_disabled":false,"rental_uris":{"android":"levelo://app?vid=c541a0d7-9436-4829-85be-20e200e6c1e5","ios":"levelo://app?vid=c541a0d7-9436-4829-85be-20e200e6c1e5"},"vehicle_type_id":"4","last_reported":1739214408,"current_range_meters":38800,"station_id":"ce4bgup2rcd13ifvqco0","pricing_plan_id":"cebpf4jnsgd1na2vs0mg"},{"bike_id":"1b222d92-0766-4553-98e5-5fe5b4e88883","system_id":"levelo_inurba_marseille","lat":43.23051,"lon":5.35514,"is_reserved":false,"is_disabled":false,"rental_uris":{"android":"levelo://app?vid=1b222d92-0766-4553-98e5-5fe5b4e88883","ios":"levelo://app?vid=1b222d92-0766-4553-98e5-5fe5b4e88883"},"vehicle_type_id":"4","last_reported":1739214408,"current_range_meters":7200,"station_id":"cpo3342slgdg3j2ifvpg","pricing_plan_id":"cebpf4jnsgd1na2vs0mg"},{"bike_id":"67c77a93-95e0-4dde-b030-1b6a0f65cf9a","system_id":"levelo_inurba_marseille","lat":43.27194,"lon":5.40983,"is_reserved":false,"is_disabled":false,"rental_uris":{"android":"levelo://app?vid=67c77a93-95e0-4dde-b030-1b6a0f65cf9a","ios":"levelo://app?vid=67c77a93-95e0-4dde-b030-1b6a0f65cf9a"},"vehicle_type_id":"4","last_reported":1739214408,"current_range_meters":12000,"station_id":"ce4bhl12rcd13ifvqgf0","pricing_plan_id":"cebpf4jnsgd1na2vs0mg"},{"bike_id":"a4d1802f-0c78-4921-a827-4d3e6b4236ac","system_id":"levelo_inurba_marseille","lat":43.27056,"lon":5.40255,"is_reserved":false,"is_disabled":false,"rental_uris":{"android":"levelo://app?vid=a4d1802f-0c78-4921-a827-4d3e6b4236ac","ios":"levelo://app?vid=a4d1802f-0c78-4921-a827-4d3e6b4236ac"},"vehicle_type_id":"4","last_reported":1739214408,"current_range_meters":28800,"station_id":"ce4bhk92rcd13ifvqgc0","pricing_plan_id":"cebpf4jnsgd1na2vs0mg"},{"bike_id":"d0d8ec2f-c95a-46f3-be60-0d8863b57c52","system_id":"levelo_inurba_marseille","lat":43.28354,"lon":5.38101,"is_reserved":false,"is_disabled":false,"rental_uris":{"android":"levelo://app?vid=d0d8ec2f-c95a-46f3-be60-0d8863b57c52","ios":"levelo://app?vid=d0d8ec2f-c95a-46f3-be60-0d8863b57c52"},"vehicle_type_id":"4","last_reported":1739214408,"current_range_meters":39200,"station_id":"ce4bh412rcd13ifvqdr0","pricing_plan_id":"cebpf4jnsgd1na2vs0mg"},{"bike_id":"496fa2ad-a547-4095-b8b9-a29f1a78ab4b","system_id":"levelo_inurba_marseille","lat":43.27811,"lon":5.40693,"is_reserved":false,"is_disabled":false,"rental_uris":{"android":"levelo://app?vid=496fa2ad-a547-4095-b8b9-a29f1a78ab4b","ios":"levelo://app?vid=496fa2ad-a547-4095-b8b9-a29f1a78ab4b"},"vehicle_type_id":"4","last_reported":1739214408,"current_range_meters":37600,"station_id":"ce4bhnh2rcd13ifvqgtg","pricing_plan_id":"cebpf4jnsgd1na2vs0mg"},{"bike_id":"f53564a4-cbf9-4b55-bb72-8eda8cad3a05","system_id":"levelo_inurba_marseille","lat":43.27068,"lon":5.4229,"is_reserved":false,"is_disabled":false,"rental_uris":{"android":"levelo://app?vid=f53564a4-cbf9-4b55-bb72-8eda8cad3a05","ios":"levelo://app?vid=f53564a4-cbf9-4b55-bb72-8eda8cad3a05"},"vehicle_type_id":"4","last_reported":1739214408,"current_range_meters":21600,"station_id":"ce4bhk92rcd13ifvqgb0","pricing_plan_id":"cebpf4jnsgd1na2vs0mg"},{"bike_id":"01ea49d7-471f-408d-84c4-55b6e9d5f5e2","system_id":"levelo_inurba_marseille","lat":43.28093,"lon":5.37874,"is_reserved":false,"is_disabled":false,"rental_uris":{"android":"levelo://app?vid=01ea49d7-471f-408d-84c4-55b6e9d5f5e2","ios":"levelo://app?vid=01ea49d7-471f-408d-84c4-55b6e9d5f5e2"},"vehicle_type_id":"4","last_reported":1739214408,"current_range_meters":9200,"station_id":"ce4bha12rcd13ifvqee0","pricing_plan_id":"cebpf4jnsgd1na2vs0mg"},{"bike_id":"05f6ac8f-0127-4e39-bd11-d53a74225ef8","system_id":"levelo_inurba_marseille","lat":43.27874,"lon":5.40597,"is_reserved":false,"is_disabled":true,"rental_uris":{"android":"levelo://app?vid=05f6ac8f-0127-4e39-bd11-d53a74225ef8","ios":"levelo://app?vid=05f6ac8f-0127-4e39-bd11-d53a74225ef8"},"vehicle_type_id":"4","last_reported":1739214408,"current_range_meters":0,"station_id":"","pricing_plan_id":"cebpf4jnsgd1na2vs0mg"},{"bike_id":"178f6444-f9fb-46e2-b10e-7aee3a09764c","system_id":"levelo_inurba_marseille","lat":43.31064,"lon":5.38349,"is_reserved":false,"is_disabled":false,"rental_uris":{"android":"levelo://app?vid=178f6444-f9fb-46e2-b10e-7aee3a09764c","ios":"levelo://app?vid=178f6444-f9fb-46e2-b10e-7aee3a09764c"},"vehicle_type_id":"4","last_reported":1739214408,"current_range_meters":20800,"station_id":"ce4bgv92rcd13ifvqcr0","pricing_plan_id":"cebpf4jnsgd1na2vs0mg"},{"bike_id":"5d060918-1952-4a19-9d33-6d60b10a2beb","system_id":"levelo_inurba_marseille","lat":43.26938,"lon":5.40244,"is_reserved":false,"is_disabled":false,"rental_uris":{"android":"levelo://app?vid=5d060918-1952-4a19-9d33-6d60b10a2beb","ios":"levelo://app?vid=5d060918-1952-4a19-9d33-6d60b10a2beb"},"vehicle_type_id":"4","last_reported":1739214408,"current_range_meters":16800,"station_id":"cjm6bp8fraef2m0cb0m0","pricing_plan_id":"cebpf4jnsgd1na2vs0mg"},{"bike_id":"76f3170e-3ff7-41ad-9bc5-e166406e18c1","system_id":"levelo_inurba_marseille","lat":43.28417,"lon":5.34996,"is_reserved":false,"is_disabled":false,"rental_uris":{"android":"levelo://app?vid=76f3170e-3ff7-41ad-9bc5-e166406e18c1","ios":"levelo://app?vid=76f3170e-3ff7-41ad-9bc5-e166406e18c1"},"vehicle_type_id":"4","last_reported":1739214408,"current_range_meters":29600,"station_id":"ce4bhbh2rcd13ifvqepg","pricing_plan_id":"cebpf4jnsgd1na2vs0mg"},{"bike_id":"8319624d-6060-4e08-807c-41f1267faeb1","system_id":"levelo_inurba_marseille","lat":43.29022,"lon":5.38632,"is_reserved":false,"is_disabled":false,"rental_uris":{"android":"levelo://app?vid=8319624d-6060-4e08-807c-41f1267faeb1","ios":"levelo://app?vid=8319624d-6060-4e08-807c-41f1267faeb1"},"vehicle_type_id":"4","last_reported":1739214408,"current_range_meters":36400,"station_id":"ce4bh4p2rcd13ifvqe0g","pricing_plan_id":"cebpf4jnsgd1na2vs0mg"},{"bike_id":"1fdf0618-86d8-4dbc-9fa6-ce8ceed227b9","system_id":"levelo_inurba_marseille","lat":43.26057,"lon":5.394,"is_reserved":false,"is_disabled":false,"rental_uris":{"android":"levelo://app?vid=1fdf0618-86d8-4dbc-9fa6-ce8ceed227b9","ios":"levelo://app?vid=1fdf0618-86d8-4dbc-9fa6-ce8ceed227b9"},"vehicle_type_id":"4","last_reported":1739214408,"current_range_meters":38800,"station_id":"ce4bhh92rcd13ifvqfj0","pricing_plan_id":"cebpf4jnsgd1na2vs0mg"},{"bike_id":"0866adf5-adbd-4dbf-a9e4-adcc3b334cdb","system_id":"levelo_inurba_marseille","lat":43.27374,"lon":5.36259,"is_reserved":false,"is_disabled":false,"rental_uris":{"android":"levelo://app?vid=0866adf5-adbd-4dbf-a9e4-adcc3b334cdb","ios":"levelo://app?vid=0866adf5-adbd-4dbf-a9e4-adcc3b334cdb"},"vehicle_type_id":"4","last_reported":1739214408,"current_range_meters":38800,"station_id":"ce4bhbh2rcd13ifvqeo0","pricing_plan_id":"cebpf4jnsgd1na2vs0mg"},{"bike_id":"021aebcc-7a96-411a-add9-f1926aeb8933","system_id":"levelo_inurba_marseille","lat":43.28378,"lon":5.38639,"is_reserved":false,"is_disabled":false,"rental_uris":{"android":"levelo://app?vid=021aebcc-7a96-411a-add9-f1926aeb8933","ios":"levelo://app?vid=021aebcc-7a96-411a-add9-f1926aeb8933"},"vehicle_type_id":"4","last_reported":1739214408,"current_range_meters":37600,"station_id":"ce4bh492rcd13ifvqdvg","pricing_plan_id":"cebpf4jnsgd1na2vs0mg"},{"bike_id":"04564863-f1f2-443b-b8f1-fcbab471f36d","system_id":"levelo_inurba_marseille","lat":43.295276,"lon":5.390437,"is_reserved":false,"is_disabled":false,"rental_uris":{"android":"levelo://app?vid=04564863-f1f2-443b-b8f1-fcbab471f36d","ios":"levelo://app?vid=04564863-f1f2-443b-b8f1-fcbab471f36d"},"vehicle_type_id":"4","last_reported":1739214408,"current_range_meters":38800,"station_id":"ce4bh3p2rcd13ifvqdp0","pricing_plan_id":"cebpf4jnsgd1na2vs0mg"},{"bike_id":"34a68ff8-accc-41ce-8ce8-a8d4923f3644","system_id":"levelo_inurba_marseille","lat":43.29804,"lon":5.38104,"is_reserved":false,"is_disabled":false,"rental_uris":{"android":"levelo://app?vid=34a68ff8-accc-41ce-8ce8-a8d4923f3644","ios":"levelo://app?vid=34a68ff8-accc-41ce-8ce8-a8d4923f3644"},"vehicle_type_id":"4","last_reported":1739214408,"current_range_meters":24800,"station_id":"ce4bgip2rcd13ifvqbb0","pricing_plan_id":"cebpf4jnsgd1na2vs0mg"},{"bike_id":"b57e3325-6e54-41f5-9776-1d723778cb56","system_id":"levelo_inurba_marseille","lat":43.28708,"lon":5.37922,"is_reserved":false,"is_disabled":false,"rental_uris":{"android":"levelo://app?vid=b57e3325-6e54-41f5-9776-1d723778cb56","ios":"levelo://app?vid=b57e3325-6e54-41f5-9776-1d723778cb56"},"vehicle_type_id":"4","last_reported":1739214408,"current_range_meters":39200,"station_id":"ce4bh9p2rcd13ifvqec0","pricing_plan_id":"cebpf4jnsgd1na2vs0mg"},{"bike_id":"fd7cd6eb-8023-4160-9061-39fa556cf25c","system_id":"levelo_inurba_marseille","lat":43.30334,"lon":5.40446,"is_reserved":false,"is_disabled":true,"rental_uris":{"android":"levelo://app?vid=fd7cd6eb-8023-4160-9061-39fa556cf25c","ios":"levelo://app?vid=fd7cd6eb-8023-4160-9061-39fa556cf25c"},"vehicle_type_id":"4","last_reported":1739214408,"current_range_meters":32000,"station_id":"ce4bh012rcd13ifvqd10","pricing_plan_id":"cebpf4jnsgd1na2vs0mg"},{"bike_id":"a5168041-1b3d-49a6-9f44-b7b9bc9707e0","system_id":"levelo_inurba_marseille","lat":43.29274,"lon":5.38427,"is_reserved":false,"is_disabled":false,"rental_uris":{"android":"levelo://app?vid=a5168041-1b3d-49a6-9f44-b7b9bc9707e0","ios":"levelo://app?vid=a5168041-1b3d-49a6-9f44-b7b9bc9707e0"},"vehicle_type_id":"4","last_reported":1739214408,"current_range_meters":38400,"station_id":"ce4bh692rcd13ifvqea0","pricing_plan_id":"cebpf4jnsgd1na2vs0mg"},{"bike_id":"d32849cf-4c14-4032-9063-172d06d3f04f","system_id":"levelo_inurba_marseille","lat":43.232,"lon":5.35558,"is_reserved":false,"is_disabled":false,"rental_uris":{"android":"levelo://app?vid=d32849cf-4c14-4032-9063-172d06d3f04f","ios":"levelo://app?vid=d32849cf-4c14-4032-9063-172d06d3f04f"},"vehicle_type_id":"4","last_reported":1739214408,"current_range_meters":36800,"station_id":"ce4bhu92rcd13ifvqi70","pricing_plan_id":"cebpf4jnsgd1na2vs0mg"},{"bike_id":"8874a213-102d-48ef-b2d7-c6104bb686b2","system_id":"levelo_inurba_marseille","lat":43.2955,"lon":5.42297,"is_reserved":false,"is_disabled":true,"rental_uris":{"android":"levelo://app?vid=8874a213-102d-48ef-b2d7-c6104bb686b2","ios":"levelo://app?vid=8874a213-102d-48ef-b2d7-c6104bb686b2"},"vehicle_type_id":"4","last_reported":1739214408,"current_range_meters":1200,"station_id":"ce4bhph2rcd13ifvqhdg","pricing_plan_id":"cebpf4jnsgd1na2vs0mg"},{"bike_id":"f148336c-0b3d-48b4-9510-b24edb67685d","system_id":"levelo_inurba_marseille","lat":43.27975,"lon":5.38741,"is_reserved":false,"is_disabled":false,"rental_uris":{"android":"levelo://app?vid=f148336c-0b3d-48b4-9510-b24edb67685d","ios":"levelo://app?vid=f148336c-0b3d-48b4-9510-b24edb67685d"},"vehicle_type_id":"4","last_reported":1739214408,"current_range_meters":38800,"station_id":"ce4bhg12rcd13ifvqf80","pricing_plan_id":"cebpf4jnsgd1na2vs0mg"},{"bike_id":"e8fc2879-b3d9-4b04-a54d-53719f8d30ec","system_id":"levelo_inurba_marseille","lat":43.29507,"lon":5.39398,"is_reserved":false,"is_disabled":false,"rental_uris":{"android":"levelo://app?vid=e8fc2879-b3d9-4b04-a54d-53719f8d30ec","ios":"levelo://app?vid=e8fc2879-b3d9-4b04-a54d-53719f8d30ec"},"vehicle_type_id":"4","last_reported":1739214408,"current_range_meters":30000,"station_id":"ce4bh292rcd13ifvqdf0","pricing_plan_id":"cebpf4jnsgd1na2vs0mg"},{"bike_id":"143f4869-dc8e-40d5-bf9e-43f57cdf5638","system_id":"levelo_inurba_marseille","lat":43.28941,"lon":5.36411,"is_reserved":false,"is_disabled":false,"rental_uris":{"android":"levelo://app?vid=143f4869-dc8e-40d5-bf9e-43f57cdf5638","ios":"levelo://app?vid=143f4869-dc8e-40d5-bf9e-43f57cdf5638"},"vehicle_type_id":"4","last_reported":1739214408,"current_range_meters":17600,"station_id":"ce4bhc92rcd13ifvqetg","pricing_plan_id":"cebpf4jnsgd1na2vs0mg"},{"bike_id":"b7cfafc0-fba3-47fa-8c3d-d96c6bee1f7a","system_id":"levelo_inurba_marseille","lat":43.24392,"lon":5.37054,"is_reserved":false,"is_disabled":false,"rental_uris":{"android":"levelo://app?vid=b7cfafc0-fba3-47fa-8c3d-d96c6bee1f7a","ios":"levelo://app?vid=b7cfafc0-fba3-47fa-8c3d-d96c6bee1f7a"},"vehicle_type_id":"4","last_reported":1739214408,"current_range_meters":36400,"station_id":"ce4bhhh2rcd13ifvqfk0","pricing_plan_id":"cebpf4jnsgd1na2vs0mg"},{"bike_id":"35fa277b-471f-48ab-8131-17be4bead2f1","system_id":"levelo_inurba_marseille","lat":43.28707,"lon":5.37936,"is_reserved":false,"is_disabled":false,"rental_uris":{"android":"levelo://app?vid=35fa277b-471f-48ab-8131-17be4bead2f1","ios":"levelo://app?vid=35fa277b-471f-48ab-8131-17be4bead2f1"},"vehicle_type_id":"4","last_reported":1739214408,"current_range_meters":38000,"station_id":"ce4bh9p2rcd13ifvqec0","pricing_plan_id":"cebpf4jnsgd1na2vs0mg"},{"bike_id":"7ad2debf-586d-4c17-96ee-4293391683d1","system_id":"levelo_inurba_marseille","lat":43.28153,"lon":5.42633,"is_reserved":false,"is_disabled":false,"rental_uris":{"android":"levelo://app?vid=7ad2debf-586d-4c17-96ee-4293391683d1","ios":"levelo://app?vid=7ad2debf-586d-4c17-96ee-4293391683d1"},"vehicle_type_id":"4","last_reported":1739214408,"current_range_meters":21600,"station_id":"ce4bhnh2rcd13ifvqgug","pricing_plan_id":"cebpf4jnsgd1na2vs0mg"},{"bike_id":"3053beb1-cf70-417b-badc-581ea0c267b6","system_id":"levelo_inurba_marseille","lat":43.31883,"lon":5.40738,"is_reserved":false,"is_disabled":false,"rental_uris":{"android":"levelo://app?vid=3053beb1-cf70-417b-badc-581ea0c267b6","ios":"levelo://app?vid=3053beb1-cf70-417b-badc-581ea0c267b6"},"vehicle_type_id":"4","last_reported":1739214408,"current_range_meters":29600,"station_id":"ce4bhq12rcd13ifvqhig","pricing_plan_id":"cebpf4jnsgd1na2vs0mg"},{"bike_id":"386a5c6b-0374-40ee-8fee-068f2ec38f9b","system_id":"levelo_inurba_marseille","lat":43.239604,"lon":5.366224,"is_reserved":false,"is_disabled":false,"rental_uris":{"android":"levelo://app?vid=386a5c6b-0374-40ee-8fee-068f2ec38f9b","ios":"levelo://app?vid=386a5c6b-0374-40ee-8fee-068f2ec38f9b"},"vehicle_type_id":"4","last_reported":1739214408,"current_range_meters":14800,"station_id":"ce4bhi12rcd13ifvqfp0","pricing_plan_id":"cebpf4jnsgd1na2vs0mg"},{"bike_id":"9fce44f2-1cbb-41b3-913d-0f4daaf602d1","system_id":"levelo_inurba_marseille","lat":43.31706,"lon":5.3775,"is_reserved":false,"is_disabled":false,"rental_uris":{"android":"levelo://app?vid=9fce44f2-1cbb-41b3-913d-0f4daaf602d1","ios":"levelo://app?vid=9fce44f2-1cbb-41b3-913d-0f4daaf602d1"},"vehicle_type_id":"4","last_reported":1739214408,"current_range_meters":24400,"station_id":"ce4bgth2rcd13ifvqch0","pricing_plan_id":"cebpf4jnsgd1na2vs0mg"},{"bike_id":"2ab1190d-049f-445a-8f0c-03eff064fa31","system_id":"levelo_inurba_marseille","lat":43.32035,"lon":5.41569,"is_reserved":false,"is_disabled":false,"rental_uris":{"android":"levelo://app?vid=2ab1190d-049f-445a-8f0c-03eff064fa31","ios":"levelo://app?vid=2ab1190d-049f-445a-8f0c-03eff064fa31"},"vehicle_type_id":"4","last_reported":1739214408,"current_range_meters":26000,"station_id":"ce4bhq92rcd13ifvqhkg","pricing_plan_id":"cebpf4jnsgd1na2vs0mg"},{"bike_id":"27970130-9f58-408f-85a6-eea1ca4029cd","system_id":"levelo_inurba_marseille","lat":43.295371,"lon":5.390332,"is_reserved":false,"is_disabled":false,"rental_uris":{"android":"levelo://app?vid=27970130-9f58-408f-85a6-eea1ca4029cd","ios":"levelo://app?vid=27970130-9f58-408f-85a6-eea1ca4029cd"},"vehicle_type_id":"4","last_reported":1739214408,"current_range_meters":38800,"station_id":"ce4bh3p2rcd13ifvqdp0","pricing_plan_id":"cebpf4jnsgd1na2vs0mg"},{"bike_id":"3ad78980-d954-4439-b88d-56e0dcfe7b89","system_id":"levelo_inurba_marseille","lat":43.23956,"lon":5.36644,"is_reserved":false,"is_disabled":false,"rental_uris":{"android":"levelo://app?vid=3ad78980-d954-4439-b88d-56e0dcfe7b89","ios":"levelo://app?vid=3ad78980-d954-4439-b88d-56e0dcfe7b89"},"vehicle_type_id":"4","last_reported":1739214408,"current_range_meters":13600,"station_id":"ce4bhi12rcd13ifvqfp0","pricing_plan_id":"cebpf4jnsgd1na2vs0mg"},{"bike_id":"57bb23cc-aacd-4798-9d5f-20a9fef2ce8a","system_id":"levelo_inurba_marseille","lat":43.306374,"lon":5.400828,"is_reserved":false,"is_disabled":false,"rental_uris":{"android":"levelo://app?vid=57bb23cc-aacd-4798-9d5f-20a9fef2ce8a","ios":"levelo://app?vid=57bb23cc-aacd-4798-9d5f-20a9fef2ce8a"},"vehicle_type_id":"4","last_reported":1739214408,"current_range_meters":29600,"station_id":"ce4bh112rcd13ifvqda0","pricing_plan_id":"cebpf4jnsgd1na2vs0mg"},{"bike_id":"f69cd6be-4142-4fae-b32e-2ad56ba1af59","system_id":"levelo_inurba_marseille","lat":43.31689,"lon":5.40483,"is_reserved":false,"is_disabled":false,"rental_uris":{"android":"levelo://app?vid=f69cd6be-4142-4fae-b32e-2ad56ba1af59","ios":"levelo://app?vid=f69cd6be-4142-4fae-b32e-2ad56ba1af59"},"vehicle_type_id":"4","last_reported":1739214408,"current_range_meters":38800,"station_id":"ce4bh012rcd13ifvqd00","pricing_plan_id":"cebpf4jnsgd1na2vs0mg"},{"bike_id":"01b0e03f-7b96-4ac3-a2a1-cc92043b5081","system_id":"levelo_inurba_marseille","lat":43.29169,"lon":5.39287,"is_reserved":false,"is_disabled":true,"rental_uris":{"android":"levelo://app?vid=01b0e03f-7b96-4ac3-a2a1-cc92043b5081","ios":"levelo://app?vid=01b0e03f-7b96-4ac3-a2a1-cc92043b5081"},"vehicle_type_id":"4","last_reported":1739214408,"current_range_meters":26000,"station_id":"ce4bh192rcd13ifvqdd0","pricing_plan_id":"cebpf4jnsgd1na2vs0mg"},{"bike_id":"a89fa4a5-d8a8-4ddc-8598-f264996d0f67","system_id":"levelo_inurba_marseille","lat":43.30245,"lon":5.39678,"is_reserved":false,"is_disabled":false,"rental_uris":{"android":"levelo://app?vid=a89fa4a5-d8a8-4ddc-8598-f264996d0f67","ios":"levelo://app?vid=a89fa4a5-d8a8-4ddc-8598-f264996d0f67"},"vehicle_type_id":"4","last_reported":1739214408,"current_range_meters":33600,"station_id":"","pricing_plan_id":"cebpf4jnsgd1na2vs0mg"},{"bike_id":"685a393f-51db-46f0-b2e2-fc7a6afd3cdf","system_id":"levelo_inurba_marseille","lat":43.28616,"lon":5.35096,"is_reserved":false,"is_disabled":false,"rental_uris":{"android":"levelo://app?vid=685a393f-51db-46f0-b2e2-fc7a6afd3cdf","ios":"levelo://app?vid=685a393f-51db-46f0-b2e2-fc7a6afd3cdf"},"vehicle_type_id":"4","last_reported":1739214408,"current_range_meters":38000,"station_id":"ce4bhch2rcd13ifvqeug","pricing_plan_id":"cebpf4jnsgd1na2vs0mg"},{"bike_id":"42f6888c-3643-42e5-9fcc-5e4081403a41","system_id":"levelo_inurba_marseille","lat":43.2954,"lon":5.37493,"is_reserved":false,"is_disabled":false,"rental_uris":{"android":"levelo://app?vid=42f6888c-3643-42e5-9fcc-5e4081403a41","ios":"levelo://app?vid=42f6888c-3643-42e5-9fcc-5e4081403a41"},"vehicle_type_id":"4","last_reported":1739214408,"current_range_meters":38800,"station_id":"ce4bgkp2rcd13ifvqbmg","pricing_plan_id":"cebpf4jnsgd1na2vs0mg"},{"bike_id":"d083bfc3-cca1-45dd-bf2a-a271ff65031c","system_id":"levelo_inurba_marseille","lat":43.30125,"lon":5.39872,"is_reserved":false,"is_disabled":false,"rental_uris":{"android":"levelo://app?vid=d083bfc3-cca1-45dd-bf2a-a271ff65031c","ios":"levelo://app?vid=d083bfc3-cca1-45dd-bf2a-a271ff65031c"},"vehicle_type_id":"4","last_reported":1739214408,"current_range_meters":38000,"station_id":"ce4bh0h2rcd13ifvqd40","pricing_plan_id":"cebpf4jnsgd1na2vs0mg"},{"bike_id":"3bb91385-514e-4bb7-bbc6-ce3aa19ccbeb","system_id":"levelo_inurba_marseille","lat":43.32005,"lon":5.38144,"is_reserved":false,"is_disabled":false,"rental_uris":{"android":"levelo://app?vid=3bb91385-514e-4bb7-bbc6-ce3aa19ccbeb","ios":"levelo://app?vid=3bb91385-514e-4bb7-bbc6-ce3aa19ccbeb"},"vehicle_type_id":"4","last_reported":1739214408,"current_range_meters":37600,"station_id":"ce4bhr12rcd13ifvqhpg","pricing_plan_id":"cebpf4jnsgd1na2vs0mg"},{"bike_id":"9f443121-e8ff-4aac-bc9a-d9077c8e664b","system_id":"levelo_inurba_marseille","lat":43.27068,"lon":5.42285,"is_reserved":false,"is_disabled":false,"rental_uris":{"android":"levelo://app?vid=9f443121-e8ff-4aac-bc9a-d9077c8e664b","ios":"levelo://app?vid=9f443121-e8ff-4aac-bc9a-d9077c8e664b"},"vehicle_type_id":"4","last_reported":1739214408,"current_range_meters":28800,"station_id":"ce4bhk92rcd13ifvqgb0","pricing_plan_id":"cebpf4jnsgd1na2vs0mg"},{"bike_id":"ca4ef645-a9d5-4dec-bc8e-46d920a6e7cd","system_id":"levelo_inurba_marseille","lat":43.31111,"lon":5.37778,"is_reserved":false,"is_disabled":false,"rental_uris":{"android":"levelo://app?vid=ca4ef645-a9d5-4dec-bc8e-46d920a6e7cd","ios":"levelo://app?vid=ca4ef645-a9d5-4dec-bc8e-46d920a6e7cd"},"vehicle_type_id":"4","last_reported":1739214408,"current_range_meters":36400,"station_id":"ce4bgt92rcd13ifvqcg0","pricing_plan_id":"cebpf4jnsgd1na2vs0mg"},{"bike_id":"fa0abcc5-4c29-4c27-86fa-d28160e71369","system_id":"levelo_inurba_marseille","lat":43.29697,"lon":5.36619,"is_reserved":false,"is_disabled":false,"rental_uris":{"android":"levelo://app?vid=fa0abcc5-4c29-4c27-86fa-d28160e71369","ios":"levelo://app?vid=fa0abcc5-4c29-4c27-86fa-d28160e71369"},"vehicle_type_id":"4","last_reported":1739214408,"current_range_meters":14800,"station_id":"ce4bgn12rcd13ifvqbt0","pricing_plan_id":"cebpf4jnsgd1na2vs0mg"},{"bike_id":"c03e3e74-2231-4470-8600-8fa32748c474","system_id":"levelo_inurba_marseille","lat":43.248033,"lon":5.374687,"is_reserved":false,"is_disabled":false,"rental_uris":{"android":"levelo://app?vid=c03e3e74-2231-4470-8600-8fa32748c474","ios":"levelo://app?vid=c03e3e74-2231-4470-8600-8fa32748c474"},"vehicle_type_id":"4","last_reported":1739214408,"current_range_meters":37600,"station_id":"ce4bhgh2rcd13ifvqfb0","pricing_plan_id":"cebpf4jnsgd1na2vs0mg"},{"bike_id":"4591023d-5c1e-434a-8f93-a035257c7caf","system_id":"levelo_inurba_marseille","lat":43.28357,"lon":5.38085,"is_reserved":false,"is_disabled":false,"rental_uris":{"android":"levelo://app?vid=4591023d-5c1e-434a-8f93-a035257c7caf","ios":"levelo://app?vid=4591023d-5c1e-434a-8f93-a035257c7caf"},"vehicle_type_id":"4","last_reported":1739214408,"current_range_meters":30000,"station_id":"ce4bh412rcd13ifvqdr0","pricing_plan_id":"cebpf4jnsgd1na2vs0mg"},{"bike_id":"c2250f20-2283-4e17-b7ce-382f2f740aa1","system_id":"levelo_inurba_marseille","lat":43.24803,"lon":5.37455,"is_reserved":false,"is_disabled":false,"rental_uris":{"android":"levelo://app?vid=c2250f20-2283-4e17-b7ce-382f2f740aa1","ios":"levelo://app?vid=c2250f20-2283-4e17-b7ce-382f2f740aa1"},"vehicle_type_id":"4","last_reported":1739214408,"current_range_meters":39200,"station_id":"ce4bhgh2rcd13ifvqfb0","pricing_plan_id":"cebpf4jnsgd1na2vs0mg"},{"bike_id":"f7ced9c3-6370-40fc-a614-5fd9d4c38a3c","system_id":"levelo_inurba_marseille","lat":43.30103,"lon":5.39849,"is_reserved":false,"is_disabled":false,"rental_uris":{"android":"levelo://app?vid=f7ced9c3-6370-40fc-a614-5fd9d4c38a3c","ios":"levelo://app?vid=f7ced9c3-6370-40fc-a614-5fd9d4c38a3c"},"vehicle_type_id":"4","last_reported":1739214408,"current_range_meters":11200,"station_id":"ce4bh0h2rcd13ifvqd40","pricing_plan_id":"cebpf4jnsgd1na2vs0mg"},{"bike_id":"8f11364b-ae78-4399-89f4-cd59e5a012e5","system_id":"levelo_inurba_marseille","lat":43.29415,"lon":5.38624,"is_reserved":false,"is_disabled":false,"rental_uris":{"android":"levelo://app?vid=8f11364b-ae78-4399-89f4-cd59e5a012e5","ios":"levelo://app?vid=8f11364b-ae78-4399-89f4-cd59e5a012e5"},"vehicle_type_id":"4","last_reported":1739214408,"current_range_meters":28400,"station_id":"ce4bh2h2rcd13ifvqdh0","pricing_plan_id":"cebpf4jnsgd1na2vs0mg"},{"bike_id":"2d2562e9-c5fe-467e-b336-8c8a98a4a277","system_id":"levelo_inurba_marseille","lat":43.29843,"lon":5.36271,"is_reserved":false,"is_disabled":false,"rental_uris":{"android":"levelo://app?vid=2d2562e9-c5fe-467e-b336-8c8a98a4a277","ios":"levelo://app?vid=2d2562e9-c5fe-467e-b336-8c8a98a4a277"},"vehicle_type_id":"4","last_reported":1739214408,"current_range_meters":28400,"station_id":"ce4bgpp2rcd13ifvqc3g","pricing_plan_id":"cebpf4jnsgd1na2vs0mg"},{"bike_id":"fdcb41f8-a4c8-462f-a3ed-fdbca4069024","system_id":"levelo_inurba_marseille","lat":43.28079,"lon":5.39639,"is_reserved":false,"is_disabled":false,"rental_uris":{"android":"levelo://app?vid=fdcb41f8-a4c8-462f-a3ed-fdbca4069024","ios":"levelo://app?vid=fdcb41f8-a4c8-462f-a3ed-fdbca4069024"},"vehicle_type_id":"4","last_reported":1739214408,"current_range_meters":39200,"station_id":"ce4bho12rcd13ifvqh2g","pricing_plan_id":"cebpf4jnsgd1na2vs0mg"},{"bike_id":"46364d9d-9e7c-4b5a-9d07-d05c87074a64","system_id":"levelo_inurba_marseille","lat":43.29531,"lon":5.39034,"is_reserved":false,"is_disabled":true,"rental_uris":{"android":"levelo://app?vid=46364d9d-9e7c-4b5a-9d07-d05c87074a64","ios":"levelo://app?vid=46364d9d-9e7c-4b5a-9d07-d05c87074a64"},"vehicle_type_id":"4","last_reported":1739214408,"current_range_meters":24000,"station_id":"ce4bh3p2rcd13ifvqdp0","pricing_plan_id":"cebpf4jnsgd1na2vs0mg"},{"bike_id":"a94cc64e-301c-439d-b1df-a149454ed1be","system_id":"levelo_inurba_marseille","lat":43.26569,"lon":5.3903,"is_reserved":false,"is_disabled":false,"rental_uris":{"android":"levelo://app?vid=a94cc64e-301c-439d-b1df-a149454ed1be","ios":"levelo://app?vid=a94cc64e-301c-439d-b1df-a149454ed1be"},"vehicle_type_id":"4","last_reported":1739214408,"current_range_meters":4800,"station_id":"ce4bhe12rcd13ifvqf30","pricing_plan_id":"cebpf4jnsgd1na2vs0mg"},{"bike_id":"afc17562-3144-48d4-9cc5-555f7f658280","system_id":"levelo_inurba_marseille","lat":43.23191,"lon":5.35551,"is_reserved":false,"is_disabled":false,"rental_uris":{"android":"levelo://app?vid=afc17562-3144-48d4-9cc5-555f7f658280","ios":"levelo://app?vid=afc17562-3144-48d4-9cc5-555f7f658280"},"vehicle_type_id":"4","last_reported":1739214408,"current_range_meters":18800,"station_id":"ce4bhu92rcd13ifvqi70","pricing_plan_id":"cebpf4jnsgd1na2vs0mg"},{"bike_id":"82334b89-57cc-4ad4-afea-97b4e7b8fd7b","system_id":"levelo_inurba_marseille","lat":43.28933,"lon":5.36618,"is_reserved":false,"is_disabled":false,"rental_uris":{"android":"levelo://app?vid=82334b89-57cc-4ad4-afea-97b4e7b8fd7b","ios":"levelo://app?vid=82334b89-57cc-4ad4-afea-97b4e7b8fd7b"},"vehicle_type_id":"4","last_reported":1739214408,"current_range_meters":26000,"station_id":"ce4bhap2rcd13ifvqek0","pricing_plan_id":"cebpf4jnsgd1na2vs0mg"},{"bike_id":"16e8f863-9556-471d-9735-d43e55a9579d","system_id":"levelo_inurba_marseille","lat":43.298436,"lon":5.362348,"is_reserved":false,"is_disabled":false,"rental_uris":{"android":"levelo://app?vid=16e8f863-9556-471d-9735-d43e55a9579d","ios":"levelo://app?vid=16e8f863-9556-471d-9735-d43e55a9579d"},"vehicle_type_id":"4","last_reported":1739214408,"current_range_meters":38800,"station_id":"ce4bgpp2rcd13ifvqc3g","pricing_plan_id":"cebpf4jnsgd1na2vs0mg"},{"bike_id":"aa11e593-fb23-42e8-ac9a-9189f6145ec1","system_id":"levelo_inurba_marseille","lat":43.29522,"lon":5.39049,"is_reserved":false,"is_disabled":false,"rental_uris":{"android":"levelo://app?vid=aa11e593-fb23-42e8-ac9a-9189f6145ec1","ios":"levelo://app?vid=aa11e593-fb23-42e8-ac9a-9189f6145ec1"},"vehicle_type_id":"4","last_reported":1739214408,"current_range_meters":10800,"station_id":"ce4bh3p2rcd13ifvqdp0","pricing_plan_id":"cebpf4jnsgd1na2vs0mg"},{"bike_id":"7778ab7e-867c-4916-9ab5-8e4d9b2f9cfc","system_id":"levelo_inurba_marseille","lat":43.28996,"lon":5.35613,"is_reserved":false,"is_disabled":false,"rental_uris":{"android":"levelo://app?vid=7778ab7e-867c-4916-9ab5-8e4d9b2f9cfc","ios":"levelo://app?vid=7778ab7e-867c-4916-9ab5-8e4d9b2f9cfc"},"vehicle_type_id":"4","last_reported":1739214408,"current_range_meters":34800,"station_id":"ce4bhb92rcd13ifvqen0","pricing_plan_id":"cebpf4jnsgd1na2vs0mg"},{"bike_id":"45479c0f-2892-464a-a2be-6260cfb508e6","system_id":"levelo_inurba_marseille","lat":43.29798,"lon":5.40412,"is_reserved":false,"is_disabled":false,"rental_uris":{"android":"levelo://app?vid=45479c0f-2892-464a-a2be-6260cfb508e6","ios":"levelo://app?vid=45479c0f-2892-464a-a2be-6260cfb508e6"},"vehicle_type_id":"4","last_reported":1739214408,"current_range_meters":29600,"station_id":"ce4bh112rcd13ifvqd90","pricing_plan_id":"cebpf4jnsgd1na2vs0mg"},{"bike_id":"cd26f47f-0d83-4954-b7ce-a41fa79ee461","system_id":"levelo_inurba_marseille","lat":43.28003,"lon":5.40008,"is_reserved":false,"is_disabled":false,"rental_uris":{"android":"levelo://app?vid=cd26f47f-0d83-4954-b7ce-a41fa79ee461","ios":"levelo://app?vid=cd26f47f-0d83-4954-b7ce-a41fa79ee461"},"vehicle_type_id":"4","last_reported":1739214408,"current_range_meters":36800,"station_id":"ce4bho92rcd13ifvqh4g","pricing_plan_id":"cebpf4jnsgd1na2vs0mg"},{"bike_id":"12886e97-e796-47ee-8132-238f166724e7","system_id":"levelo_inurba_marseille","lat":43.29971,"lon":5.38499,"is_reserved":false,"is_disabled":false,"rental_uris":{"android":"levelo://app?vid=12886e97-e796-47ee-8132-238f166724e7","ios":"levelo://app?vid=12886e97-e796-47ee-8132-238f166724e7"},"vehicle_type_id":"4","last_reported":1739214408,"current_range_meters":24400,"station_id":"ce4bgj92rcd13ifvqbd0","pricing_plan_id":"cebpf4jnsgd1na2vs0mg"},{"bike_id":"91c3c342-fc22-4947-b47f-1a2cc2e964fc","system_id":"levelo_inurba_marseille","lat":43.30434,"lon":5.38891,"is_reserved":false,"is_disabled":false,"rental_uris":{"android":"levelo://app?vid=91c3c342-fc22-4947-b47f-1a2cc2e964fc","ios":"levelo://app?vid=91c3c342-fc22-4947-b47f-1a2cc2e964fc"},"vehicle_type_id":"4","last_reported":1739214408,"current_range_meters":12400,"station_id":"ce4bgk12rcd13ifvqbi0","pricing_plan_id":"cebpf4jnsgd1na2vs0mg"},{"bike_id":"1d2000e3-6e82-4c8d-9a0a-5d8181e36eb3","system_id":"levelo_inurba_marseille","lat":43.250119,"lon":5.389156,"is_reserved":false,"is_disabled":false,"rental_uris":{"android":"levelo://app?vid=1d2000e3-6e82-4c8d-9a0a-5d8181e36eb3","ios":"levelo://app?vid=1d2000e3-6e82-4c8d-9a0a-5d8181e36eb3"},"vehicle_type_id":"4","last_reported":1739214408,"current_range_meters":9200,"station_id":"ce4bhgp2rcd13ifvqfd0","pricing_plan_id":"cebpf4jnsgd1na2vs0mg"},{"bike_id":"18de598c-8984-48ca-bcb3-e9d09f7b954c","system_id":"levelo_inurba_marseille","lat":43.28862,"lon":5.35869,"is_reserved":false,"is_disabled":false,"rental_uris":{"android":"levelo://app?vid=18de598c-8984-48ca-bcb3-e9d09f7b954c","ios":"levelo://app?vid=18de598c-8984-48ca-bcb3-e9d09f7b954c"},"vehicle_type_id":"4","last_reported":1739214408,"current_range_meters":27600,"station_id":"ce4bhb12rcd13ifvqem0","pricing_plan_id":"cebpf4jnsgd1na2vs0mg"},{"bike_id":"288ed061-f3af-4bd4-ae8f-737bd17d8ab1","system_id":"levelo_inurba_marseille","lat":43.317276,"lon":5.423883,"is_reserved":false,"is_disabled":false,"rental_uris":{"android":"levelo://app?vid=288ed061-f3af-4bd4-ae8f-737bd17d8ab1","ios":"levelo://app?vid=288ed061-f3af-4bd4-ae8f-737bd17d8ab1"},"vehicle_type_id":"4","last_reported":1739214408,"current_range_meters":38800,"station_id":"ce4bhp92rcd13ifvqhbg","pricing_plan_id":"cebpf4jnsgd1na2vs0mg"},{"bike_id":"ab056ecb-7c4d-4f3a-98d2-8a94e69e20b2","system_id":"levelo_inurba_marseille","lat":43.28616,"lon":5.35103,"is_reserved":false,"is_disabled":false,"rental_uris":{"android":"levelo://app?vid=ab056ecb-7c4d-4f3a-98d2-8a94e69e20b2","ios":"levelo://app?vid=ab056ecb-7c4d-4f3a-98d2-8a94e69e20b2"},"vehicle_type_id":"4","last_reported":1739214408,"current_range_meters":30000,"station_id":"ce4bhch2rcd13ifvqeug","pricing_plan_id":"cebpf4jnsgd1na2vs0mg"},{"bike_id":"943ba238-d366-46cc-a98f-ba2ce1a87934","system_id":"levelo_inurba_marseille","lat":43.28678,"lon":5.36349,"is_reserved":false,"is_disabled":false,"rental_uris":{"android":"levelo://app?vid=943ba238-d366-46cc-a98f-ba2ce1a87934","ios":"levelo://app?vid=943ba238-d366-46cc-a98f-ba2ce1a87934"},"vehicle_type_id":"4","last_reported":1739214408,"current_range_meters":18800,"station_id":"ce4bhah2rcd13ifvqej0","pricing_plan_id":"cebpf4jnsgd1na2vs0mg"},{"bike_id":"fa2608a9-4537-4ae6-9339-edc8bf27c042","system_id":"levelo_inurba_marseille","lat":43.287,"lon":5.37394,"is_reserved":false,"is_disabled":false,"rental_uris":{"android":"levelo://app?vid=fa2608a9-4537-4ae6-9339-edc8bf27c042","ios":"levelo://app?vid=fa2608a9-4537-4ae6-9339-edc8bf27c042"},"vehicle_type_id":"4","last_reported":1739214408,"current_range_meters":18000,"station_id":"ce4bh3p2rcd13ifvqdq0","pricing_plan_id":"cebpf4jnsgd1na2vs0mg"},{"bike_id":"e2da4da4-5227-4949-a6b3-778efa35e5e3","system_id":"levelo_inurba_marseille","lat":43.30532,"lon":5.38419,"is_reserved":false,"is_disabled":false,"rental_uris":{"android":"levelo://app?vid=e2da4da4-5227-4949-a6b3-778efa35e5e3","ios":"levelo://app?vid=e2da4da4-5227-4949-a6b3-778efa35e5e3"},"vehicle_type_id":"4","last_reported":1739214408,"current_range_meters":6000,"station_id":"ce4bgg92rcd13ifvqb30","pricing_plan_id":"cebpf4jnsgd1na2vs0mg"},{"bike_id":"79c27d1b-6e84-42bc-bef4-d8fc6ca0d19a","system_id":"levelo_inurba_marseille","lat":43.28698,"lon":5.40001,"is_reserved":false,"is_disabled":true,"rental_uris":{"android":"levelo://app?vid=79c27d1b-6e84-42bc-bef4-d8fc6ca0d19a","ios":"levelo://app?vid=79c27d1b-6e84-42bc-bef4-d8fc6ca0d19a"},"vehicle_type_id":"4","last_reported":1739214408,"current_range_meters":38800,"station_id":"ce4bho92rcd13ifvqh3g","pricing_plan_id":"cebpf4jnsgd1na2vs0mg"},{"bike_id":"d5a37605-4e0b-406c-a924-7ca9f964c4e0","system_id":"levelo_inurba_marseille","lat":43.24812,"lon":5.37466,"is_reserved":false,"is_disabled":false,"rental_uris":{"android":"levelo://app?vid=d5a37605-4e0b-406c-a924-7ca9f964c4e0","ios":"levelo://app?vid=d5a37605-4e0b-406c-a924-7ca9f964c4e0"},"vehicle_type_id":"4","last_reported":1739214408,"current_range_meters":28800,"station_id":"ce4bhgh2rcd13ifvqfb0","pricing_plan_id":"cebpf4jnsgd1na2vs0mg"},{"bike_id":"2f9906fe-0c89-4b86-a39b-e1b3d8114c06","system_id":"levelo_inurba_marseille","lat":43.28958,"lon":5.36643,"is_reserved":false,"is_disabled":false,"rental_uris":{"android":"levelo://app?vid=2f9906fe-0c89-4b86-a39b-e1b3d8114c06","ios":"levelo://app?vid=2f9906fe-0c89-4b86-a39b-e1b3d8114c06"},"vehicle_type_id":"4","last_reported":1739214408,"current_range_meters":17200,"station_id":"ce4bhap2rcd13ifvqek0","pricing_plan_id":"cebpf4jnsgd1na2vs0mg"},{"bike_id":"ddaf09b0-2c3b-4688-b484-14cdfe4165fc","system_id":"levelo_inurba_marseille","lat":43.28708,"lon":5.37403,"is_reserved":false,"is_disabled":false,"rental_uris":{"android":"levelo://app?vid=ddaf09b0-2c3b-4688-b484-14cdfe4165fc","ios":"levelo://app?vid=ddaf09b0-2c3b-4688-b484-14cdfe4165fc"},"vehicle_type_id":"4","last_reported":1739214408,"current_range_meters":24000,"station_id":"ce4bh3p2rcd13ifvqdq0","pricing_plan_id":"cebpf4jnsgd1na2vs0mg"},{"bike_id":"e87a8ee6-9ece-4cdf-9a1a-a4ecf7297724","system_id":"levelo_inurba_marseille","lat":43.29841,"lon":5.36255,"is_reserved":false,"is_disabled":false,"rental_uris":{"android":"levelo://app?vid=e87a8ee6-9ece-4cdf-9a1a-a4ecf7297724","ios":"levelo://app?vid=e87a8ee6-9ece-4cdf-9a1a-a4ecf7297724"},"vehicle_type_id":"4","last_reported":1739214408,"current_range_meters":13600,"station_id":"ce4bgpp2rcd13ifvqc3g","pricing_plan_id":"cebpf4jnsgd1na2vs0mg"},{"bike_id":"a97f3a8d-e1f7-4ede-af5a-b155aa57a80e","system_id":"levelo_inurba_marseille","lat":43.25575,"lon":5.3823,"is_reserved":false,"is_disabled":false,"rental_uris":{"android":"levelo://app?vid=a97f3a8d-e1f7-4ede-af5a-b155aa57a80e","ios":"levelo://app?vid=a97f3a8d-e1f7-4ede-af5a-b155aa57a80e"},"vehicle_type_id":"4","last_reported":1739214408,"current_range_meters":18000,"station_id":"ce4bhih2rcd13ifvqfs0","pricing_plan_id":"cebpf4jnsgd1na2vs0mg"},{"bike_id":"e7978a9e-c76d-49c3-b991-c2733ada93ec","system_id":"levelo_inurba_marseille","lat":43.26944,"lon":5.40248,"is_reserved":false,"is_disabled":false,"rental_uris":{"android":"levelo://app?vid=e7978a9e-c76d-49c3-b991-c2733ada93ec","ios":"levelo://app?vid=e7978a9e-c76d-49c3-b991-c2733ada93ec"},"vehicle_type_id":"4","last_reported":1739214408,"current_range_meters":38800,"station_id":"cjm6bp8fraef2m0cb0m0","pricing_plan_id":"cebpf4jnsgd1na2vs0mg"},{"bike_id":"07baf43e-fc57-48a3-beea-0bd26e095e21","system_id":"levelo_inurba_marseille","lat":43.29206,"lon":5.39289,"is_reserved":false,"is_disabled":false,"rental_uris":{"android":"levelo://app?vid=07baf43e-fc57-48a3-beea-0bd26e095e21","ios":"levelo://app?vid=07baf43e-fc57-48a3-beea-0bd26e095e21"},"vehicle_type_id":"4","last_reported":1739214408,"current_range_meters":25600,"station_id":"ce4bh192rcd13ifvqdd0","pricing_plan_id":"cebpf4jnsgd1na2vs0mg"},{"bike_id":"1af00a82-b32d-4f50-8686-c27833a37a2d","system_id":"levelo_inurba_marseille","lat":43.30318,"lon":5.4044,"is_reserved":false,"is_disabled":false,"rental_uris":{"android":"levelo://app?vid=1af00a82-b32d-4f50-8686-c27833a37a2d","ios":"levelo://app?vid=1af00a82-b32d-4f50-8686-c27833a37a2d"},"vehicle_type_id":"4","last_reported":1739214408,"current_range_meters":37600,"station_id":"ce4bh012rcd13ifvqd10","pricing_plan_id":"cebpf4jnsgd1na2vs0mg"},{"bike_id":"c4813b27-4250-43ea-8be5-ccd7321d2af3","system_id":"levelo_inurba_marseille","lat":43.28217,"lon":5.3698,"is_reserved":false,"is_disabled":false,"rental_uris":{"android":"levelo://app?vid=c4813b27-4250-43ea-8be5-ccd7321d2af3","ios":"levelo://app?vid=c4813b27-4250-43ea-8be5-ccd7321d2af3"},"vehicle_type_id":"4","last_reported":1739214408,"current_range_meters":25200,"station_id":"","pricing_plan_id":"cebpf4jnsgd1na2vs0mg"},{"bike_id":"aae1fcfc-1364-41ab-ba22-71fe1b9776a9","system_id":"levelo_inurba_marseille","lat":43.33595,"lon":5.41028,"is_reserved":false,"is_disabled":false,"rental_uris":{"android":"levelo://app?vid=aae1fcfc-1364-41ab-ba22-71fe1b9776a9","ios":"levelo://app?vid=aae1fcfc-1364-41ab-ba22-71fe1b9776a9"},"vehicle_type_id":"4","last_reported":1739214408,"current_range_meters":38800,"station_id":"ce4bhqh2rcd13ifvqhmg","pricing_plan_id":"cebpf4jnsgd1na2vs0mg"},{"bike_id":"db45b2ad-8e58-4df6-8875-abc370f12198","system_id":"levelo_inurba_marseille","lat":43.31749,"lon":5.39008,"is_reserved":false,"is_disabled":false,"rental_uris":{"android":"levelo://app?vid=db45b2ad-8e58-4df6-8875-abc370f12198","ios":"levelo://app?vid=db45b2ad-8e58-4df6-8875-abc370f12198"},"vehicle_type_id":"4","last_reported":1739214408,"current_range_meters":24800,"station_id":"ce4bhqp2rcd13ifvqhng","pricing_plan_id":"cebpf4jnsgd1na2vs0mg"},{"bike_id":"ffe019a4-07b4-49e3-a960-e2a7e381a04b","system_id":"levelo_inurba_marseille","lat":43.27936,"lon":5.41049,"is_reserved":false,"is_disabled":false,"rental_uris":{"android":"levelo://app?vid=ffe019a4-07b4-49e3-a960-e2a7e381a04b","ios":"levelo://app?vid=ffe019a4-07b4-49e3-a960-e2a7e381a04b"},"vehicle_type_id":"4","last_reported":1739214408,"current_range_meters":26000,"station_id":"ce4bhnp2rcd13ifvqh0g","pricing_plan_id":"cebpf4jnsgd1na2vs0mg"},{"bike_id":"30040434-0ce6-4639-9cfb-4b7e126d7c60","system_id":"levelo_inurba_marseille","lat":43.27494,"lon":5.42464,"is_reserved":false,"is_disabled":false,"rental_uris":{"android":"levelo://app?vid=30040434-0ce6-4639-9cfb-4b7e126d7c60","ios":"levelo://app?vid=30040434-0ce6-4639-9cfb-4b7e126d7c60"},"vehicle_type_id":"4","last_reported":1739214408,"current_range_meters":38800,"station_id":"ce4bhn92rcd13ifvqgrg","pricing_plan_id":"cebpf4jnsgd1na2vs0mg"},{"bike_id":"aa7bb233-c919-408b-89fe-8f1453cf10ff","system_id":"levelo_inurba_marseille","lat":43.30946,"lon":5.39037,"is_reserved":false,"is_disabled":false,"rental_uris":{"android":"levelo://app?vid=aa7bb233-c919-408b-89fe-8f1453cf10ff","ios":"levelo://app?vid=aa7bb233-c919-408b-89fe-8f1453cf10ff"},"vehicle_type_id":"4","last_reported":1739214408,"current_range_meters":6000,"station_id":"","pricing_plan_id":"cebpf4jnsgd1na2vs0mg"},{"bike_id":"88e80728-2653-4cc5-b165-3c0335fad05c","system_id":"levelo_inurba_marseille","lat":43.24804,"lon":5.37454,"is_reserved":false,"is_disabled":false,"rental_uris":{"android":"levelo://app?vid=88e80728-2653-4cc5-b165-3c0335fad05c","ios":"levelo://app?vid=88e80728-2653-4cc5-b165-3c0335fad05c"},"vehicle_type_id":"4","last_reported":1739214408,"current_range_meters":30400,"station_id":"ce4bhgh2rcd13ifvqfb0","pricing_plan_id":"cebpf4jnsgd1na2vs0mg"},{"bike_id":"addd07a1-34d8-46c5-813c-e5860355448f","system_id":"levelo_inurba_marseille","lat":43.28408,"lon":5.37525,"is_reserved":false,"is_disabled":false,"rental_uris":{"android":"levelo://app?vid=addd07a1-34d8-46c5-813c-e5860355448f","ios":"levelo://app?vid=addd07a1-34d8-46c5-813c-e5860355448f"},"vehicle_type_id":"4","last_reported":1739214408,"current_range_meters":30000,"station_id":"ce4bho92rcd13ifvqh3g","pricing_plan_id":"cebpf4jnsgd1na2vs0mg"},{"bike_id":"868bab58-7fb6-4926-8070-cd9a4296d6f1","system_id":"levelo_inurba_marseille","lat":43.28355,"lon":5.381,"is_reserved":false,"is_disabled":false,"rental_uris":{"android":"levelo://app?vid=868bab58-7fb6-4926-8070-cd9a4296d6f1","ios":"levelo://app?vid=868bab58-7fb6-4926-8070-cd9a4296d6f1"},"vehicle_type_id":"4","last_reported":1739214408,"current_range_meters":38000,"station_id":"ce4bh412rcd13ifvqdr0","pricing_plan_id":"cebpf4jnsgd1na2vs0mg"},{"bike_id":"ce4a7ce0-e12e-4e73-b43d-a872476e1c85","system_id":"levelo_inurba_marseille","lat":43.30921,"lon":5.40143,"is_reserved":false,"is_disabled":false,"rental_uris":{"android":"levelo://app?vid=ce4a7ce0-e12e-4e73-b43d-a872476e1c85","ios":"levelo://app?vid=ce4a7ce0-e12e-4e73-b43d-a872476e1c85"},"vehicle_type_id":"4","last_reported":1739214408,"current_range_meters":16800,"station_id":"ce4bgvp2rcd13ifvqct0","pricing_plan_id":"cebpf4jnsgd1na2vs0mg"},{"bike_id":"073d9682-66a7-4830-945d-815bd598d9e7","system_id":"levelo_inurba_marseille","lat":43.29784,"lon":5.38078,"is_reserved":false,"is_disabled":false,"rental_uris":{"android":"levelo://app?vid=073d9682-66a7-4830-945d-815bd598d9e7","ios":"levelo://app?vid=073d9682-66a7-4830-945d-815bd598d9e7"},"vehicle_type_id":"4","last_reported":1739214408,"current_range_meters":37600,"station_id":"ce4bgip2rcd13ifvqbb0","pricing_plan_id":"cebpf4jnsgd1na2vs0mg"},{"bike_id":"841e0f04-b00a-44de-83b7-b9b92c40d93b","system_id":"levelo_inurba_marseille","lat":43.28155,"lon":5.42651,"is_reserved":false,"is_disabled":false,"rental_uris":{"android":"levelo://app?vid=841e0f04-b00a-44de-83b7-b9b92c40d93b","ios":"levelo://app?vid=841e0f04-b00a-44de-83b7-b9b92c40d93b"},"vehicle_type_id":"4","last_reported":1739214408,"current_range_meters":17200,"station_id":"ce4bhnh2rcd13ifvqgug","pricing_plan_id":"cebpf4jnsgd1na2vs0mg"},{"bike_id":"4740ba17-16bf-4c07-b1cb-0cf663b53a6e","system_id":"levelo_inurba_marseille","lat":43.31112,"lon":5.37787,"is_reserved":false,"is_disabled":false,"rental_uris":{"android":"levelo://app?vid=4740ba17-16bf-4c07-b1cb-0cf663b53a6e","ios":"levelo://app?vid=4740ba17-16bf-4c07-b1cb-0cf663b53a6e"},"vehicle_type_id":"4","last_reported":1739214408,"current_range_meters":39200,"station_id":"ce4bgt92rcd13ifvqcg0","pricing_plan_id":"cebpf4jnsgd1na2vs0mg"},{"bike_id":"88379eaf-5a6d-4117-a07a-21ee5231369a","system_id":"levelo_inurba_marseille","lat":43.31532,"lon":5.38031,"is_reserved":false,"is_disabled":false,"rental_uris":{"android":"levelo://app?vid=88379eaf-5a6d-4117-a07a-21ee5231369a","ios":"levelo://app?vid=88379eaf-5a6d-4117-a07a-21ee5231369a"},"vehicle_type_id":"4","last_reported":1739214408,"current_range_meters":38800,"station_id":"ce4bhsp2rcd13ifvqi50","pricing_plan_id":"cebpf4jnsgd1na2vs0mg"},{"bike_id":"9fb1fd31-e5f8-4b71-b9b7-da1bc2cf47d2","system_id":"levelo_inurba_marseille","lat":43.26787,"lon":5.39414,"is_reserved":false,"is_disabled":false,"rental_uris":{"android":"levelo://app?vid=9fb1fd31-e5f8-4b71-b9b7-da1bc2cf47d2","ios":"levelo://app?vid=9fb1fd31-e5f8-4b71-b9b7-da1bc2cf47d2"},"vehicle_type_id":"4","last_reported":1739214408,"current_range_meters":30400,"station_id":"ce4bhh12rcd13ifvqfg0","pricing_plan_id":"cebpf4jnsgd1na2vs0mg"},{"bike_id":"73e31d25-afb3-49ff-b748-3fe454da947d","system_id":"levelo_inurba_marseille","lat":43.2894,"lon":5.366322,"is_reserved":false,"is_disabled":false,"rental_uris":{"android":"levelo://app?vid=73e31d25-afb3-49ff-b748-3fe454da947d","ios":"levelo://app?vid=73e31d25-afb3-49ff-b748-3fe454da947d"},"vehicle_type_id":"4","last_reported":1739214408,"current_range_meters":39200,"station_id":"ce4bhap2rcd13ifvqek0","pricing_plan_id":"cebpf4jnsgd1na2vs0mg"},{"bike_id":"b8cbd248-db62-4d84-b3a4-fd8e7e00f9d3","system_id":"levelo_inurba_marseille","lat":43.2803,"lon":5.36941,"is_reserved":false,"is_disabled":false,"rental_uris":{"android":"levelo://app?vid=b8cbd248-db62-4d84-b3a4-fd8e7e00f9d3","ios":"levelo://app?vid=b8cbd248-db62-4d84-b3a4-fd8e7e00f9d3"},"vehicle_type_id":"4","last_reported":1739214408,"current_range_meters":32800,"station_id":"ce4bha12rcd13ifvqef0","pricing_plan_id":"cebpf4jnsgd1na2vs0mg"},{"bike_id":"1ec14052-2d33-4aa1-9ab8-58cc71db74d1","system_id":"levelo_inurba_marseille","lat":43.241684,"lon":5.363956,"is_reserved":false,"is_disabled":false,"rental_uris":{"android":"levelo://app?vid=1ec14052-2d33-4aa1-9ab8-58cc71db74d1","ios":"levelo://app?vid=1ec14052-2d33-4aa1-9ab8-58cc71db74d1"},"vehicle_type_id":"4","last_reported":1739214408,"current_range_meters":18000,"station_id":"cpo36qri1sfpv3e86is0","pricing_plan_id":"cebpf4jnsgd1na2vs0mg"},{"bike_id":"6e99eac2-ce29-457d-b4dd-f5cd87e6b34c","system_id":"levelo_inurba_marseille","lat":43.28349,"lon":5.38099,"is_reserved":false,"is_disabled":false,"rental_uris":{"android":"levelo://app?vid=6e99eac2-ce29-457d-b4dd-f5cd87e6b34c","ios":"levelo://app?vid=6e99eac2-ce29-457d-b4dd-f5cd87e6b34c"},"vehicle_type_id":"4","last_reported":1739214408,"current_range_meters":39200,"station_id":"ce4bh412rcd13ifvqdr0","pricing_plan_id":"cebpf4jnsgd1na2vs0mg"},{"bike_id":"bc8ca8ab-4c8e-4772-a9ee-1943db886add","system_id":"levelo_inurba_marseille","lat":43.30461,"lon":5.37903,"is_reserved":false,"is_disabled":false,"rental_uris":{"android":"levelo://app?vid=bc8ca8ab-4c8e-4772-a9ee-1943db886add","ios":"levelo://app?vid=bc8ca8ab-4c8e-4772-a9ee-1943db886add"},"vehicle_type_id":"4","last_reported":1739214408,"current_range_meters":28000,"station_id":"ce4bgup2rcd13ifvqcn0","pricing_plan_id":"cebpf4jnsgd1na2vs0mg"},{"bike_id":"4ba3391c-b5f1-4387-b3a6-2a0da469e7d1","system_id":"levelo_inurba_marseille","lat":43.30873,"lon":5.39665,"is_reserved":false,"is_disabled":false,"rental_uris":{"android":"levelo://app?vid=4ba3391c-b5f1-4387-b3a6-2a0da469e7d1","ios":"levelo://app?vid=4ba3391c-b5f1-4387-b3a6-2a0da469e7d1"},"vehicle_type_id":"4","last_reported":1739214408,"current_range_meters":10000,"station_id":"ce4bh012rcd13ifvqcv0","pricing_plan_id":"cebpf4jnsgd1na2vs0mg"},{"bike_id":"1fc2e01a-39db-473e-9340-05e46c2bfee3","system_id":"levelo_inurba_marseille","lat":43.28576,"lon":5.39493,"is_reserved":false,"is_disabled":false,"rental_uris":{"android":"levelo://app?vid=1fc2e01a-39db-473e-9340-05e46c2bfee3","ios":"levelo://app?vid=1fc2e01a-39db-473e-9340-05e46c2bfee3"},"vehicle_type_id":"4","last_reported":1739214408,"current_range_meters":39200,"station_id":"ce4bh292rcd13ifvqdg0","pricing_plan_id":"cebpf4jnsgd1na2vs0mg"},{"bike_id":"609de531-9d7a-43f1-8281-bbda2a56fe01","system_id":"levelo_inurba_marseille","lat":43.30217,"lon":5.39474,"is_reserved":false,"is_disabled":true,"rental_uris":{"android":"levelo://app?vid=609de531-9d7a-43f1-8281-bbda2a56fe01","ios":"levelo://app?vid=609de531-9d7a-43f1-8281-bbda2a56fe01"},"vehicle_type_id":"4","last_reported":1739214408,"current_range_meters":0,"station_id":"ce4bgvp2rcd13ifvqct0","pricing_plan_id":"cebpf4jnsgd1na2vs0mg"},{"bike_id":"fbb98623-bd6f-4427-9463-8f7fc3b3bd20","system_id":"levelo_inurba_marseille","lat":43.28039,"lon":5.36937,"is_reserved":false,"is_disabled":false,"rental_uris":{"android":"levelo://app?vid=fbb98623-bd6f-4427-9463-8f7fc3b3bd20","ios":"levelo://app?vid=fbb98623-bd6f-4427-9463-8f7fc3b3bd20"},"vehicle_type_id":"4","last_reported":1739214408,"current_range_meters":32000,"station_id":"ce4bha12rcd13ifvqef0","pricing_plan_id":"cebpf4jnsgd1na2vs0mg"},{"bike_id":"c96f92a7-f6aa-4b72-bfcc-b3fd0520d382","system_id":"levelo_inurba_marseille","lat":43.26192,"lon":5.37445,"is_reserved":false,"is_disabled":false,"rental_uris":{"android":"levelo://app?vid=c96f92a7-f6aa-4b72-bfcc-b3fd0520d382","ios":"levelo://app?vid=c96f92a7-f6aa-4b72-bfcc-b3fd0520d382"},"vehicle_type_id":"4","last_reported":1739214408,"current_range_meters":38800,"station_id":"ce4bhgp2rcd13ifvqfc0","pricing_plan_id":"cebpf4jnsgd1na2vs0mg"},{"bike_id":"7ed0d402-b754-4ce0-9a11-53924e97981e","system_id":"levelo_inurba_marseille","lat":43.301466,"lon":5.39887,"is_reserved":false,"is_disabled":false,"rental_uris":{"android":"levelo://app?vid=7ed0d402-b754-4ce0-9a11-53924e97981e","ios":"levelo://app?vid=7ed0d402-b754-4ce0-9a11-53924e97981e"},"vehicle_type_id":"4","last_reported":1739214408,"current_range_meters":16000,"station_id":"ce4bh0h2rcd13ifvqd40","pricing_plan_id":"cebpf4jnsgd1na2vs0mg"},{"bike_id":"5d5b9d52-4005-4b8d-8e03-12940e9796d0","system_id":"levelo_inurba_marseille","lat":43.24065,"lon":5.37751,"is_reserved":false,"is_disabled":true,"rental_uris":{"android":"levelo://app?vid=5d5b9d52-4005-4b8d-8e03-12940e9796d0","ios":"levelo://app?vid=5d5b9d52-4005-4b8d-8e03-12940e9796d0"},"vehicle_type_id":"4","last_reported":1739214408,"current_range_meters":16400,"station_id":"ce4bhnp2rcd13ifvqgvg","pricing_plan_id":"cebpf4jnsgd1na2vs0mg"},{"bike_id":"e74edd37-0ec7-4f56-b77f-e7249fd01314","system_id":"levelo_inurba_marseille","lat":43.30583,"lon":5.36518,"is_reserved":false,"is_disabled":true,"rental_uris":{"android":"levelo://app?vid=e74edd37-0ec7-4f56-b77f-e7249fd01314","ios":"levelo://app?vid=e74edd37-0ec7-4f56-b77f-e7249fd01314"},"vehicle_type_id":"4","last_reported":1739214408,"current_range_meters":17600,"station_id":"ce4bgs12rcd13ifvqcag","pricing_plan_id":"cebpf4jnsgd1na2vs0mg"},{"bike_id":"d65a14c4-ecf3-4048-b05f-9a757ce2f182","system_id":"levelo_inurba_marseille","lat":43.246699,"lon":5.381685,"is_reserved":false,"is_disabled":false,"rental_uris":{"android":"levelo://app?vid=d65a14c4-ecf3-4048-b05f-9a757ce2f182","ios":"levelo://app?vid=d65a14c4-ecf3-4048-b05f-9a757ce2f182"},"vehicle_type_id":"4","last_reported":1739214408,"current_range_meters":38800,"station_id":"ce4bhih2rcd13ifvqfr0","pricing_plan_id":"cebpf4jnsgd1na2vs0mg"},{"bike_id":"30db7edd-65c7-44bd-b75f-c19d0961bc8f","system_id":"levelo_inurba_marseille","lat":43.27566,"lon":5.38415,"is_reserved":false,"is_disabled":true,"rental_uris":{"android":"levelo://app?vid=30db7edd-65c7-44bd-b75f-c19d0961bc8f","ios":"levelo://app?vid=30db7edd-65c7-44bd-b75f-c19d0961bc8f"},"vehicle_type_id":"4","last_reported":1739214408,"current_range_meters":400,"station_id":"ce4bhh92rcd13ifvqfi0","pricing_plan_id":"cebpf4jnsgd1na2vs0mg"},{"bike_id":"ca63d75f-d551-49cb-bec7-e060cadddd73","system_id":"levelo_inurba_marseille","lat":43.28088,"lon":5.44203,"is_reserved":false,"is_disabled":false,"rental_uris":{"android":"levelo://app?vid=ca63d75f-d551-49cb-bec7-e060cadddd73","ios":"levelo://app?vid=ca63d75f-d551-49cb-bec7-e060cadddd73"},"vehicle_type_id":"4","last_reported":1739214408,"current_range_meters":17600,"station_id":"","pricing_plan_id":"cebpf4jnsgd1na2vs0mg"},{"bike_id":"025dc20b-c498-44c1-a2a6-9ef3333caa40","system_id":"levelo_inurba_marseille","lat":43.28358,"lon":5.3863,"is_reserved":false,"is_disabled":false,"rental_uris":{"android":"levelo://app?vid=025dc20b-c498-44c1-a2a6-9ef3333caa40","ios":"levelo://app?vid=025dc20b-c498-44c1-a2a6-9ef3333caa40"},"vehicle_type_id":"4","last_reported":1739214408,"current_range_meters":38000,"station_id":"ce4bh492rcd13ifvqdvg","pricing_plan_id":"cebpf4jnsgd1na2vs0mg"},{"bike_id":"cc4b841e-39e1-4ccd-8cd9-e1cd20a21238","system_id":"levelo_inurba_marseille","lat":43.26568,"lon":5.39015,"is_reserved":false,"is_disabled":false,"rental_uris":{"android":"levelo://app?vid=cc4b841e-39e1-4ccd-8cd9-e1cd20a21238","ios":"levelo://app?vid=cc4b841e-39e1-4ccd-8cd9-e1cd20a21238"},"vehicle_type_id":"4","last_reported":1739214408,"current_range_meters":38800,"station_id":"ce4bhe12rcd13ifvqf30","pricing_plan_id":"cebpf4jnsgd1na2vs0mg"},{"bike_id":"11017eca-f9ec-4c55-9626-3a45d68bb196","system_id":"levelo_inurba_marseille","lat":43.27996,"lon":5.40027,"is_reserved":false,"is_disabled":false,"rental_uris":{"android":"levelo://app?vid=11017eca-f9ec-4c55-9626-3a45d68bb196","ios":"levelo://app?vid=11017eca-f9ec-4c55-9626-3a45d68bb196"},"vehicle_type_id":"4","last_reported":1739214408,"current_range_meters":28000,"station_id":"ce4bho92rcd13ifvqh4g","pricing_plan_id":"cebpf4jnsgd1na2vs0mg"},{"bike_id":"79d0b172-0217-44e3-bae8-123b0260e5bd","system_id":"levelo_inurba_marseille","lat":43.27564,"lon":5.38421,"is_reserved":false,"is_disabled":false,"rental_uris":{"android":"levelo://app?vid=79d0b172-0217-44e3-bae8-123b0260e5bd","ios":"levelo://app?vid=79d0b172-0217-44e3-bae8-123b0260e5bd"},"vehicle_type_id":"4","last_reported":1739214408,"current_range_meters":38000,"station_id":"ce4bhh92rcd13ifvqfi0","pricing_plan_id":"cebpf4jnsgd1na2vs0mg"},{"bike_id":"e5491c41-467c-40d9-b58c-33959b38346b","system_id":"levelo_inurba_marseille","lat":43.28732,"lon":5.36075,"is_reserved":false,"is_disabled":false,"rental_uris":{"android":"levelo://app?vid=e5491c41-467c-40d9-b58c-33959b38346b","ios":"levelo://app?vid=e5491c41-467c-40d9-b58c-33959b38346b"},"vehicle_type_id":"4","last_reported":1739214408,"current_range_meters":15200,"station_id":"cki0cbj6b192h4jlfktg","pricing_plan_id":"cebpf4jnsgd1na2vs0mg"},{"bike_id":"e1918a80-e061-48ff-a7f0-f6cb259b93c9","system_id":"levelo_inurba_marseille","lat":43.29516,"lon":5.39029,"is_reserved":false,"is_disabled":false,"rental_uris":{"android":"levelo://app?vid=e1918a80-e061-48ff-a7f0-f6cb259b93c9","ios":"levelo://app?vid=e1918a80-e061-48ff-a7f0-f6cb259b93c9"},"vehicle_type_id":"4","last_reported":1739214408,"current_range_meters":28000,"station_id":"ce4bh3p2rcd13ifvqdp0","pricing_plan_id":"cebpf4jnsgd1na2vs0mg"},{"bike_id":"f2a19d6d-1c3c-4ae5-a155-e51d34c1aabd","system_id":"levelo_inurba_marseille","lat":43.28557,"lon":5.39508,"is_reserved":false,"is_disabled":false,"rental_uris":{"android":"levelo://app?vid=f2a19d6d-1c3c-4ae5-a155-e51d34c1aabd","ios":"levelo://app?vid=f2a19d6d-1c3c-4ae5-a155-e51d34c1aabd"},"vehicle_type_id":"4","last_reported":1739214408,"current_range_meters":38000,"station_id":"ce4bh292rcd13ifvqdg0","pricing_plan_id":"cebpf4jnsgd1na2vs0mg"},{"bike_id":"118acaa8-c377-4759-a8f9-c3303973ef34","system_id":"levelo_inurba_marseille","lat":43.29871,"lon":5.38918,"is_reserved":false,"is_disabled":false,"rental_uris":{"android":"levelo://app?vid=118acaa8-c377-4759-a8f9-c3303973ef34","ios":"levelo://app?vid=118acaa8-c377-4759-a8f9-c3303973ef34"},"vehicle_type_id":"4","last_reported":1739214408,"current_range_meters":28000,"station_id":"ce4bh392rcd13ifvqdl0","pricing_plan_id":"cebpf4jnsgd1na2vs0mg"},{"bike_id":"0d691fd1-741e-4735-a4ee-de0461ccc453","system_id":"levelo_inurba_marseille","lat":43.287,"lon":5.37375,"is_reserved":false,"is_disabled":false,"rental_uris":{"android":"levelo://app?vid=0d691fd1-741e-4735-a4ee-de0461ccc453","ios":"levelo://app?vid=0d691fd1-741e-4735-a4ee-de0461ccc453"},"vehicle_type_id":"4","last_reported":1739214408,"current_range_meters":20400,"station_id":"ce4bh3p2rcd13ifvqdq0","pricing_plan_id":"cebpf4jnsgd1na2vs0mg"},{"bike_id":"009c85e4-baec-4633-b1b4-45e9257f05c1","system_id":"levelo_inurba_marseille","lat":43.28354,"lon":5.38098,"is_reserved":false,"is_disabled":false,"rental_uris":{"android":"levelo://app?vid=009c85e4-baec-4633-b1b4-45e9257f05c1","ios":"levelo://app?vid=009c85e4-baec-4633-b1b4-45e9257f05c1"},"vehicle_type_id":"4","last_reported":1739214408,"current_range_meters":36000,"station_id":"ce4bh412rcd13ifvqdr0","pricing_plan_id":"cebpf4jnsgd1na2vs0mg"},{"bike_id":"1578c83e-5788-4e45-b5b9-7c07f927503a","system_id":"levelo_inurba_marseille","lat":43.28701,"lon":5.37405,"is_reserved":false,"is_disabled":false,"rental_uris":{"android":"levelo://app?vid=1578c83e-5788-4e45-b5b9-7c07f927503a","ios":"levelo://app?vid=1578c83e-5788-4e45-b5b9-7c07f927503a"},"vehicle_type_id":"4","last_reported":1739214408,"current_range_meters":29600,"station_id":"ce4bh3p2rcd13ifvqdq0","pricing_plan_id":"cebpf4jnsgd1na2vs0mg"},{"bike_id":"50fdafd8-0e01-4c26-88cd-374400d9e0c2","system_id":"levelo_inurba_marseille","lat":43.29009,"lon":5.35614,"is_reserved":false,"is_disabled":false,"rental_uris":{"android":"levelo://app?vid=50fdafd8-0e01-4c26-88cd-374400d9e0c2","ios":"levelo://app?vid=50fdafd8-0e01-4c26-88cd-374400d9e0c2"},"vehicle_type_id":"4","last_reported":1739214408,"current_range_meters":22000,"station_id":"ce4bhb92rcd13ifvqen0","pricing_plan_id":"cebpf4jnsgd1na2vs0mg"},{"bike_id":"54ce597b-1ca1-4d62-923d-d4b29eec04b3","system_id":"levelo_inurba_marseille","lat":43.31131,"lon":5.38261,"is_reserved":false,"is_disabled":false,"rental_uris":{"android":"levelo://app?vid=54ce597b-1ca1-4d62-923d-d4b29eec04b3","ios":"levelo://app?vid=54ce597b-1ca1-4d62-923d-d4b29eec04b3"},"vehicle_type_id":"4","last_reported":1739214408,"current_range_meters":24400,"station_id":"","pricing_plan_id":"cebpf4jnsgd1na2vs0mg"},{"bike_id":"b4765ae2-b7fb-4718-bf68-ce7ba2c817f9","system_id":"levelo_inurba_marseille","lat":43.27065,"lon":5.42288,"is_reserved":false,"is_disabled":false,"rental_uris":{"android":"levelo://app?vid=b4765ae2-b7fb-4718-bf68-ce7ba2c817f9","ios":"levelo://app?vid=b4765ae2-b7fb-4718-bf68-ce7ba2c817f9"},"vehicle_type_id":"4","last_reported":1739214408,"current_range_meters":27200,"station_id":"ce4bhk92rcd13ifvqgb0","pricing_plan_id":"cebpf4jnsgd1na2vs0mg"},{"bike_id":"a208325e-37e5-4c4e-8da6-ada4810a13ed","system_id":"levelo_inurba_marseille","lat":43.26058,"lon":5.39397,"is_reserved":false,"is_disabled":false,"rental_uris":{"android":"levelo://app?vid=a208325e-37e5-4c4e-8da6-ada4810a13ed","ios":"levelo://app?vid=a208325e-37e5-4c4e-8da6-ada4810a13ed"},"vehicle_type_id":"4","last_reported":1739214408,"current_range_meters":38800,"station_id":"ce4bhh92rcd13ifvqfj0","pricing_plan_id":"cebpf4jnsgd1na2vs0mg"},{"bike_id":"28d378e6-36c4-4b00-a3bf-d0ec65a75739","system_id":"levelo_inurba_marseille","lat":43.28275,"lon":5.35083,"is_reserved":false,"is_disabled":false,"rental_uris":{"android":"levelo://app?vid=28d378e6-36c4-4b00-a3bf-d0ec65a75739","ios":"levelo://app?vid=28d378e6-36c4-4b00-a3bf-d0ec65a75739"},"vehicle_type_id":"4","last_reported":1739214408,"current_range_meters":18800,"station_id":"ce4bhbp2rcd13ifvqerg","pricing_plan_id":"cebpf4jnsgd1na2vs0mg"},{"bike_id":"7faccd19-6ae2-4866-8c91-895df7907f50","system_id":"levelo_inurba_marseille","lat":43.29847,"lon":5.36262,"is_reserved":false,"is_disabled":false,"rental_uris":{"android":"levelo://app?vid=7faccd19-6ae2-4866-8c91-895df7907f50","ios":"levelo://app?vid=7faccd19-6ae2-4866-8c91-895df7907f50"},"vehicle_type_id":"4","last_reported":1739214408,"current_range_meters":23200,"station_id":"ce4bgpp2rcd13ifvqc3g","pricing_plan_id":"cebpf4jnsgd1na2vs0mg"},{"bike_id":"54705e87-004e-43fb-b64a-f5f1a2ca3fc2","system_id":"levelo_inurba_marseille","lat":43.2942,"lon":5.38624,"is_reserved":false,"is_disabled":false,"rental_uris":{"android":"levelo://app?vid=54705e87-004e-43fb-b64a-f5f1a2ca3fc2","ios":"levelo://app?vid=54705e87-004e-43fb-b64a-f5f1a2ca3fc2"},"vehicle_type_id":"4","last_reported":1739214408,"current_range_meters":37600,"station_id":"ce4bh2h2rcd13ifvqdh0","pricing_plan_id":"cebpf4jnsgd1na2vs0mg"},{"bike_id":"743dd419-3f36-44d0-a974-005d309e12aa","system_id":"levelo_inurba_marseille","lat":43.3079,"lon":5.37651,"is_reserved":false,"is_disabled":false,"rental_uris":{"android":"levelo://app?vid=743dd419-3f36-44d0-a974-005d309e12aa","ios":"levelo://app?vid=743dd419-3f36-44d0-a974-005d309e12aa"},"vehicle_type_id":"4","last_reported":1739214408,"current_range_meters":3200,"station_id":"ce4bgv92rcd13ifvqcq0","pricing_plan_id":"cebpf4jnsgd1na2vs0mg"},{"bike_id":"aaf034b3-5bbe-4060-a0e5-a6ba3f8f5e93","system_id":"levelo_inurba_marseille","lat":43.28602,"lon":5.35094,"is_reserved":false,"is_disabled":false,"rental_uris":{"android":"levelo://app?vid=aaf034b3-5bbe-4060-a0e5-a6ba3f8f5e93","ios":"levelo://app?vid=aaf034b3-5bbe-4060-a0e5-a6ba3f8f5e93"},"vehicle_type_id":"4","last_reported":1739214408,"current_range_meters":28400,"station_id":"ce4bhch2rcd13ifvqeug","pricing_plan_id":"cebpf4jnsgd1na2vs0mg"},{"bike_id":"bda39e72-ee23-41e0-8f95-76382dd8148d","system_id":"levelo_inurba_marseille","lat":43.27302,"lon":5.39109,"is_reserved":false,"is_disabled":true,"rental_uris":{"android":"levelo://app?vid=bda39e72-ee23-41e0-8f95-76382dd8148d","ios":"levelo://app?vid=bda39e72-ee23-41e0-8f95-76382dd8148d"},"vehicle_type_id":"4","last_reported":1739214408,"current_range_meters":6400,"station_id":"ce4bhgp2rcd13ifvqfe0","pricing_plan_id":"cebpf4jnsgd1na2vs0mg"},{"bike_id":"cc3bfc99-823b-4058-a5c2-43d64b82c493","system_id":"levelo_inurba_marseille","lat":43.29214,"lon":5.39326,"is_reserved":false,"is_disabled":false,"rental_uris":{"android":"levelo://app?vid=cc3bfc99-823b-4058-a5c2-43d64b82c493","ios":"levelo://app?vid=cc3bfc99-823b-4058-a5c2-43d64b82c493"},"vehicle_type_id":"4","last_reported":1739214408,"current_range_meters":28000,"station_id":"ce4bh192rcd13ifvqdd0","pricing_plan_id":"cebpf4jnsgd1na2vs0mg"},{"bike_id":"a1292981-74f1-409d-9b26-02c19fb4e197","system_id":"levelo_inurba_marseille","lat":43.28931,"lon":5.38413,"is_reserved":false,"is_disabled":true,"rental_uris":{"android":"levelo://app?vid=a1292981-74f1-409d-9b26-02c19fb4e197","ios":"levelo://app?vid=a1292981-74f1-409d-9b26-02c19fb4e197"},"vehicle_type_id":"4","last_reported":1739214408,"current_range_meters":36400,"station_id":"ce4bh612rcd13ifvqe6g","pricing_plan_id":"cebpf4jnsgd1na2vs0mg"},{"bike_id":"4f430f20-f960-48c1-bbbb-d1029d0592cc","system_id":"levelo_inurba_marseille","lat":43.28093,"lon":5.37836,"is_reserved":false,"is_disabled":false,"rental_uris":{"android":"levelo://app?vid=4f430f20-f960-48c1-bbbb-d1029d0592cc","ios":"levelo://app?vid=4f430f20-f960-48c1-bbbb-d1029d0592cc"},"vehicle_type_id":"4","last_reported":1739214408,"current_range_meters":32400,"station_id":"ce4bha12rcd13ifvqee0","pricing_plan_id":"cebpf4jnsgd1na2vs0mg"},{"bike_id":"ec849b97-32e8-4538-a3ea-2e1cfc5ef6fe","system_id":"levelo_inurba_marseille","lat":43.28617,"lon":5.37065,"is_reserved":false,"is_disabled":false,"rental_uris":{"android":"levelo://app?vid=ec849b97-32e8-4538-a3ea-2e1cfc5ef6fe","ios":"levelo://app?vid=ec849b97-32e8-4538-a3ea-2e1cfc5ef6fe"},"vehicle_type_id":"4","last_reported":1739214408,"current_range_meters":38800,"station_id":"ce4bht12rcd13ifvqi60","pricing_plan_id":"cebpf4jnsgd1na2vs0mg"},{"bike_id":"0d06f8ed-583f-4925-acc0-af879bb23622","system_id":"levelo_inurba_marseille","lat":43.27774,"lon":5.39857,"is_reserved":false,"is_disabled":true,"rental_uris":{"android":"levelo://app?vid=0d06f8ed-583f-4925-acc0-af879bb23622","ios":"levelo://app?vid=0d06f8ed-583f-4925-acc0-af879bb23622"},"vehicle_type_id":"4","last_reported":1739214408,"current_range_meters":0,"station_id":"","pricing_plan_id":"cebpf4jnsgd1na2vs0mg"},{"bike_id":"e5a40a7c-80af-4a9c-8fb5-7c75b4f5b39c","system_id":"levelo_inurba_marseille","lat":43.28465,"lon":5.38404,"is_reserved":false,"is_disabled":false,"rental_uris":{"android":"levelo://app?vid=e5a40a7c-80af-4a9c-8fb5-7c75b4f5b39c","ios":"levelo://app?vid=e5a40a7c-80af-4a9c-8fb5-7c75b4f5b39c"},"vehicle_type_id":"4","last_reported":1739214408,"current_range_meters":38800,"station_id":"ce4bh512rcd13ifvqe3g","pricing_plan_id":"cebpf4jnsgd1na2vs0mg"},