{"last_updated":1700690738,"ttl":30,"version":"2.2","data":{"bikes":[{"bike_id":"4c1e0277-ce6e-4d4c-a4b0-c0645b9210da","system_id":"levelo_inurba_marseille","lat":43.31353,"lon":5.36819,"is_reserved":false,"is_disabled":false,"rental_uris":{"android":"levelo://app?vid=4c1e0277-ce6e-4d4c-a4b0-c0645b9210da","ios":"levelo://app?vid=4c1e0277-ce6e-4d4c-a4b0-c0645b9210da"},"vehicle_type_id":"4","last_reported":1700690739,"current_range_meters":0,"station_id":"","pricing_plan_id":"free"},{"bike_id":"95583d67-b9fc-4ff1-93fd-5e2fbf3996b7","system_id":"levelo_inurba_marseille","lat":43.31961,"lon":5.3706,"is_reserved":false,"is_disabled":false,"rental_uris":{"android":"levelo://app?vid=95583d67-b9fc-4ff1-93fd-5e2fbf3996b7","ios":"levelo://app?vid=95583d67-b9fc-4ff1-93fd-5e2fbf3996b7"},"vehicle_type_id":"4","last_reported":1700690739,"current_range_meters":0,"station_id":"","pricing_plan_id":"free"},{"bike_id":"30c5a8f0-2d73-444d-be65-776ebd8122a8","system_id":"levelo_inurba_marseille","lat":43.30548,"lon":5.37061,"is_reserved":false,"is_disabled":false,"rental_uris":{"android":"levelo://app?vid=30c5a8f0-2d73-444d-be65-776ebd8122a8","ios":"levelo://app?vid=30c5a8f0-2d73-444d-be65-776ebd8122a8"},"vehicle_type_id":"4","last_reported":1700690739,"current_range_meters":5600,"station_id":"","pricing_plan_id":"free"},{"bike_id":"dc8eed7b-f83a-4f39-a50e-6b8f478a13d1","system_id":"levelo_inurba_marseille","lat":43.30474,"lon":5.37259,"is_reserved":false,"is_disabled":false,"rental_uris":{"android":"levelo://app?vid=dc8eed7b-f83a-4f39-a50e-6b8f478a13d1","ios":"levelo://app?vid=dc8eed7b-f83a-4f39-a50e-6b8f478a13d1"},"vehicle_type_id":"4","last_reported":1700690739,"current_range_meters":5600,"station_id":"","pricing_plan_id":"free"},{"bike_id":"5a8f6f5e-ff3d-4048-9d79-1e3f9258e7bf","system_id":"levelo_inurba_marseille","lat":43.30194,"lon":5.36603,"is_reserved":false,"is_disabled":false,"rental_uris":{"android":"levelo://app?vid=5a8f6f5e-ff3d-4048-9d79-1e3f9258e7bf","ios":"levelo://app?vid=5a8f6f5e-ff3d-4048-9d79-1e3f9258e7bf"},"vehicle_type_id":"4","last_reported":1700690739,"current_range_meters":0,"station_id":"ce4bgrh2rcd13ifvqc8g","pricing_plan_id":"free"},{"bike_id":"0327687b-f51e-4077-bf49-2ec73a6de092","system_id":"levelo_inurba_marseille","lat":43.322343,"lon":5.375572,"is_reserved":false,"is_disabled":false,"rental_uris":{"android":"levelo://app?vid=0327687b-f51e-4077-bf49-2ec73a6de092","ios":"levelo://app?vid=0327687b-f51e-4077-bf49-2ec73a6de092"},"vehicle_type_id":"4","last_reported":1700690739,"current_range_meters":14400,"station_id":"","pricing_plan_id":"free"},{"bike_id":"a132ce1f-f4cc-4886-b3ff-56e092439e08","system_id":"levelo_inurba_marseille","lat":43.308012,"lon":5.381511,"is_reserved":false,"is_disabled":false,"rental_uris":{"android":"levelo://app?vid=a132ce1f-f4cc-4886-b3ff-56e092439e08","ios":"levelo://app?vid=a132ce1f-f4cc-4886-b3ff-56e092439e08"},"vehicle_type_id":"4","last_reported":1700690739,"current_range_meters":800,"station_id":"ce4bgt12rcd13ifvqce0","pricing_plan_id":"free"},{"bike_id":"89855ed3-ebb8-4004-816d-74cf1c3b2548","system_id":"levelo_inurba_marseille","lat":43.308012,"lon":5.381511,"is_reserved":false,"is_disabled":false,"rental_uris":{"android":"levelo://app?vid=89855ed3-ebb8-4004-816d-74cf1c3b2548","ios":"levelo://app?vid=89855ed3-ebb8-4004-816d-74cf1c3b2548"},"vehicle_type_id":"4","last_reported":1700690739,"current_range_meters":30000,"station_id":"ce4bgt12rcd13ifvqce0","pricing_plan_id":"free"},{"bike_id":"f3ec0a8a-edd7-41e7-a6d8-0b9892d8cd19","system_id":"levelo_inurba_marseille","lat":43.308012,"lon":5.381511,"is_reserved":false,"is_disabled":false,"rental_uris":{"android":"levelo://app?vid=f3ec0a8a-edd7-41e7-a6d8-0b9892d8cd19","ios":"levelo://app?vid=f3ec0a8a-edd7-41e7-a6d8-0b9892d8cd19"},"vehicle_type_id":"4","last_reported":1700690739,"current_range_meters":20400,"station_id":"ce4bgt12rcd13ifvqce0","pricing_plan_id":"free"},{"bike_id":"15ea25c3-144d-4407-8794-69bdcb28853b","system_id":"levelo_inurba_marseille","lat":43.304606,"lon":5.379026,"is_reserved":false,"is_disabled":false,"rental_uris":{"android":"levelo://app?vid=15ea25c3-144d-4407-8794-69bdcb28853b","ios":"levelo://app?vid=15ea25c3-144d-4407-8794-69bdcb28853b"},"vehicle_type_id":"4","last_reported":1700690739,"current_range_meters":5600,"station_id":"ce4bgup2rcd13ifvqcn0","pricing_plan_id":"free"},{"bike_id":"e1f90b01-0604-4c59-af36-22ea28ebe19c","system_id":"levelo_inurba_marseille","lat":43.313571,"lon":5.384829,"is_reserved":false,"is_disabled":false,"rental_uris":{"android":"levelo://app?vid=e1f90b01-0604-4c59-af36-22ea28ebe19c","ios":"levelo://app?vid=e1f90b01-0604-4c59-af36-22ea28ebe19c"},"vehicle_type_id":"4","last_reported":1700690739,"current_range_meters":15600,"station_id":"ce4bgt92rcd13ifvqcf0","pricing_plan_id":"free"},{"bike_id":"baec5395-b78d-4cb2-8182-3598b4d0adbc","system_id":"levelo_inurba_marseille","lat":43.313571,"lon":5.384829,"is_reserved":false,"is_disabled":false,"rental_uris":{"android":"levelo://app?vid=baec5395-b78d-4cb2-8182-3598b4d0adbc","ios":"levelo://app?vid=baec5395-b78d-4cb2-8182-3598b4d0adbc"},"vehicle_type_id":"4","last_reported":1700690739,"current_range_meters":24800,"station_id":"ce4bgt92rcd13ifvqcf0","pricing_plan_id":"free"},{"bike_id":"c9a43a87-4d67-4fef-a7da-eab0efd6b916","system_id":"levelo_inurba_marseille","lat":43.32241,"lon":5.37914,"is_reserved":false,"is_disabled":false,"rental_uris":{"android":"levelo://app?vid=c9a43a87-4d67-4fef-a7da-eab0efd6b916","ios":"levelo://app?vid=c9a43a87-4d67-4fef-a7da-eab0efd6b916"},"vehicle_type_id":"4","last_reported":1700690739,"current_range_meters":3600,"station_id":"","pricing_plan_id":"free"},{"bike_id":"06306a30-f1b7-4cb8-a165-d096623ac6a1","system_id":"levelo_inurba_marseille","lat":43.313571,"lon":5.384829,"is_reserved":false,"is_disabled":false,"rental_uris":{"android":"levelo://app?vid=06306a30-f1b7-4cb8-a165-d096623ac6a1","ios":"levelo://app?vid=06306a30-f1b7-4cb8-a165-d096623ac6a1"},"vehicle_type_id":"4","last_reported":1700690739,"current_range_meters":26800,"station_id":"ce4bgt92rcd13ifvqcf0","pricing_plan_id":"free"},{"bike_id":"24f98059-5e70-4dfd-84d9-3a79811b1466","system_id":"levelo_inurba_marseille","lat":43.299724,"lon":5.371829,"is_reserved":false,"is_disabled":false,"rental_uris":{"android":"levelo://app?vid=24f98059-5e70-4dfd-84d9-3a79811b1466","ios":"levelo://app?vid=24f98059-5e70-4dfd-84d9-3a79811b1466"},"vehicle_type_id":"4","last_reported":1700690739,"current_range_meters":8800,"station_id":"ce4bgr92rcd13ifvqc7g","pricing_plan_id":"free"},{"bike_id":"ecccd870-7cca-4f31-b3f8-ef0e39152835","system_id":"levelo_inurba_marseille","lat":43.305364,"lon":5.384119,"is_reserved":false,"is_disabled":false,"rental_uris":{"android":"levelo://app?vid=ecccd870-7cca-4f31-b3f8-ef0e39152835","ios":"levelo://app?vid=ecccd870-7cca-4f31-b3f8-ef0e39152835"},"vehicle_type_id":"4","last_reported":1700690739,"current_range_meters":18400,"station_id":"ce4bgg92rcd13ifvqb30","pricing_plan_id":"free"},{"bike_id":"77f87e4f-2d15-42d2-b04c-7fc136a4fabe","system_id":"levelo_inurba_marseille","lat":43.31179,"lon":5.38699,"is_reserved":false,"is_disabled":false,"rental_uris":{"android":"levelo://app?vid=77f87e4f-2d15-42d2-b04c-7fc136a4fabe","ios":"levelo://app?vid=77f87e4f-2d15-42d2-b04c-7fc136a4fabe"},"vehicle_type_id":"4","last_reported":1700690739,"current_range_meters":29200,"station_id":"ce4bgv12rcd13ifvqcp0","pricing_plan_id":"free"},{"bike_id":"2026ae8d-36a7-4580-b101-2fa7047d9bba","system_id":"levelo_inurba_marseille","lat":43.311722,"lon":5.387247,"is_reserved":false,"is_disabled":false,"rental_uris":{"android":"levelo://app?vid=2026ae8d-36a7-4580-b101-2fa7047d9bba","ios":"levelo://app?vid=2026ae8d-36a7-4580-b101-2fa7047d9bba"},"vehicle_type_id":"4","last_reported":1700690739,"current_range_meters":24400,"station_id":"ce4bgv12rcd13ifvqcp0","pricing_plan_id":"free"},{"bike_id":"dc441c2a-3f74-4e20-80f6-967cf7467ab4","system_id":"levelo_inurba_marseille","lat":43.311784,"lon":5.387074,"is_reserved":false,"is_disabled":false,"rental_uris":{"android":"levelo://app?vid=dc441c2a-3f74-4e20-80f6-967cf7467ab4","ios":"levelo://app?vid=dc441c2a-3f74-4e20-80f6-967cf7467ab4"},"vehicle_type_id":"4","last_reported":1700690739,"current_range_meters":30800,"station_id":"ce4bgv12rcd13ifvqcp0","pricing_plan_id":"free"},{"bike_id":"03e0becf-40b0-43bd-ba4f-e2faf9f10550","system_id":"levelo_inurba_marseille","lat":43.31161,"lon":5.38707,"is_reserved":false,"is_disabled":false,"rental_uris":{"android":"levelo://app?vid=03e0becf-40b0-43bd-ba4f-e2faf9f10550","ios":"levelo://app?vid=03e0becf-40b0-43bd-ba4f-e2faf9f10550"},"vehicle_type_id":"4","last_reported":1700690739,"current_range_meters":5600,"station_id":"ce4bgv12rcd13ifvqcp0","pricing_plan_id":"free"},{"bike_id":"e15eab79-e0c2-457d-9e57-8a409c6741a3","system_id":"levelo_inurba_marseille","lat":43.311722,"lon":5.387247,"is_reserved":false,"is_disabled":false,"rental_uris":{"android":"levelo://app?vid=e15eab79-e0c2-457d-9e57-8a409c6741a3","ios":"levelo://app?vid=e15eab79-e0c2-457d-9e57-8a409c6741a3"},"vehicle_type_id":"4","last_reported":1700690739,"current_range_meters":2400,"station_id":"ce4bgv12rcd13ifvqcp0","pricing_plan_id":"free"},{"bike_id":"847768e9-1d54-4361-bcad-883038e07816","system_id":"levelo_inurba_marseille","lat":43.299222,"lon":5.365554,"is_reserved":false,"is_disabled":false,"rental_uris":{"android":"levelo://app?vid=847768e9-1d54-4361-bcad-883038e07816","ios":"levelo://app?vid=847768e9-1d54-4361-bcad-883038e07816"},"vehicle_type_id":"4","last_reported":1700690739,"current_range_meters":6400,"station_id":"ce4bgm92rcd13ifvqbr0","pricing_plan_id":"free"},{"bike_id":"2bbe7e47-c74c-42a2-b394-028f509fe562","system_id":"levelo_inurba_marseille","lat":43.311722,"lon":5.387247,"is_reserved":false,"is_disabled":false,"rental_uris":{"android":"levelo://app?vid=2bbe7e47-c74c-42a2-b394-028f509fe562","ios":"levelo://app?vid=2bbe7e47-c74c-42a2-b394-028f509fe562"},"vehicle_type_id":"4","last_reported":1700690739,"current_range_meters":31200,"station_id":"ce4bgv12rcd13ifvqcp0","pricing_plan_id":"free"},{"bike_id":"fa7f0549-4686-4da7-ba4d-11ffb08e8bbe","system_id":"levelo_inurba_marseille","lat":43.311722,"lon":5.387247,"is_reserved":false,"is_disabled":false,"rental_uris":{"android":"levelo://app?vid=fa7f0549-4686-4da7-ba4d-11ffb08e8bbe","ios":"levelo://app?vid=fa7f0549-4686-4da7-ba4d-11ffb08e8bbe"},"vehicle_type_id":"4","last_reported":1700690739,"current_range_meters":14800,"station_id":"ce4bgv12rcd13ifvqcp0","pricing_plan_id":"free"},{"bike_id":"001501a0-4839-4ccf-ae0b-10af1dc787b5","system_id":"levelo_inurba_marseille","lat":43.311722,"lon":5.387247,"is_reserved":false,"is_disabled":false,"rental_uris":{"android":"levelo://app?vid=001501a0-4839-4ccf-ae0b-10af1dc787b5","ios":"levelo://app?vid=001501a0-4839-4ccf-ae0b-10af1dc787b5"},"vehicle_type_id":"4","last_reported":1700690739,"current_range_meters":28000,"station_id":"ce4bgv12rcd13ifvqcp0","pricing_plan_id":"free"},{"bike_id":"3ee05421-0c3e-41e9-8748-f66a91f59bec","system_id":"levelo_inurba_marseille","lat":43.311722,"lon":5.387247,"is_reserved":false,"is_disabled":false,"rental_uris":{"android":"levelo://app?vid=3ee05421-0c3e-41e9-8748-f66a91f59bec","ios":"levelo://app?vid=3ee05421-0c3e-41e9-8748-f66a91f59bec"},"vehicle_type_id":"4","last_reported":1700690739,"current_range_meters":31200,"station_id":"ce4bgv12rcd13ifvqcp0","pricing_plan_id":"free"},{"bike_id":"a640758e-0e34-493a-8172-b043759cb7c0","system_id":"levelo_inurba_marseille","lat":43.311722,"lon":5.387247,"is_reserved":false,"is_disabled":false,"rental_uris":{"android":"levelo://app?vid=a640758e-0e34-493a-8172-b043759cb7c0","ios":"levelo://app?vid=a640758e-0e34-493a-8172-b043759cb7c0"},"vehicle_type_id":"4","last_reported":1700690739,"current_range_meters":8400,"station_id":"ce4bgv12rcd13ifvqcp0","pricing_plan_id":"free"},{"bike_id":"2d5b232c-a1c7-4c04-9a21-6008eb039048","system_id":"levelo_inurba_marseille","lat":43.311672,"lon":5.387244,"is_reserved":false,"is_disabled":false,"rental_uris":{"android":"levelo://app?vid=2d5b232c-a1c7-4c04-9a21-6008eb039048","ios":"levelo://app?vid=2d5b232c-a1c7-4c04-9a21-6008eb039048"},"vehicle_type_id":"4","last_reported":1700690739,"current_range_meters":28000,"station_id":"ce4bgv12rcd13ifvqcp0","pricing_plan_id":"free"},{"bike_id":"dae1bdda-7fb1-4e55-99ca-c47c67199878","system_id":"levelo_inurba_marseille","lat":43.322872,"lon":5.382756,"is_reserved":false,"is_disabled":false,"rental_uris":{"android":"levelo://app?vid=dae1bdda-7fb1-4e55-99ca-c47c67199878","ios":"levelo://app?vid=dae1bdda-7fb1-4e55-99ca-c47c67199878"},"vehicle_type_id":"4","last_reported":1700690739,"current_range_meters":27200,"station_id":"ce4bhr12rcd13ifvqhqg","pricing_plan_id":"free"},{"bike_id":"dfae9b1a-03e1-4fc4-8e2a-2442e4091a91","system_id":"levelo_inurba_marseille","lat":43.322872,"lon":5.382756,"is_reserved":false,"is_disabled":false,"rental_uris":{"android":"levelo://app?vid=dfae9b1a-03e1-4fc4-8e2a-2442e4091a91","ios":"levelo://app?vid=dfae9b1a-03e1-4fc4-8e2a-2442e4091a91"},"vehicle_type_id":"4","last_reported":1700690739,"current_range_meters":28000,"station_id":"ce4bhr12rcd13ifvqhqg","pricing_plan_id":"free"},{"bike_id":"83ddb481-a269-484d-bb6c-2b6551d09a24","system_id":"levelo_inurba_marseille","lat":43.322872,"lon":5.382756,"is_reserved":false,"is_disabled":false,"rental_uris":{"android":"levelo://app?vid=83ddb481-a269-484d-bb6c-2b6551d09a24","ios":"levelo://app?vid=83ddb481-a269-484d-bb6c-2b6551d09a24"},"vehicle_type_id":"4","last_reported":1700690739,"current_range_meters":27600,"station_id":"ce4bhr12rcd13ifvqhqg","pricing_plan_id":"free"},{"bike_id":"41e752ae-b644-47ad-afd9-eb4d069b1b2a","system_id":"levelo_inurba_marseille","lat":43.322872,"lon":5.382756,"is_reserved":false,"is_disabled":false,"rental_uris":{"android":"levelo://app?vid=41e752ae-b644-47ad-afd9-eb4d069b1b2a","ios":"levelo://app?vid=41e752ae-b644-47ad-afd9-eb4d069b1b2a"},"vehicle_type_id":"4","last_reported":1700690739,"current_range_meters":2800,"station_id":"ce4bhr12rcd13ifvqhqg","pricing_plan_id":"free"},{"bike_id":"7f3b0f74-ec8d-430c-9db3-dadf1a213a41","system_id":"levelo_inurba_marseille","lat":43.328228,"lon":5.366763,"is_reserved":false,"is_disabled":false,"rental_uris":{"android":"levelo://app?vid=7f3b0f74-ec8d-430c-9db3-dadf1a213a41","ios":"levelo://app?vid=7f3b0f74-ec8d-430c-9db3-dadf1a213a41"},"vehicle_type_id":"4","last_reported":1700690739,"current_range_meters":1200,"station_id":"ce4bhs92rcd13ifvqi0g","pricing_plan_id":"free"},{"bike_id":"a7297794-acba-444e-8217-a06c912650c2","system_id":"levelo_inurba_marseille","lat":43.32828,"lon":5.36679,"is_reserved":false,"is_disabled":false,"rental_uris":{"android":"levelo://app?vid=a7297794-acba-444e-8217-a06c912650c2","ios":"levelo://app?vid=a7297794-acba-444e-8217-a06c912650c2"},"vehicle_type_id":"4","last_reported":1700690739,"current_range_meters":12800,"station_id":"ce4bhs92rcd13ifvqi0g","pricing_plan_id":"free"},{"bike_id":"4d7509f5-9559-42ca-a60d-bef9e80f0981","system_id":"levelo_inurba_marseille","lat":43.299584,"lon":5.379152,"is_reserved":false,"is_disabled":false,"rental_uris":{"android":"levelo://app?vid=4d7509f5-9559-42ca-a60d-bef9e80f0981","ios":"levelo://app?vid=4d7509f5-9559-42ca-a60d-bef9e80f0981"},"vehicle_type_id":"4","last_reported":1700690739,"current_range_meters":0,"station_id":"","pricing_plan_id":"free"},{"bike_id":"f2e29894-d678-42aa-87e5-1b70dec5c0b1","system_id":"levelo_inurba_marseille","lat":43.29634,"lon":5.36234,"is_reserved":false,"is_disabled":false,"rental_uris":{"android":"levelo://app?vid=f2e29894-d678-42aa-87e5-1b70dec5c0b1","ios":"levelo://app?vid=f2e29894-d678-42aa-87e5-1b70dec5c0b1"},"vehicle_type_id":"4","last_reported":1700690739,"current_range_meters":1200,"station_id":"","pricing_plan_id":"free"},{"bike_id":"cbe2f919-f1ff-4ce7-9b06-28e49273b272","system_id":"levelo_inurba_marseille","lat":43.297165,"lon":5.377008,"is_reserved":false,"is_disabled":false,"rental_uris":{"android":"levelo://app?vid=cbe2f919-f1ff-4ce7-9b06-28e49273b272","ios":"levelo://app?vid=cbe2f919-f1ff-4ce7-9b06-28e49273b272"},"vehicle_type_id":"4","last_reported":1700690739,"current_range_meters":21600,"station_id":"","pricing_plan_id":"free"},{"bike_id":"9fb402a7-7a41-4473-81d2-1fec663a6035","system_id":"levelo_inurba_marseille","lat":43.3056,"lon":5.38861,"is_reserved":false,"is_disabled":false,"rental_uris":{"android":"levelo://app?vid=9fb402a7-7a41-4473-81d2-1fec663a6035","ios":"levelo://app?vid=9fb402a7-7a41-4473-81d2-1fec663a6035"},"vehicle_type_id":"4","last_reported":1700690739,"current_range_meters":23200,"station_id":"","pricing_plan_id":"free"},{"bike_id":"210b9e27-0f4d-41b9-b73e-8bb0a657982f","system_id":"levelo_inurba_marseille","lat":43.317557,"lon":5.390173,"is_reserved":false,"is_disabled":false,"rental_uris":{"android":"levelo://app?vid=210b9e27-0f4d-41b9-b73e-8bb0a657982f","ios":"levelo://app?vid=210b9e27-0f4d-41b9-b73e-8bb0a657982f"},"vehicle_type_id":"4","last_reported":1700690739,"current_range_meters":6400,"station_id":"ce4bhqp2rcd13ifvqhng","pricing_plan_id":"free"},{"bike_id":"b27848e4-33cb-4b4f-a68d-1a26a65e216f","system_id":"levelo_inurba_marseille","lat":43.317557,"lon":5.390173,"is_reserved":false,"is_disabled":false,"rental_uris":{"android":"levelo://app?vid=b27848e4-33cb-4b4f-a68d-1a26a65e216f","ios":"levelo://app?vid=b27848e4-33cb-4b4f-a68d-1a26a65e216f"},"vehicle_type_id":"4","last_reported":1700690739,"current_range_meters":21200,"station_id":"ce4bhqp2rcd13ifvqhng","pricing_plan_id":"free"},{"bike_id":"19228a56-84c3-4db5-8731-44e7730ac2d2","system_id":"levelo_inurba_marseille","lat":43.304278,"lon":5.388868,"is_reserved":false,"is_disabled":false,"rental_uris":{"android":"levelo://app?vid=19228a56-84c3-4db5-8731-44e7730ac2d2","ios":"levelo://app?vid=19228a56-84c3-4db5-8731-44e7730ac2d2"},"vehicle_type_id":"4","last_reported":1700690739,"current_range_meters":14400,"station_id":"ce4bgk12rcd13ifvqbi0","pricing_plan_id":"free"},{"bike_id":"3059d4c1-3d42-4321-a339-0fea9a03ef82","system_id":"levelo_inurba_marseille","lat":43.328154,"lon":5.380034,"is_reserved":false,"is_disabled":false,"rental_uris":{"android":"levelo://app?vid=3059d4c1-3d42-4321-a339-0fea9a03ef82","ios":"levelo://app?vid=3059d4c1-3d42-4321-a339-0fea9a03ef82"},"vehicle_type_id":"4","last_reported":1700690739,"current_range_meters":0,"station_id":"","pricing_plan_id":"free"},{"bike_id":"7fe9b19e-9607-45ba-a00e-fc125a008887","system_id":"levelo_inurba_marseille","lat":43.296263,"lon":5.377094,"is_reserved":false,"is_disabled":false,"rental_uris":{"android":"levelo://app?vid=7fe9b19e-9607-45ba-a00e-fc125a008887","ios":"levelo://app?vid=7fe9b19e-9607-45ba-a00e-fc125a008887"},"vehicle_type_id":"4","last_reported":1700690739,"current_range_meters":28800,"station_id":"ce4bgi92rcd13ifvqb90","pricing_plan_id":"free"},{"bike_id":"6b621983-5e9e-42f7-990d-ad5a093820d2","system_id":"levelo_inurba_marseille","lat":43.293801,"lon":5.363066,"is_reserved":false,"is_disabled":false,"rental_uris":{"android":"levelo://app?vid=6b621983-5e9e-42f7-990d-ad5a093820d2","ios":"levelo://app?vid=6b621983-5e9e-42f7-990d-ad5a093820d2"},"vehicle_type_id":"4","last_reported":1700690739,"current_range_meters":10800,"station_id":"","pricing_plan_id":"free"},{"bike_id":"5c383bbc-e23a-4c99-be81-13881b3cfde9","system_id":"levelo_inurba_marseille","lat":43.32367,"lon":5.388836,"is_reserved":false,"is_disabled":false,"rental_uris":{"android":"levelo://app?vid=5c383bbc-e23a-4c99-be81-13881b3cfde9","ios":"levelo://app?vid=5c383bbc-e23a-4c99-be81-13881b3cfde9"},"vehicle_type_id":"4","last_reported":1700690739,"current_range_meters":3200,"station_id":"ce4bhqp2rcd13ifvqhog","pricing_plan_id":"free"},{"bike_id":"62f7d657-88ff-4619-9527-2c21dc2a5a9b","system_id":"levelo_inurba_marseille","lat":43.32367,"lon":5.388836,"is_reserved":false,"is_disabled":false,"rental_uris":{"android":"levelo://app?vid=62f7d657-88ff-4619-9527-2c21dc2a5a9b","ios":"levelo://app?vid=62f7d657-88ff-4619-9527-2c21dc2a5a9b"},"vehicle_type_id":"4","last_reported":1700690739,"current_range_meters":24400,"station_id":"ce4bhqp2rcd13ifvqhog","pricing_plan_id":"free"},{"bike_id":"4dc0759c-258e-4a17-bf3b-f920c48dd434","system_id":"levelo_inurba_marseille","lat":43.29589,"lon":5.381002,"is_reserved":false,"is_disabled":false,"rental_uris":{"android":"levelo://app?vid=4dc0759c-258e-4a17-bf3b-f920c48dd434","ios":"levelo://app?vid=4dc0759c-258e-4a17-bf3b-f920c48dd434"},"vehicle_type_id":"4","last_reported":1700690739,"current_range_meters":0,"station_id":"ce4bgl12rcd13ifvqbo0","pricing_plan_id":"free"},{"bike_id":"58f95cf0-4243-46fe-8c28-2a4238429858","system_id":"levelo_inurba_marseille","lat":43.293259,"lon":5.371586,"is_reserved":false,"is_disabled":false,"rental_uris":{"android":"levelo://app?vid=58f95cf0-4243-46fe-8c28-2a4238429858","ios":"levelo://app?vid=58f95cf0-4243-46fe-8c28-2a4238429858"},"vehicle_type_id":"4","last_reported":1700690739,"current_range_meters":14800,"station_id":"ce4bgh92rcd13ifvqb40","pricing_plan_id":"free"},{"bike_id":"deba6edb-54ad-459d-ac78-680168369e12","system_id":"levelo_inurba_marseille","lat":43.305994,"lon":5.393687,"is_reserved":false,"is_disabled":false,"rental_uris":{"android":"levelo://app?vid=deba6edb-54ad-459d-ac78-680168369e12","ios":"levelo://app?vid=deba6edb-54ad-459d-ac78-680168369e12"},"vehicle_type_id":"4","last_reported":1700690739,"current_range_meters":15600,"station_id":"ce4bh0p2rcd13ifvqd80","pricing_plan_id":"free"},{"bike_id":"4537e188-ea9b-40e8-9493-4dc57af5212e","system_id":"levelo_inurba_marseille","lat":43.291675,"lon":5.371583,"is_reserved":false,"is_disabled":false,"rental_uris":{"android":"levelo://app?vid=4537e188-ea9b-40e8-9493-4dc57af5212e","ios":"levelo://app?vid=4537e188-ea9b-40e8-9493-4dc57af5212e"},"vehicle_type_id":"4","last_reported":1700690739,"current_range_meters":4000,"station_id":"ce4bha92rcd13ifvqeh0","pricing_plan_id":"free"},{"bike_id":"5970f818-a641-453e-920e-dfb6e12d2190","system_id":"levelo_inurba_marseille","lat":43.291994,"lon":5.357886,"is_reserved":false,"is_disabled":false,"rental_uris":{"android":"levelo://app?vid=5970f818-a641-453e-920e-dfb6e12d2190","ios":"levelo://app?vid=5970f818-a641-453e-920e-dfb6e12d2190"},"vehicle_type_id":"4","last_reported":1700690739,"current_range_meters":15200,"station_id":"ce4bhb12rcd13ifvqel0","pricing_plan_id":"free"},{"bike_id":"a863eab0-733c-4120-8fde-897052015d4b","system_id":"levelo_inurba_marseille","lat":43.29193,"lon":5.35797,"is_reserved":false,"is_disabled":false,"rental_uris":{"android":"levelo://app?vid=a863eab0-733c-4120-8fde-897052015d4b","ios":"levelo://app?vid=a863eab0-733c-4120-8fde-897052015d4b"},"vehicle_type_id":"4","last_reported":1700690739,"current_range_meters":30800,"station_id":"ce4bhb12rcd13ifvqel0","pricing_plan_id":"free"},{"bike_id":"13e588f2-ad89-428d-9a4f-2a95fa86bfbd","system_id":"levelo_inurba_marseille","lat":43.313291,"lon":5.396838,"is_reserved":false,"is_disabled":false,"rental_uris":{"android":"levelo://app?vid=13e588f2-ad89-428d-9a4f-2a95fa86bfbd","ios":"levelo://app?vid=13e588f2-ad89-428d-9a4f-2a95fa86bfbd"},"vehicle_type_id":"4","last_reported":1700690739,"current_range_meters":1200,"station_id":"ce4bgvp2rcd13ifvqcu0","pricing_plan_id":"free"},{"bike_id":"68216e3e-776b-4384-8d1c-e21abbc6e86a","system_id":"levelo_inurba_marseille","lat":43.31329,"lon":5.39695,"is_reserved":false,"is_disabled":false,"rental_uris":{"android":"levelo://app?vid=68216e3e-776b-4384-8d1c-e21abbc6e86a","ios":"levelo://app?vid=68216e3e-776b-4384-8d1c-e21abbc6e86a"},"vehicle_type_id":"4","last_reported":1700690739,"current_range_meters":0,"station_id":"ce4bgvp2rcd13ifvqcu0","pricing_plan_id":"free"},{"bike_id":"904f8bd0-7710-4c98-8bb3-94215e3b8757","system_id":"levelo_inurba_marseille","lat":43.309038,"lon":5.396546,"is_reserved":false,"is_disabled":false,"rental_uris":{"android":"levelo://app?vid=904f8bd0-7710-4c98-8bb3-94215e3b8757","ios":"levelo://app?vid=904f8bd0-7710-4c98-8bb3-94215e3b8757"},"vehicle_type_id":"4","last_reported":1700690739,"current_range_meters":12400,"station_id":"ce4bh012rcd13ifvqcv0","pricing_plan_id":"free"},{"bike_id":"1d10a1b1-d55f-4279-928a-9c6858f32ca9","system_id":"levelo_inurba_marseille","lat":43.33211,"lon":5.38112,"is_reserved":false,"is_disabled":false,"rental_uris":{"android":"levelo://app?vid=1d10a1b1-d55f-4279-928a-9c6858f32ca9","ios":"levelo://app?vid=1d10a1b1-d55f-4279-928a-9c6858f32ca9"},"vehicle_type_id":"4","last_reported":1700690739,"current_range_meters":2000,"station_id":"","pricing_plan_id":"free"},{"bike_id":"ceda2171-3d7a-441b-80be-556839646e1b","system_id":"levelo_inurba_marseille","lat":43.313253,"lon":5.397097,"is_reserved":false,"is_disabled":false,"rental_uris":{"android":"levelo://app?vid=ceda2171-3d7a-441b-80be-556839646e1b","ios":"levelo://app?vid=ceda2171-3d7a-441b-80be-556839646e1b"},"vehicle_type_id":"4","last_reported":1700690739,"current_range_meters":12800,"station_id":"ce4bgvp2rcd13ifvqcu0","pricing_plan_id":"free"},{"bike_id":"72c45801-9f67-4715-a68c-9d452c4d62a7","system_id":"levelo_inurba_marseille","lat":43.290779,"lon":5.371482,"is_reserved":false,"is_disabled":false,"rental_uris":{"android":"levelo://app?vid=72c45801-9f67-4715-a68c-9d452c4d62a7","ios":"levelo://app?vid=72c45801-9f67-4715-a68c-9d452c4d62a7"},"vehicle_type_id":"4","last_reported":1700690739,"current_range_meters":13600,"station_id":"ce4bh5p2rcd13ifvqe4g","pricing_plan_id":"free"},{"bike_id":"437a57c6-c6cb-48f0-963d-8c440e415b6a","system_id":"levelo_inurba_marseille","lat":43.290624,"lon":5.359245,"is_reserved":false,"is_disabled":false,"rental_uris":{"android":"levelo://app?vid=437a57c6-c6cb-48f0-963d-8c440e415b6a","ios":"levelo://app?vid=437a57c6-c6cb-48f0-963d-8c440e415b6a"},"vehicle_type_id":"4","last_reported":1700690739,"current_range_meters":18400,"station_id":"ce4bha92rcd13ifvqeg0","pricing_plan_id":"free"},{"bike_id":"72ada303-76e5-4f0b-b042-714e6012b9fb","system_id":"levelo_inurba_marseille","lat":43.28947,"lon":5.36402,"is_reserved":false,"is_disabled":false,"rental_uris":{"android":"levelo://app?vid=72ada303-76e5-4f0b-b042-714e6012b9fb","ios":"levelo://app?vid=72ada303-76e5-4f0b-b042-714e6012b9fb"},"vehicle_type_id":"4","last_reported":1700690739,"current_range_meters":31200,"station_id":"ce4bhc92rcd13ifvqetg","pricing_plan_id":"free"},{"bike_id":"a3d84aeb-bfb8-4975-9289-f8b3480bfb68","system_id":"levelo_inurba_marseille","lat":43.289184,"lon":5.366408,"is_reserved":false,"is_disabled":false,"rental_uris":{"android":"levelo://app?vid=a3d84aeb-bfb8-4975-9289-f8b3480bfb68","ios":"levelo://app?vid=a3d84aeb-bfb8-4975-9289-f8b3480bfb68"},"vehicle_type_id":"4","last_reported":1700690739,"current_range_meters":28000,"station_id":"ce4bhap2rcd13ifvqek0","pricing_plan_id":"free"},{"bike_id":"6a3cddeb-d17a-4547-9d3d-36caf2e5ae2b","system_id":"levelo_inurba_marseille","lat":43.28945,"lon":5.363985,"is_reserved":false,"is_disabled":false,"rental_uris":{"android":"levelo://app?vid=6a3cddeb-d17a-4547-9d3d-36caf2e5ae2b","ios":"levelo://app?vid=6a3cddeb-d17a-4547-9d3d-36caf2e5ae2b"},"vehicle_type_id":"4","last_reported":1700690739,"current_range_meters":28000,"station_id":"ce4bhc92rcd13ifvqetg","pricing_plan_id":"free"},{"bike_id":"1b9be0df-6bc2-49c4-8916-e426734cf349","system_id":"levelo_inurba_marseille","lat":43.289184,"lon":5.366408,"is_reserved":false,"is_disabled":false,"rental_uris":{"android":"levelo://app?vid=1b9be0df-6bc2-49c4-8916-e426734cf349","ios":"levelo://app?vid=1b9be0df-6bc2-49c4-8916-e426734cf349"},"vehicle_type_id":"4","last_reported":1700690739,"current_range_meters":0,"station_id":"ce4bhap2rcd13ifvqek0","pricing_plan_id":"free"},{"bike_id":"6c01c779-81f9-4cde-8b2e-bf86635d021b","system_id":"levelo_inurba_marseille","lat":43.289468,"lon":5.363719,"is_reserved":false,"is_disabled":false,"rental_uris":{"android":"levelo://app?vid=6c01c779-81f9-4cde-8b2e-bf86635d021b","ios":"levelo://app?vid=6c01c779-81f9-4cde-8b2e-bf86635d021b"},"vehicle_type_id":"4","last_reported":1700690739,"current_range_meters":27600,"station_id":"ce4bhc92rcd13ifvqetg","pricing_plan_id":"free"},{"bike_id":"64f02728-04a9-4cd7-b450-35ef460b17ed","system_id":"levelo_inurba_marseille","lat":43.290103,"lon":5.356114,"is_reserved":false,"is_disabled":false,"rental_uris":{"android":"levelo://app?vid=64f02728-04a9-4cd7-b450-35ef460b17ed","ios":"levelo://app?vid=64f02728-04a9-4cd7-b450-35ef460b17ed"},"vehicle_type_id":"4","last_reported":1700690739,"current_range_meters":12800,"station_id":"ce4bhb92rcd13ifvqen0","pricing_plan_id":"free"},{"bike_id":"7b344b92-4b5f-46cd-b328-f74534784bb6","system_id":"levelo_inurba_marseille","lat":43.290104,"lon":5.356111,"is_reserved":false,"is_disabled":false,"rental_uris":{"android":"levelo://app?vid=7b344b92-4b5f-46cd-b328-f74534784bb6","ios":"levelo://app?vid=7b344b92-4b5f-46cd-b328-f74534784bb6"},"vehicle_type_id":"4","last_reported":1700690739,"current_range_meters":9600,"station_id":"ce4bhb92rcd13ifvqen0","pricing_plan_id":"free"},{"bike_id":"4dd68abc-e635-4976-86dc-bd12bb79ba1b","system_id":"levelo_inurba_marseille","lat":43.290104,"lon":5.356111,"is_reserved":false,"is_disabled":false,"rental_uris":{"android":"levelo://app?vid=4dd68abc-e635-4976-86dc-bd12bb79ba1b","ios":"levelo://app?vid=4dd68abc-e635-4976-86dc-bd12bb79ba1b"},"vehicle_type_id":"4","last_reported":1700690739,"current_range_meters":17200,"station_id":"ce4bhb92rcd13ifvqen0","pricing_plan_id":"free"},{"bike_id":"87e922ef-4a79-42b8-9c39-34e6fe4473cb","system_id":"levelo_inurba_marseille","lat":43.290104,"lon":5.356111,"is_reserved":false,"is_disabled":false,"rental_uris":{"android":"levelo://app?vid=87e922ef-4a79-42b8-9c39-34e6fe4473cb","ios":"levelo://app?vid=87e922ef-4a79-42b8-9c39-34e6fe4473cb"},"vehicle_type_id":"4","last_reported":1700690739,"current_range_meters":28400,"station_id":"ce4bhb92rcd13ifvqen0","pricing_plan_id":"free"},{"bike_id":"cef8b50d-e7ad-4698-8c7a-2ea1a9913cb2","system_id":"levelo_inurba_marseille","lat":43.290995,"lon":5.381361,"is_reserved":false,"is_disabled":false,"rental_uris":{"android":"levelo://app?vid=cef8b50d-e7ad-4698-8c7a-2ea1a9913cb2","ios":"levelo://app?vid=cef8b50d-e7ad-4698-8c7a-2ea1a9913cb2"},"vehicle_type_id":"4","last_reported":1700690739,"current_range_meters":23200,"station_id":"ce4bh512rcd13ifvqe2g","pricing_plan_id":"free"},{"bike_id":"f564083c-4638-4bae-8e7d-81f58e1c7fa6","system_id":"levelo_inurba_marseille","lat":43.29778,"lon":5.39331,"is_reserved":false,"is_disabled":false,"rental_uris":{"android":"levelo://app?vid=f564083c-4638-4bae-8e7d-81f58e1c7fa6","ios":"levelo://app?vid=f564083c-4638-4bae-8e7d-81f58e1c7fa6"},"vehicle_type_id":"4","last_reported":1700690739,"current_range_meters":16000,"station_id":"chh1huq6cuj3fo74tm60","pricing_plan_id":"free"},{"bike_id":"ce36fa40-2f60-411b-b5cb-b37003095da8","system_id":"levelo_inurba_marseille","lat":43.29519,"lon":5.39036,"is_reserved":false,"is_disabled":false,"rental_uris":{"android":"levelo://app?vid=ce36fa40-2f60-411b-b5cb-b37003095da8","ios":"levelo://app?vid=ce36fa40-2f60-411b-b5cb-b37003095da8"},"vehicle_type_id":"4","last_reported":1700690739,"current_range_meters":0,"station_id":"ce4bh3p2rcd13ifvqdp0","pricing_plan_id":"free"},{"bike_id":"c1fea479-088e-4172-b0cf-d67cd5cf838b","system_id":"levelo_inurba_marseille","lat":43.290094,"lon":5.381264,"is_reserved":false,"is_disabled":false,"rental_uris":{"android":"levelo://app?vid=c1fea479-088e-4172-b0cf-d67cd5cf838b","ios":"levelo://app?vid=c1fea479-088e-4172-b0cf-d67cd5cf838b"},"vehicle_type_id":"4","last_reported":1700690739,"current_range_meters":24000,"station_id":"ce4bh4p2rcd13ifvqe1g","pricing_plan_id":"free"},{"bike_id":"392ea356-77d8-484a-9cd5-166c78aef677","system_id":"levelo_inurba_marseille","lat":43.2901,"lon":5.381269,"is_reserved":false,"is_disabled":false,"rental_uris":{"android":"levelo://app?vid=392ea356-77d8-484a-9cd5-166c78aef677","ios":"levelo://app?vid=392ea356-77d8-484a-9cd5-166c78aef677"},"vehicle_type_id":"4","last_reported":1700690739,"current_range_meters":25600,"station_id":"ce4bh4p2rcd13ifvqe1g","pricing_plan_id":"free"},{"bike_id":"689fdb79-b3fd-4a2a-8733-3f0146b397d9","system_id":"levelo_inurba_marseille","lat":43.28856,"lon":5.358371,"is_reserved":false,"is_disabled":false,"rental_uris":{"android":"levelo://app?vid=689fdb79-b3fd-4a2a-8733-3f0146b397d9","ios":"levelo://app?vid=689fdb79-b3fd-4a2a-8733-3f0146b397d9"},"vehicle_type_id":"4","last_reported":1700690739,"current_range_meters":2000,"station_id":"ce4bhb12rcd13ifvqem0","pricing_plan_id":"free"},{"bike_id":"808a39ca-bdc2-41b8-82ba-3d362e0f37b9","system_id":"levelo_inurba_marseille","lat":43.28856,"lon":5.358371,"is_reserved":false,"is_disabled":false,"rental_uris":{"android":"levelo://app?vid=808a39ca-bdc2-41b8-82ba-3d362e0f37b9","ios":"levelo://app?vid=808a39ca-bdc2-41b8-82ba-3d362e0f37b9"},"vehicle_type_id":"4","last_reported":1700690739,"current_range_meters":26800,"station_id":"ce4bhb12rcd13ifvqem0","pricing_plan_id":"free"},{"bike_id":"0dbdce7b-ab52-4a46-b488-a48dcfcf3448","system_id":"levelo_inurba_marseille","lat":43.28856,"lon":5.358371,"is_reserved":false,"is_disabled":false,"rental_uris":{"android":"levelo://app?vid=0dbdce7b-ab52-4a46-b488-a48dcfcf3448","ios":"levelo://app?vid=0dbdce7b-ab52-4a46-b488-a48dcfcf3448"},"vehicle_type_id":"4","last_reported":1700690739,"current_range_meters":17600,"station_id":"ce4bhb12rcd13ifvqem0","pricing_plan_id":"free"},{"bike_id":"8b9fb102-f6b7-4fe2-9a97-697815f6f535","system_id":"levelo_inurba_marseille","lat":43.30931,"lon":5.40137,"is_reserved":false,"is_disabled":false,"rental_uris":{"android":"levelo://app?vid=8b9fb102-f6b7-4fe2-9a97-697815f6f535","ios":"levelo://app?vid=8b9fb102-f6b7-4fe2-9a97-697815f6f535"},"vehicle_type_id":"4","last_reported":1700690739,"current_range_meters":0,"station_id":"ce4bgvp2rcd13ifvqct0","pricing_plan_id":"free"},{"bike_id":"f0cdcc64-640d-42b3-ba53-51fc6339c184","system_id":"levelo_inurba_marseille","lat":43.31269,"lon":5.4017,"is_reserved":false,"is_disabled":false,"rental_uris":{"android":"levelo://app?vid=f0cdcc64-640d-42b3-ba53-51fc6339c184","ios":"levelo://app?vid=f0cdcc64-640d-42b3-ba53-51fc6339c184"},"vehicle_type_id":"4","last_reported":1700690739,"current_range_meters":0,"station_id":"ce4bh092rcd13ifvqd30","pricing_plan_id":"free"},{"bike_id":"64643d96-96bd-4fb1-843a-a510d2376739","system_id":"levelo_inurba_marseille","lat":43.309371,"lon":5.401449,"is_reserved":false,"is_disabled":false,"rental_uris":{"android":"levelo://app?vid=64643d96-96bd-4fb1-843a-a510d2376739","ios":"levelo://app?vid=64643d96-96bd-4fb1-843a-a510d2376739"},"vehicle_type_id":"4","last_reported":1700690739,"current_range_meters":9600,"station_id":"ce4bgvp2rcd13ifvqct0","pricing_plan_id":"free"},{"bike_id":"270eb9e6-481e-4a4c-8e8c-a2c821deae33","system_id":"levelo_inurba_marseille","lat":43.30642,"lon":5.401031,"is_reserved":false,"is_disabled":false,"rental_uris":{"android":"levelo://app?vid=270eb9e6-481e-4a4c-8e8c-a2c821deae33","ios":"levelo://app?vid=270eb9e6-481e-4a4c-8e8c-a2c821deae33"},"vehicle_type_id":"4","last_reported":1700690739,"current_range_meters":31200,"station_id":"ce4bh112rcd13ifvqda0","pricing_plan_id":"free"},{"bike_id":"25ee5b3a-cc3c-4fea-97c8-44c14f3b26e9","system_id":"levelo_inurba_marseille","lat":43.337515,"lon":5.37487,"is_reserved":false,"is_disabled":false,"rental_uris":{"android":"levelo://app?vid=25ee5b3a-cc3c-4fea-97c8-44c14f3b26e9","ios":"levelo://app?vid=25ee5b3a-cc3c-4fea-97c8-44c14f3b26e9"},"vehicle_type_id":"4","last_reported":1700690739,"current_range_meters":24000,"station_id":"","pricing_plan_id":"free"},{"bike_id":"8c89fdf2-41b5-4f72-af21-45b62dad1620","system_id":"levelo_inurba_marseille","lat":43.33759,"lon":5.37442,"is_reserved":false,"is_disabled":false,"rental_uris":{"android":"levelo://app?vid=8c89fdf2-41b5-4f72-af21-45b62dad1620","ios":"levelo://app?vid=8c89fdf2-41b5-4f72-af21-45b62dad1620"},"vehicle_type_id":"4","last_reported":1700690739,"current_range_meters":28400,"station_id":"","pricing_plan_id":"free"},{"bike_id":"df2e3781-5921-4106-8420-2b1f22c6b6d9","system_id":"levelo_inurba_marseille","lat":43.30648,"lon":5.40087,"is_reserved":false,"is_disabled":false,"rental_uris":{"android":"levelo://app?vid=df2e3781-5921-4106-8420-2b1f22c6b6d9","ios":"levelo://app?vid=df2e3781-5921-4106-8420-2b1f22c6b6d9"},"vehicle_type_id":"4","last_reported":1700690739,"current_range_meters":6800,"station_id":"ce4bh112rcd13ifvqda0","pricing_plan_id":"free"},{"bike_id":"8751f228-6216-4310-bae1-5e2fb77b1360","system_id":"levelo_inurba_marseille","lat":43.30642,"lon":5.401031,"is_reserved":false,"is_disabled":false,"rental_uris":{"android":"levelo://app?vid=8751f228-6216-4310-bae1-5e2fb77b1360","ios":"levelo://app?vid=8751f228-6216-4310-bae1-5e2fb77b1360"},"vehicle_type_id":"4","last_reported":1700690739,"current_range_meters":19200,"station_id":"ce4bh112rcd13ifvqda0","pricing_plan_id":"free"},{"bike_id":"86958b31-2db6-4ad8-bb7b-d755eba13bbb","system_id":"levelo_inurba_marseille","lat":43.337675,"lon":5.37423,"is_reserved":false,"is_disabled":false,"rental_uris":{"android":"levelo://app?vid=86958b31-2db6-4ad8-bb7b-d755eba13bbb","ios":"levelo://app?vid=86958b31-2db6-4ad8-bb7b-d755eba13bbb"},"vehicle_type_id":"4","last_reported":1700690739,"current_range_meters":13600,"station_id":"","pricing_plan_id":"free"},{"bike_id":"45c50b00-798d-4d73-a32e-8aa52fed9e79","system_id":"levelo_inurba_marseille","lat":43.33757,"lon":5.37489,"is_reserved":false,"is_disabled":false,"rental_uris":{"android":"levelo://app?vid=45c50b00-798d-4d73-a32e-8aa52fed9e79","ios":"levelo://app?vid=45c50b00-798d-4d73-a32e-8aa52fed9e79"},"vehicle_type_id":"4","last_reported":1700690739,"current_range_meters":29200,"station_id":"","pricing_plan_id":"free"},{"bike_id":"d96f9ebc-4b6d-4ee0-b216-f305d4b9c929","system_id":"levelo_inurba_marseille","lat":43.30642,"lon":5.401031,"is_reserved":false,"is_disabled":false,"rental_uris":{"android":"levelo://app?vid=d96f9ebc-4b6d-4ee0-b216-f305d4b9c929","ios":"levelo://app?vid=d96f9ebc-4b6d-4ee0-b216-f305d4b9c929"},"vehicle_type_id":"4","last_reported":1700690739,"current_range_meters":21600,"station_id":"ce4bh112rcd13ifvqda0","pricing_plan_id":"free"},{"bike_id":"1dc31cca-5f71-4a9e-a8f1-d3d67550d989","system_id":"levelo_inurba_marseille","lat":43.337671,"lon":5.3743,"is_reserved":false,"is_disabled":false,"rental_uris":{"android":"levelo://app?vid=1dc31cca-5f71-4a9e-a8f1-d3d67550d989","ios":"levelo://app?vid=1dc31cca-5f71-4a9e-a8f1-d3d67550d989"},"vehicle_type_id":"4","last_reported":1700690739,"current_range_meters":20400,"station_id":"","pricing_plan_id":"free"},{"bike_id":"d42732ee-3d1a-47b1-9598-db3afd7b4663","system_id":"levelo_inurba_marseille","lat":43.337676,"lon":5.374324,"is_reserved":false,"is_disabled":false,"rental_uris":{"android":"levelo://app?vid=d42732ee-3d1a-47b1-9598-db3afd7b4663","ios":"levelo://app?vid=d42732ee-3d1a-47b1-9598-db3afd7b4663"},"vehicle_type_id":"4","last_reported":1700690739,"current_range_meters":25200,"station_id":"","pricing_plan_id":"free"},{"bike_id":"59f380e2-3fad-41ca-819a-159561a0ca80","system_id":"levelo_inurba_marseille","lat":43.3377,"lon":5.374235,"is_reserved":false,"is_disabled":false,"rental_uris":{"android":"levelo://app?vid=59f380e2-3fad-41ca-819a-159561a0ca80","ios":"levelo://app?vid=59f380e2-3fad-41ca-819a-159561a0ca80"},"vehicle_type_id":"4","last_reported":1700690739,"current_range_meters":16800,"station_id":"","pricing_plan_id":"free"},{"bike_id":"c0b8d692-b079-4a31-a0b9-1d7932783ddb","system_id":"levelo_inurba_marseille","lat":43.30642,"lon":5.401031,"is_reserved":false,"is_disabled":false,"rental_uris":{"android":"levelo://app?vid=c0b8d692-b079-4a31-a0b9-1d7932783ddb","ios":"levelo://app?vid=c0b8d692-b079-4a31-a0b9-1d7932783ddb"},"vehicle_type_id":"4","last_reported":1700690739,"current_range_meters":23200,"station_id":"ce4bh112rcd13ifvqda0","pricing_plan_id":"free"},{"bike_id":"a5e23852-272e-4bf0-926f-90631096197d","system_id":"levelo_inurba_marseille","lat":43.3376,"lon":5.37493,"is_reserved":false,"is_disabled":false,"rental_uris":{"android":"levelo://app?vid=a5e23852-272e-4bf0-926f-90631096197d","ios":"levelo://app?vid=a5e23852-272e-4bf0-926f-90631096197d"},"vehicle_type_id":"4","last_reported":1700690739,"current_range_meters":20400,"station_id":"","pricing_plan_id":"free"},{"bike_id":"ca5f450e-15ff-4f17-88ea-e68935cedb16","system_id":"levelo_inurba_marseille","lat":43.337721,"lon":5.374325,"is_reserved":false,"is_disabled":false,"rental_uris":{"android":"levelo://app?vid=ca5f450e-15ff-4f17-88ea-e68935cedb16","ios":"levelo://app?vid=ca5f450e-15ff-4f17-88ea-e68935cedb16"},"vehicle_type_id":"4","last_reported":1700690739,"current_range_meters":28000,"station_id":"","pricing_plan_id":"free"},{"bike_id":"fab5338e-9acb-491a-b128-9f1e31759b3d","system_id":"levelo_inurba_marseille","lat":43.33773,"lon":5.37449,"is_reserved":false,"is_disabled":false,"rental_uris":{"android":"levelo://app?vid=fab5338e-9acb-491a-b128-9f1e31759b3d","ios":"levelo://app?vid=fab5338e-9acb-491a-b128-9f1e31759b3d"},"vehicle_type_id":"4","last_reported":1700690739,"current_range_meters":31200,"station_id":"","pricing_plan_id":"free"},{"bike_id":"97a59c97-9ff4-4dbd-887f-7559cc0fedda","system_id":"levelo_inurba_marseille","lat":43.30642,"lon":5.401031,"is_reserved":false,"is_disabled":false,"rental_uris":{"android":"levelo://app?vid=97a59c97-9ff4-4dbd-887f-7559cc0fedda","ios":"levelo://app?vid=97a59c97-9ff4-4dbd-887f-7559cc0fedda"},"vehicle_type_id":"4","last_reported":1700690739,"current_range_meters":30000,"station_id":"ce4bh112rcd13ifvqda0","pricing_plan_id":"free"},{"bike_id":"09be5a93-39fc-4416-b827-ef0e3eae0e7d","system_id":"levelo_inurba_marseille","lat":43.33783,"lon":5.3743,"is_reserved":false,"is_disabled":false,"rental_uris":{"android":"levelo://app?vid=09be5a93-39fc-4416-b827-ef0e3eae0e7d","ios":"levelo://app?vid=09be5a93-39fc-4416-b827-ef0e3eae0e7d"},"vehicle_type_id":"4","last_reported":1700690739,"current_range_meters":30400,"station_id":"","pricing_plan_id":"free"},{"bike_id":"f8283c4c-1785-4612-ae48-43b068645b8d","system_id":"levelo_inurba_marseille","lat":43.301356,"lon":5.398533,"is_reserved":false,"is_disabled":false,"rental_uris":{"android":"levelo://app?vid=f8283c4c-1785-4612-ae48-43b068645b8d","ios":"levelo://app?vid=f8283c4c-1785-4612-ae48-43b068645b8d"},"vehicle_type_id":"4","last_reported":1700690739,"current_range_meters":25200,"station_id":"ce4bh0h2rcd13ifvqd40","pricing_plan_id":"free"},{"bike_id":"a1b7055d-9f69-4b44-819d-02b956f45f34","system_id":"levelo_inurba_marseille","lat":43.30141,"lon":5.39876,"is_reserved":false,"is_disabled":false,"rental_uris":{"android":"levelo://app?vid=a1b7055d-9f69-4b44-819d-02b956f45f34","ios":"levelo://app?vid=a1b7055d-9f69-4b44-819d-02b956f45f34"},"vehicle_type_id":"4","last_reported":1700690739,"current_range_meters":19200,"station_id":"ce4bh0h2rcd13ifvqd40","pricing_plan_id":"free"},{"bike_id":"27951505-f3e8-451d-b70e-23dd4a98c0e6","system_id":"levelo_inurba_marseille","lat":43.28727,"lon":5.36078,"is_reserved":false,"is_disabled":false,"rental_uris":{"android":"levelo://app?vid=27951505-f3e8-451d-b70e-23dd4a98c0e6","ios":"levelo://app?vid=27951505-f3e8-451d-b70e-23dd4a98c0e6"},"vehicle_type_id":"4","last_reported":1700690739,"current_range_meters":30000,"station_id":"cki0cbj6b192h4jlfktg","pricing_plan_id":"free"},{"bike_id":"0670ffb1-321a-46b4-ad3f-9598b32a7978","system_id":"levelo_inurba_marseille","lat":43.28727,"lon":5.36078,"is_reserved":false,"is_disabled":false,"rental_uris":{"android":"levelo://app?vid=0670ffb1-321a-46b4-ad3f-9598b32a7978","ios":"levelo://app?vid=0670ffb1-321a-46b4-ad3f-9598b32a7978"},"vehicle_type_id":"4","last_reported":1700690739,"current_range_meters":30800,"station_id":"cki0cbj6b192h4jlfktg","pricing_plan_id":"free"},{"bike_id":"865564ce-ad30-434b-bc8f-875b16157905","system_id":"levelo_inurba_marseille","lat":43.30137,"lon":5.39881,"is_reserved":false,"is_disabled":false,"rental_uris":{"android":"levelo://app?vid=865564ce-ad30-434b-bc8f-875b16157905","ios":"levelo://app?vid=865564ce-ad30-434b-bc8f-875b16157905"},"vehicle_type_id":"4","last_reported":1700690739,"current_range_meters":5600,"station_id":"ce4bh0h2rcd13ifvqd40","pricing_plan_id":"free"},{"bike_id":"c894010b-e7c9-4e62-92bd-8934043cf5cc","system_id":"levelo_inurba_marseille","lat":43.286997,"lon":5.373741,"is_reserved":false,"is_disabled":false,"rental_uris":{"android":"levelo://app?vid=c894010b-e7c9-4e62-92bd-8934043cf5cc","ios":"levelo://app?vid=c894010b-e7c9-4e62-92bd-8934043cf5cc"},"vehicle_type_id":"4","last_reported":1700690739,"current_range_meters":6000,"station_id":"ce4bh3p2rcd13ifvqdq0","pricing_plan_id":"free"},{"bike_id":"9013eb03-7647-4086-a077-43792415f771","system_id":"levelo_inurba_marseille","lat":43.286593,"lon":5.363346,"is_reserved":false,"is_disabled":false,"rental_uris":{"android":"levelo://app?vid=9013eb03-7647-4086-a077-43792415f771","ios":"levelo://app?vid=9013eb03-7647-4086-a077-43792415f771"},"vehicle_type_id":"4","last_reported":1700690739,"current_range_meters":23600,"station_id":"ce4bhah2rcd13ifvqej0","pricing_plan_id":"free"},{"bike_id":"c250f602-5822-4311-a2cc-5ff9777de432","system_id":"levelo_inurba_marseille","lat":43.30237,"lon":5.40044,"is_reserved":false,"is_disabled":false,"rental_uris":{"android":"levelo://app?vid=c250f602-5822-4311-a2cc-5ff9777de432","ios":"levelo://app?vid=c250f602-5822-4311-a2cc-5ff9777de432"},"vehicle_type_id":"4","last_reported":1700690739,"current_range_meters":29200,"station_id":"ce4bgvh2rcd13ifvqcs0","pricing_plan_id":"free"},{"bike_id":"6feccec4-3a41-4e00-8570-737d0a4886a3","system_id":"levelo_inurba_marseille","lat":43.29029,"lon":5.38632,"is_reserved":false,"is_disabled":false,"rental_uris":{"android":"levelo://app?vid=6feccec4-3a41-4e00-8570-737d0a4886a3","ios":"levelo://app?vid=6feccec4-3a41-4e00-8570-737d0a4886a3"},"vehicle_type_id":"4","last_reported":1700690739,"current_range_meters":5200,"station_id":"ce4bh4p2rcd13ifvqe0g","pricing_plan_id":"free"},{"bike_id":"25268b72-03b2-4dc5-bc2e-17e07d3b03b9","system_id":"levelo_inurba_marseille","lat":43.29037,"lon":5.3865,"is_reserved":false,"is_disabled":false,"rental_uris":{"android":"levelo://app?vid=25268b72-03b2-4dc5-bc2e-17e07d3b03b9","ios":"levelo://app?vid=25268b72-03b2-4dc5-bc2e-17e07d3b03b9"},"vehicle_type_id":"4","last_reported":1700690739,"current_range_meters":7600,"station_id":"ce4bh4p2rcd13ifvqe0g","pricing_plan_id":"free"},{"bike_id":"41154852-7847-4cac-b3ae-9851b217d802","system_id":"levelo_inurba_marseille","lat":43.29036,"lon":5.38648,"is_reserved":false,"is_disabled":false,"rental_uris":{"android":"levelo://app?vid=41154852-7847-4cac-b3ae-9851b217d802","ios":"levelo://app?vid=41154852-7847-4cac-b3ae-9851b217d802"},"vehicle_type_id":"4","last_reported":1700690739,"current_range_meters":27600,"station_id":"ce4bh4p2rcd13ifvqe0g","pricing_plan_id":"free"},{"bike_id":"ee738bf3-dea5-466a-9422-d4093a4f06c5","system_id":"levelo_inurba_marseille","lat":43.29023,"lon":5.38633,"is_reserved":false,"is_disabled":false,"rental_uris":{"android":"levelo://app?vid=ee738bf3-dea5-466a-9422-d4093a4f06c5","ios":"levelo://app?vid=ee738bf3-dea5-466a-9422-d4093a4f06c5"},"vehicle_type_id":"4","last_reported":1700690739,"current_range_meters":11200,"station_id":"ce4bh4p2rcd13ifvqe0g","pricing_plan_id":"free"},{"bike_id":"118940f3-f302-4ad4-8c3c-b4b8779aff22","system_id":"levelo_inurba_marseille","lat":43.29028,"lon":5.386521,"is_reserved":false,"is_disabled":false,"rental_uris":{"android":"levelo://app?vid=118940f3-f302-4ad4-8c3c-b4b8779aff22","ios":"levelo://app?vid=118940f3-f302-4ad4-8c3c-b4b8779aff22"},"vehicle_type_id":"4","last_reported":1700690739,"current_range_meters":27600,"station_id":"ce4bh4p2rcd13ifvqe0g","pricing_plan_id":"free"},{"bike_id":"02a4d949-cc29-45f5-ba6d-8819ca42bb68","system_id":"levelo_inurba_marseille","lat":43.30238,"lon":5.40063,"is_reserved":false,"is_disabled":false,"rental_uris":{"android":"levelo://app?vid=02a4d949-cc29-45f5-ba6d-8819ca42bb68","ios":"levelo://app?vid=02a4d949-cc29-45f5-ba6d-8819ca42bb68"},"vehicle_type_id":"4","last_reported":1700690739,"current_range_meters":31200,"station_id":"ce4bgvh2rcd13ifvqcs0","pricing_plan_id":"free"},{"bike_id":"917472b3-1a27-452b-b3f3-ff1888a0633d","system_id":"levelo_inurba_marseille","lat":43.302759,"lon":5.400793,"is_reserved":false,"is_disabled":false,"rental_uris":{"android":"levelo://app?vid=917472b3-1a27-452b-b3f3-ff1888a0633d","ios":"levelo://app?vid=917472b3-1a27-452b-b3f3-ff1888a0633d"},"vehicle_type_id":"4","last_reported":1700690739,"current_range_meters":26000,"station_id":"ce4bgvh2rcd13ifvqcs0","pricing_plan_id":"free"},{"bike_id":"65546452-2c70-4ec6-bb34-a246e2f164d0","system_id":"levelo_inurba_marseille","lat":43.286039,"lon":5.370679,"is_reserved":false,"is_disabled":false,"rental_uris":{"android":"levelo://app?vid=65546452-2c70-4ec6-bb34-a246e2f164d0","ios":"levelo://app?vid=65546452-2c70-4ec6-bb34-a246e2f164d0"},"vehicle_type_id":"4","last_reported":1700690739,"current_range_meters":30400,"station_id":"ce4bht12rcd13ifvqi60","pricing_plan_id":"free"},{"bike_id":"183bbba1-c0a1-4803-b6ff-e51d8127386e","system_id":"levelo_inurba_marseille","lat":43.291994,"lon":5.392907,"is_reserved":false,"is_disabled":false,"rental_uris":{"android":"levelo://app?vid=183bbba1-c0a1-4803-b6ff-e51d8127386e","ios":"levelo://app?vid=183bbba1-c0a1-4803-b6ff-e51d8127386e"},"vehicle_type_id":"4","last_reported":1700690739,"current_range_meters":19200,"station_id":"ce4bh192rcd13ifvqdd0","pricing_plan_id":"free"},{"bike_id":"13c1b185-534d-4636-9da3-ce7434263ebd","system_id":"levelo_inurba_marseille","lat":43.291994,"lon":5.392907,"is_reserved":false,"is_disabled":false,"rental_uris":{"android":"levelo://app?vid=13c1b185-534d-4636-9da3-ce7434263ebd","ios":"levelo://app?vid=13c1b185-534d-4636-9da3-ce7434263ebd"},"vehicle_type_id":"4","last_reported":1700690739,"current_range_meters":20400,"station_id":"ce4bh192rcd13ifvqdd0","pricing_plan_id":"free"},{"bike_id":"6c11b470-c7fe-459e-9fd9-32373713a49a","system_id":"levelo_inurba_marseille","lat":43.291994,"lon":5.392907,"is_reserved":false,"is_disabled":false,"rental_uris":{"android":"levelo://app?vid=6c11b470-c7fe-459e-9fd9-32373713a49a","ios":"levelo://app?vid=6c11b470-c7fe-459e-9fd9-32373713a49a"},"vehicle_type_id":"4","last_reported":1700690739,"current_range_meters":18800,"station_id":"ce4bh192rcd13ifvqdd0","pricing_plan_id":"free"},{"bike_id":"d8f33a78-30b6-4989-90bc-32dbc29c5ac2","system_id":"levelo_inurba_marseille","lat":43.291994,"lon":5.392907,"is_reserved":false,"is_disabled":false,"rental_uris":{"android":"levelo://app?vid=d8f33a78-30b6-4989-90bc-32dbc29c5ac2","ios":"levelo://app?vid=d8f33a78-30b6-4989-90bc-32dbc29c5ac2"},"vehicle_type_id":"4","last_reported":1700690739,"current_range_meters":18800,"station_id":"ce4bh192rcd13ifvqdd0","pricing_plan_id":"free"},{"bike_id":"adbd441f-44c4-4168-877a-9278b4bd7ceb","system_id":"levelo_inurba_marseille","lat":43.331047,"lon":5.397233,"is_reserved":false,"is_disabled":false,"rental_uris":{"android":"levelo://app?vid=adbd441f-44c4-4168-877a-9278b4bd7ceb","ios":"levelo://app?vid=adbd441f-44c4-4168-877a-9278b4bd7ceb"},"vehicle_type_id":"4","last_reported":1700690739,"current_range_meters":17600,"station_id":"","pricing_plan_id":"free"},{"bike_id":"a95e8afb-b540-4aea-a080-72fac2b488c2","system_id":"levelo_inurba_marseille","lat":43.284538,"lon":5.358657,"is_reserved":false,"is_disabled":false,"rental_uris":{"android":"levelo://app?vid=a95e8afb-b540-4aea-a080-72fac2b488c2","ios":"levelo://app?vid=a95e8afb-b540-4aea-a080-72fac2b488c2"},"vehicle_type_id":"4","last_reported":1700690739,"current_range_meters":2800,"station_id":"ce4bhah2rcd13ifvqei0","pricing_plan_id":"free"},{"bike_id":"c25fc4bb-14a0-44ce-b333-a6d7fce8da06","system_id":"levelo_inurba_marseille","lat":43.284538,"lon":5.358657,"is_reserved":false,"is_disabled":false,"rental_uris":{"android":"levelo://app?vid=c25fc4bb-14a0-44ce-b333-a6d7fce8da06","ios":"levelo://app?vid=c25fc4bb-14a0-44ce-b333-a6d7fce8da06"},"vehicle_type_id":"4","last_reported":1700690739,"current_range_meters":26000,"station_id":"ce4bhah2rcd13ifvqei0","pricing_plan_id":"free"},{"bike_id":"d51cae8e-15fe-4a5e-b95d-ee0a57cb71aa","system_id":"levelo_inurba_marseille","lat":43.284538,"lon":5.358657,"is_reserved":false,"is_disabled":false,"rental_uris":{"android":"levelo://app?vid=d51cae8e-15fe-4a5e-b95d-ee0a57cb71aa","ios":"levelo://app?vid=d51cae8e-15fe-4a5e-b95d-ee0a57cb71aa"},"vehicle_type_id":"4","last_reported":1700690739,"current_range_meters":28000,"station_id":"ce4bhah2rcd13ifvqei0","pricing_plan_id":"free"},{"bike_id":"bbb4904c-3fc8-4581-ba65-cd8b270e3f1d","system_id":"levelo_inurba_marseille","lat":43.284538,"lon":5.358657,"is_reserved":false,"is_disabled":false,"rental_uris":{"android":"levelo://app?vid=bbb4904c-3fc8-4581-ba65-cd8b270e3f1d","ios":"levelo://app?vid=bbb4904c-3fc8-4581-ba65-cd8b270e3f1d"},"vehicle_type_id":"4","last_reported":1700690739,"current_range_meters":31200,"station_id":"ce4bhah2rcd13ifvqei0","pricing_plan_id":"free"},{"bike_id":"14292c34-c46d-453b-97d5-7ee87436d615","system_id":"levelo_inurba_marseille","lat":43.28464,"lon":5.35874,"is_reserved":false,"is_disabled":false,"rental_uris":{"android":"levelo://app?vid=14292c34-c46d-453b-97d5-7ee87436d615","ios":"levelo://app?vid=14292c34-c46d-453b-97d5-7ee87436d615"},"vehicle_type_id":"4","last_reported":1700690739,"current_range_meters":26400,"station_id":"ce4bhah2rcd13ifvqei0","pricing_plan_id":"free"},{"bike_id":"ffc08047-0a33-41d8-b89f-3890d2b8ea1a","system_id":"levelo_inurba_marseille","lat":43.284606,"lon":5.358919,"is_reserved":false,"is_disabled":false,"rental_uris":{"android":"levelo://app?vid=ffc08047-0a33-41d8-b89f-3890d2b8ea1a","ios":"levelo://app?vid=ffc08047-0a33-41d8-b89f-3890d2b8ea1a"},"vehicle_type_id":"4","last_reported":1700690739,"current_range_meters":31200,"station_id":"ce4bhah2rcd13ifvqei0","pricing_plan_id":"free"},{"bike_id":"d36cd543-40d7-4d76-a897-5a773493c1d4","system_id":"levelo_inurba_marseille","lat":43.284538,"lon":5.358657,"is_reserved":false,"is_disabled":false,"rental_uris":{"android":"levelo://app?vid=d36cd543-40d7-4d76-a897-5a773493c1d4","ios":"levelo://app?vid=d36cd543-40d7-4d76-a897-5a773493c1d4"},"vehicle_type_id":"4","last_reported":1700690739,"current_range_meters":17600,"station_id":"ce4bhah2rcd13ifvqei0","pricing_plan_id":"free"},{"bike_id":"d2604030-81b2-431c-ab42-4a9c0c2e1bb8","system_id":"levelo_inurba_marseille","lat":43.28459,"lon":5.35885,"is_reserved":false,"is_disabled":false,"rental_uris":{"android":"levelo://app?vid=d2604030-81b2-431c-ab42-4a9c0c2e1bb8","ios":"levelo://app?vid=d2604030-81b2-431c-ab42-4a9c0c2e1bb8"},"vehicle_type_id":"4","last_reported":1700690739,"current_range_meters":19200,"station_id":"ce4bhah2rcd13ifvqei0","pricing_plan_id":"free"},{"bike_id":"b1e30586-8ec1-4048-a589-4c921521ad4f","system_id":"levelo_inurba_marseille","lat":43.284583,"lon":5.35881,"is_reserved":false,"is_disabled":false,"rental_uris":{"android":"levelo://app?vid=b1e30586-8ec1-4048-a589-4c921521ad4f","ios":"levelo://app?vid=b1e30586-8ec1-4048-a589-4c921521ad4f"},"vehicle_type_id":"4","last_reported":1700690739,"current_range_meters":25200,"station_id":"ce4bhah2rcd13ifvqei0","pricing_plan_id":"free"},{"bike_id":"56d6debf-811c-4307-85e9-47f4393ae7fd","system_id":"levelo_inurba_marseille","lat":43.28459,"lon":5.35875,"is_reserved":false,"is_disabled":false,"rental_uris":{"android":"levelo://app?vid=56d6debf-811c-4307-85e9-47f4393ae7fd","ios":"levelo://app?vid=56d6debf-811c-4307-85e9-47f4393ae7fd"},"vehicle_type_id":"4","last_reported":1700690739,"current_range_meters":2400,"station_id":"ce4bhah2rcd13ifvqei0","pricing_plan_id":"free"},{"bike_id":"3b525006-aae6-478e-b150-bd0c9f5b2401","system_id":"levelo_inurba_marseille","lat":43.284538,"lon":5.358657,"is_reserved":false,"is_disabled":false,"rental_uris":{"android":"levelo://app?vid=3b525006-aae6-478e-b150-bd0c9f5b2401","ios":"levelo://app?vid=3b525006-aae6-478e-b150-bd0c9f5b2401"},"vehicle_type_id":"4","last_reported":1700690739,"current_range_meters":31200,"station_id":"ce4bhah2rcd13ifvqei0","pricing_plan_id":"free"},{"bike_id":"557ccd5e-3605-4f8f-b8af-f017f455df87","system_id":"levelo_inurba_marseille","lat":43.294314,"lon":5.397498,"is_reserved":false,"is_disabled":false,"rental_uris":{"android":"levelo://app?vid=557ccd5e-3605-4f8f-b8af-f017f455df87","ios":"levelo://app?vid=557ccd5e-3605-4f8f-b8af-f017f455df87"},"vehicle_type_id":"4","last_reported":1700690739,"current_range_meters":0,"station_id":"ce4bh3h2rcd13ifvqdo0","pricing_plan_id":"free"},{"bike_id":"94650a74-d2aa-4b03-b137-3298cb906853","system_id":"levelo_inurba_marseille","lat":43.28452,"lon":5.3588,"is_reserved":false,"is_disabled":false,"rental_uris":{"android":"levelo://app?vid=94650a74-d2aa-4b03-b137-3298cb906853","ios":"levelo://app?vid=94650a74-d2aa-4b03-b137-3298cb906853"},"vehicle_type_id":"4","last_reported":1700690739,"current_range_meters":29200,"station_id":"","pricing_plan_id":"free"},{"bike_id":"06a4b634-1eb0-4471-8438-fc445e4cac5e","system_id":"levelo_inurba_marseille","lat":43.284496,"lon":5.358872,"is_reserved":false,"is_disabled":false,"rental_uris":{"android":"levelo://app?vid=06a4b634-1eb0-4471-8438-fc445e4cac5e","ios":"levelo://app?vid=06a4b634-1eb0-4471-8438-fc445e4cac5e"},"vehicle_type_id":"4","last_reported":1700690739,"current_range_meters":31200,"station_id":"ce4bhah2rcd13ifvqei0","pricing_plan_id":"free"},{"bike_id":"02834443-4691-4c18-8b36-d8f2b138ffb7","system_id":"levelo_inurba_marseille","lat":43.28623,"lon":5.35103,"is_reserved":false,"is_disabled":false,"rental_uris":{"android":"levelo://app?vid=02834443-4691-4c18-8b36-d8f2b138ffb7","ios":"levelo://app?vid=02834443-4691-4c18-8b36-d8f2b138ffb7"},"vehicle_type_id":"4","last_reported":1700690739,"current_range_meters":31200,"station_id":"ce4bhch2rcd13ifvqeug","pricing_plan_id":"free"},{"bike_id":"81735634-c3de-42ee-929a-b3e1d71ac25d","system_id":"levelo_inurba_marseille","lat":43.294314,"lon":5.397498,"is_reserved":false,"is_disabled":false,"rental_uris":{"android":"levelo://app?vid=81735634-c3de-42ee-929a-b3e1d71ac25d","ios":"levelo://app?vid=81735634-c3de-42ee-929a-b3e1d71ac25d"},"vehicle_type_id":"4","last_reported":1700690739,"current_range_meters":9600,"station_id":"ce4bh3h2rcd13ifvqdo0","pricing_plan_id":"free"},{"bike_id":"3046616d-5429-4188-9372-bcfb51c2ef95","system_id":"levelo_inurba_marseille","lat":43.28615,"lon":5.35101,"is_reserved":false,"is_disabled":false,"rental_uris":{"android":"levelo://app?vid=3046616d-5429-4188-9372-bcfb51c2ef95","ios":"levelo://app?vid=3046616d-5429-4188-9372-bcfb51c2ef95"},"vehicle_type_id":"4","last_reported":1700690739,"current_range_meters":24000,"station_id":"ce4bhch2rcd13ifvqeug","pricing_plan_id":"free"},{"bike_id":"1ed0edd0-8c29-4625-bedc-c41650955f5a","system_id":"levelo_inurba_marseille","lat":43.284819,"lon":5.377998,"is_reserved":false,"is_disabled":false,"rental_uris":{"android":"levelo://app?vid=1ed0edd0-8c29-4625-bedc-c41650955f5a","ios":"levelo://app?vid=1ed0edd0-8c29-4625-bedc-c41650955f5a"},"vehicle_type_id":"4","last_reported":1700690739,"current_range_meters":24400,"station_id":"","pricing_plan_id":"free"},{"bike_id":"84fb9be6-11c9-4b58-a34a-a076c7b8a4e7","system_id":"levelo_inurba_marseille","lat":43.283998,"lon":5.375062,"is_reserved":false,"is_disabled":false,"rental_uris":{"android":"levelo://app?vid=84fb9be6-11c9-4b58-a34a-a076c7b8a4e7","ios":"levelo://app?vid=84fb9be6-11c9-4b58-a34a-a076c7b8a4e7"},"vehicle_type_id":"4","last_reported":1700690739,"current_range_meters":30000,"station_id":"ce4bh412rcd13ifvqds0","pricing_plan_id":"free"},{"bike_id":"76688d86-909b-41a5-bfcb-c81260f06331","system_id":"levelo_inurba_marseille","lat":43.284137,"lon":5.375163,"is_reserved":false,"is_disabled":false,"rental_uris":{"android":"levelo://app?vid=76688d86-909b-41a5-bfcb-c81260f06331","ios":"levelo://app?vid=76688d86-909b-41a5-bfcb-c81260f06331"},"vehicle_type_id":"4","last_reported":1700690739,"current_range_meters":31200,"station_id":"ce4bh412rcd13ifvqds0","pricing_plan_id":"free"},{"bike_id":"66015c6a-bdc4-4707-afbf-a38692091216","system_id":"levelo_inurba_marseille","lat":43.283998,"lon":5.375062,"is_reserved":false,"is_disabled":false,"rental_uris":{"android":"levelo://app?vid=66015c6a-bdc4-4707-afbf-a38692091216","ios":"levelo://app?vid=66015c6a-bdc4-4707-afbf-a38692091216"},"vehicle_type_id":"4","last_reported":1700690739,"current_range_meters":22800,"station_id":"ce4bh412rcd13ifvqds0","pricing_plan_id":"free"},{"bike_id":"b5561288-6056-4023-994f-0f1798355dd7","system_id":"levelo_inurba_marseille","lat":43.283998,"lon":5.375062,"is_reserved":false,"is_disabled":false,"rental_uris":{"android":"levelo://app?vid=b5561288-6056-4023-994f-0f1798355dd7","ios":"levelo://app?vid=b5561288-6056-4023-994f-0f1798355dd7"},"vehicle_type_id":"4","last_reported":1700690739,"current_range_meters":31200,"station_id":"ce4bh412rcd13ifvqds0","pricing_plan_id":"free"},{"bike_id":"9216aabb-d894-451e-8d37-2ef65b9e4560","system_id":"levelo_inurba_marseille","lat":43.29564,"lon":5.39966,"is_reserved":false,"is_disabled":false,"rental_uris":{"android":"levelo://app?vid=9216aabb-d894-451e-8d37-2ef65b9e4560","ios":"levelo://app?vid=9216aabb-d894-451e-8d37-2ef65b9e4560"},"vehicle_type_id":"4","last_reported":1700690739,"current_range_meters":30400,"station_id":"ce4bh312rcd13ifvqdj0","pricing_plan_id":"free"},{"bike_id":"2ba53029-0682-4299-905f-eb31543f32d9","system_id":"levelo_inurba_marseille","lat":43.283998,"lon":5.375062,"is_reserved":false,"is_disabled":false,"rental_uris":{"android":"levelo://app?vid=2ba53029-0682-4299-905f-eb31543f32d9","ios":"levelo://app?vid=2ba53029-0682-4299-905f-eb31543f32d9"},"vehicle_type_id":"4","last_reported":1700690739,"current_range_meters":31200,"station_id":"ce4bh412rcd13ifvqds0","pricing_plan_id":"free"},{"bike_id":"e0012f48-fc7c-43c7-a281-59ef6796abb4","system_id":"levelo_inurba_marseille","lat":43.283998,"lon":5.375062,"is_reserved":false,"is_disabled":false,"rental_uris":{"android":"levelo://app?vid=e0012f48-fc7c-43c7-a281-59ef6796abb4","ios":"levelo://app?vid=e0012f48-fc7c-43c7-a281-59ef6796abb4"},"vehicle_type_id":"4","last_reported":1700690739,"current_range_meters":11600,"station_id":"ce4bh412rcd13ifvqds0","pricing_plan_id":"free"},{"bike_id":"24053964-49f9-4b93-84c8-df0a7baa2f9e","system_id":"levelo_inurba_marseille","lat":43.283998,"lon":5.375062,"is_reserved":false,"is_disabled":false,"rental_uris":{"android":"levelo://app?vid=24053964-49f9-4b93-84c8-df0a7baa2f9e","ios":"levelo://app?vid=24053964-49f9-4b93-84c8-df0a7baa2f9e"},"vehicle_type_id":"4","last_reported":1700690739,"current_range_meters":29600,"station_id":"ce4bh412rcd13ifvqds0","pricing_plan_id":"free"},{"bike_id":"17bc1805-71cf-40cb-864b-fdf370f2073f","system_id":"levelo_inurba_marseille","lat":43.33717,"lon":5.391857,"is_reserved":false,"is_disabled":false,"rental_uris":{"android":"levelo://app?vid=17bc1805-71cf-40cb-864b-fdf370f2073f","ios":"levelo://app?vid=17bc1805-71cf-40cb-864b-fdf370f2073f"},"vehicle_type_id":"4","last_reported":1700690739,"current_range_meters":28800,"station_id":"ce4bhr92rcd13ifvqhsg","pricing_plan_id":"free"},{"bike_id":"5bc021c2-a6f4-4648-9e10-fc529a0bfb84","system_id":"levelo_inurba_marseille","lat":43.323464,"lon":5.406297,"is_reserved":false,"is_disabled":false,"rental_uris":{"android":"levelo://app?vid=5bc021c2-a6f4-4648-9e10-fc529a0bfb84","ios":"levelo://app?vid=5bc021c2-a6f4-4648-9e10-fc529a0bfb84"},"vehicle_type_id":"4","last_reported":1700690739,"current_range_meters":29600,"station_id":"ce4bhq92rcd13ifvqhjg","pricing_plan_id":"free"},{"bike_id":"39aaa836-8fa8-493d-ab75-0e0e94282417","system_id":"levelo_inurba_marseille","lat":43.297946,"lon":5.404063,"is_reserved":false,"is_disabled":false,"rental_uris":{"android":"levelo://app?vid=39aaa836-8fa8-493d-ab75-0e0e94282417","ios":"levelo://app?vid=39aaa836-8fa8-493d-ab75-0e0e94282417"},"vehicle_type_id":"4","last_reported":1700690739,"current_range_meters":29200,"station_id":"ce4bh112rcd13ifvqd90","pricing_plan_id":"free"},{"bike_id":"43a548a3-986c-4b75-8908-75a8fcdecc49","system_id":"levelo_inurba_marseille","lat":43.28849,"lon":5.39307,"is_reserved":false,"is_disabled":false,"rental_uris":{"android":"levelo://app?vid=43a548a3-986c-4b75-8908-75a8fcdecc49","ios":"levelo://app?vid=43a548a3-986c-4b75-8908-75a8fcdecc49"},"vehicle_type_id":"4","last_reported":1700690739,"current_range_meters":16000,"station_id":"ce4bh2p2rcd13ifvqdi0","pricing_plan_id":"free"},{"bike_id":"640ae025-72cc-4685-b689-f16560527ea3","system_id":"levelo_inurba_marseille","lat":43.283494,"lon":5.380945,"is_reserved":false,"is_disabled":false,"rental_uris":{"android":"levelo://app?vid=640ae025-72cc-4685-b689-f16560527ea3","ios":"levelo://app?vid=640ae025-72cc-4685-b689-f16560527ea3"},"vehicle_type_id":"4","last_reported":1700690739,"current_range_meters":0,"station_id":"ce4bh412rcd13ifvqdr0","pricing_plan_id":"free"},{"bike_id":"596e68b1-d29d-463a-9c10-8e77154d4cdc","system_id":"levelo_inurba_marseille","lat":43.284219,"lon":5.3497,"is_reserved":false,"is_disabled":false,"rental_uris":{"android":"levelo://app?vid=596e68b1-d29d-463a-9c10-8e77154d4cdc","ios":"levelo://app?vid=596e68b1-d29d-463a-9c10-8e77154d4cdc"},"vehicle_type_id":"4","last_reported":1700690739,"current_range_meters":25600,"station_id":"ce4bhbh2rcd13ifvqepg","pricing_plan_id":"free"},{"bike_id":"e2284003-4e46-4e0a-93e7-73d05c3666d9","system_id":"levelo_inurba_marseille","lat":43.33491,"lon":5.39803,"is_reserved":false,"is_disabled":false,"rental_uris":{"android":"levelo://app?vid=e2284003-4e46-4e0a-93e7-73d05c3666d9","ios":"levelo://app?vid=e2284003-4e46-4e0a-93e7-73d05c3666d9"},"vehicle_type_id":"4","last_reported":1700690739,"current_range_meters":25600,"station_id":"","pricing_plan_id":"free"},{"bike_id":"33418570-33d1-41cb-9e56-5b74bfb92490","system_id":"levelo_inurba_marseille","lat":43.292724,"lon":5.401131,"is_reserved":false,"is_disabled":false,"rental_uris":{"android":"levelo://app?vid=33418570-33d1-41cb-9e56-5b74bfb92490","ios":"levelo://app?vid=33418570-33d1-41cb-9e56-5b74bfb92490"},"vehicle_type_id":"4","last_reported":1700690739,"current_range_meters":27200,"station_id":"ce4bh312rcd13ifvqdk0","pricing_plan_id":"free"},{"bike_id":"7cb4b2e3-1c06-41ff-9014-86b526603e22","system_id":"levelo_inurba_marseille","lat":43.29278,"lon":5.40115,"is_reserved":false,"is_disabled":false,"rental_uris":{"android":"levelo://app?vid=7cb4b2e3-1c06-41ff-9014-86b526603e22","ios":"levelo://app?vid=7cb4b2e3-1c06-41ff-9014-86b526603e22"},"vehicle_type_id":"4","last_reported":1700690739,"current_range_meters":18000,"station_id":"ce4bh312rcd13ifvqdk0","pricing_plan_id":"free"},{"bike_id":"95ba52d6-4dda-4e02-b81c-7bd72d9cf856","system_id":"levelo_inurba_marseille","lat":43.282754,"lon":5.350519,"is_reserved":false,"is_disabled":false,"rental_uris":{"android":"levelo://app?vid=95ba52d6-4dda-4e02-b81c-7bd72d9cf856","ios":"levelo://app?vid=95ba52d6-4dda-4e02-b81c-7bd72d9cf856"},"vehicle_type_id":"4","last_reported":1700690739,"current_range_meters":22000,"station_id":"ce4bhbp2rcd13ifvqerg","pricing_plan_id":"free"},{"bike_id":"3278ed16-bac7-4998-9551-e9b501c88ea7","system_id":"levelo_inurba_marseille","lat":43.282744,"lon":5.350533,"is_reserved":false,"is_disabled":false,"rental_uris":{"android":"levelo://app?vid=3278ed16-bac7-4998-9551-e9b501c88ea7","ios":"levelo://app?vid=3278ed16-bac7-4998-9551-e9b501c88ea7"},"vehicle_type_id":"4","last_reported":1700690739,"current_range_meters":21200,"station_id":"ce4bhbp2rcd13ifvqerg","pricing_plan_id":"free"},{"bike_id":"3c8af90b-b7dd-4b0c-9746-cdfc81a9b3cd","system_id":"levelo_inurba_marseille","lat":43.282763,"lon":5.35058,"is_reserved":false,"is_disabled":false,"rental_uris":{"android":"levelo://app?vid=3c8af90b-b7dd-4b0c-9746-cdfc81a9b3cd","ios":"levelo://app?vid=3c8af90b-b7dd-4b0c-9746-cdfc81a9b3cd"},"vehicle_type_id":"4","last_reported":1700690739,"current_range_meters":31200,"station_id":"ce4bhbp2rcd13ifvqerg","pricing_plan_id":"free"},{"bike_id":"66725f80-c578-4be3-aed6-1e494bbea69f","system_id":"levelo_inurba_marseille","lat":43.282754,"lon":5.350519,"is_reserved":false,"is_disabled":false,"rental_uris":{"android":"levelo://app?vid=66725f80-c578-4be3-aed6-1e494bbea69f","ios":"levelo://app?vid=66725f80-c578-4be3-aed6-1e494bbea69f"},"vehicle_type_id":"4","last_reported":1700690739,"current_range_meters":29200,"station_id":"ce4bhbp2rcd13ifvqerg","pricing_plan_id":"free"},{"bike_id":"c975b77c-1db9-45aa-94ec-31f5757391a0","system_id":"levelo_inurba_marseille","lat":43.282681,"lon":5.350674,"is_reserved":false,"is_disabled":false,"rental_uris":{"android":"levelo://app?vid=c975b77c-1db9-45aa-94ec-31f5757391a0","ios":"levelo://app?vid=c975b77c-1db9-45aa-94ec-31f5757391a0"},"vehicle_type_id":"4","last_reported":1700690739,"current_range_meters":31200,"station_id":"ce4bhbp2rcd13ifvqerg","pricing_plan_id":"free"},{"bike_id":"3bd1ff9e-7ee1-4f03-90fa-c3b68688bd04","system_id":"levelo_inurba_marseille","lat":43.282678,"lon":5.350604,"is_reserved":false,"is_disabled":false,"rental_uris":{"android":"levelo://app?vid=3bd1ff9e-7ee1-4f03-90fa-c3b68688bd04","ios":"levelo://app?vid=3bd1ff9e-7ee1-4f03-90fa-c3b68688bd04"},"vehicle_type_id":"4","last_reported":1700690739,"current_range_meters":31200,"station_id":"ce4bhbp2rcd13ifvqerg","pricing_plan_id":"free"},{"bike_id":"a8794fb6-8122-4088-9b7e-255dc4a8fbe3","system_id":"levelo_inurba_marseille","lat":43.282754,"lon":5.350519,"is_reserved":false,"is_disabled":false,"rental_uris":{"android":"levelo://app?vid=a8794fb6-8122-4088-9b7e-255dc4a8fbe3","ios":"levelo://app?vid=a8794fb6-8122-4088-9b7e-255dc4a8fbe3"},"vehicle_type_id":"4","last_reported":1700690739,"current_range_meters":21600,"station_id":"ce4bhbp2rcd13ifvqerg","pricing_plan_id":"free"},{"bike_id":"5398ddc5-5686-4ec8-8aca-70dc0677e901","system_id":"levelo_inurba_marseille","lat":43.280382,"lon":5.369291,"is_reserved":false,"is_disabled":false,"rental_uris":{"android":"levelo://app?vid=5398ddc5-5686-4ec8-8aca-70dc0677e901","ios":"levelo://app?vid=5398ddc5-5686-4ec8-8aca-70dc0677e901"},"vehicle_type_id":"4","last_reported":1700690739,"current_range_meters":21200,"station_id":"ce4bha12rcd13ifvqef0","pricing_plan_id":"free"},{"bike_id":"3ad89d95-4cdf-4f8f-9da6-7510b9b9a0ce","system_id":"levelo_inurba_marseille","lat":43.280382,"lon":5.369291,"is_reserved":false,"is_disabled":false,"rental_uris":{"android":"levelo://app?vid=3ad89d95-4cdf-4f8f-9da6-7510b9b9a0ce","ios":"levelo://app?vid=3ad89d95-4cdf-4f8f-9da6-7510b9b9a0ce"},"vehicle_type_id":"4","last_reported":1700690739,"current_range_meters":3600,"station_id":"ce4bha12rcd13ifvqef0","pricing_plan_id":"free"},{"bike_id":"ce7cc0ba-2d0a-4008-8e72-b87e49f484c5","system_id":"levelo_inurba_marseille","lat":43.290412,"lon":5.399633,"is_reserved":false,"is_disabled":false,"rental_uris":{"android":"levelo://app?vid=ce7cc0ba-2d0a-4008-8e72-b87e49f484c5","ios":"levelo://app?vid=ce7cc0ba-2d0a-4008-8e72-b87e49f484c5"},"vehicle_type_id":"4","last_reported":1700690739,"current_range_meters":0,"station_id":"ce4bh392rcd13ifvqdm0","pricing_plan_id":"free"},{"bike_id":"9b2f377d-ec2f-4a5c-a976-fac714cf539f","system_id":"levelo_inurba_marseille","lat":43.290412,"lon":5.399633,"is_reserved":false,"is_disabled":false,"rental_uris":{"android":"levelo://app?vid=9b2f377d-ec2f-4a5c-a976-fac714cf539f","ios":"levelo://app?vid=9b2f377d-ec2f-4a5c-a976-fac714cf539f"},"vehicle_type_id":"4","last_reported":1700690739,"current_range_meters":8000,"station_id":"ce4bh392rcd13ifvqdm0","pricing_plan_id":"free"},{"bike_id":"8867668c-7184-4fd0-a1d6-f6c2bbb72e4f","system_id":"levelo_inurba_marseille","lat":43.281044,"lon":5.378308,"is_reserved":false,"is_disabled":false,"rental_uris":{"android":"levelo://app?vid=8867668c-7184-4fd0-a1d6-f6c2bbb72e4f","ios":"levelo://app?vid=8867668c-7184-4fd0-a1d6-f6c2bbb72e4f"},"vehicle_type_id":"4","last_reported":1700690739,"current_range_meters":22800,"station_id":"ce4bha12rcd13ifvqee0","pricing_plan_id":"free"},{"bike_id":"74c7a33f-796b-49b7-a0f9-c9f4b66114fe","system_id":"levelo_inurba_marseille","lat":43.284462,"lon":5.392121,"is_reserved":false,"is_disabled":false,"rental_uris":{"android":"levelo://app?vid=74c7a33f-796b-49b7-a0f9-c9f4b66114fe","ios":"levelo://app?vid=74c7a33f-796b-49b7-a0f9-c9f4b66114fe"},"vehicle_type_id":"4","last_reported":1700690739,"current_range_meters":26400,"station_id":"ce4bhoh2rcd13ifvqh5g","pricing_plan_id":"free"},{"bike_id":"fac26b5c-2cda-4028-9de9-bbff6870c6e2","system_id":"levelo_inurba_marseille","lat":43.28573,"lon":5.394992,"is_reserved":false,"is_disabled":false,"rental_uris":{"android":"levelo://app?vid=fac26b5c-2cda-4028-9de9-bbff6870c6e2","ios":"levelo://app?vid=fac26b5c-2cda-4028-9de9-bbff6870c6e2"},"vehicle_type_id":"4","last_reported":1700690739,"current_range_meters":16800,"station_id":"ce4bh292rcd13ifvqdg0","pricing_plan_id":"free"},{"bike_id":"cc58a64c-74eb-4518-a1a6-07f3c87b7c45","system_id":"levelo_inurba_marseille","lat":43.285742,"lon":5.395004,"is_reserved":false,"is_disabled":false,"rental_uris":{"android":"levelo://app?vid=cc58a64c-74eb-4518-a1a6-07f3c87b7c45","ios":"levelo://app?vid=cc58a64c-74eb-4518-a1a6-07f3c87b7c45"},"vehicle_type_id":"4","last_reported":1700690739,"current_range_meters":27200,"station_id":"ce4bh292rcd13ifvqdg0","pricing_plan_id":"free"},{"bike_id":"af4719c6-b14a-4486-aade-6c2fc8cfb4fc","system_id":"levelo_inurba_marseille","lat":43.285742,"lon":5.395004,"is_reserved":false,"is_disabled":false,"rental_uris":{"android":"levelo://app?vid=af4719c6-b14a-4486-aade-6c2fc8cfb4fc","ios":"levelo://app?vid=af4719c6-b14a-4486-aade-6c2fc8cfb4fc"},"vehicle_type_id":"4","last_reported":1700690739,"current_range_meters":27200,"station_id":"ce4bh292rcd13ifvqdg0","pricing_plan_id":"free"},{"bike_id":"6e2c2465-4e40-4aae-912b-ca1fbcdf1978","system_id":"levelo_inurba_marseille","lat":43.3249,"lon":5.411142,"is_reserved":false,"is_disabled":false,"rental_uris":{"android":"levelo://app?vid=6e2c2465-4e40-4aae-912b-ca1fbcdf1978","ios":"levelo://app?vid=6e2c2465-4e40-4aae-912b-ca1fbcdf1978"},"vehicle_type_id":"4","last_reported":1700690739,"current_range_meters":0,"station_id":"","pricing_plan_id":"free"},{"bike_id":"43290994-1b4d-477c-ba1d-1c711f7d9459","system_id":"levelo_inurba_marseille","lat":43.28705,"lon":5.39975,"is_reserved":false,"is_disabled":false,"rental_uris":{"android":"levelo://app?vid=43290994-1b4d-477c-ba1d-1c711f7d9459","ios":"levelo://app?vid=43290994-1b4d-477c-ba1d-1c711f7d9459"},"vehicle_type_id":"4","last_reported":1700690739,"current_range_meters":31200,"station_id":"ce4bho92rcd13ifvqh3g","pricing_plan_id":"free"},{"bike_id":"624627d6-21f3-4872-be83-da6de896468e","system_id":"levelo_inurba_marseille","lat":43.287154,"lon":5.399979,"is_reserved":false,"is_disabled":false,"rental_uris":{"android":"levelo://app?vid=624627d6-21f3-4872-be83-da6de896468e","ios":"levelo://app?vid=624627d6-21f3-4872-be83-da6de896468e"},"vehicle_type_id":"4","last_reported":1700690739,"current_range_meters":6000,"station_id":"ce4bho92rcd13ifvqh3g","pricing_plan_id":"free"},{"bike_id":"c9f4118e-ca3c-4ede-a7ae-b40dd519b550","system_id":"levelo_inurba_marseille","lat":43.287154,"lon":5.399979,"is_reserved":false,"is_disabled":false,"rental_uris":{"android":"levelo://app?vid=c9f4118e-ca3c-4ede-a7ae-b40dd519b550","ios":"levelo://app?vid=c9f4118e-ca3c-4ede-a7ae-b40dd519b550"},"vehicle_type_id":"4","last_reported":1700690739,"current_range_meters":30000,"station_id":"ce4bho92rcd13ifvqh3g","pricing_plan_id":"free"},{"bike_id":"b85c99c5-553a-48a1-9f4c-050e0330cf83","system_id":"levelo_inurba_marseille","lat":43.287154,"lon":5.399979,"is_reserved":false,"is_disabled":false,"rental_uris":{"android":"levelo://app?vid=b85c99c5-553a-48a1-9f4c-050e0330cf83","ios":"levelo://app?vid=b85c99c5-553a-48a1-9f4c-050e0330cf83"},"vehicle_type_id":"4","last_reported":1700690739,"current_range_meters":30000,"station_id":"ce4bho92rcd13ifvqh3g","pricing_plan_id":"free"},{"bike_id":"4ef8daec-f34d-4fdc-9a93-44484b75a11f","system_id":"levelo_inurba_marseille","lat":43.287154,"lon":5.399979,"is_reserved":false,"is_disabled":false,"rental_uris":{"android":"levelo://app?vid=4ef8daec-f34d-4fdc-9a93-44484b75a11f","ios":"levelo://app?vid=4ef8daec-f34d-4fdc-9a93-44484b75a11f"},"vehicle_type_id":"4","last_reported":1700690739,"current_range_meters":31200,"station_id":"ce4bho92rcd13ifvqh3g","pricing_plan_id":"free"},{"bike_id":"b616ee20-8122-4057-9ab7-8ff3f5abf229","system_id":"levelo_inurba_marseille","lat":43.287154,"lon":5.399979,"is_reserved":false,"is_disabled":false,"rental_uris":{"android":"levelo://app?vid=b616ee20-8122-4057-9ab7-8ff3f5abf229","ios":"levelo://app?vid=b616ee20-8122-4057-9ab7-8ff3f5abf229"},"vehicle_type_id":"4","last_reported":1700690739,"current_range_meters":24800,"station_id":"ce4bho92rcd13ifvqh3g","pricing_plan_id":"free"},{"bike_id":"11a6a67b-b9e8-4b0c-81da-e636cbd8ea58","system_id":"levelo_inurba_marseille","lat":43.287154,"lon":5.399979,"is_reserved":false,"is_disabled":false,"rental_uris":{"android":"levelo://app?vid=11a6a67b-b9e8-4b0c-81da-e636cbd8ea58","ios":"levelo://app?vid=11a6a67b-b9e8-4b0c-81da-e636cbd8ea58"},"vehicle_type_id":"4","last_reported":1700690739,"current_range_meters":28400,"station_id":"ce4bho92rcd13ifvqh3g","pricing_plan_id":"free"},{"bike_id":"0633da68-7059-4154-a4a6-da3426137390","system_id":"levelo_inurba_marseille","lat":43.287154,"lon":5.399979,"is_reserved":false,"is_disabled":false,"rental_uris":{"android":"levelo://app?vid=0633da68-7059-4154-a4a6-da3426137390","ios":"levelo://app?vid=0633da68-7059-4154-a4a6-da3426137390"},"vehicle_type_id":"4","last_reported":1700690739,"current_range_meters":30000,"station_id":"ce4bho92rcd13ifvqh3g","pricing_plan_id":"free"},{"bike_id":"53629e0f-4cc5-41f4-b0dd-74727d54b177","system_id":"levelo_inurba_marseille","lat":43.287154,"lon":5.399979,"is_reserved":false,"is_disabled":false,"rental_uris":{"android":"levelo://app?vid=53629e0f-4cc5-41f4-b0dd-74727d54b177","ios":"levelo://app?vid=53629e0f-4cc5-41f4-b0dd-74727d54b177"},"vehicle_type_id":"4","last_reported":1700690739,"current_range_meters":26800,"station_id":"ce4bho92rcd13ifvqh3g","pricing_plan_id":"free"},{"bike_id":"d8068a08-a457-4b53-ae63-1f64e306a809","system_id":"levelo_inurba_marseille","lat":43.287154,"lon":5.399979,"is_reserved":false,"is_disabled":false,"rental_uris":{"android":"levelo://app?vid=d8068a08-a457-4b53-ae63-1f64e306a809","ios":"levelo://app?vid=d8068a08-a457-4b53-ae63-1f64e306a809"},"vehicle_type_id":"4","last_reported":1700690739,"current_range_meters":31600,"station_id":"ce4bho92rcd13ifvqh3g","pricing_plan_id":"free"},{"bike_id":"a7c0fa2a-e720-4be7-828b-f9bf8230519e","system_id":"levelo_inurba_marseille","lat":43.287154,"lon":5.399979,"is_reserved":false,"is_disabled":false,"rental_uris":{"android":"levelo://app?vid=a7c0fa2a-e720-4be7-828b-f9bf8230519e","ios":"levelo://app?vid=a7c0fa2a-e720-4be7-828b-f9bf8230519e"},"vehicle_type_id":"4","last_reported":1700690739,"current_range_meters":31200,"station_id":"ce4bho92rcd13ifvqh3g","pricing_plan_id":"free"},{"bike_id":"0ce3d381-8384-431a-b5d0-633a6374d1d0","system_id":"levelo_inurba_marseille","lat":43.287042,"lon":5.399905,"is_reserved":false,"is_disabled":false,"rental_uris":{"android":"levelo://app?vid=0ce3d381-8384-431a-b5d0-633a6374d1d0","ios":"levelo://app?vid=0ce3d381-8384-431a-b5d0-633a6374d1d0"},"vehicle_type_id":"4","last_reported":1700690739,"current_range_meters":15200,"station_id":"","pricing_plan_id":"free"},{"bike_id":"894b3980-c692-49d4-b177-8351bfcb5d3a","system_id":"levelo_inurba_marseille","lat":43.287154,"lon":5.399979,"is_reserved":false,"is_disabled":false,"rental_uris":{"android":"levelo://app?vid=894b3980-c692-49d4-b177-8351bfcb5d3a","ios":"levelo://app?vid=894b3980-c692-49d4-b177-8351bfcb5d3a"},"vehicle_type_id":"4","last_reported":1700690739,"current_range_meters":28400,"station_id":"ce4bho92rcd13ifvqh3g","pricing_plan_id":"free"},{"bike_id":"5dea1737-aa74-49a1-8629-119985364f57","system_id":"levelo_inurba_marseille","lat":43.287154,"lon":5.399979,"is_reserved":false,"is_disabled":false,"rental_uris":{"android":"levelo://app?vid=5dea1737-aa74-49a1-8629-119985364f57","ios":"levelo://app?vid=5dea1737-aa74-49a1-8629-119985364f57"},"vehicle_type_id":"4","last_reported":1700690739,"current_range_meters":21200,"station_id":"ce4bho92rcd13ifvqh3g","pricing_plan_id":"free"},{"bike_id":"a8e2b52b-9ba9-4b70-bcb4-1e1ad46ab6fe","system_id":"levelo_inurba_marseille","lat":43.299579,"lon":5.413255,"is_reserved":false,"is_disabled":false,"rental_uris":{"android":"levelo://app?vid=a8e2b52b-9ba9-4b70-bcb4-1e1ad46ab6fe","ios":"levelo://app?vid=a8e2b52b-9ba9-4b70-bcb4-1e1ad46ab6fe"},"vehicle_type_id":"4","last_reported":1700690739,"current_range_meters":2400,"station_id":"ce4bhp12rcd13ifvqh9g","pricing_plan_id":"free"},{"bike_id":"cf7c6503-d761-4e4a-b826-f55f74848caf","system_id":"levelo_inurba_marseille","lat":43.34879,"lon":5.3751,"is_reserved":false,"is_disabled":false,"rental_uris":{"android":"levelo://app?vid=cf7c6503-d761-4e4a-b826-f55f74848caf","ios":"levelo://app?vid=cf7c6503-d761-4e4a-b826-f55f74848caf"},"vehicle_type_id":"4","last_reported":1700690739,"current_range_meters":4400,"station_id":"","pricing_plan_id":"free"},{"bike_id":"3971347c-3d31-4986-8c69-77c6227ff589","system_id":"levelo_inurba_marseille","lat":43.292569,"lon":5.409107,"is_reserved":false,"is_disabled":false,"rental_uris":{"android":"levelo://app?vid=3971347c-3d31-4986-8c69-77c6227ff589","ios":"levelo://app?vid=3971347c-3d31-4986-8c69-77c6227ff589"},"vehicle_type_id":"4","last_reported":1700690739,"current_range_meters":31200,"station_id":"ce4bh192rcd13ifvqdc0","pricing_plan_id":"free"},{"bike_id":"3353bf54-8aa9-4d2f-8b1d-af838552fd04","system_id":"levelo_inurba_marseille","lat":43.292823,"lon":5.409069,"is_reserved":false,"is_disabled":false,"rental_uris":{"android":"levelo://app?vid=3353bf54-8aa9-4d2f-8b1d-af838552fd04","ios":"levelo://app?vid=3353bf54-8aa9-4d2f-8b1d-af838552fd04"},"vehicle_type_id":"4","last_reported":1700690739,"current_range_meters":30800,"station_id":"ce4bh192rcd13ifvqdc0","pricing_plan_id":"free"},{"bike_id":"077e9377-a771-416a-9f10-d16dbec35210","system_id":"levelo_inurba_marseille","lat":43.292571,"lon":5.409107,"is_reserved":false,"is_disabled":false,"rental_uris":{"android":"levelo://app?vid=077e9377-a771-416a-9f10-d16dbec35210","ios":"levelo://app?vid=077e9377-a771-416a-9f10-d16dbec35210"},"vehicle_type_id":"4","last_reported":1700690739,"current_range_meters":28400,"station_id":"ce4bh192rcd13ifvqdc0","pricing_plan_id":"free"},{"bike_id":"775c4dc0-1e89-444e-8ea2-6e90c08660a5","system_id":"levelo_inurba_marseille","lat":43.292569,"lon":5.409107,"is_reserved":false,"is_disabled":false,"rental_uris":{"android":"levelo://app?vid=775c4dc0-1e89-444e-8ea2-6e90c08660a5","ios":"levelo://app?vid=775c4dc0-1e89-444e-8ea2-6e90c08660a5"},"vehicle_type_id":"4","last_reported":1700690739,"current_range_meters":17600,"station_id":"ce4bh192rcd13ifvqdc0","pricing_plan_id":"free"},{"bike_id":"4f64385d-cdb1-4ad2-9ebc-16f059089b26","system_id":"levelo_inurba_marseille","lat":43.280784,"lon":5.396622,"is_reserved":false,"is_disabled":false,"rental_uris":{"android":"levelo://app?vid=4f64385d-cdb1-4ad2-9ebc-16f059089b26","ios":"levelo://app?vid=4f64385d-cdb1-4ad2-9ebc-16f059089b26"},"vehicle_type_id":"4","last_reported":1700690739,"current_range_meters":25600,"station_id":"ce4bho12rcd13ifvqh2g","pricing_plan_id":"free"},{"bike_id":"d30f0862-5aed-4f04-8f37-2fe3d7687a5d","system_id":"levelo_inurba_marseille","lat":43.303837,"lon":5.418724,"is_reserved":false,"is_disabled":false,"rental_uris":{"android":"levelo://app?vid=d30f0862-5aed-4f04-8f37-2fe3d7687a5d","ios":"levelo://app?vid=d30f0862-5aed-4f04-8f37-2fe3d7687a5d"},"vehicle_type_id":"4","last_reported":1700690739,"current_range_meters":26000,"station_id":"ce4bhop2rcd13ifvqh7g","pricing_plan_id":"free"},{"bike_id":"e7382057-5d80-4927-b8cd-16a220536c85","system_id":"levelo_inurba_marseille","lat":43.303837,"lon":5.418724,"is_reserved":false,"is_disabled":false,"rental_uris":{"android":"levelo://app?vid=e7382057-5d80-4927-b8cd-16a220536c85","ios":"levelo://app?vid=e7382057-5d80-4927-b8cd-16a220536c85"},"vehicle_type_id":"4","last_reported":1700690739,"current_range_meters":26400,"station_id":"ce4bhop2rcd13ifvqh7g","pricing_plan_id":"free"},{"bike_id":"09904342-c4fc-48b6-ad54-cb0c55d3fdab","system_id":"levelo_inurba_marseille","lat":43.278325,"lon":5.392022,"is_reserved":false,"is_disabled":false,"rental_uris":{"android":"levelo://app?vid=09904342-c4fc-48b6-ad54-cb0c55d3fdab","ios":"levelo://app?vid=09904342-c4fc-48b6-ad54-cb0c55d3fdab"},"vehicle_type_id":"4","last_reported":1700690739,"current_range_meters":21200,"station_id":"ce4bhjp2rcd13ifvqga0","pricing_plan_id":"free"},{"bike_id":"ef1f5d75-91d0-4644-94d7-8e1e0274e57b","system_id":"levelo_inurba_marseille","lat":43.273613,"lon":5.362705,"is_reserved":false,"is_disabled":false,"rental_uris":{"android":"levelo://app?vid=ef1f5d75-91d0-4644-94d7-8e1e0274e57b","ios":"levelo://app?vid=ef1f5d75-91d0-4644-94d7-8e1e0274e57b"},"vehicle_type_id":"4","last_reported":1700690739,"current_range_meters":13600,"station_id":"ce4bhbh2rcd13ifvqeo0","pricing_plan_id":"free"},{"bike_id":"062b71ad-7856-47f5-9834-706bb6bb8fe8","system_id":"levelo_inurba_marseille","lat":43.33612,"lon":5.410321,"is_reserved":false,"is_disabled":false,"rental_uris":{"android":"levelo://app?vid=062b71ad-7856-47f5-9834-706bb6bb8fe8","ios":"levelo://app?vid=062b71ad-7856-47f5-9834-706bb6bb8fe8"},"vehicle_type_id":"4","last_reported":1700690739,"current_range_meters":15200,"station_id":"ce4bhqh2rcd13ifvqhmg","pricing_plan_id":"free"},{"bike_id":"792985c1-457d-4713-afea-1214f2f84b8c","system_id":"levelo_inurba_marseille","lat":43.317121,"lon":5.423936,"is_reserved":false,"is_disabled":false,"rental_uris":{"android":"levelo://app?vid=792985c1-457d-4713-afea-1214f2f84b8c","ios":"levelo://app?vid=792985c1-457d-4713-afea-1214f2f84b8c"},"vehicle_type_id":"4","last_reported":1700690739,"current_range_meters":30000,"station_id":"ce4bhp92rcd13ifvqhbg","pricing_plan_id":"free"},{"bike_id":"d0bb53f7-f1b8-4609-a668-27efdac67f66","system_id":"levelo_inurba_marseille","lat":43.271942,"lon":5.392443,"is_reserved":false,"is_disabled":false,"rental_uris":{"android":"levelo://app?vid=d0bb53f7-f1b8-4609-a668-27efdac67f66","ios":"levelo://app?vid=d0bb53f7-f1b8-4609-a668-27efdac67f66"},"vehicle_type_id":"4","last_reported":1700690739,"current_range_meters":0,"station_id":"","pricing_plan_id":"free"},{"bike_id":"12f6a6f3-da8f-4060-8557-e19545e67531","system_id":"levelo_inurba_marseille","lat":43.278128,"lon":5.407195,"is_reserved":false,"is_disabled":false,"rental_uris":{"android":"levelo://app?vid=12f6a6f3-da8f-4060-8557-e19545e67531","ios":"levelo://app?vid=12f6a6f3-da8f-4060-8557-e19545e67531"},"vehicle_type_id":"4","last_reported":1700690739,"current_range_meters":28400,"station_id":"ce4bhnh2rcd13ifvqgtg","pricing_plan_id":"free"},{"bike_id":"6aae887c-ce73-443e-b98f-3433c1c2f2bd","system_id":"levelo_inurba_marseille","lat":43.270186,"lon":5.388254,"is_reserved":false,"is_disabled":false,"rental_uris":{"android":"levelo://app?vid=6aae887c-ce73-443e-b98f-3433c1c2f2bd","ios":"levelo://app?vid=6aae887c-ce73-443e-b98f-3433c1c2f2bd"},"vehicle_type_id":"4","last_reported":1700690739,"current_range_meters":0,"station_id":"","pricing_plan_id":"free"},{"bike_id":"bb09c1b0-87a6-4d55-be22-107f98c1ee24","system_id":"levelo_inurba_marseille","lat":43.278128,"lon":5.407195,"is_reserved":false,"is_disabled":false,"rental_uris":{"android":"levelo://app?vid=bb09c1b0-87a6-4d55-be22-107f98c1ee24","ios":"levelo://app?vid=bb09c1b0-87a6-4d55-be22-107f98c1ee24"},"vehicle_type_id":"4","last_reported":1700690739,"current_range_meters":30400,"station_id":"ce4bhnh2rcd13ifvqgtg","pricing_plan_id":"free"},{"bike_id":"556c1ab8-334a-4649-aac7-5cfc98052534","system_id":"levelo_inurba_marseille","lat":43.278128,"lon":5.407195,"is_reserved":false,"is_disabled":false,"rental_uris":{"android":"levelo://app?vid=556c1ab8-334a-4649-aac7-5cfc98052534","ios":"levelo://app?vid=556c1ab8-334a-4649-aac7-5cfc98052534"},"vehicle_type_id":"4","last_reported":1700690739,"current_range_meters":21200,"station_id":"ce4bhnh2rcd13ifvqgtg","pricing_plan_id":"free"},{"bike_id":"b8dda922-5809-4934-8512-9b915033edee","system_id":"levelo_inurba_marseille","lat":43.278128,"lon":5.407195,"is_reserved":false,"is_disabled":false,"rental_uris":{"android":"levelo://app?vid=b8dda922-5809-4934-8512-9b915033edee","ios":"levelo://app?vid=b8dda922-5809-4934-8512-9b915033edee"},"vehicle_type_id":"4","last_reported":1700690739,"current_range_meters":31200,"station_id":"ce4bhnh2rcd13ifvqgtg","pricing_plan_id":"free"},{"bike_id":"fce2ec73-e895-42c7-a0ad-ea4cd9091784","system_id":"levelo_inurba_marseille","lat":43.278128,"lon":5.407195,"is_reserved":false,"is_disabled":false,"rental_uris":{"android":"levelo://app?vid=fce2ec73-e895-42c7-a0ad-ea4cd9091784","ios":"levelo://app?vid=fce2ec73-e895-42c7-a0ad-ea4cd9091784"},"vehicle_type_id":"4","last_reported":1700690739,"current_range_meters":27200,"station_id":"ce4bhnh2rcd13ifvqgtg","pricing_plan_id":"free"},{"bike_id":"b14ac3a7-a1e9-454f-b827-724e9cc73e94","system_id":"levelo_inurba_marseille","lat":43.27943,"lon":5.41043,"is_reserved":false,"is_disabled":false,"rental_uris":{"android":"levelo://app?vid=b14ac3a7-a1e9-454f-b827-724e9cc73e94","ios":"levelo://app?vid=b14ac3a7-a1e9-454f-b827-724e9cc73e94"},"vehicle_type_id":"4","last_reported":1700690739,"current_range_meters":31200,"station_id":"ce4bhnp2rcd13ifvqh0g","pricing_plan_id":"free"},{"bike_id":"08a68107-b061-4b4b-8fa7-0c3537f8fb57","system_id":"levelo_inurba_marseille","lat":43.27936,"lon":5.41036,"is_reserved":false,"is_disabled":false,"rental_uris":{"android":"levelo://app?vid=08a68107-b061-4b4b-8fa7-0c3537f8fb57","ios":"levelo://app?vid=08a68107-b061-4b4b-8fa7-0c3537f8fb57"},"vehicle_type_id":"4","last_reported":1700690739,"current_range_meters":29200,"station_id":"ce4bhnp2rcd13ifvqh0g","pricing_plan_id":"free"},{"bike_id":"7f5a871e-fd53-4e38-8c7e-7aa7ab105f9b","system_id":"levelo_inurba_marseille","lat":43.26557,"lon":5.37279,"is_reserved":false,"is_disabled":false,"rental_uris":{"android":"levelo://app?vid=7f5a871e-fd53-4e38-8c7e-7aa7ab105f9b","ios":"levelo://app?vid=7f5a871e-fd53-4e38-8c7e-7aa7ab105f9b"},"vehicle_type_id":"4","last_reported":1700690739,"current_range_meters":13200,"station_id":"ce4bhg12rcd13ifvqf70","pricing_plan_id":"free"},{"bike_id":"28e8ce00-6b21-4e06-9930-c7c4408cc650","system_id":"levelo_inurba_marseille","lat":43.326174,"lon":5.430584,"is_reserved":false,"is_disabled":false,"rental_uris":{"android":"levelo://app?vid=28e8ce00-6b21-4e06-9930-c7c4408cc650","ios":"levelo://app?vid=28e8ce00-6b21-4e06-9930-c7c4408cc650"},"vehicle_type_id":"4","last_reported":1700690739,"current_range_meters":5200,"station_id":"","pricing_plan_id":"free"},{"bike_id":"2b5f0b27-ae58-4e9e-bd76-c585f78e8a73","system_id":"levelo_inurba_marseille","lat":43.26386,"lon":5.37454,"is_reserved":false,"is_disabled":false,"rental_uris":{"android":"levelo://app?vid=2b5f0b27-ae58-4e9e-bd76-c585f78e8a73","ios":"levelo://app?vid=2b5f0b27-ae58-4e9e-bd76-c585f78e8a73"},"vehicle_type_id":"4","last_reported":1700690739,"current_range_meters":20800,"station_id":"","pricing_plan_id":"free"},{"bike_id":"e478ce48-305a-4797-b622-95a7ca4dcc02","system_id":"levelo_inurba_marseille","lat":43.308051,"lon":5.43527,"is_reserved":false,"is_disabled":false,"rental_uris":{"android":"levelo://app?vid=e478ce48-305a-4797-b622-95a7ca4dcc02","ios":"levelo://app?vid=e478ce48-305a-4797-b622-95a7ca4dcc02"},"vehicle_type_id":"4","last_reported":1700690739,"current_range_meters":19200,"station_id":"ce4bhph2rcd13ifvqheg","pricing_plan_id":"free"},{"bike_id":"6aedb149-d3d4-474b-9c4a-6ec6a06e9250","system_id":"levelo_inurba_marseille","lat":43.30806,"lon":5.4353,"is_reserved":false,"is_disabled":false,"rental_uris":{"android":"levelo://app?vid=6aedb149-d3d4-474b-9c4a-6ec6a06e9250","ios":"levelo://app?vid=6aedb149-d3d4-474b-9c4a-6ec6a06e9250"},"vehicle_type_id":"4","last_reported":1700690739,"current_range_meters":0,"station_id":"ce4bhph2rcd13ifvqheg","pricing_plan_id":"free"},{"bike_id":"b58675b8-a6da-4d42-9a33-7477fd960e32","system_id":"levelo_inurba_marseille","lat":43.26949,"lon":5.40262,"is_reserved":false,"is_disabled":false,"rental_uris":{"android":"levelo://app?vid=b58675b8-a6da-4d42-9a33-7477fd960e32","ios":"levelo://app?vid=b58675b8-a6da-4d42-9a33-7477fd960e32"},"vehicle_type_id":"4","last_reported":1700690739,"current_range_meters":31200,"station_id":"cjm6bp8fraef2m0cb0m0","pricing_plan_id":"free"},{"bike_id":"5a647630-9d46-4948-8eb7-d34938842c87","system_id":"levelo_inurba_marseille","lat":43.261782,"lon":5.374515,"is_reserved":false,"is_disabled":false,"rental_uris":{"android":"levelo://app?vid=5a647630-9d46-4948-8eb7-d34938842c87","ios":"levelo://app?vid=5a647630-9d46-4948-8eb7-d34938842c87"},"vehicle_type_id":"4","last_reported":1700690739,"current_range_meters":0,"station_id":"ce4bhgp2rcd13ifvqfc0","pricing_plan_id":"free"},{"bike_id":"0c1ccddf-9be0-4743-8da5-6d7e78fc22ad","system_id":"levelo_inurba_marseille","lat":43.317104,"lon":5.436818,"is_reserved":false,"is_disabled":false,"rental_uris":{"android":"levelo://app?vid=0c1ccddf-9be0-4743-8da5-6d7e78fc22ad","ios":"levelo://app?vid=0c1ccddf-9be0-4743-8da5-6d7e78fc22ad"},"vehicle_type_id":"4","last_reported":1700690739,"current_range_meters":26800,"station_id":"ce4bhp92rcd13ifvqhcg","pricing_plan_id":"free"},{"bike_id":"ff7a45ff-5d52-41fa-a439-5d65ece23909","system_id":"levelo_inurba_marseille","lat":43.271368,"lon":5.40928,"is_reserved":false,"is_disabled":false,"rental_uris":{"android":"levelo://app?vid=ff7a45ff-5d52-41fa-a439-5d65ece23909","ios":"levelo://app?vid=ff7a45ff-5d52-41fa-a439-5d65ece23909"},"vehicle_type_id":"4","last_reported":1700690739,"current_range_meters":6400,"station_id":"ce4bhl12rcd13ifvqgf0","pricing_plan_id":"free"},{"bike_id":"860103e4-b3a2-49bf-a852-14e4f54ff085","system_id":"levelo_inurba_marseille","lat":43.27178,"lon":5.40992,"is_reserved":false,"is_disabled":false,"rental_uris":{"android":"levelo://app?vid=860103e4-b3a2-49bf-a852-14e4f54ff085","ios":"levelo://app?vid=860103e4-b3a2-49bf-a852-14e4f54ff085"},"vehicle_type_id":"4","last_reported":1700690739,"current_range_meters":29600,"station_id":"ce4bhl12rcd13ifvqgf0","pricing_plan_id":"free"},{"bike_id":"89d7335e-3645-4638-83ba-2585d8f30172","system_id":"levelo_inurba_marseille","lat":43.262012,"lon":5.379307,"is_reserved":false,"is_disabled":false,"rental_uris":{"android":"levelo://app?vid=89d7335e-3645-4638-83ba-2585d8f30172","ios":"levelo://app?vid=89d7335e-3645-4638-83ba-2585d8f30172"},"vehicle_type_id":"4","last_reported":1700690739,"current_range_meters":24800,"station_id":"ce4bhjp2rcd13ifvqg90","pricing_plan_id":"free"},{"bike_id":"33a47d97-7d3c-469c-9014-f117a229b731","system_id":"levelo_inurba_marseille","lat":43.271368,"lon":5.40928,"is_reserved":false,"is_disabled":false,"rental_uris":{"android":"levelo://app?vid=33a47d97-7d3c-469c-9014-f117a229b731","ios":"levelo://app?vid=33a47d97-7d3c-469c-9014-f117a229b731"},"vehicle_type_id":"4","last_reported":1700690739,"current_range_meters":24400,"station_id":"ce4bhl12rcd13ifvqgf0","pricing_plan_id":"free"},{"bike_id":"861e94e2-982b-4215-a671-df650b5b6578","system_id":"levelo_inurba_marseille","lat":43.271368,"lon":5.40928,"is_reserved":false,"is_disabled":false,"rental_uris":{"android":"levelo://app?vid=861e94e2-982b-4215-a671-df650b5b6578","ios":"levelo://app?vid=861e94e2-982b-4215-a671-df650b5b6578"},"vehicle_type_id":"4","last_reported":1700690739,"current_range_meters":10800,"station_id":"ce4bhl12rcd13ifvqgf0","pricing_plan_id":"free"},{"bike_id":"da29cfd2-b421-48b9-bd8a-273a427ebf35","system_id":"levelo_inurba_marseille","lat":43.271388,"lon":5.409269,"is_reserved":false,"is_disabled":false,"rental_uris":{"android":"levelo://app?vid=da29cfd2-b421-48b9-bd8a-273a427ebf35","ios":"levelo://app?vid=da29cfd2-b421-48b9-bd8a-273a427ebf35"},"vehicle_type_id":"4","last_reported":1700690739,"current_range_meters":8800,"station_id":"ce4bhl12rcd13ifvqgf0","pricing_plan_id":"free"},{"bike_id":"1ec02c52-83d7-4930-98cc-a30ac1c548f5","system_id":"levelo_inurba_marseille","lat":43.271368,"lon":5.40928,"is_reserved":false,"is_disabled":false,"rental_uris":{"android":"levelo://app?vid=1ec02c52-83d7-4930-98cc-a30ac1c548f5","ios":"levelo://app?vid=1ec02c52-83d7-4930-98cc-a30ac1c548f5"},"vehicle_type_id":"4","last_reported":1700690739,"current_range_meters":14000,"station_id":"ce4bhl12rcd13ifvqgf0","pricing_plan_id":"free"},{"bike_id":"2f9c6419-d9de-4778-9648-b8fc5484b985","system_id":"levelo_inurba_marseille","lat":43.271368,"lon":5.40928,"is_reserved":false,"is_disabled":false,"rental_uris":{"android":"levelo://app?vid=2f9c6419-d9de-4778-9648-b8fc5484b985","ios":"levelo://app?vid=2f9c6419-d9de-4778-9648-b8fc5484b985"},"vehicle_type_id":"4","last_reported":1700690739,"current_range_meters":21200,"station_id":"ce4bhl12rcd13ifvqgf0","pricing_plan_id":"free"},{"bike_id":"b982ee69-d95d-4efa-90cb-423d3556982c","system_id":"levelo_inurba_marseille","lat":43.271368,"lon":5.40928,"is_reserved":false,"is_disabled":false,"rental_uris":{"android":"levelo://app?vid=b982ee69-d95d-4efa-90cb-423d3556982c","ios":"levelo://app?vid=b982ee69-d95d-4efa-90cb-423d3556982c"},"vehicle_type_id":"4","last_reported":1700690739,"current_range_meters":23600,"station_id":"ce4bhl12rcd13ifvqgf0","pricing_plan_id":"free"},{"bike_id":"cb16d7ee-4d8d-44c4-bc7a-142b1234ab63","system_id":"levelo_inurba_marseille","lat":43.31725,"lon":5.43786,"is_reserved":false,"is_disabled":false,"rental_uris":{"android":"levelo://app?vid=cb16d7ee-4d8d-44c4-bc7a-142b1234ab63","ios":"levelo://app?vid=cb16d7ee-4d8d-44c4-bc7a-142b1234ab63"},"vehicle_type_id":"4","last_reported":1700690739,"current_range_meters":1600,"station_id":"","pricing_plan_id":"free"},{"bike_id":"8abaea89-c998-4b8b-aba3-b089db006ba2","system_id":"levelo_inurba_marseille","lat":43.298768,"lon":5.43643,"is_reserved":false,"is_disabled":false,"rental_uris":{"android":"levelo://app?vid=8abaea89-c998-4b8b-aba3-b089db006ba2","ios":"levelo://app?vid=8abaea89-c998-4b8b-aba3-b089db006ba2"},"vehicle_type_id":"4","last_reported":1700690739,"current_range_meters":29200,"station_id":"ce4bhpp2rcd13ifvqhfg","pricing_plan_id":"free"},{"bike_id":"cb70a0a7-a3ba-40be-8f5b-54253a525851","system_id":"levelo_inurba_marseille","lat":43.29901,"lon":5.436851,"is_reserved":false,"is_disabled":false,"rental_uris":{"android":"levelo://app?vid=cb70a0a7-a3ba-40be-8f5b-54253a525851","ios":"levelo://app?vid=cb70a0a7-a3ba-40be-8f5b-54253a525851"},"vehicle_type_id":"4","last_reported":1700690739,"current_range_meters":0,"station_id":"ce4bhpp2rcd13ifvqhfg","pricing_plan_id":"free"},{"bike_id":"56cfcdad-7deb-457c-aa73-c91fd9caf8e3","system_id":"levelo_inurba_marseille","lat":43.281548,"lon":5.42643,"is_reserved":false,"is_disabled":false,"rental_uris":{"android":"levelo://app?vid=56cfcdad-7deb-457c-aa73-c91fd9caf8e3","ios":"levelo://app?vid=56cfcdad-7deb-457c-aa73-c91fd9caf8e3"},"vehicle_type_id":"4","last_reported":1700690739,"current_range_meters":30800,"station_id":"ce4bhnh2rcd13ifvqgug","pricing_plan_id":"free"},{"bike_id":"6b188708-9907-4cc6-a7fa-bcdecbd5a74b","system_id":"levelo_inurba_marseille","lat":43.27495,"lon":5.42454,"is_reserved":false,"is_disabled":false,"rental_uris":{"android":"levelo://app?vid=6b188708-9907-4cc6-a7fa-bcdecbd5a74b","ios":"levelo://app?vid=6b188708-9907-4cc6-a7fa-bcdecbd5a74b"},"vehicle_type_id":"4","last_reported":1700690739,"current_range_meters":400,"station_id":"ce4bhn92rcd13ifvqgrg","pricing_plan_id":"free"},{"bike_id":"e47e1dfd-4446-4396-a1e6-33d759083564","system_id":"levelo_inurba_marseille","lat":43.255756,"lon":5.382303,"is_reserved":false,"is_disabled":false,"rental_uris":{"android":"levelo://app?vid=e47e1dfd-4446-4396-a1e6-33d759083564","ios":"levelo://app?vid=e47e1dfd-4446-4396-a1e6-33d759083564"},