{"last_updated":1725570472,"ttl":30,"version":"2.2","data":{"bikes":[{"bike_id":"0c51262f-8f62-4aaa-9d40-f2382e437b56","system_id":"levelo_inurba_marseille","lat":43.313391,"lon":5.36706,"is_reserved":false,"is_disabled":false,"rental_uris":{"android":"levelo://app?vid=0c51262f-8f62-4aaa-9d40-f2382e437b56","ios":"levelo://app?vid=0c51262f-8f62-4aaa-9d40-f2382e437b56"},"vehicle_type_id":"4","last_reported":1725570472,"current_range_meters":30400,"station_id":"ce4bgr92rcd13ifvqc6g","pricing_plan_id":"cebpf4jnsgd1na2vs0mg"},{"bike_id":"a2e38771-2b28-4ff6-ae14-763499422f70","system_id":"levelo_inurba_marseille","lat":43.311587,"lon":5.373366,"is_reserved":false,"is_disabled":false,"rental_uris":{"android":"levelo://app?vid=a2e38771-2b28-4ff6-ae14-763499422f70","ios":"levelo://app?vid=a2e38771-2b28-4ff6-ae14-763499422f70"},"vehicle_type_id":"4","last_reported":1725570472,"current_range_meters":14400,"station_id":"","pricing_plan_id":"cebpf4jnsgd1na2vs0mg"},{"bike_id":"bbd33773-a143-4554-96ec-a7967a6b54bb","system_id":"levelo_inurba_marseille","lat":43.31484,"lon":5.37295,"is_reserved":false,"is_disabled":false,"rental_uris":{"android":"levelo://app?vid=bbd33773-a143-4554-96ec-a7967a6b54bb","ios":"levelo://app?vid=bbd33773-a143-4554-96ec-a7967a6b54bb"},"vehicle_type_id":"4","last_reported":1725570472,"current_range_meters":22400,"station_id":"ce4bgt12rcd13ifvqcd0","pricing_plan_id":"cebpf4jnsgd1na2vs0mg"},{"bike_id":"fd4319ca-5ec6-4033-b493-6b2d9e929a94","system_id":"levelo_inurba_marseille","lat":43.314811,"lon":5.373103,"is_reserved":false,"is_disabled":false,"rental_uris":{"android":"levelo://app?vid=fd4319ca-5ec6-4033-b493-6b2d9e929a94","ios":"levelo://app?vid=fd4319ca-5ec6-4033-b493-6b2d9e929a94"},"vehicle_type_id":"4","last_reported":1725570472,"current_range_meters":1600,"station_id":"ce4bgt12rcd13ifvqcd0","pricing_plan_id":"cebpf4jnsgd1na2vs0mg"},{"bike_id":"a83ee426-889e-4046-9485-1fd14b22e8c4","system_id":"levelo_inurba_marseille","lat":43.314811,"lon":5.373103,"is_reserved":false,"is_disabled":false,"rental_uris":{"android":"levelo://app?vid=a83ee426-889e-4046-9485-1fd14b22e8c4","ios":"levelo://app?vid=a83ee426-889e-4046-9485-1fd14b22e8c4"},"vehicle_type_id":"4","last_reported":1725570472,"current_range_meters":31200,"station_id":"ce4bgt12rcd13ifvqcd0","pricing_plan_id":"cebpf4jnsgd1na2vs0mg"},{"bike_id":"8502ac9a-1fb8-4ef4-be38-17a7e7fe0ebf","system_id":"levelo_inurba_marseille","lat":43.309039,"lon":5.371797,"is_reserved":false,"is_disabled":false,"rental_uris":{"android":"levelo://app?vid=8502ac9a-1fb8-4ef4-be38-17a7e7fe0ebf","ios":"levelo://app?vid=8502ac9a-1fb8-4ef4-be38-17a7e7fe0ebf"},"vehicle_type_id":"4","last_reported":1725570472,"current_range_meters":29200,"station_id":"ce4bguh2rcd13ifvqckg","pricing_plan_id":"cebpf4jnsgd1na2vs0mg"},{"bike_id":"15829600-6935-4ef9-8e58-0485553f8624","system_id":"levelo_inurba_marseille","lat":43.309034,"lon":5.371783,"is_reserved":false,"is_disabled":false,"rental_uris":{"android":"levelo://app?vid=15829600-6935-4ef9-8e58-0485553f8624","ios":"levelo://app?vid=15829600-6935-4ef9-8e58-0485553f8624"},"vehicle_type_id":"4","last_reported":1725570472,"current_range_meters":14400,"station_id":"ce4bguh2rcd13ifvqckg","pricing_plan_id":"cebpf4jnsgd1na2vs0mg"},{"bike_id":"5bed4a70-d752-49dc-b7eb-3da1e84dba76","system_id":"levelo_inurba_marseille","lat":43.309039,"lon":5.371797,"is_reserved":false,"is_disabled":false,"rental_uris":{"android":"levelo://app?vid=5bed4a70-d752-49dc-b7eb-3da1e84dba76","ios":"levelo://app?vid=5bed4a70-d752-49dc-b7eb-3da1e84dba76"},"vehicle_type_id":"4","last_reported":1725570472,"current_range_meters":9600,"station_id":"ce4bguh2rcd13ifvqckg","pricing_plan_id":"cebpf4jnsgd1na2vs0mg"},{"bike_id":"2c3134ee-4ebc-4ffe-b572-7d0b09809437","system_id":"levelo_inurba_marseille","lat":43.309034,"lon":5.371783,"is_reserved":false,"is_disabled":false,"rental_uris":{"android":"levelo://app?vid=2c3134ee-4ebc-4ffe-b572-7d0b09809437","ios":"levelo://app?vid=2c3134ee-4ebc-4ffe-b572-7d0b09809437"},"vehicle_type_id":"4","last_reported":1725570472,"current_range_meters":24000,"station_id":"ce4bguh2rcd13ifvqckg","pricing_plan_id":"cebpf4jnsgd1na2vs0mg"},{"bike_id":"0462446d-ca66-4cc8-abfa-678b52525829","system_id":"levelo_inurba_marseille","lat":43.309034,"lon":5.371783,"is_reserved":false,"is_disabled":false,"rental_uris":{"android":"levelo://app?vid=0462446d-ca66-4cc8-abfa-678b52525829","ios":"levelo://app?vid=0462446d-ca66-4cc8-abfa-678b52525829"},"vehicle_type_id":"4","last_reported":1725570472,"current_range_meters":16400,"station_id":"ce4bguh2rcd13ifvqckg","pricing_plan_id":"cebpf4jnsgd1na2vs0mg"},{"bike_id":"0605aaaa-1a7b-4c8a-98ed-ae7079d26813","system_id":"levelo_inurba_marseille","lat":43.309034,"lon":5.371783,"is_reserved":false,"is_disabled":false,"rental_uris":{"android":"levelo://app?vid=0605aaaa-1a7b-4c8a-98ed-ae7079d26813","ios":"levelo://app?vid=0605aaaa-1a7b-4c8a-98ed-ae7079d26813"},"vehicle_type_id":"4","last_reported":1725570472,"current_range_meters":12800,"station_id":"ce4bguh2rcd13ifvqckg","pricing_plan_id":"cebpf4jnsgd1na2vs0mg"},{"bike_id":"456b9bd8-d113-43dd-b8ce-028c3c01249b","system_id":"levelo_inurba_marseille","lat":43.309039,"lon":5.371797,"is_reserved":false,"is_disabled":false,"rental_uris":{"android":"levelo://app?vid=456b9bd8-d113-43dd-b8ce-028c3c01249b","ios":"levelo://app?vid=456b9bd8-d113-43dd-b8ce-028c3c01249b"},"vehicle_type_id":"4","last_reported":1725570472,"current_range_meters":0,"station_id":"ce4bguh2rcd13ifvqckg","pricing_plan_id":"cebpf4jnsgd1na2vs0mg"},{"bike_id":"d3ab9b08-05ba-4c1f-8a7d-5fc29c42725c","system_id":"levelo_inurba_marseille","lat":43.309034,"lon":5.371783,"is_reserved":false,"is_disabled":false,"rental_uris":{"android":"levelo://app?vid=d3ab9b08-05ba-4c1f-8a7d-5fc29c42725c","ios":"levelo://app?vid=d3ab9b08-05ba-4c1f-8a7d-5fc29c42725c"},"vehicle_type_id":"4","last_reported":1725570472,"current_range_meters":22000,"station_id":"ce4bguh2rcd13ifvqckg","pricing_plan_id":"cebpf4jnsgd1na2vs0mg"},{"bike_id":"fc90d98f-4a52-4d5b-8608-d2e9c79bf5e9","system_id":"levelo_inurba_marseille","lat":43.309034,"lon":5.371783,"is_reserved":false,"is_disabled":false,"rental_uris":{"android":"levelo://app?vid=fc90d98f-4a52-4d5b-8608-d2e9c79bf5e9","ios":"levelo://app?vid=fc90d98f-4a52-4d5b-8608-d2e9c79bf5e9"},"vehicle_type_id":"4","last_reported":1725570472,"current_range_meters":8000,"station_id":"ce4bguh2rcd13ifvqckg","pricing_plan_id":"cebpf4jnsgd1na2vs0mg"},{"bike_id":"b4d93ee9-a8ea-4d44-9201-03b630b6ba93","system_id":"levelo_inurba_marseille","lat":43.309039,"lon":5.371797,"is_reserved":false,"is_disabled":false,"rental_uris":{"android":"levelo://app?vid=b4d93ee9-a8ea-4d44-9201-03b630b6ba93","ios":"levelo://app?vid=b4d93ee9-a8ea-4d44-9201-03b630b6ba93"},"vehicle_type_id":"4","last_reported":1725570472,"current_range_meters":1200,"station_id":"ce4bguh2rcd13ifvqckg","pricing_plan_id":"cebpf4jnsgd1na2vs0mg"},{"bike_id":"ebc14089-2949-46ef-9600-021cefca6266","system_id":"levelo_inurba_marseille","lat":43.3149,"lon":5.37391,"is_reserved":false,"is_disabled":false,"rental_uris":{"android":"levelo://app?vid=ebc14089-2949-46ef-9600-021cefca6266","ios":"levelo://app?vid=ebc14089-2949-46ef-9600-021cefca6266"},"vehicle_type_id":"4","last_reported":1725570472,"current_range_meters":27200,"station_id":"","pricing_plan_id":"cebpf4jnsgd1na2vs0mg"},{"bike_id":"8a584108-181f-43c7-87f7-d82dd23d3ad1","system_id":"levelo_inurba_marseille","lat":43.30537,"lon":5.367345,"is_reserved":false,"is_disabled":false,"rental_uris":{"android":"levelo://app?vid=8a584108-181f-43c7-87f7-d82dd23d3ad1","ios":"levelo://app?vid=8a584108-181f-43c7-87f7-d82dd23d3ad1"},"vehicle_type_id":"4","last_reported":1725570472,"current_range_meters":14400,"station_id":"ce4bgrp2rcd13ifvqc9g","pricing_plan_id":"cebpf4jnsgd1na2vs0mg"},{"bike_id":"0725facc-5879-4049-ab15-720b6fa6822b","system_id":"levelo_inurba_marseille","lat":43.30537,"lon":5.367345,"is_reserved":false,"is_disabled":false,"rental_uris":{"android":"levelo://app?vid=0725facc-5879-4049-ab15-720b6fa6822b","ios":"levelo://app?vid=0725facc-5879-4049-ab15-720b6fa6822b"},"vehicle_type_id":"4","last_reported":1725570472,"current_range_meters":10000,"station_id":"ce4bgrp2rcd13ifvqc9g","pricing_plan_id":"cebpf4jnsgd1na2vs0mg"},{"bike_id":"612bffa5-377c-4483-a15e-5e213df6d810","system_id":"levelo_inurba_marseille","lat":43.30522,"lon":5.3659,"is_reserved":false,"is_disabled":false,"rental_uris":{"android":"levelo://app?vid=612bffa5-377c-4483-a15e-5e213df6d810","ios":"levelo://app?vid=612bffa5-377c-4483-a15e-5e213df6d810"},"vehicle_type_id":"4","last_reported":1725570472,"current_range_meters":16000,"station_id":"","pricing_plan_id":"cebpf4jnsgd1na2vs0mg"},{"bike_id":"bc77c15e-86a1-46f7-be5a-b11e7769b354","system_id":"levelo_inurba_marseille","lat":43.31274,"lon":5.37749,"is_reserved":false,"is_disabled":false,"rental_uris":{"android":"levelo://app?vid=bc77c15e-86a1-46f7-be5a-b11e7769b354","ios":"levelo://app?vid=bc77c15e-86a1-46f7-be5a-b11e7769b354"},"vehicle_type_id":"4","last_reported":1725570472,"current_range_meters":5200,"station_id":"","pricing_plan_id":"cebpf4jnsgd1na2vs0mg"},{"bike_id":"8012652a-326f-43ac-ba2d-159e912ab3bc","system_id":"levelo_inurba_marseille","lat":43.305989,"lon":5.37225,"is_reserved":false,"is_disabled":false,"rental_uris":{"android":"levelo://app?vid=8012652a-326f-43ac-ba2d-159e912ab3bc","ios":"levelo://app?vid=8012652a-326f-43ac-ba2d-159e912ab3bc"},"vehicle_type_id":"4","last_reported":1725570472,"current_range_meters":0,"station_id":"ce4bgqh2rcd13ifvqc4g","pricing_plan_id":"cebpf4jnsgd1na2vs0mg"},{"bike_id":"c5892d22-f928-44d6-95a7-d9827b4b3041","system_id":"levelo_inurba_marseille","lat":43.311125,"lon":5.377624,"is_reserved":false,"is_disabled":false,"rental_uris":{"android":"levelo://app?vid=c5892d22-f928-44d6-95a7-d9827b4b3041","ios":"levelo://app?vid=c5892d22-f928-44d6-95a7-d9827b4b3041"},"vehicle_type_id":"4","last_reported":1725570472,"current_range_meters":1600,"station_id":"ce4bgt92rcd13ifvqcg0","pricing_plan_id":"cebpf4jnsgd1na2vs0mg"},{"bike_id":"43bf2ae2-f68b-454b-8923-75ffd6e96901","system_id":"levelo_inurba_marseille","lat":43.311125,"lon":5.377624,"is_reserved":false,"is_disabled":false,"rental_uris":{"android":"levelo://app?vid=43bf2ae2-f68b-454b-8923-75ffd6e96901","ios":"levelo://app?vid=43bf2ae2-f68b-454b-8923-75ffd6e96901"},"vehicle_type_id":"4","last_reported":1725570472,"current_range_meters":12000,"station_id":"ce4bgt92rcd13ifvqcg0","pricing_plan_id":"cebpf4jnsgd1na2vs0mg"},{"bike_id":"71acf66b-4693-4406-8e2a-43be732de8a6","system_id":"levelo_inurba_marseille","lat":43.311125,"lon":5.377624,"is_reserved":false,"is_disabled":false,"rental_uris":{"android":"levelo://app?vid=71acf66b-4693-4406-8e2a-43be732de8a6","ios":"levelo://app?vid=71acf66b-4693-4406-8e2a-43be732de8a6"},"vehicle_type_id":"4","last_reported":1725570472,"current_range_meters":20000,"station_id":"ce4bgt92rcd13ifvqcg0","pricing_plan_id":"cebpf4jnsgd1na2vs0mg"},{"bike_id":"df7f512f-c273-4d5b-8e8d-09cf9df65382","system_id":"levelo_inurba_marseille","lat":43.307945,"lon":5.376487,"is_reserved":false,"is_disabled":false,"rental_uris":{"android":"levelo://app?vid=df7f512f-c273-4d5b-8e8d-09cf9df65382","ios":"levelo://app?vid=df7f512f-c273-4d5b-8e8d-09cf9df65382"},"vehicle_type_id":"4","last_reported":1725570472,"current_range_meters":22400,"station_id":"ce4bgv92rcd13ifvqcq0","pricing_plan_id":"cebpf4jnsgd1na2vs0mg"},{"bike_id":"625c020a-4218-4755-a524-3810fb4f6d6a","system_id":"levelo_inurba_marseille","lat":43.307945,"lon":5.376487,"is_reserved":false,"is_disabled":false,"rental_uris":{"android":"levelo://app?vid=625c020a-4218-4755-a524-3810fb4f6d6a","ios":"levelo://app?vid=625c020a-4218-4755-a524-3810fb4f6d6a"},"vehicle_type_id":"4","last_reported":1725570472,"current_range_meters":11200,"station_id":"ce4bgv92rcd13ifvqcq0","pricing_plan_id":"cebpf4jnsgd1na2vs0mg"},{"bike_id":"108231c2-49c8-4414-b9c7-9dbb18a701c7","system_id":"levelo_inurba_marseille","lat":43.3078,"lon":5.37653,"is_reserved":false,"is_disabled":false,"rental_uris":{"android":"levelo://app?vid=108231c2-49c8-4414-b9c7-9dbb18a701c7","ios":"levelo://app?vid=108231c2-49c8-4414-b9c7-9dbb18a701c7"},"vehicle_type_id":"4","last_reported":1725570472,"current_range_meters":0,"station_id":"ce4bgv92rcd13ifvqcq0","pricing_plan_id":"cebpf4jnsgd1na2vs0mg"},{"bike_id":"9c327a20-65e6-4cf7-8165-169bb977067e","system_id":"levelo_inurba_marseille","lat":43.301396,"lon":5.387812,"is_reserved":false,"is_disabled":false,"rental_uris":{"android":"levelo://app?vid=9c327a20-65e6-4cf7-8165-169bb977067e","ios":"levelo://app?vid=9c327a20-65e6-4cf7-8165-169bb977067e"},"vehicle_type_id":"4","last_reported":1725570472,"current_range_meters":800,"station_id":"ce4bghh2rcd13ifvqb60","pricing_plan_id":"cebpf4jnsgd1na2vs0mg"},{"bike_id":"5a020569-723f-42b3-b06c-47d0d5479c88","system_id":"levelo_inurba_marseille","lat":43.31707,"lon":5.377435,"is_reserved":false,"is_disabled":false,"rental_uris":{"android":"levelo://app?vid=5a020569-723f-42b3-b06c-47d0d5479c88","ios":"levelo://app?vid=5a020569-723f-42b3-b06c-47d0d5479c88"},"vehicle_type_id":"4","last_reported":1725570472,"current_range_meters":9200,"station_id":"ce4bgth2rcd13ifvqch0","pricing_plan_id":"cebpf4jnsgd1na2vs0mg"},{"bike_id":"b3729d11-4c4c-450c-8d92-7fe4bb08d079","system_id":"levelo_inurba_marseille","lat":43.317055,"lon":5.37759,"is_reserved":false,"is_disabled":false,"rental_uris":{"android":"levelo://app?vid=b3729d11-4c4c-450c-8d92-7fe4bb08d079","ios":"levelo://app?vid=b3729d11-4c4c-450c-8d92-7fe4bb08d079"},"vehicle_type_id":"4","last_reported":1725570472,"current_range_meters":23200,"station_id":"ce4bgth2rcd13ifvqch0","pricing_plan_id":"cebpf4jnsgd1na2vs0mg"},{"bike_id":"1307552c-9a92-48f5-ab96-efc57e56844b","system_id":"levelo_inurba_marseille","lat":43.317075,"lon":5.377367,"is_reserved":false,"is_disabled":false,"rental_uris":{"android":"levelo://app?vid=1307552c-9a92-48f5-ab96-efc57e56844b","ios":"levelo://app?vid=1307552c-9a92-48f5-ab96-efc57e56844b"},"vehicle_type_id":"4","last_reported":1725570472,"current_range_meters":7200,"station_id":"ce4bgth2rcd13ifvqch0","pricing_plan_id":"cebpf4jnsgd1na2vs0mg"},{"bike_id":"2aa6f1c4-9fb6-4e47-84b2-322f33aa6146","system_id":"levelo_inurba_marseille","lat":43.3174,"lon":5.37803,"is_reserved":false,"is_disabled":false,"rental_uris":{"android":"levelo://app?vid=2aa6f1c4-9fb6-4e47-84b2-322f33aa6146","ios":"levelo://app?vid=2aa6f1c4-9fb6-4e47-84b2-322f33aa6146"},"vehicle_type_id":"4","last_reported":1725570472,"current_range_meters":18800,"station_id":"","pricing_plan_id":"cebpf4jnsgd1na2vs0mg"},{"bike_id":"83581d8e-3dce-4c11-9397-9e95ab85a5f3","system_id":"levelo_inurba_marseille","lat":43.311354,"lon":5.37988,"is_reserved":false,"is_disabled":false,"rental_uris":{"android":"levelo://app?vid=83581d8e-3dce-4c11-9397-9e95ab85a5f3","ios":"levelo://app?vid=83581d8e-3dce-4c11-9397-9e95ab85a5f3"},"vehicle_type_id":"4","last_reported":1725570472,"current_range_meters":10800,"station_id":"","pricing_plan_id":"cebpf4jnsgd1na2vs0mg"},{"bike_id":"6277ba14-9cc0-4d24-807c-0fc60bb52748","system_id":"levelo_inurba_marseille","lat":43.30406,"lon":5.37339,"is_reserved":false,"is_disabled":false,"rental_uris":{"android":"levelo://app?vid=6277ba14-9cc0-4d24-807c-0fc60bb52748","ios":"levelo://app?vid=6277ba14-9cc0-4d24-807c-0fc60bb52748"},"vehicle_type_id":"4","last_reported":1725570472,"current_range_meters":13200,"station_id":"","pricing_plan_id":"cebpf4jnsgd1na2vs0mg"},{"bike_id":"91040f8c-ef78-4e9f-9f7d-30b539f83bdc","system_id":"levelo_inurba_marseille","lat":43.315289,"lon":5.380349,"is_reserved":false,"is_disabled":false,"rental_uris":{"android":"levelo://app?vid=91040f8c-ef78-4e9f-9f7d-30b539f83bdc","ios":"levelo://app?vid=91040f8c-ef78-4e9f-9f7d-30b539f83bdc"},"vehicle_type_id":"4","last_reported":1725570472,"current_range_meters":400,"station_id":"ce4bhsp2rcd13ifvqi50","pricing_plan_id":"cebpf4jnsgd1na2vs0mg"},{"bike_id":"f85a9ce4-e2b5-4193-81ed-9a882dfdaadf","system_id":"levelo_inurba_marseille","lat":43.315289,"lon":5.380349,"is_reserved":false,"is_disabled":false,"rental_uris":{"android":"levelo://app?vid=f85a9ce4-e2b5-4193-81ed-9a882dfdaadf","ios":"levelo://app?vid=f85a9ce4-e2b5-4193-81ed-9a882dfdaadf"},"vehicle_type_id":"4","last_reported":1725570472,"current_range_meters":7600,"station_id":"ce4bhsp2rcd13ifvqi50","pricing_plan_id":"cebpf4jnsgd1na2vs0mg"},{"bike_id":"4d613b6e-7401-4476-a6bd-1add5fd96940","system_id":"levelo_inurba_marseille","lat":43.315289,"lon":5.380349,"is_reserved":false,"is_disabled":false,"rental_uris":{"android":"levelo://app?vid=4d613b6e-7401-4476-a6bd-1add5fd96940","ios":"levelo://app?vid=4d613b6e-7401-4476-a6bd-1add5fd96940"},"vehicle_type_id":"4","last_reported":1725570472,"current_range_meters":14800,"station_id":"ce4bhsp2rcd13ifvqi50","pricing_plan_id":"cebpf4jnsgd1na2vs0mg"},{"bike_id":"d94123c0-7eee-4c96-886d-8169ea2a4012","system_id":"levelo_inurba_marseille","lat":43.315289,"lon":5.380349,"is_reserved":false,"is_disabled":false,"rental_uris":{"android":"levelo://app?vid=d94123c0-7eee-4c96-886d-8169ea2a4012","ios":"levelo://app?vid=d94123c0-7eee-4c96-886d-8169ea2a4012"},"vehicle_type_id":"4","last_reported":1725570472,"current_range_meters":30800,"station_id":"ce4bhsp2rcd13ifvqi50","pricing_plan_id":"cebpf4jnsgd1na2vs0mg"},{"bike_id":"94e5e356-6b2d-4914-8089-f68eb79c9945","system_id":"levelo_inurba_marseille","lat":43.315289,"lon":5.380349,"is_reserved":false,"is_disabled":false,"rental_uris":{"android":"levelo://app?vid=94e5e356-6b2d-4914-8089-f68eb79c9945","ios":"levelo://app?vid=94e5e356-6b2d-4914-8089-f68eb79c9945"},"vehicle_type_id":"4","last_reported":1725570472,"current_range_meters":14400,"station_id":"ce4bhsp2rcd13ifvqi50","pricing_plan_id":"cebpf4jnsgd1na2vs0mg"},{"bike_id":"c4bbd94f-5b2b-4859-b95e-bb0f67c0147a","system_id":"levelo_inurba_marseille","lat":43.301939,"lon":5.366286,"is_reserved":false,"is_disabled":false,"rental_uris":{"android":"levelo://app?vid=c4bbd94f-5b2b-4859-b95e-bb0f67c0147a","ios":"levelo://app?vid=c4bbd94f-5b2b-4859-b95e-bb0f67c0147a"},"vehicle_type_id":"4","last_reported":1725570472,"current_range_meters":23600,"station_id":"ce4bgrh2rcd13ifvqc8g","pricing_plan_id":"cebpf4jnsgd1na2vs0mg"},{"bike_id":"7989ef98-2242-45e7-92eb-92d8f54210f6","system_id":"levelo_inurba_marseille","lat":43.301939,"lon":5.366286,"is_reserved":false,"is_disabled":false,"rental_uris":{"android":"levelo://app?vid=7989ef98-2242-45e7-92eb-92d8f54210f6","ios":"levelo://app?vid=7989ef98-2242-45e7-92eb-92d8f54210f6"},"vehicle_type_id":"4","last_reported":1725570472,"current_range_meters":0,"station_id":"ce4bgrh2rcd13ifvqc8g","pricing_plan_id":"cebpf4jnsgd1na2vs0mg"},{"bike_id":"f93d5fba-dbf6-4d55-9a59-a3f3d549577d","system_id":"levelo_inurba_marseille","lat":43.301875,"lon":5.369413,"is_reserved":false,"is_disabled":false,"rental_uris":{"android":"levelo://app?vid=f93d5fba-dbf6-4d55-9a59-a3f3d549577d","ios":"levelo://app?vid=f93d5fba-dbf6-4d55-9a59-a3f3d549577d"},"vehicle_type_id":"4","last_reported":1725570472,"current_range_meters":0,"station_id":"","pricing_plan_id":"cebpf4jnsgd1na2vs0mg"},{"bike_id":"a0b65f39-044f-46a3-a224-5abcc5e9cb1d","system_id":"levelo_inurba_marseille","lat":43.308012,"lon":5.381511,"is_reserved":false,"is_disabled":false,"rental_uris":{"android":"levelo://app?vid=a0b65f39-044f-46a3-a224-5abcc5e9cb1d","ios":"levelo://app?vid=a0b65f39-044f-46a3-a224-5abcc5e9cb1d"},"vehicle_type_id":"4","last_reported":1725570472,"current_range_meters":7200,"station_id":"ce4bgt12rcd13ifvqce0","pricing_plan_id":"cebpf4jnsgd1na2vs0mg"},{"bike_id":"e2214158-00f2-4402-885f-fa76447a443b","system_id":"levelo_inurba_marseille","lat":43.308012,"lon":5.381511,"is_reserved":false,"is_disabled":false,"rental_uris":{"android":"levelo://app?vid=e2214158-00f2-4402-885f-fa76447a443b","ios":"levelo://app?vid=e2214158-00f2-4402-885f-fa76447a443b"},"vehicle_type_id":"4","last_reported":1725570472,"current_range_meters":0,"station_id":"ce4bgt12rcd13ifvqce0","pricing_plan_id":"cebpf4jnsgd1na2vs0mg"},{"bike_id":"c6f39728-12ef-41bb-988d-c634907c0ecf","system_id":"levelo_inurba_marseille","lat":43.308012,"lon":5.381511,"is_reserved":false,"is_disabled":false,"rental_uris":{"android":"levelo://app?vid=c6f39728-12ef-41bb-988d-c634907c0ecf","ios":"levelo://app?vid=c6f39728-12ef-41bb-988d-c634907c0ecf"},"vehicle_type_id":"4","last_reported":1725570472,"current_range_meters":14800,"station_id":"ce4bgt12rcd13ifvqce0","pricing_plan_id":"cebpf4jnsgd1na2vs0mg"},{"bike_id":"409f0860-da8a-4d3e-b1cf-192136a7a9e2","system_id":"levelo_inurba_marseille","lat":43.308012,"lon":5.381511,"is_reserved":false,"is_disabled":false,"rental_uris":{"android":"levelo://app?vid=409f0860-da8a-4d3e-b1cf-192136a7a9e2","ios":"levelo://app?vid=409f0860-da8a-4d3e-b1cf-192136a7a9e2"},"vehicle_type_id":"4","last_reported":1725570472,"current_range_meters":19600,"station_id":"ce4bgt12rcd13ifvqce0","pricing_plan_id":"cebpf4jnsgd1na2vs0mg"},{"bike_id":"eaf34d03-eec2-4c3f-a39f-e50f927728cf","system_id":"levelo_inurba_marseille","lat":43.308012,"lon":5.381511,"is_reserved":false,"is_disabled":false,"rental_uris":{"android":"levelo://app?vid=eaf34d03-eec2-4c3f-a39f-e50f927728cf","ios":"levelo://app?vid=eaf34d03-eec2-4c3f-a39f-e50f927728cf"},"vehicle_type_id":"4","last_reported":1725570472,"current_range_meters":22800,"station_id":"ce4bgt12rcd13ifvqce0","pricing_plan_id":"cebpf4jnsgd1na2vs0mg"},{"bike_id":"0e3cefd9-bd02-42e8-aeb7-7b8896e5c339","system_id":"levelo_inurba_marseille","lat":43.308012,"lon":5.381511,"is_reserved":false,"is_disabled":false,"rental_uris":{"android":"levelo://app?vid=0e3cefd9-bd02-42e8-aeb7-7b8896e5c339","ios":"levelo://app?vid=0e3cefd9-bd02-42e8-aeb7-7b8896e5c339"},"vehicle_type_id":"4","last_reported":1725570472,"current_range_meters":25200,"station_id":"ce4bgt12rcd13ifvqce0","pricing_plan_id":"cebpf4jnsgd1na2vs0mg"},{"bike_id":"9932f13a-d818-4211-8a41-da69a9fd8ce9","system_id":"levelo_inurba_marseille","lat":43.308012,"lon":5.381511,"is_reserved":false,"is_disabled":false,"rental_uris":{"android":"levelo://app?vid=9932f13a-d818-4211-8a41-da69a9fd8ce9","ios":"levelo://app?vid=9932f13a-d818-4211-8a41-da69a9fd8ce9"},"vehicle_type_id":"4","last_reported":1725570472,"current_range_meters":29200,"station_id":"ce4bgt12rcd13ifvqce0","pricing_plan_id":"cebpf4jnsgd1na2vs0mg"},{"bike_id":"a02a9aa9-7335-403f-a5ca-e23a5ab3a280","system_id":"levelo_inurba_marseille","lat":43.304606,"lon":5.379026,"is_reserved":false,"is_disabled":false,"rental_uris":{"android":"levelo://app?vid=a02a9aa9-7335-403f-a5ca-e23a5ab3a280","ios":"levelo://app?vid=a02a9aa9-7335-403f-a5ca-e23a5ab3a280"},"vehicle_type_id":"4","last_reported":1725570472,"current_range_meters":24400,"station_id":"ce4bgup2rcd13ifvqcn0","pricing_plan_id":"cebpf4jnsgd1na2vs0mg"},{"bike_id":"931fd40a-b951-4f2a-835d-09912ee885cb","system_id":"levelo_inurba_marseille","lat":43.304606,"lon":5.379026,"is_reserved":false,"is_disabled":false,"rental_uris":{"android":"levelo://app?vid=931fd40a-b951-4f2a-835d-09912ee885cb","ios":"levelo://app?vid=931fd40a-b951-4f2a-835d-09912ee885cb"},"vehicle_type_id":"4","last_reported":1725570472,"current_range_meters":4800,"station_id":"ce4bgup2rcd13ifvqcn0","pricing_plan_id":"cebpf4jnsgd1na2vs0mg"},{"bike_id":"be8dd047-2c5b-4259-945e-71b124b2897f","system_id":"levelo_inurba_marseille","lat":43.30461,"lon":5.37903,"is_reserved":false,"is_disabled":false,"rental_uris":{"android":"levelo://app?vid=be8dd047-2c5b-4259-945e-71b124b2897f","ios":"levelo://app?vid=be8dd047-2c5b-4259-945e-71b124b2897f"},"vehicle_type_id":"4","last_reported":1725570472,"current_range_meters":16000,"station_id":"","pricing_plan_id":"cebpf4jnsgd1na2vs0mg"},{"bike_id":"aa210537-fa74-45dd-80ae-9cb0db80b0ef","system_id":"levelo_inurba_marseille","lat":43.304606,"lon":5.379026,"is_reserved":false,"is_disabled":false,"rental_uris":{"android":"levelo://app?vid=aa210537-fa74-45dd-80ae-9cb0db80b0ef","ios":"levelo://app?vid=aa210537-fa74-45dd-80ae-9cb0db80b0ef"},"vehicle_type_id":"4","last_reported":1725570472,"current_range_meters":0,"station_id":"ce4bgup2rcd13ifvqcn0","pricing_plan_id":"cebpf4jnsgd1na2vs0mg"},{"bike_id":"69ec441a-3327-4912-a3da-2182de162d2a","system_id":"levelo_inurba_marseille","lat":43.324771,"lon":5.36557,"is_reserved":false,"is_disabled":false,"rental_uris":{"android":"levelo://app?vid=69ec441a-3327-4912-a3da-2182de162d2a","ios":"levelo://app?vid=69ec441a-3327-4912-a3da-2182de162d2a"},"vehicle_type_id":"4","last_reported":1725570472,"current_range_meters":18000,"station_id":"ce4bhs12rcd13ifvqhvg","pricing_plan_id":"cebpf4jnsgd1na2vs0mg"},{"bike_id":"44bc3cf4-a447-4359-9d7f-d7c3681c66f1","system_id":"levelo_inurba_marseille","lat":43.324771,"lon":5.36557,"is_reserved":false,"is_disabled":false,"rental_uris":{"android":"levelo://app?vid=44bc3cf4-a447-4359-9d7f-d7c3681c66f1","ios":"levelo://app?vid=44bc3cf4-a447-4359-9d7f-d7c3681c66f1"},"vehicle_type_id":"4","last_reported":1725570472,"current_range_meters":5600,"station_id":"ce4bhs12rcd13ifvqhvg","pricing_plan_id":"cebpf4jnsgd1na2vs0mg"},{"bike_id":"8c268217-9049-41c9-9cfd-591a10ef6766","system_id":"levelo_inurba_marseille","lat":43.310754,"lon":5.383472,"is_reserved":false,"is_disabled":false,"rental_uris":{"android":"levelo://app?vid=8c268217-9049-41c9-9cfd-591a10ef6766","ios":"levelo://app?vid=8c268217-9049-41c9-9cfd-591a10ef6766"},"vehicle_type_id":"4","last_reported":1725570472,"current_range_meters":31200,"station_id":"ce4bgv92rcd13ifvqcr0","pricing_plan_id":"cebpf4jnsgd1na2vs0mg"},{"bike_id":"b35479d5-2b38-420a-8d62-268ab9360bda","system_id":"levelo_inurba_marseille","lat":43.319935,"lon":5.381699,"is_reserved":false,"is_disabled":false,"rental_uris":{"android":"levelo://app?vid=b35479d5-2b38-420a-8d62-268ab9360bda","ios":"levelo://app?vid=b35479d5-2b38-420a-8d62-268ab9360bda"},"vehicle_type_id":"4","last_reported":1725570472,"current_range_meters":16800,"station_id":"ce4bhr12rcd13ifvqhpg","pricing_plan_id":"cebpf4jnsgd1na2vs0mg"},{"bike_id":"fa78f74b-52f0-407b-bd73-50765e677004","system_id":"levelo_inurba_marseille","lat":43.319935,"lon":5.381699,"is_reserved":false,"is_disabled":false,"rental_uris":{"android":"levelo://app?vid=fa78f74b-52f0-407b-bd73-50765e677004","ios":"levelo://app?vid=fa78f74b-52f0-407b-bd73-50765e677004"},"vehicle_type_id":"4","last_reported":1725570472,"current_range_meters":19600,"station_id":"ce4bhr12rcd13ifvqhpg","pricing_plan_id":"cebpf4jnsgd1na2vs0mg"},{"bike_id":"929ea1c6-0090-443e-9596-34c3e2d9fcb1","system_id":"levelo_inurba_marseille","lat":43.319935,"lon":5.381699,"is_reserved":false,"is_disabled":false,"rental_uris":{"android":"levelo://app?vid=929ea1c6-0090-443e-9596-34c3e2d9fcb1","ios":"levelo://app?vid=929ea1c6-0090-443e-9596-34c3e2d9fcb1"},"vehicle_type_id":"4","last_reported":1725570472,"current_range_meters":8400,"station_id":"ce4bhr12rcd13ifvqhpg","pricing_plan_id":"cebpf4jnsgd1na2vs0mg"},{"bike_id":"fb53a75e-de10-4bef-ba75-9a23fe4a4754","system_id":"levelo_inurba_marseille","lat":43.319935,"lon":5.381699,"is_reserved":false,"is_disabled":false,"rental_uris":{"android":"levelo://app?vid=fb53a75e-de10-4bef-ba75-9a23fe4a4754","ios":"levelo://app?vid=fb53a75e-de10-4bef-ba75-9a23fe4a4754"},"vehicle_type_id":"4","last_reported":1725570472,"current_range_meters":24400,"station_id":"ce4bhr12rcd13ifvqhpg","pricing_plan_id":"cebpf4jnsgd1na2vs0mg"},{"bike_id":"16e71d91-855d-4b7c-b199-83a75fe29149","system_id":"levelo_inurba_marseille","lat":43.319935,"lon":5.381699,"is_reserved":false,"is_disabled":false,"rental_uris":{"android":"levelo://app?vid=16e71d91-855d-4b7c-b199-83a75fe29149","ios":"levelo://app?vid=16e71d91-855d-4b7c-b199-83a75fe29149"},"vehicle_type_id":"4","last_reported":1725570472,"current_range_meters":800,"station_id":"ce4bhr12rcd13ifvqhpg","pricing_plan_id":"cebpf4jnsgd1na2vs0mg"},{"bike_id":"8938212a-57c1-4a95-87ca-828c2722ee6b","system_id":"levelo_inurba_marseille","lat":43.319935,"lon":5.381699,"is_reserved":false,"is_disabled":false,"rental_uris":{"android":"levelo://app?vid=8938212a-57c1-4a95-87ca-828c2722ee6b","ios":"levelo://app?vid=8938212a-57c1-4a95-87ca-828c2722ee6b"},"vehicle_type_id":"4","last_reported":1725570472,"current_range_meters":31600,"station_id":"ce4bhr12rcd13ifvqhpg","pricing_plan_id":"cebpf4jnsgd1na2vs0mg"},{"bike_id":"92a97b6a-e538-4de4-a87c-ae8d31fac080","system_id":"levelo_inurba_marseille","lat":43.319935,"lon":5.381699,"is_reserved":false,"is_disabled":false,"rental_uris":{"android":"levelo://app?vid=92a97b6a-e538-4de4-a87c-ae8d31fac080","ios":"levelo://app?vid=92a97b6a-e538-4de4-a87c-ae8d31fac080"},"vehicle_type_id":"4","last_reported":1725570472,"current_range_meters":20000,"station_id":"ce4bhr12rcd13ifvqhpg","pricing_plan_id":"cebpf4jnsgd1na2vs0mg"},{"bike_id":"4f1e12d3-7e5d-49ba-9ab0-2a1e6053480e","system_id":"levelo_inurba_marseille","lat":43.319935,"lon":5.381699,"is_reserved":false,"is_disabled":false,"rental_uris":{"android":"levelo://app?vid=4f1e12d3-7e5d-49ba-9ab0-2a1e6053480e","ios":"levelo://app?vid=4f1e12d3-7e5d-49ba-9ab0-2a1e6053480e"},"vehicle_type_id":"4","last_reported":1725570472,"current_range_meters":17200,"station_id":"ce4bhr12rcd13ifvqhpg","pricing_plan_id":"cebpf4jnsgd1na2vs0mg"},{"bike_id":"08ddf126-072f-42d9-84cd-d9251b803dda","system_id":"levelo_inurba_marseille","lat":43.313571,"lon":5.384829,"is_reserved":false,"is_disabled":false,"rental_uris":{"android":"levelo://app?vid=08ddf126-072f-42d9-84cd-d9251b803dda","ios":"levelo://app?vid=08ddf126-072f-42d9-84cd-d9251b803dda"},"vehicle_type_id":"4","last_reported":1725570472,"current_range_meters":7200,"station_id":"ce4bgt92rcd13ifvqcf0","pricing_plan_id":"cebpf4jnsgd1na2vs0mg"},{"bike_id":"695b0140-a4fa-4532-b720-654e741b9022","system_id":"levelo_inurba_marseille","lat":43.313571,"lon":5.384829,"is_reserved":false,"is_disabled":false,"rental_uris":{"android":"levelo://app?vid=695b0140-a4fa-4532-b720-654e741b9022","ios":"levelo://app?vid=695b0140-a4fa-4532-b720-654e741b9022"},"vehicle_type_id":"4","last_reported":1725570472,"current_range_meters":16000,"station_id":"ce4bgt92rcd13ifvqcf0","pricing_plan_id":"cebpf4jnsgd1na2vs0mg"},{"bike_id":"4ce7e0da-722a-4530-afa1-7e0b61215887","system_id":"levelo_inurba_marseille","lat":43.313571,"lon":5.384829,"is_reserved":false,"is_disabled":false,"rental_uris":{"android":"levelo://app?vid=4ce7e0da-722a-4530-afa1-7e0b61215887","ios":"levelo://app?vid=4ce7e0da-722a-4530-afa1-7e0b61215887"},"vehicle_type_id":"4","last_reported":1725570472,"current_range_meters":30000,"station_id":"ce4bgt92rcd13ifvqcf0","pricing_plan_id":"cebpf4jnsgd1na2vs0mg"},{"bike_id":"674ca80f-4d88-4305-90a2-50a09fe47b9a","system_id":"levelo_inurba_marseille","lat":43.313571,"lon":5.384829,"is_reserved":false,"is_disabled":false,"rental_uris":{"android":"levelo://app?vid=674ca80f-4d88-4305-90a2-50a09fe47b9a","ios":"levelo://app?vid=674ca80f-4d88-4305-90a2-50a09fe47b9a"},"vehicle_type_id":"4","last_reported":1725570472,"current_range_meters":31600,"station_id":"ce4bgt92rcd13ifvqcf0","pricing_plan_id":"cebpf4jnsgd1na2vs0mg"},{"bike_id":"12268dfb-29c1-4ff0-88da-41ec6bde6b2a","system_id":"levelo_inurba_marseille","lat":43.313571,"lon":5.384829,"is_reserved":false,"is_disabled":false,"rental_uris":{"android":"levelo://app?vid=12268dfb-29c1-4ff0-88da-41ec6bde6b2a","ios":"levelo://app?vid=12268dfb-29c1-4ff0-88da-41ec6bde6b2a"},"vehicle_type_id":"4","last_reported":1725570472,"current_range_meters":13200,"station_id":"ce4bgt92rcd13ifvqcf0","pricing_plan_id":"cebpf4jnsgd1na2vs0mg"},{"bike_id":"e2dc8e5a-d8ad-4e64-a125-7bcfb025b0dd","system_id":"levelo_inurba_marseille","lat":43.313571,"lon":5.384829,"is_reserved":false,"is_disabled":false,"rental_uris":{"android":"levelo://app?vid=e2dc8e5a-d8ad-4e64-a125-7bcfb025b0dd","ios":"levelo://app?vid=e2dc8e5a-d8ad-4e64-a125-7bcfb025b0dd"},"vehicle_type_id":"4","last_reported":1725570472,"current_range_meters":22400,"station_id":"ce4bgt92rcd13ifvqcf0","pricing_plan_id":"cebpf4jnsgd1na2vs0mg"},{"bike_id":"b5065969-25df-4ef5-a5b7-880c135c99be","system_id":"levelo_inurba_marseille","lat":43.313571,"lon":5.384829,"is_reserved":false,"is_disabled":false,"rental_uris":{"android":"levelo://app?vid=b5065969-25df-4ef5-a5b7-880c135c99be","ios":"levelo://app?vid=b5065969-25df-4ef5-a5b7-880c135c99be"},"vehicle_type_id":"4","last_reported":1725570472,"current_range_meters":17200,"station_id":"ce4bgt92rcd13ifvqcf0","pricing_plan_id":"cebpf4jnsgd1na2vs0mg"},{"bike_id":"60f47d54-362a-4de8-bd86-e1bf3dca2c4a","system_id":"levelo_inurba_marseille","lat":43.313571,"lon":5.384829,"is_reserved":false,"is_disabled":false,"rental_uris":{"android":"levelo://app?vid=60f47d54-362a-4de8-bd86-e1bf3dca2c4a","ios":"levelo://app?vid=60f47d54-362a-4de8-bd86-e1bf3dca2c4a"},"vehicle_type_id":"4","last_reported":1725570472,"current_range_meters":7600,"station_id":"ce4bgt92rcd13ifvqcf0","pricing_plan_id":"cebpf4jnsgd1na2vs0mg"},{"bike_id":"e873bf9d-59b1-4c88-b420-ef7c15b2fd2a","system_id":"levelo_inurba_marseille","lat":43.313571,"lon":5.384829,"is_reserved":false,"is_disabled":false,"rental_uris":{"android":"levelo://app?vid=e873bf9d-59b1-4c88-b420-ef7c15b2fd2a","ios":"levelo://app?vid=e873bf9d-59b1-4c88-b420-ef7c15b2fd2a"},"vehicle_type_id":"4","last_reported":1725570472,"current_range_meters":7200,"station_id":"ce4bgt92rcd13ifvqcf0","pricing_plan_id":"cebpf4jnsgd1na2vs0mg"},{"bike_id":"aea014cf-57b6-4930-9bdb-c04031a995d3","system_id":"levelo_inurba_marseille","lat":43.313571,"lon":5.384829,"is_reserved":false,"is_disabled":false,"rental_uris":{"android":"levelo://app?vid=aea014cf-57b6-4930-9bdb-c04031a995d3","ios":"levelo://app?vid=aea014cf-57b6-4930-9bdb-c04031a995d3"},"vehicle_type_id":"4","last_reported":1725570472,"current_range_meters":20400,"station_id":"ce4bgt92rcd13ifvqcf0","pricing_plan_id":"cebpf4jnsgd1na2vs0mg"},{"bike_id":"382e43f4-9c2c-468b-9717-7bfa7e1882ac","system_id":"levelo_inurba_marseille","lat":43.313571,"lon":5.384829,"is_reserved":false,"is_disabled":false,"rental_uris":{"android":"levelo://app?vid=382e43f4-9c2c-468b-9717-7bfa7e1882ac","ios":"levelo://app?vid=382e43f4-9c2c-468b-9717-7bfa7e1882ac"},"vehicle_type_id":"4","last_reported":1725570472,"current_range_meters":14000,"station_id":"ce4bgt92rcd13ifvqcf0","pricing_plan_id":"cebpf4jnsgd1na2vs0mg"},{"bike_id":"c5e7cf0b-1e78-44cc-b61f-256280e18123","system_id":"levelo_inurba_marseille","lat":43.313571,"lon":5.384829,"is_reserved":false,"is_disabled":false,"rental_uris":{"android":"levelo://app?vid=c5e7cf0b-1e78-44cc-b61f-256280e18123","ios":"levelo://app?vid=c5e7cf0b-1e78-44cc-b61f-256280e18123"},"vehicle_type_id":"4","last_reported":1725570472,"current_range_meters":18400,"station_id":"ce4bgt92rcd13ifvqcf0","pricing_plan_id":"cebpf4jnsgd1na2vs0mg"},{"bike_id":"7cb528b3-e04f-45a8-b979-6a8692f33a02","system_id":"levelo_inurba_marseille","lat":43.3136,"lon":5.38501,"is_reserved":false,"is_disabled":false,"rental_uris":{"android":"levelo://app?vid=7cb528b3-e04f-45a8-b979-6a8692f33a02","ios":"levelo://app?vid=7cb528b3-e04f-45a8-b979-6a8692f33a02"},"vehicle_type_id":"4","last_reported":1725570472,"current_range_meters":31200,"station_id":"ce4bgt92rcd13ifvqcf0","pricing_plan_id":"cebpf4jnsgd1na2vs0mg"},{"bike_id":"aa33061a-c9c6-4a0a-a742-209227c02caa","system_id":"levelo_inurba_marseille","lat":43.3136,"lon":5.385026,"is_reserved":false,"is_disabled":false,"rental_uris":{"android":"levelo://app?vid=aa33061a-c9c6-4a0a-a742-209227c02caa","ios":"levelo://app?vid=aa33061a-c9c6-4a0a-a742-209227c02caa"},"vehicle_type_id":"4","last_reported":1725570472,"current_range_meters":18800,"station_id":"ce4bgt92rcd13ifvqcf0","pricing_plan_id":"cebpf4jnsgd1na2vs0mg"},{"bike_id":"48b36ce5-f8ab-4e4e-89e9-d26f8b6901b7","system_id":"levelo_inurba_marseille","lat":43.313588,"lon":5.385027,"is_reserved":false,"is_disabled":false,"rental_uris":{"android":"levelo://app?vid=48b36ce5-f8ab-4e4e-89e9-d26f8b6901b7","ios":"levelo://app?vid=48b36ce5-f8ab-4e4e-89e9-d26f8b6901b7"},"vehicle_type_id":"4","last_reported":1725570472,"current_range_meters":31200,"station_id":"ce4bgt92rcd13ifvqcf0","pricing_plan_id":"cebpf4jnsgd1na2vs0mg"},{"bike_id":"8e23dffd-1c63-43c6-a2c9-62eff574d2bb","system_id":"levelo_inurba_marseille","lat":43.305364,"lon":5.384119,"is_reserved":false,"is_disabled":false,"rental_uris":{"android":"levelo://app?vid=8e23dffd-1c63-43c6-a2c9-62eff574d2bb","ios":"levelo://app?vid=8e23dffd-1c63-43c6-a2c9-62eff574d2bb"},"vehicle_type_id":"4","last_reported":1725570472,"current_range_meters":0,"station_id":"ce4bgg92rcd13ifvqb30","pricing_plan_id":"cebpf4jnsgd1na2vs0mg"},{"bike_id":"1b0b0559-6b1a-4209-bc48-9fb9df48a293","system_id":"levelo_inurba_marseille","lat":43.305364,"lon":5.384119,"is_reserved":false,"is_disabled":false,"rental_uris":{"android":"levelo://app?vid=1b0b0559-6b1a-4209-bc48-9fb9df48a293","ios":"levelo://app?vid=1b0b0559-6b1a-4209-bc48-9fb9df48a293"},"vehicle_type_id":"4","last_reported":1725570472,"current_range_meters":10400,"station_id":"ce4bgg92rcd13ifvqb30","pricing_plan_id":"cebpf4jnsgd1na2vs0mg"},{"bike_id":"5522ea62-bb0a-4815-8537-9bd131ebb642","system_id":"levelo_inurba_marseille","lat":43.305364,"lon":5.384119,"is_reserved":false,"is_disabled":false,"rental_uris":{"android":"levelo://app?vid=5522ea62-bb0a-4815-8537-9bd131ebb642","ios":"levelo://app?vid=5522ea62-bb0a-4815-8537-9bd131ebb642"},"vehicle_type_id":"4","last_reported":1725570472,"current_range_meters":6000,"station_id":"ce4bgg92rcd13ifvqb30","pricing_plan_id":"cebpf4jnsgd1na2vs0mg"},{"bike_id":"784e72e8-9732-4847-9b61-d0a1d0c761d2","system_id":"levelo_inurba_marseille","lat":43.299243,"lon":5.374807,"is_reserved":false,"is_disabled":false,"rental_uris":{"android":"levelo://app?vid=784e72e8-9732-4847-9b61-d0a1d0c761d2","ios":"levelo://app?vid=784e72e8-9732-4847-9b61-d0a1d0c761d2"},"vehicle_type_id":"4","last_reported":1725570472,"current_range_meters":25200,"station_id":"ce4bgjh2rcd13ifvqbg0","pricing_plan_id":"cebpf4jnsgd1na2vs0mg"},{"bike_id":"c141522d-1f54-4f21-9e9d-f40d2a37ec67","system_id":"levelo_inurba_marseille","lat":43.299243,"lon":5.374807,"is_reserved":false,"is_disabled":false,"rental_uris":{"android":"levelo://app?vid=c141522d-1f54-4f21-9e9d-f40d2a37ec67","ios":"levelo://app?vid=c141522d-1f54-4f21-9e9d-f40d2a37ec67"},"vehicle_type_id":"4","last_reported":1725570472,"current_range_meters":16800,"station_id":"ce4bgjh2rcd13ifvqbg0","pricing_plan_id":"cebpf4jnsgd1na2vs0mg"},{"bike_id":"4c6e10ec-3578-46b2-b9fb-4521812aa4bc","system_id":"levelo_inurba_marseille","lat":43.298433,"lon":5.362774,"is_reserved":false,"is_disabled":false,"rental_uris":{"android":"levelo://app?vid=4c6e10ec-3578-46b2-b9fb-4521812aa4bc","ios":"levelo://app?vid=4c6e10ec-3578-46b2-b9fb-4521812aa4bc"},"vehicle_type_id":"4","last_reported":1725570472,"current_range_meters":8800,"station_id":"ce4bgpp2rcd13ifvqc3g","pricing_plan_id":"cebpf4jnsgd1na2vs0mg"},{"bike_id":"31349027-d265-4ccc-a078-a9390a38ffd9","system_id":"levelo_inurba_marseille","lat":43.299243,"lon":5.374807,"is_reserved":false,"is_disabled":false,"rental_uris":{"android":"levelo://app?vid=31349027-d265-4ccc-a078-a9390a38ffd9","ios":"levelo://app?vid=31349027-d265-4ccc-a078-a9390a38ffd9"},"vehicle_type_id":"4","last_reported":1725570472,"current_range_meters":8000,"station_id":"ce4bgjh2rcd13ifvqbg0","pricing_plan_id":"cebpf4jnsgd1na2vs0mg"},{"bike_id":"51cc7ae2-76a1-4143-afe4-1a5e222e9ba5","system_id":"levelo_inurba_marseille","lat":43.326171,"lon":5.375273,"is_reserved":false,"is_disabled":false,"rental_uris":{"android":"levelo://app?vid=51cc7ae2-76a1-4143-afe4-1a5e222e9ba5","ios":"levelo://app?vid=51cc7ae2-76a1-4143-afe4-1a5e222e9ba5"},"vehicle_type_id":"4","last_reported":1725570472,"current_range_meters":28400,"station_id":"","pricing_plan_id":"cebpf4jnsgd1na2vs0mg"},{"bike_id":"b3ca412f-d8c3-4f2c-9cca-55497374d9cd","system_id":"levelo_inurba_marseille","lat":43.311722,"lon":5.387247,"is_reserved":false,"is_disabled":false,"rental_uris":{"android":"levelo://app?vid=b3ca412f-d8c3-4f2c-9cca-55497374d9cd","ios":"levelo://app?vid=b3ca412f-d8c3-4f2c-9cca-55497374d9cd"},"vehicle_type_id":"4","last_reported":1725570472,"current_range_meters":26800,"station_id":"ce4bgv12rcd13ifvqcp0","pricing_plan_id":"cebpf4jnsgd1na2vs0mg"},{"bike_id":"87fa8cbc-2272-4220-857a-0aa2b3e78dd4","system_id":"levelo_inurba_marseille","lat":43.31176,"lon":5.387207,"is_reserved":false,"is_disabled":false,"rental_uris":{"android":"levelo://app?vid=87fa8cbc-2272-4220-857a-0aa2b3e78dd4","ios":"levelo://app?vid=87fa8cbc-2272-4220-857a-0aa2b3e78dd4"},"vehicle_type_id":"4","last_reported":1725570472,"current_range_meters":12000,"station_id":"ce4bgv12rcd13ifvqcp0","pricing_plan_id":"cebpf4jnsgd1na2vs0mg"},{"bike_id":"3ba73f4e-7aac-400e-9603-55802ef1f3f3","system_id":"levelo_inurba_marseille","lat":43.311763,"lon":5.387213,"is_reserved":false,"is_disabled":false,"rental_uris":{"android":"levelo://app?vid=3ba73f4e-7aac-400e-9603-55802ef1f3f3","ios":"levelo://app?vid=3ba73f4e-7aac-400e-9603-55802ef1f3f3"},"vehicle_type_id":"4","last_reported":1725570472,"current_range_meters":0,"station_id":"ce4bgv12rcd13ifvqcp0","pricing_plan_id":"cebpf4jnsgd1na2vs0mg"},{"bike_id":"1e9a2778-e63d-4ecd-88e6-cbb2557a0950","system_id":"levelo_inurba_marseille","lat":43.311722,"lon":5.387247,"is_reserved":false,"is_disabled":false,"rental_uris":{"android":"levelo://app?vid=1e9a2778-e63d-4ecd-88e6-cbb2557a0950","ios":"levelo://app?vid=1e9a2778-e63d-4ecd-88e6-cbb2557a0950"},"vehicle_type_id":"4","last_reported":1725570472,"current_range_meters":6000,"station_id":"ce4bgv12rcd13ifvqcp0","pricing_plan_id":"cebpf4jnsgd1na2vs0mg"},{"bike_id":"b4ab4731-a32f-4bbe-88f0-a36bd17d290c","system_id":"levelo_inurba_marseille","lat":43.29898,"lon":5.37466,"is_reserved":false,"is_disabled":false,"rental_uris":{"android":"levelo://app?vid=b4ab4731-a32f-4bbe-88f0-a36bd17d290c","ios":"levelo://app?vid=b4ab4731-a32f-4bbe-88f0-a36bd17d290c"},"vehicle_type_id":"4","last_reported":1725570472,"current_range_meters":22400,"station_id":"ce4bgjh2rcd13ifvqbg0","pricing_plan_id":"cebpf4jnsgd1na2vs0mg"},{"bike_id":"343be01b-fa1b-4d9a-aaee-fe4ab5251fd9","system_id":"levelo_inurba_marseille","lat":43.301417,"lon":5.3809,"is_reserved":false,"is_disabled":false,"rental_uris":{"android":"levelo://app?vid=343be01b-fa1b-4d9a-aaee-fe4ab5251fd9","ios":"levelo://app?vid=343be01b-fa1b-4d9a-aaee-fe4ab5251fd9"},"vehicle_type_id":"4","last_reported":1725570472,"current_range_meters":22000,"station_id":"ce4bgjp2rcd13ifvqbh0","pricing_plan_id":"cebpf4jnsgd1na2vs0mg"},{"bike_id":"ee74cce5-170a-4136-ab40-b24674effc68","system_id":"levelo_inurba_marseille","lat":43.301417,"lon":5.3809,"is_reserved":false,"is_disabled":false,"rental_uris":{"android":"levelo://app?vid=ee74cce5-170a-4136-ab40-b24674effc68","ios":"levelo://app?vid=ee74cce5-170a-4136-ab40-b24674effc68"},"vehicle_type_id":"4","last_reported":1725570472,"current_range_meters":12000,"station_id":"ce4bgjp2rcd13ifvqbh0","pricing_plan_id":"cebpf4jnsgd1na2vs0mg"},{"bike_id":"30658183-1100-49a1-b13e-02eace17e50f","system_id":"levelo_inurba_marseille","lat":43.301417,"lon":5.3809,"is_reserved":false,"is_disabled":false,"rental_uris":{"android":"levelo://app?vid=30658183-1100-49a1-b13e-02eace17e50f","ios":"levelo://app?vid=30658183-1100-49a1-b13e-02eace17e50f"},"vehicle_type_id":"4","last_reported":1725570472,"current_range_meters":0,"station_id":"ce4bgjp2rcd13ifvqbh0","pricing_plan_id":"cebpf4jnsgd1na2vs0mg"},{"bike_id":"8720a550-f2c6-4762-967e-79b5151a6f6b","system_id":"levelo_inurba_marseille","lat":43.322872,"lon":5.382756,"is_reserved":false,"is_disabled":false,"rental_uris":{"android":"levelo://app?vid=8720a550-f2c6-4762-967e-79b5151a6f6b","ios":"levelo://app?vid=8720a550-f2c6-4762-967e-79b5151a6f6b"},"vehicle_type_id":"4","last_reported":1725570472,"current_range_meters":30400,"station_id":"ce4bhr12rcd13ifvqhqg","pricing_plan_id":"cebpf4jnsgd1na2vs0mg"},{"bike_id":"a960908a-60ef-4342-aa43-a8a311de89f8","system_id":"levelo_inurba_marseille","lat":43.297774,"lon":5.370875,"is_reserved":false,"is_disabled":false,"rental_uris":{"android":"levelo://app?vid=a960908a-60ef-4342-aa43-a8a311de89f8","ios":"levelo://app?vid=a960908a-60ef-4342-aa43-a8a311de89f8"},"vehicle_type_id":"4","last_reported":1725570472,"current_range_meters":5200,"station_id":"ce4bgop2rcd13ifvqc1g","pricing_plan_id":"cebpf4jnsgd1na2vs0mg"},{"bike_id":"481a7296-f14b-476b-8c65-0f100290aab6","system_id":"levelo_inurba_marseille","lat":43.297774,"lon":5.370875,"is_reserved":false,"is_disabled":false,"rental_uris":{"android":"levelo://app?vid=481a7296-f14b-476b-8c65-0f100290aab6","ios":"levelo://app?vid=481a7296-f14b-476b-8c65-0f100290aab6"},"vehicle_type_id":"4","last_reported":1725570472,"current_range_meters":0,"station_id":"ce4bgop2rcd13ifvqc1g","pricing_plan_id":"cebpf4jnsgd1na2vs0mg"},{"bike_id":"738a9119-88e9-4a93-acd0-26460ccaa111","system_id":"levelo_inurba_marseille","lat":43.322872,"lon":5.382756,"is_reserved":false,"is_disabled":false,"rental_uris":{"android":"levelo://app?vid=738a9119-88e9-4a93-acd0-26460ccaa111","ios":"levelo://app?vid=738a9119-88e9-4a93-acd0-26460ccaa111"},"vehicle_type_id":"4","last_reported":1725570472,"current_range_meters":31600,"station_id":"ce4bhr12rcd13ifvqhqg","pricing_plan_id":"cebpf4jnsgd1na2vs0mg"},{"bike_id":"9d4d4ad3-9fa4-4394-8995-8a5887e80cc8","system_id":"levelo_inurba_marseille","lat":43.322872,"lon":5.382756,"is_reserved":false,"is_disabled":false,"rental_uris":{"android":"levelo://app?vid=9d4d4ad3-9fa4-4394-8995-8a5887e80cc8","ios":"levelo://app?vid=9d4d4ad3-9fa4-4394-8995-8a5887e80cc8"},"vehicle_type_id":"4","last_reported":1725570472,"current_range_meters":20000,"station_id":"ce4bhr12rcd13ifvqhqg","pricing_plan_id":"cebpf4jnsgd1na2vs0mg"},{"bike_id":"78abea18-5143-470f-8ced-84a677316546","system_id":"levelo_inurba_marseille","lat":43.32297,"lon":5.38271,"is_reserved":false,"is_disabled":false,"rental_uris":{"android":"levelo://app?vid=78abea18-5143-470f-8ced-84a677316546","ios":"levelo://app?vid=78abea18-5143-470f-8ced-84a677316546"},"vehicle_type_id":"4","last_reported":1725570472,"current_range_meters":4400,"station_id":"ce4bhr12rcd13ifvqhqg","pricing_plan_id":"cebpf4jnsgd1na2vs0mg"},{"bike_id":"baad5688-8c57-40e1-829a-381fb423753e","system_id":"levelo_inurba_marseille","lat":43.322872,"lon":5.382756,"is_reserved":false,"is_disabled":false,"rental_uris":{"android":"levelo://app?vid=baad5688-8c57-40e1-829a-381fb423753e","ios":"levelo://app?vid=baad5688-8c57-40e1-829a-381fb423753e"},"vehicle_type_id":"4","last_reported":1725570472,"current_range_meters":31200,"station_id":"ce4bhr12rcd13ifvqhqg","pricing_plan_id":"cebpf4jnsgd1na2vs0mg"},{"bike_id":"026aa37b-db1a-4774-927f-cfbd1168eae7","system_id":"levelo_inurba_marseille","lat":43.322872,"lon":5.382756,"is_reserved":false,"is_disabled":false,"rental_uris":{"android":"levelo://app?vid=026aa37b-db1a-4774-927f-cfbd1168eae7","ios":"levelo://app?vid=026aa37b-db1a-4774-927f-cfbd1168eae7"},"vehicle_type_id":"4","last_reported":1725570472,"current_range_meters":20000,"station_id":"ce4bhr12rcd13ifvqhqg","pricing_plan_id":"cebpf4jnsgd1na2vs0mg"},{"bike_id":"d28e36b9-6d10-4aaf-b4de-1bd92b48383d","system_id":"levelo_inurba_marseille","lat":43.322872,"lon":5.382756,"is_reserved":false,"is_disabled":false,"rental_uris":{"android":"levelo://app?vid=d28e36b9-6d10-4aaf-b4de-1bd92b48383d","ios":"levelo://app?vid=d28e36b9-6d10-4aaf-b4de-1bd92b48383d"},"vehicle_type_id":"4","last_reported":1725570472,"current_range_meters":30000,"station_id":"ce4bhr12rcd13ifvqhqg","pricing_plan_id":"cebpf4jnsgd1na2vs0mg"},{"bike_id":"a9b962ba-226c-466c-9b09-89e48831ffd5","system_id":"levelo_inurba_marseille","lat":43.322872,"lon":5.382756,"is_reserved":false,"is_disabled":false,"rental_uris":{"android":"levelo://app?vid=a9b962ba-226c-466c-9b09-89e48831ffd5","ios":"levelo://app?vid=a9b962ba-226c-466c-9b09-89e48831ffd5"},"vehicle_type_id":"4","last_reported":1725570472,"current_range_meters":30800,"station_id":"ce4bhr12rcd13ifvqhqg","pricing_plan_id":"cebpf4jnsgd1na2vs0mg"},{"bike_id":"71a00331-0444-4dc6-9b9a-8be26ebdcaa8","system_id":"levelo_inurba_marseille","lat":43.32296,"lon":5.38276,"is_reserved":false,"is_disabled":false,"rental_uris":{"android":"levelo://app?vid=71a00331-0444-4dc6-9b9a-8be26ebdcaa8","ios":"levelo://app?vid=71a00331-0444-4dc6-9b9a-8be26ebdcaa8"},"vehicle_type_id":"4","last_reported":1725570472,"current_range_meters":6000,"station_id":"ce4bhr12rcd13ifvqhqg","pricing_plan_id":"cebpf4jnsgd1na2vs0mg"},{"bike_id":"b7fb226a-cada-4b80-8f1b-74f54adecbc1","system_id":"levelo_inurba_marseille","lat":43.322872,"lon":5.382756,"is_reserved":false,"is_disabled":false,"rental_uris":{"android":"levelo://app?vid=b7fb226a-cada-4b80-8f1b-74f54adecbc1","ios":"levelo://app?vid=b7fb226a-cada-4b80-8f1b-74f54adecbc1"},"vehicle_type_id":"4","last_reported":1725570472,"current_range_meters":4800,"station_id":"ce4bhr12rcd13ifvqhqg","pricing_plan_id":"cebpf4jnsgd1na2vs0mg"},{"bike_id":"9d2ea8f0-6e5b-4989-90a6-7c9b9550f4df","system_id":"levelo_inurba_marseille","lat":43.297163,"lon":5.365866,"is_reserved":false,"is_disabled":false,"rental_uris":{"android":"levelo://app?vid=9d2ea8f0-6e5b-4989-90a6-7c9b9550f4df","ios":"levelo://app?vid=9d2ea8f0-6e5b-4989-90a6-7c9b9550f4df"},"vehicle_type_id":"4","last_reported":1725570472,"current_range_meters":20800,"station_id":"ce4bgn12rcd13ifvqbt0","pricing_plan_id":"cebpf4jnsgd1na2vs0mg"},{"bike_id":"b06b6764-22fc-491f-a380-cb956626401f","system_id":"levelo_inurba_marseille","lat":43.297163,"lon":5.365866,"is_reserved":false,"is_disabled":false,"rental_uris":{"android":"levelo://app?vid=b06b6764-22fc-491f-a380-cb956626401f","ios":"levelo://app?vid=b06b6764-22fc-491f-a380-cb956626401f"},"vehicle_type_id":"4","last_reported":1725570472,"current_range_meters":31200,"station_id":"ce4bgn12rcd13ifvqbt0","pricing_plan_id":"cebpf4jnsgd1na2vs0mg"},{"bike_id":"79cef9d6-9920-4d2e-8f62-24a5973df2fe","system_id":"levelo_inurba_marseille","lat":43.309589,"lon":5.390258,"is_reserved":false,"is_disabled":false,"rental_uris":{"android":"levelo://app?vid=79cef9d6-9920-4d2e-8f62-24a5973df2fe","ios":"levelo://app?vid=79cef9d6-9920-4d2e-8f62-24a5973df2fe"},"vehicle_type_id":"4","last_reported":1725570472,"current_range_meters":18400,"station_id":"ce4bgup2rcd13ifvqco0","pricing_plan_id":"cebpf4jnsgd1na2vs0mg"},{"bike_id":"8a8887de-5c7d-4b1c-91b2-78e9c920b48d","system_id":"levelo_inurba_marseille","lat":43.2968,"lon":5.37291,"is_reserved":false,"is_disabled":false,"rental_uris":{"android":"levelo://app?vid=8a8887de-5c7d-4b1c-91b2-78e9c920b48d","ios":"levelo://app?vid=8a8887de-5c7d-4b1c-91b2-78e9c920b48d"},"vehicle_type_id":"4","last_reported":1725570472,"current_range_meters":28800,"station_id":"ce4bgk12rcd13ifvqbj0","pricing_plan_id":"cebpf4jnsgd1na2vs0mg"},{"bike_id":"21f67d28-0fbb-425a-aa16-3014f32e2298","system_id":"levelo_inurba_marseille","lat":43.29727,"lon":5.37696,"is_reserved":false,"is_disabled":false,"rental_uris":{"android":"levelo://app?vid=21f67d28-0fbb-425a-aa16-3014f32e2298","ios":"levelo://app?vid=21f67d28-0fbb-425a-aa16-3014f32e2298"},"vehicle_type_id":"4","last_reported":1725570472,"current_range_meters":1600,"station_id":"ce4bgkh2rcd13ifvqbl0","pricing_plan_id":"cebpf4jnsgd1na2vs0mg"},{"bike_id":"482393cf-5a6b-4e1b-a1be-a9e5df74e393","system_id":"levelo_inurba_marseille","lat":43.29714,"lon":5.37684,"is_reserved":false,"is_disabled":false,"rental_uris":{"android":"levelo://app?vid=482393cf-5a6b-4e1b-a1be-a9e5df74e393","ios":"levelo://app?vid=482393cf-5a6b-4e1b-a1be-a9e5df74e393"},"vehicle_type_id":"4","last_reported":1725570472,"current_range_meters":11200,"station_id":"ce4bgkh2rcd13ifvqbl0","pricing_plan_id":"cebpf4jnsgd1na2vs0mg"},{"bike_id":"dd076b7e-08ab-4daf-9d5e-c0a419b1b8dc","system_id":"levelo_inurba_marseille","lat":43.30971,"lon":5.39031,"is_reserved":false,"is_disabled":false,"rental_uris":{"android":"levelo://app?vid=dd076b7e-08ab-4daf-9d5e-c0a419b1b8dc","ios":"levelo://app?vid=dd076b7e-08ab-4daf-9d5e-c0a419b1b8dc"},"vehicle_type_id":"4","last_reported":1725570472,"current_range_meters":0,"station_id":"ce4bgup2rcd13ifvqco0","pricing_plan_id":"cebpf4jnsgd1na2vs0mg"},{"bike_id":"679fce81-01e9-4fa4-a3c6-9f30113c904a","system_id":"levelo_inurba_marseille","lat":43.299028,"lon":5.381509,"is_reserved":false,"is_disabled":false,"rental_uris":{"android":"levelo://app?vid=679fce81-01e9-4fa4-a3c6-9f30113c904a","ios":"levelo://app?vid=679fce81-01e9-4fa4-a3c6-9f30113c904a"},"vehicle_type_id":"4","last_reported":1725570472,"current_range_meters":8800,"station_id":"ce4bgj12rcd13ifvqbc0","pricing_plan_id":"cebpf4jnsgd1na2vs0mg"},{"bike_id":"f93d0d78-1a34-407b-9eaa-263b4ab66956","system_id":"levelo_inurba_marseille","lat":43.309589,"lon":5.390258,"is_reserved":false,"is_disabled":false,"rental_uris":{"android":"levelo://app?vid=f93d0d78-1a34-407b-9eaa-263b4ab66956","ios":"levelo://app?vid=f93d0d78-1a34-407b-9eaa-263b4ab66956"},"vehicle_type_id":"4","last_reported":1725570472,"current_range_meters":7200,"station_id":"ce4bgup2rcd13ifvqco0","pricing_plan_id":"cebpf4jnsgd1na2vs0mg"},{"bike_id":"2476530e-7912-4a1a-86c7-dd9b8475128e","system_id":"levelo_inurba_marseille","lat":43.309589,"lon":5.390258,"is_reserved":false,"is_disabled":false,"rental_uris":{"android":"levelo://app?vid=2476530e-7912-4a1a-86c7-dd9b8475128e","ios":"levelo://app?vid=2476530e-7912-4a1a-86c7-dd9b8475128e"},"vehicle_type_id":"4","last_reported":1725570472,"current_range_meters":20000,"station_id":"ce4bgup2rcd13ifvqco0","pricing_plan_id":"cebpf4jnsgd1na2vs0mg"},{"bike_id":"0c64059e-a801-44ff-9fe0-930b50d54881","system_id":"levelo_inurba_marseille","lat":43.317557,"lon":5.390173,"is_reserved":false,"is_disabled":false,"rental_uris":{"android":"levelo://app?vid=0c64059e-a801-44ff-9fe0-930b50d54881","ios":"levelo://app?vid=0c64059e-a801-44ff-9fe0-930b50d54881"},"vehicle_type_id":"4","last_reported":1725570472,"current_range_meters":27600,"station_id":"ce4bhqp2rcd13ifvqhng","pricing_plan_id":"cebpf4jnsgd1na2vs0mg"},{"bike_id":"2dfd7f5c-1ab0-4221-ba61-c53a54036fa7","system_id":"levelo_inurba_marseille","lat":43.317557,"lon":5.390173,"is_reserved":false,"is_disabled":false,"rental_uris":{"android":"levelo://app?vid=2dfd7f5c-1ab0-4221-ba61-c53a54036fa7","ios":"levelo://app?vid=2dfd7f5c-1ab0-4221-ba61-c53a54036fa7"},"vehicle_type_id":"4","last_reported":1725570472,"current_range_meters":18800,"station_id":"ce4bhqp2rcd13ifvqhng","pricing_plan_id":"cebpf4jnsgd1na2vs0mg"},{"bike_id":"f1b8f819-2097-4748-ae6d-698cc976bc5d","system_id":"levelo_inurba_marseille","lat":43.317557,"lon":5.390173,"is_reserved":false,"is_disabled":false,"rental_uris":{"android":"levelo://app?vid=f1b8f819-2097-4748-ae6d-698cc976bc5d","ios":"levelo://app?vid=f1b8f819-2097-4748-ae6d-698cc976bc5d"},"vehicle_type_id":"4","last_reported":1725570472,"current_range_meters":0,"station_id":"ce4bhqp2rcd13ifvqhng","pricing_plan_id":"cebpf4jnsgd1na2vs0mg"},{"bike_id":"10f69fe8-7773-460f-8cbc-84d5043d302b","system_id":"levelo_inurba_marseille","lat":43.322566,"lon":5.387067,"is_reserved":false,"is_disabled":false,"rental_uris":{"android":"levelo://app?vid=10f69fe8-7773-460f-8cbc-84d5043d302b","ios":"levelo://app?vid=10f69fe8-7773-460f-8cbc-84d5043d302b"},"vehicle_type_id":"4","last_reported":1725570472,"current_range_meters":28000,"station_id":"","pricing_plan_id":"cebpf4jnsgd1na2vs0mg"},{"bike_id":"a2c0d4f4-7469-4917-80e5-3298e8f27959","system_id":"levelo_inurba_marseille","lat":43.314595,"lon":5.391135,"is_reserved":false,"is_disabled":false,"rental_uris":{"android":"levelo://app?vid=a2c0d4f4-7469-4917-80e5-3298e8f27959","ios":"levelo://app?vid=a2c0d4f4-7469-4917-80e5-3298e8f27959"},"vehicle_type_id":"4","last_reported":1725570472,"current_range_meters":6800,"station_id":"","pricing_plan_id":"cebpf4jnsgd1na2vs0mg"},{"bike_id":"d1e95775-bc42-43ce-98f0-4426d84524c7","system_id":"levelo_inurba_marseille","lat":43.304274,"lon":5.388873,"is_reserved":false,"is_disabled":false,"rental_uris":{"android":"levelo://app?vid=d1e95775-bc42-43ce-98f0-4426d84524c7","ios":"levelo://app?vid=d1e95775-bc42-43ce-98f0-4426d84524c7"},"vehicle_type_id":"4","last_reported":1725570472,"current_range_meters":4400,"station_id":"ce4bgk12rcd13ifvqbi0","pricing_plan_id":"cebpf4jnsgd1na2vs0mg"},{"bike_id":"dde97a71-7664-4296-8cb4-92c3e44c0ee8","system_id":"levelo_inurba_marseille","lat":43.304278,"lon":5.388868,"is_reserved":false,"is_disabled":false,"rental_uris":{"android":"levelo://app?vid=dde97a71-7664-4296-8cb4-92c3e44c0ee8","ios":"levelo://app?vid=dde97a71-7664-4296-8cb4-92c3e44c0ee8"},"vehicle_type_id":"4","last_reported":1725570472,"current_range_meters":31200,"station_id":"ce4bgk12rcd13ifvqbi0","pricing_plan_id":"cebpf4jnsgd1na2vs0mg"},{"bike_id":"1a71560c-182f-4417-a325-75b9d1aa8b61","system_id":"levelo_inurba_marseille","lat":43.304274,"lon":5.388873,"is_reserved":false,"is_disabled":false,"rental_uris":{"android":"levelo://app?vid=1a71560c-182f-4417-a325-75b9d1aa8b61","ios":"levelo://app?vid=1a71560c-182f-4417-a325-75b9d1aa8b61"},"vehicle_type_id":"4","last_reported":1725570472,"current_range_meters":28000,"station_id":"ce4bgk12rcd13ifvqbi0","pricing_plan_id":"cebpf4jnsgd1na2vs0mg"},{"bike_id":"8c3744e0-633c-41ef-9fef-d3d260ad4925","system_id":"levelo_inurba_marseille","lat":43.304274,"lon":5.388873,"is_reserved":false,"is_disabled":false,"rental_uris":{"android":"levelo://app?vid=8c3744e0-633c-41ef-9fef-d3d260ad4925","ios":"levelo://app?vid=8c3744e0-633c-41ef-9fef-d3d260ad4925"},"vehicle_type_id":"4","last_reported":1725570472,"current_range_meters":16400,"station_id":"ce4bgk12rcd13ifvqbi0","pricing_plan_id":"cebpf4jnsgd1na2vs0mg"},{"bike_id":"b10ffb89-142f-4455-8961-b6cd5f462e69","system_id":"levelo_inurba_marseille","lat":43.304278,"lon":5.388868,"is_reserved":false,"is_disabled":false,"rental_uris":{"android":"levelo://app?vid=b10ffb89-142f-4455-8961-b6cd5f462e69","ios":"levelo://app?vid=b10ffb89-142f-4455-8961-b6cd5f462e69"},"vehicle_type_id":"4","last_reported":1725570472,"current_range_meters":10400,"station_id":"ce4bgk12rcd13ifvqbi0","pricing_plan_id":"cebpf4jnsgd1na2vs0mg"},{"bike_id":"6869fc2f-a080-47cf-9ca0-3b76059d029f","system_id":"levelo_inurba_marseille","lat":43.304274,"lon":5.388873,"is_reserved":false,"is_disabled":false,"rental_uris":{"android":"levelo://app?vid=6869fc2f-a080-47cf-9ca0-3b76059d029f","ios":"levelo://app?vid=6869fc2f-a080-47cf-9ca0-3b76059d029f"},"vehicle_type_id":"4","last_reported":1725570472,"current_range_meters":31200,"station_id":"ce4bgk12rcd13ifvqbi0","pricing_plan_id":"cebpf4jnsgd1na2vs0mg"},{"bike_id":"2057b04e-e1ef-4b71-ae94-2136d47c59cc","system_id":"levelo_inurba_marseille","lat":43.295279,"lon":5.375048,"is_reserved":false,"is_disabled":false,"rental_uris":{"android":"levelo://app?vid=2057b04e-e1ef-4b71-ae94-2136d47c59cc","ios":"levelo://app?vid=2057b04e-e1ef-4b71-ae94-2136d47c59cc"},"vehicle_type_id":"4","last_reported":1725570472,"current_range_meters":22400,"station_id":"ce4bgkp2rcd13ifvqbmg","pricing_plan_id":"cebpf4jnsgd1na2vs0mg"},{"bike_id":"98ff9018-66ce-4cd0-a1b1-e86acdc62087","system_id":"levelo_inurba_marseille","lat":43.304278,"lon":5.388868,"is_reserved":false,"is_disabled":false,"rental_uris":{"android":"levelo://app?vid=98ff9018-66ce-4cd0-a1b1-e86acdc62087","ios":"levelo://app?vid=98ff9018-66ce-4cd0-a1b1-e86acdc62087"},"vehicle_type_id":"4","last_reported":1725570472,"current_range_meters":31200,"station_id":"ce4bgk12rcd13ifvqbi0","pricing_plan_id":"cebpf4jnsgd1na2vs0mg"},{"bike_id":"1bdf41ec-81ab-408a-9222-a510625a1872","system_id":"levelo_inurba_marseille","lat":43.304274,"lon":5.388873,"is_reserved":false,"is_disabled":false,"rental_uris":{"android":"levelo://app?vid=1bdf41ec-81ab-408a-9222-a510625a1872","ios":"levelo://app?vid=1bdf41ec-81ab-408a-9222-a510625a1872"},"vehicle_type_id":"4","last_reported":1725570472,"current_range_meters":12000,"station_id":"ce4bgk12rcd13ifvqbi0","pricing_plan_id":"cebpf4jnsgd1na2vs0mg"},{"bike_id":"0c2b5c30-61f3-4cf6-abfb-b111e988b957","system_id":"levelo_inurba_marseille","lat":43.2962,"lon":5.37734,"is_reserved":false,"is_disabled":false,"rental_uris":{"android":"levelo://app?vid=0c2b5c30-61f3-4cf6-abfb-b111e988b957","ios":"levelo://app?vid=0c2b5c30-61f3-4cf6-abfb-b111e988b957"},"vehicle_type_id":"4","last_reported":1725570472,"current_range_meters":1600,"station_id":"ce4bgi92rcd13ifvqb90","pricing_plan_id":"cebpf4jnsgd1na2vs0mg"},{"bike_id":"f1111cc2-2563-4adf-a171-1a8216f93234","system_id":"levelo_inurba_marseille","lat":43.295279,"lon":5.375048,"is_reserved":false,"is_disabled":false,"rental_uris":{"android":"levelo://app?vid=f1111cc2-2563-4adf-a171-1a8216f93234","ios":"levelo://app?vid=f1111cc2-2563-4adf-a171-1a8216f93234"},"vehicle_type_id":"4","last_reported":1725570472,"current_range_meters":29600,"station_id":"ce4bgkp2rcd13ifvqbmg","pricing_plan_id":"cebpf4jnsgd1na2vs0mg"},{"bike_id":"3f329f3d-d3cf-4957-bdfc-88ed72c92be7","system_id":"levelo_inurba_marseille","lat":43.299707,"lon":5.384859,"is_reserved":false,"is_disabled":false,"rental_uris":{"android":"levelo://app?vid=3f329f3d-d3cf-4957-bdfc-88ed72c92be7","ios":"levelo://app?vid=3f329f3d-d3cf-4957-bdfc-88ed72c92be7"},"vehicle_type_id":"4","last_reported":1725570472,"current_range_meters":0,"station_id":"ce4bgj92rcd13ifvqbd0","pricing_plan_id":"cebpf4jnsgd1na2vs0mg"},{"bike_id":"e32dc1b2-c511-4c4d-9887-c09c30af3a99","system_id":"levelo_inurba_marseille","lat":43.299717,"lon":5.384845,"is_reserved":false,"is_disabled":false,"rental_uris":{"android":"levelo://app?vid=e32dc1b2-c511-4c4d-9887-c09c30af3a99","ios":"levelo://app?vid=e32dc1b2-c511-4c4d-9887-c09c30af3a99"},"vehicle_type_id":"4","last_reported":1725570472,"current_range_meters":9600,"station_id":"ce4bgj92rcd13ifvqbd0","pricing_plan_id":"cebpf4jnsgd1na2vs0mg"},{"bike_id":"e5ca4c95-2278-4a80-93ab-c56c660211b8","system_id":"levelo_inurba_marseille","lat":43.299717,"lon":5.384845,"is_reserved":false,"is_disabled":false,"rental_uris":{"android":"levelo://app?vid=e5ca4c95-2278-4a80-93ab-c56c660211b8","ios":"levelo://app?vid=e5ca4c95-2278-4a80-93ab-c56c660211b8"},"vehicle_type_id":"4","last_reported":1725570472,"current_range_meters":22000,"station_id":"ce4bgj92rcd13ifvqbd0","pricing_plan_id":"cebpf4jnsgd1na2vs0mg"},{"bike_id":"a2481e6d-c562-4bd5-9ce4-833ddefe435e","system_id":"levelo_inurba_marseille","lat":43.299707,"lon":5.384859,"is_reserved":false,"is_disabled":false,"rental_uris":{"android":"levelo://app?vid=a2481e6d-c562-4bd5-9ce4-833ddefe435e","ios":"levelo://app?vid=a2481e6d-c562-4bd5-9ce4-833ddefe435e"},"vehicle_type_id":"4","last_reported":1725570472,"current_range_meters":17600,"station_id":"ce4bgj92rcd13ifvqbd0","pricing_plan_id":"cebpf4jnsgd1na2vs0mg"},{"bike_id":"87abfc42-e306-437a-95ce-e9d6e4d29feb","system_id":"levelo_inurba_marseille","lat":43.295279,"lon":5.375048,"is_reserved":false,"is_disabled":false,"rental_uris":{"android":"levelo://app?vid=87abfc42-e306-437a-95ce-e9d6e4d29feb","ios":"levelo://app?vid=87abfc42-e306-437a-95ce-e9d6e4d29feb"},"vehicle_type_id":"4","last_reported":1725570472,"current_range_meters":0,"station_id":"ce4bgkp2rcd13ifvqbmg","pricing_plan_id":"cebpf4jnsgd1na2vs0mg"},{"bike_id":"553a157c-65b1-494a-95fb-ec28043fc1e1","system_id":"levelo_inurba_marseille","lat":43.299717,"lon":5.384845,"is_reserved":false,"is_disabled":false,"rental_uris":{"android":"levelo://app?vid=553a157c-65b1-494a-95fb-ec28043fc1e1","ios":"levelo://app?vid=553a157c-65b1-494a-95fb-ec28043fc1e1"},"vehicle_type_id":"4","last_reported":1725570472,"current_range_meters":4000,"station_id":"ce4bgj92rcd13ifvqbd0","pricing_plan_id":"cebpf4jnsgd1na2vs0mg"},{"bike_id":"d9ec22f0-af64-4690-b4d3-63b4eb2e253c","system_id":"levelo_inurba_marseille","lat":43.299707,"lon":5.384859,"is_reserved":false,"is_disabled":false,"rental_uris":{"android":"levelo://app?vid=d9ec22f0-af64-4690-b4d3-63b4eb2e253c","ios":"levelo://app?vid=d9ec22f0-af64-4690-b4d3-63b4eb2e253c"},"vehicle_type_id":"4","last_reported":1725570472,"current_range_meters":18800,"station_id":"ce4bgj92rcd13ifvqbd0","pricing_plan_id":"cebpf4jnsgd1na2vs0mg"},{"bike_id":"302ab232-58ff-4138-82df-03dcae937b96","system_id":"levelo_inurba_marseille","lat":43.299707,"lon":5.384859,"is_reserved":false,"is_disabled":false,"rental_uris":{"android":"levelo://app?vid=302ab232-58ff-4138-82df-03dcae937b96","ios":"levelo://app?vid=302ab232-58ff-4138-82df-03dcae937b96"},"vehicle_type_id":"4","last_reported":1725570472,"current_range_meters":20000,"station_id":"ce4bgj92rcd13ifvqbd0","pricing_plan_id":"cebpf4jnsgd1na2vs0mg"},{"bike_id":"67fd716b-6881-44ed-bc0e-97e3407b4ea4","system_id":"levelo_inurba_marseille","lat":43.299717,"lon":5.384845,"is_reserved":false,"is_disabled":false,"rental_uris":{"android":"levelo://app?vid=67fd716b-6881-44ed-bc0e-97e3407b4ea4","ios":"levelo://app?vid=67fd716b-6881-44ed-bc0e-97e3407b4ea4"},"vehicle_type_id":"4","last_reported":1725570472,"current_range_meters":17600,"station_id":"ce4bgj92rcd13ifvqbd0","pricing_plan_id":"cebpf4jnsgd1na2vs0mg"},{"bike_id":"2674efae-996f-4130-a492-fc3c646524b9","system_id":"levelo_inurba_marseille","lat":43.299707,"lon":5.384859,"is_reserved":false,"is_disabled":false,"rental_uris":{"android":"levelo://app?vid=2674efae-996f-4130-a492-fc3c646524b9","ios":"levelo://app?vid=2674efae-996f-4130-a492-fc3c646524b9"},"vehicle_type_id":"4","last_reported":1725570472,"current_range_meters":2000,"station_id":"ce4bgj92rcd13ifvqbd0","pricing_plan_id":"cebpf4jnsgd1na2vs0mg"},{"bike_id":"63ed3959-4e6a-4338-9559-0a1f5702946d","system_id":"levelo_inurba_marseille","lat":43.299717,"lon":5.384845,"is_reserved":false,"is_disabled":false,"rental_uris":{"android":"levelo://app?vid=63ed3959-4e6a-4338-9559-0a1f5702946d","ios":"levelo://app?vid=63ed3959-4e6a-4338-9559-0a1f5702946d"},"vehicle_type_id":"4","last_reported":1725570472,"current_range_meters":9600,"station_id":"ce4bgj92rcd13ifvqbd0","pricing_plan_id":"cebpf4jnsgd1na2vs0mg"},{"bike_id":"d5203328-c134-4023-803a-8258ae8d48c1","system_id":"levelo_inurba_marseille","lat":43.299724,"lon":5.384848,"is_reserved":false,"is_disabled":false,"rental_uris":{"android":"levelo://app?vid=d5203328-c134-4023-803a-8258ae8d48c1","ios":"levelo://app?vid=d5203328-c134-4023-803a-8258ae8d48c1"},"vehicle_type_id":"4","last_reported":1725570472,"current_range_meters":8800,"station_id":"ce4bgj92rcd13ifvqbd0","pricing_plan_id":"cebpf4jnsgd1na2vs0mg"},{"bike_id":"01ff61e9-10f7-44ae-8020-371100af12e8","system_id":"levelo_inurba_marseille","lat":43.30143,"lon":5.38765,"is_reserved":false,"is_disabled":false,"rental_uris":{"android":"levelo://app?vid=01ff61e9-10f7-44ae-8020-371100af12e8","ios":"levelo://app?vid=01ff61e9-10f7-44ae-8020-371100af12e8"},"vehicle_type_id":"4","last_reported":1725570472,"current_range_meters":7600,"station_id":"ce4bghh2rcd13ifvqb60","pricing_plan_id":"cebpf4jnsgd1na2vs0mg"},{"bike_id":"1446cb20-0637-4408-b314-3a73abd8cbd9","system_id":"levelo_inurba_marseille","lat":43.32376,"lon":5.3886,"is_reserved":false,"is_disabled":false,"rental_uris":{"android":"levelo://app?vid=1446cb20-0637-4408-b314-3a73abd8cbd9","ios":"levelo://app?vid=1446cb20-0637-4408-b314-3a73abd8cbd9"},"vehicle_type_id":"4","last_reported":1725570472,"current_range_meters":20800,"station_id":"ce4bhqp2rcd13ifvqhog","pricing_plan_id":"cebpf4jnsgd1na2vs0mg"},{"bike_id":"06394176-06bc-444a-9a39-f083d8ca8eea","system_id":"levelo_inurba_marseille","lat":43.32365,"lon":5.388843,"is_reserved":false,"is_disabled":false,"rental_uris":{"android":"levelo://app?vid=06394176-06bc-444a-9a39-f083d8ca8eea","ios":"levelo://app?vid=06394176-06bc-444a-9a39-f083d8ca8eea"},"vehicle_type_id":"4","last_reported":1725570472,"current_range_meters":0,"station_id":"ce4bhqp2rcd13ifvqhog","pricing_plan_id":"cebpf4jnsgd1na2vs0mg"},{"bike_id":"2e2fbfb3-b8bd-45de-8ff6-e928679e6b5d","system_id":"levelo_inurba_marseille","lat":43.32367,"lon":5.388836,"is_reserved":false,"is_disabled":false,"rental_uris":{"android":"levelo://app?vid=2e2fbfb3-b8bd-45de-8ff6-e928679e6b5d","ios":"levelo://app?vid=2e2fbfb3-b8bd-45de-8ff6-e928679e6b5d"},"vehicle_type_id":"4","last_reported":1725570472,"current_range_meters":22400,"station_id":"ce4bhqp2rcd13ifvqhog","pricing_plan_id":"cebpf4jnsgd1na2vs0mg"},{"bike_id":"c6805463-a1eb-4443-83eb-8c49c52bfd0c","system_id":"levelo_inurba_marseille","lat":43.32374,"lon":5.38878,"is_reserved":false,"is_disabled":false,"rental_uris":{"android":"levelo://app?vid=c6805463-a1eb-4443-83eb-8c49c52bfd0c","ios":"levelo://app?vid=c6805463-a1eb-4443-83eb-8c49c52bfd0c"},"vehicle_type_id":"4","last_reported":1725570472,"current_range_meters":6800,"station_id":"ce4bhqp2rcd13ifvqhog","pricing_plan_id":"cebpf4jnsgd1na2vs0mg"},{"bike_id":"644839bf-13a6-4332-a004-798b218bd8a3","system_id":"levelo_inurba_marseille","lat":43.32367,"lon":5.388836,"is_reserved":false,"is_disabled":false,"rental_uris":{"android":"levelo://app?vid=644839bf-13a6-4332-a004-798b218bd8a3","ios":"levelo://app?vid=644839bf-13a6-4332-a004-798b218bd8a3"},"vehicle_type_id":"4","last_reported":1725570472,"current_range_meters":20400,"station_id":"ce4bhqp2rcd13ifvqhog","pricing_plan_id":"cebpf4jnsgd1na2vs0mg"},{"bike_id":"2bb572d3-acfc-4fd4-87f3-c7589725152a","system_id":"levelo_inurba_marseille","lat":43.32375,"lon":5.38881,"is_reserved":false,"is_disabled":false,"rental_uris":{"android":"levelo://app?vid=2bb572d3-acfc-4fd4-87f3-c7589725152a","ios":"levelo://app?vid=2bb572d3-acfc-4fd4-87f3-c7589725152a"},"vehicle_type_id":"4","last_reported":1725570472,"current_range_meters":12400,"station_id":"ce4bhqp2rcd13ifvqhog","pricing_plan_id":"cebpf4jnsgd1na2vs0mg"},{"bike_id":"a3b2a2fe-3401-4a1a-91f8-558f8d6c1276","system_id":"levelo_inurba_marseille","lat":43.32367,"lon":5.388836,"is_reserved":false,"is_disabled":false,"rental_uris":{"android":"levelo://app?vid=a3b2a2fe-3401-4a1a-91f8-558f8d6c1276","ios":"levelo://app?vid=a3b2a2fe-3401-4a1a-91f8-558f8d6c1276"},"vehicle_type_id":"4","last_reported":1725570472,"current_range_meters":29600,"station_id":"ce4bhqp2rcd13ifvqhog","pricing_plan_id":"cebpf4jnsgd1na2vs0mg"},{"bike_id":"55d137d3-213d-40fd-8461-ae5e576cf512","system_id":"levelo_inurba_marseille","lat":43.32369,"lon":5.38897,"is_reserved":false,"is_disabled":false,"rental_uris":{"android":"levelo://app?vid=55d137d3-213d-40fd-8461-ae5e576cf512","ios":"levelo://app?vid=55d137d3-213d-40fd-8461-ae5e576cf512"},"vehicle_type_id":"4","last_reported":1725570472,"current_range_meters":12000,"station_id":"ce4bhqp2rcd13ifvqhog","pricing_plan_id":"cebpf4jnsgd1na2vs0mg"},{"bike_id":"ba74d354-de97-441f-9f08-cca3865d5096","system_id":"levelo_inurba_marseille","lat":43.323741,"lon":5.388938,"is_reserved":false,"is_disabled":false,"rental_uris":{"android":"levelo://app?vid=ba74d354-de97-441f-9f08-cca3865d5096","ios":"levelo://app?vid=ba74d354-de97-441f-9f08-cca3865d5096"},"vehicle_type_id":"4","last_reported":1725570472,"current_range_meters":4400,"station_id":"ce4bhqp2rcd13ifvqhog","pricing_plan_id":"cebpf4jnsgd1na2vs0mg"},{"bike_id":"fb828428-b1df-48f2-abb5-414ad650a2f7","system_id":"levelo_inurba_marseille","lat":43.29608,"lon":5.38103,"is_reserved":false,"is_disabled":false,"rental_uris":{"android":"levelo://app?vid=fb828428-b1df-48f2-abb5-414ad650a2f7","ios":"levelo://app?vid=fb828428-b1df-48f2-abb5-414ad650a2f7"},"vehicle_type_id":"4","last_reported":1725570472,"current_range_meters":14800,"station_id":"ce4bgl12rcd13ifvqbo0","pricing_plan_id":"cebpf4jnsgd1na2vs0mg"},{"bike_id":"943ff430-1407-4a66-8fcd-68e022d00e77","system_id":"levelo_inurba_marseille","lat":43.29315,"lon":5.37163,"is_reserved":false,"is_disabled":false,"rental_uris":{"android":"levelo://app?vid=943ff430-1407-4a66-8fcd-68e022d00e77","ios":"levelo://app?vid=943ff430-1407-4a66-8fcd-68e022d00e77"},"vehicle_type_id":"4","last_reported":1725570472,"current_range_meters":0,"station_id":"ce4bgh92rcd13ifvqb40","pricing_plan_id":"cebpf4jnsgd1na2vs0mg"},{"bike_id":"c39e9de5-a779-4f75-8436-1af621be931c","system_id":"levelo_inurba_marseille","lat":43.293259,"lon":5.371586,"is_reserved":false,"is_disabled":false,"rental_uris":{"android":"levelo://app?vid=c39e9de5-a779-4f75-8436-1af621be931c","ios":"levelo://app?vid=c39e9de5-a779-4f75-8436-1af621be931c"},"vehicle_type_id":"4","last_reported":1725570472,"current_range_meters":30800,"station_id":"ce4bgh92rcd13ifvqb40","pricing_plan_id":"cebpf4jnsgd1na2vs0mg"},{"bike_id":"a5e861df-fa97-4c82-893a-3d3b3ad885ab","system_id":"levelo_inurba_marseille","lat":43.292749,"lon":5.368402,"is_reserved":false,"is_disabled":false,"rental_uris":{"android":"levelo://app?vid=a5e861df-fa97-4c82-893a-3d3b3ad885ab","ios":"levelo://app?vid=a5e861df-fa97-4c82-893a-3d3b3ad885ab"},"vehicle_type_id":"4","last_reported":1725570472,"current_range_meters":28400,"station_id":"ce4bhbp2rcd13ifvqesg","pricing_plan_id":"cebpf4jnsgd1na2vs0mg"},{"bike_id":"3aaca39c-c1d3-44de-8b81-875da4b3d240","system_id":"levelo_inurba_marseille","lat":43.29304,"lon":5.3717,"is_reserved":false,"is_disabled":false,"rental_uris":{"android":"levelo://app?vid=3aaca39c-c1d3-44de-8b81-875da4b3d240","ios":"levelo://app?vid=3aaca39c-c1d3-44de-8b81-875da4b3d240"},"vehicle_type_id":"4","last_reported":1725570472,"current_range_meters":0,"station_id":"ce4bgh92rcd13ifvqb40","pricing_plan_id":"cebpf4jnsgd1na2vs0mg"},{"bike_id":"56bc1f6a-18b2-4fb6-bceb-1caec03f0ed4","system_id":"levelo_inurba_marseille","lat":43.293009,"lon":5.374584,"is_reserved":false,"is_disabled":false,"rental_uris":{"android":"levelo://app?vid=56bc1f6a-18b2-4fb6-bceb-1caec03f0ed4","ios":"levelo://app?vid=56bc1f6a-18b2-4fb6-bceb-1caec03f0ed4"},"vehicle_type_id":"4","last_reported":1725570472,"current_range_meters":18800,"station_id":"ce4bgi12rcd13ifvqb70","pricing_plan_id":"cebpf4jnsgd1na2vs0mg"},{"bike_id":"61298110-9f69-4b18-8424-ddf0e71f0b10","system_id":"levelo_inurba_marseille","lat":43.293009,"lon":5.374584,"is_reserved":false,"is_disabled":false,"rental_uris":{"android":"levelo://app?vid=61298110-9f69-4b18-8424-ddf0e71f0b10","ios":"levelo://app?vid=61298110-9f69-4b18-8424-ddf0e71f0b10"},"vehicle_type_id":"4","last_reported":1725570472,"current_range_meters":16400,"station_id":"ce4bgi12rcd13ifvqb70","pricing_plan_id":"cebpf4jnsgd1na2vs0mg"},{"bike_id":"a2683d6d-f219-4f20-9902-353f52de8175","system_id":"levelo_inurba_marseille","lat":43.293009,"lon":5.374584,"is_reserved":false,"is_disabled":false,"rental_uris":{"android":"levelo://app?vid=a2683d6d-f219-4f20-9902-353f52de8175","ios":"levelo://app?vid=a2683d6d-f219-4f20-9902-353f52de8175"},"vehicle_type_id":"4","last_reported":1725570472,"current_range_meters":28400,"station_id":"ce4bgi12rcd13ifvqb70","pricing_plan_id":"cebpf4jnsgd1na2vs0mg"},{"bike_id":"8848a01c-cd3d-4a41-a079-b7eb4c84edd0","system_id":"levelo_inurba_marseille","lat":43.293009,"lon":5.374584,"is_reserved":false,"is_disabled":false,"rental_uris":{"android":"levelo://app?vid=8848a01c-cd3d-4a41-a079-b7eb4c84edd0","ios":"levelo://app?vid=8848a01c-cd3d-4a41-a079-b7eb4c84edd0"},"vehicle_type_id":"4","last_reported":1725570472,"current_range_meters":10800,"station_id":"ce4bgi12rcd13ifvqb70","pricing_plan_id":"cebpf4jnsgd1na2vs0mg"},{"bike_id":"a79af812-f0cd-48f1-ae6d-25459ff0611a","system_id":"levelo_inurba_marseille","lat":43.293009,"lon":5.374584,"is_reserved":false,"is_disabled":false,"rental_uris":{"android":"levelo://app?vid=a79af812-f0cd-48f1-ae6d-25459ff0611a","ios":"levelo://app?vid=a79af812-f0cd-48f1-ae6d-25459ff0611a"},"vehicle_type_id":"4","last_reported":1725570472,"current_range_meters":8000,"station_id":"ce4bgi12rcd13ifvqb70","pricing_plan_id":"cebpf4jnsgd1na2vs0mg"},{"bike_id":"d2c47b31-a75f-48ac-982b-666b4c5cd201","system_id":"levelo_inurba_marseille","lat":43.293009,"lon":5.374584,"is_reserved":false,"is_disabled":false,"rental_uris":{"android":"levelo://app?vid=d2c47b31-a75f-48ac-982b-666b4c5cd201","ios":"levelo://app?vid=d2c47b31-a75f-48ac-982b-666b4c5cd201"},"vehicle_type_id":"4","last_reported":1725570472,"current_range_meters":27200,"station_id":"ce4bgi12rcd13ifvqb70","pricing_plan_id":"cebpf4jnsgd1na2vs0mg"},{"bike_id":"4c8a1d81-0c26-4401-8e1f-83589772db4a","system_id":"levelo_inurba_marseille","lat":43.293009,"lon":5.374584,"is_reserved":false,"is_disabled":false,"rental_uris":{"android":"levelo://app?vid=4c8a1d81-0c26-4401-8e1f-83589772db4a","ios":"levelo://app?vid=4c8a1d81-0c26-4401-8e1f-83589772db4a"},"vehicle_type_id":"4","last_reported":1725570472,"current_range_meters":0,"station_id":"ce4bgi12rcd13ifvqb70","pricing_plan_id":"cebpf4jnsgd1na2vs0mg"},{"bike_id":"6fe969c2-604e-4101-9057-ebd3a6f354ba","system_id":"levelo_inurba_marseille","lat":43.303002,"lon":5.392142,"is_reserved":false,"is_disabled":false,"rental_uris":{"android":"levelo://app?vid=6fe969c2-604e-4101-9057-ebd3a6f354ba","ios":"levelo://app?vid=6fe969c2-604e-4101-9057-ebd3a6f354ba"},"vehicle_type_id":"4","last_reported":1725570472,"current_range_meters":31200,"station_id":"ce4bgkh2rcd13ifvqbk0","pricing_plan_id":"cebpf4jnsgd1na2vs0mg"},{"bike_id":"50b68660-fce3-4327-93bc-125fae5361b7","system_id":"levelo_inurba_marseille","lat":43.30309,"lon":5.39202,"is_reserved":false,"is_disabled":false,"rental_uris":{"android":"levelo://app?vid=50b68660-fce3-4327-93bc-125fae5361b7","ios":"levelo://app?vid=50b68660-fce3-4327-93bc-125fae5361b7"},"vehicle_type_id":"4","last_reported":1725570472,"current_range_meters":30400,"station_id":"ce4bgkh2rcd13ifvqbk0","pricing_plan_id":"cebpf4jnsgd1na2vs0mg"},{"bike_id":"a680ffa1-9152-4d69-b76c-a21798e83a98","system_id":"levelo_inurba_marseille","lat":43.302992,"lon":5.392136,"is_reserved":false,"is_disabled":false,"rental_uris":{"android":"levelo://app?vid=a680ffa1-9152-4d69-b76c-a21798e83a98","ios":"levelo://app?vid=a680ffa1-9152-4d69-b76c-a21798e83a98"},"vehicle_type_id":"4","last_reported":1725570472,"current_range_meters":12000,"station_id":"ce4bgkh2rcd13ifvqbk0","pricing_plan_id":"cebpf4jnsgd1na2vs0mg"},{"bike_id":"076ad5c2-5103-4c74-a06b-0d60ce9af546","system_id":"levelo_inurba_marseille","lat":43.2938,"lon":5.37852,"is_reserved":false,"is_disabled":false,"rental_uris":{"android":"levelo://app?vid=076ad5c2-5103-4c74-a06b-0d60ce9af546","ios":"levelo://app?vid=076ad5c2-5103-4c74-a06b-0d60ce9af546"},"vehicle_type_id":"4","last_reported":1725570472,"current_range_meters":6000,"station_id":"ce4bgjh2rcd13ifvqbf0","pricing_plan_id":"cebpf4jnsgd1na2vs0mg"},{"bike_id":"8e13fb13-9423-4820-ba8a-a76263790af1","system_id":"levelo_inurba_marseille","lat":43.30302,"lon":5.39215,"is_reserved":false,"is_disabled":false,"rental_uris":{"android":"levelo://app?vid=8e13fb13-9423-4820-ba8a-a76263790af1","ios":"levelo://app?vid=8e13fb13-9423-4820-ba8a-a76263790af1"},"vehicle_type_id":"4","last_reported":1725570472,"current_range_meters":3600,"station_id":"ce4bgkh2rcd13ifvqbk0","pricing_plan_id":"cebpf4jnsgd1na2vs0mg"},{"bike_id":"d2c823ad-7230-46bd-aeef-9530cea6543d","system_id":"levelo_inurba_marseille","lat":43.2936,"lon":5.37835,"is_reserved":false,"is_disabled":false,"rental_uris":{"android":"levelo://app?vid=d2c823ad-7230-46bd-aeef-9530cea6543d","ios":"levelo://app?vid=d2c823ad-7230-46bd-aeef-9530cea6543d"},"vehicle_type_id":"4","last_reported":1725570472,"current_range_meters":2400,"station_id":"ce4bgjh2rcd13ifvqbf0","pricing_plan_id":"cebpf4jnsgd1na2vs0mg"},{"bike_id":"f23912d1-ddba-41b2-9967-e5eeffab13d8","system_id":"levelo_inurba_marseille","lat":43.302992,"lon":5.392136,"is_reserved":false,"is_disabled":false,"rental_uris":{"android":"levelo://app?vid=f23912d1-ddba-41b2-9967-e5eeffab13d8","ios":"levelo://app?vid=f23912d1-ddba-41b2-9967-e5eeffab13d8"},"vehicle_type_id":"4","last_reported":1725570472,"current_range_meters":9200,"station_id":"ce4bgkh2rcd13ifvqbk0","pricing_plan_id":"cebpf4jnsgd1na2vs0mg"},{"bike_id":"981f8105-0d4d-4c85-b8bf-3b37c850b13b","system_id":"levelo_inurba_marseille","lat":43.2936,"lon":5.37835,"is_reserved":false,"is_disabled":false,"rental_uris":{"android":"levelo://app?vid=981f8105-0d4d-4c85-b8bf-3b37c850b13b","ios":"levelo://app?vid=981f8105-0d4d-4c85-b8bf-3b37c850b13b"},"vehicle_type_id":"4","last_reported":1725570472,"current_range_meters":16800,"station_id":"ce4bgjh2rcd13ifvqbf0","pricing_plan_id":"cebpf4jnsgd1na2vs0mg"},{"bike_id":"b2521cba-18d1-430a-902c-ffc4fc39568b","system_id":"levelo_inurba_marseille","lat":43.293736,"lon":5.378584,"is_reserved":false,"is_disabled":false,"rental_uris":{"android":"levelo://app?vid=b2521cba-18d1-430a-902c-ffc4fc39568b","ios":"levelo://app?vid=b2521cba-18d1-430a-902c-ffc4fc39568b"},"vehicle_type_id":"4","last_reported":1725570472,"current_range_meters":31200,"station_id":"ce4bgjh2rcd13ifvqbf0","pricing_plan_id":"cebpf4jnsgd1na2vs0mg"},{"bike_id":"11e35458-52e3-4c1a-868f-04bbe6ddd45e","system_id":"levelo_inurba_marseille","lat":43.293637,"lon":5.378623,"is_reserved":false,"is_disabled":false,"rental_uris":{"android":"levelo://app?vid=11e35458-52e3-4c1a-868f-04bbe6ddd45e","ios":"levelo://app?vid=11e35458-52e3-4c1a-868f-04bbe6ddd45e"},"vehicle_type_id":"4","last_reported":1725570472,"current_range_meters":31200,"station_id":"ce4bgjh2rcd13ifvqbf0","pricing_plan_id":"cebpf4jnsgd1na2vs0mg"},{"bike_id":"f1fe508b-72ff-4214-a7d5-fc312340b569","system_id":"levelo_inurba_marseille","lat":43.300852,"lon":5.390859,"is_reserved":false,"is_disabled":false,"rental_uris":{"android":"levelo://app?vid=f1fe508b-72ff-4214-a7d5-fc312340b569","ios":"levelo://app?vid=f1fe508b-72ff-4214-a7d5-fc312340b569"},"vehicle_type_id":"4","last_reported":1725570472,"current_range_meters":800,"station_id":"ce4bh192rcd13ifvqdb0","pricing_plan_id":"cebpf4jnsgd1na2vs0mg"},{"bike_id":"4291fdc0-33cd-483f-b612-f6964b4eaaf0","system_id":"levelo_inurba_marseille","lat":43.2936,"lon":5.37835,"is_reserved":false,"is_disabled":false,"rental_uris":{"android":"levelo://app?vid=4291fdc0-33cd-483f-b612-f6964b4eaaf0","ios":"levelo://app?vid=4291fdc0-33cd-483f-b612-f6964b4eaaf0"},"vehicle_type_id":"4","last_reported":1725570472,"current_range_meters":6400,"station_id":"ce4bgjh2rcd13ifvqbf0","pricing_plan_id":"cebpf4jnsgd1na2vs0mg"},{"bike_id":"3b4b7fa2-3a64-44af-9cf8-25874e560c30","system_id":"levelo_inurba_marseille","lat":43.300852,"lon":5.390859,"is_reserved":false,"is_disabled":false,"rental_uris":{"android":"levelo://app?vid=3b4b7fa2-3a64-44af-9cf8-25874e560c30","ios":"levelo://app?vid=3b4b7fa2-3a64-44af-9cf8-25874e560c30"},"vehicle_type_id":"4","last_reported":1725570472,"current_range_meters":0,"station_id":"ce4bh192rcd13ifvqdb0","pricing_plan_id":"cebpf4jnsgd1na2vs0mg"},{"bike_id":"b2d7db5c-272f-4301-b75b-40ac5d67347a","system_id":"levelo_inurba_marseille","lat":43.29889,"lon":5.389,"is_reserved":false,"is_disabled":false,"rental_uris":{"android":"levelo://app?vid=b2d7db5c-272f-4301-b75b-40ac5d67347a","ios":"levelo://app?vid=b2d7db5c-272f-4301-b75b-40ac5d67347a"},"vehicle_type_id":"4","last_reported":1725570472,"current_range_meters":0,"station_id":"ce4bh392rcd13ifvqdl0","pricing_plan_id":"cebpf4jnsgd1na2vs0mg"},{"bike_id":"7b437826-7c06-462a-a323-ae476f2c86ea","system_id":"levelo_inurba_marseille","lat":43.291675,"lon":5.371583,"is_reserved":false,"is_disabled":false,"rental_uris":{"android":"levelo://app?vid=7b437826-7c06-462a-a323-ae476f2c86ea","ios":"levelo://app?vid=7b437826-7c06-462a-a323-ae476f2c86ea"},"vehicle_type_id":"4","last_reported":1725570472,"current_range_meters":0,"station_id":"ce4bha92rcd13ifvqeh0","pricing_plan_id":"cebpf4jnsgd1na2vs0mg"},{"bike_id":"79addffd-058b-42f8-9a93-0eed2b358bc8","system_id":"levelo_inurba_marseille","lat":43.291671,"lon":5.371575,"is_reserved":false,"is_disabled":false,"rental_uris":{"android":"levelo://app?vid=79addffd-058b-42f8-9a93-0eed2b358bc8","ios":"levelo://app?vid=79addffd-058b-42f8-9a93-0eed2b358bc8"},"vehicle_type_id":"4","last_reported":1725570472,"current_range_meters":25200,"station_id":"ce4bha92rcd13ifvqeh0","pricing_plan_id":"cebpf4jnsgd1na2vs0mg"},{"bike_id":"2c8f3bbf-f41f-4fec-a097-b454d3341c0f","system_id":"levelo_inurba_marseille","lat":43.291675,"lon":5.371583,"is_reserved":false,"is_disabled":false,"rental_uris":{"android":"levelo://app?vid=2c8f3bbf-f41f-4fec-a097-b454d3341c0f","ios":"levelo://app?vid=2c8f3bbf-f41f-4fec-a097-b454d3341c0f"},"vehicle_type_id":"4","last_reported":1725570472,"current_range_meters":3600,"station_id":"ce4bha92rcd13ifvqeh0","pricing_plan_id":"cebpf4jnsgd1na2vs0mg"},{"bike_id":"c4120240-009e-4cec-86d5-145d3453fc99","system_id":"levelo_inurba_marseille","lat":43.313291,"lon":5.396838,"is_reserved":false,"is_disabled":false,"rental_uris":{"android":"levelo://app?vid=c4120240-009e-4cec-86d5-145d3453fc99","ios":"levelo://app?vid=c4120240-009e-4cec-86d5-145d3453fc99"},"vehicle_type_id":"4","last_reported":1725570472,"current_range_meters":30800,"station_id":"ce4bgvp2rcd13ifvqcu0","pricing_plan_id":"cebpf4jnsgd1na2vs0mg"},{"bike_id":"d76895fe-b632-412d-b94f-8b81e530cc12","system_id":"levelo_inurba_marseille","lat":43.313291,"lon":5.396838,"is_reserved":false,"is_disabled":false,"rental_uris":{"android":"levelo://app?vid=d76895fe-b632-412d-b94f-8b81e530cc12","ios":"levelo://app?vid=d76895fe-b632-412d-b94f-8b81e530cc12"},"vehicle_type_id":"4","last_reported":1725570472,"current_range_meters":5600,"station_id":"ce4bgvp2rcd13ifvqcu0","pricing_plan_id":"cebpf4jnsgd1na2vs0mg"},{"bike_id":"46cf4cd9-7963-43ec-938c-fafde8e7772d","system_id":"levelo_inurba_marseille","lat":43.308877,"lon":5.396413,"is_reserved":false,"is_disabled":false,"rental_uris":{"android":"levelo://app?vid=46cf4cd9-7963-43ec-938c-fafde8e7772d","ios":"levelo://app?vid=46cf4cd9-7963-43ec-938c-fafde8e7772d"},"vehicle_type_id":"4","last_reported":1725570472,"current_range_meters":0,"station_id":"ce4bh012rcd13ifvqcv0","pricing_plan_id":"cebpf4jnsgd1na2vs0mg"},{"bike_id":"e2d67884-9cbd-4687-8bd6-68ce3c25127b","system_id":"levelo_inurba_marseille","lat":43.30888,"lon":5.39643,"is_reserved":false,"is_disabled":false,"rental_uris":{"android":"levelo://app?vid=e2d67884-9cbd-4687-8bd6-68ce3c25127b","ios":"levelo://app?vid=e2d67884-9cbd-4687-8bd6-68ce3c25127b"},"vehicle_type_id":"4","last_reported":1725570472,"current_range_meters":0,"station_id":"ce4bh012rcd13ifvqcv0","pricing_plan_id":"cebpf4jnsgd1na2vs0mg"},{"bike_id":"c8ce85d7-96f5-4f27-8a50-42a370d36eb1","system_id":"levelo_inurba_marseille","lat":43.313291,"lon":5.396838,"is_reserved":false,"is_disabled":false,"rental_uris":{"android":"levelo://app?vid=c8ce85d7-96f5-4f27-8a50-42a370d36eb1","ios":"levelo://app?vid=c8ce85d7-96f5-4f27-8a50-42a370d36eb1"},"vehicle_type_id":"4","last_reported":1725570472,"current_range_meters":22400,"station_id":"ce4bgvp2rcd13ifvqcu0","pricing_plan_id":"cebpf4jnsgd1na2vs0mg"},{"bike_id":"2020c84d-2382-442d-aebe-4d8463fce58a","system_id":"levelo_inurba_marseille","lat":43.313291,"lon":5.396838,"is_reserved":false,"is_disabled":false,"rental_uris":{"android":"levelo://app?vid=2020c84d-2382-442d-aebe-4d8463fce58a","ios":"levelo://app?vid=2020c84d-2382-442d-aebe-4d8463fce58a"},"vehicle_type_id":"4","last_reported":1725570472,"current_range_meters":11600,"station_id":"ce4bgvp2rcd13ifvqcu0","pricing_plan_id":"cebpf4jnsgd1na2vs0mg"},{"bike_id":"1393fefe-196b-4e81-a9c7-e52a34f72c7d","system_id":"levelo_inurba_marseille","lat":43.308913,"lon":5.396458,"is_reserved":false,"is_disabled":false,"rental_uris":{"android":"levelo://app?vid=1393fefe-196b-4e81-a9c7-e52a34f72c7d","ios":"levelo://app?vid=1393fefe-196b-4e81-a9c7-e52a34f72c7d"},"vehicle_type_id":"4","last_reported":1725570472,"current_range_meters":31200,"station_id":"ce4bh012rcd13ifvqcv0","pricing_plan_id":"cebpf4jnsgd1na2vs0mg"},{"bike_id":"d12764f5-fd25-4fee-a90f-4c6b44f258ee","system_id":"levelo_inurba_marseille","lat":43.31327,"lon":5.396917,"is_reserved":false,"is_disabled":false,"rental_uris":{"android":"levelo://app?vid=d12764f5-fd25-4fee-a90f-4c6b44f258ee","ios":"levelo://app?vid=d12764f5-fd25-4fee-a90f-4c6b44f258ee"},"vehicle_type_id":"4","last_reported":1725570472,"current_range_meters":26400,"station_id":"ce4bgvp2rcd13ifvqcu0","pricing_plan_id":"cebpf4jnsgd1na2vs0mg"},{"bike_id":"119699a6-0754-4a20-ad5b-9dc3faf4204a","system_id":"levelo_inurba_marseille","lat":43.313291,"lon":5.396838,"is_reserved":false,"is_disabled":false,"rental_uris":{"android":"levelo://app?vid=119699a6-0754-4a20-ad5b-9dc3faf4204a","ios":"levelo://app?vid=119699a6-0754-4a20-ad5b-9dc3faf4204a"},"vehicle_type_id":"4","last_reported":1725570472,"current_range_meters":30400,"station_id":"ce4bgvp2rcd13ifvqcu0","pricing_plan_id":"cebpf4jnsgd1na2vs0mg"},{"bike_id":"8eb69b69-075b-4055-bb96-7cf23329b1a9","system_id":"levelo_inurba_marseille","lat":43.313291,"lon":5.396838,"is_reserved":false,"is_disabled":false,"rental_uris":{"android":"levelo://app?vid=8eb69b69-075b-4055-bb96-7cf23329b1a9","ios":"levelo://app?vid=8eb69b69-075b-4055-bb96-7cf23329b1a9"},"vehicle_type_id":"4","last_reported":1725570472,"current_range_meters":1600,"station_id":"ce4bgvp2rcd13ifvqcu0","pricing_plan_id":"cebpf4jnsgd1na2vs0mg"},{"bike_id":"ecc7b572-0517-4788-ac9d-d2dcf46e2678","system_id":"levelo_inurba_marseille","lat":43.309038,"lon":5.396546,"is_reserved":false,"is_disabled":false,"rental_uris":{"android":"levelo://app?vid=ecc7b572-0517-4788-ac9d-d2dcf46e2678","ios":"levelo://app?vid=ecc7b572-0517-4788-ac9d-d2dcf46e2678"},"vehicle_type_id":"4","last_reported":1725570472,"current_range_meters":13600,"station_id":"ce4bh012rcd13ifvqcv0","pricing_plan_id":"cebpf4jnsgd1na2vs0mg"},{"bike_id":"c970a582-44d9-4b60-86dc-25590a18dc5b","system_id":"levelo_inurba_marseille","lat":43.313291,"lon":5.396838,"is_reserved":false,"is_disabled":false,"rental_uris":{"android":"levelo://app?vid=c970a582-44d9-4b60-86dc-25590a18dc5b","ios":"levelo://app?vid=c970a582-44d9-4b60-86dc-25590a18dc5b"},"vehicle_type_id":"4","last_reported":1725570472,"current_range_meters":400,"station_id":"ce4bgvp2rcd13ifvqcu0","pricing_plan_id":"cebpf4jnsgd1na2vs0mg"},{"bike_id":"31d9cc09-b2a3-4262-8bde-fc2cfb6649ad","system_id":"levelo_inurba_marseille","lat":43.313291,"lon":5.396838,"is_reserved":false,"is_disabled":false,"rental_uris":{"android":"levelo://app?vid=31d9cc09-b2a3-4262-8bde-fc2cfb6649ad","ios":"levelo://app?vid=31d9cc09-b2a3-4262-8bde-fc2cfb6649ad"},"vehicle_type_id":"4","last_reported":1725570472,"current_range_meters":22000,"station_id":"ce4bgvp2rcd13ifvqcu0","pricing_plan_id":"cebpf4jnsgd1na2vs0mg"},{"bike_id":"0f86b4ae-c457-48bb-a90d-58a98fdee553","system_id":"levelo_inurba_marseille","lat":43.309047,"lon":5.396551,"is_reserved":false,"is_disabled":false,"rental_uris":{"android":"levelo://app?vid=0f86b4ae-c457-48bb-a90d-58a98fdee553","ios":"levelo://app?vid=0f86b4ae-c457-48bb-a90d-58a98fdee553"},"vehicle_type_id":"4","last_reported":1725570472,"current_range_meters":15200,"station_id":"ce4bh012rcd13ifvqcv0","pricing_plan_id":"cebpf4jnsgd1na2vs0mg"},{"bike_id":"1384399d-b68f-4c52-aa8e-d30255d6fdd8","system_id":"levelo_inurba_marseille","lat":43.31337,"lon":5.39699,"is_reserved":false,"is_disabled":false,"rental_uris":{"android":"levelo://app?vid=1384399d-b68f-4c52-aa8e-d30255d6fdd8","ios":"levelo://app?vid=1384399d-b68f-4c52-aa8e-d30255d6fdd8"},"vehicle_type_id":"4","last_reported":1725570472,"current_range_meters":5600,"station_id":"ce4bgvp2rcd13ifvqcu0","pricing_plan_id":"cebpf4jnsgd1na2vs0mg"},{"bike_id":"84164078-d8fc-4ac7-9810-600345f3a7d3","system_id":"levelo_inurba_marseille","lat":43.313291,"lon":5.396838,"is_reserved":false,"is_disabled":false,"rental_uris":{"android":"levelo://app?vid=84164078-d8fc-4ac7-9810-600345f3a7d3","ios":"levelo://app?vid=84164078-d8fc-4ac7-9810-600345f3a7d3"},"vehicle_type_id":"4","last_reported":1725570472,"current_range_meters":29600,"station_id":"ce4bgvp2rcd13ifvqcu0","pricing_plan_id":"cebpf4jnsgd1na2vs0mg"},{"bike_id":"a6b63bae-aa5c-4125-972a-de8fc9f6c1be","system_id":"levelo_inurba_marseille","lat":43.309047,"lon":5.396551,"is_reserved":false,"is_disabled":false,"rental_uris":{"android":"levelo://app?vid=a6b63bae-aa5c-4125-972a-de8fc9f6c1be","ios":"levelo://app?vid=a6b63bae-aa5c-4125-972a-de8fc9f6c1be"},"vehicle_type_id":"4","last_reported":1725570472,"current_range_meters":22800,"station_id":"ce4bh012rcd13ifvqcv0","pricing_plan_id":"cebpf4jnsgd1na2vs0mg"},{"bike_id":"7a02efe8-f9a8-4ad6-9732-9ad65ab180d8","system_id":"levelo_inurba_marseille","lat":43.29537,"lon":5.38534,"is_reserved":false,"is_disabled":false,"rental_uris":{"android":"levelo://app?vid=7a02efe8-f9a8-4ad6-9732-9ad65ab180d8","ios":"levelo://app?vid=7a02efe8-f9a8-4ad6-9732-9ad65ab180d8"},"vehicle_type_id":"4","last_reported":1725570472,"current_range_meters":31200,"station_id":"ce4bgih2rcd13ifvqba0","pricing_plan_id":"cebpf4jnsgd1na2vs0mg"},{"bike_id":"f7f891fb-8aa4-4b44-b4a6-e484073b2cd8","system_id":"levelo_inurba_marseille","lat":43.29533,"lon":5.38529,"is_reserved":false,"is_disabled":false,"rental_uris":{"android":"levelo://app?vid=f7f891fb-8aa4-4b44-b4a6-e484073b2cd8","ios":"levelo://app?vid=f7f891fb-8aa4-4b44-b4a6-e484073b2cd8"},"vehicle_type_id":"4","last_reported":1725570472,"current_range_meters":29600,"station_id":"ce4bgih2rcd13ifvqba0","pricing_plan_id":"cebpf4jnsgd1na2vs0mg"},{"bike_id":"03258cfe-950d-4c26-93a5-61791f2ebc14","system_id":"levelo_inurba_marseille","lat":43.313291,"lon":5.396838,"is_reserved":false,"is_disabled":false,"rental_uris":{"android":"levelo://app?vid=03258cfe-950d-4c26-93a5-61791f2ebc14","ios":"levelo://app?vid=03258cfe-950d-4c26-93a5-61791f2ebc14"},"vehicle_type_id":"4","last_reported":1725570472,"current_range_meters":13200,"station_id":"ce4bgvp2rcd13ifvqcu0","pricing_plan_id":"cebpf4jnsgd1na2vs0mg"},{"bike_id":"015c232a-99df-4918-af9b-348d83398c0b","system_id":"levelo_inurba_marseille","lat":43.29539,"lon":5.38543,"is_reserved":false,"is_disabled":false,"rental_uris":{"android":"levelo://app?vid=015c232a-99df-4918-af9b-348d83398c0b","ios":"levelo://app?vid=015c232a-99df-4918-af9b-348d83398c0b"},"vehicle_type_id":"4","last_reported":1725570472,"current_range_meters":31200,"station_id":"ce4bgih2rcd13ifvqba0","pricing_plan_id":"cebpf4jnsgd1na2vs0mg"},{"bike_id":"83241b93-3737-4ae7-af3f-5a21074013a5","system_id":"levelo_inurba_marseille","lat":43.29529,"lon":5.385581,"is_reserved":false,"is_disabled":false,"rental_uris":{"android":"levelo://app?vid=83241b93-3737-4ae7-af3f-5a21074013a5","ios":"levelo://app?vid=83241b93-3737-4ae7-af3f-5a21074013a5"},"vehicle_type_id":"4","last_reported":1725570472,"current_range_meters":7600,"station_id":"ce4bgih2rcd13ifvqba0","pricing_plan_id":"cebpf4jnsgd1na2vs0mg"},{"bike_id":"8e4aac88-7b51-42c1-b9f2-89a56c3dec74","system_id":"levelo_inurba_marseille","lat":43.29529,"lon":5.385581,"is_reserved":false,"is_disabled":false,"rental_uris":{"android":"levelo://app?vid=8e4aac88-7b51-42c1-b9f2-89a56c3dec74","ios":"levelo://app?vid=8e4aac88-7b51-42c1-b9f2-89a56c3dec74"},"vehicle_type_id":"4","last_reported":1725570472,"current_range_meters":28400,"station_id":"ce4bgih2rcd13ifvqba0","pricing_plan_id":"cebpf4jnsgd1na2vs0mg"},{"bike_id":"75f0f2bb-8212-485e-b65f-118690b8cb97","system_id":"levelo_inurba_marseille","lat":43.29529,"lon":5.385581,"is_reserved":false,"is_disabled":false,"rental_uris":{"android":"levelo://app?vid=75f0f2bb-8212-485e-b65f-118690b8cb97","ios":"levelo://app?vid=75f0f2bb-8212-485e-b65f-118690b8cb97"},"vehicle_type_id":"4","last_reported":1725570472,"current_range_meters":29600,"station_id":"ce4bgih2rcd13ifvqba0","pricing_plan_id":"cebpf4jnsgd1na2vs0mg"},{"bike_id":"e027d34a-1b8f-487d-b37e-49386d93008c","system_id":"levelo_inurba_marseille","lat":43.29529,"lon":5.385581,"is_reserved":false,"is_disabled":false,"rental_uris":{"android":"levelo://app?vid=e027d34a-1b8f-487d-b37e-49386d93008c","ios":"levelo://app?vid=e027d34a-1b8f-487d-b37e-49386d93008c"},"vehicle_type_id":"4","last_reported":1725570472,"current_range_meters":13200,"station_id":"ce4bgih2rcd13ifvqba0","pricing_plan_id":"cebpf4jnsgd1na2vs0mg"},{"bike_id":"8f9b7fc4-68f9-442f-acee-5f3b47746cec","system_id":"levelo_inurba_marseille","lat":43.290779,"lon":5.371482,"is_reserved":false,"is_disabled":false,"rental_uris":{"android":"levelo://app?vid=8f9b7fc4-68f9-442f-acee-5f3b47746cec","ios":"levelo://app?vid=8f9b7fc4-68f9-442f-acee-5f3b47746cec"},"vehicle_type_id":"4","last_reported":1725570472,"current_range_meters":17600,"station_id":"ce4bh5p2rcd13ifvqe4g","pricing_plan_id":"cebpf4jnsgd1na2vs0mg"},{"bike_id":"867d76c2-33ae-45fb-8f31-c60fe9ac79da","system_id":"levelo_inurba_marseille","lat":43.290666,"lon":5.371611,"is_reserved":false,"is_disabled":false,"rental_uris":{"android":"levelo://app?vid=867d76c2-33ae-45fb-8f31-c60fe9ac79da","ios":"levelo://app?vid=867d76c2-33ae-45fb-8f31-c60fe9ac79da"},"vehicle_type_id":"4","last_reported":1725570472,"current_range_meters":0,"station_id":"ce4bh5p2rcd13ifvqe4g","pricing_plan_id":"cebpf4jnsgd1na2vs0mg"},{"bike_id":"1786763a-268b-49b8-81d9-120c5ca34b29","system_id":"levelo_inurba_marseille","lat":43.290624,"lon":5.371606,"is_reserved":false,"is_disabled":false,"rental_uris":{"android":"levelo://app?vid=1786763a-268b-49b8-81d9-120c5ca34b29","ios":"levelo://app?vid=1786763a-268b-49b8-81d9-120c5ca34b29"},"vehicle_type_id":"4","last_reported":1725570472,"current_range_meters":0,"station_id":"ce4bh5p2rcd13ifvqe4g","pricing_plan_id":"cebpf4jnsgd1na2vs0mg"},{"bike_id":"69b48722-26fa-41d7-82bb-93f23ef0239b","system_id":"levelo_inurba_marseille","lat":43.302008,"lon":5.394694,"is_reserved":false,"is_disabled":false,"rental_uris":{"android":"levelo://app?vid=69b48722-26fa-41d7-82bb-93f23ef0239b","ios":"levelo://app?vid=69b48722-26fa-41d7-82bb-93f23ef0239b"},"vehicle_type_id":"4","last_reported":1725570472,"current_range_meters":26400,"station_id":"ce4bh0p2rcd13ifvqd70","pricing_plan_id":"cebpf4jnsgd1na2vs0mg"},{"bike_id":"b0c5d357-be0a-4f37-a39f-6f0e914ab43e","system_id":"levelo_inurba_marseille","lat":43.313291,"lon":5.396838,"is_reserved":false,"is_disabled":false,"rental_uris":{"android":"levelo://app?vid=b0c5d357-be0a-4f37-a39f-6f0e914ab43e","ios":"levelo://app?vid=b0c5d357-be0a-4f37-a39f-6f0e914ab43e"},"vehicle_type_id":"4","last_reported":1725570472,"current_range_meters":19200,"station_id":"ce4bgvp2rcd13ifvqcu0","pricing_plan_id":"cebpf4jnsgd1na2vs0mg"},{"bike_id":"a7e6c674-1dcc-408e-9b0b-a72802455913","system_id":"levelo_inurba_marseille","lat":43.302008,"lon":5.394694,"is_reserved":false,"is_disabled":false,"rental_uris":{"android":"levelo://app?vid=a7e6c674-1dcc-408e-9b0b-a72802455913","ios":"levelo://app?vid=a7e6c674-1dcc-408e-9b0b-a72802455913"},"vehicle_type_id":"4","last_reported":1725570472,"current_range_meters":10800,"station_id":"ce4bh0p2rcd13ifvqd70","pricing_plan_id":"cebpf4jnsgd1na2vs0mg"},{"bike_id":"75ab5b61-f09d-421a-8b87-8e97b5b48883","system_id":"levelo_inurba_marseille","lat":43.29424,"lon":5.3862,"is_reserved":false,"is_disabled":false,"rental_uris":{"android":"levelo://app?vid=75ab5b61-f09d-421a-8b87-8e97b5b48883","ios":"levelo://app?vid=75ab5b61-f09d-421a-8b87-8e97b5b48883"},"vehicle_type_id":"4","last_reported":1725570472,"current_range_meters":0,"station_id":"ce4bh2h2rcd13ifvqdh0","pricing_plan_id":"cebpf4jnsgd1na2vs0mg"},{"bike_id":"d00fa7d4-1c05-4d4a-b70b-4210ca93f554","system_id":"levelo_inurba_marseille","lat":43.289184,"lon":5.366408,"is_reserved":false,"is_disabled":false,"rental_uris":{"android":"levelo://app?vid=d00fa7d4-1c05-4d4a-b70b-4210ca93f554","ios":"levelo://app?vid=d00fa7d4-1c05-4d4a-b70b-4210ca93f554"},"vehicle_type_id":"4","last_reported":1725570472,"current_range_meters":13200,"station_id":"ce4bhap2rcd13ifvqek0","pricing_plan_id":"cebpf4jnsgd1na2vs0mg"},{"bike_id":"bf91d993-576c-4e14-8950-c13e4b485f41","system_id":"levelo_inurba_marseille","lat":43.289467,"lon":5.366377,"is_reserved":false,"is_disabled":false,"rental_uris":{"android":"levelo://app?vid=bf91d993-576c-4e14-8950-c13e4b485f41","ios":"levelo://app?vid=bf91d993-576c-4e14-8950-c13e4b485f41"},"vehicle_type_id":"4","last_reported":1725570472,"current_range_meters":31200,"station_id":"ce4bhap2rcd13ifvqek0","pricing_plan_id":"cebpf4jnsgd1na2vs0mg"},{"bike_id":"4a3f7667-a943-4542-9a7a-119f69705c25","system_id":"levelo_inurba_marseille","lat":43.29421,"lon":5.38629,"is_reserved":false,"is_disabled":false,"rental_uris":{"android":"levelo://app?vid=4a3f7667-a943-4542-9a7a-119f69705c25","ios":"levelo://app?vid=4a3f7667-a943-4542-9a7a-119f69705c25"},