{"last_updated":1692641223,"ttl":30,"version":"2.2","data":{"bikes":[{"bike_id":"f22ca441-4e4e-4660-b824-b2f46943e54d","system_id":"levelo_inurba_marseille","lat":43.312239,"lon":5.368562,"is_reserved":false,"is_disabled":false,"rental_uris":{"android":"levelo://app?vid=f22ca441-4e4e-4660-b824-b2f46943e54d","ios":"levelo://app?vid=f22ca441-4e4e-4660-b824-b2f46943e54d"},"vehicle_type_id":"4","last_reported":1692641225,"current_range_meters":31200,"station_id":"ce4bgl92rcd13ifvqbq0","pricing_plan_id":"free"},{"bike_id":"726cb52e-d85a-4a3a-badb-55e0b690300e","system_id":"levelo_inurba_marseille","lat":43.31495,"lon":5.37299,"is_reserved":false,"is_disabled":false,"rental_uris":{"android":"levelo://app?vid=726cb52e-d85a-4a3a-badb-55e0b690300e","ios":"levelo://app?vid=726cb52e-d85a-4a3a-badb-55e0b690300e"},"vehicle_type_id":"4","last_reported":1692641225,"current_range_meters":11200,"station_id":"ce4bgt12rcd13ifvqcd0","pricing_plan_id":"free"},{"bike_id":"9fbe6e18-d192-44c2-98b5-cafb68b41aa4","system_id":"levelo_inurba_marseille","lat":43.30527,"lon":5.36534,"is_reserved":false,"is_disabled":false,"rental_uris":{"android":"levelo://app?vid=9fbe6e18-d192-44c2-98b5-cafb68b41aa4","ios":"levelo://app?vid=9fbe6e18-d192-44c2-98b5-cafb68b41aa4"},"vehicle_type_id":"4","last_reported":1692641225,"current_range_meters":30800,"station_id":"ce4bgs12rcd13ifvqcag","pricing_plan_id":"free"},{"bike_id":"3440c1df-0a89-4693-9840-12676b95c510","system_id":"levelo_inurba_marseille","lat":43.31119,"lon":5.37761,"is_reserved":false,"is_disabled":false,"rental_uris":{"android":"levelo://app?vid=3440c1df-0a89-4693-9840-12676b95c510","ios":"levelo://app?vid=3440c1df-0a89-4693-9840-12676b95c510"},"vehicle_type_id":"4","last_reported":1692641225,"current_range_meters":2000,"station_id":"ce4bgt92rcd13ifvqcg0","pricing_plan_id":"free"},{"bike_id":"16b78517-b021-4a0f-804d-ba352469ac32","system_id":"levelo_inurba_marseille","lat":43.317075,"lon":5.377367,"is_reserved":false,"is_disabled":false,"rental_uris":{"android":"levelo://app?vid=16b78517-b021-4a0f-804d-ba352469ac32","ios":"levelo://app?vid=16b78517-b021-4a0f-804d-ba352469ac32"},"vehicle_type_id":"4","last_reported":1692641225,"current_range_meters":29600,"station_id":"ce4bgth2rcd13ifvqch0","pricing_plan_id":"free"},{"bike_id":"3f76f2fa-48fc-43dc-9b64-1b006c5e7d4e","system_id":"levelo_inurba_marseille","lat":43.317075,"lon":5.377367,"is_reserved":false,"is_disabled":false,"rental_uris":{"android":"levelo://app?vid=3f76f2fa-48fc-43dc-9b64-1b006c5e7d4e","ios":"levelo://app?vid=3f76f2fa-48fc-43dc-9b64-1b006c5e7d4e"},"vehicle_type_id":"4","last_reported":1692641225,"current_range_meters":28800,"station_id":"ce4bgth2rcd13ifvqch0","pricing_plan_id":"free"},{"bike_id":"f6b2dd9a-e67a-4d5e-b0c7-17b81e7cb431","system_id":"levelo_inurba_marseille","lat":43.31693,"lon":5.37753,"is_reserved":false,"is_disabled":false,"rental_uris":{"android":"levelo://app?vid=f6b2dd9a-e67a-4d5e-b0c7-17b81e7cb431","ios":"levelo://app?vid=f6b2dd9a-e67a-4d5e-b0c7-17b81e7cb431"},"vehicle_type_id":"4","last_reported":1692641225,"current_range_meters":0,"station_id":"ce4bgth2rcd13ifvqch0","pricing_plan_id":"free"},{"bike_id":"844128d3-0caf-47bf-9732-d6e0b818b9f6","system_id":"levelo_inurba_marseille","lat":43.30311,"lon":5.369,"is_reserved":false,"is_disabled":false,"rental_uris":{"android":"levelo://app?vid=844128d3-0caf-47bf-9732-d6e0b818b9f6","ios":"levelo://app?vid=844128d3-0caf-47bf-9732-d6e0b818b9f6"},"vehicle_type_id":"4","last_reported":1692641225,"current_range_meters":25200,"station_id":"ce4bgqh2rcd13ifvqc5g","pricing_plan_id":"free"},{"bike_id":"e7452ebf-16dc-4f46-b5f4-b6aac02a4016","system_id":"levelo_inurba_marseille","lat":43.315293,"lon":5.380349,"is_reserved":false,"is_disabled":false,"rental_uris":{"android":"levelo://app?vid=e7452ebf-16dc-4f46-b5f4-b6aac02a4016","ios":"levelo://app?vid=e7452ebf-16dc-4f46-b5f4-b6aac02a4016"},"vehicle_type_id":"4","last_reported":1692641225,"current_range_meters":11600,"station_id":"ce4bhsp2rcd13ifvqi50","pricing_plan_id":"free"},{"bike_id":"c0baba88-a966-4576-81eb-ee9924bcba65","system_id":"levelo_inurba_marseille","lat":43.315293,"lon":5.380349,"is_reserved":false,"is_disabled":false,"rental_uris":{"android":"levelo://app?vid=c0baba88-a966-4576-81eb-ee9924bcba65","ios":"levelo://app?vid=c0baba88-a966-4576-81eb-ee9924bcba65"},"vehicle_type_id":"4","last_reported":1692641225,"current_range_meters":18800,"station_id":"ce4bhsp2rcd13ifvqi50","pricing_plan_id":"free"},{"bike_id":"5b9af73c-1561-4b31-a727-178a92108f91","system_id":"levelo_inurba_marseille","lat":43.31536,"lon":5.38022,"is_reserved":false,"is_disabled":false,"rental_uris":{"android":"levelo://app?vid=5b9af73c-1561-4b31-a727-178a92108f91","ios":"levelo://app?vid=5b9af73c-1561-4b31-a727-178a92108f91"},"vehicle_type_id":"4","last_reported":1692641225,"current_range_meters":4400,"station_id":"ce4bhsp2rcd13ifvqi50","pricing_plan_id":"free"},{"bike_id":"98baefb0-d5a1-49a6-836f-3598468fa56d","system_id":"levelo_inurba_marseille","lat":43.31535,"lon":5.38023,"is_reserved":false,"is_disabled":false,"rental_uris":{"android":"levelo://app?vid=98baefb0-d5a1-49a6-836f-3598468fa56d","ios":"levelo://app?vid=98baefb0-d5a1-49a6-836f-3598468fa56d"},"vehicle_type_id":"4","last_reported":1692641225,"current_range_meters":12400,"station_id":"ce4bhsp2rcd13ifvqi50","pricing_plan_id":"free"},{"bike_id":"d6ab70b7-eb29-4db2-94fb-21f45c499712","system_id":"levelo_inurba_marseille","lat":43.31538,"lon":5.38031,"is_reserved":false,"is_disabled":false,"rental_uris":{"android":"levelo://app?vid=d6ab70b7-eb29-4db2-94fb-21f45c499712","ios":"levelo://app?vid=d6ab70b7-eb29-4db2-94fb-21f45c499712"},"vehicle_type_id":"4","last_reported":1692641225,"current_range_meters":16000,"station_id":"ce4bhsp2rcd13ifvqi50","pricing_plan_id":"free"},{"bike_id":"688b7fa7-6745-4705-9c77-7864ee8932b9","system_id":"levelo_inurba_marseille","lat":43.304606,"lon":5.379026,"is_reserved":false,"is_disabled":false,"rental_uris":{"android":"levelo://app?vid=688b7fa7-6745-4705-9c77-7864ee8932b9","ios":"levelo://app?vid=688b7fa7-6745-4705-9c77-7864ee8932b9"},"vehicle_type_id":"4","last_reported":1692641225,"current_range_meters":28400,"station_id":"ce4bgup2rcd13ifvqcn0","pricing_plan_id":"free"},{"bike_id":"0de603ac-5602-4dcb-90d5-9ce5584b8707","system_id":"levelo_inurba_marseille","lat":43.30461,"lon":5.37902,"is_reserved":false,"is_disabled":false,"rental_uris":{"android":"levelo://app?vid=0de603ac-5602-4dcb-90d5-9ce5584b8707","ios":"levelo://app?vid=0de603ac-5602-4dcb-90d5-9ce5584b8707"},"vehicle_type_id":"4","last_reported":1692641225,"current_range_meters":4400,"station_id":"ce4bgup2rcd13ifvqcn0","pricing_plan_id":"free"},{"bike_id":"b50e4ae8-badb-414c-8637-af7daf2069e4","system_id":"levelo_inurba_marseille","lat":43.304606,"lon":5.379026,"is_reserved":false,"is_disabled":false,"rental_uris":{"android":"levelo://app?vid=b50e4ae8-badb-414c-8637-af7daf2069e4","ios":"levelo://app?vid=b50e4ae8-badb-414c-8637-af7daf2069e4"},"vehicle_type_id":"4","last_reported":1692641225,"current_range_meters":28400,"station_id":"ce4bgup2rcd13ifvqcn0","pricing_plan_id":"free"},{"bike_id":"36b04cae-9e0a-4c63-aa8e-055f44dd225f","system_id":"levelo_inurba_marseille","lat":43.304606,"lon":5.379026,"is_reserved":false,"is_disabled":false,"rental_uris":{"android":"levelo://app?vid=36b04cae-9e0a-4c63-aa8e-055f44dd225f","ios":"levelo://app?vid=36b04cae-9e0a-4c63-aa8e-055f44dd225f"},"vehicle_type_id":"4","last_reported":1692641225,"current_range_meters":26800,"station_id":"ce4bgup2rcd13ifvqcn0","pricing_plan_id":"free"},{"bike_id":"da8672c8-68fe-4bf1-b2a9-f76b3a5e5f47","system_id":"levelo_inurba_marseille","lat":43.304606,"lon":5.379026,"is_reserved":false,"is_disabled":false,"rental_uris":{"android":"levelo://app?vid=da8672c8-68fe-4bf1-b2a9-f76b3a5e5f47","ios":"levelo://app?vid=da8672c8-68fe-4bf1-b2a9-f76b3a5e5f47"},"vehicle_type_id":"4","last_reported":1692641225,"current_range_meters":27600,"station_id":"ce4bgup2rcd13ifvqcn0","pricing_plan_id":"free"},{"bike_id":"2b696ce1-e1a9-4bb8-87fc-c99c339d7482","system_id":"levelo_inurba_marseille","lat":43.304606,"lon":5.379026,"is_reserved":false,"is_disabled":false,"rental_uris":{"android":"levelo://app?vid=2b696ce1-e1a9-4bb8-87fc-c99c339d7482","ios":"levelo://app?vid=2b696ce1-e1a9-4bb8-87fc-c99c339d7482"},"vehicle_type_id":"4","last_reported":1692641225,"current_range_meters":31600,"station_id":"ce4bgup2rcd13ifvqcn0","pricing_plan_id":"free"},{"bike_id":"d60e916c-fec9-4f28-a5e5-848478367e7c","system_id":"levelo_inurba_marseille","lat":43.304606,"lon":5.379026,"is_reserved":false,"is_disabled":false,"rental_uris":{"android":"levelo://app?vid=d60e916c-fec9-4f28-a5e5-848478367e7c","ios":"levelo://app?vid=d60e916c-fec9-4f28-a5e5-848478367e7c"},"vehicle_type_id":"4","last_reported":1692641225,"current_range_meters":30400,"station_id":"ce4bgup2rcd13ifvqcn0","pricing_plan_id":"free"},{"bike_id":"54f2da78-5ff0-453c-a536-a9a2bd693543","system_id":"levelo_inurba_marseille","lat":43.304606,"lon":5.379026,"is_reserved":false,"is_disabled":false,"rental_uris":{"android":"levelo://app?vid=54f2da78-5ff0-453c-a536-a9a2bd693543","ios":"levelo://app?vid=54f2da78-5ff0-453c-a536-a9a2bd693543"},"vehicle_type_id":"4","last_reported":1692641225,"current_range_meters":22800,"station_id":"ce4bgup2rcd13ifvqcn0","pricing_plan_id":"free"},{"bike_id":"1234e70a-ad37-48a5-9818-828a95a3d889","system_id":"levelo_inurba_marseille","lat":43.304606,"lon":5.379026,"is_reserved":false,"is_disabled":false,"rental_uris":{"android":"levelo://app?vid=1234e70a-ad37-48a5-9818-828a95a3d889","ios":"levelo://app?vid=1234e70a-ad37-48a5-9818-828a95a3d889"},"vehicle_type_id":"4","last_reported":1692641225,"current_range_meters":31200,"station_id":"ce4bgup2rcd13ifvqcn0","pricing_plan_id":"free"},{"bike_id":"e58fbfaa-e419-4c57-921a-e9b5a99cbb6f","system_id":"levelo_inurba_marseille","lat":43.304606,"lon":5.379026,"is_reserved":false,"is_disabled":false,"rental_uris":{"android":"levelo://app?vid=e58fbfaa-e419-4c57-921a-e9b5a99cbb6f","ios":"levelo://app?vid=e58fbfaa-e419-4c57-921a-e9b5a99cbb6f"},"vehicle_type_id":"4","last_reported":1692641225,"current_range_meters":31200,"station_id":"ce4bgup2rcd13ifvqcn0","pricing_plan_id":"free"},{"bike_id":"2a7cb80e-97e0-4be2-9276-2353ef23c099","system_id":"levelo_inurba_marseille","lat":43.30458,"lon":5.37907,"is_reserved":false,"is_disabled":false,"rental_uris":{"android":"levelo://app?vid=2a7cb80e-97e0-4be2-9276-2353ef23c099","ios":"levelo://app?vid=2a7cb80e-97e0-4be2-9276-2353ef23c099"},"vehicle_type_id":"4","last_reported":1692641225,"current_range_meters":0,"station_id":"ce4bgup2rcd13ifvqcn0","pricing_plan_id":"free"},{"bike_id":"11e898ab-f5b8-4efa-a308-c6c098284afe","system_id":"levelo_inurba_marseille","lat":43.304606,"lon":5.379026,"is_reserved":false,"is_disabled":false,"rental_uris":{"android":"levelo://app?vid=11e898ab-f5b8-4efa-a308-c6c098284afe","ios":"levelo://app?vid=11e898ab-f5b8-4efa-a308-c6c098284afe"},"vehicle_type_id":"4","last_reported":1692641225,"current_range_meters":10800,"station_id":"ce4bgup2rcd13ifvqcn0","pricing_plan_id":"free"},{"bike_id":"9864379d-9d83-4f08-a116-a87fffaa4b60","system_id":"levelo_inurba_marseille","lat":43.304606,"lon":5.379026,"is_reserved":false,"is_disabled":false,"rental_uris":{"android":"levelo://app?vid=9864379d-9d83-4f08-a116-a87fffaa4b60","ios":"levelo://app?vid=9864379d-9d83-4f08-a116-a87fffaa4b60"},"vehicle_type_id":"4","last_reported":1692641225,"current_range_meters":31200,"station_id":"ce4bgup2rcd13ifvqcn0","pricing_plan_id":"free"},{"bike_id":"b4ceaa4e-ed03-43da-b00d-24d6c651f795","system_id":"levelo_inurba_marseille","lat":43.31996,"lon":5.38147,"is_reserved":false,"is_disabled":false,"rental_uris":{"android":"levelo://app?vid=b4ceaa4e-ed03-43da-b00d-24d6c651f795","ios":"levelo://app?vid=b4ceaa4e-ed03-43da-b00d-24d6c651f795"},"vehicle_type_id":"4","last_reported":1692641225,"current_range_meters":11200,"station_id":"ce4bhr12rcd13ifvqhpg","pricing_plan_id":"free"},{"bike_id":"fb93825a-e42b-4791-8a12-52aa5de3f1ca","system_id":"levelo_inurba_marseille","lat":43.31999,"lon":5.38166,"is_reserved":false,"is_disabled":false,"rental_uris":{"android":"levelo://app?vid=fb93825a-e42b-4791-8a12-52aa5de3f1ca","ios":"levelo://app?vid=fb93825a-e42b-4791-8a12-52aa5de3f1ca"},"vehicle_type_id":"4","last_reported":1692641225,"current_range_meters":18800,"station_id":"ce4bhr12rcd13ifvqhpg","pricing_plan_id":"free"},{"bike_id":"cfddab40-f435-45fc-97a0-f45e0e77e809","system_id":"levelo_inurba_marseille","lat":43.295748,"lon":5.37522,"is_reserved":false,"is_disabled":false,"rental_uris":{"android":"levelo://app?vid=cfddab40-f435-45fc-97a0-f45e0e77e809","ios":"levelo://app?vid=cfddab40-f435-45fc-97a0-f45e0e77e809"},"vehicle_type_id":"4","last_reported":1692641225,"current_range_meters":11600,"station_id":"ce4bgh92rcd13ifvqb50","pricing_plan_id":"free"},{"bike_id":"95dc9ecf-047e-4c3a-bb12-a5676cb36ad4","system_id":"levelo_inurba_marseille","lat":43.3216,"lon":5.38166,"is_reserved":false,"is_disabled":false,"rental_uris":{"android":"levelo://app?vid=95dc9ecf-047e-4c3a-bb12-a5676cb36ad4","ios":"levelo://app?vid=95dc9ecf-047e-4c3a-bb12-a5676cb36ad4"},"vehicle_type_id":"4","last_reported":1692641225,"current_range_meters":10400,"station_id":"","pricing_plan_id":"free"},{"bike_id":"925766f9-e771-4463-a238-0b23aea0b62c","system_id":"levelo_inurba_marseille","lat":43.298433,"lon":5.362774,"is_reserved":false,"is_disabled":false,"rental_uris":{"android":"levelo://app?vid=925766f9-e771-4463-a238-0b23aea0b62c","ios":"levelo://app?vid=925766f9-e771-4463-a238-0b23aea0b62c"},"vehicle_type_id":"4","last_reported":1692641225,"current_range_meters":26800,"station_id":"ce4bgpp2rcd13ifvqc3g","pricing_plan_id":"free"},{"bike_id":"2d0e5064-8447-4d14-accc-5a3dc2583c75","system_id":"levelo_inurba_marseille","lat":43.298433,"lon":5.362774,"is_reserved":false,"is_disabled":false,"rental_uris":{"android":"levelo://app?vid=2d0e5064-8447-4d14-accc-5a3dc2583c75","ios":"levelo://app?vid=2d0e5064-8447-4d14-accc-5a3dc2583c75"},"vehicle_type_id":"4","last_reported":1692641225,"current_range_meters":31200,"station_id":"ce4bgpp2rcd13ifvqc3g","pricing_plan_id":"free"},{"bike_id":"6516740a-d9c8-43ee-867b-8392bc7467d7","system_id":"levelo_inurba_marseille","lat":43.29845,"lon":5.36264,"is_reserved":false,"is_disabled":false,"rental_uris":{"android":"levelo://app?vid=6516740a-d9c8-43ee-867b-8392bc7467d7","ios":"levelo://app?vid=6516740a-d9c8-43ee-867b-8392bc7467d7"},"vehicle_type_id":"4","last_reported":1692641225,"current_range_meters":29200,"station_id":"ce4bgpp2rcd13ifvqc3g","pricing_plan_id":"free"},{"bike_id":"7842e9d6-a70c-4721-a62b-b4eae2f56788","system_id":"levelo_inurba_marseille","lat":43.298433,"lon":5.362774,"is_reserved":false,"is_disabled":false,"rental_uris":{"android":"levelo://app?vid=7842e9d6-a70c-4721-a62b-b4eae2f56788","ios":"levelo://app?vid=7842e9d6-a70c-4721-a62b-b4eae2f56788"},"vehicle_type_id":"4","last_reported":1692641225,"current_range_meters":26800,"station_id":"ce4bgpp2rcd13ifvqc3g","pricing_plan_id":"free"},{"bike_id":"898e9f89-85b8-46c1-839d-d6b72e4bd7c5","system_id":"levelo_inurba_marseille","lat":43.298433,"lon":5.362774,"is_reserved":false,"is_disabled":false,"rental_uris":{"android":"levelo://app?vid=898e9f89-85b8-46c1-839d-d6b72e4bd7c5","ios":"levelo://app?vid=898e9f89-85b8-46c1-839d-d6b72e4bd7c5"},"vehicle_type_id":"4","last_reported":1692641225,"current_range_meters":28000,"station_id":"ce4bgpp2rcd13ifvqc3g","pricing_plan_id":"free"},{"bike_id":"a934566c-bacc-4df4-bd34-7b22fd1a39f3","system_id":"levelo_inurba_marseille","lat":43.298433,"lon":5.362774,"is_reserved":false,"is_disabled":false,"rental_uris":{"android":"levelo://app?vid=a934566c-bacc-4df4-bd34-7b22fd1a39f3","ios":"levelo://app?vid=a934566c-bacc-4df4-bd34-7b22fd1a39f3"},"vehicle_type_id":"4","last_reported":1692641225,"current_range_meters":30000,"station_id":"ce4bgpp2rcd13ifvqc3g","pricing_plan_id":"free"},{"bike_id":"03d5ed5c-9d5f-4e12-9374-60580c06ed16","system_id":"levelo_inurba_marseille","lat":43.298433,"lon":5.362774,"is_reserved":false,"is_disabled":false,"rental_uris":{"android":"levelo://app?vid=03d5ed5c-9d5f-4e12-9374-60580c06ed16","ios":"levelo://app?vid=03d5ed5c-9d5f-4e12-9374-60580c06ed16"},"vehicle_type_id":"4","last_reported":1692641225,"current_range_meters":31200,"station_id":"ce4bgpp2rcd13ifvqc3g","pricing_plan_id":"free"},{"bike_id":"2bbc2321-4312-4944-aa23-6c29e4d443e5","system_id":"levelo_inurba_marseille","lat":43.298433,"lon":5.362774,"is_reserved":false,"is_disabled":false,"rental_uris":{"android":"levelo://app?vid=2bbc2321-4312-4944-aa23-6c29e4d443e5","ios":"levelo://app?vid=2bbc2321-4312-4944-aa23-6c29e4d443e5"},"vehicle_type_id":"4","last_reported":1692641225,"current_range_meters":26400,"station_id":"ce4bgpp2rcd13ifvqc3g","pricing_plan_id":"free"},{"bike_id":"b885f463-e8c5-42cc-902f-7152167ce1c7","system_id":"levelo_inurba_marseille","lat":43.299243,"lon":5.37481,"is_reserved":false,"is_disabled":false,"rental_uris":{"android":"levelo://app?vid=b885f463-e8c5-42cc-902f-7152167ce1c7","ios":"levelo://app?vid=b885f463-e8c5-42cc-902f-7152167ce1c7"},"vehicle_type_id":"4","last_reported":1692641225,"current_range_meters":30800,"station_id":"ce4bgjh2rcd13ifvqbg0","pricing_plan_id":"free"},{"bike_id":"48773837-8a01-4137-95bb-600dc54ff51e","system_id":"levelo_inurba_marseille","lat":43.32305,"lon":5.38257,"is_reserved":false,"is_disabled":false,"rental_uris":{"android":"levelo://app?vid=48773837-8a01-4137-95bb-600dc54ff51e","ios":"levelo://app?vid=48773837-8a01-4137-95bb-600dc54ff51e"},"vehicle_type_id":"4","last_reported":1692641225,"current_range_meters":31200,"station_id":"ce4bhr12rcd13ifvqhqg","pricing_plan_id":"free"},{"bike_id":"c7e961d5-230f-4d8f-bad1-026546c8c1ba","system_id":"levelo_inurba_marseille","lat":43.32822,"lon":5.36675,"is_reserved":false,"is_disabled":false,"rental_uris":{"android":"levelo://app?vid=c7e961d5-230f-4d8f-bad1-026546c8c1ba","ios":"levelo://app?vid=c7e961d5-230f-4d8f-bad1-026546c8c1ba"},"vehicle_type_id":"4","last_reported":1692641225,"current_range_meters":17200,"station_id":"ce4bhs92rcd13ifvqi0g","pricing_plan_id":"free"},{"bike_id":"97897afe-9902-4c43-9f19-d17acb314f86","system_id":"levelo_inurba_marseille","lat":43.32824,"lon":5.36673,"is_reserved":false,"is_disabled":false,"rental_uris":{"android":"levelo://app?vid=97897afe-9902-4c43-9f19-d17acb314f86","ios":"levelo://app?vid=97897afe-9902-4c43-9f19-d17acb314f86"},"vehicle_type_id":"4","last_reported":1692641225,"current_range_meters":21600,"station_id":"ce4bhs92rcd13ifvqi0g","pricing_plan_id":"free"},{"bike_id":"5b8e48f9-77d7-46c4-8853-5410f28c6930","system_id":"levelo_inurba_marseille","lat":43.32825,"lon":5.36679,"is_reserved":false,"is_disabled":false,"rental_uris":{"android":"levelo://app?vid=5b8e48f9-77d7-46c4-8853-5410f28c6930","ios":"levelo://app?vid=5b8e48f9-77d7-46c4-8853-5410f28c6930"},"vehicle_type_id":"4","last_reported":1692641225,"current_range_meters":29600,"station_id":"ce4bhs92rcd13ifvqi0g","pricing_plan_id":"free"},{"bike_id":"fd6db2c3-48eb-4aff-9c39-32c2e49d01ed","system_id":"levelo_inurba_marseille","lat":43.32825,"lon":5.36665,"is_reserved":false,"is_disabled":false,"rental_uris":{"android":"levelo://app?vid=fd6db2c3-48eb-4aff-9c39-32c2e49d01ed","ios":"levelo://app?vid=fd6db2c3-48eb-4aff-9c39-32c2e49d01ed"},"vehicle_type_id":"4","last_reported":1692641225,"current_range_meters":22400,"station_id":"ce4bhs92rcd13ifvqi0g","pricing_plan_id":"free"},{"bike_id":"eb70974a-c524-46d9-b5be-026bf2b9f1f4","system_id":"levelo_inurba_marseille","lat":43.32827,"lon":5.36676,"is_reserved":false,"is_disabled":false,"rental_uris":{"android":"levelo://app?vid=eb70974a-c524-46d9-b5be-026bf2b9f1f4","ios":"levelo://app?vid=eb70974a-c524-46d9-b5be-026bf2b9f1f4"},"vehicle_type_id":"4","last_reported":1692641225,"current_range_meters":24400,"station_id":"ce4bhs92rcd13ifvqi0g","pricing_plan_id":"free"},{"bike_id":"853e5f2a-04f9-4353-a7e9-c7a96efd0b48","system_id":"levelo_inurba_marseille","lat":43.32829,"lon":5.36664,"is_reserved":false,"is_disabled":false,"rental_uris":{"android":"levelo://app?vid=853e5f2a-04f9-4353-a7e9-c7a96efd0b48","ios":"levelo://app?vid=853e5f2a-04f9-4353-a7e9-c7a96efd0b48"},"vehicle_type_id":"4","last_reported":1692641225,"current_range_meters":20800,"station_id":"ce4bhs92rcd13ifvqi0g","pricing_plan_id":"free"},{"bike_id":"4c6c1221-0539-4c92-b6c8-75c96bd6858f","system_id":"levelo_inurba_marseille","lat":43.3283,"lon":5.36676,"is_reserved":false,"is_disabled":false,"rental_uris":{"android":"levelo://app?vid=4c6c1221-0539-4c92-b6c8-75c96bd6858f","ios":"levelo://app?vid=4c6c1221-0539-4c92-b6c8-75c96bd6858f"},"vehicle_type_id":"4","last_reported":1692641225,"current_range_meters":18800,"station_id":"ce4bhs92rcd13ifvqi0g","pricing_plan_id":"free"},{"bike_id":"4cbec067-4527-483a-818d-69c4afd2ea31","system_id":"levelo_inurba_marseille","lat":43.32833,"lon":5.36679,"is_reserved":false,"is_disabled":false,"rental_uris":{"android":"levelo://app?vid=4cbec067-4527-483a-818d-69c4afd2ea31","ios":"levelo://app?vid=4cbec067-4527-483a-818d-69c4afd2ea31"},"vehicle_type_id":"4","last_reported":1692641225,"current_range_meters":12800,"station_id":"ce4bhs92rcd13ifvqi0g","pricing_plan_id":"free"},{"bike_id":"acbd9ce9-3f5e-4d79-92f1-0e9dcf940928","system_id":"levelo_inurba_marseille","lat":43.32833,"lon":5.36676,"is_reserved":false,"is_disabled":false,"rental_uris":{"android":"levelo://app?vid=acbd9ce9-3f5e-4d79-92f1-0e9dcf940928","ios":"levelo://app?vid=acbd9ce9-3f5e-4d79-92f1-0e9dcf940928"},"vehicle_type_id":"4","last_reported":1692641225,"current_range_meters":25200,"station_id":"ce4bhs92rcd13ifvqi0g","pricing_plan_id":"free"},{"bike_id":"5bbef7a0-1325-4f1f-9b42-d044170d6e83","system_id":"levelo_inurba_marseille","lat":43.32834,"lon":5.36676,"is_reserved":false,"is_disabled":false,"rental_uris":{"android":"levelo://app?vid=5bbef7a0-1325-4f1f-9b42-d044170d6e83","ios":"levelo://app?vid=5bbef7a0-1325-4f1f-9b42-d044170d6e83"},"vehicle_type_id":"4","last_reported":1692641225,"current_range_meters":19600,"station_id":"ce4bhs92rcd13ifvqi0g","pricing_plan_id":"free"},{"bike_id":"dd789220-e7b5-42c1-b9dc-dc4243148021","system_id":"levelo_inurba_marseille","lat":43.297163,"lon":5.365866,"is_reserved":false,"is_disabled":false,"rental_uris":{"android":"levelo://app?vid=dd789220-e7b5-42c1-b9dc-dc4243148021","ios":"levelo://app?vid=dd789220-e7b5-42c1-b9dc-dc4243148021"},"vehicle_type_id":"4","last_reported":1692641225,"current_range_meters":31200,"station_id":"ce4bgn12rcd13ifvqbt0","pricing_plan_id":"free"},{"bike_id":"95a28a30-f5dd-4775-933c-4d92e81a0a06","system_id":"levelo_inurba_marseille","lat":43.29631,"lon":5.37152,"is_reserved":false,"is_disabled":false,"rental_uris":{"android":"levelo://app?vid=95a28a30-f5dd-4775-933c-4d92e81a0a06","ios":"levelo://app?vid=95a28a30-f5dd-4775-933c-4d92e81a0a06"},"vehicle_type_id":"4","last_reported":1692641225,"current_range_meters":0,"station_id":"ce4bgk12rcd13ifvqbj0","pricing_plan_id":"free"},{"bike_id":"bb155e93-116e-494a-9911-2df351c7dae8","system_id":"levelo_inurba_marseille","lat":43.296129,"lon":5.370777,"is_reserved":false,"is_disabled":false,"rental_uris":{"android":"levelo://app?vid=bb155e93-116e-494a-9911-2df351c7dae8","ios":"levelo://app?vid=bb155e93-116e-494a-9911-2df351c7dae8"},"vehicle_type_id":"4","last_reported":1692641225,"current_range_meters":28400,"station_id":"ce4bgnh2rcd13ifvqc0g","pricing_plan_id":"free"},{"bike_id":"d3139180-8ba9-4c91-b6e4-8baae3c22113","system_id":"levelo_inurba_marseille","lat":43.296131,"lon":5.370773,"is_reserved":false,"is_disabled":false,"rental_uris":{"android":"levelo://app?vid=d3139180-8ba9-4c91-b6e4-8baae3c22113","ios":"levelo://app?vid=d3139180-8ba9-4c91-b6e4-8baae3c22113"},"vehicle_type_id":"4","last_reported":1692641225,"current_range_meters":31200,"station_id":"ce4bgnh2rcd13ifvqc0g","pricing_plan_id":"free"},{"bike_id":"89a41b7c-17a9-4211-bc61-53e656095c05","system_id":"levelo_inurba_marseille","lat":43.29573,"lon":5.367355,"is_reserved":false,"is_disabled":false,"rental_uris":{"android":"levelo://app?vid=89a41b7c-17a9-4211-bc61-53e656095c05","ios":"levelo://app?vid=89a41b7c-17a9-4211-bc61-53e656095c05"},"vehicle_type_id":"4","last_reported":1692641225,"current_range_meters":28000,"station_id":"ce4bgph2rcd13ifvqc2g","pricing_plan_id":"free"},{"bike_id":"e06d2fd4-e0f5-450d-ac4c-8c2930290f19","system_id":"levelo_inurba_marseille","lat":43.296935,"lon":5.376544,"is_reserved":false,"is_disabled":false,"rental_uris":{"android":"levelo://app?vid=e06d2fd4-e0f5-450d-ac4c-8c2930290f19","ios":"levelo://app?vid=e06d2fd4-e0f5-450d-ac4c-8c2930290f19"},"vehicle_type_id":"4","last_reported":1692641225,"current_range_meters":28000,"station_id":"ce4bgkh2rcd13ifvqbl0","pricing_plan_id":"free"},{"bike_id":"e7fe25bc-0fb5-47b3-9053-86f6b558e116","system_id":"levelo_inurba_marseille","lat":43.309589,"lon":5.390258,"is_reserved":false,"is_disabled":false,"rental_uris":{"android":"levelo://app?vid=e7fe25bc-0fb5-47b3-9053-86f6b558e116","ios":"levelo://app?vid=e7fe25bc-0fb5-47b3-9053-86f6b558e116"},"vehicle_type_id":"4","last_reported":1692641225,"current_range_meters":22400,"station_id":"ce4bgup2rcd13ifvqco0","pricing_plan_id":"free"},{"bike_id":"ce661772-f51d-4d6f-b284-c35372dc8378","system_id":"levelo_inurba_marseille","lat":43.29711,"lon":5.37685,"is_reserved":false,"is_disabled":false,"rental_uris":{"android":"levelo://app?vid=ce661772-f51d-4d6f-b284-c35372dc8378","ios":"levelo://app?vid=ce661772-f51d-4d6f-b284-c35372dc8378"},"vehicle_type_id":"4","last_reported":1692641225,"current_range_meters":0,"station_id":"ce4bgkh2rcd13ifvqbl0","pricing_plan_id":"free"},{"bike_id":"951461a6-6839-46f5-a626-8409998d172f","system_id":"levelo_inurba_marseille","lat":43.296935,"lon":5.376544,"is_reserved":false,"is_disabled":false,"rental_uris":{"android":"levelo://app?vid=951461a6-6839-46f5-a626-8409998d172f","ios":"levelo://app?vid=951461a6-6839-46f5-a626-8409998d172f"},"vehicle_type_id":"4","last_reported":1692641225,"current_range_meters":5600,"station_id":"ce4bgkh2rcd13ifvqbl0","pricing_plan_id":"free"},{"bike_id":"63d548f2-aec2-42d6-857b-d38a4542dbc3","system_id":"levelo_inurba_marseille","lat":43.299028,"lon":5.381509,"is_reserved":false,"is_disabled":false,"rental_uris":{"android":"levelo://app?vid=63d548f2-aec2-42d6-857b-d38a4542dbc3","ios":"levelo://app?vid=63d548f2-aec2-42d6-857b-d38a4542dbc3"},"vehicle_type_id":"4","last_reported":1692641225,"current_range_meters":15200,"station_id":"ce4bgj12rcd13ifvqbc0","pricing_plan_id":"free"},{"bike_id":"25509905-8db7-4b0d-b8b9-f070ca4f0649","system_id":"levelo_inurba_marseille","lat":43.309482,"lon":5.390327,"is_reserved":false,"is_disabled":false,"rental_uris":{"android":"levelo://app?vid=25509905-8db7-4b0d-b8b9-f070ca4f0649","ios":"levelo://app?vid=25509905-8db7-4b0d-b8b9-f070ca4f0649"},"vehicle_type_id":"4","last_reported":1692641225,"current_range_meters":12000,"station_id":"ce4bgup2rcd13ifvqco0","pricing_plan_id":"free"},{"bike_id":"2c93ce6f-c5e1-4ec9-9941-ebb7469bb8f2","system_id":"levelo_inurba_marseille","lat":43.31763,"lon":5.39011,"is_reserved":false,"is_disabled":false,"rental_uris":{"android":"levelo://app?vid=2c93ce6f-c5e1-4ec9-9941-ebb7469bb8f2","ios":"levelo://app?vid=2c93ce6f-c5e1-4ec9-9941-ebb7469bb8f2"},"vehicle_type_id":"4","last_reported":1692641225,"current_range_meters":18000,"station_id":"ce4bhqp2rcd13ifvqhng","pricing_plan_id":"free"},{"bike_id":"ee25c531-7489-4af7-897f-fbd501101add","system_id":"levelo_inurba_marseille","lat":43.31763,"lon":5.39013,"is_reserved":false,"is_disabled":false,"rental_uris":{"android":"levelo://app?vid=ee25c531-7489-4af7-897f-fbd501101add","ios":"levelo://app?vid=ee25c531-7489-4af7-897f-fbd501101add"},"vehicle_type_id":"4","last_reported":1692641225,"current_range_meters":27600,"station_id":"ce4bhqp2rcd13ifvqhng","pricing_plan_id":"free"},{"bike_id":"b99a8368-ca74-4352-91a1-a135a44b3e75","system_id":"levelo_inurba_marseille","lat":43.317557,"lon":5.390173,"is_reserved":false,"is_disabled":false,"rental_uris":{"android":"levelo://app?vid=b99a8368-ca74-4352-91a1-a135a44b3e75","ios":"levelo://app?vid=b99a8368-ca74-4352-91a1-a135a44b3e75"},"vehicle_type_id":"4","last_reported":1692641225,"current_range_meters":31200,"station_id":"ce4bhqp2rcd13ifvqhng","pricing_plan_id":"free"},{"bike_id":"25bb5afc-352a-4856-829c-1560b5501e50","system_id":"levelo_inurba_marseille","lat":43.317557,"lon":5.390173,"is_reserved":false,"is_disabled":false,"rental_uris":{"android":"levelo://app?vid=25bb5afc-352a-4856-829c-1560b5501e50","ios":"levelo://app?vid=25bb5afc-352a-4856-829c-1560b5501e50"},"vehicle_type_id":"4","last_reported":1692641225,"current_range_meters":19600,"station_id":"ce4bhqp2rcd13ifvqhng","pricing_plan_id":"free"},{"bike_id":"5ad397a5-782c-4d3d-b970-036708b02620","system_id":"levelo_inurba_marseille","lat":43.317557,"lon":5.390173,"is_reserved":false,"is_disabled":false,"rental_uris":{"android":"levelo://app?vid=5ad397a5-782c-4d3d-b970-036708b02620","ios":"levelo://app?vid=5ad397a5-782c-4d3d-b970-036708b02620"},"vehicle_type_id":"4","last_reported":1692641225,"current_range_meters":14000,"station_id":"ce4bhqp2rcd13ifvqhng","pricing_plan_id":"free"},{"bike_id":"07f13e9e-ef8f-4f0b-a6cc-8cabbf97e9a5","system_id":"levelo_inurba_marseille","lat":43.317557,"lon":5.390173,"is_reserved":false,"is_disabled":false,"rental_uris":{"android":"levelo://app?vid=07f13e9e-ef8f-4f0b-a6cc-8cabbf97e9a5","ios":"levelo://app?vid=07f13e9e-ef8f-4f0b-a6cc-8cabbf97e9a5"},"vehicle_type_id":"4","last_reported":1692641225,"current_range_meters":31600,"station_id":"ce4bhqp2rcd13ifvqhng","pricing_plan_id":"free"},{"bike_id":"68914e65-d050-4f96-87b6-04c982d40cae","system_id":"levelo_inurba_marseille","lat":43.317557,"lon":5.390173,"is_reserved":false,"is_disabled":false,"rental_uris":{"android":"levelo://app?vid=68914e65-d050-4f96-87b6-04c982d40cae","ios":"levelo://app?vid=68914e65-d050-4f96-87b6-04c982d40cae"},"vehicle_type_id":"4","last_reported":1692641225,"current_range_meters":27200,"station_id":"ce4bhqp2rcd13ifvqhng","pricing_plan_id":"free"},{"bike_id":"3b09c87f-d4d2-4a1f-8137-a97e2b7b50ed","system_id":"levelo_inurba_marseille","lat":43.304278,"lon":5.388868,"is_reserved":false,"is_disabled":false,"rental_uris":{"android":"levelo://app?vid=3b09c87f-d4d2-4a1f-8137-a97e2b7b50ed","ios":"levelo://app?vid=3b09c87f-d4d2-4a1f-8137-a97e2b7b50ed"},"vehicle_type_id":"4","last_reported":1692641225,"current_range_meters":9200,"station_id":"ce4bgk12rcd13ifvqbi0","pricing_plan_id":"free"},{"bike_id":"a4df99ce-0488-49dd-a888-94686f562e88","system_id":"levelo_inurba_marseille","lat":43.295748,"lon":5.37522,"is_reserved":false,"is_disabled":false,"rental_uris":{"android":"levelo://app?vid=a4df99ce-0488-49dd-a888-94686f562e88","ios":"levelo://app?vid=a4df99ce-0488-49dd-a888-94686f562e88"},"vehicle_type_id":"4","last_reported":1692641225,"current_range_meters":26800,"station_id":"ce4bgh92rcd13ifvqb50","pricing_plan_id":"free"},{"bike_id":"f85e3f56-d9ff-4bac-af72-56540bcbc57d","system_id":"levelo_inurba_marseille","lat":43.2997,"lon":5.38492,"is_reserved":false,"is_disabled":false,"rental_uris":{"android":"levelo://app?vid=f85e3f56-d9ff-4bac-af72-56540bcbc57d","ios":"levelo://app?vid=f85e3f56-d9ff-4bac-af72-56540bcbc57d"},"vehicle_type_id":"4","last_reported":1692641225,"current_range_meters":19200,"station_id":"ce4bgj92rcd13ifvqbd0","pricing_plan_id":"free"},{"bike_id":"00883cd9-a56a-4720-bb55-237d0136a4a1","system_id":"levelo_inurba_marseille","lat":43.32365,"lon":5.38881,"is_reserved":false,"is_disabled":false,"rental_uris":{"android":"levelo://app?vid=00883cd9-a56a-4720-bb55-237d0136a4a1","ios":"levelo://app?vid=00883cd9-a56a-4720-bb55-237d0136a4a1"},"vehicle_type_id":"4","last_reported":1692641225,"current_range_meters":18400,"station_id":"ce4bhqp2rcd13ifvqhog","pricing_plan_id":"free"},{"bike_id":"b4d86ca8-a504-4c9c-a5ce-d6655ce9d2d9","system_id":"levelo_inurba_marseille","lat":43.2963,"lon":5.38091,"is_reserved":false,"is_disabled":false,"rental_uris":{"android":"levelo://app?vid=b4d86ca8-a504-4c9c-a5ce-d6655ce9d2d9","ios":"levelo://app?vid=b4d86ca8-a504-4c9c-a5ce-d6655ce9d2d9"},"vehicle_type_id":"4","last_reported":1692641225,"current_range_meters":400,"station_id":"ce4bgl12rcd13ifvqbo0","pricing_plan_id":"free"},{"bike_id":"93186f1c-7c81-42d4-9e94-b882af5905af","system_id":"levelo_inurba_marseille","lat":43.32365,"lon":5.38888,"is_reserved":false,"is_disabled":false,"rental_uris":{"android":"levelo://app?vid=93186f1c-7c81-42d4-9e94-b882af5905af","ios":"levelo://app?vid=93186f1c-7c81-42d4-9e94-b882af5905af"},"vehicle_type_id":"4","last_reported":1692641225,"current_range_meters":0,"station_id":"ce4bhqp2rcd13ifvqhog","pricing_plan_id":"free"},{"bike_id":"d3f90bfc-bafa-4d05-bc6a-b5f62930eb2f","system_id":"levelo_inurba_marseille","lat":43.29602,"lon":5.381084,"is_reserved":false,"is_disabled":false,"rental_uris":{"android":"levelo://app?vid=d3f90bfc-bafa-4d05-bc6a-b5f62930eb2f","ios":"levelo://app?vid=d3f90bfc-bafa-4d05-bc6a-b5f62930eb2f"},"vehicle_type_id":"4","last_reported":1692641225,"current_range_meters":16400,"station_id":"ce4bgl12rcd13ifvqbo0","pricing_plan_id":"free"},{"bike_id":"792e2235-8885-461b-b2fe-25d29e3c46cc","system_id":"levelo_inurba_marseille","lat":43.29602,"lon":5.381084,"is_reserved":false,"is_disabled":false,"rental_uris":{"android":"levelo://app?vid=792e2235-8885-461b-b2fe-25d29e3c46cc","ios":"levelo://app?vid=792e2235-8885-461b-b2fe-25d29e3c46cc"},"vehicle_type_id":"4","last_reported":1692641225,"current_range_meters":19200,"station_id":"ce4bgl12rcd13ifvqbo0","pricing_plan_id":"free"},{"bike_id":"38fef587-7cc5-4800-b069-87b8f296a10a","system_id":"levelo_inurba_marseille","lat":43.293009,"lon":5.374584,"is_reserved":false,"is_disabled":false,"rental_uris":{"android":"levelo://app?vid=38fef587-7cc5-4800-b069-87b8f296a10a","ios":"levelo://app?vid=38fef587-7cc5-4800-b069-87b8f296a10a"},"vehicle_type_id":"4","last_reported":1692641225,"current_range_meters":31200,"station_id":"ce4bgi12rcd13ifvqb70","pricing_plan_id":"free"},{"bike_id":"8fc4bfeb-ea3a-47ff-a3c0-129cf821a92c","system_id":"levelo_inurba_marseille","lat":43.293009,"lon":5.374584,"is_reserved":false,"is_disabled":false,"rental_uris":{"android":"levelo://app?vid=8fc4bfeb-ea3a-47ff-a3c0-129cf821a92c","ios":"levelo://app?vid=8fc4bfeb-ea3a-47ff-a3c0-129cf821a92c"},"vehicle_type_id":"4","last_reported":1692641225,"current_range_meters":24800,"station_id":"ce4bgi12rcd13ifvqb70","pricing_plan_id":"free"},{"bike_id":"2ee4b985-2b23-4306-a0ed-a35e7137ac6b","system_id":"levelo_inurba_marseille","lat":43.293009,"lon":5.374584,"is_reserved":false,"is_disabled":false,"rental_uris":{"android":"levelo://app?vid=2ee4b985-2b23-4306-a0ed-a35e7137ac6b","ios":"levelo://app?vid=2ee4b985-2b23-4306-a0ed-a35e7137ac6b"},"vehicle_type_id":"4","last_reported":1692641225,"current_range_meters":12400,"station_id":"ce4bgi12rcd13ifvqb70","pricing_plan_id":"free"},{"bike_id":"a67fb58b-7f5f-440b-95b3-460d7fa292e5","system_id":"levelo_inurba_marseille","lat":43.293009,"lon":5.374584,"is_reserved":false,"is_disabled":false,"rental_uris":{"android":"levelo://app?vid=a67fb58b-7f5f-440b-95b3-460d7fa292e5","ios":"levelo://app?vid=a67fb58b-7f5f-440b-95b3-460d7fa292e5"},"vehicle_type_id":"4","last_reported":1692641225,"current_range_meters":30000,"station_id":"ce4bgi12rcd13ifvqb70","pricing_plan_id":"free"},{"bike_id":"8ab6ae90-c8a4-4a01-a119-f0527869b597","system_id":"levelo_inurba_marseille","lat":43.303002,"lon":5.392142,"is_reserved":false,"is_disabled":false,"rental_uris":{"android":"levelo://app?vid=8ab6ae90-c8a4-4a01-a119-f0527869b597","ios":"levelo://app?vid=8ab6ae90-c8a4-4a01-a119-f0527869b597"},"vehicle_type_id":"4","last_reported":1692641225,"current_range_meters":12400,"station_id":"ce4bgkh2rcd13ifvqbk0","pricing_plan_id":"free"},{"bike_id":"0724f352-a262-45b7-9b71-9a09ff17d945","system_id":"levelo_inurba_marseille","lat":43.30301,"lon":5.39206,"is_reserved":false,"is_disabled":false,"rental_uris":{"android":"levelo://app?vid=0724f352-a262-45b7-9b71-9a09ff17d945","ios":"levelo://app?vid=0724f352-a262-45b7-9b71-9a09ff17d945"},"vehicle_type_id":"4","last_reported":1692641225,"current_range_meters":14400,"station_id":"ce4bgkh2rcd13ifvqbk0","pricing_plan_id":"free"},{"bike_id":"fcfa05d7-a05e-4540-86fb-8e559b5bf60f","system_id":"levelo_inurba_marseille","lat":43.298764,"lon":5.388973,"is_reserved":false,"is_disabled":false,"rental_uris":{"android":"levelo://app?vid=fcfa05d7-a05e-4540-86fb-8e559b5bf60f","ios":"levelo://app?vid=fcfa05d7-a05e-4540-86fb-8e559b5bf60f"},"vehicle_type_id":"4","last_reported":1692641225,"current_range_meters":18400,"station_id":"ce4bh392rcd13ifvqdl0","pricing_plan_id":"free"},{"bike_id":"9362bef4-57c5-4a6d-a11e-753a0bbc8123","system_id":"levelo_inurba_marseille","lat":43.291675,"lon":5.371583,"is_reserved":false,"is_disabled":false,"rental_uris":{"android":"levelo://app?vid=9362bef4-57c5-4a6d-a11e-753a0bbc8123","ios":"levelo://app?vid=9362bef4-57c5-4a6d-a11e-753a0bbc8123"},"vehicle_type_id":"4","last_reported":1692641225,"current_range_meters":9200,"station_id":"ce4bha92rcd13ifvqeh0","pricing_plan_id":"free"},{"bike_id":"4be595fe-5aaa-47d4-aae2-ad487d2fb31b","system_id":"levelo_inurba_marseille","lat":43.298764,"lon":5.388973,"is_reserved":false,"is_disabled":false,"rental_uris":{"android":"levelo://app?vid=4be595fe-5aaa-47d4-aae2-ad487d2fb31b","ios":"levelo://app?vid=4be595fe-5aaa-47d4-aae2-ad487d2fb31b"},"vehicle_type_id":"4","last_reported":1692641225,"current_range_meters":12800,"station_id":"ce4bh392rcd13ifvqdl0","pricing_plan_id":"free"},{"bike_id":"58a0a67e-3acd-4944-b5e3-17b893f4f55a","system_id":"levelo_inurba_marseille","lat":43.2936,"lon":5.37835,"is_reserved":false,"is_disabled":false,"rental_uris":{"android":"levelo://app?vid=58a0a67e-3acd-4944-b5e3-17b893f4f55a","ios":"levelo://app?vid=58a0a67e-3acd-4944-b5e3-17b893f4f55a"},"vehicle_type_id":"4","last_reported":1692641225,"current_range_meters":14800,"station_id":"ce4bgjh2rcd13ifvqbf0","pricing_plan_id":"free"},{"bike_id":"306af71f-67d1-4c4d-8f86-472411047da6","system_id":"levelo_inurba_marseille","lat":43.3133,"lon":5.39689,"is_reserved":false,"is_disabled":false,"rental_uris":{"android":"levelo://app?vid=306af71f-67d1-4c4d-8f86-472411047da6","ios":"levelo://app?vid=306af71f-67d1-4c4d-8f86-472411047da6"},"vehicle_type_id":"4","last_reported":1692641225,"current_range_meters":6400,"station_id":"ce4bgvp2rcd13ifvqcu0","pricing_plan_id":"free"},{"bike_id":"f74730a4-5bc0-4caa-ab27-ebf8f77879ef","system_id":"levelo_inurba_marseille","lat":43.313291,"lon":5.396838,"is_reserved":false,"is_disabled":false,"rental_uris":{"android":"levelo://app?vid=f74730a4-5bc0-4caa-ab27-ebf8f77879ef","ios":"levelo://app?vid=f74730a4-5bc0-4caa-ab27-ebf8f77879ef"},"vehicle_type_id":"4","last_reported":1692641225,"current_range_meters":14000,"station_id":"ce4bgvp2rcd13ifvqcu0","pricing_plan_id":"free"},{"bike_id":"da4dbb1a-5d8b-4118-b774-6315e52d473c","system_id":"levelo_inurba_marseille","lat":43.3089,"lon":5.39653,"is_reserved":false,"is_disabled":false,"rental_uris":{"android":"levelo://app?vid=da4dbb1a-5d8b-4118-b774-6315e52d473c","ios":"levelo://app?vid=da4dbb1a-5d8b-4118-b774-6315e52d473c"},"vehicle_type_id":"4","last_reported":1692641225,"current_range_meters":20000,"station_id":"ce4bh012rcd13ifvqcv0","pricing_plan_id":"free"},{"bike_id":"35db5019-5a98-4c10-86fc-b0d7def6546b","system_id":"levelo_inurba_marseille","lat":43.308849,"lon":5.396552,"is_reserved":false,"is_disabled":false,"rental_uris":{"android":"levelo://app?vid=35db5019-5a98-4c10-86fc-b0d7def6546b","ios":"levelo://app?vid=35db5019-5a98-4c10-86fc-b0d7def6546b"},"vehicle_type_id":"4","last_reported":1692641225,"current_range_meters":5200,"station_id":"ce4bh0p2rcd13ifvqd80","pricing_plan_id":"free"},{"bike_id":"becfe7cb-d167-440c-a158-d9fa9ea79f3e","system_id":"levelo_inurba_marseille","lat":43.29529,"lon":5.385581,"is_reserved":false,"is_disabled":false,"rental_uris":{"android":"levelo://app?vid=becfe7cb-d167-440c-a158-d9fa9ea79f3e","ios":"levelo://app?vid=becfe7cb-d167-440c-a158-d9fa9ea79f3e"},"vehicle_type_id":"4","last_reported":1692641225,"current_range_meters":13200,"station_id":"ce4bgih2rcd13ifvqba0","pricing_plan_id":"free"},{"bike_id":"8317048b-b883-4152-82c7-d6b8abf25aef","system_id":"levelo_inurba_marseille","lat":43.29529,"lon":5.385581,"is_reserved":false,"is_disabled":false,"rental_uris":{"android":"levelo://app?vid=8317048b-b883-4152-82c7-d6b8abf25aef","ios":"levelo://app?vid=8317048b-b883-4152-82c7-d6b8abf25aef"},"vehicle_type_id":"4","last_reported":1692641225,"current_range_meters":27600,"station_id":"ce4bgih2rcd13ifvqba0","pricing_plan_id":"free"},{"bike_id":"c8d70408-a060-4edc-b08f-21ab1b015a85","system_id":"levelo_inurba_marseille","lat":43.302008,"lon":5.394694,"is_reserved":false,"is_disabled":false,"rental_uris":{"android":"levelo://app?vid=c8d70408-a060-4edc-b08f-21ab1b015a85","ios":"levelo://app?vid=c8d70408-a060-4edc-b08f-21ab1b015a85"},"vehicle_type_id":"4","last_reported":1692641225,"current_range_meters":26000,"station_id":"ce4bh0p2rcd13ifvqd70","pricing_plan_id":"free"},{"bike_id":"ebac121d-6827-4172-ae3f-9cc62db713d0","system_id":"levelo_inurba_marseille","lat":43.302008,"lon":5.394694,"is_reserved":false,"is_disabled":false,"rental_uris":{"android":"levelo://app?vid=ebac121d-6827-4172-ae3f-9cc62db713d0","ios":"levelo://app?vid=ebac121d-6827-4172-ae3f-9cc62db713d0"},"vehicle_type_id":"4","last_reported":1692641225,"current_range_meters":22800,"station_id":"ce4bh0p2rcd13ifvqd70","pricing_plan_id":"free"},{"bike_id":"39b5b5cf-86ef-48ea-a176-58e554756417","system_id":"levelo_inurba_marseille","lat":43.302008,"lon":5.394694,"is_reserved":false,"is_disabled":false,"rental_uris":{"android":"levelo://app?vid=39b5b5cf-86ef-48ea-a176-58e554756417","ios":"levelo://app?vid=39b5b5cf-86ef-48ea-a176-58e554756417"},"vehicle_type_id":"4","last_reported":1692641225,"current_range_meters":30400,"station_id":"ce4bh0p2rcd13ifvqd70","pricing_plan_id":"free"},{"bike_id":"d1b05432-2ac4-4c95-8cce-b2d3d9601652","system_id":"levelo_inurba_marseille","lat":43.301117,"lon":5.398795,"is_reserved":false,"is_disabled":false,"rental_uris":{"android":"levelo://app?vid=d1b05432-2ac4-4c95-8cce-b2d3d9601652","ios":"levelo://app?vid=d1b05432-2ac4-4c95-8cce-b2d3d9601652"},"vehicle_type_id":"4","last_reported":1692641225,"current_range_meters":25600,"station_id":"ce4bh0h2rcd13ifvqd40","pricing_plan_id":"free"},{"bike_id":"37c4eda4-e3e0-42bf-b935-ebc2a678b4f4","system_id":"levelo_inurba_marseille","lat":43.294153,"lon":5.386305,"is_reserved":false,"is_disabled":false,"rental_uris":{"android":"levelo://app?vid=37c4eda4-e3e0-42bf-b935-ebc2a678b4f4","ios":"levelo://app?vid=37c4eda4-e3e0-42bf-b935-ebc2a678b4f4"},"vehicle_type_id":"4","last_reported":1692641225,"current_range_meters":6000,"station_id":"ce4bh2h2rcd13ifvqdh0","pricing_plan_id":"free"},{"bike_id":"41c81cec-df82-4f37-aca7-554297d66f62","system_id":"levelo_inurba_marseille","lat":43.294162,"lon":5.386292,"is_reserved":false,"is_disabled":false,"rental_uris":{"android":"levelo://app?vid=41c81cec-df82-4f37-aca7-554297d66f62","ios":"levelo://app?vid=41c81cec-df82-4f37-aca7-554297d66f62"},"vehicle_type_id":"4","last_reported":1692641225,"current_range_meters":5600,"station_id":"ce4bh2h2rcd13ifvqdh0","pricing_plan_id":"free"},{"bike_id":"2fb10abe-454e-45ae-bfde-a2560442f6d8","system_id":"levelo_inurba_marseille","lat":43.294162,"lon":5.386292,"is_reserved":false,"is_disabled":false,"rental_uris":{"android":"levelo://app?vid=2fb10abe-454e-45ae-bfde-a2560442f6d8","ios":"levelo://app?vid=2fb10abe-454e-45ae-bfde-a2560442f6d8"},"vehicle_type_id":"4","last_reported":1692641225,"current_range_meters":4000,"station_id":"ce4bh2h2rcd13ifvqdh0","pricing_plan_id":"free"},{"bike_id":"07e996ff-4a46-4209-a10f-5136f13e3448","system_id":"levelo_inurba_marseille","lat":43.294153,"lon":5.386305,"is_reserved":false,"is_disabled":false,"rental_uris":{"android":"levelo://app?vid=07e996ff-4a46-4209-a10f-5136f13e3448","ios":"levelo://app?vid=07e996ff-4a46-4209-a10f-5136f13e3448"},"vehicle_type_id":"4","last_reported":1692641225,"current_range_meters":16000,"station_id":"ce4bh2h2rcd13ifvqdh0","pricing_plan_id":"free"},{"bike_id":"b39edf1e-d522-44a7-b443-8a6d35b97f6b","system_id":"levelo_inurba_marseille","lat":43.294162,"lon":5.386292,"is_reserved":false,"is_disabled":false,"rental_uris":{"android":"levelo://app?vid=b39edf1e-d522-44a7-b443-8a6d35b97f6b","ios":"levelo://app?vid=b39edf1e-d522-44a7-b443-8a6d35b97f6b"},"vehicle_type_id":"4","last_reported":1692641225,"current_range_meters":29200,"station_id":"ce4bh2h2rcd13ifvqdh0","pricing_plan_id":"free"},{"bike_id":"dbe4cda8-ef05-47d0-a109-a8bb3e4983fb","system_id":"levelo_inurba_marseille","lat":43.294162,"lon":5.386292,"is_reserved":false,"is_disabled":false,"rental_uris":{"android":"levelo://app?vid=dbe4cda8-ef05-47d0-a109-a8bb3e4983fb","ios":"levelo://app?vid=dbe4cda8-ef05-47d0-a109-a8bb3e4983fb"},"vehicle_type_id":"4","last_reported":1692641225,"current_range_meters":18000,"station_id":"ce4bh2h2rcd13ifvqdh0","pricing_plan_id":"free"},{"bike_id":"5cdf9cd7-5515-48f5-a000-759217db48fb","system_id":"levelo_inurba_marseille","lat":43.28936,"lon":5.36637,"is_reserved":false,"is_disabled":false,"rental_uris":{"android":"levelo://app?vid=5cdf9cd7-5515-48f5-a000-759217db48fb","ios":"levelo://app?vid=5cdf9cd7-5515-48f5-a000-759217db48fb"},"vehicle_type_id":"4","last_reported":1692641225,"current_range_meters":31200,"station_id":"ce4bhap2rcd13ifvqek0","pricing_plan_id":"free"},{"bike_id":"90c6d008-6e64-40bd-b429-97a82bb4528e","system_id":"levelo_inurba_marseille","lat":43.292644,"lon":5.384257,"is_reserved":false,"is_disabled":false,"rental_uris":{"android":"levelo://app?vid=90c6d008-6e64-40bd-b429-97a82bb4528e","ios":"levelo://app?vid=90c6d008-6e64-40bd-b429-97a82bb4528e"},"vehicle_type_id":"4","last_reported":1692641225,"current_range_meters":26000,"station_id":"ce4bh692rcd13ifvqea0","pricing_plan_id":"free"},{"bike_id":"e6c3ceec-9368-45d3-b899-6124f454f147","system_id":"levelo_inurba_marseille","lat":43.292642,"lon":5.384254,"is_reserved":false,"is_disabled":false,"rental_uris":{"android":"levelo://app?vid=e6c3ceec-9368-45d3-b899-6124f454f147","ios":"levelo://app?vid=e6c3ceec-9368-45d3-b899-6124f454f147"},"vehicle_type_id":"4","last_reported":1692641225,"current_range_meters":23600,"station_id":"ce4bh692rcd13ifvqea0","pricing_plan_id":"free"},{"bike_id":"ab46bc49-54eb-4183-94a8-cd0852c159b7","system_id":"levelo_inurba_marseille","lat":43.292644,"lon":5.384257,"is_reserved":false,"is_disabled":false,"rental_uris":{"android":"levelo://app?vid=ab46bc49-54eb-4183-94a8-cd0852c159b7","ios":"levelo://app?vid=ab46bc49-54eb-4183-94a8-cd0852c159b7"},"vehicle_type_id":"4","last_reported":1692641225,"current_range_meters":28400,"station_id":"ce4bh692rcd13ifvqea0","pricing_plan_id":"free"},{"bike_id":"8cb5b6bb-45e7-4f2a-af41-dcba252e8cef","system_id":"levelo_inurba_marseille","lat":43.292642,"lon":5.384254,"is_reserved":false,"is_disabled":false,"rental_uris":{"android":"levelo://app?vid=8cb5b6bb-45e7-4f2a-af41-dcba252e8cef","ios":"levelo://app?vid=8cb5b6bb-45e7-4f2a-af41-dcba252e8cef"},"vehicle_type_id":"4","last_reported":1692641225,"current_range_meters":26000,"station_id":"ce4bh692rcd13ifvqea0","pricing_plan_id":"free"},{"bike_id":"41574093-618b-4133-b262-2ebbe6c6f3fe","system_id":"levelo_inurba_marseille","lat":43.292644,"lon":5.384257,"is_reserved":false,"is_disabled":false,"rental_uris":{"android":"levelo://app?vid=41574093-618b-4133-b262-2ebbe6c6f3fe","ios":"levelo://app?vid=41574093-618b-4133-b262-2ebbe6c6f3fe"},"vehicle_type_id":"4","last_reported":1692641225,"current_range_meters":9600,"station_id":"ce4bh692rcd13ifvqea0","pricing_plan_id":"free"},{"bike_id":"b47588d0-81e2-4872-a1cf-34039f0e682c","system_id":"levelo_inurba_marseille","lat":43.292642,"lon":5.384254,"is_reserved":false,"is_disabled":false,"rental_uris":{"android":"levelo://app?vid=b47588d0-81e2-4872-a1cf-34039f0e682c","ios":"levelo://app?vid=b47588d0-81e2-4872-a1cf-34039f0e682c"},"vehicle_type_id":"4","last_reported":1692641225,"current_range_meters":15600,"station_id":"ce4bh692rcd13ifvqea0","pricing_plan_id":"free"},{"bike_id":"4d2cb3a2-63f0-44fa-b47c-816d9b2f55f2","system_id":"levelo_inurba_marseille","lat":43.292642,"lon":5.384254,"is_reserved":false,"is_disabled":false,"rental_uris":{"android":"levelo://app?vid=4d2cb3a2-63f0-44fa-b47c-816d9b2f55f2","ios":"levelo://app?vid=4d2cb3a2-63f0-44fa-b47c-816d9b2f55f2"},"vehicle_type_id":"4","last_reported":1692641225,"current_range_meters":28400,"station_id":"ce4bh692rcd13ifvqea0","pricing_plan_id":"free"},{"bike_id":"68eaab33-6004-4aaf-bf0b-88b48b222b31","system_id":"levelo_inurba_marseille","lat":43.292644,"lon":5.384257,"is_reserved":false,"is_disabled":false,"rental_uris":{"android":"levelo://app?vid=68eaab33-6004-4aaf-bf0b-88b48b222b31","ios":"levelo://app?vid=68eaab33-6004-4aaf-bf0b-88b48b222b31"},"vehicle_type_id":"4","last_reported":1692641225,"current_range_meters":7200,"station_id":"ce4bh692rcd13ifvqea0","pricing_plan_id":"free"},{"bike_id":"5ada52e9-1d2c-428d-b134-30e37d715b51","system_id":"levelo_inurba_marseille","lat":43.292642,"lon":5.384254,"is_reserved":false,"is_disabled":false,"rental_uris":{"android":"levelo://app?vid=5ada52e9-1d2c-428d-b134-30e37d715b51","ios":"levelo://app?vid=5ada52e9-1d2c-428d-b134-30e37d715b51"},"vehicle_type_id":"4","last_reported":1692641225,"current_range_meters":16800,"station_id":"ce4bh692rcd13ifvqea0","pricing_plan_id":"free"},{"bike_id":"9262f5ca-8dfb-41a4-9210-9500695f207c","system_id":"levelo_inurba_marseille","lat":43.292642,"lon":5.384254,"is_reserved":false,"is_disabled":false,"rental_uris":{"android":"levelo://app?vid=9262f5ca-8dfb-41a4-9210-9500695f207c","ios":"levelo://app?vid=9262f5ca-8dfb-41a4-9210-9500695f207c"},"vehicle_type_id":"4","last_reported":1692641225,"current_range_meters":1600,"station_id":"ce4bh692rcd13ifvqea0","pricing_plan_id":"free"},{"bike_id":"6d542f5e-f2cf-4b32-9fbb-bba8ba7d97bf","system_id":"levelo_inurba_marseille","lat":43.292644,"lon":5.384257,"is_reserved":false,"is_disabled":false,"rental_uris":{"android":"levelo://app?vid=6d542f5e-f2cf-4b32-9fbb-bba8ba7d97bf","ios":"levelo://app?vid=6d542f5e-f2cf-4b32-9fbb-bba8ba7d97bf"},"vehicle_type_id":"4","last_reported":1692641225,"current_range_meters":2800,"station_id":"ce4bh692rcd13ifvqea0","pricing_plan_id":"free"},{"bike_id":"a76aca5c-f534-496c-8598-cb37d491feae","system_id":"levelo_inurba_marseille","lat":43.29262,"lon":5.38428,"is_reserved":false,"is_disabled":false,"rental_uris":{"android":"levelo://app?vid=a76aca5c-f534-496c-8598-cb37d491feae","ios":"levelo://app?vid=a76aca5c-f534-496c-8598-cb37d491feae"},"vehicle_type_id":"4","last_reported":1692641225,"current_range_meters":4000,"station_id":"ce4bh692rcd13ifvqea0","pricing_plan_id":"free"},{"bike_id":"cf54efcc-4c4b-4029-86a5-630a17659ec9","system_id":"levelo_inurba_marseille","lat":43.292644,"lon":5.384257,"is_reserved":false,"is_disabled":false,"rental_uris":{"android":"levelo://app?vid=cf54efcc-4c4b-4029-86a5-630a17659ec9","ios":"levelo://app?vid=cf54efcc-4c4b-4029-86a5-630a17659ec9"},"vehicle_type_id":"4","last_reported":1692641225,"current_range_meters":23200,"station_id":"ce4bh692rcd13ifvqea0","pricing_plan_id":"free"},{"bike_id":"2ca1234d-ebd0-4fe4-965b-8cddca128a10","system_id":"levelo_inurba_marseille","lat":43.292642,"lon":5.384254,"is_reserved":false,"is_disabled":false,"rental_uris":{"android":"levelo://app?vid=2ca1234d-ebd0-4fe4-965b-8cddca128a10","ios":"levelo://app?vid=2ca1234d-ebd0-4fe4-965b-8cddca128a10"},"vehicle_type_id":"4","last_reported":1692641225,"current_range_meters":4800,"station_id":"ce4bh692rcd13ifvqea0","pricing_plan_id":"free"},{"bike_id":"5bfd2788-9815-412d-94cd-0c107d5b7d05","system_id":"levelo_inurba_marseille","lat":43.292644,"lon":5.384257,"is_reserved":false,"is_disabled":false,"rental_uris":{"android":"levelo://app?vid=5bfd2788-9815-412d-94cd-0c107d5b7d05","ios":"levelo://app?vid=5bfd2788-9815-412d-94cd-0c107d5b7d05"},"vehicle_type_id":"4","last_reported":1692641225,"current_range_meters":13200,"station_id":"ce4bh692rcd13ifvqea0","pricing_plan_id":"free"},{"bike_id":"01a26f8a-0db6-4a62-8bfb-9b4ad0d13cda","system_id":"levelo_inurba_marseille","lat":43.292644,"lon":5.384257,"is_reserved":false,"is_disabled":false,"rental_uris":{"android":"levelo://app?vid=01a26f8a-0db6-4a62-8bfb-9b4ad0d13cda","ios":"levelo://app?vid=01a26f8a-0db6-4a62-8bfb-9b4ad0d13cda"},"vehicle_type_id":"4","last_reported":1692641225,"current_range_meters":23600,"station_id":"ce4bh692rcd13ifvqea0","pricing_plan_id":"free"},{"bike_id":"2b233b38-b6a5-48b4-8e2b-09f3131cc3d6","system_id":"levelo_inurba_marseille","lat":43.292644,"lon":5.384257,"is_reserved":false,"is_disabled":false,"rental_uris":{"android":"levelo://app?vid=2b233b38-b6a5-48b4-8e2b-09f3131cc3d6","ios":"levelo://app?vid=2b233b38-b6a5-48b4-8e2b-09f3131cc3d6"},"vehicle_type_id":"4","last_reported":1692641225,"current_range_meters":24400,"station_id":"ce4bh692rcd13ifvqea0","pricing_plan_id":"free"},{"bike_id":"a513e844-b2c9-4534-8389-949d6b264351","system_id":"levelo_inurba_marseille","lat":43.292644,"lon":5.384257,"is_reserved":false,"is_disabled":false,"rental_uris":{"android":"levelo://app?vid=a513e844-b2c9-4534-8389-949d6b264351","ios":"levelo://app?vid=a513e844-b2c9-4534-8389-949d6b264351"},"vehicle_type_id":"4","last_reported":1692641225,"current_range_meters":7200,"station_id":"ce4bh692rcd13ifvqea0","pricing_plan_id":"free"},{"bike_id":"d2eddcf0-2a82-4337-8044-3c037391185d","system_id":"levelo_inurba_marseille","lat":43.292644,"lon":5.384257,"is_reserved":false,"is_disabled":false,"rental_uris":{"android":"levelo://app?vid=d2eddcf0-2a82-4337-8044-3c037391185d","ios":"levelo://app?vid=d2eddcf0-2a82-4337-8044-3c037391185d"},"vehicle_type_id":"4","last_reported":1692641225,"current_range_meters":15200,"station_id":"ce4bh692rcd13ifvqea0","pricing_plan_id":"free"},{"bike_id":"708f7f21-b221-4c14-94b6-b5d8e3289350","system_id":"levelo_inurba_marseille","lat":43.33041,"lon":5.38913,"is_reserved":false,"is_disabled":false,"rental_uris":{"android":"levelo://app?vid=708f7f21-b221-4c14-94b6-b5d8e3289350","ios":"levelo://app?vid=708f7f21-b221-4c14-94b6-b5d8e3289350"},"vehicle_type_id":"4","last_reported":1692641225,"current_range_meters":13200,"station_id":"ce4bhr92rcd13ifvqhrg","pricing_plan_id":"free"},{"bike_id":"5036c72a-6252-47f4-a9fb-50fd514d506a","system_id":"levelo_inurba_marseille","lat":43.3304,"lon":5.3892,"is_reserved":false,"is_disabled":false,"rental_uris":{"android":"levelo://app?vid=5036c72a-6252-47f4-a9fb-50fd514d506a","ios":"levelo://app?vid=5036c72a-6252-47f4-a9fb-50fd514d506a"},"vehicle_type_id":"4","last_reported":1692641225,"current_range_meters":14400,"station_id":"ce4bhr92rcd13ifvqhrg","pricing_plan_id":"free"},{"bike_id":"cf7efb35-416b-436a-ae28-6355fd0a028f","system_id":"levelo_inurba_marseille","lat":43.330442,"lon":5.389148,"is_reserved":false,"is_disabled":false,"rental_uris":{"android":"levelo://app?vid=cf7efb35-416b-436a-ae28-6355fd0a028f","ios":"levelo://app?vid=cf7efb35-416b-436a-ae28-6355fd0a028f"},"vehicle_type_id":"4","last_reported":1692641225,"current_range_meters":23600,"station_id":"ce4bhr92rcd13ifvqhrg","pricing_plan_id":"free"},{"bike_id":"74135ee2-4ef0-4ebf-9fc8-020422f49012","system_id":"levelo_inurba_marseille","lat":43.33042,"lon":5.38919,"is_reserved":false,"is_disabled":false,"rental_uris":{"android":"levelo://app?vid=74135ee2-4ef0-4ebf-9fc8-020422f49012","ios":"levelo://app?vid=74135ee2-4ef0-4ebf-9fc8-020422f49012"},"vehicle_type_id":"4","last_reported":1692641225,"current_range_meters":5200,"station_id":"ce4bhr92rcd13ifvqhrg","pricing_plan_id":"free"},{"bike_id":"c65152a1-dca7-4ee4-9864-308587d5ed74","system_id":"levelo_inurba_marseille","lat":43.33041,"lon":5.38922,"is_reserved":false,"is_disabled":false,"rental_uris":{"android":"levelo://app?vid=c65152a1-dca7-4ee4-9864-308587d5ed74","ios":"levelo://app?vid=c65152a1-dca7-4ee4-9864-308587d5ed74"},"vehicle_type_id":"4","last_reported":1692641225,"current_range_meters":14400,"station_id":"ce4bhr92rcd13ifvqhrg","pricing_plan_id":"free"},{"bike_id":"d533fb04-d010-40ed-a380-8268b4b3120f","system_id":"levelo_inurba_marseille","lat":43.330442,"lon":5.389148,"is_reserved":false,"is_disabled":false,"rental_uris":{"android":"levelo://app?vid=d533fb04-d010-40ed-a380-8268b4b3120f","ios":"levelo://app?vid=d533fb04-d010-40ed-a380-8268b4b3120f"},"vehicle_type_id":"4","last_reported":1692641225,"current_range_meters":7200,"station_id":"ce4bhr92rcd13ifvqhrg","pricing_plan_id":"free"},{"bike_id":"3d1c262e-8ae0-421d-b023-4910e5fbd2fe","system_id":"levelo_inurba_marseille","lat":43.29006,"lon":5.35619,"is_reserved":false,"is_disabled":false,"rental_uris":{"android":"levelo://app?vid=3d1c262e-8ae0-421d-b023-4910e5fbd2fe","ios":"levelo://app?vid=3d1c262e-8ae0-421d-b023-4910e5fbd2fe"},"vehicle_type_id":"4","last_reported":1692641225,"current_range_meters":28000,"station_id":"ce4bhb92rcd13ifvqen0","pricing_plan_id":"free"},{"bike_id":"8331868a-7a6c-4af2-856a-f2cf121e27a8","system_id":"levelo_inurba_marseille","lat":43.290104,"lon":5.356111,"is_reserved":false,"is_disabled":false,"rental_uris":{"android":"levelo://app?vid=8331868a-7a6c-4af2-856a-f2cf121e27a8","ios":"levelo://app?vid=8331868a-7a6c-4af2-856a-f2cf121e27a8"},"vehicle_type_id":"4","last_reported":1692641225,"current_range_meters":9600,"station_id":"ce4bhb92rcd13ifvqen0","pricing_plan_id":"free"},{"bike_id":"de450cac-4370-4660-9455-3e94463307a2","system_id":"levelo_inurba_marseille","lat":43.33042,"lon":5.38922,"is_reserved":false,"is_disabled":false,"rental_uris":{"android":"levelo://app?vid=de450cac-4370-4660-9455-3e94463307a2","ios":"levelo://app?vid=de450cac-4370-4660-9455-3e94463307a2"},"vehicle_type_id":"4","last_reported":1692641225,"current_range_meters":29600,"station_id":"ce4bhr92rcd13ifvqhrg","pricing_plan_id":"free"},{"bike_id":"5516cef1-708c-4b89-b586-e94f6054283d","system_id":"levelo_inurba_marseille","lat":43.29006,"lon":5.35616,"is_reserved":false,"is_disabled":false,"rental_uris":{"android":"levelo://app?vid=5516cef1-708c-4b89-b586-e94f6054283d","ios":"levelo://app?vid=5516cef1-708c-4b89-b586-e94f6054283d"},"vehicle_type_id":"4","last_reported":1692641225,"current_range_meters":17600,"station_id":"ce4bhb92rcd13ifvqen0","pricing_plan_id":"free"},{"bike_id":"e8806db4-8e35-4124-bb22-e765ff07765b","system_id":"levelo_inurba_marseille","lat":43.290104,"lon":5.356111,"is_reserved":false,"is_disabled":false,"rental_uris":{"android":"levelo://app?vid=e8806db4-8e35-4124-bb22-e765ff07765b","ios":"levelo://app?vid=e8806db4-8e35-4124-bb22-e765ff07765b"},"vehicle_type_id":"4","last_reported":1692641225,"current_range_meters":11600,"station_id":"ce4bhb92rcd13ifvqen0","pricing_plan_id":"free"},{"bike_id":"06c04a48-4bee-42b4-ba6e-ac5469bb06b7","system_id":"levelo_inurba_marseille","lat":43.29005,"lon":5.35606,"is_reserved":false,"is_disabled":false,"rental_uris":{"android":"levelo://app?vid=06c04a48-4bee-42b4-ba6e-ac5469bb06b7","ios":"levelo://app?vid=06c04a48-4bee-42b4-ba6e-ac5469bb06b7"},"vehicle_type_id":"4","last_reported":1692641225,"current_range_meters":18000,"station_id":"ce4bhb92rcd13ifvqen0","pricing_plan_id":"free"},{"bike_id":"01718817-6c00-4567-b632-85dbce52ce47","system_id":"levelo_inurba_marseille","lat":43.290104,"lon":5.356111,"is_reserved":false,"is_disabled":false,"rental_uris":{"android":"levelo://app?vid=01718817-6c00-4567-b632-85dbce52ce47","ios":"levelo://app?vid=01718817-6c00-4567-b632-85dbce52ce47"},"vehicle_type_id":"4","last_reported":1692641225,"current_range_meters":21600,"station_id":"ce4bhb92rcd13ifvqen0","pricing_plan_id":"free"},{"bike_id":"ff03c1cd-3b7a-4c6b-9abd-d4e2cc7b6af9","system_id":"levelo_inurba_marseille","lat":43.297815,"lon":5.393548,"is_reserved":false,"is_disabled":false,"rental_uris":{"android":"levelo://app?vid=ff03c1cd-3b7a-4c6b-9abd-d4e2cc7b6af9","ios":"levelo://app?vid=ff03c1cd-3b7a-4c6b-9abd-d4e2cc7b6af9"},"vehicle_type_id":"4","last_reported":1692641225,"current_range_meters":14400,"station_id":"chh1huq6cuj3fo74tm60","pricing_plan_id":"free"},{"bike_id":"f710a5cd-a840-4b91-9c77-35df796c2a6a","system_id":"levelo_inurba_marseille","lat":43.295169,"lon":5.390426,"is_reserved":false,"is_disabled":false,"rental_uris":{"android":"levelo://app?vid=f710a5cd-a840-4b91-9c77-35df796c2a6a","ios":"levelo://app?vid=f710a5cd-a840-4b91-9c77-35df796c2a6a"},"vehicle_type_id":"4","last_reported":1692641225,"current_range_meters":5200,"station_id":"ce4bh3p2rcd13ifvqdp0","pricing_plan_id":"free"},{"bike_id":"1a3efb22-e548-4541-a7b1-48f2f7e5a92a","system_id":"levelo_inurba_marseille","lat":43.295169,"lon":5.390426,"is_reserved":false,"is_disabled":false,"rental_uris":{"android":"levelo://app?vid=1a3efb22-e548-4541-a7b1-48f2f7e5a92a","ios":"levelo://app?vid=1a3efb22-e548-4541-a7b1-48f2f7e5a92a"},"vehicle_type_id":"4","last_reported":1692641225,"current_range_meters":14000,"station_id":"ce4bh3p2rcd13ifvqdp0","pricing_plan_id":"free"},{"bike_id":"e9f60b79-419a-4571-8412-28fd537d29c1","system_id":"levelo_inurba_marseille","lat":43.28856,"lon":5.358371,"is_reserved":false,"is_disabled":false,"rental_uris":{"android":"levelo://app?vid=e9f60b79-419a-4571-8412-28fd537d29c1","ios":"levelo://app?vid=e9f60b79-419a-4571-8412-28fd537d29c1"},"vehicle_type_id":"4","last_reported":1692641225,"current_range_meters":1600,"station_id":"ce4bhb12rcd13ifvqem0","pricing_plan_id":"free"},{"bike_id":"21c13ecf-663b-4e4a-ac19-035599469384","system_id":"levelo_inurba_marseille","lat":43.28856,"lon":5.358371,"is_reserved":false,"is_disabled":false,"rental_uris":{"android":"levelo://app?vid=21c13ecf-663b-4e4a-ac19-035599469384","ios":"levelo://app?vid=21c13ecf-663b-4e4a-ac19-035599469384"},"vehicle_type_id":"4","last_reported":1692641225,"current_range_meters":12400,"station_id":"ce4bhb12rcd13ifvqem0","pricing_plan_id":"free"},{"bike_id":"02e824c3-e587-4576-b9cc-aa779043519f","system_id":"levelo_inurba_marseille","lat":43.309371,"lon":5.401449,"is_reserved":false,"is_disabled":false,"rental_uris":{"android":"levelo://app?vid=02e824c3-e587-4576-b9cc-aa779043519f","ios":"levelo://app?vid=02e824c3-e587-4576-b9cc-aa779043519f"},"vehicle_type_id":"4","last_reported":1692641225,"current_range_meters":3200,"station_id":"ce4bgvp2rcd13ifvqct0","pricing_plan_id":"free"},{"bike_id":"88b39617-b275-4f1e-856f-7b22f37a807d","system_id":"levelo_inurba_marseille","lat":43.31275,"lon":5.40174,"is_reserved":false,"is_disabled":false,"rental_uris":{"android":"levelo://app?vid=88b39617-b275-4f1e-856f-7b22f37a807d","ios":"levelo://app?vid=88b39617-b275-4f1e-856f-7b22f37a807d"},"vehicle_type_id":"4","last_reported":1692641225,"current_range_meters":22000,"station_id":"ce4bh092rcd13ifvqd30","pricing_plan_id":"free"},{"bike_id":"2b3c2309-63e0-4c22-ab36-607f17fc783b","system_id":"levelo_inurba_marseille","lat":43.337499,"lon":5.374716,"is_reserved":false,"is_disabled":false,"rental_uris":{"android":"levelo://app?vid=2b3c2309-63e0-4c22-ab36-607f17fc783b","ios":"levelo://app?vid=2b3c2309-63e0-4c22-ab36-607f17fc783b"},"vehicle_type_id":"4","last_reported":1692641225,"current_range_meters":31200,"station_id":"ce4bhi12rcd13ifvqfo0","pricing_plan_id":"free"},{"bike_id":"0ef13253-b704-412c-acbc-4273a4f4707c","system_id":"levelo_inurba_marseille","lat":43.298681,"lon":5.397225,"is_reserved":false,"is_disabled":false,"rental_uris":{"android":"levelo://app?vid=0ef13253-b704-412c-acbc-4273a4f4707c","ios":"levelo://app?vid=0ef13253-b704-412c-acbc-4273a4f4707c"},"vehicle_type_id":"4","last_reported":1692641225,"current_range_meters":9200,"station_id":"ce4bh0h2rcd13ifvqd50","pricing_plan_id":"free"},{"bike_id":"75199276-b705-4ad7-b6a9-49aeaa84628a","system_id":"levelo_inurba_marseille","lat":43.28668,"lon":5.36348,"is_reserved":false,"is_disabled":false,"rental_uris":{"android":"levelo://app?vid=75199276-b705-4ad7-b6a9-49aeaa84628a","ios":"levelo://app?vid=75199276-b705-4ad7-b6a9-49aeaa84628a"},"vehicle_type_id":"4","last_reported":1692641225,"current_range_meters":30000,"station_id":"ce4bhah2rcd13ifvqej0","pricing_plan_id":"free"},{"bike_id":"56c08a7d-306e-4c22-9131-ebe048bfa807","system_id":"levelo_inurba_marseille","lat":43.286961,"lon":5.373785,"is_reserved":false,"is_disabled":false,"rental_uris":{"android":"levelo://app?vid=56c08a7d-306e-4c22-9131-ebe048bfa807","ios":"levelo://app?vid=56c08a7d-306e-4c22-9131-ebe048bfa807"},"vehicle_type_id":"4","last_reported":1692641225,"current_range_meters":10400,"station_id":"ce4bh3p2rcd13ifvqdq0","pricing_plan_id":"free"},{"bike_id":"eb46ff72-b368-443c-89cb-53b7ce2addc9","system_id":"levelo_inurba_marseille","lat":43.302759,"lon":5.400793,"is_reserved":false,"is_disabled":false,"rental_uris":{"android":"levelo://app?vid=eb46ff72-b368-443c-89cb-53b7ce2addc9","ios":"levelo://app?vid=eb46ff72-b368-443c-89cb-53b7ce2addc9"},"vehicle_type_id":"4","last_reported":1692641225,"current_range_meters":1200,"station_id":"ce4bgvh2rcd13ifvqcs0","pricing_plan_id":"free"},{"bike_id":"3081dd5f-aeef-4808-9e76-b1ae85735852","system_id":"levelo_inurba_marseille","lat":43.286039,"lon":5.370679,"is_reserved":false,"is_disabled":false,"rental_uris":{"android":"levelo://app?vid=3081dd5f-aeef-4808-9e76-b1ae85735852","ios":"levelo://app?vid=3081dd5f-aeef-4808-9e76-b1ae85735852"},"vehicle_type_id":"4","last_reported":1692641225,"current_range_meters":6800,"station_id":"ce4bht12rcd13ifvqi60","pricing_plan_id":"free"},{"bike_id":"893ab0e4-a526-4265-a827-a4403a8551a5","system_id":"levelo_inurba_marseille","lat":43.31638,"lon":5.40418,"is_reserved":false,"is_disabled":false,"rental_uris":{"android":"levelo://app?vid=893ab0e4-a526-4265-a827-a4403a8551a5","ios":"levelo://app?vid=893ab0e4-a526-4265-a827-a4403a8551a5"},"vehicle_type_id":"4","last_reported":1692641225,"current_range_meters":24400,"station_id":"ce4bh012rcd13ifvqd00","pricing_plan_id":"free"},{"bike_id":"2577e0fc-c10e-4e8e-adf4-a694cde4a73f","system_id":"levelo_inurba_marseille","lat":43.316517,"lon":5.404375,"is_reserved":false,"is_disabled":false,"rental_uris":{"android":"levelo://app?vid=2577e0fc-c10e-4e8e-adf4-a694cde4a73f","ios":"levelo://app?vid=2577e0fc-c10e-4e8e-adf4-a694cde4a73f"},"vehicle_type_id":"4","last_reported":1692641225,"current_range_meters":0,"station_id":"ce4bh012rcd13ifvqd00","pricing_plan_id":"free"},{"bike_id":"8dfea3dc-944c-4be4-897a-eab8ec36c884","system_id":"levelo_inurba_marseille","lat":43.31643,"lon":5.40435,"is_reserved":false,"is_disabled":false,"rental_uris":{"android":"levelo://app?vid=8dfea3dc-944c-4be4-897a-eab8ec36c884","ios":"levelo://app?vid=8dfea3dc-944c-4be4-897a-eab8ec36c884"},"vehicle_type_id":"4","last_reported":1692641225,"current_range_meters":26800,"station_id":"ce4bh012rcd13ifvqd00","pricing_plan_id":"free"},{"bike_id":"a9a644a6-b4c2-47a8-abdd-018d04033548","system_id":"levelo_inurba_marseille","lat":43.31645,"lon":5.40437,"is_reserved":false,"is_disabled":false,"rental_uris":{"android":"levelo://app?vid=a9a644a6-b4c2-47a8-abdd-018d04033548","ios":"levelo://app?vid=a9a644a6-b4c2-47a8-abdd-018d04033548"},"vehicle_type_id":"4","last_reported":1692641225,"current_range_meters":10400,"station_id":"ce4bh012rcd13ifvqd00","pricing_plan_id":"free"},{"bike_id":"7da9e437-1e79-4b5f-9ab0-65254ac17dd7","system_id":"levelo_inurba_marseille","lat":43.31647,"lon":5.40443,"is_reserved":false,"is_disabled":false,"rental_uris":{"android":"levelo://app?vid=7da9e437-1e79-4b5f-9ab0-65254ac17dd7","ios":"levelo://app?vid=7da9e437-1e79-4b5f-9ab0-65254ac17dd7"},"vehicle_type_id":"4","last_reported":1692641225,"current_range_meters":16000,"station_id":"ce4bh012rcd13ifvqd00","pricing_plan_id":"free"},{"bike_id":"7eee63a5-0637-466a-855e-14b31a6ad606","system_id":"levelo_inurba_marseille","lat":43.286039,"lon":5.370679,"is_reserved":false,"is_disabled":false,"rental_uris":{"android":"levelo://app?vid=7eee63a5-0637-466a-855e-14b31a6ad606","ios":"levelo://app?vid=7eee63a5-0637-466a-855e-14b31a6ad606"},"vehicle_type_id":"4","last_reported":1692641225,"current_range_meters":18000,"station_id":"ce4bht12rcd13ifvqi60","pricing_plan_id":"free"},{"bike_id":"00840af9-ec53-4896-b6f4-d9387b3f9c8c","system_id":"levelo_inurba_marseille","lat":43.291994,"lon":5.392907,"is_reserved":false,"is_disabled":false,"rental_uris":{"android":"levelo://app?vid=00840af9-ec53-4896-b6f4-d9387b3f9c8c","ios":"levelo://app?vid=00840af9-ec53-4896-b6f4-d9387b3f9c8c"},"vehicle_type_id":"4","last_reported":1692641225,"current_range_meters":24400,"station_id":"ce4bh192rcd13ifvqdd0","pricing_plan_id":"free"},{"bike_id":"1c0ee5b4-5134-4174-aef5-6ebc9092035c","system_id":"levelo_inurba_marseille","lat":43.28469,"lon":5.35883,"is_reserved":false,"is_disabled":false,"rental_uris":{"android":"levelo://app?vid=1c0ee5b4-5134-4174-aef5-6ebc9092035c","ios":"levelo://app?vid=1c0ee5b4-5134-4174-aef5-6ebc9092035c"},"vehicle_type_id":"4","last_reported":1692641225,"current_range_meters":31200,"station_id":"ce4bhah2rcd13ifvqei0","pricing_plan_id":"free"},{"bike_id":"9c9b1105-5247-4816-92d0-f9ed49be8460","system_id":"levelo_inurba_marseille","lat":43.28467,"lon":5.35878,"is_reserved":false,"is_disabled":false,"rental_uris":{"android":"levelo://app?vid=9c9b1105-5247-4816-92d0-f9ed49be8460","ios":"levelo://app?vid=9c9b1105-5247-4816-92d0-f9ed49be8460"},"vehicle_type_id":"4","last_reported":1692641225,"current_range_meters":23200,"station_id":"ce4bhah2rcd13ifvqei0","pricing_plan_id":"free"},{"bike_id":"459ddb22-afd4-4bcd-9490-bc1a2248f2d6","system_id":"levelo_inurba_marseille","lat":43.28458,"lon":5.35901,"is_reserved":false,"is_disabled":false,"rental_uris":{"android":"levelo://app?vid=459ddb22-afd4-4bcd-9490-bc1a2248f2d6","ios":"levelo://app?vid=459ddb22-afd4-4bcd-9490-bc1a2248f2d6"},"vehicle_type_id":"4","last_reported":1692641225,"current_range_meters":31200,"station_id":"ce4bhah2rcd13ifvqei0","pricing_plan_id":"free"},{"bike_id":"c23b93d1-7c7e-4ea9-83eb-10ecfd31c1f8","system_id":"levelo_inurba_marseille","lat":43.294314,"lon":5.397498,"is_reserved":false,"is_disabled":false,"rental_uris":{"android":"levelo://app?vid=c23b93d1-7c7e-4ea9-83eb-10ecfd31c1f8","ios":"levelo://app?vid=c23b93d1-7c7e-4ea9-83eb-10ecfd31c1f8"},"vehicle_type_id":"4","last_reported":1692641225,"current_range_meters":10400,"station_id":"ce4bh3h2rcd13ifvqdo0","pricing_plan_id":"free"},{"bike_id":"35eec3a1-aa54-4990-8eb4-78e6c0dd24d0","system_id":"levelo_inurba_marseille","lat":43.285856,"lon":5.350771,"is_reserved":false,"is_disabled":false,"rental_uris":{"android":"levelo://app?vid=35eec3a1-aa54-4990-8eb4-78e6c0dd24d0","ios":"levelo://app?vid=35eec3a1-aa54-4990-8eb4-78e6c0dd24d0"},"vehicle_type_id":"4","last_reported":1692641225,"current_range_meters":23200,"station_id":"ce4bhch2rcd13ifvqeug","pricing_plan_id":"free"},{"bike_id":"0a887137-b245-4f72-b515-1105499cc6e7","system_id":"levelo_inurba_marseille","lat":43.286202,"lon":5.350944,"is_reserved":false,"is_disabled":false,"rental_uris":{"android":"levelo://app?vid=0a887137-b245-4f72-b515-1105499cc6e7","ios":"levelo://app?vid=0a887137-b245-4f72-b515-1105499cc6e7"},"vehicle_type_id":"4","last_reported":1692641225,"current_range_meters":12800,"station_id":"ce4bhch2rcd13ifvqeug","pricing_plan_id":"free"},{"bike_id":"ccf0db9d-e373-46c5-bd72-9bc28364b12f","system_id":"levelo_inurba_marseille","lat":43.28616,"lon":5.35101,"is_reserved":false,"is_disabled":false,"rental_uris":{"android":"levelo://app?vid=ccf0db9d-e373-46c5-bd72-9bc28364b12f","ios":"levelo://app?vid=ccf0db9d-e373-46c5-bd72-9bc28364b12f"},"vehicle_type_id":"4","last_reported":1692641225,"current_range_meters":25600,"station_id":"ce4bhch2rcd13ifvqeug","pricing_plan_id":"free"},{"bike_id":"649bc70f-52e9-4fb2-bdba-8b41dc2472b0","system_id":"levelo_inurba_marseille","lat":43.28616,"lon":5.35095,"is_reserved":false,"is_disabled":false,"rental_uris":{"android":"levelo://app?vid=649bc70f-52e9-4fb2-bdba-8b41dc2472b0","ios":"levelo://app?vid=649bc70f-52e9-4fb2-bdba-8b41dc2472b0"},"vehicle_type_id":"4","last_reported":1692641225,"current_range_meters":15600,"station_id":"ce4bhch2rcd13ifvqeug","pricing_plan_id":"free"},{"bike_id":"8934f513-846b-4ad1-9ffa-6b5dbdd2cecf","system_id":"levelo_inurba_marseille","lat":43.28613,"lon":5.35097,"is_reserved":false,"is_disabled":false,"rental_uris":{"android":"levelo://app?vid=8934f513-846b-4ad1-9ffa-6b5dbdd2cecf","ios":"levelo://app?vid=8934f513-846b-4ad1-9ffa-6b5dbdd2cecf"},"vehicle_type_id":"4","last_reported":1692641225,"current_range_meters":26000,"station_id":"ce4bhch2rcd13ifvqeug","pricing_plan_id":"free"},{"bike_id":"89041f2d-f088-40d5-bde8-4b249f3dbb9c","system_id":"levelo_inurba_marseille","lat":43.286081,"lon":5.351067,"is_reserved":false,"is_disabled":false,"rental_uris":{"android":"levelo://app?vid=89041f2d-f088-40d5-bde8-4b249f3dbb9c","ios":"levelo://app?vid=89041f2d-f088-40d5-bde8-4b249f3dbb9c"},"vehicle_type_id":"4","last_reported":1692641225,"current_range_meters":28000,"station_id":"ce4bhch2rcd13ifvqeug","pricing_plan_id":"free"},{"bike_id":"84ba8ace-ac18-411b-a29d-9fde0bf960b2","system_id":"levelo_inurba_marseille","lat":43.290345,"lon":5.38646,"is_reserved":false,"is_disabled":false,"rental_uris":{"android":"levelo://app?vid=84ba8ace-ac18-411b-a29d-9fde0bf960b2","ios":"levelo://app?vid=84ba8ace-ac18-411b-a29d-9fde0bf960b2"},"vehicle_type_id":"4","last_reported":1692641225,"current_range_meters":12000,"station_id":"ce4bh4p2rcd13ifvqe0g","pricing_plan_id":"free"},{"bike_id":"9cc0bd65-11e5-46a0-bb74-6284a2bf250d","system_id":"levelo_inurba_marseille","lat":43.28416,"lon":5.37499,"is_reserved":false,"is_disabled":false,"rental_uris":{"android":"levelo://app?vid=9cc0bd65-11e5-46a0-bb74-6284a2bf250d","ios":"levelo://app?vid=9cc0bd65-11e5-46a0-bb74-6284a2bf250d"},"vehicle_type_id":"4","last_reported":1692641225,"current_range_meters":2800,"station_id":"ce4bh412rcd13ifvqds0","pricing_plan_id":"free"},{"bike_id":"2363d3b5-6c15-401a-a59c-ee80bd4af927","system_id":"levelo_inurba_marseille","lat":43.28415,"lon":5.37522,"is_reserved":false,"is_disabled":false,"rental_uris":{"android":"levelo://app?vid=2363d3b5-6c15-401a-a59c-ee80bd4af927","ios":"levelo://app?vid=2363d3b5-6c15-401a-a59c-ee80bd4af927"},"vehicle_type_id":"4","last_reported":1692641225,"current_range_meters":12400,"station_id":"ce4bh412rcd13ifvqds0","pricing_plan_id":"free"},{"bike_id":"ad9dcd56-1efe-48c3-9c96-d85a6d78e401","system_id":"levelo_inurba_marseille","lat":43.2957,"lon":5.39959,"is_reserved":false,"is_disabled":false,"rental_uris":{"android":"levelo://app?vid=ad9dcd56-1efe-48c3-9c96-d85a6d78e401","ios":"levelo://app?vid=ad9dcd56-1efe-48c3-9c96-d85a6d78e401"},"vehicle_type_id":"4","last_reported":1692641225,"current_range_meters":2800,"station_id":"ce4bh312rcd13ifvqdj0","pricing_plan_id":"free"},{"bike_id":"b5c9c973-5a90-4e69-95e3-d2f8663401d8","system_id":"levelo_inurba_marseille","lat":43.286595,"lon":5.386795,"is_reserved":false,"is_disabled":false,"rental_uris":{"android":"levelo://app?vid=b5c9c973-5a90-4e69-95e3-d2f8663401d8","ios":"levelo://app?vid=b5c9c973-5a90-4e69-95e3-d2f8663401d8"},"vehicle_type_id":"4","last_reported":1692641225,"current_range_meters":0,"station_id":"ce4bh492rcd13ifvqdug","pricing_plan_id":"free"},{"bike_id":"79ae07f7-3d9b-456b-927e-8e880eafedba","system_id":"levelo_inurba_marseille","lat":43.32779,"lon":5.40261,"is_reserved":false,"is_disabled":false,"rental_uris":{"android":"levelo://app?vid=79ae07f7-3d9b-456b-927e-8e880eafedba","ios":"levelo://app?vid=79ae07f7-3d9b-456b-927e-8e880eafedba"},"vehicle_type_id":"4","last_reported":1692641225,"current_range_meters":2400,"station_id":"","pricing_plan_id":"free"},{"bike_id":"530ea5bb-3689-40a2-8dc2-7bb2107fe6f6","system_id":"levelo_inurba_marseille","lat":43.2849,"lon":5.38428,"is_reserved":false,"is_disabled":false,"rental_uris":{"android":"levelo://app?vid=530ea5bb-3689-40a2-8dc2-7bb2107fe6f6","ios":"levelo://app?vid=530ea5bb-3689-40a2-8dc2-7bb2107fe6f6"},"vehicle_type_id":"4","last_reported":1692641225,"current_range_meters":28000,"station_id":"ce4bh512rcd13ifvqe3g","pricing_plan_id":"free"},{"bike_id":"81207e02-e329-4cea-9b6c-33ba9c0267d2","system_id":"levelo_inurba_marseille","lat":43.28477,"lon":5.38401,"is_reserved":false,"is_disabled":false,"rental_uris":{"android":"levelo://app?vid=81207e02-e329-4cea-9b6c-33ba9c0267d2","ios":"levelo://app?vid=81207e02-e329-4cea-9b6c-33ba9c0267d2"},"vehicle_type_id":"4","last_reported":1692641225,"current_range_meters":30800,"station_id":"ce4bh512rcd13ifvqe3g","pricing_plan_id":"free"},{"bike_id":"2a186fc4-80a3-4812-82a5-b19b4b0d1e03","system_id":"levelo_inurba_marseille","lat":43.288497,"lon":5.393089,"is_reserved":false,"is_disabled":false,"rental_uris":{"android":"levelo://app?vid=2a186fc4-80a3-4812-82a5-b19b4b0d1e03","ios":"levelo://app?vid=2a186fc4-80a3-4812-82a5-b19b4b0d1e03"},"vehicle_type_id":"4","last_reported":1692641225,"current_range_meters":6400,"station_id":"ce4bh2p2rcd13ifvqdi0","pricing_plan_id":"free"},{"bike_id":"44f7f181-ba52-4d9a-ba6b-274a06331fc9","system_id":"levelo_inurba_marseille","lat":43.284219,"lon":5.3497,"is_reserved":false,"is_disabled":false,"rental_uris":{"android":"levelo://app?vid=44f7f181-ba52-4d9a-ba6b-274a06331fc9","ios":"levelo://app?vid=44f7f181-ba52-4d9a-ba6b-274a06331fc9"},"vehicle_type_id":"4","last_reported":1692641225,"current_range_meters":28000,"station_id":"ce4bhbh2rcd13ifvqepg","pricing_plan_id":"free"},{"bike_id":"698ab797-ef60-4f98-9aab-b01314902426","system_id":"levelo_inurba_marseille","lat":43.284219,"lon":5.3497,"is_reserved":false,"is_disabled":false,"rental_uris":{"android":"levelo://app?vid=698ab797-ef60-4f98-9aab-b01314902426","ios":"levelo://app?vid=698ab797-ef60-4f98-9aab-b01314902426"},"vehicle_type_id":"4","last_reported":1692641225,"current_range_meters":7200,"station_id":"ce4bhbh2rcd13ifvqepg","pricing_plan_id":"free"},{"bike_id":"89c96caf-e2f2-4b40-a403-8ad58ac97d5c","system_id":"levelo_inurba_marseille","lat":43.284217,"lon":5.349697,"is_reserved":false,"is_disabled":false,"rental_uris":{"android":"levelo://app?vid=89c96caf-e2f2-4b40-a403-8ad58ac97d5c","ios":"levelo://app?vid=89c96caf-e2f2-4b40-a403-8ad58ac97d5c"},"vehicle_type_id":"4","last_reported":1692641225,"current_range_meters":27600,"station_id":"ce4bhbh2rcd13ifvqepg","pricing_plan_id":"free"},{"bike_id":"b14bf781-e814-41c1-8087-85dc1ae6b8c4","system_id":"levelo_inurba_marseille","lat":43.284219,"lon":5.3497,"is_reserved":false,"is_disabled":false,"rental_uris":{"android":"levelo://app?vid=b14bf781-e814-41c1-8087-85dc1ae6b8c4","ios":"levelo://app?vid=b14bf781-e814-41c1-8087-85dc1ae6b8c4"},"vehicle_type_id":"4","last_reported":1692641225,"current_range_meters":31200,"station_id":"ce4bhbh2rcd13ifvqepg","pricing_plan_id":"free"},{"bike_id":"dbe01606-0d1e-4afd-9950-384df2ddb610","system_id":"levelo_inurba_marseille","lat":43.284219,"lon":5.3497,"is_reserved":false,"is_disabled":false,"rental_uris":{"android":"levelo://app?vid=dbe01606-0d1e-4afd-9950-384df2ddb610","ios":"levelo://app?vid=dbe01606-0d1e-4afd-9950-384df2ddb610"},"vehicle_type_id":"4","last_reported":1692641225,"current_range_meters":31200,"station_id":"ce4bhbh2rcd13ifvqepg","pricing_plan_id":"free"},{"bike_id":"3ead90b0-79b2-4895-9723-b16f6a8453b4","system_id":"levelo_inurba_marseille","lat":43.28419,"lon":5.34982,"is_reserved":false,"is_disabled":false,"rental_uris":{"android":"levelo://app?vid=3ead90b0-79b2-4895-9723-b16f6a8453b4","ios":"levelo://app?vid=3ead90b0-79b2-4895-9723-b16f6a8453b4"},"vehicle_type_id":"4","last_reported":1692641225,"current_range_meters":25600,"station_id":"ce4bhbh2rcd13ifvqepg","pricing_plan_id":"free"},{"bike_id":"fd1bc6b0-fe7f-4f07-8e6b-9d9d94031d71","system_id":"levelo_inurba_marseille","lat":43.284217,"lon":5.349697,"is_reserved":false,"is_disabled":false,"rental_uris":{"android":"levelo://app?vid=fd1bc6b0-fe7f-4f07-8e6b-9d9d94031d71","ios":"levelo://app?vid=fd1bc6b0-fe7f-4f07-8e6b-9d9d94031d71"},"vehicle_type_id":"4","last_reported":1692641225,"current_range_meters":18000,"station_id":"ce4bhbh2rcd13ifvqepg","pricing_plan_id":"free"},{"bike_id":"df31e67e-e4f2-442c-baeb-4c2f40a88a96","system_id":"levelo_inurba_marseille","lat":43.28416,"lon":5.349851,"is_reserved":false,"is_disabled":false,"rental_uris":{"android":"levelo://app?vid=df31e67e-e4f2-442c-baeb-4c2f40a88a96","ios":"levelo://app?vid=df31e67e-e4f2-442c-baeb-4c2f40a88a96"},"vehicle_type_id":"4","last_reported":1692641225,"current_range_meters":29600,"station_id":"ce4bhbh2rcd13ifvqepg","pricing_plan_id":"free"},{"bike_id":"b6433c5c-5caf-476c-bbbd-891c661cc63b","system_id":"levelo_inurba_marseille","lat":43.284219,"lon":5.3497,"is_reserved":false,"is_disabled":false,"rental_uris":{"android":"levelo://app?vid=b6433c5c-5caf-476c-bbbd-891c661cc63b","ios":"levelo://app?vid=b6433c5c-5caf-476c-bbbd-891c661cc63b"},"vehicle_type_id":"4","last_reported":1692641225,"current_range_meters":31200,"station_id":"ce4bhbh2rcd13ifvqepg","pricing_plan_id":"free"},{"bike_id":"7087af9d-dd10-4f3a-9400-8cce993dca76","system_id":"levelo_inurba_marseille","lat":43.284217,"lon":5.349697,"is_reserved":false,"is_disabled":false,"rental_uris":{"android":"levelo://app?vid=7087af9d-dd10-4f3a-9400-8cce993dca76","ios":"levelo://app?vid=7087af9d-dd10-4f3a-9400-8cce993dca76"},"vehicle_type_id":"4","last_reported":1692641225,"current_range_meters":18400,"station_id":"ce4bhbh2rcd13ifvqepg","pricing_plan_id":"free"},{"bike_id":"6dd2cbf0-f4a9-4031-9e0f-e10c53b3c426","system_id":"levelo_inurba_marseille","lat":43.28412,"lon":5.34979,"is_reserved":false,"is_disabled":false,"rental_uris":{"android":"levelo://app?vid=6dd2cbf0-f4a9-4031-9e0f-e10c53b3c426","ios":"levelo://app?vid=6dd2cbf0-f4a9-4031-9e0f-e10c53b3c426"},"vehicle_type_id":"4","last_reported":1692641225,"current_range_meters":31200,"station_id":"ce4bhbh2rcd13ifvqepg","pricing_plan_id":"free"},{"bike_id":"cb24dd4e-f105-4064-a5b2-431f0c78596b","system_id":"levelo_inurba_marseille","lat":43.28408,"lon":5.34983,"is_reserved":false,"is_disabled":false,"rental_uris":{"android":"levelo://app?vid=cb24dd4e-f105-4064-a5b2-431f0c78596b","ios":"levelo://app?vid=cb24dd4e-f105-4064-a5b2-431f0c78596b"},"vehicle_type_id":"4","last_reported":1692641225,"current_range_meters":21600,"station_id":"ce4bhbh2rcd13ifvqepg","pricing_plan_id":"free"},{"bike_id":"856d3f4f-888e-48c5-9a30-37a0a4400241","system_id":"levelo_inurba_marseille","lat":43.284219,"lon":5.3497,"is_reserved":false,"is_disabled":false,"rental_uris":{"android":"levelo://app?vid=856d3f4f-888e-48c5-9a30-37a0a4400241","ios":"levelo://app?vid=856d3f4f-888e-48c5-9a30-37a0a4400241"},"vehicle_type_id":"4","last_reported":1692641225,"current_range_meters":23200,"station_id":"ce4bhbh2rcd13ifvqepg","pricing_plan_id":"free"},{"bike_id":"f50aca5f-cf5b-4020-925f-826a2e34874f","system_id":"levelo_inurba_marseille","lat":43.289363,"lon":5.396322,"is_reserved":false,"is_disabled":false,"rental_uris":{"android":"levelo://app?vid=f50aca5f-cf5b-4020-925f-826a2e34874f","ios":"levelo://app?vid=f50aca5f-cf5b-4020-925f-826a2e34874f"},"vehicle_type_id":"4","last_reported":1692641225,"current_range_meters":31200,"station_id":"ce4bh3h2rcd13ifvqdn0","pricing_plan_id":"free"},{"bike_id":"5cec26ac-344f-432b-af34-450b75305b9b","system_id":"levelo_inurba_marseille","lat":43.292724,"lon":5.401131,"is_reserved":false,"is_disabled":false,"rental_uris":{"android":"levelo://app?vid=5cec26ac-344f-432b-af34-450b75305b9b","ios":"levelo://app?vid=5cec26ac-344f-432b-af34-450b75305b9b"},"vehicle_type_id":"4","last_reported":1692641225,"current_range_meters":31200,"station_id":"ce4bh312rcd13ifvqdk0","pricing_plan_id":"free"},{"bike_id":"f3e6ded5-81ee-44c0-ba9f-268afa5cfe9f","system_id":"levelo_inurba_marseille","lat":43.28271,"lon":5.35071,"is_reserved":false,"is_disabled":false,"rental_uris":{"android":"levelo://app?vid=f3e6ded5-81ee-44c0-ba9f-268afa5cfe9f","ios":"levelo://app?vid=f3e6ded5-81ee-44c0-ba9f-268afa5cfe9f"},"vehicle_type_id":"4","last_reported":1692641225,"current_range_meters":13200,"station_id":"ce4bhbp2rcd13ifvqerg","pricing_plan_id":"free"},{"bike_id":"d6e30829-5ddb-4986-b357-39519611bba9","system_id":"levelo_inurba_marseille","lat":43.28273,"lon":5.35064,"is_reserved":false,"is_disabled":false,"rental_uris":{"android":"levelo://app?vid=d6e30829-5ddb-4986-b357-39519611bba9","ios":"levelo://app?vid=d6e30829-5ddb-4986-b357-39519611bba9"},"vehicle_type_id":"4","last_reported":1692641225,"current_range_meters":24800,"station_id":"ce4bhbp2rcd13ifvqerg","pricing_plan_id":"free"},{"bike_id":"89ec6284-bb44-4c49-b024-6bd9e96ee57c","system_id":"levelo_inurba_marseille","lat":43.28272,"lon":5.35059,"is_reserved":false,"is_disabled":false,"rental_uris":{"android":"levelo://app?vid=89ec6284-bb44-4c49-b024-6bd9e96ee57c","ios":"levelo://app?vid=89ec6284-bb44-4c49-b024-6bd9e96ee57c"},"vehicle_type_id":"4","last_reported":1692641225,"current_range_meters":13600,"station_id":"ce4bhbp2rcd13ifvqerg","pricing_plan_id":"free"},{"bike_id":"69e586f7-9c42-45a5-ae52-87f7e102516c","system_id":"levelo_inurba_marseille","lat":43.2827,"lon":5.35063,"is_reserved":false,"is_disabled":false,"rental_uris":{"android":"levelo://app?vid=69e586f7-9c42-45a5-ae52-87f7e102516c","ios":"levelo://app?vid=69e586f7-9c42-45a5-ae52-87f7e102516c"},"vehicle_type_id":"4","last_reported":1692641225,"current_range_meters":14800,"station_id":"ce4bhbp2rcd13ifvqerg","pricing_plan_id":"free"},{"bike_id":"4e64f514-84a0-4e1c-a0ee-9bd00d133462","system_id":"levelo_inurba_marseille","lat":43.282744,"lon":5.350533,"is_reserved":false,"is_disabled":false,"rental_uris":{"android":"levelo://app?vid=4e64f514-84a0-4e1c-a0ee-9bd00d133462","ios":"levelo://app?vid=4e64f514-84a0-4e1c-a0ee-9bd00d133462"},"vehicle_type_id":"4","last_reported":1692641225,"current_range_meters":25200,"station_id":"ce4bhbp2rcd13ifvqerg","pricing_plan_id":"free"},{"bike_id":"e6658042-f10e-49f0-9dc4-fccce98c5a6c","system_id":"levelo_inurba_marseille","lat":43.28268,"lon":5.35057,"is_reserved":false,"is_disabled":false,"rental_uris":{"android":"levelo://app?vid=e6658042-f10e-49f0-9dc4-fccce98c5a6c","ios":"levelo://app?vid=e6658042-f10e-49f0-9dc4-fccce98c5a6c"},"vehicle_type_id":"4","last_reported":1692641225,"current_range_meters":31200,"station_id":"ce4bhbp2rcd13ifvqerg","pricing_plan_id":"free"},{"bike_id":"b452cc7b-a8f7-4c41-97b3-fc52d796184f","system_id":"levelo_inurba_marseille","lat":43.282639,"lon":5.350661,"is_reserved":false,"is_disabled":false,"rental_uris":{"android":"levelo://app?vid=b452cc7b-a8f7-4c41-97b3-fc52d796184f","ios":"levelo://app?vid=b452cc7b-a8f7-4c41-97b3-fc52d796184f"},"vehicle_type_id":"4","last_reported":1692641225,"current_range_meters":31200,"station_id":"ce4bhbp2rcd13ifvqerg","pricing_plan_id":"free"},{"bike_id":"fe0b17e6-32d2-4331-ab72-e88c4403aa9b","system_id":"levelo_inurba_marseille","lat":43.282744,"lon":5.350533,"is_reserved":false,"is_disabled":false,"rental_uris":{"android":"levelo://app?vid=fe0b17e6-32d2-4331-ab72-e88c4403aa9b","ios":"levelo://app?vid=fe0b17e6-32d2-4331-ab72-e88c4403aa9b"},"vehicle_type_id":"4","last_reported":1692641225,"current_range_meters":16400,"station_id":"ce4bhbp2rcd13ifvqerg","pricing_plan_id":"free"},{"bike_id":"9f46cfde-4f76-4076-bade-5765c2d3d473","system_id":"levelo_inurba_marseille","lat":43.28039,"lon":5.369297,"is_reserved":false,"is_disabled":false,"rental_uris":{"android":"levelo://app?vid=9f46cfde-4f76-4076-bade-5765c2d3d473","ios":"levelo://app?vid=9f46cfde-4f76-4076-bade-5765c2d3d473"},"vehicle_type_id":"4","last_reported":1692641225,"current_range_meters":31600,"station_id":"ce4bha12rcd13ifvqef0","pricing_plan_id":"free"},{"bike_id":"6d8ba45d-29ea-4b44-9bfd-60857a83d912","system_id":"levelo_inurba_marseille","lat":43.28039,"lon":5.369297,"is_reserved":false,"is_disabled":false,"rental_uris":{"android":"levelo://app?vid=6d8ba45d-29ea-4b44-9bfd-60857a83d912","ios":"levelo://app?vid=6d8ba45d-29ea-4b44-9bfd-60857a83d912"},"vehicle_type_id":"4","last_reported":1692641225,"current_range_meters":7600,"station_id":"ce4bha12rcd13ifvqef0","pricing_plan_id":"free"},{"bike_id":"982cd7d8-0878-4cae-9ecf-41bb2d8ff1e0","system_id":"levelo_inurba_marseille","lat":43.28039,"lon":5.369297,"is_reserved":false,"is_disabled":false,"rental_uris":{"android":"levelo://app?vid=982cd7d8-0878-4cae-9ecf-41bb2d8ff1e0","ios":"levelo://app?vid=982cd7d8-0878-4cae-9ecf-41bb2d8ff1e0"},"vehicle_type_id":"4","last_reported":1692641225,"current_range_meters":28000,"station_id":"ce4bha12rcd13ifvqef0","pricing_plan_id":"free"},{"bike_id":"4be1ee8b-191b-46dd-88fc-1f7360a9c1f4","system_id":"levelo_inurba_marseille","lat":43.28266,"lon":5.35049,"is_reserved":false,"is_disabled":false,"rental_uris":{"android":"levelo://app?vid=4be1ee8b-191b-46dd-88fc-1f7360a9c1f4","ios":"levelo://app?vid=4be1ee8b-191b-46dd-88fc-1f7360a9c1f4"},"vehicle_type_id":"4","last_reported":1692641225,"current_range_meters":13200,"station_id":"ce4bhbp2rcd13ifvqerg","pricing_plan_id":"free"},{"bike_id":"1f9ed3da-3e62-4f6b-9182-d538393d09b1","system_id":"levelo_inurba_marseille","lat":43.28259,"lon":5.35063,"is_reserved":false,"is_disabled":false,"rental_uris":{"android":"levelo://app?vid=1f9ed3da-3e62-4f6b-9182-d538393d09b1","ios":"levelo://app?vid=1f9ed3da-3e62-4f6b-9182-d538393d09b1"},"vehicle_type_id":"4","last_reported":1692641225,"current_range_meters":18000,"station_id":"ce4bhbp2rcd13ifvqerg","pricing_plan_id":"free"},{"bike_id":"88940920-727e-47f8-bee6-24feedff1167","system_id":"levelo_inurba_marseille","lat":43.282744,"lon":5.350533,"is_reserved":false,"is_disabled":false,"rental_uris":{"android":"levelo://app?vid=88940920-727e-47f8-bee6-24feedff1167","ios":"levelo://app?vid=88940920-727e-47f8-bee6-24feedff1167"},"vehicle_type_id":"4","last_reported":1692641225,"current_range_meters":30400,"station_id":"ce4bhbp2rcd13ifvqerg","pricing_plan_id":"free"},{"bike_id":"3f537818-6ffb-4e5e-bb6f-db42ef3e6481","system_id":"levelo_inurba_marseille","lat":43.28262,"lon":5.35049,"is_reserved":false,"is_disabled":false,"rental_uris":{"android":"levelo://app?vid=3f537818-6ffb-4e5e-bb6f-db42ef3e6481","ios":"levelo://app?vid=3f537818-6ffb-4e5e-bb6f-db42ef3e6481"},"vehicle_type_id":"4","last_reported":1692641225,"current_range_meters":31200,"station_id":"ce4bhbp2rcd13ifvqerg","pricing_plan_id":"free"},{"bike_id":"83749760-9456-4fc5-b2a3-f81939c7bf3d","system_id":"levelo_inurba_marseille","lat":43.28265,"lon":5.35032,"is_reserved":false,"is_disabled":false,"rental_uris":{"android":"levelo://app?vid=83749760-9456-4fc5-b2a3-f81939c7bf3d","ios":"levelo://app?vid=83749760-9456-4fc5-b2a3-f81939c7bf3d"},"vehicle_type_id":"4","last_reported":1692641225,"current_range_meters":12400,"station_id":"ce4bhbp2rcd13ifvqerg","pricing_plan_id":"free"},{"bike_id":"79c52a60-005b-4a1d-917a-1429a7c432bd","system_id":"levelo_inurba_marseille","lat":43.28039,"lon":5.369297,"is_reserved":false,"is_disabled":false,"rental_uris":{"android":"levelo://app?vid=79c52a60-005b-4a1d-917a-1429a7c432bd","ios":"levelo://app?vid=79c52a60-005b-4a1d-917a-1429a7c432bd"},"vehicle_type_id":"4","last_reported":1692641225,"current_range_meters":10000,"station_id":"ce4bha12rcd13ifvqef0","pricing_plan_id":"free"},{"bike_id":"d93b23b9-c355-47fa-8b81-fe56be9630cb","system_id":"levelo_inurba_marseille","lat":43.29041,"lon":5.399634,"is_reserved":false,"is_disabled":false,"rental_uris":{"android":"levelo://app?vid=d93b23b9-c355-47fa-8b81-fe56be9630cb","ios":"levelo://app?vid=d93b23b9-c355-47fa-8b81-fe56be9630cb"},"vehicle_type_id":"4","last_reported":1692641225,"current_range_meters":17200,"station_id":"ce4bh392rcd13ifvqdm0","pricing_plan_id":"free"},{"bike_id":"2517cafd-e76e-4af7-871b-8f1bb47c4fa6","system_id":"levelo_inurba_marseille","lat":43.28111,"lon":5.37836,"is_reserved":false,"is_disabled":false,"rental_uris":{"android":"levelo://app?vid=2517cafd-e76e-4af7-871b-8f1bb47c4fa6","ios":"levelo://app?vid=2517cafd-e76e-4af7-871b-8f1bb47c4fa6"},"vehicle_type_id":"4","last_reported":1692641225,"current_range_meters":23200,"station_id":"ce4bha12rcd13ifvqee0","pricing_plan_id":"free"},{"bike_id":"2fcf1176-8ce9-4b20-ae1a-2fb4c66bc9e1","system_id":"levelo_inurba_marseille","lat":43.281044,"lon":5.378308,"is_reserved":false,"is_disabled":false,"rental_uris":{"android":"levelo://app?vid=2fcf1176-8ce9-4b20-ae1a-2fb4c66bc9e1","ios":"levelo://app?vid=2fcf1176-8ce9-4b20-ae1a-2fb4c66bc9e1"},"vehicle_type_id":"4","last_reported":1692641225,"current_range_meters":2400,"station_id":"ce4bha12rcd13ifvqee0","pricing_plan_id":"free"},{"bike_id":"bd3562bb-0418-4e5f-bb91-59d8dd7b0fe2","system_id":"levelo_inurba_marseille","lat":43.281044,"lon":5.378308,"is_reserved":false,"is_disabled":false,"rental_uris":{"android":"levelo://app?vid=bd3562bb-0418-4e5f-bb91-59d8dd7b0fe2","ios":"levelo://app?vid=bd3562bb-0418-4e5f-bb91-59d8dd7b0fe2"},"vehicle_type_id":"4","last_reported":1692641225,"current_range_meters":25600,"station_id":"ce4bha12rcd13ifvqee0","pricing_plan_id":"free"},{"bike_id":"90af3554-1d61-4d95-b70c-567c753c696c","system_id":"levelo_inurba_marseille","lat":43.28573,"lon":5.394992,"is_reserved":false,"is_disabled":false,"rental_uris":{"android":"levelo://app?vid=90af3554-1d61-4d95-b70c-567c753c696c","ios":"levelo://app?vid=90af3554-1d61-4d95-b70c-567c753c696c"},"vehicle_type_id":"4","last_reported":1692641225,"current_range_meters":16800,"station_id":"ce4bh292rcd13ifvqdg0","pricing_plan_id":"free"},{"bike_id":"f8ef4f78-badc-40d1-a4a9-077301466e56","system_id":"levelo_inurba_marseille","lat":43.32662,"lon":5.40978,"is_reserved":false,"is_disabled":false,"rental_uris":{"android":"levelo://app?vid=f8ef4f78-badc-40d1-a4a9-077301466e56","ios":"levelo://app?vid=f8ef4f78-badc-40d1-a4a9-077301466e56"},"vehicle_type_id":"4","last_reported":1692641225,"current_range_meters":4400,"station_id":"ce4bhpp2rcd13ifvqhgg","pricing_plan_id":"free"},{"bike_id":"051066a4-4242-4e92-8fd4-c4e2308ce6c4","system_id":"levelo_inurba_marseille","lat":43.32659,"lon":5.40988,"is_reserved":false,"is_disabled":false,"rental_uris":{"android":"levelo://app?vid=051066a4-4242-4e92-8fd4-c4e2308ce6c4","ios":"levelo://app?vid=051066a4-4242-4e92-8fd4-c4e2308ce6c4"},"vehicle_type_id":"4","last_reported":1692641225,"current_range_meters":23200,"station_id":"ce4bhpp2rcd13ifvqhgg","pricing_plan_id":"free"},{"bike_id":"7a98bccc-8a3f-4505-9493-78e8dd7108a5","system_id":"levelo_inurba_marseille","lat":43.3266,"lon":5.40988,"is_reserved":false,"is_disabled":false,"rental_uris":{"android":"levelo://app?vid=7a98bccc-8a3f-4505-9493-78e8dd7108a5","ios":"levelo://app?vid=7a98bccc-8a3f-4505-9493-78e8dd7108a5"},"vehicle_type_id":"4","last_reported":1692641225,"current_range_meters":29200,"station_id":"ce4bhpp2rcd13ifvqhgg","pricing_plan_id":"free"},{"bike_id":"98ed81c1-d567-4fc5-aeb2-dbe76283fa86","system_id":"levelo_inurba_marseille","lat":43.326605,"lon":5.409903,"is_reserved":false,"is_disabled":false,"rental_uris":{"android":"levelo://app?vid=98ed81c1-d567-4fc5-aeb2-dbe76283fa86","ios":"levelo://app?vid=98ed81c1-d567-4fc5-aeb2-dbe76283fa86"},"vehicle_type_id":"4","last_reported":1692641225,"current_range_meters":20000,"station_id":"ce4bhpp2rcd13ifvqhgg","pricing_plan_id":"free"},{"bike_id":"7f0241e7-ed65-4d03-85df-e60fe750d96e","system_id":"levelo_inurba_marseille","lat":43.32659,"lon":5.40993,"is_reserved":false,"is_disabled":false,"rental_uris":{"android":"levelo://app?vid=7f0241e7-ed65-4d03-85df-e60fe750d96e","ios":"levelo://app?vid=7f0241e7-ed65-4d03-85df-e60fe750d96e"},"vehicle_type_id":"4","last_reported":1692641225,"current_range_meters":10400,"station_id":"ce4bhpp2rcd13ifvqhgg","pricing_plan_id":"free"},{"bike_id":"d5624972-c4f3-4156-8a96-e7683769311b","system_id":"levelo_inurba_marseille","lat":43.32658,"lon":5.40995,"is_reserved":false,"is_disabled":false,"rental_uris":{"android":"levelo://app?vid=d5624972-c4f3-4156-8a96-e7683769311b","ios":"levelo://app?vid=d5624972-c4f3-4156-8a96-e7683769311b"},"vehicle_type_id":"4","last_reported":1692641225,"current_range_meters":13200,"station_id":"ce4bhpp2rcd13ifvqhgg","pricing_plan_id":"free"},{"bike_id":"a428838b-70a2-4c83-bb74-6b21fa1b3ac5","system_id":"levelo_inurba_marseille","lat":43.320045,"lon":5.415046,"is_reserved":false,"is_disabled":false,"rental_uris":{"android":"levelo://app?vid=a428838b-70a2-4c83-bb74-6b21fa1b3ac5","ios":"levelo://app?vid=a428838b-70a2-4c83-bb74-6b21fa1b3ac5"},"vehicle_type_id":"4","last_reported":1692641225,"current_range_meters":24000,"station_id":"ce4bhq92rcd13ifvqhkg","pricing_plan_id":"free"},{"bike_id":"191e069a-530b-4007-977d-c74d1229d53e","system_id":"levelo_inurba_marseille","lat":43.320045,"lon":5.415048,"is_reserved":false,"is_disabled":false,"rental_uris":{"android":"levelo://app?vid=191e069a-530b-4007-977d-c74d1229d53e","ios":"levelo://app?vid=191e069a-530b-4007-977d-c74d1229d53e"},"vehicle_type_id":"4","last_reported":1692641225,"current_range_meters":31200,"station_id":"ce4bhq92rcd13ifvqhkg","pricing_plan_id":"free"},{"bike_id":"4b23f722-6d25-44c9-ade0-b8200ccf445b","system_id":"levelo_inurba_marseille","lat":43.320045,"lon":5.415048,"is_reserved":false,"is_disabled":false,"rental_uris":{"android":"levelo://app?vid=4b23f722-6d25-44c9-ade0-b8200ccf445b","ios":"levelo://app?vid=4b23f722-6d25-44c9-ade0-b8200ccf445b"},"vehicle_type_id":"4","last_reported":1692641225,"current_range_meters":400,"station_id":"ce4bhq92rcd13ifvqhkg","pricing_plan_id":"free"},{"bike_id":"349955f8-b21c-46f5-8ff0-f5a4da685e45","system_id":"levelo_inurba_marseille","lat":43.320045,"lon":5.415046,"is_reserved":false,"is_disabled":false,"rental_uris":{"android":"levelo://app?vid=349955f8-b21c-46f5-8ff0-f5a4da685e45","ios":"levelo://app?vid=349955f8-b21c-46f5-8ff0-f5a4da685e45"},"vehicle_type_id":"4","last_reported":1692641225,"current_range_meters":31600,"station_id":"ce4bhq92rcd13ifvqhkg","pricing_plan_id":"free"},{"bike_id":"c327718a-8fe6-4791-a349-aba0f8f94e82","system_id":"levelo_inurba_marseille","lat":43.279742,"lon":5.38744,"is_reserved":false,"is_disabled":false,"rental_uris":{"android":"levelo://app?vid=c327718a-8fe6-4791-a349-aba0f8f94e82","ios":"levelo://app?vid=c327718a-8fe6-4791-a349-aba0f8f94e82"},"vehicle_type_id":"4","last_reported":1692641225,"current_range_meters":25600,"station_id":"ce4bhg12rcd13ifvqf80","pricing_plan_id":"free"},{"bike_id":"a6dffeed-e5db-4806-b149-0cf2f7d1fd46","system_id":"levelo_inurba_marseille","lat":43.32539,"lon":5.41422,"is_reserved":false,"is_disabled":false,"rental_uris":{"android":"levelo://app?vid=a6dffeed-e5db-4806-b149-0cf2f7d1fd46","ios":"levelo://app?vid=a6dffeed-e5db-4806-b149-0cf2f7d1fd46"},"vehicle_type_id":"4","last_reported":1692641225,"current_range_meters":22000,"station_id":"ce4bhq12rcd13ifvqhhg","pricing_plan_id":"free"},{"bike_id":"452b7a74-55d8-4254-ad5f-8533bb2a425d","system_id":"levelo_inurba_marseille","lat":43.2763,"lon":5.36109,"is_reserved":false,"is_disabled":false,"rental_uris":{"android":"levelo://app?vid=452b7a74-55d8-4254-ad5f-8533bb2a425d","ios":"levelo://app?vid=452b7a74-55d8-4254-ad5f-8533bb2a425d"},"vehicle_type_id":"4","last_reported":1692641225,"current_range_meters":31600,"station_id":"ce4bgj92rcd13ifvqbe0","pricing_plan_id":"free"},{"bike_id":"442317df-32c5-4a34-be6c-70bbbe502d57","system_id":"levelo_inurba_marseille","lat":43.276261,"lon":5.361137,"is_reserved":false,"is_disabled":false,"rental_uris":{"android":"levelo://app?vid=442317df-32c5-4a34-be6c-70bbbe502d57","ios":"levelo://app?vid=442317df-32c5-4a34-be6c-70bbbe502d57"},"vehicle_type_id":"4","last_reported":1692641225,"current_range_meters":16000,"station_id":"ce4bgj92rcd13ifvqbe0","pricing_plan_id":"free"},{"bike_id":"08aaa3a1-5b90-4299-9ffb-73d9bc2dfa14","system_id":"levelo_inurba_marseille","lat":43.29259,"lon":5.40912,"is_reserved":false,"is_disabled":false,"rental_uris":{"android":"levelo://app?vid=08aaa3a1-5b90-4299-9ffb-73d9bc2dfa14","ios":"levelo://app?vid=08aaa3a1-5b90-4299-9ffb-73d9bc2dfa14"},"vehicle_type_id":"4","last_reported":1692641225,"current_range_meters":19200,"station_id":"ce4bh192rcd13ifvqdc0","pricing_plan_id":"free"},