{"last_updated":1750547413,"ttl":60,"version":"2.2","data":{"bikes":[{"bike_id":"3da29fb8-fc97-44c6-b9ac-31dd456b2fd4","system_id":"levelo_inurba_marseille","lat":43.33771,"lon":5.37424,"is_reserved":false,"is_disabled":true,"rental_uris":{"android":"levelo://app?vid=3da29fb8-fc97-44c6-b9ac-31dd456b2fd4","ios":"levelo://app?vid=3da29fb8-fc97-44c6-b9ac-31dd456b2fd4"},"vehicle_type_id":"4","last_reported":1750547414,"current_range_meters":0,"station_id":"","pricing_plan_id":"cebpf4jnsgd1na2vs0mg"},{"bike_id":"01861ad8-a8d7-4be6-816e-651927c87584","system_id":"levelo_inurba_marseille","lat":43.33751,"lon":5.37456,"is_reserved":false,"is_disabled":true,"rental_uris":{"android":"levelo://app?vid=01861ad8-a8d7-4be6-816e-651927c87584","ios":"levelo://app?vid=01861ad8-a8d7-4be6-816e-651927c87584"},"vehicle_type_id":"4","last_reported":1750547414,"current_range_meters":0,"station_id":"","pricing_plan_id":"cebpf4jnsgd1na2vs0mg"},{"bike_id":"20ee840c-1865-4733-b6b5-924f858cdb9a","system_id":"levelo_inurba_marseille","lat":43.293023,"lon":5.374607,"is_reserved":false,"is_disabled":false,"rental_uris":{"android":"levelo://app?vid=20ee840c-1865-4733-b6b5-924f858cdb9a","ios":"levelo://app?vid=20ee840c-1865-4733-b6b5-924f858cdb9a"},"vehicle_type_id":"4","last_reported":1750547414,"current_range_meters":0,"station_id":"","pricing_plan_id":"cebpf4jnsgd1na2vs0mg"},{"bike_id":"5d98dffa-e8c6-4069-be20-1f88cd1b4ef9","system_id":"levelo_inurba_marseille","lat":43.26556,"lon":5.37289,"is_reserved":false,"is_disabled":true,"rental_uris":{"android":"levelo://app?vid=5d98dffa-e8c6-4069-be20-1f88cd1b4ef9","ios":"levelo://app?vid=5d98dffa-e8c6-4069-be20-1f88cd1b4ef9"},"vehicle_type_id":"4","last_reported":1750547414,"current_range_meters":0,"station_id":"","pricing_plan_id":"cebpf4jnsgd1na2vs0mg"},{"bike_id":"62a493c7-4534-4419-ad43-0582de34a72a","system_id":"levelo_inurba_marseille","lat":43.21366,"lon":5.355183,"is_reserved":false,"is_disabled":true,"rental_uris":{"android":"levelo://app?vid=62a493c7-4534-4419-ad43-0582de34a72a","ios":"levelo://app?vid=62a493c7-4534-4419-ad43-0582de34a72a"},"vehicle_type_id":"4","last_reported":1750547414,"current_range_meters":0,"station_id":"","pricing_plan_id":"cebpf4jnsgd1na2vs0mg"},{"bike_id":"43f3207d-2a05-4f3a-81fd-4b72a345e0b7","system_id":"levelo_inurba_marseille","lat":43.28088,"lon":5.36649,"is_reserved":false,"is_disabled":true,"rental_uris":{"android":"levelo://app?vid=43f3207d-2a05-4f3a-81fd-4b72a345e0b7","ios":"levelo://app?vid=43f3207d-2a05-4f3a-81fd-4b72a345e0b7"},"vehicle_type_id":"4","last_reported":1750547414,"current_range_meters":0,"station_id":"","pricing_plan_id":"cebpf4jnsgd1na2vs0mg"},{"bike_id":"658235c7-e2ed-439d-bf9a-5964b34332ff","system_id":"levelo_inurba_marseille","lat":43.29872,"lon":5.38378,"is_reserved":false,"is_disabled":true,"rental_uris":{"android":"levelo://app?vid=658235c7-e2ed-439d-bf9a-5964b34332ff","ios":"levelo://app?vid=658235c7-e2ed-439d-bf9a-5964b34332ff"},"vehicle_type_id":"4","last_reported":1750547414,"current_range_meters":0,"station_id":"","pricing_plan_id":"cebpf4jnsgd1na2vs0mg"},{"bike_id":"a85d1cbd-d782-40f2-9935-1c4c0af36539","system_id":"levelo_inurba_marseille","lat":43.292701,"lon":5.38442,"is_reserved":false,"is_disabled":true,"rental_uris":{"android":"levelo://app?vid=a85d1cbd-d782-40f2-9935-1c4c0af36539","ios":"levelo://app?vid=a85d1cbd-d782-40f2-9935-1c4c0af36539"},"vehicle_type_id":"4","last_reported":1750547414,"current_range_meters":0,"station_id":"","pricing_plan_id":"cebpf4jnsgd1na2vs0mg"},{"bike_id":"1cab2202-ec2c-4d12-ba3e-aa16d413b6e6","system_id":"levelo_inurba_marseille","lat":43.28712,"lon":5.38335,"is_reserved":false,"is_disabled":true,"rental_uris":{"android":"levelo://app?vid=1cab2202-ec2c-4d12-ba3e-aa16d413b6e6","ios":"levelo://app?vid=1cab2202-ec2c-4d12-ba3e-aa16d413b6e6"},"vehicle_type_id":"4","last_reported":1750547414,"current_range_meters":0,"station_id":"","pricing_plan_id":"cebpf4jnsgd1na2vs0mg"},{"bike_id":"3a3a1818-f20a-442b-bfcf-0e0a18008f43","system_id":"levelo_inurba_marseille","lat":43.2661,"lon":5.37485,"is_reserved":false,"is_disabled":true,"rental_uris":{"android":"levelo://app?vid=3a3a1818-f20a-442b-bfcf-0e0a18008f43","ios":"levelo://app?vid=3a3a1818-f20a-442b-bfcf-0e0a18008f43"},"vehicle_type_id":"4","last_reported":1750547414,"current_range_meters":0,"station_id":"","pricing_plan_id":"cebpf4jnsgd1na2vs0mg"},{"bike_id":"88393bee-2e8a-437d-b0b1-4aa69b0186dc","system_id":"levelo_inurba_marseille","lat":43.247527,"lon":5.401707,"is_reserved":false,"is_disabled":true,"rental_uris":{"android":"levelo://app?vid=88393bee-2e8a-437d-b0b1-4aa69b0186dc","ios":"levelo://app?vid=88393bee-2e8a-437d-b0b1-4aa69b0186dc"},"vehicle_type_id":"4","last_reported":1750547414,"current_range_meters":0,"station_id":"","pricing_plan_id":"cebpf4jnsgd1na2vs0mg"},{"bike_id":"d6609b4f-333b-43c1-9ebe-8726f5e76e88","system_id":"levelo_inurba_marseille","lat":43.337444,"lon":5.374475,"is_reserved":false,"is_disabled":true,"rental_uris":{"android":"levelo://app?vid=d6609b4f-333b-43c1-9ebe-8726f5e76e88","ios":"levelo://app?vid=d6609b4f-333b-43c1-9ebe-8726f5e76e88"},"vehicle_type_id":"4","last_reported":1750547414,"current_range_meters":0,"station_id":"","pricing_plan_id":"cebpf4jnsgd1na2vs0mg"},{"bike_id":"4cede4cf-7ca9-4e47-9559-f20c44cea124","system_id":"levelo_inurba_marseille","lat":43.245458,"lon":5.373013,"is_reserved":false,"is_disabled":true,"rental_uris":{"android":"levelo://app?vid=4cede4cf-7ca9-4e47-9559-f20c44cea124","ios":"levelo://app?vid=4cede4cf-7ca9-4e47-9559-f20c44cea124"},"vehicle_type_id":"4","last_reported":1750547414,"current_range_meters":0,"station_id":"","pricing_plan_id":"cebpf4jnsgd1na2vs0mg"},{"bike_id":"145eac07-7cf3-4d21-a2d6-faa073fc3db5","system_id":"levelo_inurba_marseille","lat":43.302405,"lon":5.405405,"is_reserved":false,"is_disabled":true,"rental_uris":{"android":"levelo://app?vid=145eac07-7cf3-4d21-a2d6-faa073fc3db5","ios":"levelo://app?vid=145eac07-7cf3-4d21-a2d6-faa073fc3db5"},"vehicle_type_id":"4","last_reported":1750547414,"current_range_meters":0,"station_id":"","pricing_plan_id":"cebpf4jnsgd1na2vs0mg"},{"bike_id":"d6e66e37-dee1-435a-9040-fb49de14c353","system_id":"levelo_inurba_marseille","lat":43.29781,"lon":5.381,"is_reserved":false,"is_disabled":true,"rental_uris":{"android":"levelo://app?vid=d6e66e37-dee1-435a-9040-fb49de14c353","ios":"levelo://app?vid=d6e66e37-dee1-435a-9040-fb49de14c353"},"vehicle_type_id":"4","last_reported":1750547414,"current_range_meters":0,"station_id":"ce4bgip2rcd13ifvqbb0","pricing_plan_id":"cebpf4jnsgd1na2vs0mg"},{"bike_id":"4591d73c-a871-4e9e-9378-69cd77a07f7d","system_id":"levelo_inurba_marseille","lat":43.30953,"lon":5.39041,"is_reserved":false,"is_disabled":true,"rental_uris":{"android":"levelo://app?vid=4591d73c-a871-4e9e-9378-69cd77a07f7d","ios":"levelo://app?vid=4591d73c-a871-4e9e-9378-69cd77a07f7d"},"vehicle_type_id":"4","last_reported":1750547414,"current_range_meters":0,"station_id":"ce4bgup2rcd13ifvqco0","pricing_plan_id":"cebpf4jnsgd1na2vs0mg"},{"bike_id":"755973b7-2675-4b37-be87-9167cce18797","system_id":"levelo_inurba_marseille","lat":43.30329,"lon":5.40434,"is_reserved":false,"is_disabled":true,"rental_uris":{"android":"levelo://app?vid=755973b7-2675-4b37-be87-9167cce18797","ios":"levelo://app?vid=755973b7-2675-4b37-be87-9167cce18797"},"vehicle_type_id":"4","last_reported":1750547414,"current_range_meters":0,"station_id":"ce4bh012rcd13ifvqd10","pricing_plan_id":"cebpf4jnsgd1na2vs0mg"},{"bike_id":"466a351f-0ec5-47aa-8e59-4e6ba575a1b1","system_id":"levelo_inurba_marseille","lat":43.29794,"lon":5.40403,"is_reserved":false,"is_disabled":true,"rental_uris":{"android":"levelo://app?vid=466a351f-0ec5-47aa-8e59-4e6ba575a1b1","ios":"levelo://app?vid=466a351f-0ec5-47aa-8e59-4e6ba575a1b1"},"vehicle_type_id":"4","last_reported":1750547414,"current_range_meters":0,"station_id":"ce4bh112rcd13ifvqd90","pricing_plan_id":"cebpf4jnsgd1na2vs0mg"},{"bike_id":"f14da676-a2cd-47d2-ac98-7f0a29cf51ba","system_id":"levelo_inurba_marseille","lat":43.29427,"lon":5.38621,"is_reserved":false,"is_disabled":true,"rental_uris":{"android":"levelo://app?vid=f14da676-a2cd-47d2-ac98-7f0a29cf51ba","ios":"levelo://app?vid=f14da676-a2cd-47d2-ac98-7f0a29cf51ba"},"vehicle_type_id":"4","last_reported":1750547414,"current_range_meters":0,"station_id":"ce4bh2h2rcd13ifvqdh0","pricing_plan_id":"cebpf4jnsgd1na2vs0mg"},{"bike_id":"4cfae309-f92f-43d2-b462-f389cdde31f9","system_id":"levelo_inurba_marseille","lat":43.2928,"lon":5.40119,"is_reserved":false,"is_disabled":true,"rental_uris":{"android":"levelo://app?vid=4cfae309-f92f-43d2-b462-f389cdde31f9","ios":"levelo://app?vid=4cfae309-f92f-43d2-b462-f389cdde31f9"},"vehicle_type_id":"4","last_reported":1750547414,"current_range_meters":0,"station_id":"ce4bh312rcd13ifvqdk0","pricing_plan_id":"cebpf4jnsgd1na2vs0mg"},{"bike_id":"85003e38-2fe9-43b5-b5e8-25b45e7f67c0","system_id":"levelo_inurba_marseille","lat":43.28693,"lon":5.37398,"is_reserved":false,"is_disabled":true,"rental_uris":{"android":"levelo://app?vid=85003e38-2fe9-43b5-b5e8-25b45e7f67c0","ios":"levelo://app?vid=85003e38-2fe9-43b5-b5e8-25b45e7f67c0"},"vehicle_type_id":"4","last_reported":1750547414,"current_range_meters":0,"station_id":"ce4bh3p2rcd13ifvqdq0","pricing_plan_id":"cebpf4jnsgd1na2vs0mg"},{"bike_id":"cc850919-7e9d-4f3a-850f-5e156128a976","system_id":"levelo_inurba_marseille","lat":43.29025,"lon":5.38635,"is_reserved":false,"is_disabled":true,"rental_uris":{"android":"levelo://app?vid=cc850919-7e9d-4f3a-850f-5e156128a976","ios":"levelo://app?vid=cc850919-7e9d-4f3a-850f-5e156128a976"},"vehicle_type_id":"4","last_reported":1750547414,"current_range_meters":0,"station_id":"ce4bh4p2rcd13ifvqe0g","pricing_plan_id":"cebpf4jnsgd1na2vs0mg"},{"bike_id":"09536ec2-81f1-46fd-82db-038959effa11","system_id":"levelo_inurba_marseille","lat":43.28035,"lon":5.3695,"is_reserved":false,"is_disabled":true,"rental_uris":{"android":"levelo://app?vid=09536ec2-81f1-46fd-82db-038959effa11","ios":"levelo://app?vid=09536ec2-81f1-46fd-82db-038959effa11"},"vehicle_type_id":"4","last_reported":1750547414,"current_range_meters":0,"station_id":"ce4bha12rcd13ifvqef0","pricing_plan_id":"cebpf4jnsgd1na2vs0mg"},{"bike_id":"cf3edda3-ad9b-4e90-bed3-f3666772a7d0","system_id":"levelo_inurba_marseille","lat":43.28856,"lon":5.35863,"is_reserved":false,"is_disabled":true,"rental_uris":{"android":"levelo://app?vid=cf3edda3-ad9b-4e90-bed3-f3666772a7d0","ios":"levelo://app?vid=cf3edda3-ad9b-4e90-bed3-f3666772a7d0"},"vehicle_type_id":"4","last_reported":1750547414,"current_range_meters":0,"station_id":"ce4bhb12rcd13ifvqem0","pricing_plan_id":"cebpf4jnsgd1na2vs0mg"},{"bike_id":"ea999d4a-c9fa-4978-8787-3b2b30dd7c08","system_id":"levelo_inurba_marseille","lat":43.292713,"lon":5.368487,"is_reserved":false,"is_disabled":true,"rental_uris":{"android":"levelo://app?vid=ea999d4a-c9fa-4978-8787-3b2b30dd7c08","ios":"levelo://app?vid=ea999d4a-c9fa-4978-8787-3b2b30dd7c08"},"vehicle_type_id":"4","last_reported":1750547414,"current_range_meters":0,"station_id":"ce4bhbp2rcd13ifvqesg","pricing_plan_id":"cebpf4jnsgd1na2vs0mg"},{"bike_id":"ffa6bd9a-2058-4b26-a35e-7647d43580d8","system_id":"levelo_inurba_marseille","lat":43.26557,"lon":5.37291,"is_reserved":false,"is_disabled":true,"rental_uris":{"android":"levelo://app?vid=ffa6bd9a-2058-4b26-a35e-7647d43580d8","ios":"levelo://app?vid=ffa6bd9a-2058-4b26-a35e-7647d43580d8"},"vehicle_type_id":"4","last_reported":1750547414,"current_range_meters":0,"station_id":"ce4bhg12rcd13ifvqf70","pricing_plan_id":"cebpf4jnsgd1na2vs0mg"},{"bike_id":"d2efbace-6c80-48c5-8e30-5f40944f46aa","system_id":"levelo_inurba_marseille","lat":43.27046,"lon":5.40262,"is_reserved":false,"is_disabled":true,"rental_uris":{"android":"levelo://app?vid=d2efbace-6c80-48c5-8e30-5f40944f46aa","ios":"levelo://app?vid=d2efbace-6c80-48c5-8e30-5f40944f46aa"},"vehicle_type_id":"4","last_reported":1750547414,"current_range_meters":0,"station_id":"ce4bhk92rcd13ifvqgc0","pricing_plan_id":"cebpf4jnsgd1na2vs0mg"},{"bike_id":"e205c668-f0fb-4173-add6-a55ad65659a0","system_id":"levelo_inurba_marseille","lat":43.2512,"lon":5.40322,"is_reserved":false,"is_disabled":true,"rental_uris":{"android":"levelo://app?vid=e205c668-f0fb-4173-add6-a55ad65659a0","ios":"levelo://app?vid=e205c668-f0fb-4173-add6-a55ad65659a0"},"vehicle_type_id":"4","last_reported":1750547414,"current_range_meters":0,"station_id":"ce4bhlh2rcd13ifvqgig","pricing_plan_id":"cebpf4jnsgd1na2vs0mg"},{"bike_id":"374a16e3-9858-4cc0-9ac3-ed1f30ca6e66","system_id":"levelo_inurba_marseille","lat":43.25107,"lon":5.40326,"is_reserved":false,"is_disabled":true,"rental_uris":{"android":"levelo://app?vid=374a16e3-9858-4cc0-9ac3-ed1f30ca6e66","ios":"levelo://app?vid=374a16e3-9858-4cc0-9ac3-ed1f30ca6e66"},"vehicle_type_id":"4","last_reported":1750547414,"current_range_meters":0,"station_id":"ce4bhlh2rcd13ifvqgig","pricing_plan_id":"cebpf4jnsgd1na2vs0mg"},{"bike_id":"e40c6734-aa35-49fe-94b7-41d6137b7aba","system_id":"levelo_inurba_marseille","lat":43.26223,"lon":5.40452,"is_reserved":false,"is_disabled":true,"rental_uris":{"android":"levelo://app?vid=e40c6734-aa35-49fe-94b7-41d6137b7aba","ios":"levelo://app?vid=e40c6734-aa35-49fe-94b7-41d6137b7aba"},"vehicle_type_id":"4","last_reported":1750547414,"current_range_meters":0,"station_id":"ce4bhmh2rcd13ifvqgmg","pricing_plan_id":"cebpf4jnsgd1na2vs0mg"},{"bike_id":"fcc0d248-6487-4fae-8ee7-f277a38f3302","system_id":"levelo_inurba_marseille","lat":43.21195,"lon":5.35083,"is_reserved":false,"is_disabled":true,"rental_uris":{"android":"levelo://app?vid=fcc0d248-6487-4fae-8ee7-f277a38f3302","ios":"levelo://app?vid=fcc0d248-6487-4fae-8ee7-f277a38f3302"},"vehicle_type_id":"4","last_reported":1750547414,"current_range_meters":0,"station_id":"st_cvj6sg6p6f1abm77japg","pricing_plan_id":"cebpf4jnsgd1na2vs0mg"},{"bike_id":"ee0a1d2f-9a19-451a-8c0a-5c9bad75e359","system_id":"levelo_inurba_marseille","lat":43.286662,"lon":5.363488,"is_reserved":false,"is_disabled":true,"rental_uris":{"android":"levelo://app?vid=ee0a1d2f-9a19-451a-8c0a-5c9bad75e359","ios":"levelo://app?vid=ee0a1d2f-9a19-451a-8c0a-5c9bad75e359"},"vehicle_type_id":"4","last_reported":1750547414,"current_range_meters":400,"station_id":"","pricing_plan_id":"cebpf4jnsgd1na2vs0mg"},{"bike_id":"c148ea85-d587-4db3-a72b-66ae6b61c912","system_id":"levelo_inurba_marseille","lat":43.28701,"lon":5.39983,"is_reserved":false,"is_disabled":true,"rental_uris":{"android":"levelo://app?vid=c148ea85-d587-4db3-a72b-66ae6b61c912","ios":"levelo://app?vid=c148ea85-d587-4db3-a72b-66ae6b61c912"},"vehicle_type_id":"4","last_reported":1750547414,"current_range_meters":400,"station_id":"ce4bho92rcd13ifvqh3g","pricing_plan_id":"cebpf4jnsgd1na2vs0mg"},{"bike_id":"db302311-f9fb-4633-b4cc-08745cef6d69","system_id":"levelo_inurba_marseille","lat":43.248056,"lon":5.374571,"is_reserved":false,"is_disabled":true,"rental_uris":{"android":"levelo://app?vid=db302311-f9fb-4633-b4cc-08745cef6d69","ios":"levelo://app?vid=db302311-f9fb-4633-b4cc-08745cef6d69"},"vehicle_type_id":"4","last_reported":1750547414,"current_range_meters":800,"station_id":"","pricing_plan_id":"cebpf4jnsgd1na2vs0mg"},{"bike_id":"e8b2899a-4211-4f31-b803-6ec5b4d26202","system_id":"levelo_inurba_marseille","lat":43.275623,"lon":5.396796,"is_reserved":false,"is_disabled":true,"rental_uris":{"android":"levelo://app?vid=e8b2899a-4211-4f31-b803-6ec5b4d26202","ios":"levelo://app?vid=e8b2899a-4211-4f31-b803-6ec5b4d26202"},"vehicle_type_id":"4","last_reported":1750547414,"current_range_meters":800,"station_id":"","pricing_plan_id":"cebpf4jnsgd1na2vs0mg"},{"bike_id":"a2a33d75-625b-4cec-8156-178bd62a1248","system_id":"levelo_inurba_marseille","lat":43.30303,"lon":5.36883,"is_reserved":false,"is_disabled":true,"rental_uris":{"android":"levelo://app?vid=a2a33d75-625b-4cec-8156-178bd62a1248","ios":"levelo://app?vid=a2a33d75-625b-4cec-8156-178bd62a1248"},"vehicle_type_id":"4","last_reported":1750547414,"current_range_meters":800,"station_id":"ce4bgqh2rcd13ifvqc5g","pricing_plan_id":"cebpf4jnsgd1na2vs0mg"},{"bike_id":"9d38952e-8f25-42b3-af70-266031adecf2","system_id":"levelo_inurba_marseille","lat":43.29096,"lon":5.38128,"is_reserved":false,"is_disabled":true,"rental_uris":{"android":"levelo://app?vid=9d38952e-8f25-42b3-af70-266031adecf2","ios":"levelo://app?vid=9d38952e-8f25-42b3-af70-266031adecf2"},"vehicle_type_id":"4","last_reported":1750547414,"current_range_meters":800,"station_id":"ce4bh512rcd13ifvqe2g","pricing_plan_id":"cebpf4jnsgd1na2vs0mg"},{"bike_id":"32e94f9a-5358-4716-b696-8807c3a148ef","system_id":"levelo_inurba_marseille","lat":43.27998,"lon":5.41672,"is_reserved":false,"is_disabled":true,"rental_uris":{"android":"levelo://app?vid=32e94f9a-5358-4716-b696-8807c3a148ef","ios":"levelo://app?vid=32e94f9a-5358-4716-b696-8807c3a148ef"},"vehicle_type_id":"4","last_reported":1750547414,"current_range_meters":800,"station_id":"ce4bho12rcd13ifvqh1g","pricing_plan_id":"cebpf4jnsgd1na2vs0mg"},{"bike_id":"35cb0325-70f2-4890-bc7f-a374885a6065","system_id":"levelo_inurba_marseille","lat":43.24536,"lon":5.37327,"is_reserved":false,"is_disabled":true,"rental_uris":{"android":"levelo://app?vid=35cb0325-70f2-4890-bc7f-a374885a6065","ios":"levelo://app?vid=35cb0325-70f2-4890-bc7f-a374885a6065"},"vehicle_type_id":"4","last_reported":1750547414,"current_range_meters":1200,"station_id":"","pricing_plan_id":"cebpf4jnsgd1na2vs0mg"},{"bike_id":"e883bf0b-6c6d-4bf8-a613-72c96a196650","system_id":"levelo_inurba_marseille","lat":43.30326,"lon":5.40433,"is_reserved":false,"is_disabled":true,"rental_uris":{"android":"levelo://app?vid=e883bf0b-6c6d-4bf8-a613-72c96a196650","ios":"levelo://app?vid=e883bf0b-6c6d-4bf8-a613-72c96a196650"},"vehicle_type_id":"4","last_reported":1750547414,"current_range_meters":1200,"station_id":"ce4bh012rcd13ifvqd10","pricing_plan_id":"cebpf4jnsgd1na2vs0mg"},{"bike_id":"2cc715c9-21f0-42de-9e78-eb3e3b85b2e5","system_id":"levelo_inurba_marseille","lat":43.27375,"lon":5.36258,"is_reserved":false,"is_disabled":true,"rental_uris":{"android":"levelo://app?vid=2cc715c9-21f0-42de-9e78-eb3e3b85b2e5","ios":"levelo://app?vid=2cc715c9-21f0-42de-9e78-eb3e3b85b2e5"},"vehicle_type_id":"4","last_reported":1750547414,"current_range_meters":1200,"station_id":"ce4bhbh2rcd13ifvqeo0","pricing_plan_id":"cebpf4jnsgd1na2vs0mg"},{"bike_id":"a99c0753-b7b8-4302-b032-f8a47bd99ef2","system_id":"levelo_inurba_marseille","lat":43.25726,"lon":5.41112,"is_reserved":false,"is_disabled":true,"rental_uris":{"android":"levelo://app?vid=a99c0753-b7b8-4302-b032-f8a47bd99ef2","ios":"levelo://app?vid=a99c0753-b7b8-4302-b032-f8a47bd99ef2"},"vehicle_type_id":"4","last_reported":1750547414,"current_range_meters":1200,"station_id":"ce4bhkp2rcd13ifvqgd0","pricing_plan_id":"cebpf4jnsgd1na2vs0mg"},{"bike_id":"251da341-cf0e-44ea-bb51-623a22edea7d","system_id":"levelo_inurba_marseille","lat":43.290857,"lon":5.355881,"is_reserved":false,"is_disabled":true,"rental_uris":{"android":"levelo://app?vid=251da341-cf0e-44ea-bb51-623a22edea7d","ios":"levelo://app?vid=251da341-cf0e-44ea-bb51-623a22edea7d"},"vehicle_type_id":"4","last_reported":1750547414,"current_range_meters":1600,"station_id":"ce4bhb92rcd13ifvqen0","pricing_plan_id":"cebpf4jnsgd1na2vs0mg"},{"bike_id":"3b36a56d-2fbe-4e8b-8dd9-a78d905ecf05","system_id":"levelo_inurba_marseille","lat":43.2738,"lon":5.36236,"is_reserved":false,"is_disabled":true,"rental_uris":{"android":"levelo://app?vid=3b36a56d-2fbe-4e8b-8dd9-a78d905ecf05","ios":"levelo://app?vid=3b36a56d-2fbe-4e8b-8dd9-a78d905ecf05"},"vehicle_type_id":"4","last_reported":1750547414,"current_range_meters":1600,"station_id":"ce4bhbh2rcd13ifvqeo0","pricing_plan_id":"cebpf4jnsgd1na2vs0mg"},{"bike_id":"03df191b-1f09-4914-a0dd-634d519f758b","system_id":"levelo_inurba_marseille","lat":43.29031,"lon":5.37569,"is_reserved":false,"is_disabled":false,"rental_uris":{"android":"levelo://app?vid=03df191b-1f09-4914-a0dd-634d519f758b","ios":"levelo://app?vid=03df191b-1f09-4914-a0dd-634d519f758b"},"vehicle_type_id":"4","last_reported":1750547414,"current_range_meters":2000,"station_id":"ce4bh692rcd13ifvqe90","pricing_plan_id":"cebpf4jnsgd1na2vs0mg"},{"bike_id":"2035b10b-f09c-4f3b-b598-bc8f2814241f","system_id":"levelo_inurba_marseille","lat":43.25114,"lon":5.40316,"is_reserved":false,"is_disabled":false,"rental_uris":{"android":"levelo://app?vid=2035b10b-f09c-4f3b-b598-bc8f2814241f","ios":"levelo://app?vid=2035b10b-f09c-4f3b-b598-bc8f2814241f"},"vehicle_type_id":"4","last_reported":1750547414,"current_range_meters":2000,"station_id":"ce4bhlh2rcd13ifvqgig","pricing_plan_id":"cebpf4jnsgd1na2vs0mg"},{"bike_id":"90fbc6d5-842d-4c60-9a5a-34d56fa4d821","system_id":"levelo_inurba_marseille","lat":43.25114,"lon":5.40321,"is_reserved":false,"is_disabled":false,"rental_uris":{"android":"levelo://app?vid=90fbc6d5-842d-4c60-9a5a-34d56fa4d821","ios":"levelo://app?vid=90fbc6d5-842d-4c60-9a5a-34d56fa4d821"},"vehicle_type_id":"4","last_reported":1750547414,"current_range_meters":2000,"station_id":"ce4bhlh2rcd13ifvqgig","pricing_plan_id":"cebpf4jnsgd1na2vs0mg"},{"bike_id":"7f583f51-ec4d-4dd3-bfc8-41328832ae96","system_id":"levelo_inurba_marseille","lat":43.27994,"lon":5.4001,"is_reserved":false,"is_disabled":true,"rental_uris":{"android":"levelo://app?vid=7f583f51-ec4d-4dd3-bfc8-41328832ae96","ios":"levelo://app?vid=7f583f51-ec4d-4dd3-bfc8-41328832ae96"},"vehicle_type_id":"4","last_reported":1750547414,"current_range_meters":2000,"station_id":"ce4bho92rcd13ifvqh4g","pricing_plan_id":"cebpf4jnsgd1na2vs0mg"},{"bike_id":"1234fedc-ffaa-4396-837b-1ec03ba7850e","system_id":"levelo_inurba_marseille","lat":43.29437,"lon":5.3976,"is_reserved":false,"is_disabled":false,"rental_uris":{"android":"levelo://app?vid=1234fedc-ffaa-4396-837b-1ec03ba7850e","ios":"levelo://app?vid=1234fedc-ffaa-4396-837b-1ec03ba7850e"},"vehicle_type_id":"4","last_reported":1750547414,"current_range_meters":3200,"station_id":"ce4bh3h2rcd13ifvqdo0","pricing_plan_id":"cebpf4jnsgd1na2vs0mg"},{"bike_id":"25ec413d-bca9-4a91-b2a7-e2e30e567f99","system_id":"levelo_inurba_marseille","lat":43.28466,"lon":5.38559,"is_reserved":false,"is_disabled":false,"rental_uris":{"android":"levelo://app?vid=25ec413d-bca9-4a91-b2a7-e2e30e567f99","ios":"levelo://app?vid=25ec413d-bca9-4a91-b2a7-e2e30e567f99"},"vehicle_type_id":"4","last_reported":1750547414,"current_range_meters":3200,"station_id":"ce4bh8p2rcd13ifvqeb0","pricing_plan_id":"cebpf4jnsgd1na2vs0mg"},{"bike_id":"0691d2fd-0d79-4eba-9eb0-34cb6454836e","system_id":"levelo_inurba_marseille","lat":43.30384,"lon":5.42493,"is_reserved":false,"is_disabled":false,"rental_uris":{"android":"levelo://app?vid=0691d2fd-0d79-4eba-9eb0-34cb6454836e","ios":"levelo://app?vid=0691d2fd-0d79-4eba-9eb0-34cb6454836e"},"vehicle_type_id":"4","last_reported":1750547414,"current_range_meters":3200,"station_id":"ce4bhoh2rcd13ifvqh6g","pricing_plan_id":"cebpf4jnsgd1na2vs0mg"},{"bike_id":"0dd933c8-8d82-4d69-abb7-ce5547d33605","system_id":"levelo_inurba_marseille","lat":43.33604,"lon":5.41032,"is_reserved":false,"is_disabled":false,"rental_uris":{"android":"levelo://app?vid=0dd933c8-8d82-4d69-abb7-ce5547d33605","ios":"levelo://app?vid=0dd933c8-8d82-4d69-abb7-ce5547d33605"},"vehicle_type_id":"4","last_reported":1750547414,"current_range_meters":3200,"station_id":"ce4bhqh2rcd13ifvqhmg","pricing_plan_id":"cebpf4jnsgd1na2vs0mg"},{"bike_id":"9a7e129f-65fa-46e1-8563-7918a8380017","system_id":"levelo_inurba_marseille","lat":43.24579,"lon":5.42111,"is_reserved":false,"is_disabled":false,"rental_uris":{"android":"levelo://app?vid=9a7e129f-65fa-46e1-8563-7918a8380017","ios":"levelo://app?vid=9a7e129f-65fa-46e1-8563-7918a8380017"},"vehicle_type_id":"4","last_reported":1750547414,"current_range_meters":3600,"station_id":"","pricing_plan_id":"cebpf4jnsgd1na2vs0mg"},{"bike_id":"53932767-c0b3-4877-a398-409ba61e07df","system_id":"levelo_inurba_marseille","lat":43.2923,"lon":5.36075,"is_reserved":false,"is_disabled":false,"rental_uris":{"android":"levelo://app?vid=53932767-c0b3-4877-a398-409ba61e07df","ios":"levelo://app?vid=53932767-c0b3-4877-a398-409ba61e07df"},"vehicle_type_id":"4","last_reported":1750547414,"current_range_meters":3600,"station_id":"ce4bhbh2rcd13ifvqeqg","pricing_plan_id":"cebpf4jnsgd1na2vs0mg"},{"bike_id":"073572f5-0e2c-4dfb-806a-025756487190","system_id":"levelo_inurba_marseille","lat":43.287238,"lon":5.361123,"is_reserved":false,"is_disabled":false,"rental_uris":{"android":"levelo://app?vid=073572f5-0e2c-4dfb-806a-025756487190","ios":"levelo://app?vid=073572f5-0e2c-4dfb-806a-025756487190"},"vehicle_type_id":"4","last_reported":1750547414,"current_range_meters":3600,"station_id":"cki0cbj6b192h4jlfktg","pricing_plan_id":"cebpf4jnsgd1na2vs0mg"},{"bike_id":"5e5425ac-1fa0-436b-82b8-88e4f5ee50be","system_id":"levelo_inurba_marseille","lat":43.26838,"lon":5.37094,"is_reserved":false,"is_disabled":false,"rental_uris":{"android":"levelo://app?vid=5e5425ac-1fa0-436b-82b8-88e4f5ee50be","ios":"levelo://app?vid=5e5425ac-1fa0-436b-82b8-88e4f5ee50be"},"vehicle_type_id":"4","last_reported":1750547414,"current_range_meters":4000,"station_id":"","pricing_plan_id":"cebpf4jnsgd1na2vs0mg"},{"bike_id":"b9a5fee2-a5c5-4082-9d27-c91825f82be0","system_id":"levelo_inurba_marseille","lat":43.28996,"lon":5.39959,"is_reserved":false,"is_disabled":false,"rental_uris":{"android":"levelo://app?vid=b9a5fee2-a5c5-4082-9d27-c91825f82be0","ios":"levelo://app?vid=b9a5fee2-a5c5-4082-9d27-c91825f82be0"},"vehicle_type_id":"4","last_reported":1750547414,"current_range_meters":4000,"station_id":"","pricing_plan_id":"cebpf4jnsgd1na2vs0mg"},{"bike_id":"2efaae5b-78b9-4c38-a9df-187b85786983","system_id":"levelo_inurba_marseille","lat":43.310699,"lon":5.38358,"is_reserved":false,"is_disabled":false,"rental_uris":{"android":"levelo://app?vid=2efaae5b-78b9-4c38-a9df-187b85786983","ios":"levelo://app?vid=2efaae5b-78b9-4c38-a9df-187b85786983"},"vehicle_type_id":"4","last_reported":1750547414,"current_range_meters":4000,"station_id":"","pricing_plan_id":"cebpf4jnsgd1na2vs0mg"},{"bike_id":"18656e46-40e9-4e52-9245-5ba10f21015a","system_id":"levelo_inurba_marseille","lat":43.29424,"lon":5.38601,"is_reserved":false,"is_disabled":false,"rental_uris":{"android":"levelo://app?vid=18656e46-40e9-4e52-9245-5ba10f21015a","ios":"levelo://app?vid=18656e46-40e9-4e52-9245-5ba10f21015a"},"vehicle_type_id":"4","last_reported":1750547414,"current_range_meters":4000,"station_id":"ce4bh2h2rcd13ifvqdh0","pricing_plan_id":"cebpf4jnsgd1na2vs0mg"},{"bike_id":"23faf6db-7fec-4f2f-8abd-4684dc28d9bc","system_id":"levelo_inurba_marseille","lat":43.282885,"lon":5.408569,"is_reserved":false,"is_disabled":false,"rental_uris":{"android":"levelo://app?vid=23faf6db-7fec-4f2f-8abd-4684dc28d9bc","ios":"levelo://app?vid=23faf6db-7fec-4f2f-8abd-4684dc28d9bc"},"vehicle_type_id":"4","last_reported":1750547414,"current_range_meters":4400,"station_id":"","pricing_plan_id":"cebpf4jnsgd1na2vs0mg"},{"bike_id":"29558b73-c710-42b1-b600-87d87708a14f","system_id":"levelo_inurba_marseille","lat":43.29969,"lon":5.37178,"is_reserved":false,"is_disabled":false,"rental_uris":{"android":"levelo://app?vid=29558b73-c710-42b1-b600-87d87708a14f","ios":"levelo://app?vid=29558b73-c710-42b1-b600-87d87708a14f"},"vehicle_type_id":"4","last_reported":1750547414,"current_range_meters":4400,"station_id":"ce4bgr92rcd13ifvqc7g","pricing_plan_id":"cebpf4jnsgd1na2vs0mg"},{"bike_id":"be688fe8-708b-4617-ac3e-9a55c43325d8","system_id":"levelo_inurba_marseille","lat":43.28034,"lon":5.36952,"is_reserved":false,"is_disabled":false,"rental_uris":{"android":"levelo://app?vid=be688fe8-708b-4617-ac3e-9a55c43325d8","ios":"levelo://app?vid=be688fe8-708b-4617-ac3e-9a55c43325d8"},"vehicle_type_id":"4","last_reported":1750547414,"current_range_meters":4400,"station_id":"ce4bha12rcd13ifvqef0","pricing_plan_id":"cebpf4jnsgd1na2vs0mg"},{"bike_id":"ceeb43cc-894a-40fd-ad61-1cdb412d30f5","system_id":"levelo_inurba_marseille","lat":43.24387,"lon":5.37061,"is_reserved":false,"is_disabled":false,"rental_uris":{"android":"levelo://app?vid=ceeb43cc-894a-40fd-ad61-1cdb412d30f5","ios":"levelo://app?vid=ceeb43cc-894a-40fd-ad61-1cdb412d30f5"},"vehicle_type_id":"4","last_reported":1750547414,"current_range_meters":4800,"station_id":"ce4bhhh2rcd13ifvqfk0","pricing_plan_id":"cebpf4jnsgd1na2vs0mg"},{"bike_id":"b3b4d180-8291-45a9-bbff-a352ebbc3dde","system_id":"levelo_inurba_marseille","lat":43.28612,"lon":5.35104,"is_reserved":false,"is_disabled":false,"rental_uris":{"android":"levelo://app?vid=b3b4d180-8291-45a9-bbff-a352ebbc3dde","ios":"levelo://app?vid=b3b4d180-8291-45a9-bbff-a352ebbc3dde"},"vehicle_type_id":"4","last_reported":1750547414,"current_range_meters":5600,"station_id":"ce4bhch2rcd13ifvqeug","pricing_plan_id":"cebpf4jnsgd1na2vs0mg"},{"bike_id":"72ca81f2-5f8d-4ffc-9e39-a590abb93425","system_id":"levelo_inurba_marseille","lat":43.31674,"lon":5.40479,"is_reserved":false,"is_disabled":false,"rental_uris":{"android":"levelo://app?vid=72ca81f2-5f8d-4ffc-9e39-a590abb93425","ios":"levelo://app?vid=72ca81f2-5f8d-4ffc-9e39-a590abb93425"},"vehicle_type_id":"4","last_reported":1750547414,"current_range_meters":6000,"station_id":"ce4bh012rcd13ifvqd00","pricing_plan_id":"cebpf4jnsgd1na2vs0mg"},{"bike_id":"15f980fa-b16f-435d-aad7-4e684d432e44","system_id":"levelo_inurba_marseille","lat":43.28108,"lon":5.37837,"is_reserved":false,"is_disabled":false,"rental_uris":{"android":"levelo://app?vid=15f980fa-b16f-435d-aad7-4e684d432e44","ios":"levelo://app?vid=15f980fa-b16f-435d-aad7-4e684d432e44"},"vehicle_type_id":"4","last_reported":1750547414,"current_range_meters":6000,"station_id":"ce4bha12rcd13ifvqee0","pricing_plan_id":"cebpf4jnsgd1na2vs0mg"},{"bike_id":"0d521049-a72b-4bf9-9b79-0618b1fe886c","system_id":"levelo_inurba_marseille","lat":43.28662,"lon":5.36355,"is_reserved":false,"is_disabled":false,"rental_uris":{"android":"levelo://app?vid=0d521049-a72b-4bf9-9b79-0618b1fe886c","ios":"levelo://app?vid=0d521049-a72b-4bf9-9b79-0618b1fe886c"},"vehicle_type_id":"4","last_reported":1750547414,"current_range_meters":6000,"station_id":"ce4bhah2rcd13ifvqej0","pricing_plan_id":"cebpf4jnsgd1na2vs0mg"},{"bike_id":"0d68b8f7-3976-49d8-bbb2-d8dc48f60829","system_id":"levelo_inurba_marseille","lat":43.284655,"lon":5.35895,"is_reserved":false,"is_disabled":false,"rental_uris":{"android":"levelo://app?vid=0d68b8f7-3976-49d8-bbb2-d8dc48f60829","ios":"levelo://app?vid=0d68b8f7-3976-49d8-bbb2-d8dc48f60829"},"vehicle_type_id":"4","last_reported":1750547414,"current_range_meters":6400,"station_id":"ce4bhah2rcd13ifvqei0","pricing_plan_id":"cebpf4jnsgd1na2vs0mg"},{"bike_id":"c595d0e1-c778-4abe-9c79-a9dd74f54e27","system_id":"levelo_inurba_marseille","lat":43.24472,"lon":5.37228,"is_reserved":false,"is_disabled":false,"rental_uris":{"android":"levelo://app?vid=c595d0e1-c778-4abe-9c79-a9dd74f54e27","ios":"levelo://app?vid=c595d0e1-c778-4abe-9c79-a9dd74f54e27"},"vehicle_type_id":"4","last_reported":1750547414,"current_range_meters":6800,"station_id":"","pricing_plan_id":"cebpf4jnsgd1na2vs0mg"},{"bike_id":"fdf18396-0d7a-4e96-af9e-9e13a789f756","system_id":"levelo_inurba_marseille","lat":43.30923,"lon":5.40145,"is_reserved":false,"is_disabled":false,"rental_uris":{"android":"levelo://app?vid=fdf18396-0d7a-4e96-af9e-9e13a789f756","ios":"levelo://app?vid=fdf18396-0d7a-4e96-af9e-9e13a789f756"},"vehicle_type_id":"4","last_reported":1750547414,"current_range_meters":6800,"station_id":"ce4bgvp2rcd13ifvqct0","pricing_plan_id":"cebpf4jnsgd1na2vs0mg"},{"bike_id":"97ede89e-42ba-4fb2-8d29-0855bbb6a938","system_id":"levelo_inurba_marseille","lat":43.28266,"lon":5.36082,"is_reserved":false,"is_disabled":false,"rental_uris":{"android":"levelo://app?vid=97ede89e-42ba-4fb2-8d29-0855bbb6a938","ios":"levelo://app?vid=97ede89e-42ba-4fb2-8d29-0855bbb6a938"},"vehicle_type_id":"4","last_reported":1750547414,"current_range_meters":7200,"station_id":"","pricing_plan_id":"cebpf4jnsgd1na2vs0mg"},{"bike_id":"428fcb0b-c3aa-4119-aa12-cd281cc585d2","system_id":"levelo_inurba_marseille","lat":43.279132,"lon":5.422619,"is_reserved":false,"is_disabled":false,"rental_uris":{"android":"levelo://app?vid=428fcb0b-c3aa-4119-aa12-cd281cc585d2","ios":"levelo://app?vid=428fcb0b-c3aa-4119-aa12-cd281cc585d2"},"vehicle_type_id":"4","last_reported":1750547414,"current_range_meters":7200,"station_id":"","pricing_plan_id":"cebpf4jnsgd1na2vs0mg"},{"bike_id":"de6f1023-d16c-4ebb-921f-9d0677b02f99","system_id":"levelo_inurba_marseille","lat":43.30792,"lon":5.37649,"is_reserved":false,"is_disabled":false,"rental_uris":{"android":"levelo://app?vid=de6f1023-d16c-4ebb-921f-9d0677b02f99","ios":"levelo://app?vid=de6f1023-d16c-4ebb-921f-9d0677b02f99"},"vehicle_type_id":"4","last_reported":1750547414,"current_range_meters":7200,"station_id":"ce4bgv92rcd13ifvqcq0","pricing_plan_id":"cebpf4jnsgd1na2vs0mg"},{"bike_id":"2be14654-6cd8-478e-b9ea-f8e5664bed95","system_id":"levelo_inurba_marseille","lat":43.290398,"lon":5.399607,"is_reserved":false,"is_disabled":false,"rental_uris":{"android":"levelo://app?vid=2be14654-6cd8-478e-b9ea-f8e5664bed95","ios":"levelo://app?vid=2be14654-6cd8-478e-b9ea-f8e5664bed95"},"vehicle_type_id":"4","last_reported":1750547414,"current_range_meters":7200,"station_id":"ce4bh392rcd13ifvqdm0","pricing_plan_id":"cebpf4jnsgd1na2vs0mg"},{"bike_id":"2458bc8f-6a6e-4a6d-a54a-b721ad39d7d4","system_id":"levelo_inurba_marseille","lat":43.292717,"lon":5.38363,"is_reserved":false,"is_disabled":false,"rental_uris":{"android":"levelo://app?vid=2458bc8f-6a6e-4a6d-a54a-b721ad39d7d4","ios":"levelo://app?vid=2458bc8f-6a6e-4a6d-a54a-b721ad39d7d4"},"vehicle_type_id":"4","last_reported":1750547414,"current_range_meters":7200,"station_id":"ce4bh692rcd13ifvqea0","pricing_plan_id":"cebpf4jnsgd1na2vs0mg"},{"bike_id":"ff659e52-ed50-4b6b-b396-a8a78c6965e2","system_id":"levelo_inurba_marseille","lat":43.284929,"lon":5.359649,"is_reserved":false,"is_disabled":false,"rental_uris":{"android":"levelo://app?vid=ff659e52-ed50-4b6b-b396-a8a78c6965e2","ios":"levelo://app?vid=ff659e52-ed50-4b6b-b396-a8a78c6965e2"},"vehicle_type_id":"4","last_reported":1750547414,"current_range_meters":7200,"station_id":"ce4bhah2rcd13ifvqei0","pricing_plan_id":"cebpf4jnsgd1na2vs0mg"},{"bike_id":"8207a812-7f0c-42a3-9a52-8c5b7f020ba0","system_id":"levelo_inurba_marseille","lat":43.28456,"lon":5.35886,"is_reserved":false,"is_disabled":false,"rental_uris":{"android":"levelo://app?vid=8207a812-7f0c-42a3-9a52-8c5b7f020ba0","ios":"levelo://app?vid=8207a812-7f0c-42a3-9a52-8c5b7f020ba0"},"vehicle_type_id":"4","last_reported":1750547414,"current_range_meters":7200,"station_id":"ce4bhah2rcd13ifvqei0","pricing_plan_id":"cebpf4jnsgd1na2vs0mg"},{"bike_id":"e1c78d7a-1114-4e4e-8976-b9131b0f4017","system_id":"levelo_inurba_marseille","lat":43.24384,"lon":5.37062,"is_reserved":false,"is_disabled":false,"rental_uris":{"android":"levelo://app?vid=e1c78d7a-1114-4e4e-8976-b9131b0f4017","ios":"levelo://app?vid=e1c78d7a-1114-4e4e-8976-b9131b0f4017"},"vehicle_type_id":"4","last_reported":1750547414,"current_range_meters":7200,"station_id":"ce4bhhh2rcd13ifvqfk0","pricing_plan_id":"cebpf4jnsgd1na2vs0mg"},{"bike_id":"199c2831-e081-4bc0-9b94-19503817091d","system_id":"levelo_inurba_marseille","lat":43.24882,"lon":5.40676,"is_reserved":false,"is_disabled":false,"rental_uris":{"android":"levelo://app?vid=199c2831-e081-4bc0-9b94-19503817091d","ios":"levelo://app?vid=199c2831-e081-4bc0-9b94-19503817091d"},"vehicle_type_id":"4","last_reported":1750547414,"current_range_meters":8000,"station_id":"","pricing_plan_id":"cebpf4jnsgd1na2vs0mg"},{"bike_id":"615c312d-7707-4490-87f1-5775255f3616","system_id":"levelo_inurba_marseille","lat":43.28713,"lon":5.3794,"is_reserved":false,"is_disabled":false,"rental_uris":{"android":"levelo://app?vid=615c312d-7707-4490-87f1-5775255f3616","ios":"levelo://app?vid=615c312d-7707-4490-87f1-5775255f3616"},"vehicle_type_id":"4","last_reported":1750547414,"current_range_meters":8000,"station_id":"ce4bh9p2rcd13ifvqec0","pricing_plan_id":"cebpf4jnsgd1na2vs0mg"},{"bike_id":"8300812b-c3f4-4460-a462-0c10590e5460","system_id":"levelo_inurba_marseille","lat":43.32973,"lon":5.40557,"is_reserved":false,"is_disabled":false,"rental_uris":{"android":"levelo://app?vid=8300812b-c3f4-4460-a462-0c10590e5460","ios":"levelo://app?vid=8300812b-c3f4-4460-a462-0c10590e5460"},"vehicle_type_id":"4","last_reported":1750547414,"current_range_meters":8400,"station_id":"","pricing_plan_id":"cebpf4jnsgd1na2vs0mg"},{"bike_id":"2b7e1917-a63b-424b-b2d7-58f7f4d01dd4","system_id":"levelo_inurba_marseille","lat":43.2954,"lon":5.38548,"is_reserved":false,"is_disabled":false,"rental_uris":{"android":"levelo://app?vid=2b7e1917-a63b-424b-b2d7-58f7f4d01dd4","ios":"levelo://app?vid=2b7e1917-a63b-424b-b2d7-58f7f4d01dd4"},"vehicle_type_id":"4","last_reported":1750547414,"current_range_meters":8400,"station_id":"ce4bgih2rcd13ifvqba0","pricing_plan_id":"cebpf4jnsgd1na2vs0mg"},{"bike_id":"1f894b6e-8d42-4485-bbfe-931f09ac1a80","system_id":"levelo_inurba_marseille","lat":43.30879,"lon":5.39662,"is_reserved":false,"is_disabled":false,"rental_uris":{"android":"levelo://app?vid=1f894b6e-8d42-4485-bbfe-931f09ac1a80","ios":"levelo://app?vid=1f894b6e-8d42-4485-bbfe-931f09ac1a80"},"vehicle_type_id":"4","last_reported":1750547414,"current_range_meters":8400,"station_id":"ce4bh012rcd13ifvqcv0","pricing_plan_id":"cebpf4jnsgd1na2vs0mg"},{"bike_id":"06216975-8470-4457-ab5f-0cd437be9f9f","system_id":"levelo_inurba_marseille","lat":43.29194,"lon":5.39312,"is_reserved":false,"is_disabled":false,"rental_uris":{"android":"levelo://app?vid=06216975-8470-4457-ab5f-0cd437be9f9f","ios":"levelo://app?vid=06216975-8470-4457-ab5f-0cd437be9f9f"},"vehicle_type_id":"4","last_reported":1750547414,"current_range_meters":8400,"station_id":"ce4bh192rcd13ifvqdd0","pricing_plan_id":"cebpf4jnsgd1na2vs0mg"},{"bike_id":"54034f11-d841-4ffe-a78d-fa8174f8f73f","system_id":"levelo_inurba_marseille","lat":43.2893,"lon":5.3639,"is_reserved":false,"is_disabled":false,"rental_uris":{"android":"levelo://app?vid=54034f11-d841-4ffe-a78d-fa8174f8f73f","ios":"levelo://app?vid=54034f11-d841-4ffe-a78d-fa8174f8f73f"},"vehicle_type_id":"4","last_reported":1750547414,"current_range_meters":8400,"station_id":"ce4bhc92rcd13ifvqetg","pricing_plan_id":"cebpf4jnsgd1na2vs0mg"},{"bike_id":"385658d2-6f8b-419d-b820-24031c25ee4f","system_id":"levelo_inurba_marseille","lat":43.27677,"lon":5.38881,"is_reserved":false,"is_disabled":false,"rental_uris":{"android":"levelo://app?vid=385658d2-6f8b-419d-b820-24031c25ee4f","ios":"levelo://app?vid=385658d2-6f8b-419d-b820-24031c25ee4f"},"vehicle_type_id":"4","last_reported":1750547414,"current_range_meters":8400,"station_id":"ce4bhi12rcd13ifvqfo0","pricing_plan_id":"cebpf4jnsgd1na2vs0mg"},{"bike_id":"bd27fe72-6fbc-453f-8b77-bee10ab3b13c","system_id":"levelo_inurba_marseille","lat":43.29529,"lon":5.42359,"is_reserved":false,"is_disabled":false,"rental_uris":{"android":"levelo://app?vid=bd27fe72-6fbc-453f-8b77-bee10ab3b13c","ios":"levelo://app?vid=bd27fe72-6fbc-453f-8b77-bee10ab3b13c"},"vehicle_type_id":"4","last_reported":1750547414,"current_range_meters":8800,"station_id":"","pricing_plan_id":"cebpf4jnsgd1na2vs0mg"},{"bike_id":"3a227eb3-4d6e-4f2d-a091-436df6f53406","system_id":"levelo_inurba_marseille","lat":43.29871,"lon":5.39745,"is_reserved":false,"is_disabled":false,"rental_uris":{"android":"levelo://app?vid=3a227eb3-4d6e-4f2d-a091-436df6f53406","ios":"levelo://app?vid=3a227eb3-4d6e-4f2d-a091-436df6f53406"},"vehicle_type_id":"4","last_reported":1750547414,"current_range_meters":8800,"station_id":"ce4bh0h2rcd13ifvqd50","pricing_plan_id":"cebpf4jnsgd1na2vs0mg"},{"bike_id":"ff5604ca-e45d-417a-a159-5bb1eb51bf8e","system_id":"levelo_inurba_marseille","lat":43.28059,"lon":5.39612,"is_reserved":false,"is_disabled":false,"rental_uris":{"android":"levelo://app?vid=ff5604ca-e45d-417a-a159-5bb1eb51bf8e","ios":"levelo://app?vid=ff5604ca-e45d-417a-a159-5bb1eb51bf8e"},"vehicle_type_id":"4","last_reported":1750547414,"current_range_meters":8800,"station_id":"ce4bho12rcd13ifvqh2g","pricing_plan_id":"cebpf4jnsgd1na2vs0mg"},{"bike_id":"f48425cf-611c-4160-aff9-97d658cfa133","system_id":"levelo_inurba_marseille","lat":43.33718,"lon":5.39192,"is_reserved":false,"is_disabled":false,"rental_uris":{"android":"levelo://app?vid=f48425cf-611c-4160-aff9-97d658cfa133","ios":"levelo://app?vid=f48425cf-611c-4160-aff9-97d658cfa133"},"vehicle_type_id":"4","last_reported":1750547414,"current_range_meters":8800,"station_id":"ce4bhr92rcd13ifvqhsg","pricing_plan_id":"cebpf4jnsgd1na2vs0mg"},{"bike_id":"cdad3616-6d2a-4c29-a0b8-b5bc84209c59","system_id":"levelo_inurba_marseille","lat":43.327139,"lon":5.392216,"is_reserved":false,"is_disabled":false,"rental_uris":{"android":"levelo://app?vid=cdad3616-6d2a-4c29-a0b8-b5bc84209c59","ios":"levelo://app?vid=cdad3616-6d2a-4c29-a0b8-b5bc84209c59"},"vehicle_type_id":"4","last_reported":1750547414,"current_range_meters":9200,"station_id":"","pricing_plan_id":"cebpf4jnsgd1na2vs0mg"},{"bike_id":"c67b0f11-d157-433d-ac4d-475954c9ba9d","system_id":"levelo_inurba_marseille","lat":43.29789,"lon":5.40411,"is_reserved":false,"is_disabled":false,"rental_uris":{"android":"levelo://app?vid=c67b0f11-d157-433d-ac4d-475954c9ba9d","ios":"levelo://app?vid=c67b0f11-d157-433d-ac4d-475954c9ba9d"},"vehicle_type_id":"4","last_reported":1750547414,"current_range_meters":9200,"station_id":"ce4bh112rcd13ifvqd90","pricing_plan_id":"cebpf4jnsgd1na2vs0mg"},{"bike_id":"0616cb85-bba9-4892-be95-e4f877e1be6b","system_id":"levelo_inurba_marseille","lat":43.2848,"lon":5.38419,"is_reserved":false,"is_disabled":false,"rental_uris":{"android":"levelo://app?vid=0616cb85-bba9-4892-be95-e4f877e1be6b","ios":"levelo://app?vid=0616cb85-bba9-4892-be95-e4f877e1be6b"},"vehicle_type_id":"4","last_reported":1750547414,"current_range_meters":9200,"station_id":"ce4bh512rcd13ifvqe3g","pricing_plan_id":"cebpf4jnsgd1na2vs0mg"},{"bike_id":"07380329-59c2-4c33-ba74-5fe3d139daf4","system_id":"levelo_inurba_marseille","lat":43.26202,"lon":5.37933,"is_reserved":false,"is_disabled":false,"rental_uris":{"android":"levelo://app?vid=07380329-59c2-4c33-ba74-5fe3d139daf4","ios":"levelo://app?vid=07380329-59c2-4c33-ba74-5fe3d139daf4"},"vehicle_type_id":"4","last_reported":1750547414,"current_range_meters":9200,"station_id":"ce4bhjp2rcd13ifvqg90","pricing_plan_id":"cebpf4jnsgd1na2vs0mg"},{"bike_id":"debb7232-acc2-43bc-847b-84db76540ad4","system_id":"levelo_inurba_marseille","lat":43.24052,"lon":5.37775,"is_reserved":false,"is_disabled":false,"rental_uris":{"android":"levelo://app?vid=debb7232-acc2-43bc-847b-84db76540ad4","ios":"levelo://app?vid=debb7232-acc2-43bc-847b-84db76540ad4"},"vehicle_type_id":"4","last_reported":1750547414,"current_range_meters":9200,"station_id":"ce4bhnp2rcd13ifvqgvg","pricing_plan_id":"cebpf4jnsgd1na2vs0mg"},{"bike_id":"96501633-4202-4f5b-86a9-63f472c7fcb4","system_id":"levelo_inurba_marseille","lat":43.28693,"lon":5.3999,"is_reserved":false,"is_disabled":false,"rental_uris":{"android":"levelo://app?vid=96501633-4202-4f5b-86a9-63f472c7fcb4","ios":"levelo://app?vid=96501633-4202-4f5b-86a9-63f472c7fcb4"},"vehicle_type_id":"4","last_reported":1750547414,"current_range_meters":9200,"station_id":"ce4bho92rcd13ifvqh3g","pricing_plan_id":"cebpf4jnsgd1na2vs0mg"},{"bike_id":"a2c878c7-87a5-40cd-a0ea-818a464a83bd","system_id":"levelo_inurba_marseille","lat":43.29574,"lon":5.37429,"is_reserved":false,"is_disabled":false,"rental_uris":{"android":"levelo://app?vid=a2c878c7-87a5-40cd-a0ea-818a464a83bd","ios":"levelo://app?vid=a2c878c7-87a5-40cd-a0ea-818a464a83bd"},"vehicle_type_id":"4","last_reported":1750547414,"current_range_meters":9600,"station_id":"","pricing_plan_id":"cebpf4jnsgd1na2vs0mg"},{"bike_id":"efe3648f-ac8e-42f9-92fb-7ea45b49a2d9","system_id":"levelo_inurba_marseille","lat":43.29521,"lon":5.38536,"is_reserved":false,"is_disabled":false,"rental_uris":{"android":"levelo://app?vid=efe3648f-ac8e-42f9-92fb-7ea45b49a2d9","ios":"levelo://app?vid=efe3648f-ac8e-42f9-92fb-7ea45b49a2d9"},"vehicle_type_id":"4","last_reported":1750547414,"current_range_meters":9600,"station_id":"ce4bgih2rcd13ifvqba0","pricing_plan_id":"cebpf4jnsgd1na2vs0mg"},{"bike_id":"ababcb8e-dd43-4940-a2d9-6f208c1c21c8","system_id":"levelo_inurba_marseille","lat":43.33714,"lon":5.39201,"is_reserved":false,"is_disabled":false,"rental_uris":{"android":"levelo://app?vid=ababcb8e-dd43-4940-a2d9-6f208c1c21c8","ios":"levelo://app?vid=ababcb8e-dd43-4940-a2d9-6f208c1c21c8"},"vehicle_type_id":"4","last_reported":1750547414,"current_range_meters":9600,"station_id":"ce4bhr92rcd13ifvqhsg","pricing_plan_id":"cebpf4jnsgd1na2vs0mg"},{"bike_id":"1a08828d-babd-48a2-9d18-0ef9115845b9","system_id":"levelo_inurba_marseille","lat":43.30347,"lon":5.39244,"is_reserved":false,"is_disabled":false,"rental_uris":{"android":"levelo://app?vid=1a08828d-babd-48a2-9d18-0ef9115845b9","ios":"levelo://app?vid=1a08828d-babd-48a2-9d18-0ef9115845b9"},"vehicle_type_id":"4","last_reported":1750547414,"current_range_meters":10000,"station_id":"","pricing_plan_id":"cebpf4jnsgd1na2vs0mg"},{"bike_id":"d40af265-11b5-43a6-9bb6-f910f57901ba","system_id":"levelo_inurba_marseille","lat":43.33033,"lon":5.38002,"is_reserved":false,"is_disabled":false,"rental_uris":{"android":"levelo://app?vid=d40af265-11b5-43a6-9bb6-f910f57901ba","ios":"levelo://app?vid=d40af265-11b5-43a6-9bb6-f910f57901ba"},"vehicle_type_id":"4","last_reported":1750547414,"current_range_meters":10000,"station_id":"","pricing_plan_id":"cebpf4jnsgd1na2vs0mg"},{"bike_id":"ca20e93d-a045-438d-a2a2-47226c99a494","system_id":"levelo_inurba_marseille","lat":43.29258,"lon":5.40905,"is_reserved":false,"is_disabled":false,"rental_uris":{"android":"levelo://app?vid=ca20e93d-a045-438d-a2a2-47226c99a494","ios":"levelo://app?vid=ca20e93d-a045-438d-a2a2-47226c99a494"},"vehicle_type_id":"4","last_reported":1750547414,"current_range_meters":10000,"station_id":"ce4bh192rcd13ifvqdc0","pricing_plan_id":"cebpf4jnsgd1na2vs0mg"},{"bike_id":"fd098e75-d559-4a1d-804e-dff096abf73e","system_id":"levelo_inurba_marseille","lat":43.27955,"lon":5.41044,"is_reserved":false,"is_disabled":false,"rental_uris":{"android":"levelo://app?vid=fd098e75-d559-4a1d-804e-dff096abf73e","ios":"levelo://app?vid=fd098e75-d559-4a1d-804e-dff096abf73e"},"vehicle_type_id":"4","last_reported":1750547414,"current_range_meters":10000,"station_id":"ce4bhnp2rcd13ifvqh0g","pricing_plan_id":"cebpf4jnsgd1na2vs0mg"},{"bike_id":"a22aa312-0025-4f42-88e2-b1e95e79340f","system_id":"levelo_inurba_marseille","lat":43.31645,"lon":5.38323,"is_reserved":false,"is_disabled":false,"rental_uris":{"android":"levelo://app?vid=a22aa312-0025-4f42-88e2-b1e95e79340f","ios":"levelo://app?vid=a22aa312-0025-4f42-88e2-b1e95e79340f"},"vehicle_type_id":"4","last_reported":1750547414,"current_range_meters":10800,"station_id":"","pricing_plan_id":"cebpf4jnsgd1na2vs0mg"},{"bike_id":"fc109e5a-d8a5-44f5-aa12-f3f458303a29","system_id":"levelo_inurba_marseille","lat":43.29258,"lon":5.38487,"is_reserved":false,"is_disabled":false,"rental_uris":{"android":"levelo://app?vid=fc109e5a-d8a5-44f5-aa12-f3f458303a29","ios":"levelo://app?vid=fc109e5a-d8a5-44f5-aa12-f3f458303a29"},"vehicle_type_id":"4","last_reported":1750547414,"current_range_meters":10800,"station_id":"","pricing_plan_id":"cebpf4jnsgd1na2vs0mg"},{"bike_id":"93a35009-d289-435b-adc5-a37b4aabe5db","system_id":"levelo_inurba_marseille","lat":43.23893,"lon":5.36521,"is_reserved":false,"is_disabled":false,"rental_uris":{"android":"levelo://app?vid=93a35009-d289-435b-adc5-a37b4aabe5db","ios":"levelo://app?vid=93a35009-d289-435b-adc5-a37b4aabe5db"},"vehicle_type_id":"4","last_reported":1750547414,"current_range_meters":10800,"station_id":"","pricing_plan_id":"cebpf4jnsgd1na2vs0mg"},{"bike_id":"a2d8a218-5e8c-42bc-bf37-717fb0cd1068","system_id":"levelo_inurba_marseille","lat":43.30079,"lon":5.36543,"is_reserved":false,"is_disabled":false,"rental_uris":{"android":"levelo://app?vid=a2d8a218-5e8c-42bc-bf37-717fb0cd1068","ios":"levelo://app?vid=a2d8a218-5e8c-42bc-bf37-717fb0cd1068"},"vehicle_type_id":"4","last_reported":1750547414,"current_range_meters":10800,"station_id":"","pricing_plan_id":"cebpf4jnsgd1na2vs0mg"},{"bike_id":"05115e10-6636-4522-bc5a-5d44e317e99c","system_id":"levelo_inurba_marseille","lat":43.31071,"lon":5.3836,"is_reserved":false,"is_disabled":false,"rental_uris":{"android":"levelo://app?vid=05115e10-6636-4522-bc5a-5d44e317e99c","ios":"levelo://app?vid=05115e10-6636-4522-bc5a-5d44e317e99c"},"vehicle_type_id":"4","last_reported":1750547414,"current_range_meters":10800,"station_id":"ce4bgv92rcd13ifvqcr0","pricing_plan_id":"cebpf4jnsgd1na2vs0mg"},{"bike_id":"5ad67e24-1b58-4b06-8c6e-21bc7d8d9e4b","system_id":"levelo_inurba_marseille","lat":43.28406,"lon":5.37519,"is_reserved":false,"is_disabled":false,"rental_uris":{"android":"levelo://app?vid=5ad67e24-1b58-4b06-8c6e-21bc7d8d9e4b","ios":"levelo://app?vid=5ad67e24-1b58-4b06-8c6e-21bc7d8d9e4b"},"vehicle_type_id":"4","last_reported":1750547414,"current_range_meters":10800,"station_id":"ce4bh412rcd13ifvqds0","pricing_plan_id":"cebpf4jnsgd1na2vs0mg"},{"bike_id":"8938bc79-a39b-45b4-8548-17e0b828d47b","system_id":"levelo_inurba_marseille","lat":43.28035,"lon":5.36951,"is_reserved":false,"is_disabled":false,"rental_uris":{"android":"levelo://app?vid=8938bc79-a39b-45b4-8548-17e0b828d47b","ios":"levelo://app?vid=8938bc79-a39b-45b4-8548-17e0b828d47b"},"vehicle_type_id":"4","last_reported":1750547414,"current_range_meters":10800,"station_id":"ce4bha12rcd13ifvqef0","pricing_plan_id":"cebpf4jnsgd1na2vs0mg"},{"bike_id":"bd12cb23-56f5-4d7b-aadf-9734a1662fff","system_id":"levelo_inurba_marseille","lat":43.28957,"lon":5.36645,"is_reserved":false,"is_disabled":false,"rental_uris":{"android":"levelo://app?vid=bd12cb23-56f5-4d7b-aadf-9734a1662fff","ios":"levelo://app?vid=bd12cb23-56f5-4d7b-aadf-9734a1662fff"},"vehicle_type_id":"4","last_reported":1750547414,"current_range_meters":10800,"station_id":"ce4bhap2rcd13ifvqek0","pricing_plan_id":"cebpf4jnsgd1na2vs0mg"},{"bike_id":"d60a9288-5a8f-4758-b4d1-807be1c0164e","system_id":"levelo_inurba_marseille","lat":43.24379,"lon":5.370653,"is_reserved":false,"is_disabled":false,"rental_uris":{"android":"levelo://app?vid=d60a9288-5a8f-4758-b4d1-807be1c0164e","ios":"levelo://app?vid=d60a9288-5a8f-4758-b4d1-807be1c0164e"},"vehicle_type_id":"4","last_reported":1750547414,"current_range_meters":10800,"station_id":"ce4bhhh2rcd13ifvqfk0","pricing_plan_id":"cebpf4jnsgd1na2vs0mg"},{"bike_id":"e5cc270a-1c15-4aab-ba23-9867b88a94cd","system_id":"levelo_inurba_marseille","lat":43.27175,"lon":5.40998,"is_reserved":false,"is_disabled":false,"rental_uris":{"android":"levelo://app?vid=e5cc270a-1c15-4aab-ba23-9867b88a94cd","ios":"levelo://app?vid=e5cc270a-1c15-4aab-ba23-9867b88a94cd"},"vehicle_type_id":"4","last_reported":1750547414,"current_range_meters":10800,"station_id":"ce4bhl12rcd13ifvqgf0","pricing_plan_id":"cebpf4jnsgd1na2vs0mg"},{"bike_id":"a977171f-d522-4850-a21a-66c37a9587ec","system_id":"levelo_inurba_marseille","lat":43.28719,"lon":5.3608,"is_reserved":false,"is_disabled":false,"rental_uris":{"android":"levelo://app?vid=a977171f-d522-4850-a21a-66c37a9587ec","ios":"levelo://app?vid=a977171f-d522-4850-a21a-66c37a9587ec"},"vehicle_type_id":"4","last_reported":1750547414,"current_range_meters":10800,"station_id":"cki0cbj6b192h4jlfktg","pricing_plan_id":"cebpf4jnsgd1na2vs0mg"},{"bike_id":"aa5769d7-c43e-4bb2-b3a5-f81f29dc96d1","system_id":"levelo_inurba_marseille","lat":43.29612,"lon":5.37001,"is_reserved":false,"is_disabled":false,"rental_uris":{"android":"levelo://app?vid=aa5769d7-c43e-4bb2-b3a5-f81f29dc96d1","ios":"levelo://app?vid=aa5769d7-c43e-4bb2-b3a5-f81f29dc96d1"},"vehicle_type_id":"4","last_reported":1750547414,"current_range_meters":11200,"station_id":"","pricing_plan_id":"cebpf4jnsgd1na2vs0mg"},{"bike_id":"3754d21c-7bab-4482-91c2-7c98a5caea83","system_id":"levelo_inurba_marseille","lat":43.29521,"lon":5.38537,"is_reserved":false,"is_disabled":false,"rental_uris":{"android":"levelo://app?vid=3754d21c-7bab-4482-91c2-7c98a5caea83","ios":"levelo://app?vid=3754d21c-7bab-4482-91c2-7c98a5caea83"},"vehicle_type_id":"4","last_reported":1750547414,"current_range_meters":11200,"station_id":"ce4bgih2rcd13ifvqba0","pricing_plan_id":"cebpf4jnsgd1na2vs0mg"},{"bike_id":"7742f9e1-16de-4ea2-857a-7b8867aaefb4","system_id":"levelo_inurba_marseille","lat":43.30464,"lon":5.37916,"is_reserved":false,"is_disabled":false,"rental_uris":{"android":"levelo://app?vid=7742f9e1-16de-4ea2-857a-7b8867aaefb4","ios":"levelo://app?vid=7742f9e1-16de-4ea2-857a-7b8867aaefb4"},"vehicle_type_id":"4","last_reported":1750547414,"current_range_meters":11200,"station_id":"ce4bgup2rcd13ifvqcn0","pricing_plan_id":"cebpf4jnsgd1na2vs0mg"},{"bike_id":"9e3e15d5-0e80-47dc-be37-cfe8b9e2a13a","system_id":"levelo_inurba_marseille","lat":43.23177,"lon":5.39992,"is_reserved":false,"is_disabled":false,"rental_uris":{"android":"levelo://app?vid=9e3e15d5-0e80-47dc-be37-cfe8b9e2a13a","ios":"levelo://app?vid=9e3e15d5-0e80-47dc-be37-cfe8b9e2a13a"},"vehicle_type_id":"4","last_reported":1750547414,"current_range_meters":11200,"station_id":"ce4bhn12rcd13ifvqgqg","pricing_plan_id":"cebpf4jnsgd1na2vs0mg"},{"bike_id":"e5d8fcd3-8a25-4050-9f44-4c78831bc429","system_id":"levelo_inurba_marseille","lat":43.28432,"lon":5.39196,"is_reserved":false,"is_disabled":false,"rental_uris":{"android":"levelo://app?vid=e5d8fcd3-8a25-4050-9f44-4c78831bc429","ios":"levelo://app?vid=e5d8fcd3-8a25-4050-9f44-4c78831bc429"},"vehicle_type_id":"4","last_reported":1750547414,"current_range_meters":11200,"station_id":"ce4bhoh2rcd13ifvqh5g","pricing_plan_id":"cebpf4jnsgd1na2vs0mg"},{"bike_id":"79c04832-1317-4318-8f4e-e76e8df7404b","system_id":"levelo_inurba_marseille","lat":43.26019,"lon":5.41746,"is_reserved":false,"is_disabled":false,"rental_uris":{"android":"levelo://app?vid=79c04832-1317-4318-8f4e-e76e8df7404b","ios":"levelo://app?vid=79c04832-1317-4318-8f4e-e76e8df7404b"},"vehicle_type_id":"4","last_reported":1750547414,"current_range_meters":11600,"station_id":"","pricing_plan_id":"cebpf4jnsgd1na2vs0mg"},{"bike_id":"0f6760b7-6995-49e3-ab59-ab51f544bd7b","system_id":"levelo_inurba_marseille","lat":43.30636,"lon":5.40093,"is_reserved":false,"is_disabled":false,"rental_uris":{"android":"levelo://app?vid=0f6760b7-6995-49e3-ab59-ab51f544bd7b","ios":"levelo://app?vid=0f6760b7-6995-49e3-ab59-ab51f544bd7b"},"vehicle_type_id":"4","last_reported":1750547414,"current_range_meters":11600,"station_id":"ce4bh112rcd13ifvqda0","pricing_plan_id":"cebpf4jnsgd1na2vs0mg"},{"bike_id":"1bc0e563-d17f-470f-8ae5-5f696f9d6b36","system_id":"levelo_inurba_marseille","lat":43.29266,"lon":5.38441,"is_reserved":false,"is_disabled":false,"rental_uris":{"android":"levelo://app?vid=1bc0e563-d17f-470f-8ae5-5f696f9d6b36","ios":"levelo://app?vid=1bc0e563-d17f-470f-8ae5-5f696f9d6b36"},"vehicle_type_id":"4","last_reported":1750547414,"current_range_meters":11600,"station_id":"ce4bh692rcd13ifvqea0","pricing_plan_id":"cebpf4jnsgd1na2vs0mg"},{"bike_id":"098873ae-edc2-48a1-a25b-1a24acdee5de","system_id":"levelo_inurba_marseille","lat":43.2846,"lon":5.35882,"is_reserved":false,"is_disabled":false,"rental_uris":{"android":"levelo://app?vid=098873ae-edc2-48a1-a25b-1a24acdee5de","ios":"levelo://app?vid=098873ae-edc2-48a1-a25b-1a24acdee5de"},"vehicle_type_id":"4","last_reported":1750547414,"current_range_meters":12000,"station_id":"ce4bhah2rcd13ifvqei0","pricing_plan_id":"cebpf4jnsgd1na2vs0mg"},{"bike_id":"f51a5534-8939-4b18-946b-f0305ff610f8","system_id":"levelo_inurba_marseille","lat":43.31993,"lon":5.38146,"is_reserved":false,"is_disabled":false,"rental_uris":{"android":"levelo://app?vid=f51a5534-8939-4b18-946b-f0305ff610f8","ios":"levelo://app?vid=f51a5534-8939-4b18-946b-f0305ff610f8"},"vehicle_type_id":"4","last_reported":1750547414,"current_range_meters":12000,"station_id":"ce4bhr12rcd13ifvqhpg","pricing_plan_id":"cebpf4jnsgd1na2vs0mg"},{"bike_id":"79bd6c04-dc69-4f37-91a9-70518b9d0036","system_id":"levelo_inurba_marseille","lat":43.31519,"lon":5.38029,"is_reserved":false,"is_disabled":false,"rental_uris":{"android":"levelo://app?vid=79bd6c04-dc69-4f37-91a9-70518b9d0036","ios":"levelo://app?vid=79bd6c04-dc69-4f37-91a9-70518b9d0036"},"vehicle_type_id":"4","last_reported":1750547414,"current_range_meters":12000,"station_id":"ce4bhsp2rcd13ifvqi50","pricing_plan_id":"cebpf4jnsgd1na2vs0mg"},{"bike_id":"975ea812-2b5e-43bc-9923-21f218329838","system_id":"levelo_inurba_marseille","lat":43.301352,"lon":5.37488,"is_reserved":false,"is_disabled":false,"rental_uris":{"android":"levelo://app?vid=975ea812-2b5e-43bc-9923-21f218329838","ios":"levelo://app?vid=975ea812-2b5e-43bc-9923-21f218329838"},"vehicle_type_id":"4","last_reported":1750547414,"current_range_meters":12400,"station_id":"","pricing_plan_id":"cebpf4jnsgd1na2vs0mg"},{"bike_id":"d1ed8228-cd73-4070-ac25-866c8543dd85","system_id":"levelo_inurba_marseille","lat":43.30886,"lon":5.39665,"is_reserved":false,"is_disabled":false,"rental_uris":{"android":"levelo://app?vid=d1ed8228-cd73-4070-ac25-866c8543dd85","ios":"levelo://app?vid=d1ed8228-cd73-4070-ac25-866c8543dd85"},"vehicle_type_id":"4","last_reported":1750547414,"current_range_meters":12400,"station_id":"ce4bh012rcd13ifvqcv0","pricing_plan_id":"cebpf4jnsgd1na2vs0mg"},{"bike_id":"b031c6f5-4ce6-4d08-af8e-c12c47104c17","system_id":"levelo_inurba_marseille","lat":43.28715,"lon":5.37944,"is_reserved":false,"is_disabled":false,"rental_uris":{"android":"levelo://app?vid=b031c6f5-4ce6-4d08-af8e-c12c47104c17","ios":"levelo://app?vid=b031c6f5-4ce6-4d08-af8e-c12c47104c17"},"vehicle_type_id":"4","last_reported":1750547414,"current_range_meters":12400,"station_id":"ce4bh9p2rcd13ifvqec0","pricing_plan_id":"cebpf4jnsgd1na2vs0mg"},{"bike_id":"b7036bc1-c072-4f36-9c66-21ff695540f4","system_id":"levelo_inurba_marseille","lat":43.246813,"lon":5.394331,"is_reserved":false,"is_disabled":false,"rental_uris":{"android":"levelo://app?vid=b7036bc1-c072-4f36-9c66-21ff695540f4","ios":"levelo://app?vid=b7036bc1-c072-4f36-9c66-21ff695540f4"},"vehicle_type_id":"4","last_reported":1750547414,"current_range_meters":12800,"station_id":"","pricing_plan_id":"cebpf4jnsgd1na2vs0mg"},{"bike_id":"8efcebbf-e59d-4ed1-8ebe-e25ac4a9d230","system_id":"levelo_inurba_marseille","lat":43.299,"lon":5.38182,"is_reserved":false,"is_disabled":false,"rental_uris":{"android":"levelo://app?vid=8efcebbf-e59d-4ed1-8ebe-e25ac4a9d230","ios":"levelo://app?vid=8efcebbf-e59d-4ed1-8ebe-e25ac4a9d230"},"vehicle_type_id":"4","last_reported":1750547414,"current_range_meters":12800,"station_id":"ce4bgj12rcd13ifvqbc0","pricing_plan_id":"cebpf4jnsgd1na2vs0mg"},{"bike_id":"5902c598-8f69-4ad1-b54f-90bbdb3546a0","system_id":"levelo_inurba_marseille","lat":43.30629,"lon":5.40095,"is_reserved":false,"is_disabled":false,"rental_uris":{"android":"levelo://app?vid=5902c598-8f69-4ad1-b54f-90bbdb3546a0","ios":"levelo://app?vid=5902c598-8f69-4ad1-b54f-90bbdb3546a0"},"vehicle_type_id":"4","last_reported":1750547414,"current_range_meters":12800,"station_id":"ce4bh112rcd13ifvqda0","pricing_plan_id":"cebpf4jnsgd1na2vs0mg"},{"bike_id":"4c60b634-6ce5-4f5b-89d6-8f2c74e75f5f","system_id":"levelo_inurba_marseille","lat":43.283529,"lon":5.381053,"is_reserved":false,"is_disabled":false,"rental_uris":{"android":"levelo://app?vid=4c60b634-6ce5-4f5b-89d6-8f2c74e75f5f","ios":"levelo://app?vid=4c60b634-6ce5-4f5b-89d6-8f2c74e75f5f"},"vehicle_type_id":"4","last_reported":1750547414,"current_range_meters":12800,"station_id":"ce4bh412rcd13ifvqdr0","pricing_plan_id":"cebpf4jnsgd1na2vs0mg"},{"bike_id":"4268b90e-f2b0-47f2-9c56-70c5b5e07e37","system_id":"levelo_inurba_marseille","lat":43.27992,"lon":5.41667,"is_reserved":false,"is_disabled":false,"rental_uris":{"android":"levelo://app?vid=4268b90e-f2b0-47f2-9c56-70c5b5e07e37","ios":"levelo://app?vid=4268b90e-f2b0-47f2-9c56-70c5b5e07e37"},"vehicle_type_id":"4","last_reported":1750547414,"current_range_meters":12800,"station_id":"ce4bho12rcd13ifvqh1g","pricing_plan_id":"cebpf4jnsgd1na2vs0mg"},{"bike_id":"00b5ccfe-1324-42cc-9cb4-a6169832b34e","system_id":"levelo_inurba_marseille","lat":43.31081,"lon":5.42447,"is_reserved":false,"is_disabled":false,"rental_uris":{"android":"levelo://app?vid=00b5ccfe-1324-42cc-9cb4-a6169832b34e","ios":"levelo://app?vid=00b5ccfe-1324-42cc-9cb4-a6169832b34e"},"vehicle_type_id":"4","last_reported":1750547414,"current_range_meters":12800,"station_id":"ce4bhp92rcd13ifvqhag","pricing_plan_id":"cebpf4jnsgd1na2vs0mg"},{"bike_id":"1456dbfe-82a6-4823-a870-e2ce47c426da","system_id":"levelo_inurba_marseille","lat":43.30647,"lon":5.40099,"is_reserved":false,"is_disabled":false,"rental_uris":{"android":"levelo://app?vid=1456dbfe-82a6-4823-a870-e2ce47c426da","ios":"levelo://app?vid=1456dbfe-82a6-4823-a870-e2ce47c426da"},"vehicle_type_id":"4","last_reported":1750547414,"current_range_meters":13600,"station_id":"ce4bh112rcd13ifvqda0","pricing_plan_id":"cebpf4jnsgd1na2vs0mg"},{"bike_id":"7e973251-2b41-441c-a63f-a7f9ee309194","system_id":"levelo_inurba_marseille","lat":43.292694,"lon":5.384473,"is_reserved":false,"is_disabled":false,"rental_uris":{"android":"levelo://app?vid=7e973251-2b41-441c-a63f-a7f9ee309194","ios":"levelo://app?vid=7e973251-2b41-441c-a63f-a7f9ee309194"},"vehicle_type_id":"4","last_reported":1750547414,"current_range_meters":13600,"station_id":"ce4bh692rcd13ifvqea0","pricing_plan_id":"cebpf4jnsgd1na2vs0mg"},{"bike_id":"a60ea65e-ee5f-4b08-beb8-9b5d72f14f7f","system_id":"levelo_inurba_marseille","lat":43.33715,"lon":5.39198,"is_reserved":false,"is_disabled":false,"rental_uris":{"android":"levelo://app?vid=a60ea65e-ee5f-4b08-beb8-9b5d72f14f7f","ios":"levelo://app?vid=a60ea65e-ee5f-4b08-beb8-9b5d72f14f7f"},"vehicle_type_id":"4","last_reported":1750547414,"current_range_meters":13600,"station_id":"ce4bhr92rcd13ifvqhsg","pricing_plan_id":"cebpf4jnsgd1na2vs0mg"},{"bike_id":"c2142990-dd63-4040-8819-de4a77eb904b","system_id":"levelo_inurba_marseille","lat":43.24167,"lon":5.36419,"is_reserved":false,"is_disabled":false,"rental_uris":{"android":"levelo://app?vid=c2142990-dd63-4040-8819-de4a77eb904b","ios":"levelo://app?vid=c2142990-dd63-4040-8819-de4a77eb904b"},"vehicle_type_id":"4","last_reported":1750547414,"current_range_meters":13600,"station_id":"cpo36qri1sfpv3e86is0","pricing_plan_id":"cebpf4jnsgd1na2vs0mg"},{"bike_id":"101aa99a-32ab-4854-9c23-65e1026ce6b2","system_id":"levelo_inurba_marseille","lat":43.29209,"lon":5.38359,"is_reserved":false,"is_disabled":false,"rental_uris":{"android":"levelo://app?vid=101aa99a-32ab-4854-9c23-65e1026ce6b2","ios":"levelo://app?vid=101aa99a-32ab-4854-9c23-65e1026ce6b2"},"vehicle_type_id":"4","last_reported":1750547414,"current_range_meters":14000,"station_id":"","pricing_plan_id":"cebpf4jnsgd1na2vs0mg"},{"bike_id":"27daafb3-d0b3-4167-953f-c2e841eb2d95","system_id":"levelo_inurba_marseille","lat":43.31358,"lon":5.38503,"is_reserved":false,"is_disabled":false,"rental_uris":{"android":"levelo://app?vid=27daafb3-d0b3-4167-953f-c2e841eb2d95","ios":"levelo://app?vid=27daafb3-d0b3-4167-953f-c2e841eb2d95"},"vehicle_type_id":"4","last_reported":1750547414,"current_range_meters":14000,"station_id":"ce4bgt92rcd13ifvqcf0","pricing_plan_id":"cebpf4jnsgd1na2vs0mg"},{"bike_id":"e6fff04a-dee7-4a48-8403-7fd0a722ddf5","system_id":"levelo_inurba_marseille","lat":43.24045,"lon":5.37773,"is_reserved":false,"is_disabled":false,"rental_uris":{"android":"levelo://app?vid=e6fff04a-dee7-4a48-8403-7fd0a722ddf5","ios":"levelo://app?vid=e6fff04a-dee7-4a48-8403-7fd0a722ddf5"},"vehicle_type_id":"4","last_reported":1750547414,"current_range_meters":14000,"station_id":"ce4bhnp2rcd13ifvqgvg","pricing_plan_id":"cebpf4jnsgd1na2vs0mg"},{"bike_id":"79f74949-948c-46e9-a246-d75bd3b5e372","system_id":"levelo_inurba_marseille","lat":43.3172,"lon":5.43712,"is_reserved":false,"is_disabled":false,"rental_uris":{"android":"levelo://app?vid=79f74949-948c-46e9-a246-d75bd3b5e372","ios":"levelo://app?vid=79f74949-948c-46e9-a246-d75bd3b5e372"},"vehicle_type_id":"4","last_reported":1750547414,"current_range_meters":14000,"station_id":"ce4bhp92rcd13ifvqhcg","pricing_plan_id":"cebpf4jnsgd1na2vs0mg"},{"bike_id":"c3a1ec7c-3e38-4053-b976-3366d78ed980","system_id":"levelo_inurba_marseille","lat":43.29775,"lon":5.3933,"is_reserved":false,"is_disabled":false,"rental_uris":{"android":"levelo://app?vid=c3a1ec7c-3e38-4053-b976-3366d78ed980","ios":"levelo://app?vid=c3a1ec7c-3e38-4053-b976-3366d78ed980"},"vehicle_type_id":"4","last_reported":1750547414,"current_range_meters":14000,"station_id":"chh1huq6cuj3fo74tm60","pricing_plan_id":"cebpf4jnsgd1na2vs0mg"},{"bike_id":"3df8e426-b61e-4efe-9317-825403b2a03d","system_id":"levelo_inurba_marseille","lat":43.24388,"lon":5.37061,"is_reserved":false,"is_disabled":false,"rental_uris":{"android":"levelo://app?vid=3df8e426-b61e-4efe-9317-825403b2a03d","ios":"levelo://app?vid=3df8e426-b61e-4efe-9317-825403b2a03d"},"vehicle_type_id":"4","last_reported":1750547414,"current_range_meters":14400,"station_id":"ce4bhhh2rcd13ifvqfk0","pricing_plan_id":"cebpf4jnsgd1na2vs0mg"},{"bike_id":"6582cee1-263b-4528-983b-897e6d2bc6bc","system_id":"levelo_inurba_marseille","lat":43.33717,"lon":5.39194,"is_reserved":false,"is_disabled":false,"rental_uris":{"android":"levelo://app?vid=6582cee1-263b-4528-983b-897e6d2bc6bc","ios":"levelo://app?vid=6582cee1-263b-4528-983b-897e6d2bc6bc"},"vehicle_type_id":"4","last_reported":1750547414,"current_range_meters":14400,"station_id":"ce4bhr92rcd13ifvqhsg","pricing_plan_id":"cebpf4jnsgd1na2vs0mg"},{"bike_id":"db76ccd8-7907-4d3d-8ebd-ea0cdadbca52","system_id":"levelo_inurba_marseille","lat":43.27262,"lon":5.39107,"is_reserved":false,"is_disabled":false,"rental_uris":{"android":"levelo://app?vid=db76ccd8-7907-4d3d-8ebd-ea0cdadbca52","ios":"levelo://app?vid=db76ccd8-7907-4d3d-8ebd-ea0cdadbca52"},"vehicle_type_id":"4","last_reported":1750547414,"current_range_meters":14800,"station_id":"","pricing_plan_id":"cebpf4jnsgd1na2vs0mg"},{"bike_id":"8750c22e-959f-49a0-b1bb-6b7c3ed971cb","system_id":"levelo_inurba_marseille","lat":43.28348,"lon":5.38116,"is_reserved":false,"is_disabled":false,"rental_uris":{"android":"levelo://app?vid=8750c22e-959f-49a0-b1bb-6b7c3ed971cb","ios":"levelo://app?vid=8750c22e-959f-49a0-b1bb-6b7c3ed971cb"},"vehicle_type_id":"4","last_reported":1750547414,"current_range_meters":14800,"station_id":"ce4bh412rcd13ifvqdr0","pricing_plan_id":"cebpf4jnsgd1na2vs0mg"},{"bike_id":"701cdc74-6f33-4e9a-8c51-3f2586bab2ca","system_id":"levelo_inurba_marseille","lat":43.283256,"lon":5.381092,"is_reserved":false,"is_disabled":false,"rental_uris":{"android":"levelo://app?vid=701cdc74-6f33-4e9a-8c51-3f2586bab2ca","ios":"levelo://app?vid=701cdc74-6f33-4e9a-8c51-3f2586bab2ca"},"vehicle_type_id":"4","last_reported":1750547414,"current_range_meters":14800,"station_id":"ce4bh412rcd13ifvqdr0","pricing_plan_id":"cebpf4jnsgd1na2vs0mg"},{"bike_id":"7c3434e7-ecd7-4565-9a0f-952b018128a9","system_id":"levelo_inurba_marseille","lat":43.21199,"lon":5.35107,"is_reserved":false,"is_disabled":false,"rental_uris":{"android":"levelo://app?vid=7c3434e7-ecd7-4565-9a0f-952b018128a9","ios":"levelo://app?vid=7c3434e7-ecd7-4565-9a0f-952b018128a9"},"vehicle_type_id":"4","last_reported":1750547414,"current_range_meters":14800,"station_id":"st_cvj6sg6p6f1abm77japg","pricing_plan_id":"cebpf4jnsgd1na2vs0mg"},{"bike_id":"4d80d21e-3dc9-4004-a3c0-eb7b371a8ccf","system_id":"levelo_inurba_marseille","lat":43.33032,"lon":5.39361,"is_reserved":false,"is_disabled":false,"rental_uris":{"android":"levelo://app?vid=4d80d21e-3dc9-4004-a3c0-eb7b371a8ccf","ios":"levelo://app?vid=4d80d21e-3dc9-4004-a3c0-eb7b371a8ccf"},"vehicle_type_id":"4","last_reported":1750547414,"current_range_meters":15200,"station_id":"","pricing_plan_id":"cebpf4jnsgd1na2vs0mg"},{"bike_id":"7f551a9e-1767-4a8e-8fce-10e155d769a3","system_id":"levelo_inurba_marseille","lat":43.30262,"lon":5.37723,"is_reserved":false,"is_disabled":false,"rental_uris":{"android":"levelo://app?vid=7f551a9e-1767-4a8e-8fce-10e155d769a3","ios":"levelo://app?vid=7f551a9e-1767-4a8e-8fce-10e155d769a3"},"vehicle_type_id":"4","last_reported":1750547414,"current_range_meters":15200,"station_id":"ce4bguh2rcd13ifvqcj0","pricing_plan_id":"cebpf4jnsgd1na2vs0mg"},{"bike_id":"60996aea-84eb-4f52-8bcc-2e656b335082","system_id":"levelo_inurba_marseille","lat":43.29282,"lon":5.38451,"is_reserved":false,"is_disabled":false,"rental_uris":{"android":"levelo://app?vid=60996aea-84eb-4f52-8bcc-2e656b335082","ios":"levelo://app?vid=60996aea-84eb-4f52-8bcc-2e656b335082"},"vehicle_type_id":"4","last_reported":1750547414,"current_range_meters":15200,"station_id":"ce4bh692rcd13ifvqea0","pricing_plan_id":"cebpf4jnsgd1na2vs0mg"},{"bike_id":"eea829f9-a2d6-45b3-a665-cf3aef573295","system_id":"levelo_inurba_marseille","lat":43.29282,"lon":5.38473,"is_reserved":false,"is_disabled":false,"rental_uris":{"android":"levelo://app?vid=eea829f9-a2d6-45b3-a665-cf3aef573295","ios":"levelo://app?vid=eea829f9-a2d6-45b3-a665-cf3aef573295"},"vehicle_type_id":"4","last_reported":1750547414,"current_range_meters":15200,"station_id":"ce4bh692rcd13ifvqea0","pricing_plan_id":"cebpf4jnsgd1na2vs0mg"},{"bike_id":"59bbc80d-3cd1-4c0c-b76d-4266fa599afe","system_id":"levelo_inurba_marseille","lat":43.307996,"lon":5.435268,"is_reserved":false,"is_disabled":false,"rental_uris":{"android":"levelo://app?vid=59bbc80d-3cd1-4c0c-b76d-4266fa599afe","ios":"levelo://app?vid=59bbc80d-3cd1-4c0c-b76d-4266fa599afe"},"vehicle_type_id":"4","last_reported":1750547414,"current_range_meters":15200,"station_id":"ce4bhph2rcd13ifvqheg","pricing_plan_id":"cebpf4jnsgd1na2vs0mg"},{"bike_id":"c691a3c7-1c2d-4e78-929c-1c9e95dbb4f3","system_id":"levelo_inurba_marseille","lat":43.23329,"lon":5.36145,"is_reserved":false,"is_disabled":false,"rental_uris":{"android":"levelo://app?vid=c691a3c7-1c2d-4e78-929c-1c9e95dbb4f3","ios":"levelo://app?vid=c691a3c7-1c2d-4e78-929c-1c9e95dbb4f3"},"vehicle_type_id":"4","last_reported":1750547414,"current_range_meters":16000,"station_id":"","pricing_plan_id":"cebpf4jnsgd1na2vs0mg"},{"bike_id":"651f6c7b-9e56-45a7-ba75-82efd81c1a7f","system_id":"levelo_inurba_marseille","lat":43.29274,"lon":5.38486,"is_reserved":false,"is_disabled":false,"rental_uris":{"android":"levelo://app?vid=651f6c7b-9e56-45a7-ba75-82efd81c1a7f","ios":"levelo://app?vid=651f6c7b-9e56-45a7-ba75-82efd81c1a7f"},"vehicle_type_id":"4","last_reported":1750547414,"current_range_meters":16000,"station_id":"","pricing_plan_id":"cebpf4jnsgd1na2vs0mg"},{"bike_id":"ffbb0c22-3f4e-4cdb-a0e5-79e3b9f3e1a2","system_id":"levelo_inurba_marseille","lat":43.33769,"lon":5.37469,"is_reserved":false,"is_disabled":false,"rental_uris":{"android":"levelo://app?vid=ffbb0c22-3f4e-4cdb-a0e5-79e3b9f3e1a2","ios":"levelo://app?vid=ffbb0c22-3f4e-4cdb-a0e5-79e3b9f3e1a2"},"vehicle_type_id":"4","last_reported":1750547414,"current_range_meters":16000,"station_id":"","pricing_plan_id":"cebpf4jnsgd1na2vs0mg"},{"bike_id":"efac273e-84e8-4656-a4f9-c5d9f1334823","system_id":"levelo_inurba_marseille","lat":43.29531,"lon":5.38525,"is_reserved":false,"is_disabled":false,"rental_uris":{"android":"levelo://app?vid=efac273e-84e8-4656-a4f9-c5d9f1334823","ios":"levelo://app?vid=efac273e-84e8-4656-a4f9-c5d9f1334823"},"vehicle_type_id":"4","last_reported":1750547414,"current_range_meters":16000,"station_id":"ce4bgih2rcd13ifvqba0","pricing_plan_id":"cebpf4jnsgd1na2vs0mg"},{"bike_id":"3ffb63a2-45b1-4aea-bdb5-40a873b26ca9","system_id":"levelo_inurba_marseille","lat":43.29537,"lon":5.38542,"is_reserved":false,"is_disabled":false,"rental_uris":{"android":"levelo://app?vid=3ffb63a2-45b1-4aea-bdb5-40a873b26ca9","ios":"levelo://app?vid=3ffb63a2-45b1-4aea-bdb5-40a873b26ca9"},"vehicle_type_id":"4","last_reported":1750547414,"current_range_meters":16000,"station_id":"ce4bgih2rcd13ifvqba0","pricing_plan_id":"cebpf4jnsgd1na2vs0mg"},{"bike_id":"53b6c1e3-b5a6-49c9-8e2f-0bd6b85437ac","system_id":"levelo_inurba_marseille","lat":43.30608,"lon":5.37229,"is_reserved":false,"is_disabled":false,"rental_uris":{"android":"levelo://app?vid=53b6c1e3-b5a6-49c9-8e2f-0bd6b85437ac","ios":"levelo://app?vid=53b6c1e3-b5a6-49c9-8e2f-0bd6b85437ac"},"vehicle_type_id":"4","last_reported":1750547414,"current_range_meters":16000,"station_id":"ce4bgqh2rcd13ifvqc4g","pricing_plan_id":"cebpf4jnsgd1na2vs0mg"},{"bike_id":"d9fb99a3-668a-4e3d-8a6e-9d67c0d10c6e","system_id":"levelo_inurba_marseille","lat":43.29799,"lon":5.40419,"is_reserved":false,"is_disabled":false,"rental_uris":{"android":"levelo://app?vid=d9fb99a3-668a-4e3d-8a6e-9d67c0d10c6e","ios":"levelo://app?vid=d9fb99a3-668a-4e3d-8a6e-9d67c0d10c6e"},"vehicle_type_id":"4","last_reported":1750547414,"current_range_meters":16000,"station_id":"ce4bh112rcd13ifvqd90","pricing_plan_id":"cebpf4jnsgd1na2vs0mg"},{"bike_id":"fd0af26f-ba56-492d-b6a4-5f75592f0b6a","system_id":"levelo_inurba_marseille","lat":43.29266,"lon":5.38438,"is_reserved":false,"is_disabled":false,"rental_uris":{"android":"levelo://app?vid=fd0af26f-ba56-492d-b6a4-5f75592f0b6a","ios":"levelo://app?vid=fd0af26f-ba56-492d-b6a4-5f75592f0b6a"},"vehicle_type_id":"4","last_reported":1750547414,"current_range_meters":16000,"station_id":"ce4bh692rcd13ifvqea0","pricing_plan_id":"cebpf4jnsgd1na2vs0mg"},{"bike_id":"84182f47-017e-4d7a-8ee5-e76a81386cbe","system_id":"levelo_inurba_marseille","lat":43.24386,"lon":5.37054,"is_reserved":false,"is_disabled":false,"rental_uris":{"android":"levelo://app?vid=84182f47-017e-4d7a-8ee5-e76a81386cbe","ios":"levelo://app?vid=84182f47-017e-4d7a-8ee5-e76a81386cbe"},"vehicle_type_id":"4","last_reported":1750547414,"current_range_meters":16000,"station_id":"ce4bhhh2rcd13ifvqfk0","pricing_plan_id":"cebpf4jnsgd1na2vs0mg"},{"bike_id":"77c743e5-cfa1-4af6-93c4-b064f991237d","system_id":"levelo_inurba_marseille","lat":43.24661,"lon":5.38168,"is_reserved":false,"is_disabled":false,"rental_uris":{"android":"levelo://app?vid=77c743e5-cfa1-4af6-93c4-b064f991237d","ios":"levelo://app?vid=77c743e5-cfa1-4af6-93c4-b064f991237d"},"vehicle_type_id":"4","last_reported":1750547414,"current_range_meters":16000,"station_id":"ce4bhih2rcd13ifvqfr0","pricing_plan_id":"cebpf4jnsgd1na2vs0mg"},{"bike_id":"1510bbb5-a76d-411f-bff4-ee724df4878d","system_id":"levelo_inurba_marseille","lat":43.28153,"lon":5.42635,"is_reserved":false,"is_disabled":false,"rental_uris":{"android":"levelo://app?vid=1510bbb5-a76d-411f-bff4-ee724df4878d","ios":"levelo://app?vid=1510bbb5-a76d-411f-bff4-ee724df4878d"},"vehicle_type_id":"4","last_reported":1750547414,"current_range_meters":16000,"station_id":"ce4bhnh2rcd13ifvqgug","pricing_plan_id":"cebpf4jnsgd1na2vs0mg"},{"bike_id":"3dc0a767-adec-42ee-840e-05b54714e8be","system_id":"levelo_inurba_marseille","lat":43.28693,"lon":5.39994,"is_reserved":false,"is_disabled":false,"rental_uris":{"android":"levelo://app?vid=3dc0a767-adec-42ee-840e-05b54714e8be","ios":"levelo://app?vid=3dc0a767-adec-42ee-840e-05b54714e8be"},"vehicle_type_id":"4","last_reported":1750547414,"current_range_meters":16000,"station_id":"ce4bho92rcd13ifvqh3g","pricing_plan_id":"cebpf4jnsgd1na2vs0mg"},{"bike_id":"7e5ea129-c030-4a3d-8f3d-7b0c050066ac","system_id":"levelo_inurba_marseille","lat":43.28961,"lon":5.36482,"is_reserved":false,"is_disabled":false,"rental_uris":{"android":"levelo://app?vid=7e5ea129-c030-4a3d-8f3d-7b0c050066ac","ios":"levelo://app?vid=7e5ea129-c030-4a3d-8f3d-7b0c050066ac"},"vehicle_type_id":"4","last_reported":1750547414,"current_range_meters":16000,"station_id":"cki0cbj6b192h4jlfktg","pricing_plan_id":"cebpf4jnsgd1na2vs0mg"},{"bike_id":"138e36bb-aca2-4604-9e15-ae015bf802b5","system_id":"levelo_inurba_marseille","lat":43.31483,"lon":5.391316,"is_reserved":false,"is_disabled":false,"rental_uris":{"android":"levelo://app?vid=138e36bb-aca2-4604-9e15-ae015bf802b5","ios":"levelo://app?vid=138e36bb-aca2-4604-9e15-ae015bf802b5"},"vehicle_type_id":"4","last_reported":1750547414,"current_range_meters":16400,"station_id":"","pricing_plan_id":"cebpf4jnsgd1na2vs0mg"},{"bike_id":"a9e5e555-fdaf-49c0-b286-f0f2659b17d0","system_id":"levelo_inurba_marseille","lat":43.28329,"lon":5.43263,"is_reserved":false,"is_disabled":false,"rental_uris":{"android":"levelo://app?vid=a9e5e555-fdaf-49c0-b286-f0f2659b17d0","ios":"levelo://app?vid=a9e5e555-fdaf-49c0-b286-f0f2659b17d0"},"vehicle_type_id":"4","last_reported":1750547414,"current_range_meters":16400,"station_id":"","pricing_plan_id":"cebpf4jnsgd1na2vs0mg"},{"bike_id":"d25bb005-b6a1-4387-9a3c-a945cde9e2c0","system_id":"levelo_inurba_marseille","lat":43.30318,"lon":5.40443,"is_reserved":false,"is_disabled":false,"rental_uris":{"android":"levelo://app?vid=d25bb005-b6a1-4387-9a3c-a945cde9e2c0","ios":"levelo://app?vid=d25bb005-b6a1-4387-9a3c-a945cde9e2c0"},"vehicle_type_id":"4","last_reported":1750547414,"current_range_meters":16400,"station_id":"ce4bh012rcd13ifvqd10","pricing_plan_id":"cebpf4jnsgd1na2vs0mg"},{"bike_id":"464e39c0-68f7-4530-a741-448f8665993b","system_id":"levelo_inurba_marseille","lat":43.27899,"lon":5.38032,"is_reserved":false,"is_disabled":false,"rental_uris":{"android":"levelo://app?vid=464e39c0-68f7-4530-a741-448f8665993b","ios":"levelo://app?vid=464e39c0-68f7-4530-a741-448f8665993b"},"vehicle_type_id":"4","last_reported":1750547414,"current_range_meters":16400,"station_id":"ce4bhf92rcd13ifvqf50","pricing_plan_id":"cebpf4jnsgd1na2vs0mg"},{"bike_id":"768b9968-5e93-4961-b08d-bfe901d34104","system_id":"levelo_inurba_marseille","lat":43.25825,"lon":5.39431,"is_reserved":false,"is_disabled":false,"rental_uris":{"android":"levelo://app?vid=768b9968-5e93-4961-b08d-bfe901d34104","ios":"levelo://app?vid=768b9968-5e93-4961-b08d-bfe901d34104"},"vehicle_type_id":"4","last_reported":1750547414,"current_range_meters":16400,"station_id":"ce4bhip2rcd13ifvqft0","pricing_plan_id":"cebpf4jnsgd1na2vs0mg"},{"bike_id":"80dec9d8-5978-49a8-ae09-749a61a5750d","system_id":"levelo_inurba_marseille","lat":43.32331,"lon":5.4063,"is_reserved":false,"is_disabled":false,"rental_uris":{"android":"levelo://app?vid=80dec9d8-5978-49a8-ae09-749a61a5750d","ios":"levelo://app?vid=80dec9d8-5978-49a8-ae09-749a61a5750d"},"vehicle_type_id":"4","last_reported":1750547414,"current_range_meters":16400,"station_id":"ce4bhq92rcd13ifvqhjg","pricing_plan_id":"cebpf4jnsgd1na2vs0mg"},{"bike_id":"ee6fddf9-6863-4a13-a31b-2f3228223d7e","system_id":"levelo_inurba_marseille","lat":43.211916,"lon":5.350818,"is_reserved":false,"is_disabled":false,"rental_uris":{"android":"levelo://app?vid=ee6fddf9-6863-4a13-a31b-2f3228223d7e","ios":"levelo://app?vid=ee6fddf9-6863-4a13-a31b-2f3228223d7e"},"vehicle_type_id":"4","last_reported":1750547414,"current_range_meters":16400,"station_id":"st_cvj6sg6p6f1abm77japg","pricing_plan_id":"cebpf4jnsgd1na2vs0mg"},{"bike_id":"2f981ecb-c9c5-4208-9b80-483f6ab20826","system_id":"levelo_inurba_marseille","lat":43.29496,"lon":5.38538,"is_reserved":false,"is_disabled":false,"rental_uris":{"android":"levelo://app?vid=2f981ecb-c9c5-4208-9b80-483f6ab20826","ios":"levelo://app?vid=2f981ecb-c9c5-4208-9b80-483f6ab20826"},"vehicle_type_id":"4","last_reported":1750547414,"current_range_meters":16800,"station_id":"ce4bgih2rcd13ifvqba0","pricing_plan_id":"cebpf4jnsgd1na2vs0mg"},{"bike_id":"eec5bd57-af7d-49ce-860f-90a36b0ed397","system_id":"levelo_inurba_marseille","lat":43.31221,"lon":5.36866,"is_reserved":false,"is_disabled":false,"rental_uris":{"android":"levelo://app?vid=eec5bd57-af7d-49ce-860f-90a36b0ed397","ios":"levelo://app?vid=eec5bd57-af7d-49ce-860f-90a36b0ed397"},"vehicle_type_id":"4","last_reported":1750547414,"current_range_meters":16800,"station_id":"ce4bgl92rcd13ifvqbq0","pricing_plan_id":"cebpf4jnsgd1na2vs0mg"},{"bike_id":"0d598880-cd7e-4504-90aa-1860433933bc","system_id":"levelo_inurba_marseille","lat":43.31268,"lon":5.40167,"is_reserved":false,"is_disabled":false,"rental_uris":{"android":"levelo://app?vid=0d598880-cd7e-4504-90aa-1860433933bc","ios":"levelo://app?vid=0d598880-cd7e-4504-90aa-1860433933bc"},"vehicle_type_id":"4","last_reported":1750547414,"current_range_meters":16800,"station_id":"ce4bh092rcd13ifvqd30","pricing_plan_id":"cebpf4jnsgd1na2vs0mg"},{"bike_id":"3fb3bb23-57cb-44ed-8c6c-7cbbe47406d1","system_id":"levelo_inurba_marseille","lat":43.30632,"lon":5.40085,"is_reserved":false,"is_disabled":false,"rental_uris":{"android":"levelo://app?vid=3fb3bb23-57cb-44ed-8c6c-7cbbe47406d1","ios":"levelo://app?vid=3fb3bb23-57cb-44ed-8c6c-7cbbe47406d1"},"vehicle_type_id":"4","last_reported":1750547414,"current_range_meters":16800,"station_id":"ce4bh112rcd13ifvqda0","pricing_plan_id":"cebpf4jnsgd1na2vs0mg"},{"bike_id":"03f18c7d-b2ed-4878-b882-336d5d87096d","system_id":"levelo_inurba_marseille","lat":43.2927,"lon":5.38435,"is_reserved":false,"is_disabled":false,"rental_uris":{"android":"levelo://app?vid=03f18c7d-b2ed-4878-b882-336d5d87096d","ios":"levelo://app?vid=03f18c7d-b2ed-4878-b882-336d5d87096d"},"vehicle_type_id":"4","last_reported":1750547414,"current_range_meters":16800,"station_id":"ce4bh692rcd13ifvqea0","pricing_plan_id":"cebpf4jnsgd1na2vs0mg"},{"bike_id":"f009867c-6667-46db-8b4f-cdb7f766412f","system_id":"levelo_inurba_marseille","lat":43.29234,"lon":5.38456,"is_reserved":false,"is_disabled":false,"rental_uris":{"android":"levelo://app?vid=f009867c-6667-46db-8b4f-cdb7f766412f","ios":"levelo://app?vid=f009867c-6667-46db-8b4f-cdb7f766412f"},"vehicle_type_id":"4","last_reported":1750547414,"current_range_meters":16800,"station_id":"ce4bh692rcd13ifvqea0","pricing_plan_id":"cebpf4jnsgd1na2vs0mg"},{"bike_id":"6d7930c8-6a39-4adb-a827-8a75d7b2005f","system_id":"levelo_inurba_marseille","lat":43.28709,"lon":5.3792,"is_reserved":false,"is_disabled":false,"rental_uris":{"android":"levelo://app?vid=6d7930c8-6a39-4adb-a827-8a75d7b2005f","ios":"levelo://app?vid=6d7930c8-6a39-4adb-a827-8a75d7b2005f"},"vehicle_type_id":"4","last_reported":1750547414,"current_range_meters":16800,"station_id":"ce4bh9p2rcd13ifvqec0","pricing_plan_id":"cebpf4jnsgd1na2vs0mg"},{"bike_id":"eaaee1e4-4721-4635-a310-70ab6ba3b89a","system_id":"levelo_inurba_marseille","lat":43.25085,"lon":5.39524,"is_reserved":false,"is_disabled":false,"rental_uris":{"android":"levelo://app?vid=eaaee1e4-4721-4635-a310-70ab6ba3b89a","ios":"levelo://app?vid=eaaee1e4-4721-4635-a310-70ab6ba3b89a"},"vehicle_type_id":"4","last_reported":1750547414,"current_range_meters":16800,"station_id":"ce4bhm12rcd13ifvqgkg","pricing_plan_id":"cebpf4jnsgd1na2vs0mg"},{"bike_id":"acd58ea9-0319-4669-84f5-d78e118dcb79","system_id":"levelo_inurba_marseille","lat":43.28436,"lon":5.39196,"is_reserved":false,"is_disabled":false,"rental_uris":{"android":"levelo://app?vid=acd58ea9-0319-4669-84f5-d78e118dcb79","ios":"levelo://app?vid=acd58ea9-0319-4669-84f5-d78e118dcb79"},"vehicle_type_id":"4","last_reported":1750547414,"current_range_meters":16800,"station_id":"ce4bhoh2rcd13ifvqh5g","pricing_plan_id":"cebpf4jnsgd1na2vs0mg"},{"bike_id":"fc1701fb-c8d2-4e92-b4e7-64fbd1db5917","system_id":"levelo_inurba_marseille","lat":43.32531,"lon":5.41482,"is_reserved":false,"is_disabled":false,"rental_uris":{"android":"levelo://app?vid=fc1701fb-c8d2-4e92-b4e7-64fbd1db5917","ios":"levelo://app?vid=fc1701fb-c8d2-4e92-b4e7-64fbd1db5917"},"vehicle_type_id":"4","last_reported":1750547414,"current_range_meters":16800,"station_id":"ce4bhq12rcd13ifvqhhg","pricing_plan_id":"cebpf4jnsgd1na2vs0mg"},{"bike_id":"d6d7b8e5-abf2-405e-99eb-61d41efd752d","system_id":"levelo_inurba_marseille","lat":43.28721,"lon":5.3609,"is_reserved":false,"is_disabled":false,"rental_uris":{"android":"levelo://app?vid=d6d7b8e5-abf2-405e-99eb-61d41efd752d","ios":"levelo://app?vid=d6d7b8e5-abf2-405e-99eb-61d41efd752d"},"vehicle_type_id":"4","last_reported":1750547414,"current_range_meters":16800,"station_id":"cki0cbj6b192h4jlfktg","pricing_plan_id":"cebpf4jnsgd1na2vs0mg"},{"bike_id":"f10e38ce-c08a-4001-873a-ec3e8846285a","system_id":"levelo_inurba_marseille","lat":43.32981,"lon":5.38402,"is_reserved":false,"is_disabled":false,"rental_uris":{"android":"levelo://app?vid=f10e38ce-c08a-4001-873a-ec3e8846285a","ios":"levelo://app?vid=f10e38ce-c08a-4001-873a-ec3e8846285a"},"vehicle_type_id":"4","last_reported":1750547414,"current_range_meters":17200,"station_id":"","pricing_plan_id":"cebpf4jnsgd1na2vs0mg"},{"bike_id":"70764641-799a-4261-99bd-903918c1b74a","system_id":"levelo_inurba_marseille","lat":43.32881,"lon":5.3837,"is_reserved":false,"is_disabled":false,"rental_uris":{"android":"levelo://app?vid=70764641-799a-4261-99bd-903918c1b74a","ios":"levelo://app?vid=70764641-799a-4261-99bd-903918c1b74a"},"vehicle_type_id":"4","last_reported":1750547414,"current_range_meters":17200,"station_id":"","pricing_plan_id":"cebpf4jnsgd1na2vs0mg"},{"bike_id":"26a2ff5c-0fce-4406-a718-4a4aa8f632f2","system_id":"levelo_inurba_marseille","lat":43.29111,"lon":5.36888,"is_reserved":false,"is_disabled":false,"rental_uris":{"android":"levelo://app?vid=26a2ff5c-0fce-4406-a718-4a4aa8f632f2","ios":"levelo://app?vid=26a2ff5c-0fce-4406-a718-4a4aa8f632f2"},"vehicle_type_id":"4","last_reported":1750547414,"current_range_meters":17200,"station_id":"","pricing_plan_id":"cebpf4jnsgd1na2vs0mg"},{"bike_id":"fbb88e1e-457b-4658-9478-0fd7ab554e6b","system_id":"levelo_inurba_marseille","lat":43.29528,"lon":5.38546,"is_reserved":false,"is_disabled":false,"rental_uris":{"android":"levelo://app?vid=fbb88e1e-457b-4658-9478-0fd7ab554e6b","ios":"levelo://app?vid=fbb88e1e-457b-4658-9478-0fd7ab554e6b"},"vehicle_type_id":"4","last_reported":1750547414,"current_range_meters":17200,"station_id":"ce4bgih2rcd13ifvqba0","pricing_plan_id":"cebpf4jnsgd1na2vs0mg"},{"bike_id":"0a7f09c8-4a61-424f-84fc-ed85414bf617","system_id":"levelo_inurba_marseille","lat":43.28846,"lon":5.35863,"is_reserved":false,"is_disabled":false,"rental_uris":{"android":"levelo://app?vid=0a7f09c8-4a61-424f-84fc-ed85414bf617","ios":"levelo://app?vid=0a7f09c8-4a61-424f-84fc-ed85414bf617"},"vehicle_type_id":"4","last_reported":1750547414,"current_range_meters":17200,"station_id":"ce4bhb12rcd13ifvqem0","pricing_plan_id":"cebpf4jnsgd1na2vs0mg"},{"bike_id":"7d0d8647-aabf-4ee9-97a7-5c76e79a8e17","system_id":"levelo_inurba_marseille","lat":43.28265,"lon":5.35063,"is_reserved":false,"is_disabled":false,"rental_uris":{"android":"levelo://app?vid=7d0d8647-aabf-4ee9-97a7-5c76e79a8e17","ios":"levelo://app?vid=7d0d8647-aabf-4ee9-97a7-5c76e79a8e17"},"vehicle_type_id":"4","last_reported":1750547414,"current_range_meters":17200,"station_id":"ce4bhbp2rcd13ifvqerg","pricing_plan_id":"cebpf4jnsgd1na2vs0mg"},{"bike_id":"08f6a606-2a8f-401c-8ff7-258a4d8687ab","system_id":"levelo_inurba_marseille","lat":43.27053,"lon":5.42264,"is_reserved":false,"is_disabled":false,"rental_uris":{"android":"levelo://app?vid=08f6a606-2a8f-401c-8ff7-258a4d8687ab","ios":"levelo://app?vid=08f6a606-2a8f-401c-8ff7-258a4d8687ab"},"vehicle_type_id":"4","last_reported":1750547414,"current_range_meters":17200,"station_id":"ce4bhk92rcd13ifvqgb0","pricing_plan_id":"cebpf4jnsgd1na2vs0mg"},{"bike_id":"b5ea5866-56a0-4a5e-8fd1-b2dd83d3d877","system_id":"levelo_inurba_marseille","lat":43.2511,"lon":5.40322,"is_reserved":false,"is_disabled":false,"rental_uris":{"android":"levelo://app?vid=b5ea5866-56a0-4a5e-8fd1-b2dd83d3d877","ios":"levelo://app?vid=b5ea5866-56a0-4a5e-8fd1-b2dd83d3d877"},"vehicle_type_id":"4","last_reported":1750547414,"current_range_meters":17200,"station_id":"ce4bhlh2rcd13ifvqgig","pricing_plan_id":"cebpf4jnsgd1na2vs0mg"},{"bike_id":"b557ac4e-7c35-4c68-ac5e-24c2c13cbf6d","system_id":"levelo_inurba_marseille","lat":43.251,"lon":5.40321,"is_reserved":false,"is_disabled":false,"rental_uris":{"android":"levelo://app?vid=b557ac4e-7c35-4c68-ac5e-24c2c13cbf6d","ios":"levelo://app?vid=b557ac4e-7c35-4c68-ac5e-24c2c13cbf6d"},"vehicle_type_id":"4","last_reported":1750547414,"current_range_meters":17200,"station_id":"ce4bhlh2rcd13ifvqgig","pricing_plan_id":"cebpf4jnsgd1na2vs0mg"},{"bike_id":"e3467b8f-e10a-409a-b8c9-f99a4f292231","system_id":"levelo_inurba_marseille","lat":43.27815,"lon":5.40734,"is_reserved":false,"is_disabled":false,"rental_uris":{"android":"levelo://app?vid=e3467b8f-e10a-409a-b8c9-f99a4f292231","ios":"levelo://app?vid=e3467b8f-e10a-409a-b8c9-f99a4f292231"},"vehicle_type_id":"4","last_reported":1750547414,"current_range_meters":17200,"station_id":"ce4bhnh2rcd13ifvqgtg","pricing_plan_id":"cebpf4jnsgd1na2vs0mg"},{"bike_id":"69f968f6-e8ad-4cec-b9f8-eb81d3da70e7","system_id":"levelo_inurba_marseille","lat":43.30803,"lon":5.43523,"is_reserved":false,"is_disabled":false,"rental_uris":{"android":"levelo://app?vid=69f968f6-e8ad-4cec-b9f8-eb81d3da70e7","ios":"levelo://app?vid=69f968f6-e8ad-4cec-b9f8-eb81d3da70e7"},"vehicle_type_id":"4","last_reported":1750547414,"current_range_meters":17200,"station_id":"ce4bhph2rcd13ifvqheg","pricing_plan_id":"cebpf4jnsgd1na2vs0mg"},{"bike_id":"bdb1728e-9a84-4bdb-ad72-984e1aa1036f","system_id":"levelo_inurba_marseille","lat":43.29519,"lon":5.37518,"is_reserved":false,"is_disabled":false,"rental_uris":{"android":"levelo://app?vid=bdb1728e-9a84-4bdb-ad72-984e1aa1036f","ios":"levelo://app?vid=bdb1728e-9a84-4bdb-ad72-984e1aa1036f"},"vehicle_type_id":"4","last_reported":1750547414,"current_range_meters":17600,"station_id":"ce4bgkp2rcd13ifvqbmg","pricing_plan_id":"cebpf4jnsgd1na2vs0mg"},{"bike_id":"713f4a88-48e8-44c7-a75c-3c64176b9889","system_id":"levelo_inurba_marseille","lat":43.30775,"lon":5.3764,"is_reserved":false,"is_disabled":false,"rental_uris":{"android":"levelo://app?vid=713f4a88-48e8-44c7-a75c-3c64176b9889","ios":"levelo://app?vid=713f4a88-48e8-44c7-a75c-3c64176b9889"},"vehicle_type_id":"4","last_reported":1750547414,"current_range_meters":17600,"station_id":"ce4bgv92rcd13ifvqcq0","pricing_plan_id":"cebpf4jnsgd1na2vs0mg"},{"bike_id":"f21b3f46-ed1c-4a2d-8be3-aad894af421c","system_id":"levelo_inurba_marseille","lat":43.23147,"lon":5.43724,"is_reserved":false,"is_disabled":false,"rental_uris":{"android":"levelo://app?vid=f21b3f46-ed1c-4a2d-8be3-aad894af421c","ios":"levelo://app?vid=f21b3f46-ed1c-4a2d-8be3-aad894af421c"},"vehicle_type_id":"4","last_reported":1750547414,"current_range_meters":17600,"station_id":"ce4bhmp2rcd13ifvqgog","pricing_plan_id":"cebpf4jnsgd1na2vs0mg"},{"bike_id":"1f4baae6-8268-400c-8520-130daf0c6263","system_id":"levelo_inurba_marseille","lat":43.301147,"lon":5.39862,"is_reserved":false,"is_disabled":false,"rental_uris":{"android":"levelo://app?vid=1f4baae6-8268-400c-8520-130daf0c6263","ios":"levelo://app?vid=1f4baae6-8268-400c-8520-130daf0c6263"},"vehicle_type_id":"4","last_reported":1750547414,"current_range_meters":18000,"station_id":"ce4bh0h2rcd13ifvqd40","pricing_plan_id":"cebpf4jnsgd1na2vs0mg"},{"bike_id":"850f6401-97d9-4070-ac6f-6f8b51e18bba","system_id":"levelo_inurba_marseille","lat":43.2924,"lon":5.38445,"is_reserved":false,"is_disabled":false,"rental_uris":{"android":"levelo://app?vid=850f6401-97d9-4070-ac6f-6f8b51e18bba","ios":"levelo://app?vid=850f6401-97d9-4070-ac6f-6f8b51e18bba"},"vehicle_type_id":"4","last_reported":1750547414,"current_range_meters":18000,"station_id":"ce4bh692rcd13ifvqea0","pricing_plan_id":"cebpf4jnsgd1na2vs0mg"},{"bike_id":"859c45ea-bb99-4994-9977-fcc5d3fab453","system_id":"levelo_inurba_marseille","lat":43.28099,"lon":5.37847,"is_reserved":false,"is_disabled":false,"rental_uris":{"android":"levelo://app?vid=859c45ea-bb99-4994-9977-fcc5d3fab453","ios":"levelo://app?vid=859c45ea-bb99-4994-9977-fcc5d3fab453"},"vehicle_type_id":"4","last_reported":1750547414,"current_range_meters":18000,"station_id":"ce4bha12rcd13ifvqee0","pricing_plan_id":"cebpf4jnsgd1na2vs0mg"},{"bike_id":"d03a2d43-cd73-4e21-9308-b408d485b30a","system_id":"levelo_inurba_marseille","lat":43.257233,"lon":5.411122,"is_reserved":false,"is_disabled":false,"rental_uris":{"android":"levelo://app?vid=d03a2d43-cd73-4e21-9308-b408d485b30a","ios":"levelo://app?vid=d03a2d43-cd73-4e21-9308-b408d485b30a"},"vehicle_type_id":"4","last_reported":1750547414,"current_range_meters":18000,"station_id":"ce4bhkp2rcd13ifvqgd0","pricing_plan_id":"cebpf4jnsgd1na2vs0mg"},{"bike_id":"a440245f-ecbe-47b2-a500-ec4e88f3174b","system_id":"levelo_inurba_marseille","lat":43.21193,"lon":5.350726,"is_reserved":false,"is_disabled":false,"rental_uris":{"android":"levelo://app?vid=a440245f-ecbe-47b2-a500-ec4e88f3174b","ios":"levelo://app?vid=a440245f-ecbe-47b2-a500-ec4e88f3174b"},"vehicle_type_id":"4","last_reported":1750547414,"current_range_meters":18000,"station_id":"st_cvj6sg6p6f1abm77japg","pricing_plan_id":"cebpf4jnsgd1na2vs0mg"},{"bike_id":"ea21ce0d-2637-46e9-959f-1cac48dddac9","system_id":"levelo_inurba_marseille","lat":43.292717,"lon":5.384637,"is_reserved":false,"is_disabled":false,"rental_uris":{"android":"levelo://app?vid=ea21ce0d-2637-46e9-959f-1cac48dddac9","ios":"levelo://app?vid=ea21ce0d-2637-46e9-959f-1cac48dddac9"},"vehicle_type_id":"4","last_reported":1750547414,"current_range_meters":18800,"station_id":"ce4bh692rcd13ifvqea0","pricing_plan_id":"cebpf4jnsgd1na2vs0mg"},{"bike_id":"fa245547-7507-4318-b002-258a9c113acd","system_id":"levelo_inurba_marseille","lat":43.24659,"lon":5.38171,"is_reserved":false,"is_disabled":false,"rental_uris":{"android":"levelo://app?vid=fa245547-7507-4318-b002-258a9c113acd","ios":"levelo://app?vid=fa245547-7507-4318-b002-258a9c113acd"},"vehicle_type_id":"4","last_reported":1750547414,"current_range_meters":18800,"station_id":"ce4bhih2rcd13ifvqfr0","pricing_plan_id":"cebpf4jnsgd1na2vs0mg"},{"bike_id":"e0553dd7-e5d7-471b-a6ef-ccfc625ff380","system_id":"levelo_inurba_marseille","lat":43.27996,"lon":5.41665,"is_reserved":false,"is_disabled":false,"rental_uris":{"android":"levelo://app?vid=e0553dd7-e5d7-471b-a6ef-ccfc625ff380","ios":"levelo://app?vid=e0553dd7-e5d7-471b-a6ef-ccfc625ff380"},"vehicle_type_id":"4","last_reported":1750547414,"current_range_meters":18800,"station_id":"ce4bho12rcd13ifvqh1g","pricing_plan_id":"cebpf4jnsgd1na2vs0mg"},{"bike_id":"cfd7d34e-81c9-4b41-9687-525714073580","system_id":"levelo_inurba_marseille","lat":43.3249,"lon":5.38561,"is_reserved":false,"is_disabled":false,"rental_uris":{"android":"levelo://app?vid=cfd7d34e-81c9-4b41-9687-525714073580","ios":"levelo://app?vid=cfd7d34e-81c9-4b41-9687-525714073580"},"vehicle_type_id":"4","last_reported":1750547414,"current_range_meters":19200,"station_id":"","pricing_plan_id":"cebpf4jnsgd1na2vs0mg"},{"bike_id":"a290c712-ce9e-4ad6-9ac3-eadbb2f4ad01","system_id":"levelo_inurba_marseille","lat":43.29775,"lon":5.37101,"is_reserved":false,"is_disabled":false,"rental_uris":{"android":"levelo://app?vid=a290c712-ce9e-4ad6-9ac3-eadbb2f4ad01","ios":"levelo://app?vid=a290c712-ce9e-4ad6-9ac3-eadbb2f4ad01"},"vehicle_type_id":"4","last_reported":1750547414,"current_range_meters":19200,"station_id":"ce4bgop2rcd13ifvqc1g","pricing_plan_id":"cebpf4jnsgd1na2vs0mg"},{"bike_id":"1c00ed5c-d23b-4f3b-b478-c16a1e956047","system_id":"levelo_inurba_marseille","lat":43.25528,"lon":5.40958,"is_reserved":false,"is_disabled":false,"rental_uris":{"android":"levelo://app?vid=1c00ed5c-d23b-4f3b-b478-c16a1e956047","ios":"levelo://app?vid=1c00ed5c-d23b-4f3b-b478-c16a1e956047"},"vehicle_type_id":"4","last_reported":1750547414,"current_range_meters":19200,"station_id":"ce4bh492rcd13ifvqdvg","pricing_plan_id":"cebpf4jnsgd1na2vs0mg"},{"bike_id":"a84dfc80-2776-4a45-add2-70b30fccbd2a","system_id":"levelo_inurba_marseille","lat":43.2927,"lon":5.38478,"is_reserved":false,"is_disabled":false,"rental_uris":{"android":"levelo://app?vid=a84dfc80-2776-4a45-add2-70b30fccbd2a","ios":"levelo://app?vid=a84dfc80-2776-4a45-add2-70b30fccbd2a"},"vehicle_type_id":"4","last_reported":1750547414,"current_range_meters":19200,"station_id":"ce4bh692rcd13ifvqea0","pricing_plan_id":"cebpf4jnsgd1na2vs0mg"},{"bike_id":"758d22e7-7fdc-49fd-ac55-fe2fb72f6339","system_id":"levelo_inurba_marseille","lat":43.28857,"lon":5.35855,"is_reserved":false,"is_disabled":false,"rental_uris":{"android":"levelo://app?vid=758d22e7-7fdc-49fd-ac55-fe2fb72f6339","ios":"levelo://app?vid=758d22e7-7fdc-49fd-ac55-fe2fb72f6339"},"vehicle_type_id":"4","last_reported":1750547414,"current_range_meters":19200,"station_id":"ce4bhb12rcd13ifvqem0","pricing_plan_id":"cebpf4jnsgd1na2vs0mg"},{"bike_id":"d8c823da-174d-451e-ba75-f5d5106bae3d","system_id":"levelo_inurba_marseille","lat":43.262242,"lon":5.404476,"is_reserved":false,"is_disabled":false,"rental_uris":{"android":"levelo://app?vid=d8c823da-174d-451e-ba75-f5d5106bae3d","ios":"levelo://app?vid=d8c823da-174d-451e-ba75-f5d5106bae3d"},"vehicle_type_id":"4","last_reported":1750547414,"current_range_meters":19200,"station_id":"ce4bhmh2rcd13ifvqgmg","pricing_plan_id":"cebpf4jnsgd1na2vs0mg"},{"bike_id":"2efbfc8c-9b2e-492f-a00b-39fa775e1877","system_id":"levelo_inurba_marseille","lat":43.23195,"lon":5.35554,"is_reserved":false,"is_disabled":false,"rental_uris":{"android":"levelo://app?vid=2efbfc8c-9b2e-492f-a00b-39fa775e1877","ios":"levelo://app?vid=2efbfc8c-9b2e-492f-a00b-39fa775e1877"},"vehicle_type_id":"4","last_reported":1750547414,"current_range_meters":19200,"station_id":"ce4bhu92rcd13ifvqi70","pricing_plan_id":"cebpf4jnsgd1na2vs0mg"},{"bike_id":"cd45658f-fe1e-46bd-a395-3660e2b7c9cb","system_id":"levelo_inurba_marseille","lat":43.29099,"lon":5.40085,"is_reserved":false,"is_disabled":false,"rental_uris":{"android":"levelo://app?vid=cd45658f-fe1e-46bd-a395-3660e2b7c9cb","ios":"levelo://app?vid=cd45658f-fe1e-46bd-a395-3660e2b7c9cb"},"vehicle_type_id":"4","last_reported":1750547414,"current_range_meters":19600,"station_id":"","pricing_plan_id":"cebpf4jnsgd1na2vs0mg"},{"bike_id":"7f9dbf01-bdc4-40c5-8964-0f0023f130d8","system_id":"levelo_inurba_marseille","lat":43.29329,"lon":5.37159,"is_reserved":false,"is_disabled":false,"rental_uris":{"android":"levelo://app?vid=7f9dbf01-bdc4-40c5-8964-0f0023f130d8","ios":"levelo://app?vid=7f9dbf01-bdc4-40c5-8964-0f0023f130d8"},"vehicle_type_id":"4","last_reported":1750547414,"current_range_meters":19600,"station_id":"ce4bgh92rcd13ifvqb40","pricing_plan_id":"cebpf4jnsgd1na2vs0mg"},{"bike_id":"94c6da06-2772-4122-a25b-c391780713b9","system_id":"levelo_inurba_marseille","lat":43.295335,"lon":5.38547,"is_reserved":false,"is_disabled":false,"rental_uris":{"android":"levelo://app?vid=94c6da06-2772-4122-a25b-c391780713b9","ios":"levelo://app?vid=94c6da06-2772-4122-a25b-c391780713b9"},"vehicle_type_id":"4","last_reported":1750547414,"current_range_meters":19600,"station_id":"ce4bgih2rcd13ifvqba0","pricing_plan_id":"cebpf4jnsgd1na2vs0mg"},{"bike_id":"e9ace1c0-3e47-4659-8ae6-7ff5a9d872d9","system_id":"levelo_inurba_marseille","lat":43.30788,"lon":5.38155,"is_reserved":false,"is_disabled":false,"rental_uris":{"android":"levelo://app?vid=e9ace1c0-3e47-4659-8ae6-7ff5a9d872d9","ios":"levelo://app?vid=e9ace1c0-3e47-4659-8ae6-7ff5a9d872d9"},"vehicle_type_id":"4","last_reported":1750547414,"current_range_meters":19600,"station_id":"ce4bgt12rcd13ifvqce0","pricing_plan_id":"cebpf4jnsgd1na2vs0mg"},{"bike_id":"db62ac61-5ede-419a-b986-d721be9e1f94","system_id":"levelo_inurba_marseille","lat":43.30923,"lon":5.40143,"is_reserved":false,"is_disabled":false,"rental_uris":{"android":"levelo://app?vid=db62ac61-5ede-419a-b986-d721be9e1f94","ios":"levelo://app?vid=db62ac61-5ede-419a-b986-d721be9e1f94"},"vehicle_type_id":"4","last_reported":1750547414,"current_range_meters":19600,"station_id":"ce4bgvp2rcd13ifvqct0","pricing_plan_id":"cebpf4jnsgd1na2vs0mg"},{"bike_id":"19d3b8a1-b573-4ece-863a-079dcef1b930","system_id":"levelo_inurba_marseille","lat":43.30328,"lon":5.40446,"is_reserved":false,"is_disabled":false,"rental_uris":{"android":"levelo://app?vid=19d3b8a1-b573-4ece-863a-079dcef1b930","ios":"levelo://app?vid=19d3b8a1-b573-4ece-863a-079dcef1b930"},"vehicle_type_id":"4","last_reported":1750547414,"current_range_meters":19600,"station_id":"ce4bh012rcd13ifvqd10","pricing_plan_id":"cebpf4jnsgd1na2vs0mg"},{"bike_id":"54cd0f3a-68e0-4a15-bfe9-b61db628ee0d","system_id":"levelo_inurba_marseille","lat":43.30132,"lon":5.39879,"is_reserved":false,"is_disabled":false,"rental_uris":{"android":"levelo://app?vid=54cd0f3a-68e0-4a15-bfe9-b61db628ee0d","ios":"levelo://app?vid=54cd0f3a-68e0-4a15-bfe9-b61db628ee0d"},"vehicle_type_id":"4","last_reported":1750547414,"current_range_meters":19600,"station_id":"ce4bh0h2rcd13ifvqd40","pricing_plan_id":"cebpf4jnsgd1na2vs0mg"},