{"last_updated":1765978055,"ttl":60,"version":"2.2","data":{"bikes":[{"bike_id":"f2d98c1e-e7f4-47cd-97f9-e547a0fbfe8c","system_id":"levelo_inurba_marseille","lat":43.337444,"lon":5.374475,"is_reserved":false,"is_disabled":false,"rental_uris":{"android":"levelo://app?vid=f2d98c1e-e7f4-47cd-97f9-e547a0fbfe8c","ios":"levelo://app?vid=f2d98c1e-e7f4-47cd-97f9-e547a0fbfe8c"},"vehicle_type_id":"4","last_reported":1765978056,"current_range_meters":0,"station_id":"","pricing_plan_id":"cebpf4jnsgd1na2vs0mg"},{"bike_id":"79246e22-e0f8-447e-9683-d28810059979","system_id":"levelo_inurba_marseille","lat":43.337444,"lon":5.374475,"is_reserved":false,"is_disabled":false,"rental_uris":{"android":"levelo://app?vid=79246e22-e0f8-447e-9683-d28810059979","ios":"levelo://app?vid=79246e22-e0f8-447e-9683-d28810059979"},"vehicle_type_id":"4","last_reported":1765978056,"current_range_meters":0,"station_id":"","pricing_plan_id":"cebpf4jnsgd1na2vs0mg"},{"bike_id":"6d901562-db38-445e-ac8c-ddafe7632b18","system_id":"levelo_inurba_marseille","lat":43.337444,"lon":5.374475,"is_reserved":false,"is_disabled":false,"rental_uris":{"android":"levelo://app?vid=6d901562-db38-445e-ac8c-ddafe7632b18","ios":"levelo://app?vid=6d901562-db38-445e-ac8c-ddafe7632b18"},"vehicle_type_id":"4","last_reported":1765978056,"current_range_meters":0,"station_id":"","pricing_plan_id":"cebpf4jnsgd1na2vs0mg"},{"bike_id":"1084df32-4622-4d83-89ce-d5dda7807608","system_id":"levelo_inurba_marseille","lat":43.337444,"lon":5.374475,"is_reserved":false,"is_disabled":false,"rental_uris":{"android":"levelo://app?vid=1084df32-4622-4d83-89ce-d5dda7807608","ios":"levelo://app?vid=1084df32-4622-4d83-89ce-d5dda7807608"},"vehicle_type_id":"4","last_reported":1765978056,"current_range_meters":0,"station_id":"","pricing_plan_id":"cebpf4jnsgd1na2vs0mg"},{"bike_id":"a14771ed-1e54-4c17-9637-eecc8f53fd78","system_id":"levelo_inurba_marseille","lat":43.337444,"lon":5.374475,"is_reserved":false,"is_disabled":false,"rental_uris":{"android":"levelo://app?vid=a14771ed-1e54-4c17-9637-eecc8f53fd78","ios":"levelo://app?vid=a14771ed-1e54-4c17-9637-eecc8f53fd78"},"vehicle_type_id":"4","last_reported":1765978056,"current_range_meters":0,"station_id":"","pricing_plan_id":"cebpf4jnsgd1na2vs0mg"},{"bike_id":"2c571466-b6f3-48e2-9381-e2a8258cc9c5","system_id":"levelo_inurba_marseille","lat":43.337444,"lon":5.374475,"is_reserved":false,"is_disabled":false,"rental_uris":{"android":"levelo://app?vid=2c571466-b6f3-48e2-9381-e2a8258cc9c5","ios":"levelo://app?vid=2c571466-b6f3-48e2-9381-e2a8258cc9c5"},"vehicle_type_id":"4","last_reported":1765978056,"current_range_meters":0,"station_id":"","pricing_plan_id":"cebpf4jnsgd1na2vs0mg"},{"bike_id":"b97f09df-27b0-4e3e-8af9-6ce53b67b655","system_id":"levelo_inurba_marseille","lat":43.337444,"lon":5.374475,"is_reserved":false,"is_disabled":false,"rental_uris":{"android":"levelo://app?vid=b97f09df-27b0-4e3e-8af9-6ce53b67b655","ios":"levelo://app?vid=b97f09df-27b0-4e3e-8af9-6ce53b67b655"},"vehicle_type_id":"4","last_reported":1765978056,"current_range_meters":0,"station_id":"","pricing_plan_id":"cebpf4jnsgd1na2vs0mg"},{"bike_id":"ecd40b02-c8df-40ea-83b2-4de975a1fcf9","system_id":"levelo_inurba_marseille","lat":43.337444,"lon":5.374475,"is_reserved":false,"is_disabled":false,"rental_uris":{"android":"levelo://app?vid=ecd40b02-c8df-40ea-83b2-4de975a1fcf9","ios":"levelo://app?vid=ecd40b02-c8df-40ea-83b2-4de975a1fcf9"},"vehicle_type_id":"4","last_reported":1765978056,"current_range_meters":0,"station_id":"","pricing_plan_id":"cebpf4jnsgd1na2vs0mg"},{"bike_id":"3ff21444-9aaa-45d4-89ca-50a292beebb6","system_id":"levelo_inurba_marseille","lat":43.337444,"lon":5.374475,"is_reserved":false,"is_disabled":false,"rental_uris":{"android":"levelo://app?vid=3ff21444-9aaa-45d4-89ca-50a292beebb6","ios":"levelo://app?vid=3ff21444-9aaa-45d4-89ca-50a292beebb6"},"vehicle_type_id":"4","last_reported":1765978056,"current_range_meters":0,"station_id":"","pricing_plan_id":"cebpf4jnsgd1na2vs0mg"},{"bike_id":"49b39c2d-9c7c-4a0b-8893-296b59d0dca0","system_id":"levelo_inurba_marseille","lat":43.337444,"lon":5.374475,"is_reserved":false,"is_disabled":false,"rental_uris":{"android":"levelo://app?vid=49b39c2d-9c7c-4a0b-8893-296b59d0dca0","ios":"levelo://app?vid=49b39c2d-9c7c-4a0b-8893-296b59d0dca0"},"vehicle_type_id":"4","last_reported":1765978056,"current_range_meters":0,"station_id":"","pricing_plan_id":"cebpf4jnsgd1na2vs0mg"},{"bike_id":"03fa6e54-c418-4aa3-8186-b385f8aaf0f6","system_id":"levelo_inurba_marseille","lat":43.337444,"lon":5.374475,"is_reserved":false,"is_disabled":false,"rental_uris":{"android":"levelo://app?vid=03fa6e54-c418-4aa3-8186-b385f8aaf0f6","ios":"levelo://app?vid=03fa6e54-c418-4aa3-8186-b385f8aaf0f6"},"vehicle_type_id":"4","last_reported":1765978056,"current_range_meters":0,"station_id":"","pricing_plan_id":"cebpf4jnsgd1na2vs0mg"},{"bike_id":"d6b85c59-8715-43f6-a464-c15ac96deea2","system_id":"levelo_inurba_marseille","lat":43.337444,"lon":5.374475,"is_reserved":false,"is_disabled":false,"rental_uris":{"android":"levelo://app?vid=d6b85c59-8715-43f6-a464-c15ac96deea2","ios":"levelo://app?vid=d6b85c59-8715-43f6-a464-c15ac96deea2"},"vehicle_type_id":"4","last_reported":1765978056,"current_range_meters":0,"station_id":"","pricing_plan_id":"cebpf4jnsgd1na2vs0mg"},{"bike_id":"0520fee5-d3ce-4160-ae71-75b37c11ff97","system_id":"levelo_inurba_marseille","lat":43.337444,"lon":5.374475,"is_reserved":false,"is_disabled":false,"rental_uris":{"android":"levelo://app?vid=0520fee5-d3ce-4160-ae71-75b37c11ff97","ios":"levelo://app?vid=0520fee5-d3ce-4160-ae71-75b37c11ff97"},"vehicle_type_id":"4","last_reported":1765978056,"current_range_meters":0,"station_id":"","pricing_plan_id":"cebpf4jnsgd1na2vs0mg"},{"bike_id":"b310cf75-1f14-4717-80ac-6353171a57f1","system_id":"levelo_inurba_marseille","lat":43.337444,"lon":5.374475,"is_reserved":false,"is_disabled":false,"rental_uris":{"android":"levelo://app?vid=b310cf75-1f14-4717-80ac-6353171a57f1","ios":"levelo://app?vid=b310cf75-1f14-4717-80ac-6353171a57f1"},"vehicle_type_id":"4","last_reported":1765978056,"current_range_meters":0,"station_id":"","pricing_plan_id":"cebpf4jnsgd1na2vs0mg"},{"bike_id":"0284348f-f731-476e-9f47-f20f67d5bdc1","system_id":"levelo_inurba_marseille","lat":43.337444,"lon":5.374475,"is_reserved":false,"is_disabled":false,"rental_uris":{"android":"levelo://app?vid=0284348f-f731-476e-9f47-f20f67d5bdc1","ios":"levelo://app?vid=0284348f-f731-476e-9f47-f20f67d5bdc1"},"vehicle_type_id":"4","last_reported":1765978056,"current_range_meters":0,"station_id":"","pricing_plan_id":"cebpf4jnsgd1na2vs0mg"},{"bike_id":"4b6cb2e8-03e3-4ff3-94f3-c309ebbd4b85","system_id":"levelo_inurba_marseille","lat":43.337444,"lon":5.374475,"is_reserved":false,"is_disabled":false,"rental_uris":{"android":"levelo://app?vid=4b6cb2e8-03e3-4ff3-94f3-c309ebbd4b85","ios":"levelo://app?vid=4b6cb2e8-03e3-4ff3-94f3-c309ebbd4b85"},"vehicle_type_id":"4","last_reported":1765978056,"current_range_meters":0,"station_id":"","pricing_plan_id":"cebpf4jnsgd1na2vs0mg"},{"bike_id":"d120968c-1436-46f1-ac9a-bb3a70936847","system_id":"levelo_inurba_marseille","lat":43.337444,"lon":5.374475,"is_reserved":false,"is_disabled":false,"rental_uris":{"android":"levelo://app?vid=d120968c-1436-46f1-ac9a-bb3a70936847","ios":"levelo://app?vid=d120968c-1436-46f1-ac9a-bb3a70936847"},"vehicle_type_id":"4","last_reported":1765978056,"current_range_meters":0,"station_id":"","pricing_plan_id":"cebpf4jnsgd1na2vs0mg"},{"bike_id":"3c4c37ec-dd35-46fb-858b-671aa4f02aad","system_id":"levelo_inurba_marseille","lat":43.337444,"lon":5.374475,"is_reserved":false,"is_disabled":false,"rental_uris":{"android":"levelo://app?vid=3c4c37ec-dd35-46fb-858b-671aa4f02aad","ios":"levelo://app?vid=3c4c37ec-dd35-46fb-858b-671aa4f02aad"},"vehicle_type_id":"4","last_reported":1765978056,"current_range_meters":0,"station_id":"","pricing_plan_id":"cebpf4jnsgd1na2vs0mg"},{"bike_id":"968a2298-b8d9-4021-ad18-9931f56e8661","system_id":"levelo_inurba_marseille","lat":43.337444,"lon":5.374475,"is_reserved":false,"is_disabled":false,"rental_uris":{"android":"levelo://app?vid=968a2298-b8d9-4021-ad18-9931f56e8661","ios":"levelo://app?vid=968a2298-b8d9-4021-ad18-9931f56e8661"},"vehicle_type_id":"4","last_reported":1765978056,"current_range_meters":0,"station_id":"","pricing_plan_id":"cebpf4jnsgd1na2vs0mg"},{"bike_id":"ab543073-81e2-4ebf-b9b7-ae19d02c53cc","system_id":"levelo_inurba_marseille","lat":43.337444,"lon":5.374475,"is_reserved":false,"is_disabled":false,"rental_uris":{"android":"levelo://app?vid=ab543073-81e2-4ebf-b9b7-ae19d02c53cc","ios":"levelo://app?vid=ab543073-81e2-4ebf-b9b7-ae19d02c53cc"},"vehicle_type_id":"4","last_reported":1765978056,"current_range_meters":0,"station_id":"","pricing_plan_id":"cebpf4jnsgd1na2vs0mg"},{"bike_id":"cbc56821-822b-4fe3-a41e-1c6b5c417bbf","system_id":"levelo_inurba_marseille","lat":43.337444,"lon":5.374475,"is_reserved":false,"is_disabled":false,"rental_uris":{"android":"levelo://app?vid=cbc56821-822b-4fe3-a41e-1c6b5c417bbf","ios":"levelo://app?vid=cbc56821-822b-4fe3-a41e-1c6b5c417bbf"},"vehicle_type_id":"4","last_reported":1765978056,"current_range_meters":0,"station_id":"","pricing_plan_id":"cebpf4jnsgd1na2vs0mg"},{"bike_id":"320e2e07-0349-426d-ac46-dce6d038433c","system_id":"levelo_inurba_marseille","lat":43.337444,"lon":5.374475,"is_reserved":false,"is_disabled":false,"rental_uris":{"android":"levelo://app?vid=320e2e07-0349-426d-ac46-dce6d038433c","ios":"levelo://app?vid=320e2e07-0349-426d-ac46-dce6d038433c"},"vehicle_type_id":"4","last_reported":1765978056,"current_range_meters":0,"station_id":"","pricing_plan_id":"cebpf4jnsgd1na2vs0mg"},{"bike_id":"a2c093fd-cf14-43e3-a4b4-d1a996c8eafc","system_id":"levelo_inurba_marseille","lat":43.337444,"lon":5.374475,"is_reserved":false,"is_disabled":false,"rental_uris":{"android":"levelo://app?vid=a2c093fd-cf14-43e3-a4b4-d1a996c8eafc","ios":"levelo://app?vid=a2c093fd-cf14-43e3-a4b4-d1a996c8eafc"},"vehicle_type_id":"4","last_reported":1765978056,"current_range_meters":0,"station_id":"","pricing_plan_id":"cebpf4jnsgd1na2vs0mg"},{"bike_id":"36474865-2a28-4708-a71a-dea49e992b18","system_id":"levelo_inurba_marseille","lat":43.337444,"lon":5.374475,"is_reserved":false,"is_disabled":false,"rental_uris":{"android":"levelo://app?vid=36474865-2a28-4708-a71a-dea49e992b18","ios":"levelo://app?vid=36474865-2a28-4708-a71a-dea49e992b18"},"vehicle_type_id":"4","last_reported":1765978056,"current_range_meters":0,"station_id":"","pricing_plan_id":"cebpf4jnsgd1na2vs0mg"},{"bike_id":"105e5644-fb19-4296-8477-bbfd957fa7ca","system_id":"levelo_inurba_marseille","lat":43.337444,"lon":5.374475,"is_reserved":false,"is_disabled":false,"rental_uris":{"android":"levelo://app?vid=105e5644-fb19-4296-8477-bbfd957fa7ca","ios":"levelo://app?vid=105e5644-fb19-4296-8477-bbfd957fa7ca"},"vehicle_type_id":"4","last_reported":1765978056,"current_range_meters":0,"station_id":"","pricing_plan_id":"cebpf4jnsgd1na2vs0mg"},{"bike_id":"e2562091-e9d5-4cbe-a135-a86ed858bdff","system_id":"levelo_inurba_marseille","lat":43.337444,"lon":5.374475,"is_reserved":false,"is_disabled":false,"rental_uris":{"android":"levelo://app?vid=e2562091-e9d5-4cbe-a135-a86ed858bdff","ios":"levelo://app?vid=e2562091-e9d5-4cbe-a135-a86ed858bdff"},"vehicle_type_id":"4","last_reported":1765978056,"current_range_meters":0,"station_id":"","pricing_plan_id":"cebpf4jnsgd1na2vs0mg"},{"bike_id":"0cd1418a-0c8f-4520-a069-6111383ef718","system_id":"levelo_inurba_marseille","lat":43.337444,"lon":5.374475,"is_reserved":false,"is_disabled":false,"rental_uris":{"android":"levelo://app?vid=0cd1418a-0c8f-4520-a069-6111383ef718","ios":"levelo://app?vid=0cd1418a-0c8f-4520-a069-6111383ef718"},"vehicle_type_id":"4","last_reported":1765978056,"current_range_meters":0,"station_id":"","pricing_plan_id":"cebpf4jnsgd1na2vs0mg"},{"bike_id":"faa7fac3-5386-4819-9d71-fd08c2ea22ac","system_id":"levelo_inurba_marseille","lat":43.337444,"lon":5.374475,"is_reserved":false,"is_disabled":false,"rental_uris":{"android":"levelo://app?vid=faa7fac3-5386-4819-9d71-fd08c2ea22ac","ios":"levelo://app?vid=faa7fac3-5386-4819-9d71-fd08c2ea22ac"},"vehicle_type_id":"4","last_reported":1765978056,"current_range_meters":0,"station_id":"","pricing_plan_id":"cebpf4jnsgd1na2vs0mg"},{"bike_id":"655f0349-020e-490f-b41f-9a4effcec106","system_id":"levelo_inurba_marseille","lat":43.337444,"lon":5.374475,"is_reserved":false,"is_disabled":false,"rental_uris":{"android":"levelo://app?vid=655f0349-020e-490f-b41f-9a4effcec106","ios":"levelo://app?vid=655f0349-020e-490f-b41f-9a4effcec106"},"vehicle_type_id":"4","last_reported":1765978056,"current_range_meters":0,"station_id":"","pricing_plan_id":"cebpf4jnsgd1na2vs0mg"},{"bike_id":"3fa14bc5-f3d3-41f8-b29f-6e64025be7c9","system_id":"levelo_inurba_marseille","lat":43.337444,"lon":5.374475,"is_reserved":false,"is_disabled":false,"rental_uris":{"android":"levelo://app?vid=3fa14bc5-f3d3-41f8-b29f-6e64025be7c9","ios":"levelo://app?vid=3fa14bc5-f3d3-41f8-b29f-6e64025be7c9"},"vehicle_type_id":"4","last_reported":1765978056,"current_range_meters":0,"station_id":"","pricing_plan_id":"cebpf4jnsgd1na2vs0mg"},{"bike_id":"285d693a-bb17-4116-bb28-1983b8e2fafd","system_id":"levelo_inurba_marseille","lat":43.337444,"lon":5.374475,"is_reserved":false,"is_disabled":false,"rental_uris":{"android":"levelo://app?vid=285d693a-bb17-4116-bb28-1983b8e2fafd","ios":"levelo://app?vid=285d693a-bb17-4116-bb28-1983b8e2fafd"},"vehicle_type_id":"4","last_reported":1765978056,"current_range_meters":0,"station_id":"","pricing_plan_id":"cebpf4jnsgd1na2vs0mg"},{"bike_id":"b369e008-92d4-4488-8dbc-4336fe4bca6b","system_id":"levelo_inurba_marseille","lat":43.337444,"lon":5.374475,"is_reserved":false,"is_disabled":false,"rental_uris":{"android":"levelo://app?vid=b369e008-92d4-4488-8dbc-4336fe4bca6b","ios":"levelo://app?vid=b369e008-92d4-4488-8dbc-4336fe4bca6b"},"vehicle_type_id":"4","last_reported":1765978056,"current_range_meters":0,"station_id":"","pricing_plan_id":"cebpf4jnsgd1na2vs0mg"},{"bike_id":"39b3fa20-f1da-4365-8dbb-fb5ad6731681","system_id":"levelo_inurba_marseille","lat":43.337444,"lon":5.374475,"is_reserved":false,"is_disabled":false,"rental_uris":{"android":"levelo://app?vid=39b3fa20-f1da-4365-8dbb-fb5ad6731681","ios":"levelo://app?vid=39b3fa20-f1da-4365-8dbb-fb5ad6731681"},"vehicle_type_id":"4","last_reported":1765978056,"current_range_meters":0,"station_id":"","pricing_plan_id":"cebpf4jnsgd1na2vs0mg"},{"bike_id":"ca481ed1-7f3d-4913-9b55-b153e859dc9f","system_id":"levelo_inurba_marseille","lat":43.337444,"lon":5.374475,"is_reserved":false,"is_disabled":false,"rental_uris":{"android":"levelo://app?vid=ca481ed1-7f3d-4913-9b55-b153e859dc9f","ios":"levelo://app?vid=ca481ed1-7f3d-4913-9b55-b153e859dc9f"},"vehicle_type_id":"4","last_reported":1765978056,"current_range_meters":0,"station_id":"","pricing_plan_id":"cebpf4jnsgd1na2vs0mg"},{"bike_id":"0417f35d-870e-422d-aa2a-a53f537e99a8","system_id":"levelo_inurba_marseille","lat":43.337444,"lon":5.374475,"is_reserved":false,"is_disabled":false,"rental_uris":{"android":"levelo://app?vid=0417f35d-870e-422d-aa2a-a53f537e99a8","ios":"levelo://app?vid=0417f35d-870e-422d-aa2a-a53f537e99a8"},"vehicle_type_id":"4","last_reported":1765978056,"current_range_meters":0,"station_id":"","pricing_plan_id":"cebpf4jnsgd1na2vs0mg"},{"bike_id":"c9aa299e-3092-4744-84f5-e64fa5f090b6","system_id":"levelo_inurba_marseille","lat":43.31084,"lon":5.42437,"is_reserved":false,"is_disabled":false,"rental_uris":{"android":"levelo://app?vid=c9aa299e-3092-4744-84f5-e64fa5f090b6","ios":"levelo://app?vid=c9aa299e-3092-4744-84f5-e64fa5f090b6"},"vehicle_type_id":"4","last_reported":1765978056,"current_range_meters":2800,"station_id":"ce4bhp92rcd13ifvqhag","pricing_plan_id":"cebpf4jnsgd1na2vs0mg"},{"bike_id":"e188304f-e386-4415-8edb-08a0cfd9e407","system_id":"levelo_inurba_marseille","lat":43.29607,"lon":5.381,"is_reserved":false,"is_disabled":false,"rental_uris":{"android":"levelo://app?vid=e188304f-e386-4415-8edb-08a0cfd9e407","ios":"levelo://app?vid=e188304f-e386-4415-8edb-08a0cfd9e407"},"vehicle_type_id":"4","last_reported":1765978056,"current_range_meters":2800,"station_id":"ce4bgl12rcd13ifvqbo0","pricing_plan_id":"cebpf4jnsgd1na2vs0mg"},{"bike_id":"efcf8727-cad1-4da8-b9b2-3877974ab098","system_id":"levelo_inurba_marseille","lat":43.30482,"lon":5.37879,"is_reserved":false,"is_disabled":false,"rental_uris":{"android":"levelo://app?vid=efcf8727-cad1-4da8-b9b2-3877974ab098","ios":"levelo://app?vid=efcf8727-cad1-4da8-b9b2-3877974ab098"},"vehicle_type_id":"4","last_reported":1765978056,"current_range_meters":2800,"station_id":"ce4bgup2rcd13ifvqcn0","pricing_plan_id":"cebpf4jnsgd1na2vs0mg"},{"bike_id":"9e615aa4-3a49-4587-9b91-a8c090b94eac","system_id":"levelo_inurba_marseille","lat":43.29496,"lon":5.43318,"is_reserved":false,"is_disabled":false,"rental_uris":{"android":"levelo://app?vid=9e615aa4-3a49-4587-9b91-a8c090b94eac","ios":"levelo://app?vid=9e615aa4-3a49-4587-9b91-a8c090b94eac"},"vehicle_type_id":"4","last_reported":1765978056,"current_range_meters":2800,"station_id":"st_d3j5ugp08ojc73fj9d10","pricing_plan_id":"cebpf4jnsgd1na2vs0mg"},{"bike_id":"954ef81a-4f6d-4809-8623-688878112991","system_id":"levelo_inurba_marseille","lat":43.29264,"lon":5.38441,"is_reserved":false,"is_disabled":false,"rental_uris":{"android":"levelo://app?vid=954ef81a-4f6d-4809-8623-688878112991","ios":"levelo://app?vid=954ef81a-4f6d-4809-8623-688878112991"},"vehicle_type_id":"4","last_reported":1765978056,"current_range_meters":2800,"station_id":"ce4bh692rcd13ifvqea0","pricing_plan_id":"cebpf4jnsgd1na2vs0mg"},{"bike_id":"dddff05d-5502-424b-8899-d9de3ab094a4","system_id":"levelo_inurba_marseille","lat":43.29269,"lon":5.38439,"is_reserved":false,"is_disabled":false,"rental_uris":{"android":"levelo://app?vid=dddff05d-5502-424b-8899-d9de3ab094a4","ios":"levelo://app?vid=dddff05d-5502-424b-8899-d9de3ab094a4"},"vehicle_type_id":"4","last_reported":1765978056,"current_range_meters":2800,"station_id":"ce4bh692rcd13ifvqea0","pricing_plan_id":"cebpf4jnsgd1na2vs0mg"},{"bike_id":"1bfe3fe0-bdae-4710-a938-6ee148001528","system_id":"levelo_inurba_marseille","lat":43.27375,"lon":5.36264,"is_reserved":false,"is_disabled":false,"rental_uris":{"android":"levelo://app?vid=1bfe3fe0-bdae-4710-a938-6ee148001528","ios":"levelo://app?vid=1bfe3fe0-bdae-4710-a938-6ee148001528"},"vehicle_type_id":"4","last_reported":1765978056,"current_range_meters":2800,"station_id":"ce4bhbh2rcd13ifvqeo0","pricing_plan_id":"cebpf4jnsgd1na2vs0mg"},{"bike_id":"18d400e1-3ea1-4505-bd47-d8fe4497b688","system_id":"levelo_inurba_marseille","lat":43.30596,"lon":5.36537,"is_reserved":false,"is_disabled":false,"rental_uris":{"android":"levelo://app?vid=18d400e1-3ea1-4505-bd47-d8fe4497b688","ios":"levelo://app?vid=18d400e1-3ea1-4505-bd47-d8fe4497b688"},"vehicle_type_id":"4","last_reported":1765978056,"current_range_meters":2800,"station_id":"ce4bgs12rcd13ifvqcag","pricing_plan_id":"cebpf4jnsgd1na2vs0mg"},{"bike_id":"d5c6fa74-6555-4e9a-b747-1273f1992163","system_id":"levelo_inurba_marseille","lat":43.301137,"lon":5.365277,"is_reserved":false,"is_disabled":false,"rental_uris":{"android":"levelo://app?vid=d5c6fa74-6555-4e9a-b747-1273f1992163","ios":"levelo://app?vid=d5c6fa74-6555-4e9a-b747-1273f1992163"},"vehicle_type_id":"4","last_reported":1765978056,"current_range_meters":3200,"station_id":"","pricing_plan_id":"cebpf4jnsgd1na2vs0mg"},{"bike_id":"1ddf8a99-413f-4d3c-b427-73b1ab0e9d7f","system_id":"levelo_inurba_marseille","lat":43.231954,"lon":5.355483,"is_reserved":false,"is_disabled":false,"rental_uris":{"android":"levelo://app?vid=1ddf8a99-413f-4d3c-b427-73b1ab0e9d7f","ios":"levelo://app?vid=1ddf8a99-413f-4d3c-b427-73b1ab0e9d7f"},"vehicle_type_id":"4","last_reported":1765978056,"current_range_meters":3200,"station_id":"ce4bhu92rcd13ifvqi70","pricing_plan_id":"cebpf4jnsgd1na2vs0mg"},{"bike_id":"ab3bcde8-b7d6-4d7d-aa16-b3dfb86c3758","system_id":"levelo_inurba_marseille","lat":43.24541,"lon":5.40019,"is_reserved":false,"is_disabled":false,"rental_uris":{"android":"levelo://app?vid=ab3bcde8-b7d6-4d7d-aa16-b3dfb86c3758","ios":"levelo://app?vid=ab3bcde8-b7d6-4d7d-aa16-b3dfb86c3758"},"vehicle_type_id":"4","last_reported":1765978056,"current_range_meters":3600,"station_id":"","pricing_plan_id":"cebpf4jnsgd1na2vs0mg"},{"bike_id":"898c346d-529c-4e0f-8239-ceba441cdccd","system_id":"levelo_inurba_marseille","lat":43.316035,"lon":5.379218,"is_reserved":false,"is_disabled":true,"rental_uris":{"android":"levelo://app?vid=898c346d-529c-4e0f-8239-ceba441cdccd","ios":"levelo://app?vid=898c346d-529c-4e0f-8239-ceba441cdccd"},"vehicle_type_id":"4","last_reported":1765978056,"current_range_meters":3600,"station_id":"","pricing_plan_id":"cebpf4jnsgd1na2vs0mg"},{"bike_id":"df9328b6-020d-4898-84c3-c196136886e2","system_id":"levelo_inurba_marseille","lat":43.261944,"lon":5.374487,"is_reserved":false,"is_disabled":false,"rental_uris":{"android":"levelo://app?vid=df9328b6-020d-4898-84c3-c196136886e2","ios":"levelo://app?vid=df9328b6-020d-4898-84c3-c196136886e2"},"vehicle_type_id":"4","last_reported":1765978056,"current_range_meters":3600,"station_id":"ce4bhgp2rcd13ifvqfc0","pricing_plan_id":"cebpf4jnsgd1na2vs0mg"},{"bike_id":"a38fd01f-095f-4dc7-811b-ee8f2dd59c59","system_id":"levelo_inurba_marseille","lat":43.28683,"lon":5.38702,"is_reserved":false,"is_disabled":false,"rental_uris":{"android":"levelo://app?vid=a38fd01f-095f-4dc7-811b-ee8f2dd59c59","ios":"levelo://app?vid=a38fd01f-095f-4dc7-811b-ee8f2dd59c59"},"vehicle_type_id":"4","last_reported":1765978056,"current_range_meters":3600,"station_id":"ce4bh492rcd13ifvqdug","pricing_plan_id":"cebpf4jnsgd1na2vs0mg"},{"bike_id":"3f6a8471-d4f1-4453-8bf1-1d5c0c648a02","system_id":"levelo_inurba_marseille","lat":43.28268,"lon":5.35039,"is_reserved":false,"is_disabled":false,"rental_uris":{"android":"levelo://app?vid=3f6a8471-d4f1-4453-8bf1-1d5c0c648a02","ios":"levelo://app?vid=3f6a8471-d4f1-4453-8bf1-1d5c0c648a02"},"vehicle_type_id":"4","last_reported":1765978056,"current_range_meters":3600,"station_id":"ce4bhbp2rcd13ifvqerg","pricing_plan_id":"cebpf4jnsgd1na2vs0mg"},{"bike_id":"ecf3d124-0913-442d-a15a-5297206420b7","system_id":"levelo_inurba_marseille","lat":43.285117,"lon":5.384082,"is_reserved":false,"is_disabled":false,"rental_uris":{"android":"levelo://app?vid=ecf3d124-0913-442d-a15a-5297206420b7","ios":"levelo://app?vid=ecf3d124-0913-442d-a15a-5297206420b7"},"vehicle_type_id":"4","last_reported":1765978056,"current_range_meters":4000,"station_id":"ce4bh512rcd13ifvqe3g","pricing_plan_id":"cebpf4jnsgd1na2vs0mg"},{"bike_id":"e2802248-2866-45d9-a3e1-8b292c32efc9","system_id":"levelo_inurba_marseille","lat":43.26545,"lon":5.37287,"is_reserved":false,"is_disabled":false,"rental_uris":{"android":"levelo://app?vid=e2802248-2866-45d9-a3e1-8b292c32efc9","ios":"levelo://app?vid=e2802248-2866-45d9-a3e1-8b292c32efc9"},"vehicle_type_id":"4","last_reported":1765978056,"current_range_meters":4000,"station_id":"ce4bhg12rcd13ifvqf70","pricing_plan_id":"cebpf4jnsgd1na2vs0mg"},{"bike_id":"7347d0db-9848-451c-be30-f69c6aee26fe","system_id":"levelo_inurba_marseille","lat":43.29808,"lon":5.38079,"is_reserved":false,"is_disabled":false,"rental_uris":{"android":"levelo://app?vid=7347d0db-9848-451c-be30-f69c6aee26fe","ios":"levelo://app?vid=7347d0db-9848-451c-be30-f69c6aee26fe"},"vehicle_type_id":"4","last_reported":1765978056,"current_range_meters":4000,"station_id":"ce4bgip2rcd13ifvqbb0","pricing_plan_id":"cebpf4jnsgd1na2vs0mg"},{"bike_id":"e236e80e-0d8f-42d5-8f58-49557a51cb44","system_id":"levelo_inurba_marseille","lat":43.2953,"lon":5.39036,"is_reserved":false,"is_disabled":false,"rental_uris":{"android":"levelo://app?vid=e236e80e-0d8f-42d5-8f58-49557a51cb44","ios":"levelo://app?vid=e236e80e-0d8f-42d5-8f58-49557a51cb44"},"vehicle_type_id":"4","last_reported":1765978056,"current_range_meters":4000,"station_id":"ce4bh3p2rcd13ifvqdp0","pricing_plan_id":"cebpf4jnsgd1na2vs0mg"},{"bike_id":"dc942f21-063a-4b6a-8723-27ccf39fd964","system_id":"levelo_inurba_marseille","lat":43.29082,"lon":5.38134,"is_reserved":false,"is_disabled":false,"rental_uris":{"android":"levelo://app?vid=dc942f21-063a-4b6a-8723-27ccf39fd964","ios":"levelo://app?vid=dc942f21-063a-4b6a-8723-27ccf39fd964"},"vehicle_type_id":"4","last_reported":1765978056,"current_range_meters":4400,"station_id":"ce4bh512rcd13ifvqe2g","pricing_plan_id":"cebpf4jnsgd1na2vs0mg"},{"bike_id":"557e344b-e1af-41fd-a710-4ae525101413","system_id":"levelo_inurba_marseille","lat":43.298492,"lon":5.362883,"is_reserved":false,"is_disabled":true,"rental_uris":{"android":"levelo://app?vid=557e344b-e1af-41fd-a710-4ae525101413","ios":"levelo://app?vid=557e344b-e1af-41fd-a710-4ae525101413"},"vehicle_type_id":"4","last_reported":1765978056,"current_range_meters":4400,"station_id":"","pricing_plan_id":"cebpf4jnsgd1na2vs0mg"},{"bike_id":"3b30c5f8-2aee-4751-b4ae-a7ed985b54d5","system_id":"levelo_inurba_marseille","lat":43.30214,"lon":5.39473,"is_reserved":false,"is_disabled":false,"rental_uris":{"android":"levelo://app?vid=3b30c5f8-2aee-4751-b4ae-a7ed985b54d5","ios":"levelo://app?vid=3b30c5f8-2aee-4751-b4ae-a7ed985b54d5"},"vehicle_type_id":"4","last_reported":1765978056,"current_range_meters":4400,"station_id":"ce4bh0p2rcd13ifvqd70","pricing_plan_id":"cebpf4jnsgd1na2vs0mg"},{"bike_id":"2e1d5095-0e43-4a45-bf9a-2832446e4ec5","system_id":"levelo_inurba_marseille","lat":43.26557,"lon":5.37284,"is_reserved":false,"is_disabled":false,"rental_uris":{"android":"levelo://app?vid=2e1d5095-0e43-4a45-bf9a-2832446e4ec5","ios":"levelo://app?vid=2e1d5095-0e43-4a45-bf9a-2832446e4ec5"},"vehicle_type_id":"4","last_reported":1765978056,"current_range_meters":4400,"station_id":"ce4bhg12rcd13ifvqf70","pricing_plan_id":"cebpf4jnsgd1na2vs0mg"},{"bike_id":"074b7399-04e4-4c1d-be2a-31a7d4600ef2","system_id":"levelo_inurba_marseille","lat":43.28727,"lon":5.37936,"is_reserved":false,"is_disabled":false,"rental_uris":{"android":"levelo://app?vid=074b7399-04e4-4c1d-be2a-31a7d4600ef2","ios":"levelo://app?vid=074b7399-04e4-4c1d-be2a-31a7d4600ef2"},"vehicle_type_id":"4","last_reported":1765978056,"current_range_meters":4400,"station_id":"ce4bh9p2rcd13ifvqec0","pricing_plan_id":"cebpf4jnsgd1na2vs0mg"},{"bike_id":"8d35e186-47e9-4e61-8c86-e3f009ee68cb","system_id":"levelo_inurba_marseille","lat":43.289996,"lon":5.356196,"is_reserved":false,"is_disabled":false,"rental_uris":{"android":"levelo://app?vid=8d35e186-47e9-4e61-8c86-e3f009ee68cb","ios":"levelo://app?vid=8d35e186-47e9-4e61-8c86-e3f009ee68cb"},"vehicle_type_id":"4","last_reported":1765978056,"current_range_meters":4800,"station_id":"ce4bhb92rcd13ifvqen0","pricing_plan_id":"cebpf4jnsgd1na2vs0mg"},{"bike_id":"f78b0296-aced-4cd9-a858-0586c329a353","system_id":"levelo_inurba_marseille","lat":43.26558,"lon":5.37285,"is_reserved":false,"is_disabled":false,"rental_uris":{"android":"levelo://app?vid=f78b0296-aced-4cd9-a858-0586c329a353","ios":"levelo://app?vid=f78b0296-aced-4cd9-a858-0586c329a353"},"vehicle_type_id":"4","last_reported":1765978056,"current_range_meters":4800,"station_id":"ce4bhg12rcd13ifvqf70","pricing_plan_id":"cebpf4jnsgd1na2vs0mg"},{"bike_id":"6097b702-86dd-44e0-8919-4c813095e471","system_id":"levelo_inurba_marseille","lat":43.24185,"lon":5.39727,"is_reserved":false,"is_disabled":false,"rental_uris":{"android":"levelo://app?vid=6097b702-86dd-44e0-8919-4c813095e471","ios":"levelo://app?vid=6097b702-86dd-44e0-8919-4c813095e471"},"vehicle_type_id":"4","last_reported":1765978056,"current_range_meters":4800,"station_id":"ce4bhn12rcd13ifvqgpg","pricing_plan_id":"cebpf4jnsgd1na2vs0mg"},{"bike_id":"7c8c0e85-d94d-44cc-8d60-6e89ad193680","system_id":"levelo_inurba_marseille","lat":43.21818,"lon":5.34604,"is_reserved":false,"is_disabled":false,"rental_uris":{"android":"levelo://app?vid=7c8c0e85-d94d-44cc-8d60-6e89ad193680","ios":"levelo://app?vid=7c8c0e85-d94d-44cc-8d60-6e89ad193680"},"vehicle_type_id":"4","last_reported":1765978056,"current_range_meters":4800,"station_id":"","pricing_plan_id":"cebpf4jnsgd1na2vs0mg"},{"bike_id":"783d6ade-301c-44e8-b285-3317a4d497a1","system_id":"levelo_inurba_marseille","lat":43.26958,"lon":5.38638,"is_reserved":false,"is_disabled":false,"rental_uris":{"android":"levelo://app?vid=783d6ade-301c-44e8-b285-3317a4d497a1","ios":"levelo://app?vid=783d6ade-301c-44e8-b285-3317a4d497a1"},"vehicle_type_id":"4","last_reported":1765978056,"current_range_meters":5600,"station_id":"ce4bhh92rcd13ifvqfh0","pricing_plan_id":"cebpf4jnsgd1na2vs0mg"},{"bike_id":"9fe9a33e-bf47-47e7-82a7-5dbdeee94111","system_id":"levelo_inurba_marseille","lat":43.305285,"lon":5.384262,"is_reserved":false,"is_disabled":true,"rental_uris":{"android":"levelo://app?vid=9fe9a33e-bf47-47e7-82a7-5dbdeee94111","ios":"levelo://app?vid=9fe9a33e-bf47-47e7-82a7-5dbdeee94111"},"vehicle_type_id":"4","last_reported":1765978056,"current_range_meters":5600,"station_id":"ce4bgg92rcd13ifvqb30","pricing_plan_id":"cebpf4jnsgd1na2vs0mg"},{"bike_id":"d106bbcb-8a97-46ee-ab7e-8d1c2c12cd7b","system_id":"levelo_inurba_marseille","lat":43.299103,"lon":5.374793,"is_reserved":false,"is_disabled":false,"rental_uris":{"android":"levelo://app?vid=d106bbcb-8a97-46ee-ab7e-8d1c2c12cd7b","ios":"levelo://app?vid=d106bbcb-8a97-46ee-ab7e-8d1c2c12cd7b"},"vehicle_type_id":"4","last_reported":1765978056,"current_range_meters":5600,"station_id":"ce4bgjh2rcd13ifvqbg0","pricing_plan_id":"cebpf4jnsgd1na2vs0mg"},{"bike_id":"31604729-dce0-4afc-8bb0-4695990fe115","system_id":"levelo_inurba_marseille","lat":43.29712,"lon":5.376877,"is_reserved":false,"is_disabled":true,"rental_uris":{"android":"levelo://app?vid=31604729-dce0-4afc-8bb0-4695990fe115","ios":"levelo://app?vid=31604729-dce0-4afc-8bb0-4695990fe115"},"vehicle_type_id":"4","last_reported":1765978056,"current_range_meters":5600,"station_id":"ce4bgpp2rcd13ifvqc3g","pricing_plan_id":"cebpf4jnsgd1na2vs0mg"},{"bike_id":"8302aa7e-5b9f-48fa-a2a5-30e8d01919f7","system_id":"levelo_inurba_marseille","lat":43.2804,"lon":5.36954,"is_reserved":false,"is_disabled":false,"rental_uris":{"android":"levelo://app?vid=8302aa7e-5b9f-48fa-a2a5-30e8d01919f7","ios":"levelo://app?vid=8302aa7e-5b9f-48fa-a2a5-30e8d01919f7"},"vehicle_type_id":"4","last_reported":1765978056,"current_range_meters":5600,"station_id":"ce4bha12rcd13ifvqef0","pricing_plan_id":"cebpf4jnsgd1na2vs0mg"},{"bike_id":"92ad034b-9911-4dda-bfa7-71b0ef508d47","system_id":"levelo_inurba_marseille","lat":43.30568,"lon":5.38438,"is_reserved":false,"is_disabled":false,"rental_uris":{"android":"levelo://app?vid=92ad034b-9911-4dda-bfa7-71b0ef508d47","ios":"levelo://app?vid=92ad034b-9911-4dda-bfa7-71b0ef508d47"},"vehicle_type_id":"4","last_reported":1765978056,"current_range_meters":5600,"station_id":"ce4bgg92rcd13ifvqb30","pricing_plan_id":"cebpf4jnsgd1na2vs0mg"},{"bike_id":"81ae8807-796d-48b5-a10d-c4a0b3241189","system_id":"levelo_inurba_marseille","lat":43.29847,"lon":5.36287,"is_reserved":false,"is_disabled":false,"rental_uris":{"android":"levelo://app?vid=81ae8807-796d-48b5-a10d-c4a0b3241189","ios":"levelo://app?vid=81ae8807-796d-48b5-a10d-c4a0b3241189"},"vehicle_type_id":"4","last_reported":1765978056,"current_range_meters":6000,"station_id":"ce4bgpp2rcd13ifvqc3g","pricing_plan_id":"cebpf4jnsgd1na2vs0mg"},{"bike_id":"11dccb17-651c-4258-91c0-33e4901b7965","system_id":"levelo_inurba_marseille","lat":43.265556,"lon":5.372839,"is_reserved":false,"is_disabled":false,"rental_uris":{"android":"levelo://app?vid=11dccb17-651c-4258-91c0-33e4901b7965","ios":"levelo://app?vid=11dccb17-651c-4258-91c0-33e4901b7965"},"vehicle_type_id":"4","last_reported":1765978056,"current_range_meters":6000,"station_id":"ce4bhg12rcd13ifvqf70","pricing_plan_id":"cebpf4jnsgd1na2vs0mg"},{"bike_id":"ae80dafd-7e08-4044-9b38-2f0e9dcf7818","system_id":"levelo_inurba_marseille","lat":43.24079,"lon":5.37753,"is_reserved":false,"is_disabled":false,"rental_uris":{"android":"levelo://app?vid=ae80dafd-7e08-4044-9b38-2f0e9dcf7818","ios":"levelo://app?vid=ae80dafd-7e08-4044-9b38-2f0e9dcf7818"},"vehicle_type_id":"4","last_reported":1765978056,"current_range_meters":6000,"station_id":"ce4bhnp2rcd13ifvqgvg","pricing_plan_id":"cebpf4jnsgd1na2vs0mg"},{"bike_id":"77c41e37-20d2-45ca-9e95-7c818f03c9fd","system_id":"levelo_inurba_marseille","lat":43.288549,"lon":5.358458,"is_reserved":false,"is_disabled":false,"rental_uris":{"android":"levelo://app?vid=77c41e37-20d2-45ca-9e95-7c818f03c9fd","ios":"levelo://app?vid=77c41e37-20d2-45ca-9e95-7c818f03c9fd"},"vehicle_type_id":"4","last_reported":1765978056,"current_range_meters":6000,"station_id":"ce4bhb12rcd13ifvqem0","pricing_plan_id":"cebpf4jnsgd1na2vs0mg"},{"bike_id":"1c7287a2-f8a6-4c24-a098-4972ee445a61","system_id":"levelo_inurba_marseille","lat":43.27182,"lon":5.40989,"is_reserved":false,"is_disabled":false,"rental_uris":{"android":"levelo://app?vid=1c7287a2-f8a6-4c24-a098-4972ee445a61","ios":"levelo://app?vid=1c7287a2-f8a6-4c24-a098-4972ee445a61"},"vehicle_type_id":"4","last_reported":1765978056,"current_range_meters":6400,"station_id":"ce4bhl12rcd13ifvqgf0","pricing_plan_id":"cebpf4jnsgd1na2vs0mg"},{"bike_id":"65f2bdb7-3a13-4d06-ba39-29ee639bad50","system_id":"levelo_inurba_marseille","lat":43.28448,"lon":5.39208,"is_reserved":false,"is_disabled":false,"rental_uris":{"android":"levelo://app?vid=65f2bdb7-3a13-4d06-ba39-29ee639bad50","ios":"levelo://app?vid=65f2bdb7-3a13-4d06-ba39-29ee639bad50"},"vehicle_type_id":"4","last_reported":1765978056,"current_range_meters":6400,"station_id":"ce4bhoh2rcd13ifvqh5g","pricing_plan_id":"cebpf4jnsgd1na2vs0mg"},{"bike_id":"81e60892-baf1-4c41-85a4-22a13867a926","system_id":"levelo_inurba_marseille","lat":43.28261,"lon":5.35057,"is_reserved":false,"is_disabled":false,"rental_uris":{"android":"levelo://app?vid=81e60892-baf1-4c41-85a4-22a13867a926","ios":"levelo://app?vid=81e60892-baf1-4c41-85a4-22a13867a926"},"vehicle_type_id":"4","last_reported":1765978056,"current_range_meters":6400,"station_id":"ce4bhbp2rcd13ifvqerg","pricing_plan_id":"cebpf4jnsgd1na2vs0mg"},{"bike_id":"41f5ac64-8b12-4878-b330-d49f904b39f4","system_id":"levelo_inurba_marseille","lat":43.29229,"lon":5.36062,"is_reserved":false,"is_disabled":false,"rental_uris":{"android":"levelo://app?vid=41f5ac64-8b12-4878-b330-d49f904b39f4","ios":"levelo://app?vid=41f5ac64-8b12-4878-b330-d49f904b39f4"},"vehicle_type_id":"4","last_reported":1765978056,"current_range_meters":6400,"station_id":"ce4bhbh2rcd13ifvqeqg","pricing_plan_id":"cebpf4jnsgd1na2vs0mg"},{"bike_id":"500ccc04-45c0-4dae-a582-ca036f6f2898","system_id":"levelo_inurba_marseille","lat":43.337444,"lon":5.374475,"is_reserved":false,"is_disabled":false,"rental_uris":{"android":"levelo://app?vid=500ccc04-45c0-4dae-a582-ca036f6f2898","ios":"levelo://app?vid=500ccc04-45c0-4dae-a582-ca036f6f2898"},"vehicle_type_id":"4","last_reported":1765978056,"current_range_meters":6800,"station_id":"","pricing_plan_id":"cebpf4jnsgd1na2vs0mg"},{"bike_id":"96085d58-f3c7-474e-967f-462d38ad5ddf","system_id":"levelo_inurba_marseille","lat":43.249481,"lon":5.405074,"is_reserved":false,"is_disabled":false,"rental_uris":{"android":"levelo://app?vid=96085d58-f3c7-474e-967f-462d38ad5ddf","ios":"levelo://app?vid=96085d58-f3c7-474e-967f-462d38ad5ddf"},"vehicle_type_id":"4","last_reported":1765978056,"current_range_meters":6800,"station_id":"st_d2ngiaodas8pm72gd1h0","pricing_plan_id":"cebpf4jnsgd1na2vs0mg"},{"bike_id":"86a7635c-e23c-4a4b-a153-fd0d9b31a8f6","system_id":"levelo_inurba_marseille","lat":43.309488,"lon":5.390523,"is_reserved":false,"is_disabled":false,"rental_uris":{"android":"levelo://app?vid=86a7635c-e23c-4a4b-a153-fd0d9b31a8f6","ios":"levelo://app?vid=86a7635c-e23c-4a4b-a153-fd0d9b31a8f6"},"vehicle_type_id":"4","last_reported":1765978056,"current_range_meters":6800,"station_id":"ce4bgup2rcd13ifvqco0","pricing_plan_id":"cebpf4jnsgd1na2vs0mg"},{"bike_id":"a355f29d-7c93-42c0-a390-1e4b72d8f7cc","system_id":"levelo_inurba_marseille","lat":43.30302,"lon":5.377,"is_reserved":false,"is_disabled":false,"rental_uris":{"android":"levelo://app?vid=a355f29d-7c93-42c0-a390-1e4b72d8f7cc","ios":"levelo://app?vid=a355f29d-7c93-42c0-a390-1e4b72d8f7cc"},"vehicle_type_id":"4","last_reported":1765978056,"current_range_meters":6800,"station_id":"ce4bguh2rcd13ifvqcj0","pricing_plan_id":"cebpf4jnsgd1na2vs0mg"},{"bike_id":"64c098ba-7932-4b78-b181-19e87b10ea8c","system_id":"levelo_inurba_marseille","lat":43.31699,"lon":5.4048,"is_reserved":false,"is_disabled":false,"rental_uris":{"android":"levelo://app?vid=64c098ba-7932-4b78-b181-19e87b10ea8c","ios":"levelo://app?vid=64c098ba-7932-4b78-b181-19e87b10ea8c"},"vehicle_type_id":"4","last_reported":1765978056,"current_range_meters":7200,"station_id":"ce4bh012rcd13ifvqd00","pricing_plan_id":"cebpf4jnsgd1na2vs0mg"},{"bike_id":"710029eb-b939-45e0-8d20-0bac081556e2","system_id":"levelo_inurba_marseille","lat":43.23201,"lon":5.35552,"is_reserved":false,"is_disabled":true,"rental_uris":{"android":"levelo://app?vid=710029eb-b939-45e0-8d20-0bac081556e2","ios":"levelo://app?vid=710029eb-b939-45e0-8d20-0bac081556e2"},"vehicle_type_id":"4","last_reported":1765978056,"current_range_meters":7200,"station_id":"ce4bhu92rcd13ifvqi70","pricing_plan_id":"cebpf4jnsgd1na2vs0mg"},{"bike_id":"367c9656-5780-4ef8-821d-91a14c1edd9e","system_id":"levelo_inurba_marseille","lat":43.264588,"lon":5.373642,"is_reserved":false,"is_disabled":false,"rental_uris":{"android":"levelo://app?vid=367c9656-5780-4ef8-821d-91a14c1edd9e","ios":"levelo://app?vid=367c9656-5780-4ef8-821d-91a14c1edd9e"},"vehicle_type_id":"4","last_reported":1765978056,"current_range_meters":7200,"station_id":"","pricing_plan_id":"cebpf4jnsgd1na2vs0mg"},{"bike_id":"f2bb075c-a4ca-4a7d-9548-444cf0978b1e","system_id":"levelo_inurba_marseille","lat":43.30443,"lon":5.37083,"is_reserved":false,"is_disabled":false,"rental_uris":{"android":"levelo://app?vid=f2bb075c-a4ca-4a7d-9548-444cf0978b1e","ios":"levelo://app?vid=f2bb075c-a4ca-4a7d-9548-444cf0978b1e"},"vehicle_type_id":"4","last_reported":1765978056,"current_range_meters":7200,"station_id":"","pricing_plan_id":"cebpf4jnsgd1na2vs0mg"},{"bike_id":"cd47fde0-8abd-4eb8-9335-008bc345ca7e","system_id":"levelo_inurba_marseille","lat":43.29716,"lon":5.37707,"is_reserved":false,"is_disabled":false,"rental_uris":{"android":"levelo://app?vid=cd47fde0-8abd-4eb8-9335-008bc345ca7e","ios":"levelo://app?vid=cd47fde0-8abd-4eb8-9335-008bc345ca7e"},"vehicle_type_id":"4","last_reported":1765978056,"current_range_meters":7200,"station_id":"ce4bgkh2rcd13ifvqbl0","pricing_plan_id":"cebpf4jnsgd1na2vs0mg"},{"bike_id":"3fe37c73-4cab-4665-ab10-a4827f6f2dae","system_id":"levelo_inurba_marseille","lat":43.27574,"lon":5.38438,"is_reserved":false,"is_disabled":false,"rental_uris":{"android":"levelo://app?vid=3fe37c73-4cab-4665-ab10-a4827f6f2dae","ios":"levelo://app?vid=3fe37c73-4cab-4665-ab10-a4827f6f2dae"},"vehicle_type_id":"4","last_reported":1765978056,"current_range_meters":7200,"station_id":"ce4bhh92rcd13ifvqfi0","pricing_plan_id":"cebpf4jnsgd1na2vs0mg"},{"bike_id":"8ea59344-8e19-4332-bfff-fd00b23aa2b1","system_id":"levelo_inurba_marseille","lat":43.29634,"lon":5.38086,"is_reserved":false,"is_disabled":true,"rental_uris":{"android":"levelo://app?vid=8ea59344-8e19-4332-bfff-fd00b23aa2b1","ios":"levelo://app?vid=8ea59344-8e19-4332-bfff-fd00b23aa2b1"},"vehicle_type_id":"4","last_reported":1765978056,"current_range_meters":7200,"station_id":"ce4bgl12rcd13ifvqbo0","pricing_plan_id":"cebpf4jnsgd1na2vs0mg"},{"bike_id":"b837e29c-a49d-4037-8ffb-c58ec3701d59","system_id":"levelo_inurba_marseille","lat":43.31149,"lon":5.4541,"is_reserved":false,"is_disabled":false,"rental_uris":{"android":"levelo://app?vid=b837e29c-a49d-4037-8ffb-c58ec3701d59","ios":"levelo://app?vid=b837e29c-a49d-4037-8ffb-c58ec3701d59"},"vehicle_type_id":"4","last_reported":1765978056,"current_range_meters":7200,"station_id":"","pricing_plan_id":"cebpf4jnsgd1na2vs0mg"},{"bike_id":"7d5b868f-43d5-44d5-b06c-00f570660f22","system_id":"levelo_inurba_marseille","lat":43.24619,"lon":5.43148,"is_reserved":false,"is_disabled":true,"rental_uris":{"android":"levelo://app?vid=7d5b868f-43d5-44d5-b06c-00f570660f22","ios":"levelo://app?vid=7d5b868f-43d5-44d5-b06c-00f570660f22"},"vehicle_type_id":"4","last_reported":1765978056,"current_range_meters":7200,"station_id":"st_d2m6c4gdas8pm72e190g","pricing_plan_id":"cebpf4jnsgd1na2vs0mg"},{"bike_id":"b792217e-0bf5-4dd0-9471-a2b678717e80","system_id":"levelo_inurba_marseille","lat":43.25111,"lon":5.40479,"is_reserved":false,"is_disabled":false,"rental_uris":{"android":"levelo://app?vid=b792217e-0bf5-4dd0-9471-a2b678717e80","ios":"levelo://app?vid=b792217e-0bf5-4dd0-9471-a2b678717e80"},"vehicle_type_id":"4","last_reported":1765978056,"current_range_meters":7200,"station_id":"","pricing_plan_id":"cebpf4jnsgd1na2vs0mg"},{"bike_id":"cf6ca05a-f0df-491f-b244-4d76d39e894e","system_id":"levelo_inurba_marseille","lat":43.27845,"lon":5.3922,"is_reserved":false,"is_disabled":false,"rental_uris":{"android":"levelo://app?vid=cf6ca05a-f0df-491f-b244-4d76d39e894e","ios":"levelo://app?vid=cf6ca05a-f0df-491f-b244-4d76d39e894e"},"vehicle_type_id":"4","last_reported":1765978056,"current_range_meters":7200,"station_id":"ce4bhjp2rcd13ifvqga0","pricing_plan_id":"cebpf4jnsgd1na2vs0mg"},{"bike_id":"0c1d01aa-39e8-4376-a172-b5877a2d9858","system_id":"levelo_inurba_marseille","lat":43.273278,"lon":5.390987,"is_reserved":false,"is_disabled":true,"rental_uris":{"android":"levelo://app?vid=0c1d01aa-39e8-4376-a172-b5877a2d9858","ios":"levelo://app?vid=0c1d01aa-39e8-4376-a172-b5877a2d9858"},"vehicle_type_id":"4","last_reported":1765978056,"current_range_meters":7200,"station_id":"ce4bhgp2rcd13ifvqfe0","pricing_plan_id":"cebpf4jnsgd1na2vs0mg"},{"bike_id":"656ccb0b-2e7f-49cc-a353-59d3748b4785","system_id":"levelo_inurba_marseille","lat":43.26062,"lon":5.39395,"is_reserved":false,"is_disabled":false,"rental_uris":{"android":"levelo://app?vid=656ccb0b-2e7f-49cc-a353-59d3748b4785","ios":"levelo://app?vid=656ccb0b-2e7f-49cc-a353-59d3748b4785"},"vehicle_type_id":"4","last_reported":1765978056,"current_range_meters":7200,"station_id":"ce4bhh92rcd13ifvqfj0","pricing_plan_id":"cebpf4jnsgd1na2vs0mg"},{"bike_id":"dc1c66a1-ec6a-4a97-84f0-949967d8e557","system_id":"levelo_inurba_marseille","lat":43.31032,"lon":5.39361,"is_reserved":false,"is_disabled":false,"rental_uris":{"android":"levelo://app?vid=dc1c66a1-ec6a-4a97-84f0-949967d8e557","ios":"levelo://app?vid=dc1c66a1-ec6a-4a97-84f0-949967d8e557"},"vehicle_type_id":"4","last_reported":1765978056,"current_range_meters":7200,"station_id":"","pricing_plan_id":"cebpf4jnsgd1na2vs0mg"},{"bike_id":"49de0afc-34f2-42fb-a384-63b112c4f5f1","system_id":"levelo_inurba_marseille","lat":43.25866,"lon":5.39902,"is_reserved":false,"is_disabled":false,"rental_uris":{"android":"levelo://app?vid=49de0afc-34f2-42fb-a384-63b112c4f5f1","ios":"levelo://app?vid=49de0afc-34f2-42fb-a384-63b112c4f5f1"},"vehicle_type_id":"4","last_reported":1765978056,"current_range_meters":7200,"station_id":"ce4bhl92rcd13ifvqghg","pricing_plan_id":"cebpf4jnsgd1na2vs0mg"},{"bike_id":"b6aab541-a3b9-4cd1-8461-30e804f31f92","system_id":"levelo_inurba_marseille","lat":43.27346,"lon":5.36221,"is_reserved":false,"is_disabled":false,"rental_uris":{"android":"levelo://app?vid=b6aab541-a3b9-4cd1-8461-30e804f31f92","ios":"levelo://app?vid=b6aab541-a3b9-4cd1-8461-30e804f31f92"},"vehicle_type_id":"4","last_reported":1765978056,"current_range_meters":7200,"station_id":"ce4bhbh2rcd13ifvqeo0","pricing_plan_id":"cebpf4jnsgd1na2vs0mg"},{"bike_id":"ea54944d-bb89-49f4-833f-77523f2426e4","system_id":"levelo_inurba_marseille","lat":43.27829,"lon":5.40726,"is_reserved":false,"is_disabled":true,"rental_uris":{"android":"levelo://app?vid=ea54944d-bb89-49f4-833f-77523f2426e4","ios":"levelo://app?vid=ea54944d-bb89-49f4-833f-77523f2426e4"},"vehicle_type_id":"4","last_reported":1765978056,"current_range_meters":7200,"station_id":"ce4bhnh2rcd13ifvqgtg","pricing_plan_id":"cebpf4jnsgd1na2vs0mg"},{"bike_id":"ef8eb51a-c77d-4d0a-9e40-cdfc31329d05","system_id":"levelo_inurba_marseille","lat":43.31055,"lon":5.37176,"is_reserved":false,"is_disabled":false,"rental_uris":{"android":"levelo://app?vid=ef8eb51a-c77d-4d0a-9e40-cdfc31329d05","ios":"levelo://app?vid=ef8eb51a-c77d-4d0a-9e40-cdfc31329d05"},"vehicle_type_id":"4","last_reported":1765978056,"current_range_meters":7200,"station_id":"st_d4kl2rp97mjs73e7tdfg","pricing_plan_id":"cebpf4jnsgd1na2vs0mg"},{"bike_id":"dc5dac07-113f-4f34-a45c-a00d72105268","system_id":"levelo_inurba_marseille","lat":43.256888,"lon":5.391363,"is_reserved":false,"is_disabled":false,"rental_uris":{"android":"levelo://app?vid=dc5dac07-113f-4f34-a45c-a00d72105268","ios":"levelo://app?vid=dc5dac07-113f-4f34-a45c-a00d72105268"},"vehicle_type_id":"4","last_reported":1765978056,"current_range_meters":7200,"station_id":"","pricing_plan_id":"cebpf4jnsgd1na2vs0mg"},{"bike_id":"19f61f34-14f9-4ac1-9da5-6a325fd27e1e","system_id":"levelo_inurba_marseille","lat":43.33761,"lon":5.3743,"is_reserved":false,"is_disabled":false,"rental_uris":{"android":"levelo://app?vid=19f61f34-14f9-4ac1-9da5-6a325fd27e1e","ios":"levelo://app?vid=19f61f34-14f9-4ac1-9da5-6a325fd27e1e"},"vehicle_type_id":"4","last_reported":1765978056,"current_range_meters":7200,"station_id":"","pricing_plan_id":"cebpf4jnsgd1na2vs0mg"},{"bike_id":"2158dc13-9d69-4ae3-aceb-b26f68b5a60f","system_id":"levelo_inurba_marseille","lat":43.265615,"lon":5.403235,"is_reserved":false,"is_disabled":false,"rental_uris":{"android":"levelo://app?vid=2158dc13-9d69-4ae3-aceb-b26f68b5a60f","ios":"levelo://app?vid=2158dc13-9d69-4ae3-aceb-b26f68b5a60f"},"vehicle_type_id":"4","last_reported":1765978056,"current_range_meters":7200,"station_id":"ce4bhnp2rcd13ifvqgvg","pricing_plan_id":"cebpf4jnsgd1na2vs0mg"},{"bike_id":"63c5ae71-d57b-48dd-a736-a5dbe74bf445","system_id":"levelo_inurba_marseille","lat":43.316791,"lon":5.375612,"is_reserved":false,"is_disabled":true,"rental_uris":{"android":"levelo://app?vid=63c5ae71-d57b-48dd-a736-a5dbe74bf445","ios":"levelo://app?vid=63c5ae71-d57b-48dd-a736-a5dbe74bf445"},"vehicle_type_id":"4","last_reported":1765978056,"current_range_meters":8000,"station_id":"","pricing_plan_id":"cebpf4jnsgd1na2vs0mg"},{"bike_id":"d8a75161-bc22-4131-8d8d-c092979bc9d5","system_id":"levelo_inurba_marseille","lat":43.28107,"lon":5.37857,"is_reserved":false,"is_disabled":false,"rental_uris":{"android":"levelo://app?vid=d8a75161-bc22-4131-8d8d-c092979bc9d5","ios":"levelo://app?vid=d8a75161-bc22-4131-8d8d-c092979bc9d5"},"vehicle_type_id":"4","last_reported":1765978056,"current_range_meters":8000,"station_id":"ce4bha12rcd13ifvqee0","pricing_plan_id":"cebpf4jnsgd1na2vs0mg"},{"bike_id":"52a54e30-98ea-4cde-b62d-e76ff0fd87ba","system_id":"levelo_inurba_marseille","lat":43.27491,"lon":5.42448,"is_reserved":false,"is_disabled":true,"rental_uris":{"android":"levelo://app?vid=52a54e30-98ea-4cde-b62d-e76ff0fd87ba","ios":"levelo://app?vid=52a54e30-98ea-4cde-b62d-e76ff0fd87ba"},"vehicle_type_id":"4","last_reported":1765978056,"current_range_meters":8000,"station_id":"ce4bhn92rcd13ifvqgrg","pricing_plan_id":"cebpf4jnsgd1na2vs0mg"},{"bike_id":"339d251b-5332-4901-aae2-eda8f9aa1d79","system_id":"levelo_inurba_marseille","lat":43.2707,"lon":5.42273,"is_reserved":false,"is_disabled":true,"rental_uris":{"android":"levelo://app?vid=339d251b-5332-4901-aae2-eda8f9aa1d79","ios":"levelo://app?vid=339d251b-5332-4901-aae2-eda8f9aa1d79"},"vehicle_type_id":"4","last_reported":1765978056,"current_range_meters":8000,"station_id":"ce4bhk92rcd13ifvqgb0","pricing_plan_id":"cebpf4jnsgd1na2vs0mg"},{"bike_id":"e6db636e-5539-4fb5-9c46-d08c10a1d252","system_id":"levelo_inurba_marseille","lat":43.29805,"lon":5.4406,"is_reserved":false,"is_disabled":false,"rental_uris":{"android":"levelo://app?vid=e6db636e-5539-4fb5-9c46-d08c10a1d252","ios":"levelo://app?vid=e6db636e-5539-4fb5-9c46-d08c10a1d252"},"vehicle_type_id":"4","last_reported":1765978056,"current_range_meters":8000,"station_id":"st_d3jp68qikq2c7381ktn0","pricing_plan_id":"cebpf4jnsgd1na2vs0mg"},{"bike_id":"d695a1ef-8779-4c77-806c-6ab369be065b","system_id":"levelo_inurba_marseille","lat":43.29486,"lon":5.38285,"is_reserved":false,"is_disabled":false,"rental_uris":{"android":"levelo://app?vid=d695a1ef-8779-4c77-806c-6ab369be065b","ios":"levelo://app?vid=d695a1ef-8779-4c77-806c-6ab369be065b"},"vehicle_type_id":"4","last_reported":1765978056,"current_range_meters":8000,"station_id":"","pricing_plan_id":"cebpf4jnsgd1na2vs0mg"},{"bike_id":"ce509ce8-8fef-4716-856a-b199acdb75e0","system_id":"levelo_inurba_marseille","lat":43.290342,"lon":5.399626,"is_reserved":false,"is_disabled":false,"rental_uris":{"android":"levelo://app?vid=ce509ce8-8fef-4716-856a-b199acdb75e0","ios":"levelo://app?vid=ce509ce8-8fef-4716-856a-b199acdb75e0"},"vehicle_type_id":"4","last_reported":1765978056,"current_range_meters":8400,"station_id":"ce4bh392rcd13ifvqdm0","pricing_plan_id":"cebpf4jnsgd1na2vs0mg"},{"bike_id":"5a47049c-d753-41bd-9dae-304924aa83ff","system_id":"levelo_inurba_marseille","lat":43.2793,"lon":5.38744,"is_reserved":false,"is_disabled":false,"rental_uris":{"android":"levelo://app?vid=5a47049c-d753-41bd-9dae-304924aa83ff","ios":"levelo://app?vid=5a47049c-d753-41bd-9dae-304924aa83ff"},"vehicle_type_id":"4","last_reported":1765978056,"current_range_meters":8400,"station_id":"ce4bhg12rcd13ifvqf80","pricing_plan_id":"cebpf4jnsgd1na2vs0mg"},{"bike_id":"075753f2-03fc-482d-992a-1a659c9f27f8","system_id":"levelo_inurba_marseille","lat":43.28232,"lon":5.34909,"is_reserved":false,"is_disabled":false,"rental_uris":{"android":"levelo://app?vid=075753f2-03fc-482d-992a-1a659c9f27f8","ios":"levelo://app?vid=075753f2-03fc-482d-992a-1a659c9f27f8"},"vehicle_type_id":"4","last_reported":1765978056,"current_range_meters":8400,"station_id":"","pricing_plan_id":"cebpf4jnsgd1na2vs0mg"},{"bike_id":"2b06f996-6f83-4b64-8023-a1d5c0ed45a8","system_id":"levelo_inurba_marseille","lat":43.255794,"lon":5.382315,"is_reserved":false,"is_disabled":false,"rental_uris":{"android":"levelo://app?vid=2b06f996-6f83-4b64-8023-a1d5c0ed45a8","ios":"levelo://app?vid=2b06f996-6f83-4b64-8023-a1d5c0ed45a8"},"vehicle_type_id":"4","last_reported":1765978056,"current_range_meters":8400,"station_id":"ce4bhih2rcd13ifvqfs0","pricing_plan_id":"cebpf4jnsgd1na2vs0mg"},{"bike_id":"656551d0-0b83-44c9-ae41-e504f6962d05","system_id":"levelo_inurba_marseille","lat":43.29598,"lon":5.38104,"is_reserved":false,"is_disabled":false,"rental_uris":{"android":"levelo://app?vid=656551d0-0b83-44c9-ae41-e504f6962d05","ios":"levelo://app?vid=656551d0-0b83-44c9-ae41-e504f6962d05"},"vehicle_type_id":"4","last_reported":1765978056,"current_range_meters":8400,"station_id":"ce4bgl12rcd13ifvqbo0","pricing_plan_id":"cebpf4jnsgd1na2vs0mg"},{"bike_id":"97cf1890-f6ab-46ed-9762-90000b01b9e7","system_id":"levelo_inurba_marseille","lat":43.290369,"lon":5.39964,"is_reserved":false,"is_disabled":false,"rental_uris":{"android":"levelo://app?vid=97cf1890-f6ab-46ed-9762-90000b01b9e7","ios":"levelo://app?vid=97cf1890-f6ab-46ed-9762-90000b01b9e7"},"vehicle_type_id":"4","last_reported":1765978056,"current_range_meters":8400,"station_id":"ce4bh392rcd13ifvqdm0","pricing_plan_id":"cebpf4jnsgd1na2vs0mg"},{"bike_id":"a64e44e1-d3b8-4e33-8112-2fc047c2f982","system_id":"levelo_inurba_marseille","lat":43.292694,"lon":5.368455,"is_reserved":false,"is_disabled":false,"rental_uris":{"android":"levelo://app?vid=a64e44e1-d3b8-4e33-8112-2fc047c2f982","ios":"levelo://app?vid=a64e44e1-d3b8-4e33-8112-2fc047c2f982"},"vehicle_type_id":"4","last_reported":1765978056,"current_range_meters":8400,"station_id":"ce4bhbp2rcd13ifvqesg","pricing_plan_id":"cebpf4jnsgd1na2vs0mg"},{"bike_id":"83ece866-4d31-4ea6-84d5-364a9af7de1d","system_id":"levelo_inurba_marseille","lat":43.285228,"lon":5.441356,"is_reserved":false,"is_disabled":false,"rental_uris":{"android":"levelo://app?vid=83ece866-4d31-4ea6-84d5-364a9af7de1d","ios":"levelo://app?vid=83ece866-4d31-4ea6-84d5-364a9af7de1d"},"vehicle_type_id":"4","last_reported":1765978056,"current_range_meters":8800,"station_id":"st_d3j3df2ikq2c7380ej80","pricing_plan_id":"cebpf4jnsgd1na2vs0mg"},{"bike_id":"417aa6b3-6e4f-4945-a047-82eacbf729d2","system_id":"levelo_inurba_marseille","lat":43.285288,"lon":5.441018,"is_reserved":false,"is_disabled":false,"rental_uris":{"android":"levelo://app?vid=417aa6b3-6e4f-4945-a047-82eacbf729d2","ios":"levelo://app?vid=417aa6b3-6e4f-4945-a047-82eacbf729d2"},"vehicle_type_id":"4","last_reported":1765978056,"current_range_meters":8800,"station_id":"st_d3j3df2ikq2c7380ej80","pricing_plan_id":"cebpf4jnsgd1na2vs0mg"},{"bike_id":"6dc459a1-c94a-4329-8855-1c74f141ad51","system_id":"levelo_inurba_marseille","lat":43.21185,"lon":5.35093,"is_reserved":false,"is_disabled":false,"rental_uris":{"android":"levelo://app?vid=6dc459a1-c94a-4329-8855-1c74f141ad51","ios":"levelo://app?vid=6dc459a1-c94a-4329-8855-1c74f141ad51"},"vehicle_type_id":"4","last_reported":1765978056,"current_range_meters":8800,"station_id":"st_cvj6sg6p6f1abm77japg","pricing_plan_id":"cebpf4jnsgd1na2vs0mg"},{"bike_id":"1a1b728f-636a-4e8e-8349-811234ecedc9","system_id":"levelo_inurba_marseille","lat":43.28463,"lon":5.35885,"is_reserved":false,"is_disabled":false,"rental_uris":{"android":"levelo://app?vid=1a1b728f-636a-4e8e-8349-811234ecedc9","ios":"levelo://app?vid=1a1b728f-636a-4e8e-8349-811234ecedc9"},"vehicle_type_id":"4","last_reported":1765978056,"current_range_meters":8800,"station_id":"ce4bhah2rcd13ifvqei0","pricing_plan_id":"cebpf4jnsgd1na2vs0mg"},{"bike_id":"73b3a370-1d52-4258-9b5e-70fcd3bbed19","system_id":"levelo_inurba_marseille","lat":43.31176,"lon":5.36879,"is_reserved":false,"is_disabled":false,"rental_uris":{"android":"levelo://app?vid=73b3a370-1d52-4258-9b5e-70fcd3bbed19","ios":"levelo://app?vid=73b3a370-1d52-4258-9b5e-70fcd3bbed19"},"vehicle_type_id":"4","last_reported":1765978056,"current_range_meters":8800,"station_id":"","pricing_plan_id":"cebpf4jnsgd1na2vs0mg"},{"bike_id":"23200fd6-4de8-46e3-a5e2-8c08d3ba7882","system_id":"levelo_inurba_marseille","lat":43.24179,"lon":5.39723,"is_reserved":false,"is_disabled":false,"rental_uris":{"android":"levelo://app?vid=23200fd6-4de8-46e3-a5e2-8c08d3ba7882","ios":"levelo://app?vid=23200fd6-4de8-46e3-a5e2-8c08d3ba7882"},"vehicle_type_id":"4","last_reported":1765978056,"current_range_meters":8800,"station_id":"ce4bhn12rcd13ifvqgpg","pricing_plan_id":"cebpf4jnsgd1na2vs0mg"},{"bike_id":"53a81882-f451-46ea-bc74-878c08c5cbec","system_id":"levelo_inurba_marseille","lat":43.32352,"lon":5.36741,"is_reserved":false,"is_disabled":false,"rental_uris":{"android":"levelo://app?vid=53a81882-f451-46ea-bc74-878c08c5cbec","ios":"levelo://app?vid=53a81882-f451-46ea-bc74-878c08c5cbec"},"vehicle_type_id":"4","last_reported":1765978056,"current_range_meters":8800,"station_id":"ce4bhsh2rcd13ifvqi2g","pricing_plan_id":"cebpf4jnsgd1na2vs0mg"},{"bike_id":"96d8577a-f5f1-4356-b6b6-0bfde968624e","system_id":"levelo_inurba_marseille","lat":43.30788,"lon":5.37652,"is_reserved":false,"is_disabled":false,"rental_uris":{"android":"levelo://app?vid=96d8577a-f5f1-4356-b6b6-0bfde968624e","ios":"levelo://app?vid=96d8577a-f5f1-4356-b6b6-0bfde968624e"},"vehicle_type_id":"4","last_reported":1765978056,"current_range_meters":8800,"station_id":"ce4bgv92rcd13ifvqcq0","pricing_plan_id":"cebpf4jnsgd1na2vs0mg"},{"bike_id":"5df24c51-16d5-45e3-91fa-aab635d4c6c5","system_id":"levelo_inurba_marseille","lat":43.21186,"lon":5.35071,"is_reserved":false,"is_disabled":false,"rental_uris":{"android":"levelo://app?vid=5df24c51-16d5-45e3-91fa-aab635d4c6c5","ios":"levelo://app?vid=5df24c51-16d5-45e3-91fa-aab635d4c6c5"},"vehicle_type_id":"4","last_reported":1765978056,"current_range_meters":8800,"station_id":"st_cvj6sg6p6f1abm77japg","pricing_plan_id":"cebpf4jnsgd1na2vs0mg"},{"bike_id":"1a2a9f4c-03a7-4761-9c78-40ed9e387810","system_id":"levelo_inurba_marseille","lat":43.31956,"lon":5.37292,"is_reserved":false,"is_disabled":false,"rental_uris":{"android":"levelo://app?vid=1a2a9f4c-03a7-4761-9c78-40ed9e387810","ios":"levelo://app?vid=1a2a9f4c-03a7-4761-9c78-40ed9e387810"},"vehicle_type_id":"4","last_reported":1765978056,"current_range_meters":9200,"station_id":"","pricing_plan_id":"cebpf4jnsgd1na2vs0mg"},{"bike_id":"66b7ff22-740a-47d3-a3a9-c02db3bd4eb5","system_id":"levelo_inurba_marseille","lat":43.27064,"lon":5.40257,"is_reserved":false,"is_disabled":false,"rental_uris":{"android":"levelo://app?vid=66b7ff22-740a-47d3-a3a9-c02db3bd4eb5","ios":"levelo://app?vid=66b7ff22-740a-47d3-a3a9-c02db3bd4eb5"},"vehicle_type_id":"4","last_reported":1765978056,"current_range_meters":9200,"station_id":"ce4bhk92rcd13ifvqgc0","pricing_plan_id":"cebpf4jnsgd1na2vs0mg"},{"bike_id":"12fd0109-6175-4225-bbe1-c100ee8bfbbd","system_id":"levelo_inurba_marseille","lat":43.27985,"lon":5.41662,"is_reserved":false,"is_disabled":false,"rental_uris":{"android":"levelo://app?vid=12fd0109-6175-4225-bbe1-c100ee8bfbbd","ios":"levelo://app?vid=12fd0109-6175-4225-bbe1-c100ee8bfbbd"},"vehicle_type_id":"4","last_reported":1765978056,"current_range_meters":9200,"station_id":"ce4bho12rcd13ifvqh1g","pricing_plan_id":"cebpf4jnsgd1na2vs0mg"},{"bike_id":"f57324ac-5e91-402d-b865-4d99885823a4","system_id":"levelo_inurba_marseille","lat":43.255733,"lon":5.382229,"is_reserved":false,"is_disabled":false,"rental_uris":{"android":"levelo://app?vid=f57324ac-5e91-402d-b865-4d99885823a4","ios":"levelo://app?vid=f57324ac-5e91-402d-b865-4d99885823a4"},"vehicle_type_id":"4","last_reported":1765978056,"current_range_meters":9200,"station_id":"","pricing_plan_id":"cebpf4jnsgd1na2vs0mg"},{"bike_id":"7b05cc48-c547-44c1-8fb6-c5e394bb6c93","system_id":"levelo_inurba_marseille","lat":43.294803,"lon":5.43294,"is_reserved":false,"is_disabled":false,"rental_uris":{"android":"levelo://app?vid=7b05cc48-c547-44c1-8fb6-c5e394bb6c93","ios":"levelo://app?vid=7b05cc48-c547-44c1-8fb6-c5e394bb6c93"},"vehicle_type_id":"4","last_reported":1765978056,"current_range_meters":9200,"station_id":"st_d3j5ugp08ojc73fj9d10","pricing_plan_id":"cebpf4jnsgd1na2vs0mg"},{"bike_id":"b944e6d8-93a7-4a9a-9628-71347ee03597","system_id":"levelo_inurba_marseille","lat":43.31285,"lon":5.36831,"is_reserved":false,"is_disabled":false,"rental_uris":{"android":"levelo://app?vid=b944e6d8-93a7-4a9a-9628-71347ee03597","ios":"levelo://app?vid=b944e6d8-93a7-4a9a-9628-71347ee03597"},"vehicle_type_id":"4","last_reported":1765978056,"current_range_meters":9200,"station_id":"","pricing_plan_id":"cebpf4jnsgd1na2vs0mg"},{"bike_id":"37a77f8c-d08d-477f-baa6-5e0d275d099d","system_id":"levelo_inurba_marseille","lat":43.25343,"lon":5.42176,"is_reserved":false,"is_disabled":true,"rental_uris":{"android":"levelo://app?vid=37a77f8c-d08d-477f-baa6-5e0d275d099d","ios":"levelo://app?vid=37a77f8c-d08d-477f-baa6-5e0d275d099d"},"vehicle_type_id":"4","last_reported":1765978056,"current_range_meters":9200,"station_id":"st_d2m65c5bi1j21697t3ng","pricing_plan_id":"cebpf4jnsgd1na2vs0mg"},{"bike_id":"d92bcf44-aaf9-4ae4-9e0a-62a7d456475d","system_id":"levelo_inurba_marseille","lat":43.27944,"lon":5.41048,"is_reserved":false,"is_disabled":false,"rental_uris":{"android":"levelo://app?vid=d92bcf44-aaf9-4ae4-9e0a-62a7d456475d","ios":"levelo://app?vid=d92bcf44-aaf9-4ae4-9e0a-62a7d456475d"},"vehicle_type_id":"4","last_reported":1765978056,"current_range_meters":9200,"station_id":"ce4bhnp2rcd13ifvqh0g","pricing_plan_id":"cebpf4jnsgd1na2vs0mg"},{"bike_id":"b0ba656d-2cba-47e5-a499-2394d100b918","system_id":"levelo_inurba_marseille","lat":43.27374,"lon":5.36259,"is_reserved":false,"is_disabled":false,"rental_uris":{"android":"levelo://app?vid=b0ba656d-2cba-47e5-a499-2394d100b918","ios":"levelo://app?vid=b0ba656d-2cba-47e5-a499-2394d100b918"},"vehicle_type_id":"4","last_reported":1765978056,"current_range_meters":9200,"station_id":"ce4bhbh2rcd13ifvqeo0","pricing_plan_id":"cebpf4jnsgd1na2vs0mg"},{"bike_id":"a0d37354-252f-463e-a801-b3f4b4681e92","system_id":"levelo_inurba_marseille","lat":43.263696,"lon":5.410865,"is_reserved":false,"is_disabled":false,"rental_uris":{"android":"levelo://app?vid=a0d37354-252f-463e-a801-b3f4b4681e92","ios":"levelo://app?vid=a0d37354-252f-463e-a801-b3f4b4681e92"},"vehicle_type_id":"4","last_reported":1765978056,"current_range_meters":9600,"station_id":"st_d4e5ca6na9uc73bfl5fg","pricing_plan_id":"cebpf4jnsgd1na2vs0mg"},{"bike_id":"846ba82f-b80b-4118-ba94-f1f7e836af7f","system_id":"levelo_inurba_marseille","lat":43.337538,"lon":5.374581,"is_reserved":false,"is_disabled":false,"rental_uris":{"android":"levelo://app?vid=846ba82f-b80b-4118-ba94-f1f7e836af7f","ios":"levelo://app?vid=846ba82f-b80b-4118-ba94-f1f7e836af7f"},"vehicle_type_id":"4","last_reported":1765978056,"current_range_meters":9600,"station_id":"","pricing_plan_id":"cebpf4jnsgd1na2vs0mg"},{"bike_id":"0c2ee543-a7ac-4723-9129-610c0bcc5788","system_id":"levelo_inurba_marseille","lat":43.30124,"lon":5.43096,"is_reserved":false,"is_disabled":false,"rental_uris":{"android":"levelo://app?vid=0c2ee543-a7ac-4723-9129-610c0bcc5788","ios":"levelo://app?vid=0c2ee543-a7ac-4723-9129-610c0bcc5788"},"vehicle_type_id":"4","last_reported":1765978056,"current_range_meters":9600,"station_id":"st_d3js3co5814s73ftftug","pricing_plan_id":"cebpf4jnsgd1na2vs0mg"},{"bike_id":"fc4c0d36-9f91-4fff-8c6c-2c1bccff3ee8","system_id":"levelo_inurba_marseille","lat":43.27946,"lon":5.41047,"is_reserved":false,"is_disabled":false,"rental_uris":{"android":"levelo://app?vid=fc4c0d36-9f91-4fff-8c6c-2c1bccff3ee8","ios":"levelo://app?vid=fc4c0d36-9f91-4fff-8c6c-2c1bccff3ee8"},"vehicle_type_id":"4","last_reported":1765978056,"current_range_meters":10000,"station_id":"ce4bhnp2rcd13ifvqh0g","pricing_plan_id":"cebpf4jnsgd1na2vs0mg"},{"bike_id":"357b7f1c-bd56-4702-baef-a365bfef3938","system_id":"levelo_inurba_marseille","lat":43.26939,"lon":5.40257,"is_reserved":false,"is_disabled":false,"rental_uris":{"android":"levelo://app?vid=357b7f1c-bd56-4702-baef-a365bfef3938","ios":"levelo://app?vid=357b7f1c-bd56-4702-baef-a365bfef3938"},"vehicle_type_id":"4","last_reported":1765978056,"current_range_meters":10000,"station_id":"cjm6bp8fraef2m0cb0m0","pricing_plan_id":"cebpf4jnsgd1na2vs0mg"},{"bike_id":"cc178787-4e27-477e-85ac-bb874f1df1de","system_id":"levelo_inurba_marseille","lat":43.27341,"lon":5.4111,"is_reserved":false,"is_disabled":false,"rental_uris":{"android":"levelo://app?vid=cc178787-4e27-477e-85ac-bb874f1df1de","ios":"levelo://app?vid=cc178787-4e27-477e-85ac-bb874f1df1de"},"vehicle_type_id":"4","last_reported":1765978056,"current_range_meters":10000,"station_id":"","pricing_plan_id":"cebpf4jnsgd1na2vs0mg"},{"bike_id":"18c6943d-2465-466e-8619-4c6a98d6f665","system_id":"levelo_inurba_marseille","lat":43.286,"lon":5.351,"is_reserved":false,"is_disabled":false,"rental_uris":{"android":"levelo://app?vid=18c6943d-2465-466e-8619-4c6a98d6f665","ios":"levelo://app?vid=18c6943d-2465-466e-8619-4c6a98d6f665"},"vehicle_type_id":"4","last_reported":1765978056,"current_range_meters":10000,"station_id":"ce4bhch2rcd13ifvqeug","pricing_plan_id":"cebpf4jnsgd1na2vs0mg"},{"bike_id":"789bad2d-1288-418c-8993-e33944e5dc90","system_id":"levelo_inurba_marseille","lat":43.2842,"lon":5.3498,"is_reserved":false,"is_disabled":false,"rental_uris":{"android":"levelo://app?vid=789bad2d-1288-418c-8993-e33944e5dc90","ios":"levelo://app?vid=789bad2d-1288-418c-8993-e33944e5dc90"},"vehicle_type_id":"4","last_reported":1765978056,"current_range_meters":10000,"station_id":"ce4bhbh2rcd13ifvqepg","pricing_plan_id":"cebpf4jnsgd1na2vs0mg"},{"bike_id":"6a4090a3-92ce-4d04-9301-8c95549dc584","system_id":"levelo_inurba_marseille","lat":43.21187,"lon":5.35078,"is_reserved":false,"is_disabled":false,"rental_uris":{"android":"levelo://app?vid=6a4090a3-92ce-4d04-9301-8c95549dc584","ios":"levelo://app?vid=6a4090a3-92ce-4d04-9301-8c95549dc584"},"vehicle_type_id":"4","last_reported":1765978056,"current_range_meters":10000,"station_id":"st_cvj6sg6p6f1abm77japg","pricing_plan_id":"cebpf4jnsgd1na2vs0mg"},{"bike_id":"5e98569f-e376-4a85-9e61-f7c25f8baa4e","system_id":"levelo_inurba_marseille","lat":43.28077,"lon":5.39659,"is_reserved":false,"is_disabled":false,"rental_uris":{"android":"levelo://app?vid=5e98569f-e376-4a85-9e61-f7c25f8baa4e","ios":"levelo://app?vid=5e98569f-e376-4a85-9e61-f7c25f8baa4e"},"vehicle_type_id":"4","last_reported":1765978056,"current_range_meters":10000,"station_id":"ce4bho12rcd13ifvqh2g","pricing_plan_id":"cebpf4jnsgd1na2vs0mg"},{"bike_id":"92c10893-513a-4bfa-b315-e7fbbf2ced32","system_id":"levelo_inurba_marseille","lat":43.31709,"lon":5.43708,"is_reserved":false,"is_disabled":false,"rental_uris":{"android":"levelo://app?vid=92c10893-513a-4bfa-b315-e7fbbf2ced32","ios":"levelo://app?vid=92c10893-513a-4bfa-b315-e7fbbf2ced32"},"vehicle_type_id":"4","last_reported":1765978056,"current_range_meters":10000,"station_id":"ce4bhp92rcd13ifvqhcg","pricing_plan_id":"cebpf4jnsgd1na2vs0mg"},{"bike_id":"bc27ec74-cea2-4b77-85f6-e3fa05fd3282","system_id":"levelo_inurba_marseille","lat":43.311986,"lon":5.368634,"is_reserved":false,"is_disabled":false,"rental_uris":{"android":"levelo://app?vid=bc27ec74-cea2-4b77-85f6-e3fa05fd3282","ios":"levelo://app?vid=bc27ec74-cea2-4b77-85f6-e3fa05fd3282"},"vehicle_type_id":"4","last_reported":1765978056,"current_range_meters":10000,"station_id":"ce4bgl92rcd13ifvqbq0","pricing_plan_id":"cebpf4jnsgd1na2vs0mg"},{"bike_id":"023077cd-b5f1-4ecc-91c5-2e2f9dd8e0b3","system_id":"levelo_inurba_marseille","lat":43.29367,"lon":5.37858,"is_reserved":false,"is_disabled":true,"rental_uris":{"android":"levelo://app?vid=023077cd-b5f1-4ecc-91c5-2e2f9dd8e0b3","ios":"levelo://app?vid=023077cd-b5f1-4ecc-91c5-2e2f9dd8e0b3"},"vehicle_type_id":"4","last_reported":1765978056,"current_range_meters":10800,"station_id":"ce4bgjh2rcd13ifvqbf0","pricing_plan_id":"cebpf4jnsgd1na2vs0mg"},{"bike_id":"4dfb7d9e-07fd-435a-a1b0-ac7f7701f2fd","system_id":"levelo_inurba_marseille","lat":43.31733,"lon":5.37624,"is_reserved":false,"is_disabled":false,"rental_uris":{"android":"levelo://app?vid=4dfb7d9e-07fd-435a-a1b0-ac7f7701f2fd","ios":"levelo://app?vid=4dfb7d9e-07fd-435a-a1b0-ac7f7701f2fd"},"vehicle_type_id":"4","last_reported":1765978056,"current_range_meters":10800,"station_id":"","pricing_plan_id":"cebpf4jnsgd1na2vs0mg"},{"bike_id":"26dc4745-0c8f-4f29-abc4-db954f88f275","system_id":"levelo_inurba_marseille","lat":43.30431,"lon":5.39797,"is_reserved":false,"is_disabled":false,"rental_uris":{"android":"levelo://app?vid=26dc4745-0c8f-4f29-abc4-db954f88f275","ios":"levelo://app?vid=26dc4745-0c8f-4f29-abc4-db954f88f275"},"vehicle_type_id":"4","last_reported":1765978056,"current_range_meters":10800,"station_id":"ce4bh092rcd13ifvqd20","pricing_plan_id":"cebpf4jnsgd1na2vs0mg"},{"bike_id":"5fe8b4f6-31ce-4126-ae47-bc2263aa75a5","system_id":"levelo_inurba_marseille","lat":43.29616,"lon":5.37734,"is_reserved":false,"is_disabled":false,"rental_uris":{"android":"levelo://app?vid=5fe8b4f6-31ce-4126-ae47-bc2263aa75a5","ios":"levelo://app?vid=5fe8b4f6-31ce-4126-ae47-bc2263aa75a5"},"vehicle_type_id":"4","last_reported":1765978056,"current_range_meters":10800,"station_id":"ce4bgi92rcd13ifvqb90","pricing_plan_id":"cebpf4jnsgd1na2vs0mg"},{"bike_id":"d9d313f9-5c43-4fe8-8172-3f8fc70f07aa","system_id":"levelo_inurba_marseille","lat":43.265576,"lon":5.372854,"is_reserved":false,"is_disabled":false,"rental_uris":{"android":"levelo://app?vid=d9d313f9-5c43-4fe8-8172-3f8fc70f07aa","ios":"levelo://app?vid=d9d313f9-5c43-4fe8-8172-3f8fc70f07aa"},"vehicle_type_id":"4","last_reported":1765978056,"current_range_meters":10800,"station_id":"ce4bhih2rcd13ifvqfr0","pricing_plan_id":"cebpf4jnsgd1na2vs0mg"},{"bike_id":"a203987b-5a3b-47be-bc21-cd08d8221147","system_id":"levelo_inurba_marseille","lat":43.28387,"lon":5.34925,"is_reserved":false,"is_disabled":false,"rental_uris":{"android":"levelo://app?vid=a203987b-5a3b-47be-bc21-cd08d8221147","ios":"levelo://app?vid=a203987b-5a3b-47be-bc21-cd08d8221147"},"vehicle_type_id":"4","last_reported":1765978056,"current_range_meters":10800,"station_id":"","pricing_plan_id":"cebpf4jnsgd1na2vs0mg"},{"bike_id":"77620665-d1d4-4631-bdd5-2618300eab89","system_id":"levelo_inurba_marseille","lat":43.26485,"lon":5.39545,"is_reserved":false,"is_disabled":true,"rental_uris":{"android":"levelo://app?vid=77620665-d1d4-4631-bdd5-2618300eab89","ios":"levelo://app?vid=77620665-d1d4-4631-bdd5-2618300eab89"},"vehicle_type_id":"4","last_reported":1765978056,"current_range_meters":10800,"station_id":"ce4bhi12rcd13ifvqfq0","pricing_plan_id":"cebpf4jnsgd1na2vs0mg"},{"bike_id":"dd20c910-4b17-4ad6-b354-5f440199e9c6","system_id":"levelo_inurba_marseille","lat":43.26193,"lon":5.37459,"is_reserved":false,"is_disabled":true,"rental_uris":{"android":"levelo://app?vid=dd20c910-4b17-4ad6-b354-5f440199e9c6","ios":"levelo://app?vid=dd20c910-4b17-4ad6-b354-5f440199e9c6"},"vehicle_type_id":"4","last_reported":1765978056,"current_range_meters":10800,"station_id":"ce4bhgp2rcd13ifvqfc0","pricing_plan_id":"cebpf4jnsgd1na2vs0mg"},{"bike_id":"bab1bb87-77c8-455c-bec1-26694a23ec3f","system_id":"levelo_inurba_marseille","lat":43.30161,"lon":5.37431,"is_reserved":false,"is_disabled":false,"rental_uris":{"android":"levelo://app?vid=bab1bb87-77c8-455c-bec1-26694a23ec3f","ios":"levelo://app?vid=bab1bb87-77c8-455c-bec1-26694a23ec3f"},"vehicle_type_id":"4","last_reported":1765978056,"current_range_meters":10800,"station_id":"ce4bgs92rcd13ifvqcc0","pricing_plan_id":"cebpf4jnsgd1na2vs0mg"},{"bike_id":"d0b033b0-7b52-4e3f-84d5-6f5e9ee2ff83","system_id":"levelo_inurba_marseille","lat":43.29459,"lon":5.39784,"is_reserved":false,"is_disabled":true,"rental_uris":{"android":"levelo://app?vid=d0b033b0-7b52-4e3f-84d5-6f5e9ee2ff83","ios":"levelo://app?vid=d0b033b0-7b52-4e3f-84d5-6f5e9ee2ff83"},"vehicle_type_id":"4","last_reported":1765978056,"current_range_meters":10800,"station_id":"ce4bh3h2rcd13ifvqdo0","pricing_plan_id":"cebpf4jnsgd1na2vs0mg"},{"bike_id":"8df49d50-45d6-4267-b115-d354b63f6ddb","system_id":"levelo_inurba_marseille","lat":43.30498,"lon":5.36502,"is_reserved":false,"is_disabled":false,"rental_uris":{"android":"levelo://app?vid=8df49d50-45d6-4267-b115-d354b63f6ddb","ios":"levelo://app?vid=8df49d50-45d6-4267-b115-d354b63f6ddb"},"vehicle_type_id":"4","last_reported":1765978056,"current_range_meters":10800,"station_id":"","pricing_plan_id":"cebpf4jnsgd1na2vs0mg"},{"bike_id":"14fd9319-6a79-479d-a480-746ebaf86256","system_id":"levelo_inurba_marseille","lat":43.305399,"lon":5.366923,"is_reserved":false,"is_disabled":false,"rental_uris":{"android":"levelo://app?vid=14fd9319-6a79-479d-a480-746ebaf86256","ios":"levelo://app?vid=14fd9319-6a79-479d-a480-746ebaf86256"},"vehicle_type_id":"4","last_reported":1765978056,"current_range_meters":10800,"station_id":"ce4bgrp2rcd13ifvqc9g","pricing_plan_id":"cebpf4jnsgd1na2vs0mg"},{"bike_id":"f9860717-2efb-453d-abbe-229474dee48a","system_id":"levelo_inurba_marseille","lat":43.26799,"lon":5.39375,"is_reserved":false,"is_disabled":false,"rental_uris":{"android":"levelo://app?vid=f9860717-2efb-453d-abbe-229474dee48a","ios":"levelo://app?vid=f9860717-2efb-453d-abbe-229474dee48a"},"vehicle_type_id":"4","last_reported":1765978056,"current_range_meters":10800,"station_id":"ce4bhh12rcd13ifvqfg0","pricing_plan_id":"cebpf4jnsgd1na2vs0mg"},{"bike_id":"df71387e-1bd7-4414-9b57-09f3fe5ee003","system_id":"levelo_inurba_marseille","lat":43.28428,"lon":5.35,"is_reserved":false,"is_disabled":false,"rental_uris":{"android":"levelo://app?vid=df71387e-1bd7-4414-9b57-09f3fe5ee003","ios":"levelo://app?vid=df71387e-1bd7-4414-9b57-09f3fe5ee003"},"vehicle_type_id":"4","last_reported":1765978056,"current_range_meters":11200,"station_id":"ce4bhbh2rcd13ifvqepg","pricing_plan_id":"cebpf4jnsgd1na2vs0mg"},{"bike_id":"415e4dcf-928f-4bdc-b6d5-2a430008f423","system_id":"levelo_inurba_marseille","lat":43.31224,"lon":5.36888,"is_reserved":false,"is_disabled":false,"rental_uris":{"android":"levelo://app?vid=415e4dcf-928f-4bdc-b6d5-2a430008f423","ios":"levelo://app?vid=415e4dcf-928f-4bdc-b6d5-2a430008f423"},"vehicle_type_id":"4","last_reported":1765978056,"current_range_meters":11200,"station_id":"ce4bgl92rcd13ifvqbq0","pricing_plan_id":"cebpf4jnsgd1na2vs0mg"},{"bike_id":"7700bec5-2457-4178-ab25-3c72d1a56fa4","system_id":"levelo_inurba_marseille","lat":43.266845,"lon":5.38275,"is_reserved":false,"is_disabled":false,"rental_uris":{"android":"levelo://app?vid=7700bec5-2457-4178-ab25-3c72d1a56fa4","ios":"levelo://app?vid=7700bec5-2457-4178-ab25-3c72d1a56fa4"},"vehicle_type_id":"4","last_reported":1765978056,"current_range_meters":11200,"station_id":"ce4bhg92rcd13ifvqf90","pricing_plan_id":"cebpf4jnsgd1na2vs0mg"},{"bike_id":"fcb4cadd-a218-4017-86d0-34d22b20868a","system_id":"levelo_inurba_marseille","lat":43.32484,"lon":5.38294,"is_reserved":false,"is_disabled":false,"rental_uris":{"android":"levelo://app?vid=fcb4cadd-a218-4017-86d0-34d22b20868a","ios":"levelo://app?vid=fcb4cadd-a218-4017-86d0-34d22b20868a"},"vehicle_type_id":"4","last_reported":1765978056,"current_range_meters":11200,"station_id":"st_d4asgbiv49dc73anf9m0","pricing_plan_id":"cebpf4jnsgd1na2vs0mg"},{"bike_id":"d90c110d-3ee4-4803-bf3b-d150da911b4e","system_id":"levelo_inurba_marseille","lat":43.28476,"lon":5.38455,"is_reserved":false,"is_disabled":true,"rental_uris":{"android":"levelo://app?vid=d90c110d-3ee4-4803-bf3b-d150da911b4e","ios":"levelo://app?vid=d90c110d-3ee4-4803-bf3b-d150da911b4e"},"vehicle_type_id":"4","last_reported":1765978056,"current_range_meters":11200,"station_id":"ce4bh512rcd13ifvqe3g","pricing_plan_id":"cebpf4jnsgd1na2vs0mg"},{"bike_id":"88031236-6a40-4d32-a503-adc00e8f1b31","system_id":"levelo_inurba_marseille","lat":43.337538,"lon":5.374581,"is_reserved":false,"is_disabled":false,"rental_uris":{"android":"levelo://app?vid=88031236-6a40-4d32-a503-adc00e8f1b31","ios":"levelo://app?vid=88031236-6a40-4d32-a503-adc00e8f1b31"},"vehicle_type_id":"4","last_reported":1765978056,"current_range_meters":11200,"station_id":"","pricing_plan_id":"cebpf4jnsgd1na2vs0mg"},{"bike_id":"cc3b4e55-1c9e-4360-89c0-5ac7deae3c77","system_id":"levelo_inurba_marseille","lat":43.33761,"lon":5.37438,"is_reserved":false,"is_disabled":false,"rental_uris":{"android":"levelo://app?vid=cc3b4e55-1c9e-4360-89c0-5ac7deae3c77","ios":"levelo://app?vid=cc3b4e55-1c9e-4360-89c0-5ac7deae3c77"},"vehicle_type_id":"4","last_reported":1765978056,"current_range_meters":11200,"station_id":"","pricing_plan_id":"cebpf4jnsgd1na2vs0mg"},{"bike_id":"0a2cb0bc-01f5-4a83-bd15-45788c961604","system_id":"levelo_inurba_marseille","lat":43.290323,"lon":5.375702,"is_reserved":false,"is_disabled":false,"rental_uris":{"android":"levelo://app?vid=0a2cb0bc-01f5-4a83-bd15-45788c961604","ios":"levelo://app?vid=0a2cb0bc-01f5-4a83-bd15-45788c961604"},"vehicle_type_id":"4","last_reported":1765978056,"current_range_meters":11200,"station_id":"ce4bgn92rcd13ifvqbvg","pricing_plan_id":"cebpf4jnsgd1na2vs0mg"},{"bike_id":"71c82414-0ca2-439a-b942-c5b8de9a4504","system_id":"levelo_inurba_marseille","lat":43.30545,"lon":5.38438,"is_reserved":false,"is_disabled":true,"rental_uris":{"android":"levelo://app?vid=71c82414-0ca2-439a-b942-c5b8de9a4504","ios":"levelo://app?vid=71c82414-0ca2-439a-b942-c5b8de9a4504"},"vehicle_type_id":"4","last_reported":1765978056,"current_range_meters":11200,"station_id":"ce4bgg92rcd13ifvqb30","pricing_plan_id":"cebpf4jnsgd1na2vs0mg"},{"bike_id":"f2d21dda-5c20-46eb-a193-b66c9953cefa","system_id":"levelo_inurba_marseille","lat":43.240648,"lon":5.378255,"is_reserved":false,"is_disabled":false,"rental_uris":{"android":"levelo://app?vid=f2d21dda-5c20-46eb-a193-b66c9953cefa","ios":"levelo://app?vid=f2d21dda-5c20-46eb-a193-b66c9953cefa"},"vehicle_type_id":"4","last_reported":1765978056,"current_range_meters":11200,"station_id":"","pricing_plan_id":"cebpf4jnsgd1na2vs0mg"},{"bike_id":"0f005e92-11d7-4610-9929-be36b6116b60","system_id":"levelo_inurba_marseille","lat":43.30566,"lon":5.36532,"is_reserved":false,"is_disabled":false,"rental_uris":{"android":"levelo://app?vid=0f005e92-11d7-4610-9929-be36b6116b60","ios":"levelo://app?vid=0f005e92-11d7-4610-9929-be36b6116b60"},"vehicle_type_id":"4","last_reported":1765978056,"current_range_meters":11200,"station_id":"ce4bgs12rcd13ifvqcag","pricing_plan_id":"cebpf4jnsgd1na2vs0mg"},{"bike_id":"6d960d65-798d-494b-8e5f-065ca0fdc0ad","system_id":"levelo_inurba_marseille","lat":43.28845,"lon":5.35853,"is_reserved":false,"is_disabled":false,"rental_uris":{"android":"levelo://app?vid=6d960d65-798d-494b-8e5f-065ca0fdc0ad","ios":"levelo://app?vid=6d960d65-798d-494b-8e5f-065ca0fdc0ad"},"vehicle_type_id":"4","last_reported":1765978056,"current_range_meters":11600,"station_id":"ce4bhb12rcd13ifvqem0","pricing_plan_id":"cebpf4jnsgd1na2vs0mg"},{"bike_id":"8fa53ddb-80a9-4b81-a17d-6b07554edef4","system_id":"levelo_inurba_marseille","lat":43.28473,"lon":5.48389,"is_reserved":false,"is_disabled":false,"rental_uris":{"android":"levelo://app?vid=8fa53ddb-80a9-4b81-a17d-6b07554edef4","ios":"levelo://app?vid=8fa53ddb-80a9-4b81-a17d-6b07554edef4"},"vehicle_type_id":"4","last_reported":1765978056,"current_range_meters":11600,"station_id":"st_d3svhcjqgbts73a3dn0g","pricing_plan_id":"cebpf4jnsgd1na2vs0mg"},{"bike_id":"eb72deb0-2313-4a82-93bf-593acb552271","system_id":"levelo_inurba_marseille","lat":43.28424,"lon":5.34982,"is_reserved":false,"is_disabled":false,"rental_uris":{"android":"levelo://app?vid=eb72deb0-2313-4a82-93bf-593acb552271","ios":"levelo://app?vid=eb72deb0-2313-4a82-93bf-593acb552271"},"vehicle_type_id":"4","last_reported":1765978056,"current_range_meters":11600,"station_id":"ce4bhbh2rcd13ifvqepg","pricing_plan_id":"cebpf4jnsgd1na2vs0mg"},{"bike_id":"bd38cd10-bc2a-4ad6-b4af-235e4954294d","system_id":"levelo_inurba_marseille","lat":43.28855,"lon":5.42499,"is_reserved":false,"is_disabled":false,"rental_uris":{"android":"levelo://app?vid=bd38cd10-bc2a-4ad6-b4af-235e4954294d","ios":"levelo://app?vid=bd38cd10-bc2a-4ad6-b4af-235e4954294d"},"vehicle_type_id":"4","last_reported":1765978056,"current_range_meters":11600,"station_id":"st_d3b462108ojc7389ooeg","pricing_plan_id":"cebpf4jnsgd1na2vs0mg"},{"bike_id":"08c9831c-14d0-414b-9e4d-da4408a86ba6","system_id":"levelo_inurba_marseille","lat":43.32661,"lon":5.40994,"is_reserved":false,"is_disabled":false,"rental_uris":{"android":"levelo://app?vid=08c9831c-14d0-414b-9e4d-da4408a86ba6","ios":"levelo://app?vid=08c9831c-14d0-414b-9e4d-da4408a86ba6"},"vehicle_type_id":"4","last_reported":1765978056,"current_range_meters":11600,"station_id":"ce4bhpp2rcd13ifvqhgg","pricing_plan_id":"cebpf4jnsgd1na2vs0mg"},{"bike_id":"a1fb306f-9a9a-4ffb-8fbf-e0155cc1e7e0","system_id":"levelo_inurba_marseille","lat":43.30478,"lon":5.37912,"is_reserved":false,"is_disabled":false,"rental_uris":{"android":"levelo://app?vid=a1fb306f-9a9a-4ffb-8fbf-e0155cc1e7e0","ios":"levelo://app?vid=a1fb306f-9a9a-4ffb-8fbf-e0155cc1e7e0"},"vehicle_type_id":"4","last_reported":1765978056,"current_range_meters":12000,"station_id":"ce4bgup2rcd13ifvqcn0","pricing_plan_id":"cebpf4jnsgd1na2vs0mg"},{"bike_id":"c7e5daf3-a6b0-4ffc-8e95-134c47362fa1","system_id":"levelo_inurba_marseille","lat":43.301127,"lon":5.36857,"is_reserved":false,"is_disabled":false,"rental_uris":{"android":"levelo://app?vid=c7e5daf3-a6b0-4ffc-8e95-134c47362fa1","ios":"levelo://app?vid=c7e5daf3-a6b0-4ffc-8e95-134c47362fa1"},"vehicle_type_id":"4","last_reported":1765978056,"current_range_meters":12000,"station_id":"","pricing_plan_id":"cebpf4jnsgd1na2vs0mg"},{"bike_id":"4c3caeb6-0052-433e-9a72-aaef64283de9","system_id":"levelo_inurba_marseille","lat":43.33597,"lon":5.41036,"is_reserved":false,"is_disabled":false,"rental_uris":{"android":"levelo://app?vid=4c3caeb6-0052-433e-9a72-aaef64283de9","ios":"levelo://app?vid=4c3caeb6-0052-433e-9a72-aaef64283de9"},"vehicle_type_id":"4","last_reported":1765978056,"current_range_meters":12000,"station_id":"ce4bhqh2rcd13ifvqhmg","pricing_plan_id":"cebpf4jnsgd1na2vs0mg"},{"bike_id":"7fba33a6-5c1f-40aa-a2c5-7b0a0ecc660f","system_id":"levelo_inurba_marseille","lat":43.28941,"lon":5.36641,"is_reserved":false,"is_disabled":false,"rental_uris":{"android":"levelo://app?vid=7fba33a6-5c1f-40aa-a2c5-7b0a0ecc660f","ios":"levelo://app?vid=7fba33a6-5c1f-40aa-a2c5-7b0a0ecc660f"},"vehicle_type_id":"4","last_reported":1765978056,"current_range_meters":12000,"station_id":"ce4bhap2rcd13ifvqek0","pricing_plan_id":"cebpf4jnsgd1na2vs0mg"},{"bike_id":"3d69b350-3639-4c93-9cbc-a16c95e399e9","system_id":"levelo_inurba_marseille","lat":43.29815,"lon":5.44052,"is_reserved":false,"is_disabled":false,"rental_uris":{"android":"levelo://app?vid=3d69b350-3639-4c93-9cbc-a16c95e399e9","ios":"levelo://app?vid=3d69b350-3639-4c93-9cbc-a16c95e399e9"},"vehicle_type_id":"4","last_reported":1765978056,"current_range_meters":12400,"station_id":"st_d3jp68qikq2c7381ktn0","pricing_plan_id":"cebpf4jnsgd1na2vs0mg"},{"bike_id":"f473109d-f6ea-4650-a8c1-7e7c57ffe361","system_id":"levelo_inurba_marseille","lat":43.2827,"lon":5.35072,"is_reserved":false,"is_disabled":false,"rental_uris":{"android":"levelo://app?vid=f473109d-f6ea-4650-a8c1-7e7c57ffe361","ios":"levelo://app?vid=f473109d-f6ea-4650-a8c1-7e7c57ffe361"},"vehicle_type_id":"4","last_reported":1765978056,"current_range_meters":12400,"station_id":"ce4bhbp2rcd13ifvqerg","pricing_plan_id":"cebpf4jnsgd1na2vs0mg"},{"bike_id":"82cce858-0c3e-43b4-99cd-6eb5b6d5dc02","system_id":"levelo_inurba_marseille","lat":43.321128,"lon":5.36762,"is_reserved":false,"is_disabled":false,"rental_uris":{"android":"levelo://app?vid=82cce858-0c3e-43b4-99cd-6eb5b6d5dc02","ios":"levelo://app?vid=82cce858-0c3e-43b4-99cd-6eb5b6d5dc02"},"vehicle_type_id":"4","last_reported":1765978056,"current_range_meters":12400,"station_id":"ce4bhrh2rcd13ifvqhug","pricing_plan_id":"cebpf4jnsgd1na2vs0mg"},{"bike_id":"947d774d-67e6-4d49-b954-e6fcea77c2b9","system_id":"levelo_inurba_marseille","lat":43.28461,"lon":5.35891,"is_reserved":false,"is_disabled":false,"rental_uris":{"android":"levelo://app?vid=947d774d-67e6-4d49-b954-e6fcea77c2b9","ios":"levelo://app?vid=947d774d-67e6-4d49-b954-e6fcea77c2b9"},"vehicle_type_id":"4","last_reported":1765978056,"current_range_meters":12400,"station_id":"ce4bhah2rcd13ifvqei0","pricing_plan_id":"cebpf4jnsgd1na2vs0mg"},{"bike_id":"6ddf389d-023e-46c2-b667-c18e8876a82f","system_id":"levelo_inurba_marseille","lat":43.285156,"lon":5.384009,"is_reserved":false,"is_disabled":false,"rental_uris":{"android":"levelo://app?vid=6ddf389d-023e-46c2-b667-c18e8876a82f","ios":"levelo://app?vid=6ddf389d-023e-46c2-b667-c18e8876a82f"},"vehicle_type_id":"4","last_reported":1765978056,"current_range_meters":12400,"station_id":"ce4bh312rcd13ifvqdk0","pricing_plan_id":"cebpf4jnsgd1na2vs0mg"},{"bike_id":"74443ae8-6ea0-4138-96d2-afd2f8c27e8b","system_id":"levelo_inurba_marseille","lat":43.26565,"lon":5.37283,"is_reserved":false,"is_disabled":false,"rental_uris":{"android":"levelo://app?vid=74443ae8-6ea0-4138-96d2-afd2f8c27e8b","ios":"levelo://app?vid=74443ae8-6ea0-4138-96d2-afd2f8c27e8b"},"vehicle_type_id":"4","last_reported":1765978056,"current_range_meters":12400,"station_id":"ce4bhg12rcd13ifvqf70","pricing_plan_id":"cebpf4jnsgd1na2vs0mg"},{"bike_id":"5d630d2e-23cf-48e8-8dd0-ccc596129c12","system_id":"levelo_inurba_marseille","lat":43.31209,"lon":5.36881,"is_reserved":false,"is_disabled":false,"rental_uris":{"android":"levelo://app?vid=5d630d2e-23cf-48e8-8dd0-ccc596129c12","ios":"levelo://app?vid=5d630d2e-23cf-48e8-8dd0-ccc596129c12"},"vehicle_type_id":"4","last_reported":1765978056,"current_range_meters":12400,"station_id":"ce4bgl92rcd13ifvqbq0","pricing_plan_id":"cebpf4jnsgd1na2vs0mg"},{"bike_id":"c98c1f9b-180b-421e-8c87-e7ac7cea3b4b","system_id":"levelo_inurba_marseille","lat":43.246462,"lon":5.388871,"is_reserved":false,"is_disabled":false,"rental_uris":{"android":"levelo://app?vid=c98c1f9b-180b-421e-8c87-e7ac7cea3b4b","ios":"levelo://app?vid=c98c1f9b-180b-421e-8c87-e7ac7cea3b4b"},"vehicle_type_id":"4","last_reported":1765978056,"current_range_meters":12400,"station_id":"ce4bhg12rcd13ifvqf60","pricing_plan_id":"cebpf4jnsgd1na2vs0mg"},{"bike_id":"3e0eec7b-e027-4a11-8319-3987b2de8261","system_id":"levelo_inurba_marseille","lat":43.29276,"lon":5.36847,"is_reserved":false,"is_disabled":false,"rental_uris":{"android":"levelo://app?vid=3e0eec7b-e027-4a11-8319-3987b2de8261","ios":"levelo://app?vid=3e0eec7b-e027-4a11-8319-3987b2de8261"},"vehicle_type_id":"4","last_reported":1765978056,"current_range_meters":12400,"station_id":"ce4bhbp2rcd13ifvqesg","pricing_plan_id":"cebpf4jnsgd1na2vs0mg"},{"bike_id":"0220bf61-5f99-4521-b86e-27e1923ade3b","system_id":"levelo_inurba_marseille","lat":43.319221,"lon":5.400745,"is_reserved":false,"is_disabled":false,"rental_uris":{"android":"levelo://app?vid=0220bf61-5f99-4521-b86e-27e1923ade3b","ios":"levelo://app?vid=0220bf61-5f99-4521-b86e-27e1923ade3b"},"vehicle_type_id":"4","last_reported":1765978056,"current_range_meters":12800,"station_id":"","pricing_plan_id":"cebpf4jnsgd1na2vs0mg"},{"bike_id":"0f8bb650-cf18-4ceb-a692-fc24970d7da9","system_id":"levelo_inurba_marseille","lat":43.31197,"lon":5.36849,"is_reserved":false,"is_disabled":false,"rental_uris":{"android":"levelo://app?vid=0f8bb650-cf18-4ceb-a692-fc24970d7da9","ios":"levelo://app?vid=0f8bb650-cf18-4ceb-a692-fc24970d7da9"},"vehicle_type_id":"4","last_reported":1765978056,"current_range_meters":12800,"station_id":"ce4bgl92rcd13ifvqbq0","pricing_plan_id":"cebpf4jnsgd1na2vs0mg"},{"bike_id":"66b4ac36-cfdc-4d86-9315-3d87e5d85a79","system_id":"levelo_inurba_marseille","lat":43.27988,"lon":5.41669,"is_reserved":false,"is_disabled":false,"rental_uris":{"android":"levelo://app?vid=66b4ac36-cfdc-4d86-9315-3d87e5d85a79","ios":"levelo://app?vid=66b4ac36-cfdc-4d86-9315-3d87e5d85a79"},"vehicle_type_id":"4","last_reported":1765978056,"current_range_meters":12800,"station_id":"ce4bho12rcd13ifvqh1g","pricing_plan_id":"cebpf4jnsgd1na2vs0mg"},{"bike_id":"97d57ad5-c1e2-4221-af54-19f0821c5d3a","system_id":"levelo_inurba_marseille","lat":43.250997,"lon":5.403291,"is_reserved":false,"is_disabled":false,"rental_uris":{"android":"levelo://app?vid=97d57ad5-c1e2-4221-af54-19f0821c5d3a","ios":"levelo://app?vid=97d57ad5-c1e2-4221-af54-19f0821c5d3a"},"vehicle_type_id":"4","last_reported":1765978056,"current_range_meters":12800,"station_id":"ce4bhnp2rcd13ifvqgvg","pricing_plan_id":"cebpf4jnsgd1na2vs0mg"},{"bike_id":"08f95d57-4d0a-4c10-996d-2386fe74a74e","system_id":"levelo_inurba_marseille","lat":43.2868,"lon":5.38699,"is_reserved":false,"is_disabled":false,"rental_uris":{"android":"levelo://app?vid=08f95d57-4d0a-4c10-996d-2386fe74a74e","ios":"levelo://app?vid=08f95d57-4d0a-4c10-996d-2386fe74a74e"},"vehicle_type_id":"4","last_reported":1765978056,"current_range_meters":12800,"station_id":"ce4bh492rcd13ifvqdug","pricing_plan_id":"cebpf4jnsgd1na2vs0mg"},{"bike_id":"a9adc8bf-52f1-4c31-a2de-42743dd086bf","system_id":"levelo_inurba_marseille","lat":43.33723,"lon":5.3748,"is_reserved":false,"is_disabled":false,"rental_uris":{"android":"levelo://app?vid=a9adc8bf-52f1-4c31-a2de-42743dd086bf","ios":"levelo://app?vid=a9adc8bf-52f1-4c31-a2de-42743dd086bf"},"vehicle_type_id":"4","last_reported":1765978056,"current_range_meters":12800,"station_id":"","pricing_plan_id":"cebpf4jnsgd1na2vs0mg"},{"bike_id":"31bfca67-a56f-4eb8-8695-4557fde2b09c","system_id":"levelo_inurba_marseille","lat":43.28872,"lon":5.42537,"is_reserved":false,"is_disabled":false,"rental_uris":{"android":"levelo://app?vid=31bfca67-a56f-4eb8-8695-4557fde2b09c","ios":"levelo://app?vid=31bfca67-a56f-4eb8-8695-4557fde2b09c"},"vehicle_type_id":"4","last_reported":1765978056,"current_range_meters":12800,"station_id":"st_d3b462108ojc7389ooeg","pricing_plan_id":"cebpf4jnsgd1na2vs0mg"},{"bike_id":"fe93db68-7013-4b29-95bf-b88030c3de24","system_id":"levelo_inurba_marseille","lat":43.30418,"lon":5.41287,"is_reserved":false,"is_disabled":false,"rental_uris":{"android":"levelo://app?vid=fe93db68-7013-4b29-95bf-b88030c3de24","ios":"levelo://app?vid=fe93db68-7013-4b29-95bf-b88030c3de24"},"vehicle_type_id":"4","last_reported":1765978056,"current_range_meters":12800,"station_id":"ce4bhop2rcd13ifvqh8g","pricing_plan_id":"cebpf4jnsgd1na2vs0mg"},{"bike_id":"57ba4b21-7901-461d-9613-a8a5531f6008","system_id":"levelo_inurba_marseille","lat":43.31445,"lon":5.45391,"is_reserved":false,"is_disabled":false,"rental_uris":{"android":"levelo://app?vid=57ba4b21-7901-461d-9613-a8a5531f6008","ios":"levelo://app?vid=57ba4b21-7901-461d-9613-a8a5531f6008"},"vehicle_type_id":"4","last_reported":1765978056,"current_range_meters":12800,"station_id":"","pricing_plan_id":"cebpf4jnsgd1na2vs0mg"},{"bike_id":"5d139e61-6583-4797-a5f6-cab0fb928c16","system_id":"levelo_inurba_marseille","lat":43.31693,"lon":5.40473,"is_reserved":false,"is_disabled":false,"rental_uris":{"android":"levelo://app?vid=5d139e61-6583-4797-a5f6-cab0fb928c16","ios":"levelo://app?vid=5d139e61-6583-4797-a5f6-cab0fb928c16"},"vehicle_type_id":"4","last_reported":1765978056,"current_range_meters":13600,"station_id":"ce4bh012rcd13ifvqd00","pricing_plan_id":"cebpf4jnsgd1na2vs0mg"},{"bike_id":"0a066441-6d7a-4b76-8aa3-9bbfbe8e7d1d","system_id":"levelo_inurba_marseille","lat":43.298159,"lon":5.440665,"is_reserved":false,"is_disabled":false,"rental_uris":{"android":"levelo://app?vid=0a066441-6d7a-4b76-8aa3-9bbfbe8e7d1d","ios":"levelo://app?vid=0a066441-6d7a-4b76-8aa3-9bbfbe8e7d1d"},"vehicle_type_id":"4","last_reported":1765978056,"current_range_meters":13600,"station_id":"st_d3jp68qikq2c7381ktn0","pricing_plan_id":"cebpf4jnsgd1na2vs0mg"},{"bike_id":"b143af7f-1e85-426d-b6df-3cc21b4c8484","system_id":"levelo_inurba_marseille","lat":43.337444,"lon":5.374475,"is_reserved":false,"is_disabled":false,"rental_uris":{"android":"levelo://app?vid=b143af7f-1e85-426d-b6df-3cc21b4c8484","ios":"levelo://app?vid=b143af7f-1e85-426d-b6df-3cc21b4c8484"},"vehicle_type_id":"4","last_reported":1765978056,"current_range_meters":13600,"station_id":"","pricing_plan_id":"cebpf4jnsgd1na2vs0mg"},{"bike_id":"c0fba31c-b251-4d1a-81d4-eb4c37522bf8","system_id":"levelo_inurba_marseille","lat":43.29174,"lon":5.37166,"is_reserved":false,"is_disabled":false,"rental_uris":{"android":"levelo://app?vid=c0fba31c-b251-4d1a-81d4-eb4c37522bf8","ios":"levelo://app?vid=c0fba31c-b251-4d1a-81d4-eb4c37522bf8"},"vehicle_type_id":"4","last_reported":1765978056,"current_range_meters":13600,"station_id":"ce4bha92rcd13ifvqeh0","pricing_plan_id":"cebpf4jnsgd1na2vs0mg"},{"bike_id":"2f347f7d-9869-45e0-bfb1-9c3199a7aee4","system_id":"levelo_inurba_marseille","lat":43.22562,"lon":5.41622,"is_reserved":false,"is_disabled":false,"rental_uris":{"android":"levelo://app?vid=2f347f7d-9869-45e0-bfb1-9c3199a7aee4","ios":"levelo://app?vid=2f347f7d-9869-45e0-bfb1-9c3199a7aee4"},"vehicle_type_id":"4","last_reported":1765978056,"current_range_meters":13600,"station_id":"st_d2o4gvlbi1j2169b742g","pricing_plan_id":"cebpf4jnsgd1na2vs0mg"},{"bike_id":"74651154-e67d-4728-843e-4612ba075494","system_id":"levelo_inurba_marseille","lat":43.313524,"lon":5.367049,"is_reserved":false,"is_disabled":false,"rental_uris":{"android":"levelo://app?vid=74651154-e67d-4728-843e-4612ba075494","ios":"levelo://app?vid=74651154-e67d-4728-843e-4612ba075494"},"vehicle_type_id":"4","last_reported":1765978056,"current_range_meters":14000,"station_id":"ce4bgr92rcd13ifvqc6g","pricing_plan_id":"cebpf4jnsgd1na2vs0mg"},{"bike_id":"42b089ed-4854-47a3-9a41-a17d47401ae4","system_id":"levelo_inurba_marseille","lat":43.32091,"lon":5.36778,"is_reserved":false,"is_disabled":false,"rental_uris":{"android":"levelo://app?vid=42b089ed-4854-47a3-9a41-a17d47401ae4","ios":"levelo://app?vid=42b089ed-4854-47a3-9a41-a17d47401ae4"},"vehicle_type_id":"4","last_reported":1765978056,"current_range_meters":14000,"station_id":"ce4bhrh2rcd13ifvqhug","pricing_plan_id":"cebpf4jnsgd1na2vs0mg"},{"bike_id":"bdf9e7b7-9624-48c3-ac2c-43d9b51125d8","system_id":"levelo_inurba_marseille","lat":43.32088,"lon":5.40949,"is_reserved":false,"is_disabled":true,"rental_uris":{"android":"levelo://app?vid=bdf9e7b7-9624-48c3-ac2c-43d9b51125d8","ios":"levelo://app?vid=bdf9e7b7-9624-48c3-ac2c-43d9b51125d8"},"vehicle_type_id":"4","last_reported":1765978056,"current_range_meters":14000,"station_id":"","pricing_plan_id":"cebpf4jnsgd1na2vs0mg"},{"bike_id":"5a22931f-c832-4cfa-833f-7746d965b93b","system_id":"levelo_inurba_marseille","lat":43.283946,"lon":5.387468,"is_reserved":false,"is_disabled":false,"rental_uris":{"android":"levelo://app?vid=5a22931f-c832-4cfa-833f-7746d965b93b","ios":"levelo://app?vid=5a22931f-c832-4cfa-833f-7746d965b93b"},"vehicle_type_id":"4","last_reported":1765978056,"current_range_meters":14000,"station_id":"","pricing_plan_id":"cebpf4jnsgd1na2vs0mg"},{"bike_id":"8fae8413-56bb-4910-8bb9-64fffb3fb353","system_id":"levelo_inurba_marseille","lat":43.27805,"lon":5.40731,"is_reserved":false,"is_disabled":true,"rental_uris":{"android":"levelo://app?vid=8fae8413-56bb-4910-8bb9-64fffb3fb353","ios":"levelo://app?vid=8fae8413-56bb-4910-8bb9-64fffb3fb353"},"vehicle_type_id":"4","last_reported":1765978056,"current_range_meters":14000,"station_id":"ce4bhnh2rcd13ifvqgtg","pricing_plan_id":"cebpf4jnsgd1na2vs0mg"},{"bike_id":"133e6eba-18a6-4671-af69-38979715dafd","system_id":"levelo_inurba_marseille","lat":43.30287,"lon":5.37698,"is_reserved":false,"is_disabled":false,"rental_uris":{"android":"levelo://app?vid=133e6eba-18a6-4671-af69-38979715dafd","ios":"levelo://app?vid=133e6eba-18a6-4671-af69-38979715dafd"},"vehicle_type_id":"4","last_reported":1765978056,"current_range_meters":14000,"station_id":"ce4bguh2rcd13ifvqcj0","pricing_plan_id":"cebpf4jnsgd1na2vs0mg"},{"bike_id":"afff2452-5d7f-48ca-97c6-135af2ae19de","system_id":"levelo_inurba_marseille","lat":43.2894,"lon":5.36634,"is_reserved":false,"is_disabled":false,"rental_uris":{"android":"levelo://app?vid=afff2452-5d7f-48ca-97c6-135af2ae19de","ios":"levelo://app?vid=afff2452-5d7f-48ca-97c6-135af2ae19de"},"vehicle_type_id":"4","last_reported":1765978056,"current_range_meters":14400,"station_id":"ce4bhap2rcd13ifvqek0","pricing_plan_id":"cebpf4jnsgd1na2vs0mg"},{"bike_id":"ccd5484f-f7d8-4049-8518-443f8cc3f24e","system_id":"levelo_inurba_marseille","lat":43.2847,"lon":5.48391,"is_reserved":false,"is_disabled":false,"rental_uris":{"android":"levelo://app?vid=ccd5484f-f7d8-4049-8518-443f8cc3f24e","ios":"levelo://app?vid=ccd5484f-f7d8-4049-8518-443f8cc3f24e"},"vehicle_type_id":"4","last_reported":1765978056,"current_range_meters":14400,"station_id":"st_d3svhcjqgbts73a3dn0g","pricing_plan_id":"cebpf4jnsgd1na2vs0mg"},{"bike_id":"d7279433-aa0f-42a1-a28c-7679f7aed23e","system_id":"levelo_inurba_marseille","lat":43.26802,"lon":5.40256,"is_reserved":false,"is_disabled":true,"rental_uris":{"android":"levelo://app?vid=d7279433-aa0f-42a1-a28c-7679f7aed23e","ios":"levelo://app?vid=d7279433-aa0f-42a1-a28c-7679f7aed23e"},"vehicle_type_id":"4","last_reported":1765978056,"current_range_meters":14400,"station_id":"ce501612rcd8frsf0b60","pricing_plan_id":"cebpf4jnsgd1na2vs0mg"},{"bike_id":"e475080b-90d7-4bca-97b0-ce71ec59db68","system_id":"levelo_inurba_marseille","lat":43.3121,"lon":5.36586,"is_reserved":false,"is_disabled":false,"rental_uris":{"android":"levelo://app?vid=e475080b-90d7-4bca-97b0-ce71ec59db68","ios":"levelo://app?vid=e475080b-90d7-4bca-97b0-ce71ec59db68"},"vehicle_type_id":"4","last_reported":1765978056,"current_range_meters":14400,"station_id":"","pricing_plan_id":"cebpf4jnsgd1na2vs0mg"},{"bike_id":"66c7e619-157f-4871-8ec2-c1e4fe3aeea8","system_id":"levelo_inurba_marseille","lat":43.30553,"lon":5.36555,"is_reserved":false,"is_disabled":false,"rental_uris":{"android":"levelo://app?vid=66c7e619-157f-4871-8ec2-c1e4fe3aeea8","ios":"levelo://app?vid=66c7e619-157f-4871-8ec2-c1e4fe3aeea8"},"vehicle_type_id":"4","last_reported":1765978056,"current_range_meters":14400,"station_id":"ce4bgs12rcd13ifvqcag","pricing_plan_id":"cebpf4jnsgd1na2vs0mg"},{"bike_id":"628dacd2-0db8-4326-b8fc-cb0030652fd5","system_id":"levelo_inurba_marseille","lat":43.3211,"lon":5.36783,"is_reserved":false,"is_disabled":false,"rental_uris":{"android":"levelo://app?vid=628dacd2-0db8-4326-b8fc-cb0030652fd5","ios":"levelo://app?vid=628dacd2-0db8-4326-b8fc-cb0030652fd5"},"vehicle_type_id":"4","last_reported":1765978056,"current_range_meters":14400,"station_id":"ce4bhrh2rcd13ifvqhug","pricing_plan_id":"cebpf4jnsgd1na2vs0mg"},{"bike_id":"a66019dd-8793-433b-bd75-d0cb037f3264","system_id":"levelo_inurba_marseille","lat":43.323577,"lon":5.367414,"is_reserved":false,"is_disabled":false,"rental_uris":{"android":"levelo://app?vid=a66019dd-8793-433b-bd75-d0cb037f3264","ios":"levelo://app?vid=a66019dd-8793-433b-bd75-d0cb037f3264"},"vehicle_type_id":"4","last_reported":1765978056,"current_range_meters":14400,"station_id":"ce4bhsh2rcd13ifvqi2g","pricing_plan_id":"cebpf4jnsgd1na2vs0mg"},{"bike_id":"8d930876-70e1-4b80-828b-b31b132a9cfa","system_id":"levelo_inurba_marseille","lat":43.26534,"lon":5.40347,"is_reserved":false,"is_disabled":false,"rental_uris":{"android":"levelo://app?vid=8d930876-70e1-4b80-828b-b31b132a9cfa","ios":"levelo://app?vid=8d930876-70e1-4b80-828b-b31b132a9cfa"},"vehicle_type_id":"4","last_reported":1765978056,"current_range_meters":14400,"station_id":"ce4bhmp2rcd13ifvqgng","pricing_plan_id":"cebpf4jnsgd1na2vs0mg"},{"bike_id":"f3c572ee-bcce-4a29-bb87-e3e0fc93a8f5","system_id":"levelo_inurba_marseille","lat":43.231534,"lon":5.437021,"is_reserved":false,"is_disabled":true,"rental_uris":{"android":"levelo://app?vid=f3c572ee-bcce-4a29-bb87-e3e0fc93a8f5","ios":"levelo://app?vid=f3c572ee-bcce-4a29-bb87-e3e0fc93a8f5"},"vehicle_type_id":"4","last_reported":1765978056,"current_range_meters":14400,"station_id":"ce4bhmp2rcd13ifvqgog","pricing_plan_id":"cebpf4jnsgd1na2vs0mg"},{"bike_id":"8fe89532-5817-4e05-b72d-8a6801316811","system_id":"levelo_inurba_marseille","lat":43.25582,"lon":5.38227,"is_reserved":false,"is_disabled":false,"rental_uris":{"android":"levelo://app?vid=8fe89532-5817-4e05-b72d-8a6801316811","ios":"levelo://app?vid=8fe89532-5817-4e05-b72d-8a6801316811"},"vehicle_type_id":"4","last_reported":1765978056,"current_range_meters":14400,"station_id":"ce4bhih2rcd13ifvqfs0","pricing_plan_id":"cebpf4jnsgd1na2vs0mg"},{"bike_id":"0f033089-1424-4fb4-b3dd-976abb0af258","system_id":"levelo_inurba_marseille","lat":43.24058,"lon":5.37742,"is_reserved":false,"is_disabled":false,"rental_uris":{"android":"levelo://app?vid=0f033089-1424-4fb4-b3dd-976abb0af258","ios":"levelo://app?vid=0f033089-1424-4fb4-b3dd-976abb0af258"},"vehicle_type_id":"4","last_reported":1765978056,"current_range_meters":14400,"station_id":"ce4bhnp2rcd13ifvqgvg","pricing_plan_id":"cebpf4jnsgd1na2vs0mg"},{"bike_id":"e02b9bda-e414-4f72-8e96-8d904cbf5251","system_id":"levelo_inurba_marseille","lat":43.30433,"lon":5.41274,"is_reserved":false,"is_disabled":false,"rental_uris":{"android":"levelo://app?vid=e02b9bda-e414-4f72-8e96-8d904cbf5251","ios":"levelo://app?vid=e02b9bda-e414-4f72-8e96-8d904cbf5251"},"vehicle_type_id":"4","last_reported":1765978056,"current_range_meters":14400,"station_id":"ce4bhop2rcd13ifvqh8g","pricing_plan_id":"cebpf4jnsgd1na2vs0mg"},{"bike_id":"756fedf8-4f09-46f9-a73f-d3853deef1a8","system_id":"levelo_inurba_marseille","lat":43.31363,"lon":5.36701,"is_reserved":false,"is_disabled":false,"rental_uris":{"android":"levelo://app?vid=756fedf8-4f09-46f9-a73f-d3853deef1a8","ios":"levelo://app?vid=756fedf8-4f09-46f9-a73f-d3853deef1a8"},"vehicle_type_id":"4","last_reported":1765978056,"current_range_meters":14400,"station_id":"ce4bgr92rcd13ifvqc6g","pricing_plan_id":"cebpf4jnsgd1na2vs0mg"},{"bike_id":"5ef1ef49-225c-4fde-a6ab-d6effbc536c1","system_id":"levelo_inurba_marseille","lat":43.2792,"lon":5.39567,"is_reserved":false,"is_disabled":false,"rental_uris":{"android":"levelo://app?vid=5ef1ef49-225c-4fde-a6ab-d6effbc536c1","ios":"levelo://app?vid=5ef1ef49-225c-4fde-a6ab-d6effbc536c1"},"vehicle_type_id":"4","last_reported":1765978056,"current_range_meters":14400,"station_id":"ce4bhf92rcd13ifvqf40","pricing_plan_id":"cebpf4jnsgd1na2vs0mg"},{"bike_id":"d4d8e023-320e-441e-95b8-1a2df93a2918","system_id":"levelo_inurba_marseille","lat":43.31665,"lon":5.40472,"is_reserved":false,"is_disabled":false,"rental_uris":{"android":"levelo://app?vid=d4d8e023-320e-441e-95b8-1a2df93a2918","ios":"levelo://app?vid=d4d8e023-320e-441e-95b8-1a2df93a2918"},