{"last_updated":1748589014,"ttl":60,"version":"2.2","data":{"bikes":[{"bike_id":"15c306f5-cf6b-4a8d-8326-60c1e9b2c733","system_id":"levelo_inurba_marseille","lat":43.27452,"lon":5.39351,"is_reserved":false,"is_disabled":true,"rental_uris":{"android":"levelo://app?vid=15c306f5-cf6b-4a8d-8326-60c1e9b2c733","ios":"levelo://app?vid=15c306f5-cf6b-4a8d-8326-60c1e9b2c733"},"vehicle_type_id":"4","last_reported":1748589014,"current_range_meters":2800,"station_id":"ce4bhdp2rcd13ifvqf20","pricing_plan_id":"cebpf4jnsgd1na2vs0mg"},{"bike_id":"fa06fc02-b704-43f1-9283-8d139b1aa485","system_id":"levelo_inurba_marseille","lat":43.25932,"lon":5.40911,"is_reserved":false,"is_disabled":false,"rental_uris":{"android":"levelo://app?vid=fa06fc02-b704-43f1-9283-8d139b1aa485","ios":"levelo://app?vid=fa06fc02-b704-43f1-9283-8d139b1aa485"},"vehicle_type_id":"4","last_reported":1748589014,"current_range_meters":2800,"station_id":"ce4bhm92rcd13ifvqglg","pricing_plan_id":"cebpf4jnsgd1na2vs0mg"},{"bike_id":"04b3db88-674e-4d54-8edd-81dfede77d38","system_id":"levelo_inurba_marseille","lat":43.291537,"lon":5.40303,"is_reserved":false,"is_disabled":false,"rental_uris":{"android":"levelo://app?vid=04b3db88-674e-4d54-8edd-81dfede77d38","ios":"levelo://app?vid=04b3db88-674e-4d54-8edd-81dfede77d38"},"vehicle_type_id":"4","last_reported":1748589014,"current_range_meters":2800,"station_id":"","pricing_plan_id":"cebpf4jnsgd1na2vs0mg"},{"bike_id":"f202c4e5-2783-49c3-abd9-6dc4689fb215","system_id":"levelo_inurba_marseille","lat":43.24389,"lon":5.37059,"is_reserved":false,"is_disabled":false,"rental_uris":{"android":"levelo://app?vid=f202c4e5-2783-49c3-abd9-6dc4689fb215","ios":"levelo://app?vid=f202c4e5-2783-49c3-abd9-6dc4689fb215"},"vehicle_type_id":"4","last_reported":1748589014,"current_range_meters":2800,"station_id":"ce4bhhh2rcd13ifvqfk0","pricing_plan_id":"cebpf4jnsgd1na2vs0mg"},{"bike_id":"3f0441b1-6cb6-41fd-b679-f454d34b2118","system_id":"levelo_inurba_marseille","lat":43.211846,"lon":5.350841,"is_reserved":false,"is_disabled":false,"rental_uris":{"android":"levelo://app?vid=3f0441b1-6cb6-41fd-b679-f454d34b2118","ios":"levelo://app?vid=3f0441b1-6cb6-41fd-b679-f454d34b2118"},"vehicle_type_id":"4","last_reported":1748589014,"current_range_meters":2800,"station_id":"st_cvj6sg6p6f1abm77japg","pricing_plan_id":"cebpf4jnsgd1na2vs0mg"},{"bike_id":"a9dd31b3-7d5d-4c43-a5e2-c2e9e371ae5e","system_id":"levelo_inurba_marseille","lat":43.31335,"lon":5.36718,"is_reserved":false,"is_disabled":false,"rental_uris":{"android":"levelo://app?vid=a9dd31b3-7d5d-4c43-a5e2-c2e9e371ae5e","ios":"levelo://app?vid=a9dd31b3-7d5d-4c43-a5e2-c2e9e371ae5e"},"vehicle_type_id":"4","last_reported":1748589014,"current_range_meters":3200,"station_id":"ce4bgr92rcd13ifvqc6g","pricing_plan_id":"cebpf4jnsgd1na2vs0mg"},{"bike_id":"a9f5bbf1-df27-40f5-a40c-bd07c353b284","system_id":"levelo_inurba_marseille","lat":43.30951,"lon":5.3904,"is_reserved":false,"is_disabled":false,"rental_uris":{"android":"levelo://app?vid=a9f5bbf1-df27-40f5-a40c-bd07c353b284","ios":"levelo://app?vid=a9f5bbf1-df27-40f5-a40c-bd07c353b284"},"vehicle_type_id":"4","last_reported":1748589014,"current_range_meters":3200,"station_id":"ce4bgup2rcd13ifvqco0","pricing_plan_id":"cebpf4jnsgd1na2vs0mg"},{"bike_id":"ded2a088-e4b4-4368-a494-e90fbbdb8186","system_id":"levelo_inurba_marseille","lat":43.26954,"lon":5.38629,"is_reserved":false,"is_disabled":false,"rental_uris":{"android":"levelo://app?vid=ded2a088-e4b4-4368-a494-e90fbbdb8186","ios":"levelo://app?vid=ded2a088-e4b4-4368-a494-e90fbbdb8186"},"vehicle_type_id":"4","last_reported":1748589014,"current_range_meters":3200,"station_id":"ce4bhh92rcd13ifvqfh0","pricing_plan_id":"cebpf4jnsgd1na2vs0mg"},{"bike_id":"b4b995ed-ff91-49e3-9788-47662b224e07","system_id":"levelo_inurba_marseille","lat":43.28421,"lon":5.3499,"is_reserved":false,"is_disabled":false,"rental_uris":{"android":"levelo://app?vid=b4b995ed-ff91-49e3-9788-47662b224e07","ios":"levelo://app?vid=b4b995ed-ff91-49e3-9788-47662b224e07"},"vehicle_type_id":"4","last_reported":1748589014,"current_range_meters":3200,"station_id":"ce4bhbh2rcd13ifvqepg","pricing_plan_id":"cebpf4jnsgd1na2vs0mg"},{"bike_id":"78353d3a-f046-4900-8502-614ce335636a","system_id":"levelo_inurba_marseille","lat":43.2905,"lon":5.359117,"is_reserved":false,"is_disabled":true,"rental_uris":{"android":"levelo://app?vid=78353d3a-f046-4900-8502-614ce335636a","ios":"levelo://app?vid=78353d3a-f046-4900-8502-614ce335636a"},"vehicle_type_id":"4","last_reported":1748589014,"current_range_meters":3600,"station_id":"ce4bha92rcd13ifvqeg0","pricing_plan_id":"cebpf4jnsgd1na2vs0mg"},{"bike_id":"24204c04-5d8c-4ac1-bc38-3e364dee5b7a","system_id":"levelo_inurba_marseille","lat":43.30246,"lon":5.41311,"is_reserved":false,"is_disabled":false,"rental_uris":{"android":"levelo://app?vid=24204c04-5d8c-4ac1-bc38-3e364dee5b7a","ios":"levelo://app?vid=24204c04-5d8c-4ac1-bc38-3e364dee5b7a"},"vehicle_type_id":"4","last_reported":1748589014,"current_range_meters":3600,"station_id":"","pricing_plan_id":"cebpf4jnsgd1na2vs0mg"},{"bike_id":"3159691a-a6a0-4d64-b8d4-023a00b7b5f9","system_id":"levelo_inurba_marseille","lat":43.29604,"lon":5.38098,"is_reserved":false,"is_disabled":false,"rental_uris":{"android":"levelo://app?vid=3159691a-a6a0-4d64-b8d4-023a00b7b5f9","ios":"levelo://app?vid=3159691a-a6a0-4d64-b8d4-023a00b7b5f9"},"vehicle_type_id":"4","last_reported":1748589014,"current_range_meters":3600,"station_id":"ce4bgl12rcd13ifvqbo0","pricing_plan_id":"cebpf4jnsgd1na2vs0mg"},{"bike_id":"2690272c-4a19-4377-b42d-ec9fcc28477f","system_id":"levelo_inurba_marseille","lat":43.335996,"lon":5.410038,"is_reserved":false,"is_disabled":false,"rental_uris":{"android":"levelo://app?vid=2690272c-4a19-4377-b42d-ec9fcc28477f","ios":"levelo://app?vid=2690272c-4a19-4377-b42d-ec9fcc28477f"},"vehicle_type_id":"4","last_reported":1748589014,"current_range_meters":3600,"station_id":"ce4bhqh2rcd13ifvqhmg","pricing_plan_id":"cebpf4jnsgd1na2vs0mg"},{"bike_id":"8191d5e8-529f-4f2e-8cca-1fafb3d2ff65","system_id":"levelo_inurba_marseille","lat":43.29839,"lon":5.36265,"is_reserved":false,"is_disabled":false,"rental_uris":{"android":"levelo://app?vid=8191d5e8-529f-4f2e-8cca-1fafb3d2ff65","ios":"levelo://app?vid=8191d5e8-529f-4f2e-8cca-1fafb3d2ff65"},"vehicle_type_id":"4","last_reported":1748589014,"current_range_meters":3600,"station_id":"ce4bgpp2rcd13ifvqc3g","pricing_plan_id":"cebpf4jnsgd1na2vs0mg"},{"bike_id":"11488e1b-74ae-4459-8884-1588199aa112","system_id":"levelo_inurba_marseille","lat":43.26944,"lon":5.40261,"is_reserved":false,"is_disabled":false,"rental_uris":{"android":"levelo://app?vid=11488e1b-74ae-4459-8884-1588199aa112","ios":"levelo://app?vid=11488e1b-74ae-4459-8884-1588199aa112"},"vehicle_type_id":"4","last_reported":1748589014,"current_range_meters":4000,"station_id":"cjm6bp8fraef2m0cb0m0","pricing_plan_id":"cebpf4jnsgd1na2vs0mg"},{"bike_id":"56c20712-8fb2-4612-9789-0f4e24ee3c5d","system_id":"levelo_inurba_marseille","lat":43.24175,"lon":5.39733,"is_reserved":false,"is_disabled":false,"rental_uris":{"android":"levelo://app?vid=56c20712-8fb2-4612-9789-0f4e24ee3c5d","ios":"levelo://app?vid=56c20712-8fb2-4612-9789-0f4e24ee3c5d"},"vehicle_type_id":"4","last_reported":1748589014,"current_range_meters":4000,"station_id":"ce4bhn12rcd13ifvqgpg","pricing_plan_id":"cebpf4jnsgd1na2vs0mg"},{"bike_id":"c006505c-40ec-4dbb-8fb7-e9d75b9aa51f","system_id":"levelo_inurba_marseille","lat":43.331486,"lon":5.381725,"is_reserved":false,"is_disabled":false,"rental_uris":{"android":"levelo://app?vid=c006505c-40ec-4dbb-8fb7-e9d75b9aa51f","ios":"levelo://app?vid=c006505c-40ec-4dbb-8fb7-e9d75b9aa51f"},"vehicle_type_id":"4","last_reported":1748589014,"current_range_meters":4400,"station_id":"","pricing_plan_id":"cebpf4jnsgd1na2vs0mg"},{"bike_id":"ff6334ca-1730-4c7d-9848-1881a3416f0d","system_id":"levelo_inurba_marseille","lat":43.295775,"lon":5.367374,"is_reserved":false,"is_disabled":false,"rental_uris":{"android":"levelo://app?vid=ff6334ca-1730-4c7d-9848-1881a3416f0d","ios":"levelo://app?vid=ff6334ca-1730-4c7d-9848-1881a3416f0d"},"vehicle_type_id":"4","last_reported":1748589014,"current_range_meters":4800,"station_id":"","pricing_plan_id":"cebpf4jnsgd1na2vs0mg"},{"bike_id":"2f650bb1-6027-4191-83d2-16315820a0a7","system_id":"levelo_inurba_marseille","lat":43.299916,"lon":5.373578,"is_reserved":false,"is_disabled":false,"rental_uris":{"android":"levelo://app?vid=2f650bb1-6027-4191-83d2-16315820a0a7","ios":"levelo://app?vid=2f650bb1-6027-4191-83d2-16315820a0a7"},"vehicle_type_id":"4","last_reported":1748589014,"current_range_meters":4800,"station_id":"","pricing_plan_id":"cebpf4jnsgd1na2vs0mg"},{"bike_id":"ac09b0ea-5f8b-49ed-bcf6-cd0c0e4db7a9","system_id":"levelo_inurba_marseille","lat":43.29271,"lon":5.3675,"is_reserved":false,"is_disabled":false,"rental_uris":{"android":"levelo://app?vid=ac09b0ea-5f8b-49ed-bcf6-cd0c0e4db7a9","ios":"levelo://app?vid=ac09b0ea-5f8b-49ed-bcf6-cd0c0e4db7a9"},"vehicle_type_id":"4","last_reported":1748589014,"current_range_meters":5600,"station_id":"ce4bhbp2rcd13ifvqesg","pricing_plan_id":"cebpf4jnsgd1na2vs0mg"},{"bike_id":"015f9af9-da45-4c09-9c85-f29c0e49ce0d","system_id":"levelo_inurba_marseille","lat":43.24168,"lon":5.36399,"is_reserved":false,"is_disabled":true,"rental_uris":{"android":"levelo://app?vid=015f9af9-da45-4c09-9c85-f29c0e49ce0d","ios":"levelo://app?vid=015f9af9-da45-4c09-9c85-f29c0e49ce0d"},"vehicle_type_id":"4","last_reported":1748589014,"current_range_meters":5600,"station_id":"cpo36qri1sfpv3e86is0","pricing_plan_id":"cebpf4jnsgd1na2vs0mg"},{"bike_id":"4c5b150b-4be1-4396-b0f3-e96a5df5ab28","system_id":"levelo_inurba_marseille","lat":43.28348,"lon":5.38115,"is_reserved":false,"is_disabled":false,"rental_uris":{"android":"levelo://app?vid=4c5b150b-4be1-4396-b0f3-e96a5df5ab28","ios":"levelo://app?vid=4c5b150b-4be1-4396-b0f3-e96a5df5ab28"},"vehicle_type_id":"4","last_reported":1748589014,"current_range_meters":5600,"station_id":"ce4bh412rcd13ifvqdr0","pricing_plan_id":"cebpf4jnsgd1na2vs0mg"},{"bike_id":"59ab7f2e-86d5-4327-a823-3ab7b4a1b6f3","system_id":"levelo_inurba_marseille","lat":43.29799,"lon":5.40398,"is_reserved":false,"is_disabled":false,"rental_uris":{"android":"levelo://app?vid=59ab7f2e-86d5-4327-a823-3ab7b4a1b6f3","ios":"levelo://app?vid=59ab7f2e-86d5-4327-a823-3ab7b4a1b6f3"},"vehicle_type_id":"4","last_reported":1748589014,"current_range_meters":5600,"station_id":"ce4bh112rcd13ifvqd90","pricing_plan_id":"cebpf4jnsgd1na2vs0mg"},{"bike_id":"811cf2b7-6977-4c80-9350-50ff7f906b68","system_id":"levelo_inurba_marseille","lat":43.27918,"lon":5.39578,"is_reserved":false,"is_disabled":false,"rental_uris":{"android":"levelo://app?vid=811cf2b7-6977-4c80-9350-50ff7f906b68","ios":"levelo://app?vid=811cf2b7-6977-4c80-9350-50ff7f906b68"},"vehicle_type_id":"4","last_reported":1748589014,"current_range_meters":6000,"station_id":"ce4bhf92rcd13ifvqf40","pricing_plan_id":"cebpf4jnsgd1na2vs0mg"},{"bike_id":"eb4b3905-d697-4843-bcd5-622b64c07feb","system_id":"levelo_inurba_marseille","lat":43.23144,"lon":5.43703,"is_reserved":false,"is_disabled":false,"rental_uris":{"android":"levelo://app?vid=eb4b3905-d697-4843-bcd5-622b64c07feb","ios":"levelo://app?vid=eb4b3905-d697-4843-bcd5-622b64c07feb"},"vehicle_type_id":"4","last_reported":1748589014,"current_range_meters":6000,"station_id":"ce4bhmp2rcd13ifvqgog","pricing_plan_id":"cebpf4jnsgd1na2vs0mg"},{"bike_id":"450613fe-8516-4776-8230-ab15916d7f17","system_id":"levelo_inurba_marseille","lat":43.30521,"lon":5.36706,"is_reserved":false,"is_disabled":false,"rental_uris":{"android":"levelo://app?vid=450613fe-8516-4776-8230-ab15916d7f17","ios":"levelo://app?vid=450613fe-8516-4776-8230-ab15916d7f17"},"vehicle_type_id":"4","last_reported":1748589014,"current_range_meters":6000,"station_id":"ce4bgrp2rcd13ifvqc9g","pricing_plan_id":"cebpf4jnsgd1na2vs0mg"},{"bike_id":"41cf7030-3e0f-483a-81c2-cfc2aacafa1e","system_id":"levelo_inurba_marseille","lat":43.25493,"lon":5.37647,"is_reserved":false,"is_disabled":false,"rental_uris":{"android":"levelo://app?vid=41cf7030-3e0f-483a-81c2-cfc2aacafa1e","ios":"levelo://app?vid=41cf7030-3e0f-483a-81c2-cfc2aacafa1e"},"vehicle_type_id":"4","last_reported":1748589014,"current_range_meters":6000,"station_id":"ce4bhh12rcd13ifvqff0","pricing_plan_id":"cebpf4jnsgd1na2vs0mg"},{"bike_id":"92cc41b1-86b4-4ddd-8208-549b320e7443","system_id":"levelo_inurba_marseille","lat":43.32679,"lon":5.41012,"is_reserved":false,"is_disabled":false,"rental_uris":{"android":"levelo://app?vid=92cc41b1-86b4-4ddd-8208-549b320e7443","ios":"levelo://app?vid=92cc41b1-86b4-4ddd-8208-549b320e7443"},"vehicle_type_id":"4","last_reported":1748589014,"current_range_meters":6400,"station_id":"ce4bhpp2rcd13ifvqhgg","pricing_plan_id":"cebpf4jnsgd1na2vs0mg"},{"bike_id":"e14bc066-1728-4233-9149-3947590df8f4","system_id":"levelo_inurba_marseille","lat":43.29504,"lon":5.39071,"is_reserved":false,"is_disabled":false,"rental_uris":{"android":"levelo://app?vid=e14bc066-1728-4233-9149-3947590df8f4","ios":"levelo://app?vid=e14bc066-1728-4233-9149-3947590df8f4"},"vehicle_type_id":"4","last_reported":1748589014,"current_range_meters":6400,"station_id":"ce4bh3p2rcd13ifvqdp0","pricing_plan_id":"cebpf4jnsgd1na2vs0mg"},{"bike_id":"047bbed6-33d9-4486-b038-6c0f2513bd98","system_id":"levelo_inurba_marseille","lat":43.24656,"lon":5.38166,"is_reserved":false,"is_disabled":false,"rental_uris":{"android":"levelo://app?vid=047bbed6-33d9-4486-b038-6c0f2513bd98","ios":"levelo://app?vid=047bbed6-33d9-4486-b038-6c0f2513bd98"},"vehicle_type_id":"4","last_reported":1748589014,"current_range_meters":6400,"station_id":"ce4bhih2rcd13ifvqfr0","pricing_plan_id":"cebpf4jnsgd1na2vs0mg"},{"bike_id":"7c6e48ab-b87e-4e89-9339-a1a2992e6797","system_id":"levelo_inurba_marseille","lat":43.26112,"lon":5.41458,"is_reserved":false,"is_disabled":false,"rental_uris":{"android":"levelo://app?vid=7c6e48ab-b87e-4e89-9339-a1a2992e6797","ios":"levelo://app?vid=7c6e48ab-b87e-4e89-9339-a1a2992e6797"},"vehicle_type_id":"4","last_reported":1748589014,"current_range_meters":6400,"station_id":"","pricing_plan_id":"cebpf4jnsgd1na2vs0mg"},{"bike_id":"6e031a1e-e6cd-4c9f-956a-b8a061891cbb","system_id":"levelo_inurba_marseille","lat":43.30933,"lon":5.40153,"is_reserved":false,"is_disabled":false,"rental_uris":{"android":"levelo://app?vid=6e031a1e-e6cd-4c9f-956a-b8a061891cbb","ios":"levelo://app?vid=6e031a1e-e6cd-4c9f-956a-b8a061891cbb"},"vehicle_type_id":"4","last_reported":1748589014,"current_range_meters":6400,"station_id":"ce4bgvp2rcd13ifvqct0","pricing_plan_id":"cebpf4jnsgd1na2vs0mg"},{"bike_id":"d5717ce5-c661-467b-a0d0-ac1d0564b554","system_id":"levelo_inurba_marseille","lat":43.32005,"lon":5.38166,"is_reserved":false,"is_disabled":false,"rental_uris":{"android":"levelo://app?vid=d5717ce5-c661-467b-a0d0-ac1d0564b554","ios":"levelo://app?vid=d5717ce5-c661-467b-a0d0-ac1d0564b554"},"vehicle_type_id":"4","last_reported":1748589014,"current_range_meters":6400,"station_id":"ce4bhr12rcd13ifvqhpg","pricing_plan_id":"cebpf4jnsgd1na2vs0mg"},{"bike_id":"439c2428-01fc-4528-992a-e5af19ad7cb7","system_id":"levelo_inurba_marseille","lat":43.31375,"lon":5.38481,"is_reserved":false,"is_disabled":false,"rental_uris":{"android":"levelo://app?vid=439c2428-01fc-4528-992a-e5af19ad7cb7","ios":"levelo://app?vid=439c2428-01fc-4528-992a-e5af19ad7cb7"},"vehicle_type_id":"4","last_reported":1748589014,"current_range_meters":6400,"station_id":"ce4bgt92rcd13ifvqcf0","pricing_plan_id":"cebpf4jnsgd1na2vs0mg"},{"bike_id":"583e2176-6c7f-425c-8d24-ee49a624fede","system_id":"levelo_inurba_marseille","lat":43.265755,"lon":5.390382,"is_reserved":false,"is_disabled":true,"rental_uris":{"android":"levelo://app?vid=583e2176-6c7f-425c-8d24-ee49a624fede","ios":"levelo://app?vid=583e2176-6c7f-425c-8d24-ee49a624fede"},"vehicle_type_id":"4","last_reported":1748589014,"current_range_meters":6400,"station_id":"ce4bhe12rcd13ifvqf30","pricing_plan_id":"cebpf4jnsgd1na2vs0mg"},{"bike_id":"56c661b2-09c6-4ae7-a74d-d7c5eda261a8","system_id":"levelo_inurba_marseille","lat":43.27998,"lon":5.41657,"is_reserved":false,"is_disabled":false,"rental_uris":{"android":"levelo://app?vid=56c661b2-09c6-4ae7-a74d-d7c5eda261a8","ios":"levelo://app?vid=56c661b2-09c6-4ae7-a74d-d7c5eda261a8"},"vehicle_type_id":"4","last_reported":1748589014,"current_range_meters":6400,"station_id":"ce4bho12rcd13ifvqh1g","pricing_plan_id":"cebpf4jnsgd1na2vs0mg"},{"bike_id":"b9ae16bc-ec39-406e-9e42-55cba52b28fe","system_id":"levelo_inurba_marseille","lat":43.26025,"lon":5.41739,"is_reserved":false,"is_disabled":false,"rental_uris":{"android":"levelo://app?vid=b9ae16bc-ec39-406e-9e42-55cba52b28fe","ios":"levelo://app?vid=b9ae16bc-ec39-406e-9e42-55cba52b28fe"},"vehicle_type_id":"4","last_reported":1748589014,"current_range_meters":6400,"station_id":"","pricing_plan_id":"cebpf4jnsgd1na2vs0mg"},{"bike_id":"2ff1147e-0a3f-4b61-8103-39164286459b","system_id":"levelo_inurba_marseille","lat":43.2593,"lon":5.40913,"is_reserved":false,"is_disabled":false,"rental_uris":{"android":"levelo://app?vid=2ff1147e-0a3f-4b61-8103-39164286459b","ios":"levelo://app?vid=2ff1147e-0a3f-4b61-8103-39164286459b"},"vehicle_type_id":"4","last_reported":1748589014,"current_range_meters":6800,"station_id":"ce4bhm92rcd13ifvqglg","pricing_plan_id":"cebpf4jnsgd1na2vs0mg"},{"bike_id":"c6f05292-a5ae-4a3e-a9bb-54e30146ebbb","system_id":"levelo_inurba_marseille","lat":43.24659,"lon":5.38164,"is_reserved":false,"is_disabled":false,"rental_uris":{"android":"levelo://app?vid=c6f05292-a5ae-4a3e-a9bb-54e30146ebbb","ios":"levelo://app?vid=c6f05292-a5ae-4a3e-a9bb-54e30146ebbb"},"vehicle_type_id":"4","last_reported":1748589014,"current_range_meters":6800,"station_id":"ce4bhih2rcd13ifvqfr0","pricing_plan_id":"cebpf4jnsgd1na2vs0mg"},{"bike_id":"2a0682f8-0ba4-4e21-9326-7a5912220f6c","system_id":"levelo_inurba_marseille","lat":43.31167,"lon":5.3872,"is_reserved":false,"is_disabled":false,"rental_uris":{"android":"levelo://app?vid=2a0682f8-0ba4-4e21-9326-7a5912220f6c","ios":"levelo://app?vid=2a0682f8-0ba4-4e21-9326-7a5912220f6c"},"vehicle_type_id":"4","last_reported":1748589014,"current_range_meters":6800,"station_id":"ce4bgv12rcd13ifvqcp0","pricing_plan_id":"cebpf4jnsgd1na2vs0mg"},{"bike_id":"d59936d1-8ec8-4f42-8df1-dcddc80cd126","system_id":"levelo_inurba_marseille","lat":43.28931,"lon":5.39645,"is_reserved":false,"is_disabled":false,"rental_uris":{"android":"levelo://app?vid=d59936d1-8ec8-4f42-8df1-dcddc80cd126","ios":"levelo://app?vid=d59936d1-8ec8-4f42-8df1-dcddc80cd126"},"vehicle_type_id":"4","last_reported":1748589014,"current_range_meters":6800,"station_id":"ce4bh3h2rcd13ifvqdn0","pricing_plan_id":"cebpf4jnsgd1na2vs0mg"},{"bike_id":"6d3803a7-7451-443f-86af-6b699aa6b8ce","system_id":"levelo_inurba_marseille","lat":43.24065,"lon":5.37758,"is_reserved":false,"is_disabled":false,"rental_uris":{"android":"levelo://app?vid=6d3803a7-7451-443f-86af-6b699aa6b8ce","ios":"levelo://app?vid=6d3803a7-7451-443f-86af-6b699aa6b8ce"},"vehicle_type_id":"4","last_reported":1748589014,"current_range_meters":6800,"station_id":"ce4bhnp2rcd13ifvqgvg","pricing_plan_id":"cebpf4jnsgd1na2vs0mg"},{"bike_id":"8c869018-c2f1-47df-8e3b-e48407b32a24","system_id":"levelo_inurba_marseille","lat":43.27206,"lon":5.40955,"is_reserved":false,"is_disabled":false,"rental_uris":{"android":"levelo://app?vid=8c869018-c2f1-47df-8e3b-e48407b32a24","ios":"levelo://app?vid=8c869018-c2f1-47df-8e3b-e48407b32a24"},"vehicle_type_id":"4","last_reported":1748589014,"current_range_meters":6800,"station_id":"","pricing_plan_id":"cebpf4jnsgd1na2vs0mg"},{"bike_id":"2ae5aa0d-3661-4c17-a6e7-cf416fccb513","system_id":"levelo_inurba_marseille","lat":43.25936,"lon":5.40906,"is_reserved":false,"is_disabled":false,"rental_uris":{"android":"levelo://app?vid=2ae5aa0d-3661-4c17-a6e7-cf416fccb513","ios":"levelo://app?vid=2ae5aa0d-3661-4c17-a6e7-cf416fccb513"},"vehicle_type_id":"4","last_reported":1748589014,"current_range_meters":6800,"station_id":"ce4bhm92rcd13ifvqglg","pricing_plan_id":"cebpf4jnsgd1na2vs0mg"},{"bike_id":"497ec4a5-8002-40cf-b66d-3b629c958e7f","system_id":"levelo_inurba_marseille","lat":43.29191,"lon":5.39929,"is_reserved":false,"is_disabled":false,"rental_uris":{"android":"levelo://app?vid=497ec4a5-8002-40cf-b66d-3b629c958e7f","ios":"levelo://app?vid=497ec4a5-8002-40cf-b66d-3b629c958e7f"},"vehicle_type_id":"4","last_reported":1748589014,"current_range_meters":6800,"station_id":"","pricing_plan_id":"cebpf4jnsgd1na2vs0mg"},{"bike_id":"419806d9-a0ba-4539-b6a3-66d05e973434","system_id":"levelo_inurba_marseille","lat":43.21202,"lon":5.35072,"is_reserved":false,"is_disabled":false,"rental_uris":{"android":"levelo://app?vid=419806d9-a0ba-4539-b6a3-66d05e973434","ios":"levelo://app?vid=419806d9-a0ba-4539-b6a3-66d05e973434"},"vehicle_type_id":"4","last_reported":1748589014,"current_range_meters":6800,"station_id":"st_cvj6sg6p6f1abm77japg","pricing_plan_id":"cebpf4jnsgd1na2vs0mg"},{"bike_id":"9fa3982a-78e9-408f-aaa3-19562a00ad34","system_id":"levelo_inurba_marseille","lat":43.3117,"lon":5.38727,"is_reserved":false,"is_disabled":false,"rental_uris":{"android":"levelo://app?vid=9fa3982a-78e9-408f-aaa3-19562a00ad34","ios":"levelo://app?vid=9fa3982a-78e9-408f-aaa3-19562a00ad34"},"vehicle_type_id":"4","last_reported":1748589014,"current_range_meters":7200,"station_id":"ce4bgv12rcd13ifvqcp0","pricing_plan_id":"cebpf4jnsgd1na2vs0mg"},{"bike_id":"cf4a0002-ad1b-4f5a-b555-f85dac70d9dc","system_id":"levelo_inurba_marseille","lat":43.29611,"lon":5.37734,"is_reserved":false,"is_disabled":false,"rental_uris":{"android":"levelo://app?vid=cf4a0002-ad1b-4f5a-b555-f85dac70d9dc","ios":"levelo://app?vid=cf4a0002-ad1b-4f5a-b555-f85dac70d9dc"},"vehicle_type_id":"4","last_reported":1748589014,"current_range_meters":7200,"station_id":"ce4bgi92rcd13ifvqb90","pricing_plan_id":"cebpf4jnsgd1na2vs0mg"},{"bike_id":"699cf79a-0487-4f97-8655-716236252f3c","system_id":"levelo_inurba_marseille","lat":43.27055,"lon":5.40262,"is_reserved":false,"is_disabled":false,"rental_uris":{"android":"levelo://app?vid=699cf79a-0487-4f97-8655-716236252f3c","ios":"levelo://app?vid=699cf79a-0487-4f97-8655-716236252f3c"},"vehicle_type_id":"4","last_reported":1748589014,"current_range_meters":7200,"station_id":"ce4bhk92rcd13ifvqgc0","pricing_plan_id":"cebpf4jnsgd1na2vs0mg"},{"bike_id":"c1f1b357-e142-4962-86c7-4cc1efbffe16","system_id":"levelo_inurba_marseille","lat":43.313232,"lon":5.396896,"is_reserved":false,"is_disabled":false,"rental_uris":{"android":"levelo://app?vid=c1f1b357-e142-4962-86c7-4cc1efbffe16","ios":"levelo://app?vid=c1f1b357-e142-4962-86c7-4cc1efbffe16"},"vehicle_type_id":"4","last_reported":1748589014,"current_range_meters":7200,"station_id":"ce4bgvp2rcd13ifvqcu0","pricing_plan_id":"cebpf4jnsgd1na2vs0mg"},{"bike_id":"faef4eb4-18ac-462d-b4ca-b66224371625","system_id":"levelo_inurba_marseille","lat":43.30785,"lon":5.43513,"is_reserved":false,"is_disabled":false,"rental_uris":{"android":"levelo://app?vid=faef4eb4-18ac-462d-b4ca-b66224371625","ios":"levelo://app?vid=faef4eb4-18ac-462d-b4ca-b66224371625"},"vehicle_type_id":"4","last_reported":1748589014,"current_range_meters":7200,"station_id":"ce4bhph2rcd13ifvqheg","pricing_plan_id":"cebpf4jnsgd1na2vs0mg"},{"bike_id":"8b4430ef-1852-41ab-b269-6e80b33d877e","system_id":"levelo_inurba_marseille","lat":43.30952,"lon":5.39031,"is_reserved":false,"is_disabled":true,"rental_uris":{"android":"levelo://app?vid=8b4430ef-1852-41ab-b269-6e80b33d877e","ios":"levelo://app?vid=8b4430ef-1852-41ab-b269-6e80b33d877e"},"vehicle_type_id":"4","last_reported":1748589014,"current_range_meters":7200,"station_id":"ce4bgup2rcd13ifvqco0","pricing_plan_id":"cebpf4jnsgd1na2vs0mg"},{"bike_id":"453cce4f-5d27-46da-8719-da33a38132da","system_id":"levelo_inurba_marseille","lat":43.27974,"lon":5.38693,"is_reserved":false,"is_disabled":false,"rental_uris":{"android":"levelo://app?vid=453cce4f-5d27-46da-8719-da33a38132da","ios":"levelo://app?vid=453cce4f-5d27-46da-8719-da33a38132da"},"vehicle_type_id":"4","last_reported":1748589014,"current_range_meters":7200,"station_id":"ce4bhg12rcd13ifvqf80","pricing_plan_id":"cebpf4jnsgd1na2vs0mg"},{"bike_id":"bd3a474e-6db6-481d-adfd-f1df8f0e3a08","system_id":"levelo_inurba_marseille","lat":43.28415,"lon":5.37522,"is_reserved":false,"is_disabled":true,"rental_uris":{"android":"levelo://app?vid=bd3a474e-6db6-481d-adfd-f1df8f0e3a08","ios":"levelo://app?vid=bd3a474e-6db6-481d-adfd-f1df8f0e3a08"},"vehicle_type_id":"4","last_reported":1748589014,"current_range_meters":8000,"station_id":"ce4bh412rcd13ifvqds0","pricing_plan_id":"cebpf4jnsgd1na2vs0mg"},{"bike_id":"299bc464-0062-40b9-b8fd-94e53cb49a69","system_id":"levelo_inurba_marseille","lat":43.29747,"lon":5.37664,"is_reserved":false,"is_disabled":false,"rental_uris":{"android":"levelo://app?vid=299bc464-0062-40b9-b8fd-94e53cb49a69","ios":"levelo://app?vid=299bc464-0062-40b9-b8fd-94e53cb49a69"},"vehicle_type_id":"4","last_reported":1748589014,"current_range_meters":8000,"station_id":"ce4bgkh2rcd13ifvqbl0","pricing_plan_id":"cebpf4jnsgd1na2vs0mg"},{"bike_id":"64c40546-fc5d-4693-9ccf-3699b6dff106","system_id":"levelo_inurba_marseille","lat":43.21195,"lon":5.35071,"is_reserved":false,"is_disabled":false,"rental_uris":{"android":"levelo://app?vid=64c40546-fc5d-4693-9ccf-3699b6dff106","ios":"levelo://app?vid=64c40546-fc5d-4693-9ccf-3699b6dff106"},"vehicle_type_id":"4","last_reported":1748589014,"current_range_meters":8000,"station_id":"","pricing_plan_id":"cebpf4jnsgd1na2vs0mg"},{"bike_id":"8f4889ad-b6a1-4b5e-98e3-57d3a45f1b3f","system_id":"levelo_inurba_marseille","lat":43.30959,"lon":5.39016,"is_reserved":false,"is_disabled":true,"rental_uris":{"android":"levelo://app?vid=8f4889ad-b6a1-4b5e-98e3-57d3a45f1b3f","ios":"levelo://app?vid=8f4889ad-b6a1-4b5e-98e3-57d3a45f1b3f"},"vehicle_type_id":"4","last_reported":1748589014,"current_range_meters":8000,"station_id":"ce4bgup2rcd13ifvqco0","pricing_plan_id":"cebpf4jnsgd1na2vs0mg"},{"bike_id":"c20cde3d-efa4-4792-85cb-bcd9537bb570","system_id":"levelo_inurba_marseille","lat":43.24164,"lon":5.36395,"is_reserved":false,"is_disabled":false,"rental_uris":{"android":"levelo://app?vid=c20cde3d-efa4-4792-85cb-bcd9537bb570","ios":"levelo://app?vid=c20cde3d-efa4-4792-85cb-bcd9537bb570"},"vehicle_type_id":"4","last_reported":1748589014,"current_range_meters":8000,"station_id":"cpo36qri1sfpv3e86is0","pricing_plan_id":"cebpf4jnsgd1na2vs0mg"},{"bike_id":"57001378-a60e-4eeb-912f-e22ef9a3bfa6","system_id":"levelo_inurba_marseille","lat":43.29516,"lon":5.39039,"is_reserved":false,"is_disabled":false,"rental_uris":{"android":"levelo://app?vid=57001378-a60e-4eeb-912f-e22ef9a3bfa6","ios":"levelo://app?vid=57001378-a60e-4eeb-912f-e22ef9a3bfa6"},"vehicle_type_id":"4","last_reported":1748589014,"current_range_meters":8000,"station_id":"ce4bh3p2rcd13ifvqdp0","pricing_plan_id":"cebpf4jnsgd1na2vs0mg"},{"bike_id":"ff2a370e-e43f-446f-93ec-b31861797423","system_id":"levelo_inurba_marseille","lat":43.28212,"lon":5.39033,"is_reserved":false,"is_disabled":false,"rental_uris":{"android":"levelo://app?vid=ff2a370e-e43f-446f-93ec-b31861797423","ios":"levelo://app?vid=ff2a370e-e43f-446f-93ec-b31861797423"},"vehicle_type_id":"4","last_reported":1748589014,"current_range_meters":8400,"station_id":"","pricing_plan_id":"cebpf4jnsgd1na2vs0mg"},{"bike_id":"a66565e0-7cf2-44c3-8a3f-e024cc3cf1e0","system_id":"levelo_inurba_marseille","lat":43.29257,"lon":5.37605,"is_reserved":false,"is_disabled":false,"rental_uris":{"android":"levelo://app?vid=a66565e0-7cf2-44c3-8a3f-e024cc3cf1e0","ios":"levelo://app?vid=a66565e0-7cf2-44c3-8a3f-e024cc3cf1e0"},"vehicle_type_id":"4","last_reported":1748589014,"current_range_meters":8400,"station_id":"ce4bgi12rcd13ifvqb80","pricing_plan_id":"cebpf4jnsgd1na2vs0mg"},{"bike_id":"c97c7aff-a44a-433f-b1e1-c4cf53d64484","system_id":"levelo_inurba_marseille","lat":43.27911,"lon":5.39596,"is_reserved":false,"is_disabled":true,"rental_uris":{"android":"levelo://app?vid=c97c7aff-a44a-433f-b1e1-c4cf53d64484","ios":"levelo://app?vid=c97c7aff-a44a-433f-b1e1-c4cf53d64484"},"vehicle_type_id":"4","last_reported":1748589014,"current_range_meters":8400,"station_id":"ce4bhf92rcd13ifvqf40","pricing_plan_id":"cebpf4jnsgd1na2vs0mg"},{"bike_id":"42dca157-bdb0-4361-8022-7979135f94aa","system_id":"levelo_inurba_marseille","lat":43.28564,"lon":5.36545,"is_reserved":false,"is_disabled":false,"rental_uris":{"android":"levelo://app?vid=42dca157-bdb0-4361-8022-7979135f94aa","ios":"levelo://app?vid=42dca157-bdb0-4361-8022-7979135f94aa"},"vehicle_type_id":"4","last_reported":1748589014,"current_range_meters":8400,"station_id":"","pricing_plan_id":"cebpf4jnsgd1na2vs0mg"},{"bike_id":"53ac65f4-232c-4fdd-8012-5ca3d883e1f6","system_id":"levelo_inurba_marseille","lat":43.28684,"lon":5.38665,"is_reserved":false,"is_disabled":false,"rental_uris":{"android":"levelo://app?vid=53ac65f4-232c-4fdd-8012-5ca3d883e1f6","ios":"levelo://app?vid=53ac65f4-232c-4fdd-8012-5ca3d883e1f6"},"vehicle_type_id":"4","last_reported":1748589014,"current_range_meters":8400,"station_id":"ce4bh492rcd13ifvqdug","pricing_plan_id":"cebpf4jnsgd1na2vs0mg"},{"bike_id":"5a519813-f6ec-4fcd-9be7-b7b6b9061df5","system_id":"levelo_inurba_marseille","lat":43.299395,"lon":5.365408,"is_reserved":false,"is_disabled":false,"rental_uris":{"android":"levelo://app?vid=5a519813-f6ec-4fcd-9be7-b7b6b9061df5","ios":"levelo://app?vid=5a519813-f6ec-4fcd-9be7-b7b6b9061df5"},"vehicle_type_id":"4","last_reported":1748589014,"current_range_meters":8400,"station_id":"ce4bgm92rcd13ifvqbr0","pricing_plan_id":"cebpf4jnsgd1na2vs0mg"},{"bike_id":"aae5f7c7-b30a-474f-bb09-cb9f5f8f5101","system_id":"levelo_inurba_marseille","lat":43.24161,"lon":5.36399,"is_reserved":false,"is_disabled":false,"rental_uris":{"android":"levelo://app?vid=aae5f7c7-b30a-474f-bb09-cb9f5f8f5101","ios":"levelo://app?vid=aae5f7c7-b30a-474f-bb09-cb9f5f8f5101"},"vehicle_type_id":"4","last_reported":1748589014,"current_range_meters":8400,"station_id":"cpo36qri1sfpv3e86is0","pricing_plan_id":"cebpf4jnsgd1na2vs0mg"},{"bike_id":"1db63234-bf7a-46e7-a35c-0c061951d46f","system_id":"levelo_inurba_marseille","lat":43.309344,"lon":5.390432,"is_reserved":false,"is_disabled":false,"rental_uris":{"android":"levelo://app?vid=1db63234-bf7a-46e7-a35c-0c061951d46f","ios":"levelo://app?vid=1db63234-bf7a-46e7-a35c-0c061951d46f"},"vehicle_type_id":"4","last_reported":1748589014,"current_range_meters":8400,"station_id":"","pricing_plan_id":"cebpf4jnsgd1na2vs0mg"},{"bike_id":"4386d4a8-531e-4c7d-9f32-7ea81e53d2b3","system_id":"levelo_inurba_marseille","lat":43.289375,"lon":5.396295,"is_reserved":false,"is_disabled":false,"rental_uris":{"android":"levelo://app?vid=4386d4a8-531e-4c7d-9f32-7ea81e53d2b3","ios":"levelo://app?vid=4386d4a8-531e-4c7d-9f32-7ea81e53d2b3"},"vehicle_type_id":"4","last_reported":1748589014,"current_range_meters":8400,"station_id":"ce4bh3h2rcd13ifvqdn0","pricing_plan_id":"cebpf4jnsgd1na2vs0mg"},{"bike_id":"0e009545-9acc-491d-b143-22cbd0096db4","system_id":"levelo_inurba_marseille","lat":43.33828,"lon":5.39241,"is_reserved":false,"is_disabled":false,"rental_uris":{"android":"levelo://app?vid=0e009545-9acc-491d-b143-22cbd0096db4","ios":"levelo://app?vid=0e009545-9acc-491d-b143-22cbd0096db4"},"vehicle_type_id":"4","last_reported":1748589014,"current_range_meters":8800,"station_id":"","pricing_plan_id":"cebpf4jnsgd1na2vs0mg"},{"bike_id":"0938a86a-0de2-45a4-b72c-49eb0ce7105d","system_id":"levelo_inurba_marseille","lat":43.30301,"lon":5.39226,"is_reserved":false,"is_disabled":false,"rental_uris":{"android":"levelo://app?vid=0938a86a-0de2-45a4-b72c-49eb0ce7105d","ios":"levelo://app?vid=0938a86a-0de2-45a4-b72c-49eb0ce7105d"},"vehicle_type_id":"4","last_reported":1748589014,"current_range_meters":8800,"station_id":"ce4bgkh2rcd13ifvqbk0","pricing_plan_id":"cebpf4jnsgd1na2vs0mg"},{"bike_id":"6f58ec22-f2ee-49d1-b77b-cf58866a5e83","system_id":"levelo_inurba_marseille","lat":43.27312,"lon":5.39088,"is_reserved":false,"is_disabled":false,"rental_uris":{"android":"levelo://app?vid=6f58ec22-f2ee-49d1-b77b-cf58866a5e83","ios":"levelo://app?vid=6f58ec22-f2ee-49d1-b77b-cf58866a5e83"},"vehicle_type_id":"4","last_reported":1748589014,"current_range_meters":8800,"station_id":"ce4bhgp2rcd13ifvqfe0","pricing_plan_id":"cebpf4jnsgd1na2vs0mg"},{"bike_id":"ed1a6081-75be-44b2-a209-668e8f50f0aa","system_id":"levelo_inurba_marseille","lat":43.30644,"lon":5.40074,"is_reserved":false,"is_disabled":false,"rental_uris":{"android":"levelo://app?vid=ed1a6081-75be-44b2-a209-668e8f50f0aa","ios":"levelo://app?vid=ed1a6081-75be-44b2-a209-668e8f50f0aa"},"vehicle_type_id":"4","last_reported":1748589014,"current_range_meters":8800,"station_id":"ce4bh112rcd13ifvqda0","pricing_plan_id":"cebpf4jnsgd1na2vs0mg"},{"bike_id":"bbec6460-4689-4b56-8863-be0173fe6abf","system_id":"levelo_inurba_marseille","lat":43.2826,"lon":5.35065,"is_reserved":false,"is_disabled":false,"rental_uris":{"android":"levelo://app?vid=bbec6460-4689-4b56-8863-be0173fe6abf","ios":"levelo://app?vid=bbec6460-4689-4b56-8863-be0173fe6abf"},"vehicle_type_id":"4","last_reported":1748589014,"current_range_meters":8400,"station_id":"ce4bhbp2rcd13ifvqerg","pricing_plan_id":"cebpf4jnsgd1na2vs0mg"},{"bike_id":"339f38b0-f75b-4455-bd41-33673ac56d64","system_id":"levelo_inurba_marseille","lat":43.30992,"lon":5.41727,"is_reserved":false,"is_disabled":false,"rental_uris":{"android":"levelo://app?vid=339f38b0-f75b-4455-bd41-33673ac56d64","ios":"levelo://app?vid=339f38b0-f75b-4455-bd41-33673ac56d64"},"vehicle_type_id":"4","last_reported":1748589014,"current_range_meters":8800,"station_id":"","pricing_plan_id":"cebpf4jnsgd1na2vs0mg"},{"bike_id":"08818466-c8d1-44f6-a5b1-b36755983432","system_id":"levelo_inurba_marseille","lat":43.320845,"lon":5.44085,"is_reserved":false,"is_disabled":false,"rental_uris":{"android":"levelo://app?vid=08818466-c8d1-44f6-a5b1-b36755983432","ios":"levelo://app?vid=08818466-c8d1-44f6-a5b1-b36755983432"},"vehicle_type_id":"4","last_reported":1748589014,"current_range_meters":8800,"station_id":"","pricing_plan_id":"cebpf4jnsgd1na2vs0mg"},{"bike_id":"f2e7b7a7-5af2-4bec-a5a6-bb8fe4377c78","system_id":"levelo_inurba_marseille","lat":43.26209,"lon":5.37441,"is_reserved":false,"is_disabled":false,"rental_uris":{"android":"levelo://app?vid=f2e7b7a7-5af2-4bec-a5a6-bb8fe4377c78","ios":"levelo://app?vid=f2e7b7a7-5af2-4bec-a5a6-bb8fe4377c78"},"vehicle_type_id":"4","last_reported":1748589014,"current_range_meters":8800,"station_id":"ce4bhgp2rcd13ifvqfc0","pricing_plan_id":"cebpf4jnsgd1na2vs0mg"},{"bike_id":"a9677dbc-4873-44e1-a436-f6f19cf345d4","system_id":"levelo_inurba_marseille","lat":43.2925,"lon":5.40143,"is_reserved":false,"is_disabled":false,"rental_uris":{"android":"levelo://app?vid=a9677dbc-4873-44e1-a436-f6f19cf345d4","ios":"levelo://app?vid=a9677dbc-4873-44e1-a436-f6f19cf345d4"},"vehicle_type_id":"4","last_reported":1748589014,"current_range_meters":9200,"station_id":"ce4bh312rcd13ifvqdk0","pricing_plan_id":"cebpf4jnsgd1na2vs0mg"},{"bike_id":"42457cf4-066b-4e99-be8a-c611cdb501b2","system_id":"levelo_inurba_marseille","lat":43.23328,"lon":5.36152,"is_reserved":false,"is_disabled":false,"rental_uris":{"android":"levelo://app?vid=42457cf4-066b-4e99-be8a-c611cdb501b2","ios":"levelo://app?vid=42457cf4-066b-4e99-be8a-c611cdb501b2"},"vehicle_type_id":"4","last_reported":1748589014,"current_range_meters":9200,"station_id":"","pricing_plan_id":"cebpf4jnsgd1na2vs0mg"},{"bike_id":"aacf9bea-bd71-4619-b98e-e08182ef11fe","system_id":"levelo_inurba_marseille","lat":43.29258,"lon":5.37631,"is_reserved":false,"is_disabled":false,"rental_uris":{"android":"levelo://app?vid=aacf9bea-bd71-4619-b98e-e08182ef11fe","ios":"levelo://app?vid=aacf9bea-bd71-4619-b98e-e08182ef11fe"},"vehicle_type_id":"4","last_reported":1748589014,"current_range_meters":9200,"station_id":"ce4bgi12rcd13ifvqb80","pricing_plan_id":"cebpf4jnsgd1na2vs0mg"},{"bike_id":"038aa1e9-8369-44f4-9cb8-c8ebe1b5ad34","system_id":"levelo_inurba_marseille","lat":43.2971,"lon":5.3769,"is_reserved":false,"is_disabled":false,"rental_uris":{"android":"levelo://app?vid=038aa1e9-8369-44f4-9cb8-c8ebe1b5ad34","ios":"levelo://app?vid=038aa1e9-8369-44f4-9cb8-c8ebe1b5ad34"},"vehicle_type_id":"4","last_reported":1748589014,"current_range_meters":8800,"station_id":"ce4bgkh2rcd13ifvqbl0","pricing_plan_id":"cebpf4jnsgd1na2vs0mg"},{"bike_id":"04c49220-7a35-477c-9a01-0c7650744921","system_id":"levelo_inurba_marseille","lat":43.32478,"lon":5.3656,"is_reserved":false,"is_disabled":false,"rental_uris":{"android":"levelo://app?vid=04c49220-7a35-477c-9a01-0c7650744921","ios":"levelo://app?vid=04c49220-7a35-477c-9a01-0c7650744921"},"vehicle_type_id":"4","last_reported":1748589014,"current_range_meters":9200,"station_id":"ce4bhs12rcd13ifvqhvg","pricing_plan_id":"cebpf4jnsgd1na2vs0mg"},{"bike_id":"00f77637-c960-45d0-b516-a2f6a0285858","system_id":"levelo_inurba_marseille","lat":43.29731,"lon":5.385357,"is_reserved":false,"is_disabled":false,"rental_uris":{"android":"levelo://app?vid=00f77637-c960-45d0-b516-a2f6a0285858","ios":"levelo://app?vid=00f77637-c960-45d0-b516-a2f6a0285858"},"vehicle_type_id":"4","last_reported":1748589014,"current_range_meters":9200,"station_id":"","pricing_plan_id":"cebpf4jnsgd1na2vs0mg"},{"bike_id":"64864384-5888-49d8-b447-ac40385fe3be","system_id":"levelo_inurba_marseille","lat":43.31084,"lon":5.4243,"is_reserved":false,"is_disabled":false,"rental_uris":{"android":"levelo://app?vid=64864384-5888-49d8-b447-ac40385fe3be","ios":"levelo://app?vid=64864384-5888-49d8-b447-ac40385fe3be"},"vehicle_type_id":"4","last_reported":1748589014,"current_range_meters":9200,"station_id":"ce4bhp92rcd13ifvqhag","pricing_plan_id":"cebpf4jnsgd1na2vs0mg"},{"bike_id":"8231def7-2bb5-4db5-b373-b1e78cb73988","system_id":"levelo_inurba_marseille","lat":43.21194,"lon":5.35071,"is_reserved":false,"is_disabled":false,"rental_uris":{"android":"levelo://app?vid=8231def7-2bb5-4db5-b373-b1e78cb73988","ios":"levelo://app?vid=8231def7-2bb5-4db5-b373-b1e78cb73988"},"vehicle_type_id":"4","last_reported":1748589014,"current_range_meters":9200,"station_id":"","pricing_plan_id":"cebpf4jnsgd1na2vs0mg"},{"bike_id":"b0f67d6d-3250-42ef-8f19-4e74e6760f9a","system_id":"levelo_inurba_marseille","lat":43.344006,"lon":5.381469,"is_reserved":false,"is_disabled":false,"rental_uris":{"android":"levelo://app?vid=b0f67d6d-3250-42ef-8f19-4e74e6760f9a","ios":"levelo://app?vid=b0f67d6d-3250-42ef-8f19-4e74e6760f9a"},"vehicle_type_id":"4","last_reported":1748589014,"current_range_meters":9200,"station_id":"","pricing_plan_id":"cebpf4jnsgd1na2vs0mg"},{"bike_id":"5c61419d-2f34-47a9-908a-330db7e51539","system_id":"levelo_inurba_marseille","lat":43.25714,"lon":5.41119,"is_reserved":false,"is_disabled":false,"rental_uris":{"android":"levelo://app?vid=5c61419d-2f34-47a9-908a-330db7e51539","ios":"levelo://app?vid=5c61419d-2f34-47a9-908a-330db7e51539"},"vehicle_type_id":"4","last_reported":1748589014,"current_range_meters":9200,"station_id":"ce4bhkp2rcd13ifvqgd0","pricing_plan_id":"cebpf4jnsgd1na2vs0mg"},{"bike_id":"be9aa692-abb9-48ba-8254-ead15010a4db","system_id":"levelo_inurba_marseille","lat":43.29401,"lon":5.39791,"is_reserved":false,"is_disabled":false,"rental_uris":{"android":"levelo://app?vid=be9aa692-abb9-48ba-8254-ead15010a4db","ios":"levelo://app?vid=be9aa692-abb9-48ba-8254-ead15010a4db"},"vehicle_type_id":"4","last_reported":1748589014,"current_range_meters":9200,"station_id":"ce4bh3h2rcd13ifvqdo0","pricing_plan_id":"cebpf4jnsgd1na2vs0mg"},{"bike_id":"572f964a-6e64-4c5e-b089-ce909a800028","system_id":"levelo_inurba_marseille","lat":43.29286,"lon":5.40135,"is_reserved":false,"is_disabled":false,"rental_uris":{"android":"levelo://app?vid=572f964a-6e64-4c5e-b089-ce909a800028","ios":"levelo://app?vid=572f964a-6e64-4c5e-b089-ce909a800028"},"vehicle_type_id":"4","last_reported":1748589014,"current_range_meters":9200,"station_id":"ce4bh312rcd13ifvqdk0","pricing_plan_id":"cebpf4jnsgd1na2vs0mg"},{"bike_id":"9645fd54-db8d-4cf3-9341-8f046247c936","system_id":"levelo_inurba_marseille","lat":43.265747,"lon":5.390372,"is_reserved":false,"is_disabled":false,"rental_uris":{"android":"levelo://app?vid=9645fd54-db8d-4cf3-9341-8f046247c936","ios":"levelo://app?vid=9645fd54-db8d-4cf3-9341-8f046247c936"},"vehicle_type_id":"4","last_reported":1748589014,"current_range_meters":9200,"station_id":"ce4bhe12rcd13ifvqf30","pricing_plan_id":"cebpf4jnsgd1na2vs0mg"},{"bike_id":"438d1ea3-5c8f-4d35-9360-e6d605c5cfb2","system_id":"levelo_inurba_marseille","lat":43.24692,"lon":5.38138,"is_reserved":false,"is_disabled":false,"rental_uris":{"android":"levelo://app?vid=438d1ea3-5c8f-4d35-9360-e6d605c5cfb2","ios":"levelo://app?vid=438d1ea3-5c8f-4d35-9360-e6d605c5cfb2"},"vehicle_type_id":"4","last_reported":1748589014,"current_range_meters":9600,"station_id":"ce4bhih2rcd13ifvqfr0","pricing_plan_id":"cebpf4jnsgd1na2vs0mg"},{"bike_id":"ebfdf01b-f1ed-4fe5-9076-840bdfdff4ce","system_id":"levelo_inurba_marseille","lat":43.30949,"lon":5.39031,"is_reserved":false,"is_disabled":false,"rental_uris":{"android":"levelo://app?vid=ebfdf01b-f1ed-4fe5-9076-840bdfdff4ce","ios":"levelo://app?vid=ebfdf01b-f1ed-4fe5-9076-840bdfdff4ce"},"vehicle_type_id":"4","last_reported":1748589014,"current_range_meters":9600,"station_id":"ce4bgup2rcd13ifvqco0","pricing_plan_id":"cebpf4jnsgd1na2vs0mg"},{"bike_id":"f8ec9d78-7e62-4248-a76e-af09b5d3a770","system_id":"levelo_inurba_marseille","lat":43.29245,"lon":5.40915,"is_reserved":false,"is_disabled":false,"rental_uris":{"android":"levelo://app?vid=f8ec9d78-7e62-4248-a76e-af09b5d3a770","ios":"levelo://app?vid=f8ec9d78-7e62-4248-a76e-af09b5d3a770"},"vehicle_type_id":"4","last_reported":1748589014,"current_range_meters":9600,"station_id":"ce4bh192rcd13ifvqdc0","pricing_plan_id":"cebpf4jnsgd1na2vs0mg"},{"bike_id":"bc97dac4-f623-45ab-acd6-622fe1887964","system_id":"levelo_inurba_marseille","lat":43.26953,"lon":5.38634,"is_reserved":false,"is_disabled":false,"rental_uris":{"android":"levelo://app?vid=bc97dac4-f623-45ab-acd6-622fe1887964","ios":"levelo://app?vid=bc97dac4-f623-45ab-acd6-622fe1887964"},"vehicle_type_id":"4","last_reported":1748589014,"current_range_meters":9600,"station_id":"ce4bhh92rcd13ifvqfh0","pricing_plan_id":"cebpf4jnsgd1na2vs0mg"},{"bike_id":"d2efc7ef-e8cf-48f9-9e09-ac995bd4b4ef","system_id":"levelo_inurba_marseille","lat":43.2847,"lon":5.38467,"is_reserved":false,"is_disabled":false,"rental_uris":{"android":"levelo://app?vid=d2efc7ef-e8cf-48f9-9e09-ac995bd4b4ef","ios":"levelo://app?vid=d2efc7ef-e8cf-48f9-9e09-ac995bd4b4ef"},"vehicle_type_id":"4","last_reported":1748589014,"current_range_meters":9600,"station_id":"ce4bh512rcd13ifvqe3g","pricing_plan_id":"cebpf4jnsgd1na2vs0mg"},{"bike_id":"cd438c88-7f17-4c01-b238-d05b58df7798","system_id":"levelo_inurba_marseille","lat":43.279675,"lon":5.387395,"is_reserved":false,"is_disabled":false,"rental_uris":{"android":"levelo://app?vid=cd438c88-7f17-4c01-b238-d05b58df7798","ios":"levelo://app?vid=cd438c88-7f17-4c01-b238-d05b58df7798"},"vehicle_type_id":"4","last_reported":1748589014,"current_range_meters":9600,"station_id":"ce4bhg12rcd13ifvqf80","pricing_plan_id":"cebpf4jnsgd1na2vs0mg"},{"bike_id":"c666405f-462c-40b6-aad2-05c3e84c9054","system_id":"levelo_inurba_marseille","lat":43.24156,"lon":5.364,"is_reserved":false,"is_disabled":false,"rental_uris":{"android":"levelo://app?vid=c666405f-462c-40b6-aad2-05c3e84c9054","ios":"levelo://app?vid=c666405f-462c-40b6-aad2-05c3e84c9054"},"vehicle_type_id":"4","last_reported":1748589014,"current_range_meters":9600,"station_id":"cpo36qri1sfpv3e86is0","pricing_plan_id":"cebpf4jnsgd1na2vs0mg"},{"bike_id":"c15ffdc2-74f4-4829-a183-8922571dd04a","system_id":"levelo_inurba_marseille","lat":43.29847,"lon":5.36286,"is_reserved":false,"is_disabled":false,"rental_uris":{"android":"levelo://app?vid=c15ffdc2-74f4-4829-a183-8922571dd04a","ios":"levelo://app?vid=c15ffdc2-74f4-4829-a183-8922571dd04a"},"vehicle_type_id":"4","last_reported":1748589014,"current_range_meters":10000,"station_id":"ce4bgpp2rcd13ifvqc3g","pricing_plan_id":"cebpf4jnsgd1na2vs0mg"},{"bike_id":"a426f99b-d34a-41bf-bbda-59f7dfd6939b","system_id":"levelo_inurba_marseille","lat":43.255796,"lon":5.382262,"is_reserved":false,"is_disabled":false,"rental_uris":{"android":"levelo://app?vid=a426f99b-d34a-41bf-bbda-59f7dfd6939b","ios":"levelo://app?vid=a426f99b-d34a-41bf-bbda-59f7dfd6939b"},"vehicle_type_id":"4","last_reported":1748589014,"current_range_meters":10000,"station_id":"ce501612rcd8frsf0b60","pricing_plan_id":"cebpf4jnsgd1na2vs0mg"},{"bike_id":"dddeb80d-3057-46be-833d-4a0c2415e343","system_id":"levelo_inurba_marseille","lat":43.319965,"lon":5.381475,"is_reserved":false,"is_disabled":false,"rental_uris":{"android":"levelo://app?vid=dddeb80d-3057-46be-833d-4a0c2415e343","ios":"levelo://app?vid=dddeb80d-3057-46be-833d-4a0c2415e343"},"vehicle_type_id":"4","last_reported":1748589014,"current_range_meters":10000,"station_id":"ce4bhr12rcd13ifvqhpg","pricing_plan_id":"cebpf4jnsgd1na2vs0mg"},{"bike_id":"f5733814-9732-4748-bcc9-3b2fac8e1564","system_id":"levelo_inurba_marseille","lat":43.31256,"lon":5.37829,"is_reserved":false,"is_disabled":false,"rental_uris":{"android":"levelo://app?vid=f5733814-9732-4748-bcc9-3b2fac8e1564","ios":"levelo://app?vid=f5733814-9732-4748-bcc9-3b2fac8e1564"},"vehicle_type_id":"4","last_reported":1748589014,"current_range_meters":10000,"station_id":"","pricing_plan_id":"cebpf4jnsgd1na2vs0mg"},{"bike_id":"9106b7cd-70ae-456d-906e-062a4ff9165b","system_id":"levelo_inurba_marseille","lat":43.330189,"lon":5.39447,"is_reserved":false,"is_disabled":false,"rental_uris":{"android":"levelo://app?vid=9106b7cd-70ae-456d-906e-062a4ff9165b","ios":"levelo://app?vid=9106b7cd-70ae-456d-906e-062a4ff9165b"},"vehicle_type_id":"4","last_reported":1748589014,"current_range_meters":10000,"station_id":"","pricing_plan_id":"cebpf4jnsgd1na2vs0mg"},{"bike_id":"f8d26ebd-9168-41c8-9f49-36e1a1965f63","system_id":"levelo_inurba_marseille","lat":43.29892,"lon":5.43679,"is_reserved":false,"is_disabled":false,"rental_uris":{"android":"levelo://app?vid=f8d26ebd-9168-41c8-9f49-36e1a1965f63","ios":"levelo://app?vid=f8d26ebd-9168-41c8-9f49-36e1a1965f63"},"vehicle_type_id":"4","last_reported":1748589014,"current_range_meters":10000,"station_id":"ce4bhpp2rcd13ifvqhfg","pricing_plan_id":"cebpf4jnsgd1na2vs0mg"},{"bike_id":"81dedcf5-3b05-43e1-add4-e5585c2ab925","system_id":"levelo_inurba_marseille","lat":43.24807,"lon":5.37466,"is_reserved":false,"is_disabled":true,"rental_uris":{"android":"levelo://app?vid=81dedcf5-3b05-43e1-add4-e5585c2ab925","ios":"levelo://app?vid=81dedcf5-3b05-43e1-add4-e5585c2ab925"},"vehicle_type_id":"4","last_reported":1748589014,"current_range_meters":10000,"station_id":"ce4bhgh2rcd13ifvqfb0","pricing_plan_id":"cebpf4jnsgd1na2vs0mg"},{"bike_id":"9656913e-5d0a-47f7-b654-a4bd8d02350a","system_id":"levelo_inurba_marseille","lat":43.2927,"lon":5.4015,"is_reserved":false,"is_disabled":false,"rental_uris":{"android":"levelo://app?vid=9656913e-5d0a-47f7-b654-a4bd8d02350a","ios":"levelo://app?vid=9656913e-5d0a-47f7-b654-a4bd8d02350a"},"vehicle_type_id":"4","last_reported":1748589014,"current_range_meters":10000,"station_id":"ce4bh312rcd13ifvqdk0","pricing_plan_id":"cebpf4jnsgd1na2vs0mg"},{"bike_id":"cc36bf8e-c4fd-4edb-8e2f-f3e1fdb01728","system_id":"levelo_inurba_marseille","lat":43.31171,"lon":5.40765,"is_reserved":false,"is_disabled":true,"rental_uris":{"android":"levelo://app?vid=cc36bf8e-c4fd-4edb-8e2f-f3e1fdb01728","ios":"levelo://app?vid=cc36bf8e-c4fd-4edb-8e2f-f3e1fdb01728"},"vehicle_type_id":"4","last_reported":1748589014,"current_range_meters":10800,"station_id":"","pricing_plan_id":"cebpf4jnsgd1na2vs0mg"},{"bike_id":"be4a640d-0c26-4675-b5c4-320922c50d85","system_id":"levelo_inurba_marseille","lat":43.30375,"lon":5.42489,"is_reserved":false,"is_disabled":false,"rental_uris":{"android":"levelo://app?vid=be4a640d-0c26-4675-b5c4-320922c50d85","ios":"levelo://app?vid=be4a640d-0c26-4675-b5c4-320922c50d85"},"vehicle_type_id":"4","last_reported":1748589014,"current_range_meters":10800,"station_id":"ce4bhoh2rcd13ifvqh6g","pricing_plan_id":"cebpf4jnsgd1na2vs0mg"},{"bike_id":"0dc000bd-368c-4c59-a0e5-9ddd5a5b10f3","system_id":"levelo_inurba_marseille","lat":43.323338,"lon":5.406124,"is_reserved":false,"is_disabled":true,"rental_uris":{"android":"levelo://app?vid=0dc000bd-368c-4c59-a0e5-9ddd5a5b10f3","ios":"levelo://app?vid=0dc000bd-368c-4c59-a0e5-9ddd5a5b10f3"},"vehicle_type_id":"4","last_reported":1748589014,"current_range_meters":10800,"station_id":"ce4bhq92rcd13ifvqhjg","pricing_plan_id":"cebpf4jnsgd1na2vs0mg"},{"bike_id":"e044c9db-ce02-4ecf-bf86-8eaa46f9c414","system_id":"levelo_inurba_marseille","lat":43.25714,"lon":5.39148,"is_reserved":false,"is_disabled":false,"rental_uris":{"android":"levelo://app?vid=e044c9db-ce02-4ecf-bf86-8eaa46f9c414","ios":"levelo://app?vid=e044c9db-ce02-4ecf-bf86-8eaa46f9c414"},"vehicle_type_id":"4","last_reported":1748589014,"current_range_meters":10800,"station_id":"","pricing_plan_id":"cebpf4jnsgd1na2vs0mg"},{"bike_id":"3a927648-6e5b-40cc-868c-ef2e51cba32a","system_id":"levelo_inurba_marseille","lat":43.29032,"lon":5.37569,"is_reserved":false,"is_disabled":false,"rental_uris":{"android":"levelo://app?vid=3a927648-6e5b-40cc-868c-ef2e51cba32a","ios":"levelo://app?vid=3a927648-6e5b-40cc-868c-ef2e51cba32a"},"vehicle_type_id":"4","last_reported":1748589014,"current_range_meters":10800,"station_id":"ce4bh692rcd13ifvqe90","pricing_plan_id":"cebpf4jnsgd1na2vs0mg"},{"bike_id":"b1070e7a-8a40-475b-91ea-d34046de595b","system_id":"levelo_inurba_marseille","lat":43.27932,"lon":5.38723,"is_reserved":false,"is_disabled":false,"rental_uris":{"android":"levelo://app?vid=b1070e7a-8a40-475b-91ea-d34046de595b","ios":"levelo://app?vid=b1070e7a-8a40-475b-91ea-d34046de595b"},"vehicle_type_id":"4","last_reported":1748589014,"current_range_meters":10800,"station_id":"ce4bhg12rcd13ifvqf80","pricing_plan_id":"cebpf4jnsgd1na2vs0mg"},{"bike_id":"a0733277-9572-4c49-b86b-a255c71a8787","system_id":"levelo_inurba_marseille","lat":43.27171,"lon":5.41009,"is_reserved":false,"is_disabled":false,"rental_uris":{"android":"levelo://app?vid=a0733277-9572-4c49-b86b-a255c71a8787","ios":"levelo://app?vid=a0733277-9572-4c49-b86b-a255c71a8787"},"vehicle_type_id":"4","last_reported":1748589014,"current_range_meters":10800,"station_id":"ce4bhl12rcd13ifvqgf0","pricing_plan_id":"cebpf4jnsgd1na2vs0mg"},{"bike_id":"e9cda520-c6f4-465d-ad7f-8c059b3dc45a","system_id":"levelo_inurba_marseille","lat":43.313967,"lon":5.383993,"is_reserved":false,"is_disabled":false,"rental_uris":{"android":"levelo://app?vid=e9cda520-c6f4-465d-ad7f-8c059b3dc45a","ios":"levelo://app?vid=e9cda520-c6f4-465d-ad7f-8c059b3dc45a"},"vehicle_type_id":"4","last_reported":1748589014,"current_range_meters":10800,"station_id":"","pricing_plan_id":"cebpf4jnsgd1na2vs0mg"},{"bike_id":"54e0c0f7-b8f3-48f3-a8b9-65efc0d1fd7c","system_id":"levelo_inurba_marseille","lat":43.312518,"lon":5.3679,"is_reserved":false,"is_disabled":false,"rental_uris":{"android":"levelo://app?vid=54e0c0f7-b8f3-48f3-a8b9-65efc0d1fd7c","ios":"levelo://app?vid=54e0c0f7-b8f3-48f3-a8b9-65efc0d1fd7c"},"vehicle_type_id":"4","last_reported":1748589014,"current_range_meters":10800,"station_id":"","pricing_plan_id":"cebpf4jnsgd1na2vs0mg"},{"bike_id":"1be21534-ca7b-4f38-8bff-a7515afc85f6","system_id":"levelo_inurba_marseille","lat":43.24794,"lon":5.37469,"is_reserved":false,"is_disabled":false,"rental_uris":{"android":"levelo://app?vid=1be21534-ca7b-4f38-8bff-a7515afc85f6","ios":"levelo://app?vid=1be21534-ca7b-4f38-8bff-a7515afc85f6"},"vehicle_type_id":"4","last_reported":1748589014,"current_range_meters":10800,"station_id":"ce4bhgh2rcd13ifvqfb0","pricing_plan_id":"cebpf4jnsgd1na2vs0mg"},{"bike_id":"3cd9ded2-027b-4023-b70f-0cbbb98ccb35","system_id":"levelo_inurba_marseille","lat":43.27197,"lon":5.39156,"is_reserved":false,"is_disabled":false,"rental_uris":{"android":"levelo://app?vid=3cd9ded2-027b-4023-b70f-0cbbb98ccb35","ios":"levelo://app?vid=3cd9ded2-027b-4023-b70f-0cbbb98ccb35"},"vehicle_type_id":"4","last_reported":1748589014,"current_range_meters":10800,"station_id":"ce4bhhp2rcd13ifvqfm0","pricing_plan_id":"cebpf4jnsgd1na2vs0mg"},{"bike_id":"e6fd2ca1-d968-4e6d-950a-3de70295f052","system_id":"levelo_inurba_marseille","lat":43.28414,"lon":5.3499,"is_reserved":false,"is_disabled":false,"rental_uris":{"android":"levelo://app?vid=e6fd2ca1-d968-4e6d-950a-3de70295f052","ios":"levelo://app?vid=e6fd2ca1-d968-4e6d-950a-3de70295f052"},"vehicle_type_id":"4","last_reported":1748589014,"current_range_meters":10800,"station_id":"ce4bhbh2rcd13ifvqepg","pricing_plan_id":"cebpf4jnsgd1na2vs0mg"},{"bike_id":"a4b76fe5-7bf0-4f86-b675-67301c06e06d","system_id":"levelo_inurba_marseille","lat":43.25,"lon":5.389287,"is_reserved":false,"is_disabled":false,"rental_uris":{"android":"levelo://app?vid=a4b76fe5-7bf0-4f86-b675-67301c06e06d","ios":"levelo://app?vid=a4b76fe5-7bf0-4f86-b675-67301c06e06d"},"vehicle_type_id":"4","last_reported":1748589014,"current_range_meters":11200,"station_id":"ce4bhgp2rcd13ifvqfd0","pricing_plan_id":"cebpf4jnsgd1na2vs0mg"},{"bike_id":"1a033729-7d76-4cd7-b553-fd0ee867bce4","system_id":"levelo_inurba_marseille","lat":43.30951,"lon":5.39036,"is_reserved":false,"is_disabled":false,"rental_uris":{"android":"levelo://app?vid=1a033729-7d76-4cd7-b553-fd0ee867bce4","ios":"levelo://app?vid=1a033729-7d76-4cd7-b553-fd0ee867bce4"},"vehicle_type_id":"4","last_reported":1748589014,"current_range_meters":11200,"station_id":"ce4bgup2rcd13ifvqco0","pricing_plan_id":"cebpf4jnsgd1na2vs0mg"},{"bike_id":"8abc963d-bcc4-426b-b81c-38d8621210e1","system_id":"levelo_inurba_marseille","lat":43.283475,"lon":5.381066,"is_reserved":false,"is_disabled":false,"rental_uris":{"android":"levelo://app?vid=8abc963d-bcc4-426b-b81c-38d8621210e1","ios":"levelo://app?vid=8abc963d-bcc4-426b-b81c-38d8621210e1"},"vehicle_type_id":"4","last_reported":1748589014,"current_range_meters":11200,"station_id":"ce4bh412rcd13ifvqdr0","pricing_plan_id":"cebpf4jnsgd1na2vs0mg"},{"bike_id":"c6db7724-9a49-416b-8d08-0ca0825c616e","system_id":"levelo_inurba_marseille","lat":43.30925,"lon":5.4013,"is_reserved":false,"is_disabled":false,"rental_uris":{"android":"levelo://app?vid=c6db7724-9a49-416b-8d08-0ca0825c616e","ios":"levelo://app?vid=c6db7724-9a49-416b-8d08-0ca0825c616e"},"vehicle_type_id":"4","last_reported":1748589014,"current_range_meters":11200,"station_id":"ce4bgvp2rcd13ifvqct0","pricing_plan_id":"cebpf4jnsgd1na2vs0mg"},{"bike_id":"ccc732c7-811b-474b-ac0d-78eb7f3eba2f","system_id":"levelo_inurba_marseille","lat":43.2964,"lon":5.37141,"is_reserved":false,"is_disabled":true,"rental_uris":{"android":"levelo://app?vid=ccc732c7-811b-474b-ac0d-78eb7f3eba2f","ios":"levelo://app?vid=ccc732c7-811b-474b-ac0d-78eb7f3eba2f"},"vehicle_type_id":"4","last_reported":1748589014,"current_range_meters":11200,"station_id":"ce4bgnh2rcd13ifvqc0g","pricing_plan_id":"cebpf4jnsgd1na2vs0mg"},{"bike_id":"a3d2a94f-e1c2-4171-a9aa-7cb1bd87dcc0","system_id":"levelo_inurba_marseille","lat":43.31362,"lon":5.36703,"is_reserved":false,"is_disabled":false,"rental_uris":{"android":"levelo://app?vid=a3d2a94f-e1c2-4171-a9aa-7cb1bd87dcc0","ios":"levelo://app?vid=a3d2a94f-e1c2-4171-a9aa-7cb1bd87dcc0"},"vehicle_type_id":"4","last_reported":1748589014,"current_range_meters":11200,"station_id":"ce4bgr92rcd13ifvqc6g","pricing_plan_id":"cebpf4jnsgd1na2vs0mg"},{"bike_id":"47ab4da4-bb30-46e5-8a31-8633559ae16f","system_id":"levelo_inurba_marseille","lat":43.29291,"lon":5.37462,"is_reserved":false,"is_disabled":false,"rental_uris":{"android":"levelo://app?vid=47ab4da4-bb30-46e5-8a31-8633559ae16f","ios":"levelo://app?vid=47ab4da4-bb30-46e5-8a31-8633559ae16f"},"vehicle_type_id":"4","last_reported":1748589014,"current_range_meters":10800,"station_id":"ce4bgi12rcd13ifvqb70","pricing_plan_id":"cebpf4jnsgd1na2vs0mg"},{"bike_id":"d7f1c75d-958d-4305-a2f7-b70acbe0c642","system_id":"levelo_inurba_marseille","lat":43.30928,"lon":5.40122,"is_reserved":false,"is_disabled":false,"rental_uris":{"android":"levelo://app?vid=d7f1c75d-958d-4305-a2f7-b70acbe0c642","ios":"levelo://app?vid=d7f1c75d-958d-4305-a2f7-b70acbe0c642"},"vehicle_type_id":"4","last_reported":1748589014,"current_range_meters":11200,"station_id":"ce4bgvp2rcd13ifvqct0","pricing_plan_id":"cebpf4jnsgd1na2vs0mg"},{"bike_id":"0d021fa5-f24c-4d64-a714-3c7445f5e8d8","system_id":"levelo_inurba_marseille","lat":43.28341,"lon":5.38111,"is_reserved":false,"is_disabled":true,"rental_uris":{"android":"levelo://app?vid=0d021fa5-f24c-4d64-a714-3c7445f5e8d8","ios":"levelo://app?vid=0d021fa5-f24c-4d64-a714-3c7445f5e8d8"},"vehicle_type_id":"4","last_reported":1748589014,"current_range_meters":11200,"station_id":"ce4bh412rcd13ifvqdr0","pricing_plan_id":"cebpf4jnsgd1na2vs0mg"},{"bike_id":"a61a3505-681a-4fe1-a69c-a7338a5be1d2","system_id":"levelo_inurba_marseille","lat":43.25935,"lon":5.409,"is_reserved":false,"is_disabled":false,"rental_uris":{"android":"levelo://app?vid=a61a3505-681a-4fe1-a69c-a7338a5be1d2","ios":"levelo://app?vid=a61a3505-681a-4fe1-a69c-a7338a5be1d2"},"vehicle_type_id":"4","last_reported":1748589014,"current_range_meters":11600,"station_id":"ce4bhm92rcd13ifvqglg","pricing_plan_id":"cebpf4jnsgd1na2vs0mg"},{"bike_id":"f8744558-165a-4330-bada-23eebb8b5743","system_id":"levelo_inurba_marseille","lat":43.29307,"lon":5.37171,"is_reserved":false,"is_disabled":false,"rental_uris":{"android":"levelo://app?vid=f8744558-165a-4330-bada-23eebb8b5743","ios":"levelo://app?vid=f8744558-165a-4330-bada-23eebb8b5743"},"vehicle_type_id":"4","last_reported":1748589014,"current_range_meters":11600,"station_id":"ce4bgh92rcd13ifvqb40","pricing_plan_id":"cebpf4jnsgd1na2vs0mg"},{"bike_id":"c81bbe6e-138d-4fd7-ab74-b00b6263d429","system_id":"levelo_inurba_marseille","lat":43.28251,"lon":5.39007,"is_reserved":false,"is_disabled":false,"rental_uris":{"android":"levelo://app?vid=c81bbe6e-138d-4fd7-ab74-b00b6263d429","ios":"levelo://app?vid=c81bbe6e-138d-4fd7-ab74-b00b6263d429"},"vehicle_type_id":"4","last_reported":1748589014,"current_range_meters":11600,"station_id":"","pricing_plan_id":"cebpf4jnsgd1na2vs0mg"},{"bike_id":"eeaaba6b-0ce0-43ef-a3d9-c4275a8344eb","system_id":"levelo_inurba_marseille","lat":43.25723,"lon":5.41094,"is_reserved":false,"is_disabled":false,"rental_uris":{"android":"levelo://app?vid=eeaaba6b-0ce0-43ef-a3d9-c4275a8344eb","ios":"levelo://app?vid=eeaaba6b-0ce0-43ef-a3d9-c4275a8344eb"},"vehicle_type_id":"4","last_reported":1748589014,"current_range_meters":11600,"station_id":"ce4bhkp2rcd13ifvqgd0","pricing_plan_id":"cebpf4jnsgd1na2vs0mg"},{"bike_id":"3dd1b342-5d0a-4155-9da3-0dd9cd16e16e","system_id":"levelo_inurba_marseille","lat":43.22924,"lon":5.35403,"is_reserved":false,"is_disabled":false,"rental_uris":{"android":"levelo://app?vid=3dd1b342-5d0a-4155-9da3-0dd9cd16e16e","ios":"levelo://app?vid=3dd1b342-5d0a-4155-9da3-0dd9cd16e16e"},"vehicle_type_id":"4","last_reported":1748589014,"current_range_meters":12000,"station_id":"cpo3532slgdg3j2ikp40","pricing_plan_id":"cebpf4jnsgd1na2vs0mg"},{"bike_id":"af089470-6a36-404e-8c76-9c25012745b1","system_id":"levelo_inurba_marseille","lat":43.29788,"lon":5.37102,"is_reserved":false,"is_disabled":false,"rental_uris":{"android":"levelo://app?vid=af089470-6a36-404e-8c76-9c25012745b1","ios":"levelo://app?vid=af089470-6a36-404e-8c76-9c25012745b1"},"vehicle_type_id":"4","last_reported":1748589014,"current_range_meters":12000,"station_id":"ce4bgop2rcd13ifvqc1g","pricing_plan_id":"cebpf4jnsgd1na2vs0mg"},{"bike_id":"94d74484-c00f-4773-98b4-43f5ef9035c3","system_id":"levelo_inurba_marseille","lat":43.26177,"lon":5.40415,"is_reserved":false,"is_disabled":false,"rental_uris":{"android":"levelo://app?vid=94d74484-c00f-4773-98b4-43f5ef9035c3","ios":"levelo://app?vid=94d74484-c00f-4773-98b4-43f5ef9035c3"},"vehicle_type_id":"4","last_reported":1748589014,"current_range_meters":12000,"station_id":"ce4bhmh2rcd13ifvqgmg","pricing_plan_id":"cebpf4jnsgd1na2vs0mg"},{"bike_id":"abb8e33b-e663-4a8b-88d2-b0e186bde40e","system_id":"levelo_inurba_marseille","lat":43.25935,"lon":5.40905,"is_reserved":false,"is_disabled":false,"rental_uris":{"android":"levelo://app?vid=abb8e33b-e663-4a8b-88d2-b0e186bde40e","ios":"levelo://app?vid=abb8e33b-e663-4a8b-88d2-b0e186bde40e"},"vehicle_type_id":"4","last_reported":1748589014,"current_range_meters":12000,"station_id":"ce4bhm92rcd13ifvqglg","pricing_plan_id":"cebpf4jnsgd1na2vs0mg"},{"bike_id":"3f133001-de67-4a16-ba1a-1751190238ae","system_id":"levelo_inurba_marseille","lat":43.28452,"lon":5.375618,"is_reserved":false,"is_disabled":false,"rental_uris":{"android":"levelo://app?vid=3f133001-de67-4a16-ba1a-1751190238ae","ios":"levelo://app?vid=3f133001-de67-4a16-ba1a-1751190238ae"},"vehicle_type_id":"4","last_reported":1748589014,"current_range_meters":12000,"station_id":"ce4bh412rcd13ifvqds0","pricing_plan_id":"cebpf4jnsgd1na2vs0mg"},{"bike_id":"ff392818-f13b-4ef0-b2ad-6e7155767c9d","system_id":"levelo_inurba_marseille","lat":43.33728,"lon":5.39185,"is_reserved":false,"is_disabled":false,"rental_uris":{"android":"levelo://app?vid=ff392818-f13b-4ef0-b2ad-6e7155767c9d","ios":"levelo://app?vid=ff392818-f13b-4ef0-b2ad-6e7155767c9d"},"vehicle_type_id":"4","last_reported":1748589014,"current_range_meters":12000,"station_id":"ce4bhr92rcd13ifvqhsg","pricing_plan_id":"cebpf4jnsgd1na2vs0mg"},{"bike_id":"8abd4006-6501-4ca3-b874-5737bba2f16b","system_id":"levelo_inurba_marseille","lat":43.25497,"lon":5.37649,"is_reserved":false,"is_disabled":false,"rental_uris":{"android":"levelo://app?vid=8abd4006-6501-4ca3-b874-5737bba2f16b","ios":"levelo://app?vid=8abd4006-6501-4ca3-b874-5737bba2f16b"},"vehicle_type_id":"4","last_reported":1748589014,"current_range_meters":11600,"station_id":"ce4bhh12rcd13ifvqff0","pricing_plan_id":"cebpf4jnsgd1na2vs0mg"},{"bike_id":"7d4ba91c-7a7a-4535-9018-7a0082a8e326","system_id":"levelo_inurba_marseille","lat":43.27939,"lon":5.41045,"is_reserved":false,"is_disabled":false,"rental_uris":{"android":"levelo://app?vid=7d4ba91c-7a7a-4535-9018-7a0082a8e326","ios":"levelo://app?vid=7d4ba91c-7a7a-4535-9018-7a0082a8e326"},"vehicle_type_id":"4","last_reported":1748589014,"current_range_meters":12400,"station_id":"ce4bhnp2rcd13ifvqh0g","pricing_plan_id":"cebpf4jnsgd1na2vs0mg"},{"bike_id":"24fa3015-2be2-4b42-9e9f-dbfb367d125b","system_id":"levelo_inurba_marseille","lat":43.21727,"lon":5.3459,"is_reserved":false,"is_disabled":false,"rental_uris":{"android":"levelo://app?vid=24fa3015-2be2-4b42-9e9f-dbfb367d125b","ios":"levelo://app?vid=24fa3015-2be2-4b42-9e9f-dbfb367d125b"},"vehicle_type_id":"4","last_reported":1748589014,"current_range_meters":12400,"station_id":"st_cvj6r9ubvosntc0bgbag","pricing_plan_id":"cebpf4jnsgd1na2vs0mg"},{"bike_id":"7d5ccf32-a06c-497f-987c-d0b0b04cb5ae","system_id":"levelo_inurba_marseille","lat":43.3233,"lon":5.4062,"is_reserved":false,"is_disabled":false,"rental_uris":{"android":"levelo://app?vid=7d5ccf32-a06c-497f-987c-d0b0b04cb5ae","ios":"levelo://app?vid=7d5ccf32-a06c-497f-987c-d0b0b04cb5ae"},"vehicle_type_id":"4","last_reported":1748589014,"current_range_meters":12400,"station_id":"ce4bhq92rcd13ifvqhjg","pricing_plan_id":"cebpf4jnsgd1na2vs0mg"},{"bike_id":"6d9461e9-afcf-430b-8179-bb7d54f00db5","system_id":"levelo_inurba_marseille","lat":43.31449,"lon":5.37239,"is_reserved":false,"is_disabled":false,"rental_uris":{"android":"levelo://app?vid=6d9461e9-afcf-430b-8179-bb7d54f00db5","ios":"levelo://app?vid=6d9461e9-afcf-430b-8179-bb7d54f00db5"},"vehicle_type_id":"4","last_reported":1748589014,"current_range_meters":12400,"station_id":"ce4bgt12rcd13ifvqcd0","pricing_plan_id":"cebpf4jnsgd1na2vs0mg"},{"bike_id":"a8d4273b-613f-442b-bea9-7c462c2c1bbc","system_id":"levelo_inurba_marseille","lat":43.26241,"lon":5.40464,"is_reserved":false,"is_disabled":false,"rental_uris":{"android":"levelo://app?vid=a8d4273b-613f-442b-bea9-7c462c2c1bbc","ios":"levelo://app?vid=a8d4273b-613f-442b-bea9-7c462c2c1bbc"},"vehicle_type_id":"4","last_reported":1748589014,"current_range_meters":12400,"station_id":"ce4bhmh2rcd13ifvqgmg","pricing_plan_id":"cebpf4jnsgd1na2vs0mg"},{"bike_id":"c9b16b3f-d77e-4adf-8c10-65c6e295aa7d","system_id":"levelo_inurba_marseille","lat":43.27976,"lon":5.38713,"is_reserved":false,"is_disabled":false,"rental_uris":{"android":"levelo://app?vid=c9b16b3f-d77e-4adf-8c10-65c6e295aa7d","ios":"levelo://app?vid=c9b16b3f-d77e-4adf-8c10-65c6e295aa7d"},"vehicle_type_id":"4","last_reported":1748589014,"current_range_meters":12800,"station_id":"ce4bhg12rcd13ifvqf80","pricing_plan_id":"cebpf4jnsgd1na2vs0mg"},{"bike_id":"7243d7c8-02f5-4392-89cf-8c360e846d55","system_id":"levelo_inurba_marseille","lat":43.25261,"lon":5.37861,"is_reserved":false,"is_disabled":false,"rental_uris":{"android":"levelo://app?vid=7243d7c8-02f5-4392-89cf-8c360e846d55","ios":"levelo://app?vid=7243d7c8-02f5-4392-89cf-8c360e846d55"},"vehicle_type_id":"4","last_reported":1748589014,"current_range_meters":12800,"station_id":"","pricing_plan_id":"cebpf4jnsgd1na2vs0mg"},{"bike_id":"d041ba9b-b157-420b-92de-857f860b4947","system_id":"levelo_inurba_marseille","lat":43.28222,"lon":5.39079,"is_reserved":false,"is_disabled":false,"rental_uris":{"android":"levelo://app?vid=d041ba9b-b157-420b-92de-857f860b4947","ios":"levelo://app?vid=d041ba9b-b157-420b-92de-857f860b4947"},"vehicle_type_id":"4","last_reported":1748589014,"current_range_meters":12800,"station_id":"","pricing_plan_id":"cebpf4jnsgd1na2vs0mg"},{"bike_id":"74216813-b80c-448c-94e9-15ad199d99a4","system_id":"levelo_inurba_marseille","lat":43.2755,"lon":5.38432,"is_reserved":false,"is_disabled":false,"rental_uris":{"android":"levelo://app?vid=74216813-b80c-448c-94e9-15ad199d99a4","ios":"levelo://app?vid=74216813-b80c-448c-94e9-15ad199d99a4"},"vehicle_type_id":"4","last_reported":1748589014,"current_range_meters":12400,"station_id":"ce4bhh92rcd13ifvqfi0","pricing_plan_id":"cebpf4jnsgd1na2vs0mg"},{"bike_id":"171af1d5-209b-45f5-8e5c-a795eb850765","system_id":"levelo_inurba_marseille","lat":43.255,"lon":5.37648,"is_reserved":false,"is_disabled":false,"rental_uris":{"android":"levelo://app?vid=171af1d5-209b-45f5-8e5c-a795eb850765","ios":"levelo://app?vid=171af1d5-209b-45f5-8e5c-a795eb850765"},"vehicle_type_id":"4","last_reported":1748589014,"current_range_meters":12400,"station_id":"ce4bhh12rcd13ifvqff0","pricing_plan_id":"cebpf4jnsgd1na2vs0mg"},{"bike_id":"9ea654fd-9c6b-45ea-9771-15bf83e7f507","system_id":"levelo_inurba_marseille","lat":43.269138,"lon":5.402983,"is_reserved":false,"is_disabled":false,"rental_uris":{"android":"levelo://app?vid=9ea654fd-9c6b-45ea-9771-15bf83e7f507","ios":"levelo://app?vid=9ea654fd-9c6b-45ea-9771-15bf83e7f507"},"vehicle_type_id":"4","last_reported":1748589014,"current_range_meters":12800,"station_id":"cjm6bp8fraef2m0cb0m0","pricing_plan_id":"cebpf4jnsgd1na2vs0mg"},{"bike_id":"990df701-79a7-41ec-b963-3693dc590a87","system_id":"levelo_inurba_marseille","lat":43.30175,"lon":5.37909,"is_reserved":false,"is_disabled":false,"rental_uris":{"android":"levelo://app?vid=990df701-79a7-41ec-b963-3693dc590a87","ios":"levelo://app?vid=990df701-79a7-41ec-b963-3693dc590a87"},"vehicle_type_id":"4","last_reported":1748589014,"current_range_meters":12800,"station_id":"","pricing_plan_id":"cebpf4jnsgd1na2vs0mg"},{"bike_id":"55ec6299-b4d1-47ca-b040-43c90bc9c9b4","system_id":"levelo_inurba_marseille","lat":43.32669,"lon":5.40984,"is_reserved":false,"is_disabled":false,"rental_uris":{"android":"levelo://app?vid=55ec6299-b4d1-47ca-b040-43c90bc9c9b4","ios":"levelo://app?vid=55ec6299-b4d1-47ca-b040-43c90bc9c9b4"},"vehicle_type_id":"4","last_reported":1748589014,"current_range_meters":13600,"station_id":"ce4bhpp2rcd13ifvqhgg","pricing_plan_id":"cebpf4jnsgd1na2vs0mg"},{"bike_id":"9afff74f-25c0-4cce-8476-3dd3e572dd8c","system_id":"levelo_inurba_marseille","lat":43.24082,"lon":5.37755,"is_reserved":false,"is_disabled":false,"rental_uris":{"android":"levelo://app?vid=9afff74f-25c0-4cce-8476-3dd3e572dd8c","ios":"levelo://app?vid=9afff74f-25c0-4cce-8476-3dd3e572dd8c"},"vehicle_type_id":"4","last_reported":1748589014,"current_range_meters":13600,"station_id":"ce4bhnp2rcd13ifvqgvg","pricing_plan_id":"cebpf4jnsgd1na2vs0mg"},{"bike_id":"71ea6fe0-b43c-461e-9136-c17f3fbf09ca","system_id":"levelo_inurba_marseille","lat":43.30172,"lon":5.36609,"is_reserved":false,"is_disabled":false,"rental_uris":{"android":"levelo://app?vid=71ea6fe0-b43c-461e-9136-c17f3fbf09ca","ios":"levelo://app?vid=71ea6fe0-b43c-461e-9136-c17f3fbf09ca"},"vehicle_type_id":"4","last_reported":1748589014,"current_range_meters":13600,"station_id":"ce4bgrh2rcd13ifvqc8g","pricing_plan_id":"cebpf4jnsgd1na2vs0mg"},{"bike_id":"cd85ece0-e2f3-4caa-bbf2-457082671004","system_id":"levelo_inurba_marseille","lat":43.240487,"lon":5.367497,"is_reserved":false,"is_disabled":true,"rental_uris":{"android":"levelo://app?vid=cd85ece0-e2f3-4caa-bbf2-457082671004","ios":"levelo://app?vid=cd85ece0-e2f3-4caa-bbf2-457082671004"},"vehicle_type_id":"4","last_reported":1748589014,"current_range_meters":13600,"station_id":"","pricing_plan_id":"cebpf4jnsgd1na2vs0mg"},{"bike_id":"81929695-c996-4344-b136-61f971835187","system_id":"levelo_inurba_marseille","lat":43.26208,"lon":5.37446,"is_reserved":false,"is_disabled":false,"rental_uris":{"android":"levelo://app?vid=81929695-c996-4344-b136-61f971835187","ios":"levelo://app?vid=81929695-c996-4344-b136-61f971835187"},"vehicle_type_id":"4","last_reported":1748589014,"current_range_meters":13600,"station_id":"ce4bhgp2rcd13ifvqfc0","pricing_plan_id":"cebpf4jnsgd1na2vs0mg"},{"bike_id":"e364f561-dbf3-48de-bd07-d7db9d617e86","system_id":"levelo_inurba_marseille","lat":43.29548,"lon":5.42289,"is_reserved":false,"is_disabled":false,"rental_uris":{"android":"levelo://app?vid=e364f561-dbf3-48de-bd07-d7db9d617e86","ios":"levelo://app?vid=e364f561-dbf3-48de-bd07-d7db9d617e86"},"vehicle_type_id":"4","last_reported":1748589014,"current_range_meters":12800,"station_id":"ce4bhph2rcd13ifvqhdg","pricing_plan_id":"cebpf4jnsgd1na2vs0mg"},{"bike_id":"b7becf5a-3dd5-4316-87d5-0910956d3c8c","system_id":"levelo_inurba_marseille","lat":43.28939,"lon":5.39625,"is_reserved":false,"is_disabled":false,"rental_uris":{"android":"levelo://app?vid=b7becf5a-3dd5-4316-87d5-0910956d3c8c","ios":"levelo://app?vid=b7becf5a-3dd5-4316-87d5-0910956d3c8c"},"vehicle_type_id":"4","last_reported":1748589014,"current_range_meters":13600,"station_id":"ce4bh3h2rcd13ifvqdn0","pricing_plan_id":"cebpf4jnsgd1na2vs0mg"},{"bike_id":"69362ca8-aad5-4f84-99b8-c7328973ac4f","system_id":"levelo_inurba_marseille","lat":43.23142,"lon":5.43734,"is_reserved":false,"is_disabled":true,"rental_uris":{"android":"levelo://app?vid=69362ca8-aad5-4f84-99b8-c7328973ac4f","ios":"levelo://app?vid=69362ca8-aad5-4f84-99b8-c7328973ac4f"},"vehicle_type_id":"4","last_reported":1748589014,"current_range_meters":13600,"station_id":"ce4bhmp2rcd13ifvqgog","pricing_plan_id":"cebpf4jnsgd1na2vs0mg"},{"bike_id":"0bdee142-1fda-4a23-9616-8b7744765971","system_id":"levelo_inurba_marseille","lat":43.24647,"lon":5.38195,"is_reserved":false,"is_disabled":true,"rental_uris":{"android":"levelo://app?vid=0bdee142-1fda-4a23-9616-8b7744765971","ios":"levelo://app?vid=0bdee142-1fda-4a23-9616-8b7744765971"},"vehicle_type_id":"4","last_reported":1748589014,"current_range_meters":14000,"station_id":"ce4bhih2rcd13ifvqfr0","pricing_plan_id":"cebpf4jnsgd1na2vs0mg"},{"bike_id":"e9c75eff-63de-4ef0-a634-1da4ed1cbb2f","system_id":"levelo_inurba_marseille","lat":43.31076,"lon":5.42436,"is_reserved":false,"is_disabled":true,"rental_uris":{"android":"levelo://app?vid=e9c75eff-63de-4ef0-a634-1da4ed1cbb2f","ios":"levelo://app?vid=e9c75eff-63de-4ef0-a634-1da4ed1cbb2f"},"vehicle_type_id":"4","last_reported":1748589014,"current_range_meters":14000,"station_id":"ce4bhp92rcd13ifvqhag","pricing_plan_id":"cebpf4jnsgd1na2vs0mg"},{"bike_id":"854c0867-77a6-4b6e-8a7f-2ec3cfed8fdb","system_id":"levelo_inurba_marseille","lat":43.25939,"lon":5.409,"is_reserved":false,"is_disabled":false,"rental_uris":{"android":"levelo://app?vid=854c0867-77a6-4b6e-8a7f-2ec3cfed8fdb","ios":"levelo://app?vid=854c0867-77a6-4b6e-8a7f-2ec3cfed8fdb"},"vehicle_type_id":"4","last_reported":1748589014,"current_range_meters":14000,"station_id":"ce4bhm92rcd13ifvqglg","pricing_plan_id":"cebpf4jnsgd1na2vs0mg"},{"bike_id":"8a17b903-cbef-4ca1-985e-91f7861d3ad0","system_id":"levelo_inurba_marseille","lat":43.241711,"lon":5.36406,"is_reserved":false,"is_disabled":true,"rental_uris":{"android":"levelo://app?vid=8a17b903-cbef-4ca1-985e-91f7861d3ad0","ios":"levelo://app?vid=8a17b903-cbef-4ca1-985e-91f7861d3ad0"},"vehicle_type_id":"4","last_reported":1748589014,"current_range_meters":14000,"station_id":"cpo36qri1sfpv3e86is0","pricing_plan_id":"cebpf4jnsgd1na2vs0mg"},{"bike_id":"f21443a5-1d88-408f-84dd-a064312caefb","system_id":"levelo_inurba_marseille","lat":43.31168,"lon":5.38719,"is_reserved":false,"is_disabled":false,"rental_uris":{"android":"levelo://app?vid=f21443a5-1d88-408f-84dd-a064312caefb","ios":"levelo://app?vid=f21443a5-1d88-408f-84dd-a064312caefb"},"vehicle_type_id":"4","last_reported":1748589014,"current_range_meters":14000,"station_id":"ce4bgv12rcd13ifvqcp0","pricing_plan_id":"cebpf4jnsgd1na2vs0mg"},{"bike_id":"eef3edab-c7bc-4626-8a57-2353989bd7cc","system_id":"levelo_inurba_marseille","lat":43.24076,"lon":5.37754,"is_reserved":false,"is_disabled":true,"rental_uris":{"android":"levelo://app?vid=eef3edab-c7bc-4626-8a57-2353989bd7cc","ios":"levelo://app?vid=eef3edab-c7bc-4626-8a57-2353989bd7cc"},"vehicle_type_id":"4","last_reported":1748589014,"current_range_meters":14000,"station_id":"ce4bhnp2rcd13ifvqgvg","pricing_plan_id":"cebpf4jnsgd1na2vs0mg"},{"bike_id":"2236b6c0-f763-40f5-8e40-14b379518f91","system_id":"levelo_inurba_marseille","lat":43.24614,"lon":5.39298,"is_reserved":false,"is_disabled":false,"rental_uris":{"android":"levelo://app?vid=2236b6c0-f763-40f5-8e40-14b379518f91","ios":"levelo://app?vid=2236b6c0-f763-40f5-8e40-14b379518f91"},"vehicle_type_id":"4","last_reported":1748589014,"current_range_meters":14000,"station_id":"","pricing_plan_id":"cebpf4jnsgd1na2vs0mg"},{"bike_id":"03147d4d-197a-411a-894a-eb9480326a00","system_id":"levelo_inurba_marseille","lat":43.30284,"lon":5.37699,"is_reserved":false,"is_disabled":false,"rental_uris":{"android":"levelo://app?vid=03147d4d-197a-411a-894a-eb9480326a00","ios":"levelo://app?vid=03147d4d-197a-411a-894a-eb9480326a00"},"vehicle_type_id":"4","last_reported":1748589014,"current_range_meters":14000,"station_id":"ce4bguh2rcd13ifvqcj0","pricing_plan_id":"cebpf4jnsgd1na2vs0mg"},{"bike_id":"9fe1e697-36ec-421f-b0be-031c2f5ed7f3","system_id":"levelo_inurba_marseille","lat":43.3377,"lon":5.3743,"is_reserved":false,"is_disabled":false,"rental_uris":{"android":"levelo://app?vid=9fe1e697-36ec-421f-b0be-031c2f5ed7f3","ios":"levelo://app?vid=9fe1e697-36ec-421f-b0be-031c2f5ed7f3"},"vehicle_type_id":"4","last_reported":1748589014,"current_range_meters":14400,"station_id":"","pricing_plan_id":"cebpf4jnsgd1na2vs0mg"},{"bike_id":"2be6f613-1d2e-4314-b7c8-a27f95203c5e","system_id":"levelo_inurba_marseille","lat":43.279694,"lon":5.387077,"is_reserved":false,"is_disabled":false,"rental_uris":{"android":"levelo://app?vid=2be6f613-1d2e-4314-b7c8-a27f95203c5e","ios":"levelo://app?vid=2be6f613-1d2e-4314-b7c8-a27f95203c5e"},"vehicle_type_id":"4","last_reported":1748589014,"current_range_meters":14400,"station_id":"ce4bhg12rcd13ifvqf80","pricing_plan_id":"cebpf4jnsgd1na2vs0mg"},{"bike_id":"8bd00094-cb2c-497d-bb39-293e2c9ab21d","system_id":"levelo_inurba_marseille","lat":43.31493,"lon":5.37311,"is_reserved":false,"is_disabled":false,"rental_uris":{"android":"levelo://app?vid=8bd00094-cb2c-497d-bb39-293e2c9ab21d","ios":"levelo://app?vid=8bd00094-cb2c-497d-bb39-293e2c9ab21d"},"vehicle_type_id":"4","last_reported":1748589014,"current_range_meters":14000,"station_id":"ce4bgt12rcd13ifvqcd0","pricing_plan_id":"cebpf4jnsgd1na2vs0mg"},{"bike_id":"8fed41b2-9d6b-4474-8486-624fae52b6a2","system_id":"levelo_inurba_marseille","lat":43.27934,"lon":5.41039,"is_reserved":false,"is_disabled":true,"rental_uris":{"android":"levelo://app?vid=8fed41b2-9d6b-4474-8486-624fae52b6a2","ios":"levelo://app?vid=8fed41b2-9d6b-4474-8486-624fae52b6a2"},"vehicle_type_id":"4","last_reported":1748589014,"current_range_meters":14400,"station_id":"ce4bhnp2rcd13ifvqh0g","pricing_plan_id":"cebpf4jnsgd1na2vs0mg"},{"bike_id":"0fbfc8d7-51f2-48ba-bf46-e03726ce033d","system_id":"levelo_inurba_marseille","lat":43.24673,"lon":5.38134,"is_reserved":false,"is_disabled":false,"rental_uris":{"android":"levelo://app?vid=0fbfc8d7-51f2-48ba-bf46-e03726ce033d","ios":"levelo://app?vid=0fbfc8d7-51f2-48ba-bf46-e03726ce033d"},"vehicle_type_id":"4","last_reported":1748589014,"current_range_meters":14400,"station_id":"ce4bhih2rcd13ifvqfr0","pricing_plan_id":"cebpf4jnsgd1na2vs0mg"},{"bike_id":"ec99f384-d898-41dd-b58c-5d977d5ab448","system_id":"levelo_inurba_marseille","lat":43.274379,"lon":5.361437,"is_reserved":false,"is_disabled":false,"rental_uris":{"android":"levelo://app?vid=ec99f384-d898-41dd-b58c-5d977d5ab448","ios":"levelo://app?vid=ec99f384-d898-41dd-b58c-5d977d5ab448"},"vehicle_type_id":"4","last_reported":1748589014,"current_range_meters":14400,"station_id":"ce4bh692rcd13ifvqea0","pricing_plan_id":"cebpf4jnsgd1na2vs0mg"},{"bike_id":"f21d068f-9497-455a-a686-64452537b900","system_id":"levelo_inurba_marseille","lat":43.29284,"lon":5.36847,"is_reserved":false,"is_disabled":false,"rental_uris":{"android":"levelo://app?vid=f21d068f-9497-455a-a686-64452537b900","ios":"levelo://app?vid=f21d068f-9497-455a-a686-64452537b900"},"vehicle_type_id":"4","last_reported":1748589014,"current_range_meters":14400,"station_id":"ce4bhbp2rcd13ifvqesg","pricing_plan_id":"cebpf4jnsgd1na2vs0mg"},{"bike_id":"3152ea03-3504-4dd9-abdc-aca994e3e562","system_id":"levelo_inurba_marseille","lat":43.30891,"lon":5.39658,"is_reserved":false,"is_disabled":false,"rental_uris":{"android":"levelo://app?vid=3152ea03-3504-4dd9-abdc-aca994e3e562","ios":"levelo://app?vid=3152ea03-3504-4dd9-abdc-aca994e3e562"},"vehicle_type_id":"4","last_reported":1748589014,"current_range_meters":14400,"station_id":"ce4bh012rcd13ifvqcv0","pricing_plan_id":"cebpf4jnsgd1na2vs0mg"},{"bike_id":"9578bbef-2818-4347-8570-60c62d6a33c6","system_id":"levelo_inurba_marseille","lat":43.313291,"lon":5.396855,"is_reserved":false,"is_disabled":false,"rental_uris":{"android":"levelo://app?vid=9578bbef-2818-4347-8570-60c62d6a33c6","ios":"levelo://app?vid=9578bbef-2818-4347-8570-60c62d6a33c6"},"vehicle_type_id":"4","last_reported":1748589014,"current_range_meters":14400,"station_id":"","pricing_plan_id":"cebpf4jnsgd1na2vs0mg"},{"bike_id":"cecccb03-d5e1-44f8-9176-a22550f751c7","system_id":"levelo_inurba_marseille","lat":43.32537,"lon":5.41437,"is_reserved":false,"is_disabled":false,"rental_uris":{"android":"levelo://app?vid=cecccb03-d5e1-44f8-9176-a22550f751c7","ios":"levelo://app?vid=cecccb03-d5e1-44f8-9176-a22550f751c7"},"vehicle_type_id":"4","last_reported":1748589014,"current_range_meters":14800,"station_id":"ce4bhq12rcd13ifvqhhg","pricing_plan_id":"cebpf4jnsgd1na2vs0mg"},{"bike_id":"5848315d-2663-4c32-b1c1-df322fbd8d99","system_id":"levelo_inurba_marseille","lat":43.30907,"lon":5.36848,"is_reserved":false,"is_disabled":false,"rental_uris":{"android":"levelo://app?vid=5848315d-2663-4c32-b1c1-df322fbd8d99","ios":"levelo://app?vid=5848315d-2663-4c32-b1c1-df322fbd8d99"},"vehicle_type_id":"4","last_reported":1748589014,"current_range_meters":14800,"station_id":"ce4bgn92rcd13ifvqbvg","pricing_plan_id":"cebpf4jnsgd1na2vs0mg"},{"bike_id":"e8df6e55-a561-4b7a-912e-d9ea01a18adc","system_id":"levelo_inurba_marseille","lat":43.292794,"lon":5.40119,"is_reserved":false,"is_disabled":false,"rental_uris":{"android":"levelo://app?vid=e8df6e55-a561-4b7a-912e-d9ea01a18adc","ios":"levelo://app?vid=e8df6e55-a561-4b7a-912e-d9ea01a18adc"},"vehicle_type_id":"4","last_reported":1748589014,"current_range_meters":14800,"station_id":"ce4bh312rcd13ifvqdk0","pricing_plan_id":"cebpf4jnsgd1na2vs0mg"},{"bike_id":"7772ee7a-25f5-4bc7-a3bc-e28a5309d741","system_id":"levelo_inurba_marseille","lat":43.30374,"lon":5.42491,"is_reserved":false,"is_disabled":true,"rental_uris":{"android":"levelo://app?vid=7772ee7a-25f5-4bc7-a3bc-e28a5309d741","ios":"levelo://app?vid=7772ee7a-25f5-4bc7-a3bc-e28a5309d741"},"vehicle_type_id":"4","last_reported":1748589014,"current_range_meters":14800,"station_id":"ce4bhoh2rcd13ifvqh6g","pricing_plan_id":"cebpf4jnsgd1na2vs0mg"},{"bike_id":"00779107-410c-4955-a69f-bca552dd6244","system_id":"levelo_inurba_marseille","lat":43.2927,"lon":5.4012,"is_reserved":false,"is_disabled":false,"rental_uris":{"android":"levelo://app?vid=00779107-410c-4955-a69f-bca552dd6244","ios":"levelo://app?vid=00779107-410c-4955-a69f-bca552dd6244"},"vehicle_type_id":"4","last_reported":1748589014,"current_range_meters":15200,"station_id":"ce4bh312rcd13ifvqdk0","pricing_plan_id":"cebpf4jnsgd1na2vs0mg"},{"bike_id":"89e404f1-10af-4c5c-91c1-5e611e35506a","system_id":"levelo_inurba_marseille","lat":43.23192,"lon":5.35551,"is_reserved":false,"is_disabled":false,"rental_uris":{"android":"levelo://app?vid=89e404f1-10af-4c5c-91c1-5e611e35506a","ios":"levelo://app?vid=89e404f1-10af-4c5c-91c1-5e611e35506a"},"vehicle_type_id":"4","last_reported":1748589014,"current_range_meters":15200,"station_id":"ce4bhu92rcd13ifvqi70","pricing_plan_id":"cebpf4jnsgd1na2vs0mg"},{"bike_id":"8c450b5e-8739-49c1-8e14-f806ba68a7cf","system_id":"levelo_inurba_marseille","lat":43.28934,"lon":5.3964,"is_reserved":false,"is_disabled":false,"rental_uris":{"android":"levelo://app?vid=8c450b5e-8739-49c1-8e14-f806ba68a7cf","ios":"levelo://app?vid=8c450b5e-8739-49c1-8e14-f806ba68a7cf"},"vehicle_type_id":"4","last_reported":1748589014,"current_range_meters":14800,"station_id":"ce4bh3h2rcd13ifvqdn0","pricing_plan_id":"cebpf4jnsgd1na2vs0mg"},{"bike_id":"b18036e4-cdbb-441f-a4f1-99c9cdbece34","system_id":"levelo_inurba_marseille","lat":43.29461,"lon":5.39055,"is_reserved":false,"is_disabled":false,"rental_uris":{"android":"levelo://app?vid=b18036e4-cdbb-441f-a4f1-99c9cdbece34","ios":"levelo://app?vid=b18036e4-cdbb-441f-a4f1-99c9cdbece34"},"vehicle_type_id":"4","last_reported":1748589014,"current_range_meters":15200,"station_id":"","pricing_plan_id":"cebpf4jnsgd1na2vs0mg"},{"bike_id":"e4862250-78de-4055-9c6f-c9062be06a69","system_id":"levelo_inurba_marseille","lat":43.27914,"lon":5.39588,"is_reserved":false,"is_disabled":false,"rental_uris":{"android":"levelo://app?vid=e4862250-78de-4055-9c6f-c9062be06a69","ios":"levelo://app?vid=e4862250-78de-4055-9c6f-c9062be06a69"},"vehicle_type_id":"4","last_reported":1748589014,"current_range_meters":16000,"station_id":"ce4bhf92rcd13ifvqf40","pricing_plan_id":"cebpf4jnsgd1na2vs0mg"},{"bike_id":"950a66c6-0112-4714-a007-202e42172c1f","system_id":"levelo_inurba_marseille","lat":43.24828,"lon":5.37445,"is_reserved":false,"is_disabled":false,"rental_uris":{"android":"levelo://app?vid=950a66c6-0112-4714-a007-202e42172c1f","ios":"levelo://app?vid=950a66c6-0112-4714-a007-202e42172c1f"},"vehicle_type_id":"4","last_reported":1748589014,"current_range_meters":16000,"station_id":"ce4bhgh2rcd13ifvqfb0","pricing_plan_id":"cebpf4jnsgd1na2vs0mg"},{"bike_id":"fb88c993-5093-4069-83e3-cd29b76bf30c","system_id":"levelo_inurba_marseille","lat":43.31162,"lon":5.38722,"is_reserved":false,"is_disabled":false,"rental_uris":{"android":"levelo://app?vid=fb88c993-5093-4069-83e3-cd29b76bf30c","ios":"levelo://app?vid=fb88c993-5093-4069-83e3-cd29b76bf30c"},"vehicle_type_id":"4","last_reported":1748589014,"current_range_meters":15200,"station_id":"ce4bgv12rcd13ifvqcp0","pricing_plan_id":"cebpf4jnsgd1na2vs0mg"},{"bike_id":"bf9ada33-fac3-4c6c-a22e-d3b48e785518","system_id":"levelo_inurba_marseille","lat":43.28025,"lon":5.40897,"is_reserved":false,"is_disabled":false,"rental_uris":{"android":"levelo://app?vid=bf9ada33-fac3-4c6c-a22e-d3b48e785518","ios":"levelo://app?vid=bf9ada33-fac3-4c6c-a22e-d3b48e785518"},"vehicle_type_id":"4","last_reported":1748589014,"current_range_meters":16000,"station_id":"","pricing_plan_id":"cebpf4jnsgd1na2vs0mg"},{"bike_id":"67a6560c-83dc-490e-9fc7-f17e3d931afd","system_id":"levelo_inurba_marseille","lat":43.24161,"lon":5.36403,"is_reserved":false,"is_disabled":false,"rental_uris":{"android":"levelo://app?vid=67a6560c-83dc-490e-9fc7-f17e3d931afd","ios":"levelo://app?vid=67a6560c-83dc-490e-9fc7-f17e3d931afd"},"vehicle_type_id":"4","last_reported":1748589014,"current_range_meters":16000,"station_id":"cpo36qri1sfpv3e86is0","pricing_plan_id":"cebpf4jnsgd1na2vs0mg"},{"bike_id":"c6edeaa8-286a-4072-9db4-ae3a11de5279","system_id":"levelo_inurba_marseille","lat":43.26937,"lon":5.40264,"is_reserved":false,"is_disabled":false,"rental_uris":{"android":"levelo://app?vid=c6edeaa8-286a-4072-9db4-ae3a11de5279","ios":"levelo://app?vid=c6edeaa8-286a-4072-9db4-ae3a11de5279"},"vehicle_type_id":"4","last_reported":1748589014,"current_range_meters":16000,"station_id":"cjm6bp8fraef2m0cb0m0","pricing_plan_id":"cebpf4jnsgd1na2vs0mg"},{"bike_id":"3cfcd708-bb66-4827-988c-59ab1f9ea42d","system_id":"levelo_inurba_marseille","lat":43.26223,"lon":5.4046,"is_reserved":false,"is_disabled":false,"rental_uris":{"android":"levelo://app?vid=3cfcd708-bb66-4827-988c-59ab1f9ea42d","ios":"levelo://app?vid=3cfcd708-bb66-4827-988c-59ab1f9ea42d"},"vehicle_type_id":"4","last_reported":1748589014,"current_range_meters":16000,"station_id":"ce4bhmh2rcd13ifvqgmg","pricing_plan_id":"cebpf4jnsgd1na2vs0mg"},{"bike_id":"d6d1ada7-d095-4848-a9c7-71d520f6d868","system_id":"levelo_inurba_marseille","lat":43.299666,"lon":5.384894,"is_reserved":false,"is_disabled":false,"rental_uris":{"android":"levelo://app?vid=d6d1ada7-d095-4848-a9c7-71d520f6d868","ios":"levelo://app?vid=d6d1ada7-d095-4848-a9c7-71d520f6d868"},"vehicle_type_id":"4","last_reported":1748589014,"current_range_meters":16000,"station_id":"","pricing_plan_id":"cebpf4jnsgd1na2vs0mg"},{"bike_id":"2ae5c80d-6d51-4f70-812f-e0a1e2771194","system_id":"levelo_inurba_marseille","lat":43.27912,"lon":5.39575,"is_reserved":false,"is_disabled":false,"rental_uris":{"android":"levelo://app?vid=2ae5c80d-6d51-4f70-812f-e0a1e2771194","ios":"levelo://app?vid=2ae5c80d-6d51-4f70-812f-e0a1e2771194"},"vehicle_type_id":"4","last_reported":1748589014,"current_range_meters":16000,"station_id":"ce4bhf92rcd13ifvqf40","pricing_plan_id":"cebpf4jnsgd1na2vs0mg"},{"bike_id":"14960bf0-5194-4f14-bef0-766957d27bb3","system_id":"levelo_inurba_marseille","lat":43.29269,"lon":5.40147,"is_reserved":false,"is_disabled":false,"rental_uris":{"android":"levelo://app?vid=14960bf0-5194-4f14-bef0-766957d27bb3","ios":"levelo://app?vid=14960bf0-5194-4f14-bef0-766957d27bb3"},"vehicle_type_id":"4","last_reported":1748589014,"current_range_meters":16000,"station_id":"ce4bh312rcd13ifvqdk0","pricing_plan_id":"cebpf4jnsgd1na2vs0mg"},{"bike_id":"dd34afa2-f665-4263-85a8-7de7dbd3a196","system_id":"levelo_inurba_marseille","lat":43.27601,"lon":5.39694,"is_reserved":false,"is_disabled":false,"rental_uris":{"android":"levelo://app?vid=dd34afa2-f665-4263-85a8-7de7dbd3a196","ios":"levelo://app?vid=dd34afa2-f665-4263-85a8-7de7dbd3a196"},"vehicle_type_id":"4","last_reported":1748589014,"current_range_meters":16000,"station_id":"","pricing_plan_id":"cebpf4jnsgd1na2vs0mg"},{"bike_id":"aa06a186-a5ae-4dd5-a938-3e5c2030375b","system_id":"levelo_inurba_marseille","lat":43.28943,"lon":5.39629,"is_reserved":false,"is_disabled":false,"rental_uris":{"android":"levelo://app?vid=aa06a186-a5ae-4dd5-a938-3e5c2030375b","ios":"levelo://app?vid=aa06a186-a5ae-4dd5-a938-3e5c2030375b"},"vehicle_type_id":"4","last_reported":1748589014,"current_range_meters":16000,"station_id":"ce4bh3h2rcd13ifvqdn0","pricing_plan_id":"cebpf4jnsgd1na2vs0mg"},{"bike_id":"1d542995-8c8f-4777-b74d-8d8355e96125","system_id":"levelo_inurba_marseille","lat":43.287064,"lon":5.399919,"is_reserved":false,"is_disabled":false,"rental_uris":{"android":"levelo://app?vid=1d542995-8c8f-4777-b74d-8d8355e96125","ios":"levelo://app?vid=1d542995-8c8f-4777-b74d-8d8355e96125"},"vehicle_type_id":"4","last_reported":1748589014,"current_range_meters":16400,"station_id":"ce4bho92rcd13ifvqh3g","pricing_plan_id":"cebpf4jnsgd1na2vs0mg"},{"bike_id":"7eca6927-0eee-41fb-838c-8606d041ec62","system_id":"levelo_inurba_marseille","lat":43.26233,"lon":5.40451,"is_reserved":false,"is_disabled":false,"rental_uris":{"android":"levelo://app?vid=7eca6927-0eee-41fb-838c-8606d041ec62","ios":"levelo://app?vid=7eca6927-0eee-41fb-838c-8606d041ec62"},"vehicle_type_id":"4","last_reported":1748589014,"current_range_meters":16400,"station_id":"ce4bhmh2rcd13ifvqgmg","pricing_plan_id":"cebpf4jnsgd1na2vs0mg"},{"bike_id":"785cc5a2-55ff-4ed7-a9bf-bca5de4d9f6f","system_id":"levelo_inurba_marseille","lat":43.314933,"lon":5.372916,"is_reserved":false,"is_disabled":false,"rental_uris":{"android":"levelo://app?vid=785cc5a2-55ff-4ed7-a9bf-bca5de4d9f6f","ios":"levelo://app?vid=785cc5a2-55ff-4ed7-a9bf-bca5de4d9f6f"},"vehicle_type_id":"4","last_reported":1748589014,"current_range_meters":16400,"station_id":"ce4bgt12rcd13ifvqcd0","pricing_plan_id":"cebpf4jnsgd1na2vs0mg"},{"bike_id":"aafe2f57-e2ec-44cd-b95f-d6871f482382","system_id":"levelo_inurba_marseille","lat":43.30641,"lon":5.40078,"is_reserved":false,"is_disabled":false,"rental_uris":{"android":"levelo://app?vid=aafe2f57-e2ec-44cd-b95f-d6871f482382","ios":"levelo://app?vid=aafe2f57-e2ec-44cd-b95f-d6871f482382"},"vehicle_type_id":"4","last_reported":1748589014,"current_range_meters":16400,"station_id":"ce4bh112rcd13ifvqda0","pricing_plan_id":"cebpf4jnsgd1na2vs0mg"},{"bike_id":"bb0f7cae-4048-4850-8608-39cee58a1b39","system_id":"levelo_inurba_marseille","lat":43.29618,"lon":5.37167,"is_reserved":false,"is_disabled":false,"rental_uris":{"android":"levelo://app?vid=bb0f7cae-4048-4850-8608-39cee58a1b39","ios":"levelo://app?vid=bb0f7cae-4048-4850-8608-39cee58a1b39"},"vehicle_type_id":"4","last_reported":1748589014,"current_range_meters":16000,"station_id":"ce4bgnh2rcd13ifvqc0g","pricing_plan_id":"cebpf4jnsgd1na2vs0mg"},{"bike_id":"f33ccc5f-3a44-40ad-8216-30018004066d","system_id":"levelo_inurba_marseille","lat":43.30778,"lon":5.37646,"is_reserved":false,"is_disabled":false,"rental_uris":{"android":"levelo://app?vid=f33ccc5f-3a44-40ad-8216-30018004066d","ios":"levelo://app?vid=f33ccc5f-3a44-40ad-8216-30018004066d"},"vehicle_type_id":"4","last_reported":1748589014,"current_range_meters":16000,"station_id":"ce4bgv92rcd13ifvqcq0","pricing_plan_id":"cebpf4jnsgd1na2vs0mg"},{"bike_id":"a1b28146-67ba-460f-a3b6-23293e9aee3a","system_id":"levelo_inurba_marseille","lat":43.286277,"lon":5.35095,"is_reserved":false,"is_disabled":true,"rental_uris":{"android":"levelo://app?vid=a1b28146-67ba-460f-a3b6-23293e9aee3a","ios":"levelo://app?vid=a1b28146-67ba-460f-a3b6-23293e9aee3a"},"vehicle_type_id":"4","last_reported":1748589014,"current_range_meters":16800,"station_id":"ce4bhch2rcd13ifvqeug","pricing_plan_id":"cebpf4jnsgd1na2vs0mg"},{"bike_id":"53149a50-42d6-422b-81ff-d309079f9b29","system_id":"levelo_inurba_marseille","lat":43.25951,"lon":5.40909,"is_reserved":false,"is_disabled":false,"rental_uris":{"android":"levelo://app?vid=53149a50-42d6-422b-81ff-d309079f9b29","ios":"levelo://app?vid=53149a50-42d6-422b-81ff-d309079f9b29"},"vehicle_type_id":"4","last_reported":1748589014,"current_range_meters":16800,"station_id":"ce4bhm92rcd13ifvqglg","pricing_plan_id":"cebpf4jnsgd1na2vs0mg"},{"bike_id":"71930e17-fe3c-443f-b621-4d725e50390f","system_id":"levelo_inurba_marseille","lat":43.33722,"lon":5.39214,"is_reserved":false,"is_disabled":false,"rental_uris":{"android":"levelo://app?vid=71930e17-fe3c-443f-b621-4d725e50390f","ios":"levelo://app?vid=71930e17-fe3c-443f-b621-4d725e50390f"},"vehicle_type_id":"4","last_reported":1748589014,"current_range_meters":16800,"station_id":"ce4bhr92rcd13ifvqhsg","pricing_plan_id":"cebpf4jnsgd1na2vs0mg"},{"bike_id":"c17094da-29f9-4af8-b926-13ebb7c13087","system_id":"levelo_inurba_marseille","lat":43.30304,"lon":5.36908,"is_reserved":false,"is_disabled":true,"rental_uris":{"android":"levelo://app?vid=c17094da-29f9-4af8-b926-13ebb7c13087","ios":"levelo://app?vid=c17094da-29f9-4af8-b926-13ebb7c13087"},"vehicle_type_id":"4","last_reported":1748589014,"current_range_meters":16800,"station_id":"ce4bgqh2rcd13ifvqc5g","pricing_plan_id":"cebpf4jnsgd1na2vs0mg"},{"bike_id":"6e2d32db-77f9-401a-965b-8ce24716aac7","system_id":"levelo_inurba_marseille","lat":43.30419,"lon":5.4131,"is_reserved":false,"is_disabled":false,"rental_uris":{"android":"levelo://app?vid=6e2d32db-77f9-401a-965b-8ce24716aac7","ios":"levelo://app?vid=6e2d32db-77f9-401a-965b-8ce24716aac7"},"vehicle_type_id":"4","last_reported":1748589014,"current_range_meters":16800,"station_id":"ce4bhop2rcd13ifvqh8g","pricing_plan_id":"cebpf4jnsgd1na2vs0mg"},{"bike_id":"94a4d1ad-939c-4cf3-8229-24792ea62da9","system_id":"levelo_inurba_marseille","lat":43.28469,"lon":5.38414,"is_reserved":false,"is_disabled":false,"rental_uris":{"android":"levelo://app?vid=94a4d1ad-939c-4cf3-8229-24792ea62da9","ios":"levelo://app?vid=94a4d1ad-939c-4cf3-8229-24792ea62da9"},"vehicle_type_id":"4","last_reported":1748589014,"current_range_meters":17200,"station_id":"ce4bh512rcd13ifvqe3g","pricing_plan_id":"cebpf4jnsgd1na2vs0mg"},{"bike_id":"769bf774-ef8d-46a0-b7de-5f61cbc6536d","system_id":"levelo_inurba_marseille","lat":43.3132,"lon":5.39716,"is_reserved":false,"is_disabled":false,"rental_uris":{"android":"levelo://app?vid=769bf774-ef8d-46a0-b7de-5f61cbc6536d","ios":"levelo://app?vid=769bf774-ef8d-46a0-b7de-5f61cbc6536d"},"vehicle_type_id":"4","last_reported":1748589014,"current_range_meters":17200,"station_id":"ce4bgvp2rcd13ifvqcu0","pricing_plan_id":"cebpf4jnsgd1na2vs0mg"},{"bike_id":"f5f3c231-531f-4ead-aba7-cb3c00ff5a10","system_id":"levelo_inurba_marseille","lat":43.28411,"lon":5.37516,"is_reserved":false,"is_disabled":false,"rental_uris":{"android":"levelo://app?vid=f5f3c231-531f-4ead-aba7-cb3c00ff5a10","ios":"levelo://app?vid=f5f3c231-531f-4ead-aba7-cb3c00ff5a10"},"vehicle_type_id":"4","last_reported":1748589014,"current_range_meters":17200,"station_id":"ce4bh412rcd13ifvqds0","pricing_plan_id":"cebpf4jnsgd1na2vs0mg"},{"bike_id":"65cbc169-797e-4e8e-8be8-c90cfcafc3ac","system_id":"levelo_inurba_marseille","lat":43.281587,"lon":5.426452,"is_reserved":false,"is_disabled":false,"rental_uris":{"android":"levelo://app?vid=65cbc169-797e-4e8e-8be8-c90cfcafc3ac","ios":"levelo://app?vid=65cbc169-797e-4e8e-8be8-c90cfcafc3ac"},"vehicle_type_id":"4","last_reported":1748589014,"current_range_meters":17200,"station_id":"ce4bhnh2rcd13ifvqgug","pricing_plan_id":"cebpf4jnsgd1na2vs0mg"},{"bike_id":"dbb57c29-9454-46fa-84b2-992e8315e32c","system_id":"levelo_inurba_marseille","lat":43.32471,"lon":5.42802,"is_reserved":false,"is_disabled":false,"rental_uris":{"android":"levelo://app?vid=dbb57c29-9454-46fa-84b2-992e8315e32c","ios":"levelo://app?vid=dbb57c29-9454-46fa-84b2-992e8315e32c"},"vehicle_type_id":"4","last_reported":1748589014,"current_range_meters":17200,"station_id":"","pricing_plan_id":"cebpf4jnsgd1na2vs0mg"},{"bike_id":"790cdd7c-c269-43a0-8cb9-57a06c481358","system_id":"levelo_inurba_marseille","lat":43.28364,"lon":5.38629,"is_reserved":false,"is_disabled":false,"rental_uris":{"android":"levelo://app?vid=790cdd7c-c269-43a0-8cb9-57a06c481358","ios":"levelo://app?vid=790cdd7c-c269-43a0-8cb9-57a06c481358"},"vehicle_type_id":"4","last_reported":1748589014,"current_range_meters":17200,"station_id":"ce4bh492rcd13ifvqdvg","pricing_plan_id":"cebpf4jnsgd1na2vs0mg"},{"bike_id":"8a05684f-5430-4a88-99f3-a35a01220b43","system_id":"levelo_inurba_marseille","lat":43.30181,"lon":5.38089,"is_reserved":false,"is_disabled":false,"rental_uris":{"android":"levelo://app?vid=8a05684f-5430-4a88-99f3-a35a01220b43","ios":"levelo://app?vid=8a05684f-5430-4a88-99f3-a35a01220b43"},"vehicle_type_id":"4","last_reported":1748589014,"current_range_meters":16800,"station_id":"ce4bgjp2rcd13ifvqbh0","pricing_plan_id":"cebpf4jnsgd1na2vs0mg"},{"bike_id":"f47d5d15-b929-42e8-aa00-5bc8a2dc15e4","system_id":"levelo_inurba_marseille","lat":43.22504,"lon":5.34787,"is_reserved":false,"is_disabled":false,"rental_uris":{"android":"levelo://app?vid=f47d5d15-b929-42e8-aa00-5bc8a2dc15e4","ios":"levelo://app?vid=f47d5d15-b929-42e8-aa00-5bc8a2dc15e4"},"vehicle_type_id":"4","last_reported":1748589014,"current_range_meters":17200,"station_id":"st_cvj5dfep6f1abm77gieg","pricing_plan_id":"cebpf4jnsgd1na2vs0mg"},{"bike_id":"b7461b92-a167-404c-9f9f-45aa51ef4330","system_id":"levelo_inurba_marseille","lat":43.23152,"lon":5.43706,"is_reserved":false,"is_disabled":false,"rental_uris":{"android":"levelo://app?vid=b7461b92-a167-404c-9f9f-45aa51ef4330","ios":"levelo://app?vid=b7461b92-a167-404c-9f9f-45aa51ef4330"},"vehicle_type_id":"4","last_reported":1748589014,"current_range_meters":17200,"station_id":"","pricing_plan_id":"cebpf4jnsgd1na2vs0mg"},{"bike_id":"45fe38e3-f8b0-4003-b3b2-7f189c52b654","system_id":"levelo_inurba_marseille","lat":43.27919,"lon":5.39576,"is_reserved":false,"is_disabled":false,"rental_uris":{"android":"levelo://app?vid=45fe38e3-f8b0-4003-b3b2-7f189c52b654","ios":"levelo://app?vid=45fe38e3-f8b0-4003-b3b2-7f189c52b654"},"vehicle_type_id":"4","last_reported":1748589014,"current_range_meters":17600,"station_id":"ce4bhf92rcd13ifvqf40","pricing_plan_id":"cebpf4jnsgd1na2vs0mg"},{"bike_id":"b0281835-9723-4509-ae81-eaa1f1eb11df","system_id":"levelo_inurba_marseille","lat":43.3088,"lon":5.39642,"is_reserved":false,"is_disabled":false,"rental_uris":{"android":"levelo://app?vid=b0281835-9723-4509-ae81-eaa1f1eb11df","ios":"levelo://app?vid=b0281835-9723-4509-ae81-eaa1f1eb11df"},"vehicle_type_id":"4","last_reported":1748589014,"current_range_meters":17600,"station_id":"ce4bh012rcd13ifvqcv0","pricing_plan_id":"cebpf4jnsgd1na2vs0mg"},{"bike_id":"b08361b1-e7ec-4a5b-8edb-7c4c7ccf8a2b","system_id":"levelo_inurba_marseille","lat":43.32109,"lon":5.36794,"is_reserved":false,"is_disabled":false,"rental_uris":{"android":"levelo://app?vid=b08361b1-e7ec-4a5b-8edb-7c4c7ccf8a2b","ios":"levelo://app?vid=b08361b1-e7ec-4a5b-8edb-7c4c7ccf8a2b"},"vehicle_type_id":"4","last_reported":1748589014,"current_range_meters":17600,"station_id":"ce4bhrh2rcd13ifvqhug","pricing_plan_id":"cebpf4jnsgd1na2vs0mg"},{"bike_id":"a0778334-a936-4f65-83ab-d23f81e49d72","system_id":"levelo_inurba_marseille","lat":43.32995,"lon":5.43851,"is_reserved":false,"is_disabled":false,"rental_uris":{"android":"levelo://app?vid=a0778334-a936-4f65-83ab-d23f81e49d72","ios":"levelo://app?vid=a0778334-a936-4f65-83ab-d23f81e49d72"},"vehicle_type_id":"4","last_reported":1748589014,"current_range_meters":17600,"station_id":"","pricing_plan_id":"cebpf4jnsgd1na2vs0mg"},{"bike_id":"e95dd718-a813-4ea4-93ba-6ece27e48317","system_id":"levelo_inurba_marseille","lat":43.30953,"lon":5.39031,"is_reserved":false,"is_disabled":false,"rental_uris":{"android":"levelo://app?vid=e95dd718-a813-4ea4-93ba-6ece27e48317","ios":"levelo://app?vid=e95dd718-a813-4ea4-93ba-6ece27e48317"},"vehicle_type_id":"4","last_reported":1748589014,"current_range_meters":17600,"station_id":"ce4bgup2rcd13ifvqco0","pricing_plan_id":"cebpf4jnsgd1na2vs0mg"},{"bike_id":"9cade506-9977-4d23-bd10-3730eb883220","system_id":"levelo_inurba_marseille","lat":43.28712,"lon":5.37955,"is_reserved":false,"is_disabled":false,"rental_uris":{"android":"levelo://app?vid=9cade506-9977-4d23-bd10-3730eb883220","ios":"levelo://app?vid=9cade506-9977-4d23-bd10-3730eb883220"},"vehicle_type_id":"4","last_reported":1748589014,"current_range_meters":17600,"station_id":"ce4bh9p2rcd13ifvqec0","pricing_plan_id":"cebpf4jnsgd1na2vs0mg"},{"bike_id":"b2e1edc0-4b20-414d-a9ef-1e7fcf64e8d2","system_id":"levelo_inurba_marseille","lat":43.30121,"lon":5.38063,"is_reserved":false,"is_disabled":true,"rental_uris":{"android":"levelo://app?vid=b2e1edc0-4b20-414d-a9ef-1e7fcf64e8d2","ios":"levelo://app?vid=b2e1edc0-4b20-414d-a9ef-1e7fcf64e8d2"},"vehicle_type_id":"4","last_reported":1748589014,"current_range_meters":17600,"station_id":"ce4bgjp2rcd13ifvqbh0","pricing_plan_id":"cebpf4jnsgd1na2vs0mg"},