{"last_updated":1738573880,"ttl":60,"version":"2.2","data":{"bikes":[{"bike_id":"ef1b25f8-6252-4d08-81d1-202f52136b43","system_id":"levelo_inurba_marseille","lat":43.25121,"lon":5.40338,"is_reserved":false,"is_disabled":false,"rental_uris":{"android":"levelo://app?vid=ef1b25f8-6252-4d08-81d1-202f52136b43","ios":"levelo://app?vid=ef1b25f8-6252-4d08-81d1-202f52136b43"},"vehicle_type_id":"4","last_reported":1738573881,"current_range_meters":38800,"station_id":"ce4bhlh2rcd13ifvqgig","pricing_plan_id":"cebpf4jnsgd1na2vs0mg"},{"bike_id":"7ac6de87-4cb5-4d58-adc2-a7c162322d3f","system_id":"levelo_inurba_marseille","lat":43.28452,"lon":5.38434,"is_reserved":false,"is_disabled":false,"rental_uris":{"android":"levelo://app?vid=7ac6de87-4cb5-4d58-adc2-a7c162322d3f","ios":"levelo://app?vid=7ac6de87-4cb5-4d58-adc2-a7c162322d3f"},"vehicle_type_id":"4","last_reported":1738573881,"current_range_meters":15200,"station_id":"ce4bh512rcd13ifvqe3g","pricing_plan_id":"cebpf4jnsgd1na2vs0mg"},{"bike_id":"5b21e919-93fa-4606-b961-3c44b7d40637","system_id":"levelo_inurba_marseille","lat":43.29908,"lon":5.38146,"is_reserved":false,"is_disabled":false,"rental_uris":{"android":"levelo://app?vid=5b21e919-93fa-4606-b961-3c44b7d40637","ios":"levelo://app?vid=5b21e919-93fa-4606-b961-3c44b7d40637"},"vehicle_type_id":"4","last_reported":1738573881,"current_range_meters":20400,"station_id":"ce4bgj12rcd13ifvqbc0","pricing_plan_id":"cebpf4jnsgd1na2vs0mg"},{"bike_id":"28f2ee39-c342-4264-9aba-b44edbff64ff","system_id":"levelo_inurba_marseille","lat":43.24073,"lon":5.37759,"is_reserved":false,"is_disabled":false,"rental_uris":{"android":"levelo://app?vid=28f2ee39-c342-4264-9aba-b44edbff64ff","ios":"levelo://app?vid=28f2ee39-c342-4264-9aba-b44edbff64ff"},"vehicle_type_id":"4","last_reported":1738573881,"current_range_meters":39200,"station_id":"ce4bhnp2rcd13ifvqgvg","pricing_plan_id":"cebpf4jnsgd1na2vs0mg"},{"bike_id":"7287fe21-ddad-472b-a0d0-7734ba2d3fc8","system_id":"levelo_inurba_marseille","lat":43.30173,"lon":5.38092,"is_reserved":false,"is_disabled":false,"rental_uris":{"android":"levelo://app?vid=7287fe21-ddad-472b-a0d0-7734ba2d3fc8","ios":"levelo://app?vid=7287fe21-ddad-472b-a0d0-7734ba2d3fc8"},"vehicle_type_id":"4","last_reported":1738573881,"current_range_meters":39200,"station_id":"ce4bgjp2rcd13ifvqbh0","pricing_plan_id":"cebpf4jnsgd1na2vs0mg"},{"bike_id":"19508e03-fa05-4c91-87a7-0a29ac898a81","system_id":"levelo_inurba_marseille","lat":43.25843,"lon":5.394,"is_reserved":false,"is_disabled":false,"rental_uris":{"android":"levelo://app?vid=19508e03-fa05-4c91-87a7-0a29ac898a81","ios":"levelo://app?vid=19508e03-fa05-4c91-87a7-0a29ac898a81"},"vehicle_type_id":"4","last_reported":1738573881,"current_range_meters":14400,"station_id":"ce4bhip2rcd13ifvqft0","pricing_plan_id":"cebpf4jnsgd1na2vs0mg"},{"bike_id":"fa29f2b1-99ee-4b45-9802-29f07fcb72e2","system_id":"levelo_inurba_marseille","lat":43.29033,"lon":5.38148,"is_reserved":false,"is_disabled":true,"rental_uris":{"android":"levelo://app?vid=fa29f2b1-99ee-4b45-9802-29f07fcb72e2","ios":"levelo://app?vid=fa29f2b1-99ee-4b45-9802-29f07fcb72e2"},"vehicle_type_id":"4","last_reported":1738573881,"current_range_meters":5600,"station_id":"ce4bh4p2rcd13ifvqe1g","pricing_plan_id":"cebpf4jnsgd1na2vs0mg"},{"bike_id":"aa44d279-90de-4543-a2df-6b4de12b1153","system_id":"levelo_inurba_marseille","lat":43.24072,"lon":5.37769,"is_reserved":false,"is_disabled":false,"rental_uris":{"android":"levelo://app?vid=aa44d279-90de-4543-a2df-6b4de12b1153","ios":"levelo://app?vid=aa44d279-90de-4543-a2df-6b4de12b1153"},"vehicle_type_id":"4","last_reported":1738573881,"current_range_meters":27200,"station_id":"ce4bhnp2rcd13ifvqgvg","pricing_plan_id":"cebpf4jnsgd1na2vs0mg"},{"bike_id":"16cb1da9-52dd-462c-a5dd-c51a0a0ed160","system_id":"levelo_inurba_marseille","lat":43.29715,"lon":5.37699,"is_reserved":false,"is_disabled":false,"rental_uris":{"android":"levelo://app?vid=16cb1da9-52dd-462c-a5dd-c51a0a0ed160","ios":"levelo://app?vid=16cb1da9-52dd-462c-a5dd-c51a0a0ed160"},"vehicle_type_id":"4","last_reported":1738573881,"current_range_meters":28000,"station_id":"ce4bgkh2rcd13ifvqbl0","pricing_plan_id":"cebpf4jnsgd1na2vs0mg"},{"bike_id":"b4b2cb0c-f15a-4ba0-8f15-75967eeffe59","system_id":"levelo_inurba_marseille","lat":43.31226,"lon":5.36846,"is_reserved":false,"is_disabled":false,"rental_uris":{"android":"levelo://app?vid=b4b2cb0c-f15a-4ba0-8f15-75967eeffe59","ios":"levelo://app?vid=b4b2cb0c-f15a-4ba0-8f15-75967eeffe59"},"vehicle_type_id":"4","last_reported":1738573881,"current_range_meters":39200,"station_id":"ce4bgl92rcd13ifvqbq0","pricing_plan_id":"cebpf4jnsgd1na2vs0mg"},{"bike_id":"40e52a33-2633-41e6-bbe6-52c733b42e44","system_id":"levelo_inurba_marseille","lat":43.28937,"lon":5.39668,"is_reserved":false,"is_disabled":false,"rental_uris":{"android":"levelo://app?vid=40e52a33-2633-41e6-bbe6-52c733b42e44","ios":"levelo://app?vid=40e52a33-2633-41e6-bbe6-52c733b42e44"},"vehicle_type_id":"4","last_reported":1738573881,"current_range_meters":27200,"station_id":"ce4bh3h2rcd13ifvqdn0","pricing_plan_id":"cebpf4jnsgd1na2vs0mg"},{"bike_id":"5d48a61d-cf22-4c98-83c4-85b6c901eb8b","system_id":"levelo_inurba_marseille","lat":43.31757,"lon":5.39035,"is_reserved":false,"is_disabled":false,"rental_uris":{"android":"levelo://app?vid=5d48a61d-cf22-4c98-83c4-85b6c901eb8b","ios":"levelo://app?vid=5d48a61d-cf22-4c98-83c4-85b6c901eb8b"},"vehicle_type_id":"4","last_reported":1738573881,"current_range_meters":36000,"station_id":"ce4bhqp2rcd13ifvqhng","pricing_plan_id":"cebpf4jnsgd1na2vs0mg"},{"bike_id":"b8a944cd-fb6c-4e85-b644-ab77b0b9a304","system_id":"levelo_inurba_marseille","lat":43.27063,"lon":5.40252,"is_reserved":false,"is_disabled":false,"rental_uris":{"android":"levelo://app?vid=b8a944cd-fb6c-4e85-b644-ab77b0b9a304","ios":"levelo://app?vid=b8a944cd-fb6c-4e85-b644-ab77b0b9a304"},"vehicle_type_id":"4","last_reported":1738573881,"current_range_meters":8800,"station_id":"ce4bhk92rcd13ifvqgc0","pricing_plan_id":"cebpf4jnsgd1na2vs0mg"},{"bike_id":"9002a235-e065-42ca-8343-a226ee4a2c13","system_id":"levelo_inurba_marseille","lat":43.25122,"lon":5.40333,"is_reserved":false,"is_disabled":false,"rental_uris":{"android":"levelo://app?vid=9002a235-e065-42ca-8343-a226ee4a2c13","ios":"levelo://app?vid=9002a235-e065-42ca-8343-a226ee4a2c13"},"vehicle_type_id":"4","last_reported":1738573881,"current_range_meters":28000,"station_id":"ce4bhlh2rcd13ifvqgig","pricing_plan_id":"cebpf4jnsgd1na2vs0mg"},{"bike_id":"c26284e6-53ee-4b35-a0cc-ee8d0a2119d1","system_id":"levelo_inurba_marseille","lat":43.28705,"lon":5.37949,"is_reserved":false,"is_disabled":false,"rental_uris":{"android":"levelo://app?vid=c26284e6-53ee-4b35-a0cc-ee8d0a2119d1","ios":"levelo://app?vid=c26284e6-53ee-4b35-a0cc-ee8d0a2119d1"},"vehicle_type_id":"4","last_reported":1738573881,"current_range_meters":12000,"station_id":"ce4bh9p2rcd13ifvqec0","pricing_plan_id":"cebpf4jnsgd1na2vs0mg"},{"bike_id":"2009944f-1265-4b80-8a8a-5dd95be42f6a","system_id":"levelo_inurba_marseille","lat":43.33007,"lon":5.37972,"is_reserved":false,"is_disabled":false,"rental_uris":{"android":"levelo://app?vid=2009944f-1265-4b80-8a8a-5dd95be42f6a","ios":"levelo://app?vid=2009944f-1265-4b80-8a8a-5dd95be42f6a"},"vehicle_type_id":"4","last_reported":1738573881,"current_range_meters":38800,"station_id":"","pricing_plan_id":"cebpf4jnsgd1na2vs0mg"},{"bike_id":"94eb6c4a-c68b-48fa-8efc-5fc413e0a0e3","system_id":"levelo_inurba_marseille","lat":43.30897,"lon":5.36872,"is_reserved":false,"is_disabled":false,"rental_uris":{"android":"levelo://app?vid=94eb6c4a-c68b-48fa-8efc-5fc413e0a0e3","ios":"levelo://app?vid=94eb6c4a-c68b-48fa-8efc-5fc413e0a0e3"},"vehicle_type_id":"4","last_reported":1738573881,"current_range_meters":19600,"station_id":"ce4bgn92rcd13ifvqbvg","pricing_plan_id":"cebpf4jnsgd1na2vs0mg"},{"bike_id":"bc356bba-f179-435b-81e7-d63da8f825d5","system_id":"levelo_inurba_marseille","lat":43.27044,"lon":5.40287,"is_reserved":false,"is_disabled":false,"rental_uris":{"android":"levelo://app?vid=bc356bba-f179-435b-81e7-d63da8f825d5","ios":"levelo://app?vid=bc356bba-f179-435b-81e7-d63da8f825d5"},"vehicle_type_id":"4","last_reported":1738573881,"current_range_meters":37600,"station_id":"ce4bhk92rcd13ifvqgc0","pricing_plan_id":"cebpf4jnsgd1na2vs0mg"},{"bike_id":"204c834e-5427-44e7-ba14-2eccca4c9246","system_id":"levelo_inurba_marseille","lat":43.3171,"lon":5.4241,"is_reserved":false,"is_disabled":false,"rental_uris":{"android":"levelo://app?vid=204c834e-5427-44e7-ba14-2eccca4c9246","ios":"levelo://app?vid=204c834e-5427-44e7-ba14-2eccca4c9246"},"vehicle_type_id":"4","last_reported":1738573881,"current_range_meters":20400,"station_id":"ce4bhp92rcd13ifvqhbg","pricing_plan_id":"cebpf4jnsgd1na2vs0mg"},{"bike_id":"5d09f239-8a02-40d9-bc2d-fb30869c3330","system_id":"levelo_inurba_marseille","lat":43.28275,"lon":5.35078,"is_reserved":false,"is_disabled":false,"rental_uris":{"android":"levelo://app?vid=5d09f239-8a02-40d9-bc2d-fb30869c3330","ios":"levelo://app?vid=5d09f239-8a02-40d9-bc2d-fb30869c3330"},"vehicle_type_id":"4","last_reported":1738573881,"current_range_meters":25200,"station_id":"ce4bhbp2rcd13ifvqerg","pricing_plan_id":"cebpf4jnsgd1na2vs0mg"},{"bike_id":"683a0bcf-44b9-424f-8502-65cc44dd5d8e","system_id":"levelo_inurba_marseille","lat":43.26937,"lon":5.40246,"is_reserved":false,"is_disabled":false,"rental_uris":{"android":"levelo://app?vid=683a0bcf-44b9-424f-8502-65cc44dd5d8e","ios":"levelo://app?vid=683a0bcf-44b9-424f-8502-65cc44dd5d8e"},"vehicle_type_id":"4","last_reported":1738573881,"current_range_meters":38000,"station_id":"cjm6bp8fraef2m0cb0m0","pricing_plan_id":"cebpf4jnsgd1na2vs0mg"},{"bike_id":"00301923-5b9c-48ab-94f1-c3edefd4a796","system_id":"levelo_inurba_marseille","lat":43.26936,"lon":5.40255,"is_reserved":false,"is_disabled":false,"rental_uris":{"android":"levelo://app?vid=00301923-5b9c-48ab-94f1-c3edefd4a796","ios":"levelo://app?vid=00301923-5b9c-48ab-94f1-c3edefd4a796"},"vehicle_type_id":"4","last_reported":1738573881,"current_range_meters":31200,"station_id":"cjm6bp8fraef2m0cb0m0","pricing_plan_id":"cebpf4jnsgd1na2vs0mg"},{"bike_id":"ac435b7a-3cbe-439d-966f-9ad227b0ea53","system_id":"levelo_inurba_marseille","lat":43.29219,"lon":5.3606,"is_reserved":false,"is_disabled":true,"rental_uris":{"android":"levelo://app?vid=ac435b7a-3cbe-439d-966f-9ad227b0ea53","ios":"levelo://app?vid=ac435b7a-3cbe-439d-966f-9ad227b0ea53"},"vehicle_type_id":"4","last_reported":1738573881,"current_range_meters":37600,"station_id":"ce4bhbh2rcd13ifvqeqg","pricing_plan_id":"cebpf4jnsgd1na2vs0mg"},{"bike_id":"661b8764-3943-45a8-8b3e-607491282d43","system_id":"levelo_inurba_marseille","lat":43.30278,"lon":5.37688,"is_reserved":false,"is_disabled":false,"rental_uris":{"android":"levelo://app?vid=661b8764-3943-45a8-8b3e-607491282d43","ios":"levelo://app?vid=661b8764-3943-45a8-8b3e-607491282d43"},"vehicle_type_id":"4","last_reported":1738573881,"current_range_meters":39200,"station_id":"ce4bguh2rcd13ifvqcj0","pricing_plan_id":"cebpf4jnsgd1na2vs0mg"},{"bike_id":"05e6967f-52b4-4d89-933e-b74089631b53","system_id":"levelo_inurba_marseille","lat":43.32476,"lon":5.36566,"is_reserved":false,"is_disabled":false,"rental_uris":{"android":"levelo://app?vid=05e6967f-52b4-4d89-933e-b74089631b53","ios":"levelo://app?vid=05e6967f-52b4-4d89-933e-b74089631b53"},"vehicle_type_id":"4","last_reported":1738573881,"current_range_meters":22400,"station_id":"ce4bhs12rcd13ifvqhvg","pricing_plan_id":"cebpf4jnsgd1na2vs0mg"},{"bike_id":"a1361b83-7dfc-447a-91a0-ca180866041b","system_id":"levelo_inurba_marseille","lat":43.32356,"lon":5.36759,"is_reserved":false,"is_disabled":false,"rental_uris":{"android":"levelo://app?vid=a1361b83-7dfc-447a-91a0-ca180866041b","ios":"levelo://app?vid=a1361b83-7dfc-447a-91a0-ca180866041b"},"vehicle_type_id":"4","last_reported":1738573881,"current_range_meters":24000,"station_id":"ce4bhsh2rcd13ifvqi2g","pricing_plan_id":"cebpf4jnsgd1na2vs0mg"},{"bike_id":"ddb9c7e9-65ef-4267-9499-9c9d26630482","system_id":"levelo_inurba_marseille","lat":43.32486,"lon":5.36572,"is_reserved":false,"is_disabled":false,"rental_uris":{"android":"levelo://app?vid=ddb9c7e9-65ef-4267-9499-9c9d26630482","ios":"levelo://app?vid=ddb9c7e9-65ef-4267-9499-9c9d26630482"},"vehicle_type_id":"4","last_reported":1738573881,"current_range_meters":27600,"station_id":"ce4bhs12rcd13ifvqhvg","pricing_plan_id":"cebpf4jnsgd1na2vs0mg"},{"bike_id":"2bd84fa3-17d1-4c60-a194-91eef67aa1a3","system_id":"levelo_inurba_marseille","lat":43.2292,"lon":5.35391,"is_reserved":false,"is_disabled":false,"rental_uris":{"android":"levelo://app?vid=2bd84fa3-17d1-4c60-a194-91eef67aa1a3","ios":"levelo://app?vid=2bd84fa3-17d1-4c60-a194-91eef67aa1a3"},"vehicle_type_id":"4","last_reported":1738573881,"current_range_meters":30800,"station_id":"cpo3532slgdg3j2ikp40","pricing_plan_id":"cebpf4jnsgd1na2vs0mg"},{"bike_id":"0a50d89c-af17-4468-9de3-8f5574cfc288","system_id":"levelo_inurba_marseille","lat":43.27572,"lon":5.38452,"is_reserved":false,"is_disabled":false,"rental_uris":{"android":"levelo://app?vid=0a50d89c-af17-4468-9de3-8f5574cfc288","ios":"levelo://app?vid=0a50d89c-af17-4468-9de3-8f5574cfc288"},"vehicle_type_id":"4","last_reported":1738573881,"current_range_meters":37600,"station_id":"ce4bhh92rcd13ifvqfi0","pricing_plan_id":"cebpf4jnsgd1na2vs0mg"},{"bike_id":"b9050dbe-2bb7-404f-8a4a-e842fc313480","system_id":"levelo_inurba_marseille","lat":43.30561,"lon":5.36712,"is_reserved":false,"is_disabled":false,"rental_uris":{"android":"levelo://app?vid=b9050dbe-2bb7-404f-8a4a-e842fc313480","ios":"levelo://app?vid=b9050dbe-2bb7-404f-8a4a-e842fc313480"},"vehicle_type_id":"4","last_reported":1738573881,"current_range_meters":16400,"station_id":"ce4bgrp2rcd13ifvqc9g","pricing_plan_id":"cebpf4jnsgd1na2vs0mg"},{"bike_id":"8aaab930-2ff3-45f2-9768-04b9c0033680","system_id":"levelo_inurba_marseille","lat":43.24086,"lon":5.37756,"is_reserved":false,"is_disabled":false,"rental_uris":{"android":"levelo://app?vid=8aaab930-2ff3-45f2-9768-04b9c0033680","ios":"levelo://app?vid=8aaab930-2ff3-45f2-9768-04b9c0033680"},"vehicle_type_id":"4","last_reported":1738573881,"current_range_meters":15200,"station_id":"ce4bhnp2rcd13ifvqgvg","pricing_plan_id":"cebpf4jnsgd1na2vs0mg"},{"bike_id":"a87c8dd6-4ed1-4fd2-a6d7-2e4139c707ed","system_id":"levelo_inurba_marseille","lat":43.24994,"lon":5.38952,"is_reserved":false,"is_disabled":false,"rental_uris":{"android":"levelo://app?vid=a87c8dd6-4ed1-4fd2-a6d7-2e4139c707ed","ios":"levelo://app?vid=a87c8dd6-4ed1-4fd2-a6d7-2e4139c707ed"},"vehicle_type_id":"4","last_reported":1738573881,"current_range_meters":38000,"station_id":"ce4bhgp2rcd13ifvqfd0","pricing_plan_id":"cebpf4jnsgd1na2vs0mg"},{"bike_id":"8b23552f-b7c0-40c8-9d4f-37ff82774c67","system_id":"levelo_inurba_marseille","lat":43.25585,"lon":5.38224,"is_reserved":false,"is_disabled":false,"rental_uris":{"android":"levelo://app?vid=8b23552f-b7c0-40c8-9d4f-37ff82774c67","ios":"levelo://app?vid=8b23552f-b7c0-40c8-9d4f-37ff82774c67"},"vehicle_type_id":"4","last_reported":1738573881,"current_range_meters":24800,"station_id":"ce4bhih2rcd13ifvqfs0","pricing_plan_id":"cebpf4jnsgd1na2vs0mg"},{"bike_id":"637e7848-7b84-4e1d-9cee-355c6601f7c3","system_id":"levelo_inurba_marseille","lat":43.27987,"lon":5.41664,"is_reserved":false,"is_disabled":true,"rental_uris":{"android":"levelo://app?vid=637e7848-7b84-4e1d-9cee-355c6601f7c3","ios":"levelo://app?vid=637e7848-7b84-4e1d-9cee-355c6601f7c3"},"vehicle_type_id":"4","last_reported":1738573881,"current_range_meters":0,"station_id":"ce4bho12rcd13ifvqh1g","pricing_plan_id":"cebpf4jnsgd1na2vs0mg"},{"bike_id":"2e64bd72-57d8-41c3-86ae-1a04eebc0f14","system_id":"levelo_inurba_marseille","lat":43.30267,"lon":5.37728,"is_reserved":false,"is_disabled":false,"rental_uris":{"android":"levelo://app?vid=2e64bd72-57d8-41c3-86ae-1a04eebc0f14","ios":"levelo://app?vid=2e64bd72-57d8-41c3-86ae-1a04eebc0f14"},"vehicle_type_id":"4","last_reported":1738573881,"current_range_meters":32000,"station_id":"ce4bguh2rcd13ifvqcj0","pricing_plan_id":"cebpf4jnsgd1na2vs0mg"},{"bike_id":"d64fd625-faca-4a82-b0f2-7364e0fe6de2","system_id":"levelo_inurba_marseille","lat":43.24546,"lon":5.39523,"is_reserved":false,"is_disabled":false,"rental_uris":{"android":"levelo://app?vid=d64fd625-faca-4a82-b0f2-7364e0fe6de2","ios":"levelo://app?vid=d64fd625-faca-4a82-b0f2-7364e0fe6de2"},"vehicle_type_id":"4","last_reported":1738573881,"current_range_meters":32000,"station_id":"ce4bhlp2rcd13ifvqgjg","pricing_plan_id":"cebpf4jnsgd1na2vs0mg"},{"bike_id":"8444c50b-8d83-4f74-850e-e7f5b0d8eccd","system_id":"levelo_inurba_marseille","lat":43.24069,"lon":5.37767,"is_reserved":false,"is_disabled":false,"rental_uris":{"android":"levelo://app?vid=8444c50b-8d83-4f74-850e-e7f5b0d8eccd","ios":"levelo://app?vid=8444c50b-8d83-4f74-850e-e7f5b0d8eccd"},"vehicle_type_id":"4","last_reported":1738573881,"current_range_meters":17200,"station_id":"ce4bhnp2rcd13ifvqgvg","pricing_plan_id":"cebpf4jnsgd1na2vs0mg"},{"bike_id":"b67e011b-884f-4e4e-968e-411adb1e4a25","system_id":"levelo_inurba_marseille","lat":43.23151,"lon":5.43713,"is_reserved":false,"is_disabled":false,"rental_uris":{"android":"levelo://app?vid=b67e011b-884f-4e4e-968e-411adb1e4a25","ios":"levelo://app?vid=b67e011b-884f-4e4e-968e-411adb1e4a25"},"vehicle_type_id":"4","last_reported":1738573881,"current_range_meters":16400,"station_id":"ce4bhmp2rcd13ifvqgog","pricing_plan_id":"cebpf4jnsgd1na2vs0mg"},{"bike_id":"766807e2-5dd5-4f9d-8a99-3eada8bf4811","system_id":"levelo_inurba_marseille","lat":43.3461,"lon":5.38073,"is_reserved":false,"is_disabled":false,"rental_uris":{"android":"levelo://app?vid=766807e2-5dd5-4f9d-8a99-3eada8bf4811","ios":"levelo://app?vid=766807e2-5dd5-4f9d-8a99-3eada8bf4811"},"vehicle_type_id":"4","last_reported":1738573881,"current_range_meters":18800,"station_id":"","pricing_plan_id":"cebpf4jnsgd1na2vs0mg"},{"bike_id":"4164000a-3575-41b2-8242-cb2eaaa11f6b","system_id":"levelo_inurba_marseille","lat":43.27908,"lon":5.38826,"is_reserved":false,"is_disabled":false,"rental_uris":{"android":"levelo://app?vid=4164000a-3575-41b2-8242-cb2eaaa11f6b","ios":"levelo://app?vid=4164000a-3575-41b2-8242-cb2eaaa11f6b"},"vehicle_type_id":"4","last_reported":1738573881,"current_range_meters":33600,"station_id":"","pricing_plan_id":"cebpf4jnsgd1na2vs0mg"},{"bike_id":"86295e8c-9079-4c58-a715-2f07c6cf99cc","system_id":"levelo_inurba_marseille","lat":43.2971,"lon":5.37693,"is_reserved":false,"is_disabled":false,"rental_uris":{"android":"levelo://app?vid=86295e8c-9079-4c58-a715-2f07c6cf99cc","ios":"levelo://app?vid=86295e8c-9079-4c58-a715-2f07c6cf99cc"},"vehicle_type_id":"4","last_reported":1738573881,"current_range_meters":36400,"station_id":"ce4bgkh2rcd13ifvqbl0","pricing_plan_id":"cebpf4jnsgd1na2vs0mg"},{"bike_id":"095e5291-f842-4478-bc34-3769cd441c0c","system_id":"levelo_inurba_marseille","lat":43.2813,"lon":5.42645,"is_reserved":false,"is_disabled":false,"rental_uris":{"android":"levelo://app?vid=095e5291-f842-4478-bc34-3769cd441c0c","ios":"levelo://app?vid=095e5291-f842-4478-bc34-3769cd441c0c"},"vehicle_type_id":"4","last_reported":1738573881,"current_range_meters":9200,"station_id":"ce4bhnh2rcd13ifvqgug","pricing_plan_id":"cebpf4jnsgd1na2vs0mg"},{"bike_id":"92a80ec7-972d-48d0-b13a-0454acc8f9a1","system_id":"levelo_inurba_marseille","lat":43.29026,"lon":5.38651,"is_reserved":false,"is_disabled":false,"rental_uris":{"android":"levelo://app?vid=92a80ec7-972d-48d0-b13a-0454acc8f9a1","ios":"levelo://app?vid=92a80ec7-972d-48d0-b13a-0454acc8f9a1"},"vehicle_type_id":"4","last_reported":1738573881,"current_range_meters":24000,"station_id":"ce4bh4p2rcd13ifvqe0g","pricing_plan_id":"cebpf4jnsgd1na2vs0mg"},{"bike_id":"9f7cbc3c-6e0b-4442-8c70-64c0b2a1452e","system_id":"levelo_inurba_marseille","lat":43.23052,"lon":5.35495,"is_reserved":false,"is_disabled":false,"rental_uris":{"android":"levelo://app?vid=9f7cbc3c-6e0b-4442-8c70-64c0b2a1452e","ios":"levelo://app?vid=9f7cbc3c-6e0b-4442-8c70-64c0b2a1452e"},"vehicle_type_id":"4","last_reported":1738573881,"current_range_meters":28400,"station_id":"cpo3342slgdg3j2ifvpg","pricing_plan_id":"cebpf4jnsgd1na2vs0mg"},{"bike_id":"f436119a-9040-4468-83c3-85303f62ba9d","system_id":"levelo_inurba_marseille","lat":43.26949,"lon":5.38645,"is_reserved":false,"is_disabled":false,"rental_uris":{"android":"levelo://app?vid=f436119a-9040-4468-83c3-85303f62ba9d","ios":"levelo://app?vid=f436119a-9040-4468-83c3-85303f62ba9d"},"vehicle_type_id":"4","last_reported":1738573881,"current_range_meters":26800,"station_id":"ce4bhh92rcd13ifvqfh0","pricing_plan_id":"cebpf4jnsgd1na2vs0mg"},{"bike_id":"0341dec4-b0e5-441e-a9e7-e36447bc9c58","system_id":"levelo_inurba_marseille","lat":43.23192,"lon":5.35553,"is_reserved":false,"is_disabled":false,"rental_uris":{"android":"levelo://app?vid=0341dec4-b0e5-441e-a9e7-e36447bc9c58","ios":"levelo://app?vid=0341dec4-b0e5-441e-a9e7-e36447bc9c58"},"vehicle_type_id":"4","last_reported":1738573881,"current_range_meters":38000,"station_id":"ce4bhu92rcd13ifvqi70","pricing_plan_id":"cebpf4jnsgd1na2vs0mg"},{"bike_id":"9191983c-f500-4e34-800a-5c4da4f130cb","system_id":"levelo_inurba_marseille","lat":43.2794,"lon":5.41059,"is_reserved":false,"is_disabled":false,"rental_uris":{"android":"levelo://app?vid=9191983c-f500-4e34-800a-5c4da4f130cb","ios":"levelo://app?vid=9191983c-f500-4e34-800a-5c4da4f130cb"},"vehicle_type_id":"4","last_reported":1738573881,"current_range_meters":28400,"station_id":"ce4bhnp2rcd13ifvqh0g","pricing_plan_id":"cebpf4jnsgd1na2vs0mg"},{"bike_id":"051f7841-4a0e-4587-a1e4-aa1212f1d4ed","system_id":"levelo_inurba_marseille","lat":43.27171,"lon":5.41,"is_reserved":false,"is_disabled":false,"rental_uris":{"android":"levelo://app?vid=051f7841-4a0e-4587-a1e4-aa1212f1d4ed","ios":"levelo://app?vid=051f7841-4a0e-4587-a1e4-aa1212f1d4ed"},"vehicle_type_id":"4","last_reported":1738573881,"current_range_meters":20400,"station_id":"ce4bhl12rcd13ifvqgf0","pricing_plan_id":"cebpf4jnsgd1na2vs0mg"},{"bike_id":"6e092388-acf8-4d2f-9e6c-aa124c262c3e","system_id":"levelo_inurba_marseille","lat":43.30952,"lon":5.39048,"is_reserved":false,"is_disabled":false,"rental_uris":{"android":"levelo://app?vid=6e092388-acf8-4d2f-9e6c-aa124c262c3e","ios":"levelo://app?vid=6e092388-acf8-4d2f-9e6c-aa124c262c3e"},"vehicle_type_id":"4","last_reported":1738573881,"current_range_meters":9600,"station_id":"ce4bgup2rcd13ifvqco0","pricing_plan_id":"cebpf4jnsgd1na2vs0mg"},{"bike_id":"b6de1be3-a9ce-45b5-b1a5-fa1d6253977f","system_id":"levelo_inurba_marseille","lat":43.30596,"lon":5.39362,"is_reserved":false,"is_disabled":false,"rental_uris":{"android":"levelo://app?vid=b6de1be3-a9ce-45b5-b1a5-fa1d6253977f","ios":"levelo://app?vid=b6de1be3-a9ce-45b5-b1a5-fa1d6253977f"},"vehicle_type_id":"4","last_reported":1738573881,"current_range_meters":34000,"station_id":"ce4bh0p2rcd13ifvqd80","pricing_plan_id":"cebpf4jnsgd1na2vs0mg"},{"bike_id":"a4fa6443-8cd2-4c0b-9e2d-c500560fd9d5","system_id":"levelo_inurba_marseille","lat":43.31372,"lon":5.36713,"is_reserved":false,"is_disabled":false,"rental_uris":{"android":"levelo://app?vid=a4fa6443-8cd2-4c0b-9e2d-c500560fd9d5","ios":"levelo://app?vid=a4fa6443-8cd2-4c0b-9e2d-c500560fd9d5"},"vehicle_type_id":"4","last_reported":1738573881,"current_range_meters":16400,"station_id":"ce4bgr92rcd13ifvqc6g","pricing_plan_id":"cebpf4jnsgd1na2vs0mg"},{"bike_id":"5e2ab584-0d1e-4ac2-991a-7e1176198dbf","system_id":"levelo_inurba_marseille","lat":43.25708,"lon":5.41124,"is_reserved":false,"is_disabled":false,"rental_uris":{"android":"levelo://app?vid=5e2ab584-0d1e-4ac2-991a-7e1176198dbf","ios":"levelo://app?vid=5e2ab584-0d1e-4ac2-991a-7e1176198dbf"},"vehicle_type_id":"4","last_reported":1738573881,"current_range_meters":15200,"station_id":"ce4bhkp2rcd13ifvqgd0","pricing_plan_id":"cebpf4jnsgd1na2vs0mg"},{"bike_id":"4ce0c14b-de3f-4e94-bda0-a25e3fbe5d01","system_id":"levelo_inurba_marseille","lat":43.24069,"lon":5.37764,"is_reserved":false,"is_disabled":false,"rental_uris":{"android":"levelo://app?vid=4ce0c14b-de3f-4e94-bda0-a25e3fbe5d01","ios":"levelo://app?vid=4ce0c14b-de3f-4e94-bda0-a25e3fbe5d01"},"vehicle_type_id":"4","last_reported":1738573881,"current_range_meters":38400,"station_id":"ce4bhnp2rcd13ifvqgvg","pricing_plan_id":"cebpf4jnsgd1na2vs0mg"},{"bike_id":"173da8d2-1628-48b7-8b92-7bd09aa7f425","system_id":"levelo_inurba_marseille","lat":43.30898,"lon":5.36853,"is_reserved":false,"is_disabled":false,"rental_uris":{"android":"levelo://app?vid=173da8d2-1628-48b7-8b92-7bd09aa7f425","ios":"levelo://app?vid=173da8d2-1628-48b7-8b92-7bd09aa7f425"},"vehicle_type_id":"4","last_reported":1738573881,"current_range_meters":38800,"station_id":"ce4bgn92rcd13ifvqbvg","pricing_plan_id":"cebpf4jnsgd1na2vs0mg"},{"bike_id":"a0011dd3-8260-4268-a430-760dca747823","system_id":"levelo_inurba_marseille","lat":43.25013,"lon":5.38938,"is_reserved":false,"is_disabled":false,"rental_uris":{"android":"levelo://app?vid=a0011dd3-8260-4268-a430-760dca747823","ios":"levelo://app?vid=a0011dd3-8260-4268-a430-760dca747823"},"vehicle_type_id":"4","last_reported":1738573881,"current_range_meters":38800,"station_id":"ce4bhgp2rcd13ifvqfd0","pricing_plan_id":"cebpf4jnsgd1na2vs0mg"},{"bike_id":"ad82b953-766d-43fe-8267-b56879c820d1","system_id":"levelo_inurba_marseille","lat":43.24547,"lon":5.39522,"is_reserved":false,"is_disabled":false,"rental_uris":{"android":"levelo://app?vid=ad82b953-766d-43fe-8267-b56879c820d1","ios":"levelo://app?vid=ad82b953-766d-43fe-8267-b56879c820d1"},"vehicle_type_id":"4","last_reported":1738573881,"current_range_meters":38800,"station_id":"ce4bhlp2rcd13ifvqgjg","pricing_plan_id":"cebpf4jnsgd1na2vs0mg"},{"bike_id":"c537f746-287c-425a-aaa6-10d8e5019a6d","system_id":"levelo_inurba_marseille","lat":43.34134,"lon":5.40916,"is_reserved":false,"is_disabled":false,"rental_uris":{"android":"levelo://app?vid=c537f746-287c-425a-aaa6-10d8e5019a6d","ios":"levelo://app?vid=c537f746-287c-425a-aaa6-10d8e5019a6d"},"vehicle_type_id":"4","last_reported":1738573881,"current_range_meters":38800,"station_id":"ce4bhqh2rcd13ifvqhlg","pricing_plan_id":"cebpf4jnsgd1na2vs0mg"},{"bike_id":"9fd1d072-3a8b-4482-b70f-62cd25efe66f","system_id":"levelo_inurba_marseille","lat":43.28144,"lon":5.42649,"is_reserved":false,"is_disabled":false,"rental_uris":{"android":"levelo://app?vid=9fd1d072-3a8b-4482-b70f-62cd25efe66f","ios":"levelo://app?vid=9fd1d072-3a8b-4482-b70f-62cd25efe66f"},"vehicle_type_id":"4","last_reported":1738573881,"current_range_meters":30000,"station_id":"ce4bhnh2rcd13ifvqgug","pricing_plan_id":"cebpf4jnsgd1na2vs0mg"},{"bike_id":"ff68ce13-c6b2-4b6d-ba77-d9c16eecacbd","system_id":"levelo_inurba_marseille","lat":43.29528,"lon":5.37501,"is_reserved":false,"is_disabled":false,"rental_uris":{"android":"levelo://app?vid=ff68ce13-c6b2-4b6d-ba77-d9c16eecacbd","ios":"levelo://app?vid=ff68ce13-c6b2-4b6d-ba77-d9c16eecacbd"},"vehicle_type_id":"4","last_reported":1738573881,"current_range_meters":27200,"station_id":"ce4bgkp2rcd13ifvqbmg","pricing_plan_id":"cebpf4jnsgd1na2vs0mg"},{"bike_id":"0847041a-bbee-4820-af53-144a5afa0c34","system_id":"levelo_inurba_marseille","lat":43.30278,"lon":5.37714,"is_reserved":false,"is_disabled":false,"rental_uris":{"android":"levelo://app?vid=0847041a-bbee-4820-af53-144a5afa0c34","ios":"levelo://app?vid=0847041a-bbee-4820-af53-144a5afa0c34"},"vehicle_type_id":"4","last_reported":1738573881,"current_range_meters":8000,"station_id":"ce4bguh2rcd13ifvqcj0","pricing_plan_id":"cebpf4jnsgd1na2vs0mg"},{"bike_id":"17296d3c-de23-4082-b7cb-6d15cb3f16ef","system_id":"levelo_inurba_marseille","lat":43.33613,"lon":5.41033,"is_reserved":false,"is_disabled":false,"rental_uris":{"android":"levelo://app?vid=17296d3c-de23-4082-b7cb-6d15cb3f16ef","ios":"levelo://app?vid=17296d3c-de23-4082-b7cb-6d15cb3f16ef"},"vehicle_type_id":"4","last_reported":1738573881,"current_range_meters":18000,"station_id":"ce4bhqh2rcd13ifvqhmg","pricing_plan_id":"cebpf4jnsgd1na2vs0mg"},{"bike_id":"eb7adffc-4f15-4c7c-897d-463c148ed83f","system_id":"levelo_inurba_marseille","lat":43.24071,"lon":5.37773,"is_reserved":false,"is_disabled":false,"rental_uris":{"android":"levelo://app?vid=eb7adffc-4f15-4c7c-897d-463c148ed83f","ios":"levelo://app?vid=eb7adffc-4f15-4c7c-897d-463c148ed83f"},"vehicle_type_id":"4","last_reported":1738573881,"current_range_meters":38000,"station_id":"ce4bhnp2rcd13ifvqgvg","pricing_plan_id":"cebpf4jnsgd1na2vs0mg"},{"bike_id":"8955ace2-1dce-49ba-af9c-2ef2ca56e113","system_id":"levelo_inurba_marseille","lat":43.325343,"lon":5.414337,"is_reserved":false,"is_disabled":false,"rental_uris":{"android":"levelo://app?vid=8955ace2-1dce-49ba-af9c-2ef2ca56e113","ios":"levelo://app?vid=8955ace2-1dce-49ba-af9c-2ef2ca56e113"},"vehicle_type_id":"4","last_reported":1738573881,"current_range_meters":29600,"station_id":"ce4bhq12rcd13ifvqhhg","pricing_plan_id":"cebpf4jnsgd1na2vs0mg"},{"bike_id":"6a72d645-5dbe-424e-be33-097643c18df9","system_id":"levelo_inurba_marseille","lat":43.28482,"lon":5.38445,"is_reserved":false,"is_disabled":false,"rental_uris":{"android":"levelo://app?vid=6a72d645-5dbe-424e-be33-097643c18df9","ios":"levelo://app?vid=6a72d645-5dbe-424e-be33-097643c18df9"},"vehicle_type_id":"4","last_reported":1738573881,"current_range_meters":10800,"station_id":"ce4bh512rcd13ifvqe3g","pricing_plan_id":"cebpf4jnsgd1na2vs0mg"},{"bike_id":"f1272c76-3fbf-48f4-81f0-4210b2f18111","system_id":"levelo_inurba_marseille","lat":43.28273,"lon":5.3508,"is_reserved":false,"is_disabled":false,"rental_uris":{"android":"levelo://app?vid=f1272c76-3fbf-48f4-81f0-4210b2f18111","ios":"levelo://app?vid=f1272c76-3fbf-48f4-81f0-4210b2f18111"},"vehicle_type_id":"4","last_reported":1738573881,"current_range_meters":38800,"station_id":"ce4bhbp2rcd13ifvqerg","pricing_plan_id":"cebpf4jnsgd1na2vs0mg"},{"bike_id":"3e242f84-d04b-4d88-98ae-b0eb705c06e7","system_id":"levelo_inurba_marseille","lat":43.28974,"lon":5.37839,"is_reserved":false,"is_disabled":false,"rental_uris":{"android":"levelo://app?vid=3e242f84-d04b-4d88-98ae-b0eb705c06e7","ios":"levelo://app?vid=3e242f84-d04b-4d88-98ae-b0eb705c06e7"},"vehicle_type_id":"4","last_reported":1738573881,"current_range_meters":38000,"station_id":"ce4bh9p2rcd13ifvqed0","pricing_plan_id":"cebpf4jnsgd1na2vs0mg"},{"bike_id":"340caa53-ddb4-44ba-9416-c500785db3bc","system_id":"levelo_inurba_marseille","lat":43.31074,"lon":5.40103,"is_reserved":false,"is_disabled":false,"rental_uris":{"android":"levelo://app?vid=340caa53-ddb4-44ba-9416-c500785db3bc","ios":"levelo://app?vid=340caa53-ddb4-44ba-9416-c500785db3bc"},"vehicle_type_id":"4","last_reported":1738573881,"current_range_meters":30800,"station_id":"","pricing_plan_id":"cebpf4jnsgd1na2vs0mg"},{"bike_id":"6d49cd8a-56c9-4c04-98c6-07641b05f72c","system_id":"levelo_inurba_marseille","lat":43.30946,"lon":5.39052,"is_reserved":false,"is_disabled":false,"rental_uris":{"android":"levelo://app?vid=6d49cd8a-56c9-4c04-98c6-07641b05f72c","ios":"levelo://app?vid=6d49cd8a-56c9-4c04-98c6-07641b05f72c"},"vehicle_type_id":"4","last_reported":1738573881,"current_range_meters":39200,"station_id":"ce4bgup2rcd13ifvqco0","pricing_plan_id":"cebpf4jnsgd1na2vs0mg"},{"bike_id":"f4bb2ba5-681b-4c4c-8f28-6d0568c51178","system_id":"levelo_inurba_marseille","lat":43.27368,"lon":5.36263,"is_reserved":false,"is_disabled":false,"rental_uris":{"android":"levelo://app?vid=f4bb2ba5-681b-4c4c-8f28-6d0568c51178","ios":"levelo://app?vid=f4bb2ba5-681b-4c4c-8f28-6d0568c51178"},"vehicle_type_id":"4","last_reported":1738573881,"current_range_meters":27600,"station_id":"ce4bhbh2rcd13ifvqeo0","pricing_plan_id":"cebpf4jnsgd1na2vs0mg"},{"bike_id":"8d124674-c72b-4d74-9979-0def369758a7","system_id":"levelo_inurba_marseille","lat":43.30888,"lon":5.37213,"is_reserved":false,"is_disabled":false,"rental_uris":{"android":"levelo://app?vid=8d124674-c72b-4d74-9979-0def369758a7","ios":"levelo://app?vid=8d124674-c72b-4d74-9979-0def369758a7"},"vehicle_type_id":"4","last_reported":1738573881,"current_range_meters":29600,"station_id":"ce4bguh2rcd13ifvqckg","pricing_plan_id":"cebpf4jnsgd1na2vs0mg"},{"bike_id":"1ec173dc-4e0c-46d3-a1d4-5f5e976c58c6","system_id":"levelo_inurba_marseille","lat":43.32483,"lon":5.36575,"is_reserved":false,"is_disabled":false,"rental_uris":{"android":"levelo://app?vid=1ec173dc-4e0c-46d3-a1d4-5f5e976c58c6","ios":"levelo://app?vid=1ec173dc-4e0c-46d3-a1d4-5f5e976c58c6"},"vehicle_type_id":"4","last_reported":1738573881,"current_range_meters":14400,"station_id":"ce4bhs12rcd13ifvqhvg","pricing_plan_id":"cebpf4jnsgd1na2vs0mg"},{"bike_id":"b9dae9c7-3116-4e7c-86e4-d00fc98c593b","system_id":"levelo_inurba_marseille","lat":43.26692,"lon":5.38266,"is_reserved":false,"is_disabled":false,"rental_uris":{"android":"levelo://app?vid=b9dae9c7-3116-4e7c-86e4-d00fc98c593b","ios":"levelo://app?vid=b9dae9c7-3116-4e7c-86e4-d00fc98c593b"},"vehicle_type_id":"4","last_reported":1738573881,"current_range_meters":10000,"station_id":"ce4bhg92rcd13ifvqf90","pricing_plan_id":"cebpf4jnsgd1na2vs0mg"},{"bike_id":"352ae782-739f-4153-8eba-a8adb1aa97fd","system_id":"levelo_inurba_marseille","lat":43.312187,"lon":5.368109,"is_reserved":false,"is_disabled":false,"rental_uris":{"android":"levelo://app?vid=352ae782-739f-4153-8eba-a8adb1aa97fd","ios":"levelo://app?vid=352ae782-739f-4153-8eba-a8adb1aa97fd"},"vehicle_type_id":"4","last_reported":1738573881,"current_range_meters":25600,"station_id":"ce4bgl92rcd13ifvqbq0","pricing_plan_id":"cebpf4jnsgd1na2vs0mg"},{"bike_id":"84fe84b0-3c78-4909-b6ea-2c4d9b766026","system_id":"levelo_inurba_marseille","lat":43.29535,"lon":5.38555,"is_reserved":false,"is_disabled":true,"rental_uris":{"android":"levelo://app?vid=84fe84b0-3c78-4909-b6ea-2c4d9b766026","ios":"levelo://app?vid=84fe84b0-3c78-4909-b6ea-2c4d9b766026"},"vehicle_type_id":"4","last_reported":1738573881,"current_range_meters":16400,"station_id":"ce4bgih2rcd13ifvqba0","pricing_plan_id":"cebpf4jnsgd1na2vs0mg"},{"bike_id":"a561aae7-6369-4c00-9d68-e8c23562735d","system_id":"levelo_inurba_marseille","lat":43.26566,"lon":5.3904,"is_reserved":false,"is_disabled":true,"rental_uris":{"android":"levelo://app?vid=a561aae7-6369-4c00-9d68-e8c23562735d","ios":"levelo://app?vid=a561aae7-6369-4c00-9d68-e8c23562735d"},"vehicle_type_id":"4","last_reported":1738573881,"current_range_meters":38800,"station_id":"ce4bhe12rcd13ifvqf30","pricing_plan_id":"cebpf4jnsgd1na2vs0mg"},{"bike_id":"40bd2fa0-18e7-4c10-8dfc-775038e6c4b5","system_id":"levelo_inurba_marseille","lat":43.274973,"lon":5.424465,"is_reserved":false,"is_disabled":false,"rental_uris":{"android":"levelo://app?vid=40bd2fa0-18e7-4c10-8dfc-775038e6c4b5","ios":"levelo://app?vid=40bd2fa0-18e7-4c10-8dfc-775038e6c4b5"},"vehicle_type_id":"4","last_reported":1738573881,"current_range_meters":32400,"station_id":"ce4bhn92rcd13ifvqgrg","pricing_plan_id":"cebpf4jnsgd1na2vs0mg"},{"bike_id":"1d3c0a30-0621-46ad-b7c1-d02c6c83e414","system_id":"levelo_inurba_marseille","lat":43.2958,"lon":5.36746,"is_reserved":false,"is_disabled":false,"rental_uris":{"android":"levelo://app?vid=1d3c0a30-0621-46ad-b7c1-d02c6c83e414","ios":"levelo://app?vid=1d3c0a30-0621-46ad-b7c1-d02c6c83e414"},"vehicle_type_id":"4","last_reported":1738573881,"current_range_meters":39200,"station_id":"ce4bgph2rcd13ifvqc2g","pricing_plan_id":"cebpf4jnsgd1na2vs0mg"},{"bike_id":"0777123c-7fd7-44fc-bca8-bc3e35504a95","system_id":"levelo_inurba_marseille","lat":43.30947,"lon":5.39043,"is_reserved":false,"is_disabled":false,"rental_uris":{"android":"levelo://app?vid=0777123c-7fd7-44fc-bca8-bc3e35504a95","ios":"levelo://app?vid=0777123c-7fd7-44fc-bca8-bc3e35504a95"},"vehicle_type_id":"4","last_reported":1738573881,"current_range_meters":24000,"station_id":"ce4bgup2rcd13ifvqco0","pricing_plan_id":"cebpf4jnsgd1na2vs0mg"},{"bike_id":"e4cb5dc9-3cbb-4a89-98bc-e7dcbf41a425","system_id":"levelo_inurba_marseille","lat":43.29487,"lon":5.43837,"is_reserved":false,"is_disabled":false,"rental_uris":{"android":"levelo://app?vid=e4cb5dc9-3cbb-4a89-98bc-e7dcbf41a425","ios":"levelo://app?vid=e4cb5dc9-3cbb-4a89-98bc-e7dcbf41a425"},"vehicle_type_id":"4","last_reported":1738573881,"current_range_meters":17200,"station_id":"","pricing_plan_id":"cebpf4jnsgd1na2vs0mg"},{"bike_id":"82c6eebf-0519-4b18-a727-88dc1d4c976d","system_id":"levelo_inurba_marseille","lat":43.28267,"lon":5.35072,"is_reserved":false,"is_disabled":true,"rental_uris":{"android":"levelo://app?vid=82c6eebf-0519-4b18-a727-88dc1d4c976d","ios":"levelo://app?vid=82c6eebf-0519-4b18-a727-88dc1d4c976d"},"vehicle_type_id":"4","last_reported":1738573881,"current_range_meters":38000,"station_id":"ce4bhbp2rcd13ifvqerg","pricing_plan_id":"cebpf4jnsgd1na2vs0mg"},{"bike_id":"e1172a76-6140-4032-8b35-b9b0415161ca","system_id":"levelo_inurba_marseille","lat":43.29745,"lon":5.36624,"is_reserved":false,"is_disabled":false,"rental_uris":{"android":"levelo://app?vid=e1172a76-6140-4032-8b35-b9b0415161ca","ios":"levelo://app?vid=e1172a76-6140-4032-8b35-b9b0415161ca"},"vehicle_type_id":"4","last_reported":1738573881,"current_range_meters":38800,"station_id":"ce4bgn12rcd13ifvqbt0","pricing_plan_id":"cebpf4jnsgd1na2vs0mg"},{"bike_id":"3ccd196e-cddd-41f1-8a25-97e7f22947f7","system_id":"levelo_inurba_marseille","lat":43.2507,"lon":5.4036,"is_reserved":false,"is_disabled":false,"rental_uris":{"android":"levelo://app?vid=3ccd196e-cddd-41f1-8a25-97e7f22947f7","ios":"levelo://app?vid=3ccd196e-cddd-41f1-8a25-97e7f22947f7"},"vehicle_type_id":"4","last_reported":1738573881,"current_range_meters":36800,"station_id":"ce4bhlh2rcd13ifvqgig","pricing_plan_id":"cebpf4jnsgd1na2vs0mg"},{"bike_id":"3ebcd610-230f-4d5b-837e-30a830f0f624","system_id":"levelo_inurba_marseille","lat":43.30455,"lon":5.37905,"is_reserved":false,"is_disabled":false,"rental_uris":{"android":"levelo://app?vid=3ebcd610-230f-4d5b-837e-30a830f0f624","ios":"levelo://app?vid=3ebcd610-230f-4d5b-837e-30a830f0f624"},"vehicle_type_id":"4","last_reported":1738573881,"current_range_meters":38800,"station_id":"ce4bgup2rcd13ifvqcn0","pricing_plan_id":"cebpf4jnsgd1na2vs0mg"},{"bike_id":"5cbf08bd-e2c2-43b8-981f-6bbc7aad568e","system_id":"levelo_inurba_marseille","lat":43.30415,"lon":5.41283,"is_reserved":false,"is_disabled":false,"rental_uris":{"android":"levelo://app?vid=5cbf08bd-e2c2-43b8-981f-6bbc7aad568e","ios":"levelo://app?vid=5cbf08bd-e2c2-43b8-981f-6bbc7aad568e"},"vehicle_type_id":"4","last_reported":1738573881,"current_range_meters":16000,"station_id":"ce4bhop2rcd13ifvqh8g","pricing_plan_id":"cebpf4jnsgd1na2vs0mg"},{"bike_id":"14eb7a59-9b20-4e76-b93d-5c9f392068a1","system_id":"levelo_inurba_marseille","lat":43.28161,"lon":5.42648,"is_reserved":false,"is_disabled":false,"rental_uris":{"android":"levelo://app?vid=14eb7a59-9b20-4e76-b93d-5c9f392068a1","ios":"levelo://app?vid=14eb7a59-9b20-4e76-b93d-5c9f392068a1"},"vehicle_type_id":"4","last_reported":1738573881,"current_range_meters":10800,"station_id":"ce4bhnh2rcd13ifvqgug","pricing_plan_id":"cebpf4jnsgd1na2vs0mg"},{"bike_id":"a31722a3-1585-4983-b18a-038176634520","system_id":"levelo_inurba_marseille","lat":43.33609,"lon":5.41029,"is_reserved":false,"is_disabled":false,"rental_uris":{"android":"levelo://app?vid=a31722a3-1585-4983-b18a-038176634520","ios":"levelo://app?vid=a31722a3-1585-4983-b18a-038176634520"},"vehicle_type_id":"4","last_reported":1738573881,"current_range_meters":26800,"station_id":"ce4bhqh2rcd13ifvqhmg","pricing_plan_id":"cebpf4jnsgd1na2vs0mg"},{"bike_id":"5114bc22-73e4-4af5-825e-27b313b720d5","system_id":"levelo_inurba_marseille","lat":43.32482,"lon":5.36573,"is_reserved":false,"is_disabled":false,"rental_uris":{"android":"levelo://app?vid=5114bc22-73e4-4af5-825e-27b313b720d5","ios":"levelo://app?vid=5114bc22-73e4-4af5-825e-27b313b720d5"},"vehicle_type_id":"4","last_reported":1738573881,"current_range_meters":38800,"station_id":"ce4bhs12rcd13ifvqhvg","pricing_plan_id":"cebpf4jnsgd1na2vs0mg"},{"bike_id":"f99e91c4-2330-4795-bfe7-3495ca9ba92c","system_id":"levelo_inurba_marseille","lat":43.28934,"lon":5.36615,"is_reserved":false,"is_disabled":true,"rental_uris":{"android":"levelo://app?vid=f99e91c4-2330-4795-bfe7-3495ca9ba92c","ios":"levelo://app?vid=f99e91c4-2330-4795-bfe7-3495ca9ba92c"},"vehicle_type_id":"4","last_reported":1738573881,"current_range_meters":25600,"station_id":"ce4bhap2rcd13ifvqek0","pricing_plan_id":"cebpf4jnsgd1na2vs0mg"},{"bike_id":"56bc6c17-1314-4222-9a2f-d2b7b3dbc747","system_id":"levelo_inurba_marseille","lat":43.24087,"lon":5.37764,"is_reserved":false,"is_disabled":false,"rental_uris":{"android":"levelo://app?vid=56bc6c17-1314-4222-9a2f-d2b7b3dbc747","ios":"levelo://app?vid=56bc6c17-1314-4222-9a2f-d2b7b3dbc747"},"vehicle_type_id":"4","last_reported":1738573881,"current_range_meters":4400,"station_id":"ce4bhnp2rcd13ifvqgvg","pricing_plan_id":"cebpf4jnsgd1na2vs0mg"},{"bike_id":"17719be7-ef4a-4060-b5a9-e7fbab2a33fc","system_id":"levelo_inurba_marseille","lat":43.30547,"lon":5.36725,"is_reserved":false,"is_disabled":false,"rental_uris":{"android":"levelo://app?vid=17719be7-ef4a-4060-b5a9-e7fbab2a33fc","ios":"levelo://app?vid=17719be7-ef4a-4060-b5a9-e7fbab2a33fc"},"vehicle_type_id":"4","last_reported":1738573881,"current_range_meters":34800,"station_id":"ce4bgrp2rcd13ifvqc9g","pricing_plan_id":"cebpf4jnsgd1na2vs0mg"},{"bike_id":"2017d996-f52c-4584-a168-e8654a14f503","system_id":"levelo_inurba_marseille","lat":43.23958,"lon":5.36623,"is_reserved":false,"is_disabled":true,"rental_uris":{"android":"levelo://app?vid=2017d996-f52c-4584-a168-e8654a14f503","ios":"levelo://app?vid=2017d996-f52c-4584-a168-e8654a14f503"},"vehicle_type_id":"4","last_reported":1738573881,"current_range_meters":32000,"station_id":"ce4bhi12rcd13ifvqfp0","pricing_plan_id":"cebpf4jnsgd1na2vs0mg"},{"bike_id":"61b581a1-18b7-4393-aa83-7ed5f9936c67","system_id":"levelo_inurba_marseille","lat":43.30266,"lon":5.37726,"is_reserved":false,"is_disabled":false,"rental_uris":{"android":"levelo://app?vid=61b581a1-18b7-4393-aa83-7ed5f9936c67","ios":"levelo://app?vid=61b581a1-18b7-4393-aa83-7ed5f9936c67"},"vehicle_type_id":"4","last_reported":1738573881,"current_range_meters":21600,"station_id":"ce4bguh2rcd13ifvqcj0","pricing_plan_id":"cebpf4jnsgd1na2vs0mg"},{"bike_id":"5e186bec-ee7f-4d66-aa6a-ba6acb2c5b96","system_id":"levelo_inurba_marseille","lat":43.26689,"lon":5.38266,"is_reserved":false,"is_disabled":false,"rental_uris":{"android":"levelo://app?vid=5e186bec-ee7f-4d66-aa6a-ba6acb2c5b96","ios":"levelo://app?vid=5e186bec-ee7f-4d66-aa6a-ba6acb2c5b96"},"vehicle_type_id":"4","last_reported":1738573881,"current_range_meters":39200,"station_id":"ce4bhg92rcd13ifvqf90","pricing_plan_id":"cebpf4jnsgd1na2vs0mg"},{"bike_id":"70887bdd-31fc-4b35-84a3-1cac4626832a","system_id":"levelo_inurba_marseille","lat":43.26945,"lon":5.38642,"is_reserved":false,"is_disabled":false,"rental_uris":{"android":"levelo://app?vid=70887bdd-31fc-4b35-84a3-1cac4626832a","ios":"levelo://app?vid=70887bdd-31fc-4b35-84a3-1cac4626832a"},"vehicle_type_id":"4","last_reported":1738573881,"current_range_meters":32800,"station_id":"ce4bhh92rcd13ifvqfh0","pricing_plan_id":"cebpf4jnsgd1na2vs0mg"},{"bike_id":"815aeaac-23bd-4674-86bc-13a6e52be1a2","system_id":"levelo_inurba_marseille","lat":43.2407,"lon":5.37751,"is_reserved":false,"is_disabled":false,"rental_uris":{"android":"levelo://app?vid=815aeaac-23bd-4674-86bc-13a6e52be1a2","ios":"levelo://app?vid=815aeaac-23bd-4674-86bc-13a6e52be1a2"},"vehicle_type_id":"4","last_reported":1738573881,"current_range_meters":34800,"station_id":"ce4bhnp2rcd13ifvqgvg","pricing_plan_id":"cebpf4jnsgd1na2vs0mg"},{"bike_id":"da98d7a0-2557-4ff8-a05b-502bca55bde0","system_id":"levelo_inurba_marseille","lat":43.29198,"lon":5.39312,"is_reserved":false,"is_disabled":false,"rental_uris":{"android":"levelo://app?vid=da98d7a0-2557-4ff8-a05b-502bca55bde0","ios":"levelo://app?vid=da98d7a0-2557-4ff8-a05b-502bca55bde0"},"vehicle_type_id":"4","last_reported":1738573881,"current_range_meters":23200,"station_id":"ce4bh192rcd13ifvqdd0","pricing_plan_id":"cebpf4jnsgd1na2vs0mg"},{"bike_id":"83b99408-c2bd-48c1-801b-6b7b8cd16e84","system_id":"levelo_inurba_marseille","lat":43.32479,"lon":5.36569,"is_reserved":false,"is_disabled":false,"rental_uris":{"android":"levelo://app?vid=83b99408-c2bd-48c1-801b-6b7b8cd16e84","ios":"levelo://app?vid=83b99408-c2bd-48c1-801b-6b7b8cd16e84"},"vehicle_type_id":"4","last_reported":1738573881,"current_range_meters":32800,"station_id":"ce4bhs12rcd13ifvqhvg","pricing_plan_id":"cebpf4jnsgd1na2vs0mg"},{"bike_id":"8344a4b9-fe19-4ccf-9e1e-c66810831c8c","system_id":"levelo_inurba_marseille","lat":43.24382,"lon":5.37074,"is_reserved":false,"is_disabled":false,"rental_uris":{"android":"levelo://app?vid=8344a4b9-fe19-4ccf-9e1e-c66810831c8c","ios":"levelo://app?vid=8344a4b9-fe19-4ccf-9e1e-c66810831c8c"},"vehicle_type_id":"4","last_reported":1738573881,"current_range_meters":8400,"station_id":"ce4bhhh2rcd13ifvqfk0","pricing_plan_id":"cebpf4jnsgd1na2vs0mg"},{"bike_id":"8bcbf58d-06bf-4dbd-b27e-51c5a19c9de8","system_id":"levelo_inurba_marseille","lat":43.29267,"lon":5.3685,"is_reserved":false,"is_disabled":true,"rental_uris":{"android":"levelo://app?vid=8bcbf58d-06bf-4dbd-b27e-51c5a19c9de8","ios":"levelo://app?vid=8bcbf58d-06bf-4dbd-b27e-51c5a19c9de8"},"vehicle_type_id":"4","last_reported":1738573881,"current_range_meters":36800,"station_id":"ce4bhbp2rcd13ifvqesg","pricing_plan_id":"cebpf4jnsgd1na2vs0mg"},{"bike_id":"b9c9228a-1d62-494b-80a7-dbffbb3390f6","system_id":"levelo_inurba_marseille","lat":43.33735,"lon":5.39183,"is_reserved":false,"is_disabled":false,"rental_uris":{"android":"levelo://app?vid=b9c9228a-1d62-494b-80a7-dbffbb3390f6","ios":"levelo://app?vid=b9c9228a-1d62-494b-80a7-dbffbb3390f6"},"vehicle_type_id":"4","last_reported":1738573881,"current_range_meters":39200,"station_id":"ce4bhr92rcd13ifvqhsg","pricing_plan_id":"cebpf4jnsgd1na2vs0mg"},{"bike_id":"2047e938-57e3-4375-958a-69a4e97a2c7d","system_id":"levelo_inurba_marseille","lat":43.23202,"lon":5.39977,"is_reserved":false,"is_disabled":true,"rental_uris":{"android":"levelo://app?vid=2047e938-57e3-4375-958a-69a4e97a2c7d","ios":"levelo://app?vid=2047e938-57e3-4375-958a-69a4e97a2c7d"},"vehicle_type_id":"4","last_reported":1738573881,"current_range_meters":2000,"station_id":"ce4bhn12rcd13ifvqgqg","pricing_plan_id":"cebpf4jnsgd1na2vs0mg"},{"bike_id":"7d6119eb-3e8d-45e9-95fe-8b80554cad5c","system_id":"levelo_inurba_marseille","lat":43.24072,"lon":5.37756,"is_reserved":false,"is_disabled":false,"rental_uris":{"android":"levelo://app?vid=7d6119eb-3e8d-45e9-95fe-8b80554cad5c","ios":"levelo://app?vid=7d6119eb-3e8d-45e9-95fe-8b80554cad5c"},"vehicle_type_id":"4","last_reported":1738573881,"current_range_meters":19600,"station_id":"ce4bhnp2rcd13ifvqgvg","pricing_plan_id":"cebpf4jnsgd1na2vs0mg"},{"bike_id":"9e08ca9f-8bd0-444c-b69a-cb263cfb88be","system_id":"levelo_inurba_marseille","lat":43.26564,"lon":5.39018,"is_reserved":false,"is_disabled":true,"rental_uris":{"android":"levelo://app?vid=9e08ca9f-8bd0-444c-b69a-cb263cfb88be","ios":"levelo://app?vid=9e08ca9f-8bd0-444c-b69a-cb263cfb88be"},"vehicle_type_id":"4","last_reported":1738573881,"current_range_meters":30000,"station_id":"ce4bhe12rcd13ifvqf30","pricing_plan_id":"cebpf4jnsgd1na2vs0mg"},{"bike_id":"51066c61-f28c-45f5-927a-c632495855f1","system_id":"levelo_inurba_marseille","lat":43.28143,"lon":5.42643,"is_reserved":false,"is_disabled":false,"rental_uris":{"android":"levelo://app?vid=51066c61-f28c-45f5-927a-c632495855f1","ios":"levelo://app?vid=51066c61-f28c-45f5-927a-c632495855f1"},"vehicle_type_id":"4","last_reported":1738573881,"current_range_meters":27200,"station_id":"ce4bhnh2rcd13ifvqgug","pricing_plan_id":"cebpf4jnsgd1na2vs0mg"},{"bike_id":"7a0fcb61-730e-4d58-865e-251e6bac9d02","system_id":"levelo_inurba_marseille","lat":43.29025,"lon":5.3815,"is_reserved":false,"is_disabled":false,"rental_uris":{"android":"levelo://app?vid=7a0fcb61-730e-4d58-865e-251e6bac9d02","ios":"levelo://app?vid=7a0fcb61-730e-4d58-865e-251e6bac9d02"},"vehicle_type_id":"4","last_reported":1738573881,"current_range_meters":30800,"station_id":"ce4bh4p2rcd13ifvqe1g","pricing_plan_id":"cebpf4jnsgd1na2vs0mg"},{"bike_id":"699e227b-6052-4615-b2f6-e1c3f437272f","system_id":"levelo_inurba_marseille","lat":43.324746,"lon":5.365664,"is_reserved":false,"is_disabled":false,"rental_uris":{"android":"levelo://app?vid=699e227b-6052-4615-b2f6-e1c3f437272f","ios":"levelo://app?vid=699e227b-6052-4615-b2f6-e1c3f437272f"},"vehicle_type_id":"4","last_reported":1738573881,"current_range_meters":38400,"station_id":"ce4bhs12rcd13ifvqhvg","pricing_plan_id":"cebpf4jnsgd1na2vs0mg"},{"bike_id":"a30b2dd5-9f13-463f-a889-dc3da407e7d6","system_id":"levelo_inurba_marseille","lat":43.273,"lon":5.39099,"is_reserved":false,"is_disabled":false,"rental_uris":{"android":"levelo://app?vid=a30b2dd5-9f13-463f-a889-dc3da407e7d6","ios":"levelo://app?vid=a30b2dd5-9f13-463f-a889-dc3da407e7d6"},"vehicle_type_id":"4","last_reported":1738573881,"current_range_meters":28400,"station_id":"ce4bhgp2rcd13ifvqfe0","pricing_plan_id":"cebpf4jnsgd1na2vs0mg"},{"bike_id":"5188e893-299b-4e06-8b8e-5b1d49d73c6c","system_id":"levelo_inurba_marseille","lat":43.25939,"lon":5.40889,"is_reserved":false,"is_disabled":false,"rental_uris":{"android":"levelo://app?vid=5188e893-299b-4e06-8b8e-5b1d49d73c6c","ios":"levelo://app?vid=5188e893-299b-4e06-8b8e-5b1d49d73c6c"},"vehicle_type_id":"4","last_reported":1738573881,"current_range_meters":19200,"station_id":"ce4bhm92rcd13ifvqglg","pricing_plan_id":"cebpf4jnsgd1na2vs0mg"},{"bike_id":"2438c236-dcbe-4ed1-83ca-cdeac945207c","system_id":"levelo_inurba_marseille","lat":43.24983,"lon":5.38939,"is_reserved":false,"is_disabled":false,"rental_uris":{"android":"levelo://app?vid=2438c236-dcbe-4ed1-83ca-cdeac945207c","ios":"levelo://app?vid=2438c236-dcbe-4ed1-83ca-cdeac945207c"},"vehicle_type_id":"4","last_reported":1738573881,"current_range_meters":28800,"station_id":"ce4bhgp2rcd13ifvqfd0","pricing_plan_id":"cebpf4jnsgd1na2vs0mg"},{"bike_id":"3a60ebc0-dac7-4b3e-a8c5-4699cca32d17","system_id":"levelo_inurba_marseille","lat":43.30789,"lon":5.43523,"is_reserved":false,"is_disabled":false,"rental_uris":{"android":"levelo://app?vid=3a60ebc0-dac7-4b3e-a8c5-4699cca32d17","ios":"levelo://app?vid=3a60ebc0-dac7-4b3e-a8c5-4699cca32d17"},"vehicle_type_id":"4","last_reported":1738573881,"current_range_meters":25200,"station_id":"ce4bhph2rcd13ifvqheg","pricing_plan_id":"cebpf4jnsgd1na2vs0mg"},{"bike_id":"4e101644-eabe-462a-8b86-8cab9161cada","system_id":"levelo_inurba_marseille","lat":43.3092,"lon":5.36836,"is_reserved":false,"is_disabled":false,"rental_uris":{"android":"levelo://app?vid=4e101644-eabe-462a-8b86-8cab9161cada","ios":"levelo://app?vid=4e101644-eabe-462a-8b86-8cab9161cada"},"vehicle_type_id":"4","last_reported":1738573881,"current_range_meters":38800,"station_id":"ce4bgn92rcd13ifvqbvg","pricing_plan_id":"cebpf4jnsgd1na2vs0mg"},{"bike_id":"3e36ac69-430f-415c-ac0a-246b83170535","system_id":"levelo_inurba_marseille","lat":43.32099,"lon":5.36777,"is_reserved":false,"is_disabled":false,"rental_uris":{"android":"levelo://app?vid=3e36ac69-430f-415c-ac0a-246b83170535","ios":"levelo://app?vid=3e36ac69-430f-415c-ac0a-246b83170535"},"vehicle_type_id":"4","last_reported":1738573881,"current_range_meters":38800,"station_id":"ce4bhrh2rcd13ifvqhug","pricing_plan_id":"cebpf4jnsgd1na2vs0mg"},{"bike_id":"0d59dc53-4ced-4ea7-8bff-dfdd0ac17b82","system_id":"levelo_inurba_marseille","lat":43.30895,"lon":5.36852,"is_reserved":false,"is_disabled":false,"rental_uris":{"android":"levelo://app?vid=0d59dc53-4ced-4ea7-8bff-dfdd0ac17b82","ios":"levelo://app?vid=0d59dc53-4ced-4ea7-8bff-dfdd0ac17b82"},"vehicle_type_id":"4","last_reported":1738573881,"current_range_meters":38800,"station_id":"ce4bgn92rcd13ifvqbvg","pricing_plan_id":"cebpf4jnsgd1na2vs0mg"},{"bike_id":"982c79cf-ab8d-4298-a736-22fbbe000931","system_id":"levelo_inurba_marseille","lat":43.30278,"lon":5.37706,"is_reserved":false,"is_disabled":false,"rental_uris":{"android":"levelo://app?vid=982c79cf-ab8d-4298-a736-22fbbe000931","ios":"levelo://app?vid=982c79cf-ab8d-4298-a736-22fbbe000931"},"vehicle_type_id":"4","last_reported":1738573881,"current_range_meters":30800,"station_id":"ce4bguh2rcd13ifvqcj0","pricing_plan_id":"cebpf4jnsgd1na2vs0mg"},{"bike_id":"f9a8bd69-665c-48a7-ad3c-2e9818255e07","system_id":"levelo_inurba_marseille","lat":43.324748,"lon":5.365707,"is_reserved":false,"is_disabled":false,"rental_uris":{"android":"levelo://app?vid=f9a8bd69-665c-48a7-ad3c-2e9818255e07","ios":"levelo://app?vid=f9a8bd69-665c-48a7-ad3c-2e9818255e07"},"vehicle_type_id":"4","last_reported":1738573881,"current_range_meters":37600,"station_id":"ce4bhs12rcd13ifvqhvg","pricing_plan_id":"cebpf4jnsgd1na2vs0mg"},{"bike_id":"21693d18-a3ae-4e67-92b8-90086e55ef23","system_id":"levelo_inurba_marseille","lat":43.29013,"lon":5.38141,"is_reserved":false,"is_disabled":false,"rental_uris":{"android":"levelo://app?vid=21693d18-a3ae-4e67-92b8-90086e55ef23","ios":"levelo://app?vid=21693d18-a3ae-4e67-92b8-90086e55ef23"},"vehicle_type_id":"4","last_reported":1738573881,"current_range_meters":38800,"station_id":"ce4bh4p2rcd13ifvqe1g","pricing_plan_id":"cebpf4jnsgd1na2vs0mg"},{"bike_id":"ea33f589-14e8-4e7a-9662-83cdb69fada8","system_id":"levelo_inurba_marseille","lat":43.24996,"lon":5.38948,"is_reserved":false,"is_disabled":false,"rental_uris":{"android":"levelo://app?vid=ea33f589-14e8-4e7a-9662-83cdb69fada8","ios":"levelo://app?vid=ea33f589-14e8-4e7a-9662-83cdb69fada8"},"vehicle_type_id":"4","last_reported":1738573881,"current_range_meters":22800,"station_id":"ce4bhgp2rcd13ifvqfd0","pricing_plan_id":"cebpf4jnsgd1na2vs0mg"},{"bike_id":"ab2c796a-c23b-4a3a-9534-777b873d6a05","system_id":"levelo_inurba_marseille","lat":43.241735,"lon":5.363935,"is_reserved":false,"is_disabled":false,"rental_uris":{"android":"levelo://app?vid=ab2c796a-c23b-4a3a-9534-777b873d6a05","ios":"levelo://app?vid=ab2c796a-c23b-4a3a-9534-777b873d6a05"},"vehicle_type_id":"4","last_reported":1738573881,"current_range_meters":25600,"station_id":"cpo36qri1sfpv3e86is0","pricing_plan_id":"cebpf4jnsgd1na2vs0mg"},{"bike_id":"7425f960-9d6f-463d-9f22-8efe90f42224","system_id":"levelo_inurba_marseille","lat":43.28462,"lon":5.38486,"is_reserved":false,"is_disabled":true,"rental_uris":{"android":"levelo://app?vid=7425f960-9d6f-463d-9f22-8efe90f42224","ios":"levelo://app?vid=7425f960-9d6f-463d-9f22-8efe90f42224"},"vehicle_type_id":"4","last_reported":1738573881,"current_range_meters":0,"station_id":"","pricing_plan_id":"cebpf4jnsgd1na2vs0mg"},{"bike_id":"00f658b8-d83e-4060-a5c9-dc5560d25140","system_id":"levelo_inurba_marseille","lat":43.31854,"lon":5.37401,"is_reserved":false,"is_disabled":false,"rental_uris":{"android":"levelo://app?vid=00f658b8-d83e-4060-a5c9-dc5560d25140","ios":"levelo://app?vid=00f658b8-d83e-4060-a5c9-dc5560d25140"},"vehicle_type_id":"4","last_reported":1738573881,"current_range_meters":20400,"station_id":"","pricing_plan_id":"cebpf4jnsgd1na2vs0mg"},{"bike_id":"3bf7ddc3-4fa6-402c-a4b7-cfd1d9ccd33d","system_id":"levelo_inurba_marseille","lat":43.23149,"lon":5.43717,"is_reserved":false,"is_disabled":false,"rental_uris":{"android":"levelo://app?vid=3bf7ddc3-4fa6-402c-a4b7-cfd1d9ccd33d","ios":"levelo://app?vid=3bf7ddc3-4fa6-402c-a4b7-cfd1d9ccd33d"},"vehicle_type_id":"4","last_reported":1738573881,"current_range_meters":20400,"station_id":"ce4bhmp2rcd13ifvqgog","pricing_plan_id":"cebpf4jnsgd1na2vs0mg"},{"bike_id":"58feef8f-17b5-470d-8151-c7a13f0dbe24","system_id":"levelo_inurba_marseille","lat":43.28419,"lon":5.37499,"is_reserved":false,"is_disabled":true,"rental_uris":{"android":"levelo://app?vid=58feef8f-17b5-470d-8151-c7a13f0dbe24","ios":"levelo://app?vid=58feef8f-17b5-470d-8151-c7a13f0dbe24"},"vehicle_type_id":"4","last_reported":1738573881,"current_range_meters":0,"station_id":"ce4bh412rcd13ifvqds0","pricing_plan_id":"cebpf4jnsgd1na2vs0mg"},{"bike_id":"e6e082fa-fdb2-448a-b26a-b32745ad3bf3","system_id":"levelo_inurba_marseille","lat":43.27507,"lon":5.4245,"is_reserved":false,"is_disabled":false,"rental_uris":{"android":"levelo://app?vid=e6e082fa-fdb2-448a-b26a-b32745ad3bf3","ios":"levelo://app?vid=e6e082fa-fdb2-448a-b26a-b32745ad3bf3"},"vehicle_type_id":"4","last_reported":1738573881,"current_range_meters":38800,"station_id":"ce4bhn92rcd13ifvqgrg","pricing_plan_id":"cebpf4jnsgd1na2vs0mg"},{"bike_id":"f2cc33fe-49ce-48a3-9104-8d5908cc8483","system_id":"levelo_inurba_marseille","lat":43.26923,"lon":5.38923,"is_reserved":false,"is_disabled":false,"rental_uris":{"android":"levelo://app?vid=f2cc33fe-49ce-48a3-9104-8d5908cc8483","ios":"levelo://app?vid=f2cc33fe-49ce-48a3-9104-8d5908cc8483"},"vehicle_type_id":"4","last_reported":1738573881,"current_range_meters":34000,"station_id":"ce4bhhh2rcd13ifvqfl0","pricing_plan_id":"cebpf4jnsgd1na2vs0mg"},{"bike_id":"f5ccd368-925f-407a-a56e-8cc47bfdb3e3","system_id":"levelo_inurba_marseille","lat":43.28035,"lon":5.36952,"is_reserved":false,"is_disabled":false,"rental_uris":{"android":"levelo://app?vid=f5ccd368-925f-407a-a56e-8cc47bfdb3e3","ios":"levelo://app?vid=f5ccd368-925f-407a-a56e-8cc47bfdb3e3"},"vehicle_type_id":"4","last_reported":1738573881,"current_range_meters":24400,"station_id":"ce4bha12rcd13ifvqef0","pricing_plan_id":"cebpf4jnsgd1na2vs0mg"},{"bike_id":"5392c4ac-298c-4c19-b2b7-4876a9157af2","system_id":"levelo_inurba_marseille","lat":43.28714,"lon":5.37945,"is_reserved":false,"is_disabled":false,"rental_uris":{"android":"levelo://app?vid=5392c4ac-298c-4c19-b2b7-4876a9157af2","ios":"levelo://app?vid=5392c4ac-298c-4c19-b2b7-4876a9157af2"},"vehicle_type_id":"4","last_reported":1738573881,"current_range_meters":4400,"station_id":"ce4bh9p2rcd13ifvqec0","pricing_plan_id":"cebpf4jnsgd1na2vs0mg"},{"bike_id":"924c5ffd-e7eb-40f4-98e7-138891fab8e6","system_id":"levelo_inurba_marseille","lat":43.24647,"lon":5.38901,"is_reserved":false,"is_disabled":false,"rental_uris":{"android":"levelo://app?vid=924c5ffd-e7eb-40f4-98e7-138891fab8e6","ios":"levelo://app?vid=924c5ffd-e7eb-40f4-98e7-138891fab8e6"},"vehicle_type_id":"4","last_reported":1738573881,"current_range_meters":9200,"station_id":"ce4bhg12rcd13ifvqf60","pricing_plan_id":"cebpf4jnsgd1na2vs0mg"},{"bike_id":"b69743c2-b22e-4135-9a55-ab7140ba08d5","system_id":"levelo_inurba_marseille","lat":43.28624,"lon":5.3511,"is_reserved":false,"is_disabled":true,"rental_uris":{"android":"levelo://app?vid=b69743c2-b22e-4135-9a55-ab7140ba08d5","ios":"levelo://app?vid=b69743c2-b22e-4135-9a55-ab7140ba08d5"},"vehicle_type_id":"4","last_reported":1738573881,"current_range_meters":30400,"station_id":"ce4bhch2rcd13ifvqeug","pricing_plan_id":"cebpf4jnsgd1na2vs0mg"},{"bike_id":"5984b263-ca23-4f56-add1-6bc799e10547","system_id":"levelo_inurba_marseille","lat":43.23052,"lon":5.35503,"is_reserved":false,"is_disabled":false,"rental_uris":{"android":"levelo://app?vid=5984b263-ca23-4f56-add1-6bc799e10547","ios":"levelo://app?vid=5984b263-ca23-4f56-add1-6bc799e10547"},"vehicle_type_id":"4","last_reported":1738573881,"current_range_meters":4800,"station_id":"cpo3342slgdg3j2ifvpg","pricing_plan_id":"cebpf4jnsgd1na2vs0mg"},{"bike_id":"10e01d0a-632b-4d62-8534-f552a3667c64","system_id":"levelo_inurba_marseille","lat":43.31109,"lon":5.38012,"is_reserved":false,"is_disabled":false,"rental_uris":{"android":"levelo://app?vid=10e01d0a-632b-4d62-8534-f552a3667c64","ios":"levelo://app?vid=10e01d0a-632b-4d62-8534-f552a3667c64"},"vehicle_type_id":"4","last_reported":1738573881,"current_range_meters":30800,"station_id":"","pricing_plan_id":"cebpf4jnsgd1na2vs0mg"},{"bike_id":"590081a6-a0a8-4d2d-a3cf-e4919678d5f2","system_id":"levelo_inurba_marseille","lat":43.27811,"lon":5.40719,"is_reserved":false,"is_disabled":false,"rental_uris":{"android":"levelo://app?vid=590081a6-a0a8-4d2d-a3cf-e4919678d5f2","ios":"levelo://app?vid=590081a6-a0a8-4d2d-a3cf-e4919678d5f2"},"vehicle_type_id":"4","last_reported":1738573881,"current_range_meters":37600,"station_id":"ce4bhnh2rcd13ifvqgtg","pricing_plan_id":"cebpf4jnsgd1na2vs0mg"},{"bike_id":"f228e78e-e79d-4faf-b4e9-a37f0ad98b21","system_id":"levelo_inurba_marseille","lat":43.30148,"lon":5.38092,"is_reserved":false,"is_disabled":false,"rental_uris":{"android":"levelo://app?vid=f228e78e-e79d-4faf-b4e9-a37f0ad98b21","ios":"levelo://app?vid=f228e78e-e79d-4faf-b4e9-a37f0ad98b21"},"vehicle_type_id":"4","last_reported":1738573881,"current_range_meters":39200,"station_id":"ce4bgjp2rcd13ifvqbh0","pricing_plan_id":"cebpf4jnsgd1na2vs0mg"},{"bike_id":"f3c2e9a5-bd1f-4067-8489-4ec5b32d9880","system_id":"levelo_inurba_marseille","lat":43.2407,"lon":5.37762,"is_reserved":false,"is_disabled":false,"rental_uris":{"android":"levelo://app?vid=f3c2e9a5-bd1f-4067-8489-4ec5b32d9880","ios":"levelo://app?vid=f3c2e9a5-bd1f-4067-8489-4ec5b32d9880"},"vehicle_type_id":"4","last_reported":1738573881,"current_range_meters":27600,"station_id":"ce4bhnp2rcd13ifvqgvg","pricing_plan_id":"cebpf4jnsgd1na2vs0mg"},{"bike_id":"49493f9a-b3ec-438f-b118-26f57adfd626","system_id":"levelo_inurba_marseille","lat":43.28431,"lon":5.35,"is_reserved":false,"is_disabled":false,"rental_uris":{"android":"levelo://app?vid=49493f9a-b3ec-438f-b118-26f57adfd626","ios":"levelo://app?vid=49493f9a-b3ec-438f-b118-26f57adfd626"},"vehicle_type_id":"4","last_reported":1738573881,"current_range_meters":9600,"station_id":"ce4bhbh2rcd13ifvqepg","pricing_plan_id":"cebpf4jnsgd1na2vs0mg"},{"bike_id":"f3e08a36-baaf-4a71-a8de-aa788416b013","system_id":"levelo_inurba_marseille","lat":43.31371,"lon":5.36721,"is_reserved":false,"is_disabled":false,"rental_uris":{"android":"levelo://app?vid=f3e08a36-baaf-4a71-a8de-aa788416b013","ios":"levelo://app?vid=f3e08a36-baaf-4a71-a8de-aa788416b013"},"vehicle_type_id":"4","last_reported":1738573881,"current_range_meters":22000,"station_id":"ce4bgr92rcd13ifvqc6g","pricing_plan_id":"cebpf4jnsgd1na2vs0mg"},{"bike_id":"b321ff38-be2e-4454-a2e0-371e8882e8f4","system_id":"levelo_inurba_marseille","lat":43.297347,"lon":5.376767,"is_reserved":false,"is_disabled":true,"rental_uris":{"android":"levelo://app?vid=b321ff38-be2e-4454-a2e0-371e8882e8f4","ios":"levelo://app?vid=b321ff38-be2e-4454-a2e0-371e8882e8f4"},"vehicle_type_id":"4","last_reported":1738573881,"current_range_meters":0,"station_id":"ce4bgkh2rcd13ifvqbl0","pricing_plan_id":"cebpf4jnsgd1na2vs0mg"},{"bike_id":"c016e547-921d-4cf4-b408-a78a1dead93a","system_id":"levelo_inurba_marseille","lat":43.30557,"lon":5.36695,"is_reserved":false,"is_disabled":false,"rental_uris":{"android":"levelo://app?vid=c016e547-921d-4cf4-b408-a78a1dead93a","ios":"levelo://app?vid=c016e547-921d-4cf4-b408-a78a1dead93a"},"vehicle_type_id":"4","last_reported":1738573881,"current_range_meters":19200,"station_id":"ce4bgrp2rcd13ifvqc9g","pricing_plan_id":"cebpf4jnsgd1na2vs0mg"},{"bike_id":"26c673a6-26f6-49a9-a4dd-b61ca347777c","system_id":"levelo_inurba_marseille","lat":43.24067,"lon":5.37767,"is_reserved":false,"is_disabled":false,"rental_uris":{"android":"levelo://app?vid=26c673a6-26f6-49a9-a4dd-b61ca347777c","ios":"levelo://app?vid=26c673a6-26f6-49a9-a4dd-b61ca347777c"},"vehicle_type_id":"4","last_reported":1738573881,"current_range_meters":10800,"station_id":"ce4bhnp2rcd13ifvqgvg","pricing_plan_id":"cebpf4jnsgd1na2vs0mg"},{"bike_id":"a62b26de-9035-4803-a3ef-75a4d39fa5e5","system_id":"levelo_inurba_marseille","lat":43.30913,"lon":5.3685,"is_reserved":false,"is_disabled":false,"rental_uris":{"android":"levelo://app?vid=a62b26de-9035-4803-a3ef-75a4d39fa5e5","ios":"levelo://app?vid=a62b26de-9035-4803-a3ef-75a4d39fa5e5"},"vehicle_type_id":"4","last_reported":1738573881,"current_range_meters":30000,"station_id":"ce4bgn92rcd13ifvqbvg","pricing_plan_id":"cebpf4jnsgd1na2vs0mg"},{"bike_id":"c13e9d7f-be74-4874-a020-943cf47f70f7","system_id":"levelo_inurba_marseille","lat":43.2781,"lon":5.40717,"is_reserved":false,"is_disabled":false,"rental_uris":{"android":"levelo://app?vid=c13e9d7f-be74-4874-a020-943cf47f70f7","ios":"levelo://app?vid=c13e9d7f-be74-4874-a020-943cf47f70f7"},"vehicle_type_id":"4","last_reported":1738573881,"current_range_meters":39200,"station_id":"ce4bhnh2rcd13ifvqgtg","pricing_plan_id":"cebpf4jnsgd1na2vs0mg"},{"bike_id":"bd6db94f-8ac9-4b47-a990-393bec7cd7d4","system_id":"levelo_inurba_marseille","lat":43.26221,"lon":5.40492,"is_reserved":false,"is_disabled":true,"rental_uris":{"android":"levelo://app?vid=bd6db94f-8ac9-4b47-a990-393bec7cd7d4","ios":"levelo://app?vid=bd6db94f-8ac9-4b47-a990-393bec7cd7d4"},"vehicle_type_id":"4","last_reported":1738573881,"current_range_meters":0,"station_id":"ce4bhmh2rcd13ifvqgmg","pricing_plan_id":"cebpf4jnsgd1na2vs0mg"},{"bike_id":"9ad5e183-8d3a-488a-bf26-3c6cd447893f","system_id":"levelo_inurba_marseille","lat":43.29064,"lon":5.37166,"is_reserved":false,"is_disabled":false,"rental_uris":{"android":"levelo://app?vid=9ad5e183-8d3a-488a-bf26-3c6cd447893f","ios":"levelo://app?vid=9ad5e183-8d3a-488a-bf26-3c6cd447893f"},"vehicle_type_id":"4","last_reported":1738573881,"current_range_meters":27200,"station_id":"ce4bh5p2rcd13ifvqe4g","pricing_plan_id":"cebpf4jnsgd1na2vs0mg"},{"bike_id":"1e4fb263-2fba-4f88-9b2b-9bf396bd5315","system_id":"levelo_inurba_marseille","lat":43.26027,"lon":5.37558,"is_reserved":false,"is_disabled":false,"rental_uris":{"android":"levelo://app?vid=1e4fb263-2fba-4f88-9b2b-9bf396bd5315","ios":"levelo://app?vid=1e4fb263-2fba-4f88-9b2b-9bf396bd5315"},"vehicle_type_id":"4","last_reported":1738573881,"current_range_meters":18000,"station_id":"ce4bhgh2rcd13ifvqfa0","pricing_plan_id":"cebpf4jnsgd1na2vs0mg"},{"bike_id":"f5851043-051f-4507-8053-acedfcd42f2c","system_id":"levelo_inurba_marseille","lat":43.24068,"lon":5.37769,"is_reserved":false,"is_disabled":false,"rental_uris":{"android":"levelo://app?vid=f5851043-051f-4507-8053-acedfcd42f2c","ios":"levelo://app?vid=f5851043-051f-4507-8053-acedfcd42f2c"},"vehicle_type_id":"4","last_reported":1738573881,"current_range_meters":19200,"station_id":"ce4bhnp2rcd13ifvqgvg","pricing_plan_id":"cebpf4jnsgd1na2vs0mg"},{"bike_id":"ba1b16dd-09e2-4536-8411-babb750bcb3c","system_id":"levelo_inurba_marseille","lat":43.23189,"lon":5.39991,"is_reserved":false,"is_disabled":true,"rental_uris":{"android":"levelo://app?vid=ba1b16dd-09e2-4536-8411-babb750bcb3c","ios":"levelo://app?vid=ba1b16dd-09e2-4536-8411-babb750bcb3c"},"vehicle_type_id":"4","last_reported":1738573881,"current_range_meters":17200,"station_id":"ce4bhn12rcd13ifvqgqg","pricing_plan_id":"cebpf4jnsgd1na2vs0mg"},{"bike_id":"20029bdd-9f9c-4ff9-86e4-5ba6ed30f46a","system_id":"levelo_inurba_marseille","lat":43.23148,"lon":5.43705,"is_reserved":false,"is_disabled":true,"rental_uris":{"android":"levelo://app?vid=20029bdd-9f9c-4ff9-86e4-5ba6ed30f46a","ios":"levelo://app?vid=20029bdd-9f9c-4ff9-86e4-5ba6ed30f46a"},"vehicle_type_id":"4","last_reported":1738573881,"current_range_meters":0,"station_id":"ce4bhmp2rcd13ifvqgog","pricing_plan_id":"cebpf4jnsgd1na2vs0mg"},{"bike_id":"bcfacb5f-fd84-4201-a91d-7ee42d87f814","system_id":"levelo_inurba_marseille","lat":43.30462,"lon":5.37897,"is_reserved":false,"is_disabled":true,"rental_uris":{"android":"levelo://app?vid=bcfacb5f-fd84-4201-a91d-7ee42d87f814","ios":"levelo://app?vid=bcfacb5f-fd84-4201-a91d-7ee42d87f814"},"vehicle_type_id":"4","last_reported":1738573881,"current_range_meters":18000,"station_id":"ce4bgup2rcd13ifvqcn0","pricing_plan_id":"cebpf4jnsgd1na2vs0mg"},{"bike_id":"b9512b3f-f03c-45bd-b267-da4d631eeefd","system_id":"levelo_inurba_marseille","lat":43.30464,"lon":5.37916,"is_reserved":false,"is_disabled":false,"rental_uris":{"android":"levelo://app?vid=b9512b3f-f03c-45bd-b267-da4d631eeefd","ios":"levelo://app?vid=b9512b3f-f03c-45bd-b267-da4d631eeefd"},"vehicle_type_id":"4","last_reported":1738573881,"current_range_meters":30800,"station_id":"ce4bgup2rcd13ifvqcn0","pricing_plan_id":"cebpf4jnsgd1na2vs0mg"},{"bike_id":"bffeed68-0570-430d-8015-136930148bb4","system_id":"levelo_inurba_marseille","lat":43.30134,"lon":5.37415,"is_reserved":false,"is_disabled":false,"rental_uris":{"android":"levelo://app?vid=bffeed68-0570-430d-8015-136930148bb4","ios":"levelo://app?vid=bffeed68-0570-430d-8015-136930148bb4"},"vehicle_type_id":"4","last_reported":1738573881,"current_range_meters":31200,"station_id":"ce4bgs92rcd13ifvqcc0","pricing_plan_id":"cebpf4jnsgd1na2vs0mg"},{"bike_id":"5805abe4-d33a-4c57-986f-3167b5b7a28d","system_id":"levelo_inurba_marseille","lat":43.279114,"lon":5.395864,"is_reserved":false,"is_disabled":true,"rental_uris":{"android":"levelo://app?vid=5805abe4-d33a-4c57-986f-3167b5b7a28d","ios":"levelo://app?vid=5805abe4-d33a-4c57-986f-3167b5b7a28d"},"vehicle_type_id":"4","last_reported":1738573881,"current_range_meters":0,"station_id":"ce4bhf92rcd13ifvqf40","pricing_plan_id":"cebpf4jnsgd1na2vs0mg"},{"bike_id":"1ab3385b-ef01-4ed8-8984-032f740b0888","system_id":"levelo_inurba_marseille","lat":43.26041,"lon":5.39396,"is_reserved":false,"is_disabled":false,"rental_uris":{"android":"levelo://app?vid=1ab3385b-ef01-4ed8-8984-032f740b0888","ios":"levelo://app?vid=1ab3385b-ef01-4ed8-8984-032f740b0888"},"vehicle_type_id":"4","last_reported":1738573881,"current_range_meters":39200,"station_id":"ce4bhh92rcd13ifvqfj0","pricing_plan_id":"cebpf4jnsgd1na2vs0mg"},{"bike_id":"04933bdd-21bd-4aaf-8b9f-cf1f613ff6b8","system_id":"levelo_inurba_marseille","lat":43.28931,"lon":5.36407,"is_reserved":false,"is_disabled":false,"rental_uris":{"android":"levelo://app?vid=04933bdd-21bd-4aaf-8b9f-cf1f613ff6b8","ios":"levelo://app?vid=04933bdd-21bd-4aaf-8b9f-cf1f613ff6b8"},"vehicle_type_id":"4","last_reported":1738573881,"current_range_meters":11600,"station_id":"ce4bhc92rcd13ifvqetg","pricing_plan_id":"cebpf4jnsgd1na2vs0mg"},{"bike_id":"4cb39d18-63b5-45bc-8371-1474c5c767e1","system_id":"levelo_inurba_marseille","lat":43.29546,"lon":5.36787,"is_reserved":false,"is_disabled":false,"rental_uris":{"android":"levelo://app?vid=4cb39d18-63b5-45bc-8371-1474c5c767e1","ios":"levelo://app?vid=4cb39d18-63b5-45bc-8371-1474c5c767e1"},"vehicle_type_id":"4","last_reported":1738573881,"current_range_meters":38800,"station_id":"ce4bgph2rcd13ifvqc2g","pricing_plan_id":"cebpf4jnsgd1na2vs0mg"},{"bike_id":"491407c5-a175-44f0-86fc-0f4ccadf82e3","system_id":"levelo_inurba_marseille","lat":43.337444,"lon":5.374475,"is_reserved":false,"is_disabled":true,"rental_uris":{"android":"levelo://app?vid=491407c5-a175-44f0-86fc-0f4ccadf82e3","ios":"levelo://app?vid=491407c5-a175-44f0-86fc-0f4ccadf82e3"},"vehicle_type_id":"4","last_reported":1738573881,"current_range_meters":0,"station_id":"","pricing_plan_id":"cebpf4jnsgd1na2vs0mg"},{"bike_id":"97387978-97f1-4098-a9d7-830fd0581eb7","system_id":"levelo_inurba_marseille","lat":43.30148,"lon":5.38086,"is_reserved":false,"is_disabled":false,"rental_uris":{"android":"levelo://app?vid=97387978-97f1-4098-a9d7-830fd0581eb7","ios":"levelo://app?vid=97387978-97f1-4098-a9d7-830fd0581eb7"},"vehicle_type_id":"4","last_reported":1738573881,"current_range_meters":27200,"station_id":"ce4bgjp2rcd13ifvqbh0","pricing_plan_id":"cebpf4jnsgd1na2vs0mg"},{"bike_id":"d3c71994-f738-4ff3-a20e-ace13d2c73e0","system_id":"levelo_inurba_marseille","lat":43.254988,"lon":5.376601,"is_reserved":false,"is_disabled":false,"rental_uris":{"android":"levelo://app?vid=d3c71994-f738-4ff3-a20e-ace13d2c73e0","ios":"levelo://app?vid=d3c71994-f738-4ff3-a20e-ace13d2c73e0"},"vehicle_type_id":"4","last_reported":1738573881,"current_range_meters":38800,"station_id":"ce4bhh12rcd13ifvqff0","pricing_plan_id":"cebpf4jnsgd1na2vs0mg"},{"bike_id":"4a7af680-8a77-45cb-85cc-9f0a7f33be68","system_id":"levelo_inurba_marseille","lat":43.29799,"lon":5.40435,"is_reserved":false,"is_disabled":true,"rental_uris":{"android":"levelo://app?vid=4a7af680-8a77-45cb-85cc-9f0a7f33be68","ios":"levelo://app?vid=4a7af680-8a77-45cb-85cc-9f0a7f33be68"},"vehicle_type_id":"4","last_reported":1738573881,"current_range_meters":24000,"station_id":"ce4bh112rcd13ifvqd90","pricing_plan_id":"cebpf4jnsgd1na2vs0mg"},{"bike_id":"50b533b5-9c83-4e5b-9ee2-941faa3eb899","system_id":"levelo_inurba_marseille","lat":43.27804,"lon":5.40721,"is_reserved":false,"is_disabled":false,"rental_uris":{"android":"levelo://app?vid=50b533b5-9c83-4e5b-9ee2-941faa3eb899","ios":"levelo://app?vid=50b533b5-9c83-4e5b-9ee2-941faa3eb899"},"vehicle_type_id":"4","last_reported":1738573881,"current_range_meters":38800,"station_id":"ce4bhnh2rcd13ifvqgtg","pricing_plan_id":"cebpf4jnsgd1na2vs0mg"},{"bike_id":"99c1e446-17f6-4977-ab02-37cf2dc4140e","system_id":"levelo_inurba_marseille","lat":43.24162,"lon":5.36409,"is_reserved":false,"is_disabled":false,"rental_uris":{"android":"levelo://app?vid=99c1e446-17f6-4977-ab02-37cf2dc4140e","ios":"levelo://app?vid=99c1e446-17f6-4977-ab02-37cf2dc4140e"},"vehicle_type_id":"4","last_reported":1738573881,"current_range_meters":27600,"station_id":"cpo36qri1sfpv3e86is0","pricing_plan_id":"cebpf4jnsgd1na2vs0mg"},{"bike_id":"6a51dcd2-766e-4f62-b08e-efdf981c24f8","system_id":"levelo_inurba_marseille","lat":43.29089,"lon":5.38136,"is_reserved":false,"is_disabled":false,"rental_uris":{"android":"levelo://app?vid=6a51dcd2-766e-4f62-b08e-efdf981c24f8","ios":"levelo://app?vid=6a51dcd2-766e-4f62-b08e-efdf981c24f8"},"vehicle_type_id":"4","last_reported":1738573881,"current_range_meters":12800,"station_id":"ce4bh512rcd13ifvqe2g","pricing_plan_id":"cebpf4jnsgd1na2vs0mg"},{"bike_id":"e5931363-493d-4d5b-87bb-5572104dbc7e","system_id":"levelo_inurba_marseille","lat":43.297362,"lon":5.376934,"is_reserved":false,"is_disabled":false,"rental_uris":{"android":"levelo://app?vid=e5931363-493d-4d5b-87bb-5572104dbc7e","ios":"levelo://app?vid=e5931363-493d-4d5b-87bb-5572104dbc7e"},"vehicle_type_id":"4","last_reported":1738573881,"current_range_meters":13600,"station_id":"ce4bgkh2rcd13ifvqbl0","pricing_plan_id":"cebpf4jnsgd1na2vs0mg"},{"bike_id":"37ba8b6f-005b-42d7-90c2-0c64fb7745e0","system_id":"levelo_inurba_marseille","lat":43.29549,"lon":5.40006,"is_reserved":false,"is_disabled":false,"rental_uris":{"android":"levelo://app?vid=37ba8b6f-005b-42d7-90c2-0c64fb7745e0","ios":"levelo://app?vid=37ba8b6f-005b-42d7-90c2-0c64fb7745e0"},"vehicle_type_id":"4","last_reported":1738573881,"current_range_meters":38000,"station_id":"ce4bh312rcd13ifvqdj0","pricing_plan_id":"cebpf4jnsgd1na2vs0mg"},{"bike_id":"246cfd69-3f92-4e90-aa97-e3988a738d3e","system_id":"levelo_inurba_marseille","lat":43.28657,"lon":5.38672,"is_reserved":false,"is_disabled":false,"rental_uris":{"android":"levelo://app?vid=246cfd69-3f92-4e90-aa97-e3988a738d3e","ios":"levelo://app?vid=246cfd69-3f92-4e90-aa97-e3988a738d3e"},"vehicle_type_id":"4","last_reported":1738573881,"current_range_meters":32800,"station_id":"ce4bh492rcd13ifvqdug","pricing_plan_id":"cebpf4jnsgd1na2vs0mg"},{"bike_id":"f38a9b51-7bc8-4445-89b3-2095fb6b771f","system_id":"levelo_inurba_marseille","lat":43.28692,"lon":5.3739,"is_reserved":false,"is_disabled":false,"rental_uris":{"android":"levelo://app?vid=f38a9b51-7bc8-4445-89b3-2095fb6b771f","ios":"levelo://app?vid=f38a9b51-7bc8-4445-89b3-2095fb6b771f"},"vehicle_type_id":"4","last_reported":1738573881,"current_range_meters":19200,"station_id":"ce4bh3p2rcd13ifvqdq0","pricing_plan_id":"cebpf4jnsgd1na2vs0mg"},{"bike_id":"4fe98ca1-3cc7-44c3-beac-50c3d6729292","system_id":"levelo_inurba_marseille","lat":43.307997,"lon":5.368057,"is_reserved":false,"is_disabled":false,"rental_uris":{"android":"levelo://app?vid=4fe98ca1-3cc7-44c3-beac-50c3d6729292","ios":"levelo://app?vid=4fe98ca1-3cc7-44c3-beac-50c3d6729292"},"vehicle_type_id":"4","last_reported":1738573881,"current_range_meters":38800,"station_id":"ce4bgrp2rcd13ifvqc9g","pricing_plan_id":"cebpf4jnsgd1na2vs0mg"},{"bike_id":"ca7e15f3-17fb-4a11-90c9-44f890751cc3","system_id":"levelo_inurba_marseille","lat":43.2781,"lon":5.40714,"is_reserved":false,"is_disabled":false,"rental_uris":{"android":"levelo://app?vid=ca7e15f3-17fb-4a11-90c9-44f890751cc3","ios":"levelo://app?vid=ca7e15f3-17fb-4a11-90c9-44f890751cc3"},"vehicle_type_id":"4","last_reported":1738573881,"current_range_meters":22400,"station_id":"ce4bhnh2rcd13ifvqgtg","pricing_plan_id":"cebpf4jnsgd1na2vs0mg"},{"bike_id":"4d59ea48-d125-4030-b919-cad5fec49e9e","system_id":"levelo_inurba_marseille","lat":43.30914,"lon":5.36852,"is_reserved":false,"is_disabled":false,"rental_uris":{"android":"levelo://app?vid=4d59ea48-d125-4030-b919-cad5fec49e9e","ios":"levelo://app?vid=4d59ea48-d125-4030-b919-cad5fec49e9e"},"vehicle_type_id":"4","last_reported":1738573881,"current_range_meters":38000,"station_id":"ce4bgn92rcd13ifvqbvg","pricing_plan_id":"cebpf4jnsgd1na2vs0mg"},{"bike_id":"50117d72-448a-47db-9bcf-619a26018d31","system_id":"levelo_inurba_marseille","lat":43.27502,"lon":5.42458,"is_reserved":false,"is_disabled":false,"rental_uris":{"android":"levelo://app?vid=50117d72-448a-47db-9bcf-619a26018d31","ios":"levelo://app?vid=50117d72-448a-47db-9bcf-619a26018d31"},"vehicle_type_id":"4","last_reported":1738573881,"current_range_meters":18000,"station_id":"ce4bhn92rcd13ifvqgrg","pricing_plan_id":"cebpf4jnsgd1na2vs0mg"},{"bike_id":"7d53f575-2bb0-470a-a089-1bb5e667eb90","system_id":"levelo_inurba_marseille","lat":43.30457,"lon":5.37909,"is_reserved":false,"is_disabled":false,"rental_uris":{"android":"levelo://app?vid=7d53f575-2bb0-470a-a089-1bb5e667eb90","ios":"levelo://app?vid=7d53f575-2bb0-470a-a089-1bb5e667eb90"},"vehicle_type_id":"4","last_reported":1738573881,"current_range_meters":12400,"station_id":"ce4bgup2rcd13ifvqcn0","pricing_plan_id":"cebpf4jnsgd1na2vs0mg"},{"bike_id":"38550d3a-6ea8-406c-935e-ef654544b87c","system_id":"levelo_inurba_marseille","lat":43.32483,"lon":5.36566,"is_reserved":false,"is_disabled":false,"rental_uris":{"android":"levelo://app?vid=38550d3a-6ea8-406c-935e-ef654544b87c","ios":"levelo://app?vid=38550d3a-6ea8-406c-935e-ef654544b87c"},"vehicle_type_id":"4","last_reported":1738573881,"current_range_meters":10800,"station_id":"ce4bhs12rcd13ifvqhvg","pricing_plan_id":"cebpf4jnsgd1na2vs0mg"},{"bike_id":"c0fd1893-6129-442b-a4c2-f171e0c2e0de","system_id":"levelo_inurba_marseille","lat":43.27959,"lon":5.4103,"is_reserved":false,"is_disabled":false,"rental_uris":{"android":"levelo://app?vid=c0fd1893-6129-442b-a4c2-f171e0c2e0de","ios":"levelo://app?vid=c0fd1893-6129-442b-a4c2-f171e0c2e0de"},"vehicle_type_id":"4","last_reported":1738573881,"current_range_meters":28000,"station_id":"ce4bhnp2rcd13ifvqh0g","pricing_plan_id":"cebpf4jnsgd1na2vs0mg"},{"bike_id":"00bbb5cd-9f74-4c00-94cb-7246c199dfb7","system_id":"levelo_inurba_marseille","lat":43.28598,"lon":5.35136,"is_reserved":false,"is_disabled":true,"rental_uris":{"android":"levelo://app?vid=00bbb5cd-9f74-4c00-94cb-7246c199dfb7","ios":"levelo://app?vid=00bbb5cd-9f74-4c00-94cb-7246c199dfb7"},"vehicle_type_id":"4","last_reported":1738573881,"current_range_meters":0,"station_id":"ce4bhch2rcd13ifvqeug","pricing_plan_id":"cebpf4jnsgd1na2vs0mg"},{"bike_id":"ab4e1438-274f-4ed7-ac4d-8bd3728badb1","system_id":"levelo_inurba_marseille","lat":43.25107,"lon":5.40329,"is_reserved":false,"is_disabled":false,"rental_uris":{"android":"levelo://app?vid=ab4e1438-274f-4ed7-ac4d-8bd3728badb1","ios":"levelo://app?vid=ab4e1438-274f-4ed7-ac4d-8bd3728badb1"},"vehicle_type_id":"4","last_reported":1738573881,"current_range_meters":28000,"station_id":"ce4bhlh2rcd13ifvqgig","pricing_plan_id":"cebpf4jnsgd1na2vs0mg"},{"bike_id":"785d7c7b-9ee6-419c-8415-ff90703fea3d","system_id":"levelo_inurba_marseille","lat":43.31388,"lon":5.36704,"is_reserved":false,"is_disabled":false,"rental_uris":{"android":"levelo://app?vid=785d7c7b-9ee6-419c-8415-ff90703fea3d","ios":"levelo://app?vid=785d7c7b-9ee6-419c-8415-ff90703fea3d"},"vehicle_type_id":"4","last_reported":1738573881,"current_range_meters":38800,"station_id":"","pricing_plan_id":"cebpf4jnsgd1na2vs0mg"},{"bike_id":"c158ce36-7f7d-4edd-a0c1-83dd6e7887f0","system_id":"levelo_inurba_marseille","lat":43.273134,"lon":5.39114,"is_reserved":false,"is_disabled":false,"rental_uris":{"android":"levelo://app?vid=c158ce36-7f7d-4edd-a0c1-83dd6e7887f0","ios":"levelo://app?vid=c158ce36-7f7d-4edd-a0c1-83dd6e7887f0"},"vehicle_type_id":"4","last_reported":1738573881,"current_range_meters":38800,"station_id":"ce4bhgp2rcd13ifvqfe0","pricing_plan_id":"cebpf4jnsgd1na2vs0mg"},{"bike_id":"f4001614-a8f5-4231-b4a5-58ad6a748e23","system_id":"levelo_inurba_marseille","lat":43.29968,"lon":5.41337,"is_reserved":false,"is_disabled":false,"rental_uris":{"android":"levelo://app?vid=f4001614-a8f5-4231-b4a5-58ad6a748e23","ios":"levelo://app?vid=f4001614-a8f5-4231-b4a5-58ad6a748e23"},"vehicle_type_id":"4","last_reported":1738573881,"current_range_meters":6800,"station_id":"ce4bhp12rcd13ifvqh9g","pricing_plan_id":"cebpf4jnsgd1na2vs0mg"},{"bike_id":"637ee9bc-6e1a-4347-a000-7908a013bdfd","system_id":"levelo_inurba_marseille","lat":43.3013,"lon":5.37422,"is_reserved":false,"is_disabled":false,"rental_uris":{"android":"levelo://app?vid=637ee9bc-6e1a-4347-a000-7908a013bdfd","ios":"levelo://app?vid=637ee9bc-6e1a-4347-a000-7908a013bdfd"},"vehicle_type_id":"4","last_reported":1738573881,"current_range_meters":38800,"station_id":"ce4bgs92rcd13ifvqcc0","pricing_plan_id":"cebpf4jnsgd1na2vs0mg"},{"bike_id":"20bb86fb-f58e-44f4-a3d2-173ed49faa5a","system_id":"levelo_inurba_marseille","lat":43.24175,"lon":5.39734,"is_reserved":false,"is_disabled":false,"rental_uris":{"android":"levelo://app?vid=20bb86fb-f58e-44f4-a3d2-173ed49faa5a","ios":"levelo://app?vid=20bb86fb-f58e-44f4-a3d2-173ed49faa5a"},"vehicle_type_id":"4","last_reported":1738573881,"current_range_meters":16000,"station_id":"ce4bhn12rcd13ifvqgpg","pricing_plan_id":"cebpf4jnsgd1na2vs0mg"},{"bike_id":"9c4d6e39-25b9-47fd-a824-904cf56fefec","system_id":"levelo_inurba_marseille","lat":43.30142,"lon":5.38103,"is_reserved":false,"is_disabled":false,"rental_uris":{"android":"levelo://app?vid=9c4d6e39-25b9-47fd-a824-904cf56fefec","ios":"levelo://app?vid=9c4d6e39-25b9-47fd-a824-904cf56fefec"},"vehicle_type_id":"4","last_reported":1738573881,"current_range_meters":29600,"station_id":"ce4bgjp2rcd13ifvqbh0","pricing_plan_id":"cebpf4jnsgd1na2vs0mg"},{"bike_id":"1c734ea3-fbfc-4cf2-9841-579ee0ff2de1","system_id":"levelo_inurba_marseille","lat":43.31352,"lon":5.36729,"is_reserved":false,"is_disabled":false,"rental_uris":{"android":"levelo://app?vid=1c734ea3-fbfc-4cf2-9841-579ee0ff2de1","ios":"levelo://app?vid=1c734ea3-fbfc-4cf2-9841-579ee0ff2de1"},"vehicle_type_id":"4","last_reported":1738573881,"current_range_meters":36000,"station_id":"ce4bgr92rcd13ifvqc6g","pricing_plan_id":"cebpf4jnsgd1na2vs0mg"},{"bike_id":"1e99f768-8760-4404-b699-76ef76026a93","system_id":"levelo_inurba_marseille","lat":43.3018,"lon":5.38082,"is_reserved":false,"is_disabled":false,"rental_uris":{"android":"levelo://app?vid=1e99f768-8760-4404-b699-76ef76026a93","ios":"levelo://app?vid=1e99f768-8760-4404-b699-76ef76026a93"},"vehicle_type_id":"4","last_reported":1738573881,"current_range_meters":38800,"station_id":"ce4bgjp2rcd13ifvqbh0","pricing_plan_id":"cebpf4jnsgd1na2vs0mg"},{"bike_id":"7ef563b4-4fe3-4173-bc92-ecc64da7a654","system_id":"levelo_inurba_marseille","lat":43.26481,"lon":5.39553,"is_reserved":false,"is_disabled":false,"rental_uris":{"android":"levelo://app?vid=7ef563b4-4fe3-4173-bc92-ecc64da7a654","ios":"levelo://app?vid=7ef563b4-4fe3-4173-bc92-ecc64da7a654"},"vehicle_type_id":"4","last_reported":1738573881,"current_range_meters":39200,"station_id":"ce4bhi12rcd13ifvqfq0","pricing_plan_id":"cebpf4jnsgd1na2vs0mg"},{"bike_id":"93b49084-e6f7-44ad-bdb7-6aedefc580e2","system_id":"levelo_inurba_marseille","lat":43.26559,"lon":5.39054,"is_reserved":false,"is_disabled":false,"rental_uris":{"android":"levelo://app?vid=93b49084-e6f7-44ad-bdb7-6aedefc580e2","ios":"levelo://app?vid=93b49084-e6f7-44ad-bdb7-6aedefc580e2"},"vehicle_type_id":"4","last_reported":1738573881,"current_range_meters":34800,"station_id":"ce4bhe12rcd13ifvqf30","pricing_plan_id":"cebpf4jnsgd1na2vs0mg"},{"bike_id":"093ac1ad-aed6-4f26-bc9e-f9dd53f74afd","system_id":"levelo_inurba_marseille","lat":43.31335,"lon":5.36688,"is_reserved":false,"is_disabled":false,"rental_uris":{"android":"levelo://app?vid=093ac1ad-aed6-4f26-bc9e-f9dd53f74afd","ios":"levelo://app?vid=093ac1ad-aed6-4f26-bc9e-f9dd53f74afd"},"vehicle_type_id":"4","last_reported":1738573881,"current_range_meters":27600,"station_id":"ce4bgr92rcd13ifvqc6g","pricing_plan_id":"cebpf4jnsgd1na2vs0mg"},{"bike_id":"0a00e1ed-f2d2-400b-9507-9779a7d0bfd3","system_id":"levelo_inurba_marseille","lat":43.301384,"lon":5.380666,"is_reserved":false,"is_disabled":false,"rental_uris":{"android":"levelo://app?vid=0a00e1ed-f2d2-400b-9507-9779a7d0bfd3","ios":"levelo://app?vid=0a00e1ed-f2d2-400b-9507-9779a7d0bfd3"},"vehicle_type_id":"4","last_reported":1738573881,"current_range_meters":39200,"station_id":"ce4bgjp2rcd13ifvqbh0","pricing_plan_id":"cebpf4jnsgd1na2vs0mg"},{"bike_id":"c0e7550b-6f33-4fbd-9387-96500956f50a","system_id":"levelo_inurba_marseille","lat":43.29441,"lon":5.39783,"is_reserved":false,"is_disabled":true,"rental_uris":{"android":"levelo://app?vid=c0e7550b-6f33-4fbd-9387-96500956f50a","ios":"levelo://app?vid=c0e7550b-6f33-4fbd-9387-96500956f50a"},"vehicle_type_id":"4","last_reported":1738573881,"current_range_meters":18000,"station_id":"ce4bh3h2rcd13ifvqdo0","pricing_plan_id":"cebpf4jnsgd1na2vs0mg"},{"bike_id":"a30d8b93-ac92-468d-a652-79171594fd66","system_id":"levelo_inurba_marseille","lat":43.33613,"lon":5.41039,"is_reserved":false,"is_disabled":false,"rental_uris":{"android":"levelo://app?vid=a30d8b93-ac92-468d-a652-79171594fd66","ios":"levelo://app?vid=a30d8b93-ac92-468d-a652-79171594fd66"},"vehicle_type_id":"4","last_reported":1738573881,"current_range_meters":17200,"station_id":"ce4bhqh2rcd13ifvqhmg","pricing_plan_id":"cebpf4jnsgd1na2vs0mg"},{"bike_id":"1f54b7a5-732a-4991-a975-a49fa39d063b","system_id":"levelo_inurba_marseille","lat":43.26946,"lon":5.38631,"is_reserved":false,"is_disabled":false,"rental_uris":{"android":"levelo://app?vid=1f54b7a5-732a-4991-a975-a49fa39d063b","ios":"levelo://app?vid=1f54b7a5-732a-4991-a975-a49fa39d063b"},"vehicle_type_id":"4","last_reported":1738573881,"current_range_meters":38800,"station_id":"ce4bhh92rcd13ifvqfh0","pricing_plan_id":"cebpf4jnsgd1na2vs0mg"},{"bike_id":"51e98b31-1659-413c-a2fd-ad1f5f5b25a8","system_id":"levelo_inurba_marseille","lat":43.31012,"lon":5.36719,"is_reserved":false,"is_disabled":false,"rental_uris":{"android":"levelo://app?vid=51e98b31-1659-413c-a2fd-ad1f5f5b25a8","ios":"levelo://app?vid=51e98b31-1659-413c-a2fd-ad1f5f5b25a8"},"vehicle_type_id":"4","last_reported":1738573881,"current_range_meters":28800,"station_id":"","pricing_plan_id":"cebpf4jnsgd1na2vs0mg"},{"bike_id":"320f17aa-5d3b-45da-a6be-b587cdc1c956","system_id":"levelo_inurba_marseille","lat":43.24153,"lon":5.39712,"is_reserved":false,"is_disabled":false,"rental_uris":{"android":"levelo://app?vid=320f17aa-5d3b-45da-a6be-b587cdc1c956","ios":"levelo://app?vid=320f17aa-5d3b-45da-a6be-b587cdc1c956"},"vehicle_type_id":"4","last_reported":1738573881,"current_range_meters":25600,"station_id":"ce4bhn12rcd13ifvqgpg","pricing_plan_id":"cebpf4jnsgd1na2vs0mg"},{"bike_id":"a3a9a951-a51b-4c6b-a32a-389fa428d17e","system_id":"levelo_inurba_marseille","lat":43.31358,"lon":5.36721,"is_reserved":false,"is_disabled":false,"rental_uris":{"android":"levelo://app?vid=a3a9a951-a51b-4c6b-a32a-389fa428d17e","ios":"levelo://app?vid=a3a9a951-a51b-4c6b-a32a-389fa428d17e"},"vehicle_type_id":"4","last_reported":1738573881,"current_range_meters":34000,"station_id":"ce4bgr92rcd13ifvqc6g","pricing_plan_id":"cebpf4jnsgd1na2vs0mg"},{"bike_id":"0373a3d8-66b3-4db8-928b-e908ebb687eb","system_id":"levelo_inurba_marseille","lat":43.33603,"lon":5.41034,"is_reserved":false,"is_disabled":true,"rental_uris":{"android":"levelo://app?vid=0373a3d8-66b3-4db8-928b-e908ebb687eb","ios":"levelo://app?vid=0373a3d8-66b3-4db8-928b-e908ebb687eb"},"vehicle_type_id":"4","last_reported":1738573881,"current_range_meters":800,"station_id":"ce4bhqh2rcd13ifvqhmg","pricing_plan_id":"cebpf4jnsgd1na2vs0mg"},{"bike_id":"e25e7c8d-e943-4d96-8f84-0602de6aff1f","system_id":"levelo_inurba_marseille","lat":43.23142,"lon":5.43724,"is_reserved":false,"is_disabled":true,"rental_uris":{"android":"levelo://app?vid=e25e7c8d-e943-4d96-8f84-0602de6aff1f","ios":"levelo://app?vid=e25e7c8d-e943-4d96-8f84-0602de6aff1f"},"vehicle_type_id":"4","last_reported":1738573881,"current_range_meters":39200,"station_id":"ce4bhmp2rcd13ifvqgog","pricing_plan_id":"cebpf4jnsgd1na2vs0mg"},{"bike_id":"a6818396-7f0c-4f93-8876-8b124bd41ef7","system_id":"levelo_inurba_marseille","lat":43.29773,"lon":5.3811,"is_reserved":false,"is_disabled":false,"rental_uris":{"android":"levelo://app?vid=a6818396-7f0c-4f93-8876-8b124bd41ef7","ios":"levelo://app?vid=a6818396-7f0c-4f93-8876-8b124bd41ef7"},"vehicle_type_id":"4","last_reported":1738573881,"current_range_meters":37600,"station_id":"ce4bgip2rcd13ifvqbb0","pricing_plan_id":"cebpf4jnsgd1na2vs0mg"},{"bike_id":"593a1483-ca61-4762-9ad9-5cad0d4da92d","system_id":"levelo_inurba_marseille","lat":43.31358,"lon":5.36721,"is_reserved":false,"is_disabled":false,"rental_uris":{"android":"levelo://app?vid=593a1483-ca61-4762-9ad9-5cad0d4da92d","ios":"levelo://app?vid=593a1483-ca61-4762-9ad9-5cad0d4da92d"},"vehicle_type_id":"4","last_reported":1738573881,"current_range_meters":22400,"station_id":"ce4bgr92rcd13ifvqc6g","pricing_plan_id":"cebpf4jnsgd1na2vs0mg"},{"bike_id":"ff0fd313-20fd-41f0-916c-9453230696af","system_id":"levelo_inurba_marseille","lat":43.2407,"lon":5.37766,"is_reserved":false,"is_disabled":false,"rental_uris":{"android":"levelo://app?vid=ff0fd313-20fd-41f0-916c-9453230696af","ios":"levelo://app?vid=ff0fd313-20fd-41f0-916c-9453230696af"},"vehicle_type_id":"4","last_reported":1738573881,"current_range_meters":20000,"station_id":"ce4bhnp2rcd13ifvqgvg","pricing_plan_id":"cebpf4jnsgd1na2vs0mg"},{"bike_id":"c3bd0e5a-4f83-43bd-9115-f1a5683b3a72","system_id":"levelo_inurba_marseille","lat":43.30558,"lon":5.36537,"is_reserved":false,"is_disabled":false,"rental_uris":{"android":"levelo://app?vid=c3bd0e5a-4f83-43bd-9115-f1a5683b3a72","ios":"levelo://app?vid=c3bd0e5a-4f83-43bd-9115-f1a5683b3a72"},"vehicle_type_id":"4","last_reported":1738573881,"current_range_meters":38400,"station_id":"ce4bgs12rcd13ifvqcag","pricing_plan_id":"cebpf4jnsgd1na2vs0mg"},{"bike_id":"22264ea7-42c9-425e-a29f-07e9fe3444e8","system_id":"levelo_inurba_marseille","lat":43.24801,"lon":5.37462,"is_reserved":false,"is_disabled":true,"rental_uris":{"android":"levelo://app?vid=22264ea7-42c9-425e-a29f-07e9fe3444e8","ios":"levelo://app?vid=22264ea7-42c9-425e-a29f-07e9fe3444e8"},"vehicle_type_id":"4","last_reported":1738573881,"current_range_meters":38800,"station_id":"ce4bhgh2rcd13ifvqfb0","pricing_plan_id":"cebpf4jnsgd1na2vs0mg"},{"bike_id":"ab2f74c7-063c-4c10-800d-018107c4c0c2","system_id":"levelo_inurba_marseille","lat":43.25574,"lon":5.38229,"is_reserved":false,"is_disabled":false,"rental_uris":{"android":"levelo://app?vid=ab2f74c7-063c-4c10-800d-018107c4c0c2","ios":"levelo://app?vid=ab2f74c7-063c-4c10-800d-018107c4c0c2"},"vehicle_type_id":"4","last_reported":1738573881,"current_range_meters":12000,"station_id":"ce4bhih2rcd13ifvqfs0","pricing_plan_id":"cebpf4jnsgd1na2vs0mg"},{"bike_id":"a7124f32-0d73-4fed-899e-5eb22bb4f9df","system_id":"levelo_inurba_marseille","lat":43.29099,"lon":5.38141,"is_reserved":false,"is_disabled":false,"rental_uris":{"android":"levelo://app?vid=a7124f32-0d73-4fed-899e-5eb22bb4f9df","ios":"levelo://app?vid=a7124f32-0d73-4fed-899e-5eb22bb4f9df"},"vehicle_type_id":"4","last_reported":1738573881,"current_range_meters":38800,"station_id":"ce4bh512rcd13ifvqe2g","pricing_plan_id":"cebpf4jnsgd1na2vs0mg"},{"bike_id":"c1bc9951-838a-4a12-bda7-797741260f54","system_id":"levelo_inurba_marseille","lat":43.31364,"lon":5.36699,"is_reserved":false,"is_disabled":false,"rental_uris":{"android":"levelo://app?vid=c1bc9951-838a-4a12-bda7-797741260f54","ios":"levelo://app?vid=c1bc9951-838a-4a12-bda7-797741260f54"},"vehicle_type_id":"4","last_reported":1738573881,"current_range_meters":38800,"station_id":"ce4bgr92rcd13ifvqc6g","pricing_plan_id":"cebpf4jnsgd1na2vs0mg"},{"bike_id":"180659d5-ad24-4e58-99b6-719de37ca79f","system_id":"levelo_inurba_marseille","lat":43.25935,"lon":5.40909,"is_reserved":false,"is_disabled":false,"rental_uris":{"android":"levelo://app?vid=180659d5-ad24-4e58-99b6-719de37ca79f","ios":"levelo://app?vid=180659d5-ad24-4e58-99b6-719de37ca79f"},"vehicle_type_id":"4","last_reported":1738573881,"current_range_meters":16000,"station_id":"ce4bhm92rcd13ifvqglg","pricing_plan_id":"cebpf4jnsgd1na2vs0mg"},{"bike_id":"7588bc4f-7042-4223-9ca0-161d0bac57e1","system_id":"levelo_inurba_marseille","lat":43.29787,"lon":5.38111,"is_reserved":false,"is_disabled":false,"rental_uris":{"android":"levelo://app?vid=7588bc4f-7042-4223-9ca0-161d0bac57e1","ios":"levelo://app?vid=7588bc4f-7042-4223-9ca0-161d0bac57e1"},"vehicle_type_id":"4","last_reported":1738573881,"current_range_meters":22800,"station_id":"ce4bgip2rcd13ifvqbb0","pricing_plan_id":"cebpf4jnsgd1na2vs0mg"},{"bike_id":"5f89be7a-4f79-4358-803f-587f350c4ac8","system_id":"levelo_inurba_marseille","lat":43.27958,"lon":5.41019,"is_reserved":false,"is_disabled":false,"rental_uris":{"android":"levelo://app?vid=5f89be7a-4f79-4358-803f-587f350c4ac8","ios":"levelo://app?vid=5f89be7a-4f79-4358-803f-587f350c4ac8"},"vehicle_type_id":"4","last_reported":1738573881,"current_range_meters":27200,"station_id":"ce4bhnp2rcd13ifvqh0g","pricing_plan_id":"cebpf4jnsgd1na2vs0mg"},{"bike_id":"66dce8aa-42dc-4a3d-af23-afc8aaf9a228","system_id":"levelo_inurba_marseille","lat":43.30551,"lon":5.36539,"is_reserved":false,"is_disabled":false,"rental_uris":{"android":"levelo://app?vid=66dce8aa-42dc-4a3d-af23-afc8aaf9a228","ios":"levelo://app?vid=66dce8aa-42dc-4a3d-af23-afc8aaf9a228"},"vehicle_type_id":"4","last_reported":1738573881,"current_range_meters":14400,"station_id":"ce4bgs12rcd13ifvqcag","pricing_plan_id":"cebpf4jnsgd1na2vs0mg"},{"bike_id":"a670a210-06fc-4b28-84dc-a894a7c5abb8","system_id":"levelo_inurba_marseille","lat":43.28151,"lon":5.42661,"is_reserved":false,"is_disabled":false,"rental_uris":{"android":"levelo://app?vid=a670a210-06fc-4b28-84dc-a894a7c5abb8","ios":"levelo://app?vid=a670a210-06fc-4b28-84dc-a894a7c5abb8"},"vehicle_type_id":"4","last_reported":1738573881,"current_range_meters":2800,"station_id":"ce4bhnh2rcd13ifvqgug","pricing_plan_id":"cebpf4jnsgd1na2vs0mg"},{"bike_id":"fb316c39-dfca-4786-825a-c4c82ebe121b","system_id":"levelo_inurba_marseille","lat":43.29008,"lon":5.38127,"is_reserved":false,"is_disabled":false,"rental_uris":{"android":"levelo://app?vid=fb316c39-dfca-4786-825a-c4c82ebe121b","ios":"levelo://app?vid=fb316c39-dfca-4786-825a-c4c82ebe121b"},"vehicle_type_id":"4","last_reported":1738573881,"current_range_meters":38800,"station_id":"ce4bh4p2rcd13ifvqe1g","pricing_plan_id":"cebpf4jnsgd1na2vs0mg"},{"bike_id":"42d52280-0f47-4991-9b8f-b489cef474d8","system_id":"levelo_inurba_marseille","lat":43.28606,"lon":5.37075,"is_reserved":false,"is_disabled":false,"rental_uris":{"android":"levelo://app?vid=42d52280-0f47-4991-9b8f-b489cef474d8","ios":"levelo://app?vid=42d52280-0f47-4991-9b8f-b489cef474d8"},"vehicle_type_id":"4","last_reported":1738573881,"current_range_meters":38800,"station_id":"ce4bht12rcd13ifvqi60","pricing_plan_id":"cebpf4jnsgd1na2vs0mg"},{"bike_id":"b6dacc3c-5217-4cd9-91fa-eaee23048b91","system_id":"levelo_inurba_marseille","lat":43.26198,"lon":5.37936,"is_reserved":false,"is_disabled":false,"rental_uris":{"android":"levelo://app?vid=b6dacc3c-5217-4cd9-91fa-eaee23048b91","ios":"levelo://app?vid=b6dacc3c-5217-4cd9-91fa-eaee23048b91"},"vehicle_type_id":"4","last_reported":1738573881,"current_range_meters":24800,"station_id":"ce4bhjp2rcd13ifvqg90","pricing_plan_id":"cebpf4jnsgd1na2vs0mg"},{"bike_id":"595deccd-9a28-4c1d-a48b-d01c02ed739e","system_id":"levelo_inurba_marseille","lat":43.31245,"lon":5.36826,"is_reserved":false,"is_disabled":false,"rental_uris":{"android":"levelo://app?vid=595deccd-9a28-4c1d-a48b-d01c02ed739e","ios":"levelo://app?vid=595deccd-9a28-4c1d-a48b-d01c02ed739e"},"vehicle_type_id":"4","last_reported":1738573881,"current_range_meters":39200,"station_id":"ce4bgl92rcd13ifvqbq0","pricing_plan_id":"cebpf4jnsgd1na2vs0mg"},{"bike_id":"c4a13aad-d399-410c-852d-d00288139f36","system_id":"levelo_inurba_marseille","lat":43.30891,"lon":5.37198,"is_reserved":false,"is_disabled":false,"rental_uris":{"android":"levelo://app?vid=c4a13aad-d399-410c-852d-d00288139f36","ios":"levelo://app?vid=c4a13aad-d399-410c-852d-d00288139f36"},"vehicle_type_id":"4","last_reported":1738573881,"current_range_meters":29600,"station_id":"ce4bguh2rcd13ifvqckg","pricing_plan_id":"cebpf4jnsgd1na2vs0mg"},{"bike_id":"ae1f1e85-ec64-4dc1-ba5d-4214ac0bbd57","system_id":"levelo_inurba_marseille","lat":43.28586,"lon":5.37055,"is_reserved":false,"is_disabled":true,"rental_uris":{"android":"levelo://app?vid=ae1f1e85-ec64-4dc1-ba5d-4214ac0bbd57","ios":"levelo://app?vid=ae1f1e85-ec64-4dc1-ba5d-4214ac0bbd57"},"vehicle_type_id":"4","last_reported":1738573881,"current_range_meters":3600,"station_id":"","pricing_plan_id":"cebpf4jnsgd1na2vs0mg"},{"bike_id":"6337d338-3511-4993-ada0-12102998e834","system_id":"levelo_inurba_marseille","lat":43.23057,"lon":5.35487,"is_reserved":false,"is_disabled":false,"rental_uris":{"android":"levelo://app?vid=6337d338-3511-4993-ada0-12102998e834","ios":"levelo://app?vid=6337d338-3511-4993-ada0-12102998e834"},"vehicle_type_id":"4","last_reported":1738573881,"current_range_meters":36800,"station_id":"cpo3342slgdg3j2ifvpg","pricing_plan_id":"cebpf4jnsgd1na2vs0mg"},{"bike_id":"1ae35aa9-76b5-4959-aacc-898df34cf05a","system_id":"levelo_inurba_marseille","lat":43.30533,"lon":5.36719,"is_reserved":false,"is_disabled":false,"rental_uris":{"android":"levelo://app?vid=1ae35aa9-76b5-4959-aacc-898df34cf05a","ios":"levelo://app?vid=1ae35aa9-76b5-4959-aacc-898df34cf05a"},"vehicle_type_id":"4","last_reported":1738573881,"current_range_meters":14800,"station_id":"ce4bgrp2rcd13ifvqc9g","pricing_plan_id":"cebpf4jnsgd1na2vs0mg"},{"bike_id":"2929de6e-bcde-4160-b618-bd81a9a367de","system_id":"levelo_inurba_marseille","lat":43.23191,"lon":5.35559,"is_reserved":false,"is_disabled":false,"rental_uris":{"android":"levelo://app?vid=2929de6e-bcde-4160-b618-bd81a9a367de","ios":"levelo://app?vid=2929de6e-bcde-4160-b618-bd81a9a367de"},"vehicle_type_id":"4","last_reported":1738573881,"current_range_meters":22800,"station_id":"ce4bhu92rcd13ifvqi70","pricing_plan_id":"cebpf4jnsgd1na2vs0mg"},{"bike_id":"a7366e5f-85e5-4b2b-94be-38732432eca2","system_id":"levelo_inurba_marseille","lat":43.325,"lon":5.36563,"is_reserved":false,"is_disabled":false,"rental_uris":{"android":"levelo://app?vid=a7366e5f-85e5-4b2b-94be-38732432eca2","ios":"levelo://app?vid=a7366e5f-85e5-4b2b-94be-38732432eca2"},"vehicle_type_id":"4","last_reported":1738573881,"current_range_meters":38800,"station_id":"ce4bhs12rcd13ifvqhvg","pricing_plan_id":"cebpf4jnsgd1na2vs0mg"},{"bike_id":"bc52290c-36bb-40f2-9462-d55c4a45f578","system_id":"levelo_inurba_marseille","lat":43.30457,"lon":5.37921,"is_reserved":false,"is_disabled":false,"rental_uris":{"android":"levelo://app?vid=bc52290c-36bb-40f2-9462-d55c4a45f578","ios":"levelo://app?vid=bc52290c-36bb-40f2-9462-d55c4a45f578"},"vehicle_type_id":"4","last_reported":1738573881,"current_range_meters":19600,"station_id":"ce4bgup2rcd13ifvqcn0","pricing_plan_id":"cebpf4jnsgd1na2vs0mg"},{"bike_id":"8e7f0d23-2310-4f96-b428-a3b5637e737a","system_id":"levelo_inurba_marseille","lat":43.30939,"lon":5.39086,"is_reserved":false,"is_disabled":false,"rental_uris":{"android":"levelo://app?vid=8e7f0d23-2310-4f96-b428-a3b5637e737a","ios":"levelo://app?vid=8e7f0d23-2310-4f96-b428-a3b5637e737a"},"vehicle_type_id":"4","last_reported":1738573881,"current_range_meters":31200,"station_id":"ce4bgup2rcd13ifvqco0","pricing_plan_id":"cebpf4jnsgd1na2vs0mg"},{"bike_id":"5ba4e818-384e-41fc-8929-47c653dd1b32","system_id":"levelo_inurba_marseille","lat":43.29029,"lon":5.39998,"is_reserved":false,"is_disabled":false,"rental_uris":{"android":"levelo://app?vid=5ba4e818-384e-41fc-8929-47c653dd1b32","ios":"levelo://app?vid=5ba4e818-384e-41fc-8929-47c653dd1b32"},"vehicle_type_id":"4","last_reported":1738573881,"current_range_meters":38000,"station_id":"ce4bh392rcd13ifvqdm0","pricing_plan_id":"cebpf4jnsgd1na2vs0mg"},