{"last_updated":1748134786,"ttl":60,"version":"2.2","data":{"bikes":[{"bike_id":"d0e6f82d-2634-46e0-a554-cd651bd845c3","system_id":"levelo_inurba_marseille","lat":43.30279,"lon":5.36891,"is_reserved":false,"is_disabled":false,"rental_uris":{"android":"levelo://app?vid=d0e6f82d-2634-46e0-a554-cd651bd845c3","ios":"levelo://app?vid=d0e6f82d-2634-46e0-a554-cd651bd845c3"},"vehicle_type_id":"4","last_reported":1748134787,"current_range_meters":2800,"station_id":"ce4bgqh2rcd13ifvqc5g","pricing_plan_id":"cebpf4jnsgd1na2vs0mg"},{"bike_id":"c5a3debe-bb0f-4333-a31c-31f9dce06257","system_id":"levelo_inurba_marseille","lat":43.28276,"lon":5.35069,"is_reserved":false,"is_disabled":false,"rental_uris":{"android":"levelo://app?vid=c5a3debe-bb0f-4333-a31c-31f9dce06257","ios":"levelo://app?vid=c5a3debe-bb0f-4333-a31c-31f9dce06257"},"vehicle_type_id":"4","last_reported":1748134787,"current_range_meters":2800,"station_id":"ce4bhbp2rcd13ifvqerg","pricing_plan_id":"cebpf4jnsgd1na2vs0mg"},{"bike_id":"e2916616-364d-48ce-a208-e2527676b6bf","system_id":"levelo_inurba_marseille","lat":43.31177,"lon":5.38716,"is_reserved":false,"is_disabled":false,"rental_uris":{"android":"levelo://app?vid=e2916616-364d-48ce-a208-e2527676b6bf","ios":"levelo://app?vid=e2916616-364d-48ce-a208-e2527676b6bf"},"vehicle_type_id":"4","last_reported":1748134787,"current_range_meters":2000,"station_id":"ce4bgv12rcd13ifvqcp0","pricing_plan_id":"cebpf4jnsgd1na2vs0mg"},{"bike_id":"ca14e548-a99f-4156-9bfe-53bcf4705ade","system_id":"levelo_inurba_marseille","lat":43.3079,"lon":5.381555,"is_reserved":false,"is_disabled":false,"rental_uris":{"android":"levelo://app?vid=ca14e548-a99f-4156-9bfe-53bcf4705ade","ios":"levelo://app?vid=ca14e548-a99f-4156-9bfe-53bcf4705ade"},"vehicle_type_id":"4","last_reported":1748134787,"current_range_meters":2800,"station_id":"ce4bgt12rcd13ifvqce0","pricing_plan_id":"cebpf4jnsgd1na2vs0mg"},{"bike_id":"d1b2589f-3888-4efd-943f-29c950a24196","system_id":"levelo_inurba_marseille","lat":43.289308,"lon":5.366343,"is_reserved":false,"is_disabled":false,"rental_uris":{"android":"levelo://app?vid=d1b2589f-3888-4efd-943f-29c950a24196","ios":"levelo://app?vid=d1b2589f-3888-4efd-943f-29c950a24196"},"vehicle_type_id":"4","last_reported":1748134787,"current_range_meters":3200,"station_id":"ce4bhap2rcd13ifvqek0","pricing_plan_id":"cebpf4jnsgd1na2vs0mg"},{"bike_id":"0935e169-183e-4122-8cf0-1daeef7f6022","system_id":"levelo_inurba_marseille","lat":43.28674,"lon":5.36354,"is_reserved":false,"is_disabled":false,"rental_uris":{"android":"levelo://app?vid=0935e169-183e-4122-8cf0-1daeef7f6022","ios":"levelo://app?vid=0935e169-183e-4122-8cf0-1daeef7f6022"},"vehicle_type_id":"4","last_reported":1748134787,"current_range_meters":3200,"station_id":"ce4bhah2rcd13ifvqej0","pricing_plan_id":"cebpf4jnsgd1na2vs0mg"},{"bike_id":"82dfcc7c-f385-419c-896b-d78c2000f617","system_id":"levelo_inurba_marseille","lat":43.30444,"lon":5.38891,"is_reserved":false,"is_disabled":false,"rental_uris":{"android":"levelo://app?vid=82dfcc7c-f385-419c-896b-d78c2000f617","ios":"levelo://app?vid=82dfcc7c-f385-419c-896b-d78c2000f617"},"vehicle_type_id":"4","last_reported":1748134787,"current_range_meters":3200,"station_id":"ce4bgk12rcd13ifvqbi0","pricing_plan_id":"cebpf4jnsgd1na2vs0mg"},{"bike_id":"4c964f5d-e069-4f21-b01b-d956923b5719","system_id":"levelo_inurba_marseille","lat":43.23187,"lon":5.40018,"is_reserved":false,"is_disabled":false,"rental_uris":{"android":"levelo://app?vid=4c964f5d-e069-4f21-b01b-d956923b5719","ios":"levelo://app?vid=4c964f5d-e069-4f21-b01b-d956923b5719"},"vehicle_type_id":"4","last_reported":1748134787,"current_range_meters":3600,"station_id":"ce4bhn12rcd13ifvqgqg","pricing_plan_id":"cebpf4jnsgd1na2vs0mg"},{"bike_id":"182a3f00-d89b-4214-9b86-57fede7634c5","system_id":"levelo_inurba_marseille","lat":43.30799,"lon":5.43418,"is_reserved":false,"is_disabled":false,"rental_uris":{"android":"levelo://app?vid=182a3f00-d89b-4214-9b86-57fede7634c5","ios":"levelo://app?vid=182a3f00-d89b-4214-9b86-57fede7634c5"},"vehicle_type_id":"4","last_reported":1748134787,"current_range_meters":3600,"station_id":"ce4bhph2rcd13ifvqheg","pricing_plan_id":"cebpf4jnsgd1na2vs0mg"},{"bike_id":"194666df-d60f-4dbf-918c-87098827f0fb","system_id":"levelo_inurba_marseille","lat":43.29403,"lon":5.37919,"is_reserved":false,"is_disabled":true,"rental_uris":{"android":"levelo://app?vid=194666df-d60f-4dbf-918c-87098827f0fb","ios":"levelo://app?vid=194666df-d60f-4dbf-918c-87098827f0fb"},"vehicle_type_id":"4","last_reported":1748134787,"current_range_meters":3600,"station_id":"","pricing_plan_id":"cebpf4jnsgd1na2vs0mg"},{"bike_id":"dfc12ae8-1c26-45e1-8fd5-25609a6f4238","system_id":"levelo_inurba_marseille","lat":43.2708,"lon":5.42285,"is_reserved":false,"is_disabled":false,"rental_uris":{"android":"levelo://app?vid=dfc12ae8-1c26-45e1-8fd5-25609a6f4238","ios":"levelo://app?vid=dfc12ae8-1c26-45e1-8fd5-25609a6f4238"},"vehicle_type_id":"4","last_reported":1748134787,"current_range_meters":3600,"station_id":"ce4bhk92rcd13ifvqgb0","pricing_plan_id":"cebpf4jnsgd1na2vs0mg"},{"bike_id":"6f2234f1-b0e9-4e30-b964-0ccb46259b44","system_id":"levelo_inurba_marseille","lat":43.29552,"lon":5.4229,"is_reserved":false,"is_disabled":false,"rental_uris":{"android":"levelo://app?vid=6f2234f1-b0e9-4e30-b964-0ccb46259b44","ios":"levelo://app?vid=6f2234f1-b0e9-4e30-b964-0ccb46259b44"},"vehicle_type_id":"4","last_reported":1748134787,"current_range_meters":3600,"station_id":"ce4bhph2rcd13ifvqhdg","pricing_plan_id":"cebpf4jnsgd1na2vs0mg"},{"bike_id":"a2f1296c-e4fc-45d6-be73-b896b487012e","system_id":"levelo_inurba_marseille","lat":43.28597,"lon":5.35117,"is_reserved":false,"is_disabled":true,"rental_uris":{"android":"levelo://app?vid=a2f1296c-e4fc-45d6-be73-b896b487012e","ios":"levelo://app?vid=a2f1296c-e4fc-45d6-be73-b896b487012e"},"vehicle_type_id":"4","last_reported":1748134787,"current_range_meters":4000,"station_id":"ce4bhch2rcd13ifvqeug","pricing_plan_id":"cebpf4jnsgd1na2vs0mg"},{"bike_id":"1e4f255d-c843-4390-8ea4-43308679f155","system_id":"levelo_inurba_marseille","lat":43.27953,"lon":5.41067,"is_reserved":false,"is_disabled":false,"rental_uris":{"android":"levelo://app?vid=1e4f255d-c843-4390-8ea4-43308679f155","ios":"levelo://app?vid=1e4f255d-c843-4390-8ea4-43308679f155"},"vehicle_type_id":"4","last_reported":1748134787,"current_range_meters":4000,"station_id":"ce4bhnp2rcd13ifvqh0g","pricing_plan_id":"cebpf4jnsgd1na2vs0mg"},{"bike_id":"469f2f23-b465-4332-8b6d-11ec7d21f092","system_id":"levelo_inurba_marseille","lat":43.29995,"lon":5.383675,"is_reserved":false,"is_disabled":false,"rental_uris":{"android":"levelo://app?vid=469f2f23-b465-4332-8b6d-11ec7d21f092","ios":"levelo://app?vid=469f2f23-b465-4332-8b6d-11ec7d21f092"},"vehicle_type_id":"4","last_reported":1748134787,"current_range_meters":4000,"station_id":"","pricing_plan_id":"cebpf4jnsgd1na2vs0mg"},{"bike_id":"398ac2c0-7185-42b7-b995-ea97c3f0a79d","system_id":"levelo_inurba_marseille","lat":43.232038,"lon":5.355409,"is_reserved":false,"is_disabled":false,"rental_uris":{"android":"levelo://app?vid=398ac2c0-7185-42b7-b995-ea97c3f0a79d","ios":"levelo://app?vid=398ac2c0-7185-42b7-b995-ea97c3f0a79d"},"vehicle_type_id":"4","last_reported":1748134787,"current_range_meters":4000,"station_id":"ce4bhu92rcd13ifvqi70","pricing_plan_id":"cebpf4jnsgd1na2vs0mg"},{"bike_id":"284b577c-0542-435a-953c-52a6e8a6b86b","system_id":"levelo_inurba_marseille","lat":43.290336,"lon":5.39966,"is_reserved":false,"is_disabled":false,"rental_uris":{"android":"levelo://app?vid=284b577c-0542-435a-953c-52a6e8a6b86b","ios":"levelo://app?vid=284b577c-0542-435a-953c-52a6e8a6b86b"},"vehicle_type_id":"4","last_reported":1748134787,"current_range_meters":4000,"station_id":"ce4bh392rcd13ifvqdm0","pricing_plan_id":"cebpf4jnsgd1na2vs0mg"},{"bike_id":"6e40d5dc-b2b6-481b-80e5-6a12d35990fd","system_id":"levelo_inurba_marseille","lat":43.284108,"lon":5.375186,"is_reserved":false,"is_disabled":false,"rental_uris":{"android":"levelo://app?vid=6e40d5dc-b2b6-481b-80e5-6a12d35990fd","ios":"levelo://app?vid=6e40d5dc-b2b6-481b-80e5-6a12d35990fd"},"vehicle_type_id":"4","last_reported":1748134787,"current_range_meters":4000,"station_id":"ce4bh412rcd13ifvqds0","pricing_plan_id":"cebpf4jnsgd1na2vs0mg"},{"bike_id":"159074da-e8aa-43e1-a6e0-7b97a7a41596","system_id":"levelo_inurba_marseille","lat":43.292712,"lon":5.401142,"is_reserved":false,"is_disabled":false,"rental_uris":{"android":"levelo://app?vid=159074da-e8aa-43e1-a6e0-7b97a7a41596","ios":"levelo://app?vid=159074da-e8aa-43e1-a6e0-7b97a7a41596"},"vehicle_type_id":"4","last_reported":1748134787,"current_range_meters":4400,"station_id":"ce4bh312rcd13ifvqdk0","pricing_plan_id":"cebpf4jnsgd1na2vs0mg"},{"bike_id":"3a2244df-611f-4b6d-a778-36b52e274311","system_id":"levelo_inurba_marseille","lat":43.24655,"lon":5.38196,"is_reserved":false,"is_disabled":false,"rental_uris":{"android":"levelo://app?vid=3a2244df-611f-4b6d-a778-36b52e274311","ios":"levelo://app?vid=3a2244df-611f-4b6d-a778-36b52e274311"},"vehicle_type_id":"4","last_reported":1748134787,"current_range_meters":4400,"station_id":"ce4bhih2rcd13ifvqfr0","pricing_plan_id":"cebpf4jnsgd1na2vs0mg"},{"bike_id":"dcc8952c-72f3-491b-a5f7-8b6adc5da2dd","system_id":"levelo_inurba_marseille","lat":43.292837,"lon":5.371808,"is_reserved":false,"is_disabled":true,"rental_uris":{"android":"levelo://app?vid=dcc8952c-72f3-491b-a5f7-8b6adc5da2dd","ios":"levelo://app?vid=dcc8952c-72f3-491b-a5f7-8b6adc5da2dd"},"vehicle_type_id":"4","last_reported":1748134787,"current_range_meters":4400,"station_id":"ce4bgh92rcd13ifvqb40","pricing_plan_id":"cebpf4jnsgd1na2vs0mg"},{"bike_id":"33855e98-85ee-4f53-8053-70d10855fe00","system_id":"levelo_inurba_marseille","lat":43.30431,"lon":5.38887,"is_reserved":false,"is_disabled":false,"rental_uris":{"android":"levelo://app?vid=33855e98-85ee-4f53-8053-70d10855fe00","ios":"levelo://app?vid=33855e98-85ee-4f53-8053-70d10855fe00"},"vehicle_type_id":"4","last_reported":1748134787,"current_range_meters":4800,"station_id":"ce4bgk12rcd13ifvqbi0","pricing_plan_id":"cebpf4jnsgd1na2vs0mg"},{"bike_id":"2bc939ae-6e84-4f6e-a090-fd6832ec0eac","system_id":"levelo_inurba_marseille","lat":43.32234,"lon":5.43961,"is_reserved":false,"is_disabled":false,"rental_uris":{"android":"levelo://app?vid=2bc939ae-6e84-4f6e-a090-fd6832ec0eac","ios":"levelo://app?vid=2bc939ae-6e84-4f6e-a090-fd6832ec0eac"},"vehicle_type_id":"4","last_reported":1748134787,"current_range_meters":4800,"station_id":"","pricing_plan_id":"cebpf4jnsgd1na2vs0mg"},{"bike_id":"6b656b57-2396-4108-a601-ff54453daa50","system_id":"levelo_inurba_marseille","lat":43.27669,"lon":5.38896,"is_reserved":false,"is_disabled":false,"rental_uris":{"android":"levelo://app?vid=6b656b57-2396-4108-a601-ff54453daa50","ios":"levelo://app?vid=6b656b57-2396-4108-a601-ff54453daa50"},"vehicle_type_id":"4","last_reported":1748134787,"current_range_meters":4800,"station_id":"ce4bhi12rcd13ifvqfo0","pricing_plan_id":"cebpf4jnsgd1na2vs0mg"},{"bike_id":"16a91e98-b908-4e85-ac1a-3191b3f761d5","system_id":"levelo_inurba_marseille","lat":43.25075,"lon":5.39524,"is_reserved":false,"is_disabled":false,"rental_uris":{"android":"levelo://app?vid=16a91e98-b908-4e85-ac1a-3191b3f761d5","ios":"levelo://app?vid=16a91e98-b908-4e85-ac1a-3191b3f761d5"},"vehicle_type_id":"4","last_reported":1748134787,"current_range_meters":5600,"station_id":"ce4bhm12rcd13ifvqgkg","pricing_plan_id":"cebpf4jnsgd1na2vs0mg"},{"bike_id":"8e57d20b-c38b-459f-8f5e-0fe106cc372c","system_id":"levelo_inurba_marseille","lat":43.25318,"lon":5.39384,"is_reserved":false,"is_disabled":false,"rental_uris":{"android":"levelo://app?vid=8e57d20b-c38b-459f-8f5e-0fe106cc372c","ios":"levelo://app?vid=8e57d20b-c38b-459f-8f5e-0fe106cc372c"},"vehicle_type_id":"4","last_reported":1748134787,"current_range_meters":5600,"station_id":"","pricing_plan_id":"cebpf4jnsgd1na2vs0mg"},{"bike_id":"15fc12fe-67eb-40b9-b17d-54b33eab5e32","system_id":"levelo_inurba_marseille","lat":43.29281,"lon":5.36855,"is_reserved":false,"is_disabled":false,"rental_uris":{"android":"levelo://app?vid=15fc12fe-67eb-40b9-b17d-54b33eab5e32","ios":"levelo://app?vid=15fc12fe-67eb-40b9-b17d-54b33eab5e32"},"vehicle_type_id":"4","last_reported":1748134787,"current_range_meters":5600,"station_id":"ce4bhbp2rcd13ifvqesg","pricing_plan_id":"cebpf4jnsgd1na2vs0mg"},{"bike_id":"a70fd15a-39d7-485d-b9e1-96a1f3cbba09","system_id":"levelo_inurba_marseille","lat":43.33017,"lon":5.39054,"is_reserved":false,"is_disabled":false,"rental_uris":{"android":"levelo://app?vid=a70fd15a-39d7-485d-b9e1-96a1f3cbba09","ios":"levelo://app?vid=a70fd15a-39d7-485d-b9e1-96a1f3cbba09"},"vehicle_type_id":"4","last_reported":1748134787,"current_range_meters":5600,"station_id":"ce4bhr92rcd13ifvqhrg","pricing_plan_id":"cebpf4jnsgd1na2vs0mg"},{"bike_id":"664f2b2c-4651-4d39-8a4f-7e9486bd1102","system_id":"levelo_inurba_marseille","lat":43.30441,"lon":5.38888,"is_reserved":false,"is_disabled":false,"rental_uris":{"android":"levelo://app?vid=664f2b2c-4651-4d39-8a4f-7e9486bd1102","ios":"levelo://app?vid=664f2b2c-4651-4d39-8a4f-7e9486bd1102"},"vehicle_type_id":"4","last_reported":1748134787,"current_range_meters":5600,"station_id":"ce4bgk12rcd13ifvqbi0","pricing_plan_id":"cebpf4jnsgd1na2vs0mg"},{"bike_id":"21d4ae98-4a80-4105-9261-58511cd1d555","system_id":"levelo_inurba_marseille","lat":43.295587,"lon":5.422965,"is_reserved":false,"is_disabled":false,"rental_uris":{"android":"levelo://app?vid=21d4ae98-4a80-4105-9261-58511cd1d555","ios":"levelo://app?vid=21d4ae98-4a80-4105-9261-58511cd1d555"},"vehicle_type_id":"4","last_reported":1748134787,"current_range_meters":5600,"station_id":"ce4bhph2rcd13ifvqhdg","pricing_plan_id":"cebpf4jnsgd1na2vs0mg"},{"bike_id":"fa529a29-8d21-4f13-9783-e1708a99c344","system_id":"levelo_inurba_marseille","lat":43.246516,"lon":5.388955,"is_reserved":false,"is_disabled":false,"rental_uris":{"android":"levelo://app?vid=fa529a29-8d21-4f13-9783-e1708a99c344","ios":"levelo://app?vid=fa529a29-8d21-4f13-9783-e1708a99c344"},"vehicle_type_id":"4","last_reported":1748134787,"current_range_meters":6000,"station_id":"ce4bhlh2rcd13ifvqgig","pricing_plan_id":"cebpf4jnsgd1na2vs0mg"},{"bike_id":"d256c6a4-d35b-4c32-b7db-2bac8ab63b70","system_id":"levelo_inurba_marseille","lat":43.2319,"lon":5.35561,"is_reserved":false,"is_disabled":false,"rental_uris":{"android":"levelo://app?vid=d256c6a4-d35b-4c32-b7db-2bac8ab63b70","ios":"levelo://app?vid=d256c6a4-d35b-4c32-b7db-2bac8ab63b70"},"vehicle_type_id":"4","last_reported":1748134787,"current_range_meters":6000,"station_id":"ce4bhu92rcd13ifvqi70","pricing_plan_id":"cebpf4jnsgd1na2vs0mg"},{"bike_id":"33f822d6-eeab-4cc4-b1ef-d755e9a84aa3","system_id":"levelo_inurba_marseille","lat":43.31711,"lon":5.4371,"is_reserved":false,"is_disabled":false,"rental_uris":{"android":"levelo://app?vid=33f822d6-eeab-4cc4-b1ef-d755e9a84aa3","ios":"levelo://app?vid=33f822d6-eeab-4cc4-b1ef-d755e9a84aa3"},"vehicle_type_id":"4","last_reported":1748134787,"current_range_meters":6000,"station_id":"ce4bhp92rcd13ifvqhcg","pricing_plan_id":"cebpf4jnsgd1na2vs0mg"},{"bike_id":"4767c40a-7992-492a-9626-db8a6defc0e8","system_id":"levelo_inurba_marseille","lat":43.305469,"lon":5.365631,"is_reserved":false,"is_disabled":false,"rental_uris":{"android":"levelo://app?vid=4767c40a-7992-492a-9626-db8a6defc0e8","ios":"levelo://app?vid=4767c40a-7992-492a-9626-db8a6defc0e8"},"vehicle_type_id":"4","last_reported":1748134787,"current_range_meters":6000,"station_id":"ce4bgs12rcd13ifvqcag","pricing_plan_id":"cebpf4jnsgd1na2vs0mg"},{"bike_id":"f3d1c10e-7331-4d70-87c4-d8d1e4be78e2","system_id":"levelo_inurba_marseille","lat":43.30441,"lon":5.3889,"is_reserved":false,"is_disabled":false,"rental_uris":{"android":"levelo://app?vid=f3d1c10e-7331-4d70-87c4-d8d1e4be78e2","ios":"levelo://app?vid=f3d1c10e-7331-4d70-87c4-d8d1e4be78e2"},"vehicle_type_id":"4","last_reported":1748134787,"current_range_meters":6400,"station_id":"ce4bgk12rcd13ifvqbi0","pricing_plan_id":"cebpf4jnsgd1na2vs0mg"},{"bike_id":"5aff08f0-96dc-4aa7-83ce-16fcd3250d39","system_id":"levelo_inurba_marseille","lat":43.30881,"lon":5.39655,"is_reserved":false,"is_disabled":false,"rental_uris":{"android":"levelo://app?vid=5aff08f0-96dc-4aa7-83ce-16fcd3250d39","ios":"levelo://app?vid=5aff08f0-96dc-4aa7-83ce-16fcd3250d39"},"vehicle_type_id":"4","last_reported":1748134787,"current_range_meters":6400,"station_id":"ce4bh012rcd13ifvqcv0","pricing_plan_id":"cebpf4jnsgd1na2vs0mg"},{"bike_id":"9d6f1d4e-ed40-4930-ba4a-59597809b547","system_id":"levelo_inurba_marseille","lat":43.231923,"lon":5.35558,"is_reserved":false,"is_disabled":false,"rental_uris":{"android":"levelo://app?vid=9d6f1d4e-ed40-4930-ba4a-59597809b547","ios":"levelo://app?vid=9d6f1d4e-ed40-4930-ba4a-59597809b547"},"vehicle_type_id":"4","last_reported":1748134787,"current_range_meters":6400,"station_id":"ce4bhu92rcd13ifvqi70","pricing_plan_id":"cebpf4jnsgd1na2vs0mg"},{"bike_id":"986fe2d9-8fe0-44be-b66c-4ba1aa683a81","system_id":"levelo_inurba_marseille","lat":43.28569,"lon":5.39516,"is_reserved":false,"is_disabled":false,"rental_uris":{"android":"levelo://app?vid=986fe2d9-8fe0-44be-b66c-4ba1aa683a81","ios":"levelo://app?vid=986fe2d9-8fe0-44be-b66c-4ba1aa683a81"},"vehicle_type_id":"4","last_reported":1748134787,"current_range_meters":6000,"station_id":"ce4bh292rcd13ifvqdg0","pricing_plan_id":"cebpf4jnsgd1na2vs0mg"},{"bike_id":"87dc1d45-464b-416b-81d6-10b093bfc1ae","system_id":"levelo_inurba_marseille","lat":43.27069,"lon":5.42284,"is_reserved":false,"is_disabled":false,"rental_uris":{"android":"levelo://app?vid=87dc1d45-464b-416b-81d6-10b093bfc1ae","ios":"levelo://app?vid=87dc1d45-464b-416b-81d6-10b093bfc1ae"},"vehicle_type_id":"4","last_reported":1748134787,"current_range_meters":6400,"station_id":"ce4bhk92rcd13ifvqgb0","pricing_plan_id":"cebpf4jnsgd1na2vs0mg"},{"bike_id":"e8b385ae-b3ad-4772-95ee-dcf0a3a7ef71","system_id":"levelo_inurba_marseille","lat":43.30416,"lon":5.41276,"is_reserved":false,"is_disabled":false,"rental_uris":{"android":"levelo://app?vid=e8b385ae-b3ad-4772-95ee-dcf0a3a7ef71","ios":"levelo://app?vid=e8b385ae-b3ad-4772-95ee-dcf0a3a7ef71"},"vehicle_type_id":"4","last_reported":1748134787,"current_range_meters":6400,"station_id":"ce4bhop2rcd13ifvqh8g","pricing_plan_id":"cebpf4jnsgd1na2vs0mg"},{"bike_id":"d3fecb4d-2828-42ad-96fa-2a2e1146a111","system_id":"levelo_inurba_marseille","lat":43.29701,"lon":5.36605,"is_reserved":false,"is_disabled":false,"rental_uris":{"android":"levelo://app?vid=d3fecb4d-2828-42ad-96fa-2a2e1146a111","ios":"levelo://app?vid=d3fecb4d-2828-42ad-96fa-2a2e1146a111"},"vehicle_type_id":"4","last_reported":1748134787,"current_range_meters":6400,"station_id":"ce4bgn12rcd13ifvqbt0","pricing_plan_id":"cebpf4jnsgd1na2vs0mg"},{"bike_id":"43e02c31-6e3f-4ffe-8537-f198543e5fc1","system_id":"levelo_inurba_marseille","lat":43.297171,"lon":5.377124,"is_reserved":false,"is_disabled":true,"rental_uris":{"android":"levelo://app?vid=43e02c31-6e3f-4ffe-8537-f198543e5fc1","ios":"levelo://app?vid=43e02c31-6e3f-4ffe-8537-f198543e5fc1"},"vehicle_type_id":"4","last_reported":1748134787,"current_range_meters":6400,"station_id":"ce4bgkh2rcd13ifvqbl0","pricing_plan_id":"cebpf4jnsgd1na2vs0mg"},{"bike_id":"d0af1088-cca0-41dd-8c81-1ca93cb1f9c3","system_id":"levelo_inurba_marseille","lat":43.30868,"lon":5.39645,"is_reserved":false,"is_disabled":false,"rental_uris":{"android":"levelo://app?vid=d0af1088-cca0-41dd-8c81-1ca93cb1f9c3","ios":"levelo://app?vid=d0af1088-cca0-41dd-8c81-1ca93cb1f9c3"},"vehicle_type_id":"4","last_reported":1748134787,"current_range_meters":6400,"station_id":"ce4bh012rcd13ifvqcv0","pricing_plan_id":"cebpf4jnsgd1na2vs0mg"},{"bike_id":"c628673e-97eb-44e0-9b77-987684007772","system_id":"levelo_inurba_marseille","lat":43.26679,"lon":5.38276,"is_reserved":false,"is_disabled":false,"rental_uris":{"android":"levelo://app?vid=c628673e-97eb-44e0-9b77-987684007772","ios":"levelo://app?vid=c628673e-97eb-44e0-9b77-987684007772"},"vehicle_type_id":"4","last_reported":1748134787,"current_range_meters":6400,"station_id":"ce4bhg92rcd13ifvqf90","pricing_plan_id":"cebpf4jnsgd1na2vs0mg"},{"bike_id":"dffd3e87-ea0e-4e09-94a8-d890b046cc4f","system_id":"levelo_inurba_marseille","lat":43.28461,"lon":5.359,"is_reserved":false,"is_disabled":false,"rental_uris":{"android":"levelo://app?vid=dffd3e87-ea0e-4e09-94a8-d890b046cc4f","ios":"levelo://app?vid=dffd3e87-ea0e-4e09-94a8-d890b046cc4f"},"vehicle_type_id":"4","last_reported":1748134787,"current_range_meters":6400,"station_id":"ce4bhah2rcd13ifvqei0","pricing_plan_id":"cebpf4jnsgd1na2vs0mg"},{"bike_id":"fd358430-18f3-4e72-af8e-146c21e7dfb2","system_id":"levelo_inurba_marseille","lat":43.27837,"lon":5.39206,"is_reserved":false,"is_disabled":true,"rental_uris":{"android":"levelo://app?vid=fd358430-18f3-4e72-af8e-146c21e7dfb2","ios":"levelo://app?vid=fd358430-18f3-4e72-af8e-146c21e7dfb2"},"vehicle_type_id":"4","last_reported":1748134787,"current_range_meters":6400,"station_id":"ce4bhjp2rcd13ifvqga0","pricing_plan_id":"cebpf4jnsgd1na2vs0mg"},{"bike_id":"13fdf9f5-cec8-4026-80f5-b5e3db77f7b1","system_id":"levelo_inurba_marseille","lat":43.24069,"lon":5.37763,"is_reserved":false,"is_disabled":false,"rental_uris":{"android":"levelo://app?vid=13fdf9f5-cec8-4026-80f5-b5e3db77f7b1","ios":"levelo://app?vid=13fdf9f5-cec8-4026-80f5-b5e3db77f7b1"},"vehicle_type_id":"4","last_reported":1748134787,"current_range_meters":6800,"station_id":"ce4bhnp2rcd13ifvqgvg","pricing_plan_id":"cebpf4jnsgd1na2vs0mg"},{"bike_id":"d562ae30-b1e7-4a7a-94ad-92b7cc645da1","system_id":"levelo_inurba_marseille","lat":43.27659,"lon":5.38938,"is_reserved":false,"is_disabled":true,"rental_uris":{"android":"levelo://app?vid=d562ae30-b1e7-4a7a-94ad-92b7cc645da1","ios":"levelo://app?vid=d562ae30-b1e7-4a7a-94ad-92b7cc645da1"},"vehicle_type_id":"4","last_reported":1748134787,"current_range_meters":6800,"station_id":"","pricing_plan_id":"cebpf4jnsgd1na2vs0mg"},{"bike_id":"40ebe455-dc85-4510-9ff0-20a2294f7450","system_id":"levelo_inurba_marseille","lat":43.32539,"lon":5.41427,"is_reserved":false,"is_disabled":false,"rental_uris":{"android":"levelo://app?vid=40ebe455-dc85-4510-9ff0-20a2294f7450","ios":"levelo://app?vid=40ebe455-dc85-4510-9ff0-20a2294f7450"},"vehicle_type_id":"4","last_reported":1748134787,"current_range_meters":6800,"station_id":"ce4bhq12rcd13ifvqhhg","pricing_plan_id":"cebpf4jnsgd1na2vs0mg"},{"bike_id":"2920147d-122b-417b-abcf-ba50572b0890","system_id":"levelo_inurba_marseille","lat":43.23189,"lon":5.35579,"is_reserved":false,"is_disabled":false,"rental_uris":{"android":"levelo://app?vid=2920147d-122b-417b-abcf-ba50572b0890","ios":"levelo://app?vid=2920147d-122b-417b-abcf-ba50572b0890"},"vehicle_type_id":"4","last_reported":1748134787,"current_range_meters":6800,"station_id":"ce4bhu92rcd13ifvqi70","pricing_plan_id":"cebpf4jnsgd1na2vs0mg"},{"bike_id":"24af8b93-e41b-4875-a755-f50e51e0b77e","system_id":"levelo_inurba_marseille","lat":43.23197,"lon":5.355553,"is_reserved":false,"is_disabled":false,"rental_uris":{"android":"levelo://app?vid=24af8b93-e41b-4875-a755-f50e51e0b77e","ios":"levelo://app?vid=24af8b93-e41b-4875-a755-f50e51e0b77e"},"vehicle_type_id":"4","last_reported":1748134787,"current_range_meters":6800,"station_id":"ce4bhu92rcd13ifvqi70","pricing_plan_id":"cebpf4jnsgd1na2vs0mg"},{"bike_id":"25379fab-4557-4e1e-a0fa-8fcb0ca31cf7","system_id":"levelo_inurba_marseille","lat":43.25101,"lon":5.40336,"is_reserved":false,"is_disabled":false,"rental_uris":{"android":"levelo://app?vid=25379fab-4557-4e1e-a0fa-8fcb0ca31cf7","ios":"levelo://app?vid=25379fab-4557-4e1e-a0fa-8fcb0ca31cf7"},"vehicle_type_id":"4","last_reported":1748134787,"current_range_meters":6800,"station_id":"ce4bhlh2rcd13ifvqgig","pricing_plan_id":"cebpf4jnsgd1na2vs0mg"},{"bike_id":"b3836e6a-b05b-4ba7-ae61-833bde9258fe","system_id":"levelo_inurba_marseille","lat":43.32911,"lon":5.45202,"is_reserved":false,"is_disabled":false,"rental_uris":{"android":"levelo://app?vid=b3836e6a-b05b-4ba7-ae61-833bde9258fe","ios":"levelo://app?vid=b3836e6a-b05b-4ba7-ae61-833bde9258fe"},"vehicle_type_id":"4","last_reported":1748134787,"current_range_meters":6800,"station_id":"","pricing_plan_id":"cebpf4jnsgd1na2vs0mg"},{"bike_id":"a17a842f-ba04-4d0e-9f38-09b9d8144085","system_id":"levelo_inurba_marseille","lat":43.269144,"lon":5.40276,"is_reserved":false,"is_disabled":true,"rental_uris":{"android":"levelo://app?vid=a17a842f-ba04-4d0e-9f38-09b9d8144085","ios":"levelo://app?vid=a17a842f-ba04-4d0e-9f38-09b9d8144085"},"vehicle_type_id":"4","last_reported":1748134787,"current_range_meters":6800,"station_id":"cjm6bp8fraef2m0cb0m0","pricing_plan_id":"cebpf4jnsgd1na2vs0mg"},{"bike_id":"e45ee233-d6b1-41b7-bc25-7b859c2db130","system_id":"levelo_inurba_marseille","lat":43.29827,"lon":5.38062,"is_reserved":false,"is_disabled":false,"rental_uris":{"android":"levelo://app?vid=e45ee233-d6b1-41b7-bc25-7b859c2db130","ios":"levelo://app?vid=e45ee233-d6b1-41b7-bc25-7b859c2db130"},"vehicle_type_id":"4","last_reported":1748134787,"current_range_meters":6800,"station_id":"ce4bgip2rcd13ifvqbb0","pricing_plan_id":"cebpf4jnsgd1na2vs0mg"},{"bike_id":"c121f3d2-6b16-4d6f-a3c0-80a5cc7487de","system_id":"levelo_inurba_marseille","lat":43.29703,"lon":5.36615,"is_reserved":false,"is_disabled":false,"rental_uris":{"android":"levelo://app?vid=c121f3d2-6b16-4d6f-a3c0-80a5cc7487de","ios":"levelo://app?vid=c121f3d2-6b16-4d6f-a3c0-80a5cc7487de"},"vehicle_type_id":"4","last_reported":1748134787,"current_range_meters":6800,"station_id":"ce4bgn12rcd13ifvqbt0","pricing_plan_id":"cebpf4jnsgd1na2vs0mg"},{"bike_id":"757c0c5f-e628-4578-ae97-938654a8725a","system_id":"levelo_inurba_marseille","lat":43.30916,"lon":5.40149,"is_reserved":false,"is_disabled":true,"rental_uris":{"android":"levelo://app?vid=757c0c5f-e628-4578-ae97-938654a8725a","ios":"levelo://app?vid=757c0c5f-e628-4578-ae97-938654a8725a"},"vehicle_type_id":"4","last_reported":1748134787,"current_range_meters":7200,"station_id":"ce4bgvp2rcd13ifvqct0","pricing_plan_id":"cebpf4jnsgd1na2vs0mg"},{"bike_id":"19e7fe23-14fe-4422-b497-e65b32861960","system_id":"levelo_inurba_marseille","lat":43.29696,"lon":5.36597,"is_reserved":false,"is_disabled":false,"rental_uris":{"android":"levelo://app?vid=19e7fe23-14fe-4422-b497-e65b32861960","ios":"levelo://app?vid=19e7fe23-14fe-4422-b497-e65b32861960"},"vehicle_type_id":"4","last_reported":1748134787,"current_range_meters":7200,"station_id":"ce4bgn12rcd13ifvqbt0","pricing_plan_id":"cebpf4jnsgd1na2vs0mg"},{"bike_id":"c8f48b82-02ee-427e-b5b1-64a05301ddb6","system_id":"levelo_inurba_marseille","lat":43.30247,"lon":5.40058,"is_reserved":false,"is_disabled":false,"rental_uris":{"android":"levelo://app?vid=c8f48b82-02ee-427e-b5b1-64a05301ddb6","ios":"levelo://app?vid=c8f48b82-02ee-427e-b5b1-64a05301ddb6"},"vehicle_type_id":"4","last_reported":1748134787,"current_range_meters":7200,"station_id":"ce4bgvh2rcd13ifvqcs0","pricing_plan_id":"cebpf4jnsgd1na2vs0mg"},{"bike_id":"ccf8f055-3943-4d1f-8422-80c8d7e361da","system_id":"levelo_inurba_marseille","lat":43.25835,"lon":5.39426,"is_reserved":false,"is_disabled":false,"rental_uris":{"android":"levelo://app?vid=ccf8f055-3943-4d1f-8422-80c8d7e361da","ios":"levelo://app?vid=ccf8f055-3943-4d1f-8422-80c8d7e361da"},"vehicle_type_id":"4","last_reported":1748134787,"current_range_meters":7200,"station_id":"ce4bhip2rcd13ifvqft0","pricing_plan_id":"cebpf4jnsgd1na2vs0mg"},{"bike_id":"fed3894e-a1c9-4ece-9a61-bf88b7c9daa1","system_id":"levelo_inurba_marseille","lat":43.26802,"lon":5.40266,"is_reserved":false,"is_disabled":false,"rental_uris":{"android":"levelo://app?vid=fed3894e-a1c9-4ece-9a61-bf88b7c9daa1","ios":"levelo://app?vid=fed3894e-a1c9-4ece-9a61-bf88b7c9daa1"},"vehicle_type_id":"4","last_reported":1748134787,"current_range_meters":7200,"station_id":"ce501612rcd8frsf0b60","pricing_plan_id":"cebpf4jnsgd1na2vs0mg"},{"bike_id":"1e4fe550-bef4-4e89-9642-2ae71d16cc46","system_id":"levelo_inurba_marseille","lat":43.29545,"lon":5.42264,"is_reserved":false,"is_disabled":false,"rental_uris":{"android":"levelo://app?vid=1e4fe550-bef4-4e89-9642-2ae71d16cc46","ios":"levelo://app?vid=1e4fe550-bef4-4e89-9642-2ae71d16cc46"},"vehicle_type_id":"4","last_reported":1748134787,"current_range_meters":7200,"station_id":"ce4bhph2rcd13ifvqhdg","pricing_plan_id":"cebpf4jnsgd1na2vs0mg"},{"bike_id":"bc7f89a1-e429-4d3e-a5d8-31ae772b0570","system_id":"levelo_inurba_marseille","lat":43.25112,"lon":5.40326,"is_reserved":false,"is_disabled":false,"rental_uris":{"android":"levelo://app?vid=bc7f89a1-e429-4d3e-a5d8-31ae772b0570","ios":"levelo://app?vid=bc7f89a1-e429-4d3e-a5d8-31ae772b0570"},"vehicle_type_id":"4","last_reported":1748134787,"current_range_meters":7200,"station_id":"ce4bhlh2rcd13ifvqgig","pricing_plan_id":"cebpf4jnsgd1na2vs0mg"},{"bike_id":"627576e1-5de8-45f6-a230-597134ae8ecc","system_id":"levelo_inurba_marseille","lat":43.28698,"lon":5.39982,"is_reserved":false,"is_disabled":false,"rental_uris":{"android":"levelo://app?vid=627576e1-5de8-45f6-a230-597134ae8ecc","ios":"levelo://app?vid=627576e1-5de8-45f6-a230-597134ae8ecc"},"vehicle_type_id":"4","last_reported":1748134787,"current_range_meters":6800,"station_id":"ce4bho92rcd13ifvqh3g","pricing_plan_id":"cebpf4jnsgd1na2vs0mg"},{"bike_id":"2d1976c8-dfa6-452a-8079-dd82df9f2a78","system_id":"levelo_inurba_marseille","lat":43.301483,"lon":5.398248,"is_reserved":false,"is_disabled":false,"rental_uris":{"android":"levelo://app?vid=2d1976c8-dfa6-452a-8079-dd82df9f2a78","ios":"levelo://app?vid=2d1976c8-dfa6-452a-8079-dd82df9f2a78"},"vehicle_type_id":"4","last_reported":1748134787,"current_range_meters":6800,"station_id":"ce4bh0h2rcd13ifvqd40","pricing_plan_id":"cebpf4jnsgd1na2vs0mg"},{"bike_id":"9cf27f2d-4ac6-4717-93ce-55bc5dbf8c58","system_id":"levelo_inurba_marseille","lat":43.24656,"lon":5.38193,"is_reserved":false,"is_disabled":false,"rental_uris":{"android":"levelo://app?vid=9cf27f2d-4ac6-4717-93ce-55bc5dbf8c58","ios":"levelo://app?vid=9cf27f2d-4ac6-4717-93ce-55bc5dbf8c58"},"vehicle_type_id":"4","last_reported":1748134787,"current_range_meters":7200,"station_id":"ce4bhih2rcd13ifvqfr0","pricing_plan_id":"cebpf4jnsgd1na2vs0mg"},{"bike_id":"7033f29b-2f82-40a9-922d-36b6315763bf","system_id":"levelo_inurba_marseille","lat":43.25115,"lon":5.40324,"is_reserved":false,"is_disabled":true,"rental_uris":{"android":"levelo://app?vid=7033f29b-2f82-40a9-922d-36b6315763bf","ios":"levelo://app?vid=7033f29b-2f82-40a9-922d-36b6315763bf"},"vehicle_type_id":"4","last_reported":1748134787,"current_range_meters":7200,"station_id":"ce4bhlh2rcd13ifvqgig","pricing_plan_id":"cebpf4jnsgd1na2vs0mg"},{"bike_id":"c16413fd-5d65-4ca2-8681-abb95bdf2d2a","system_id":"levelo_inurba_marseille","lat":43.30948,"lon":5.37153,"is_reserved":false,"is_disabled":false,"rental_uris":{"android":"levelo://app?vid=c16413fd-5d65-4ca2-8681-abb95bdf2d2a","ios":"levelo://app?vid=c16413fd-5d65-4ca2-8681-abb95bdf2d2a"},"vehicle_type_id":"4","last_reported":1748134787,"current_range_meters":7200,"station_id":"","pricing_plan_id":"cebpf4jnsgd1na2vs0mg"},{"bike_id":"b9c2ccd4-cfa0-4f0c-89c5-b4326d242752","system_id":"levelo_inurba_marseille","lat":43.24068,"lon":5.37765,"is_reserved":false,"is_disabled":false,"rental_uris":{"android":"levelo://app?vid=b9c2ccd4-cfa0-4f0c-89c5-b4326d242752","ios":"levelo://app?vid=b9c2ccd4-cfa0-4f0c-89c5-b4326d242752"},"vehicle_type_id":"4","last_reported":1748134787,"current_range_meters":8000,"station_id":"ce4bhnp2rcd13ifvqgvg","pricing_plan_id":"cebpf4jnsgd1na2vs0mg"},{"bike_id":"caf1e107-9dfd-47fc-aae0-9606d8eca857","system_id":"levelo_inurba_marseille","lat":43.273768,"lon":5.362489,"is_reserved":false,"is_disabled":true,"rental_uris":{"android":"levelo://app?vid=caf1e107-9dfd-47fc-aae0-9606d8eca857","ios":"levelo://app?vid=caf1e107-9dfd-47fc-aae0-9606d8eca857"},"vehicle_type_id":"4","last_reported":1748134787,"current_range_meters":8000,"station_id":"ce4bhbh2rcd13ifvqeo0","pricing_plan_id":"cebpf4jnsgd1na2vs0mg"},{"bike_id":"00cc24e5-83e1-489b-8c41-8ff6f4a3e688","system_id":"levelo_inurba_marseille","lat":43.30347,"lon":5.40451,"is_reserved":false,"is_disabled":false,"rental_uris":{"android":"levelo://app?vid=00cc24e5-83e1-489b-8c41-8ff6f4a3e688","ios":"levelo://app?vid=00cc24e5-83e1-489b-8c41-8ff6f4a3e688"},"vehicle_type_id":"4","last_reported":1748134787,"current_range_meters":8000,"station_id":"ce4bh012rcd13ifvqd10","pricing_plan_id":"cebpf4jnsgd1na2vs0mg"},{"bike_id":"a1509a74-967e-4477-beeb-84dac1ea301a","system_id":"levelo_inurba_marseille","lat":43.30308,"lon":5.36896,"is_reserved":false,"is_disabled":false,"rental_uris":{"android":"levelo://app?vid=a1509a74-967e-4477-beeb-84dac1ea301a","ios":"levelo://app?vid=a1509a74-967e-4477-beeb-84dac1ea301a"},"vehicle_type_id":"4","last_reported":1748134787,"current_range_meters":8000,"station_id":"ce4bgqh2rcd13ifvqc5g","pricing_plan_id":"cebpf4jnsgd1na2vs0mg"},{"bike_id":"2af99fd2-7eeb-4fcc-82f5-def257a6cb2b","system_id":"levelo_inurba_marseille","lat":43.27911,"lon":5.39577,"is_reserved":false,"is_disabled":false,"rental_uris":{"android":"levelo://app?vid=2af99fd2-7eeb-4fcc-82f5-def257a6cb2b","ios":"levelo://app?vid=2af99fd2-7eeb-4fcc-82f5-def257a6cb2b"},"vehicle_type_id":"4","last_reported":1748134787,"current_range_meters":8000,"station_id":"ce4bhf92rcd13ifvqf40","pricing_plan_id":"cebpf4jnsgd1na2vs0mg"},{"bike_id":"bfd633be-a7e6-4d11-96e6-7ca9f4f58ac5","system_id":"levelo_inurba_marseille","lat":43.3032,"lon":5.40432,"is_reserved":false,"is_disabled":false,"rental_uris":{"android":"levelo://app?vid=bfd633be-a7e6-4d11-96e6-7ca9f4f58ac5","ios":"levelo://app?vid=bfd633be-a7e6-4d11-96e6-7ca9f4f58ac5"},"vehicle_type_id":"4","last_reported":1748134787,"current_range_meters":8000,"station_id":"ce4bh012rcd13ifvqd10","pricing_plan_id":"cebpf4jnsgd1na2vs0mg"},{"bike_id":"6d18f989-8944-4ed3-b7c4-a284780bb26e","system_id":"levelo_inurba_marseille","lat":43.25116,"lon":5.4034,"is_reserved":false,"is_disabled":false,"rental_uris":{"android":"levelo://app?vid=6d18f989-8944-4ed3-b7c4-a284780bb26e","ios":"levelo://app?vid=6d18f989-8944-4ed3-b7c4-a284780bb26e"},"vehicle_type_id":"4","last_reported":1748134787,"current_range_meters":8000,"station_id":"ce4bhlh2rcd13ifvqgig","pricing_plan_id":"cebpf4jnsgd1na2vs0mg"},{"bike_id":"456f4640-9fc1-407f-8ae0-2484c524b4b7","system_id":"levelo_inurba_marseille","lat":43.27187,"lon":5.40994,"is_reserved":false,"is_disabled":false,"rental_uris":{"android":"levelo://app?vid=456f4640-9fc1-407f-8ae0-2484c524b4b7","ios":"levelo://app?vid=456f4640-9fc1-407f-8ae0-2484c524b4b7"},"vehicle_type_id":"4","last_reported":1748134787,"current_range_meters":8000,"station_id":"ce4bhl12rcd13ifvqgf0","pricing_plan_id":"cebpf4jnsgd1na2vs0mg"},{"bike_id":"d2687c6b-2b92-4536-83c7-ceceeacc1deb","system_id":"levelo_inurba_marseille","lat":43.24656,"lon":5.38205,"is_reserved":false,"is_disabled":false,"rental_uris":{"android":"levelo://app?vid=d2687c6b-2b92-4536-83c7-ceceeacc1deb","ios":"levelo://app?vid=d2687c6b-2b92-4536-83c7-ceceeacc1deb"},"vehicle_type_id":"4","last_reported":1748134787,"current_range_meters":8000,"station_id":"ce4bhih2rcd13ifvqfr0","pricing_plan_id":"cebpf4jnsgd1na2vs0mg"},{"bike_id":"40d5f5df-f4a7-41a4-b16d-63484ff0379d","system_id":"levelo_inurba_marseille","lat":43.30931,"lon":5.40166,"is_reserved":false,"is_disabled":true,"rental_uris":{"android":"levelo://app?vid=40d5f5df-f4a7-41a4-b16d-63484ff0379d","ios":"levelo://app?vid=40d5f5df-f4a7-41a4-b16d-63484ff0379d"},"vehicle_type_id":"4","last_reported":1748134787,"current_range_meters":8000,"station_id":"ce4bgvp2rcd13ifvqct0","pricing_plan_id":"cebpf4jnsgd1na2vs0mg"},{"bike_id":"045cde77-b1ef-4984-94cb-bf83ff7c7831","system_id":"levelo_inurba_marseille","lat":43.23195,"lon":5.39989,"is_reserved":false,"is_disabled":false,"rental_uris":{"android":"levelo://app?vid=045cde77-b1ef-4984-94cb-bf83ff7c7831","ios":"levelo://app?vid=045cde77-b1ef-4984-94cb-bf83ff7c7831"},"vehicle_type_id":"4","last_reported":1748134787,"current_range_meters":8000,"station_id":"ce4bhn12rcd13ifvqgqg","pricing_plan_id":"cebpf4jnsgd1na2vs0mg"},{"bike_id":"fc4bc14e-e750-47b5-97a4-f93c8ca82697","system_id":"levelo_inurba_marseille","lat":43.28419,"lon":5.37543,"is_reserved":false,"is_disabled":false,"rental_uris":{"android":"levelo://app?vid=fc4bc14e-e750-47b5-97a4-f93c8ca82697","ios":"levelo://app?vid=fc4bc14e-e750-47b5-97a4-f93c8ca82697"},"vehicle_type_id":"4","last_reported":1748134787,"current_range_meters":8000,"station_id":"ce4bh412rcd13ifvqds0","pricing_plan_id":"cebpf4jnsgd1na2vs0mg"},{"bike_id":"2c6c1601-7ad3-41b8-85f4-aa4519205b7c","system_id":"levelo_inurba_marseille","lat":43.251139,"lon":5.403204,"is_reserved":false,"is_disabled":false,"rental_uris":{"android":"levelo://app?vid=2c6c1601-7ad3-41b8-85f4-aa4519205b7c","ios":"levelo://app?vid=2c6c1601-7ad3-41b8-85f4-aa4519205b7c"},"vehicle_type_id":"4","last_reported":1748134787,"current_range_meters":8400,"station_id":"ce4bhlh2rcd13ifvqgig","pricing_plan_id":"cebpf4jnsgd1na2vs0mg"},{"bike_id":"9546d1ab-1ccb-4fe0-8b3b-7ffc67927051","system_id":"levelo_inurba_marseille","lat":43.2894,"lon":5.36625,"is_reserved":false,"is_disabled":true,"rental_uris":{"android":"levelo://app?vid=9546d1ab-1ccb-4fe0-8b3b-7ffc67927051","ios":"levelo://app?vid=9546d1ab-1ccb-4fe0-8b3b-7ffc67927051"},"vehicle_type_id":"4","last_reported":1748134787,"current_range_meters":8400,"station_id":"ce4bhap2rcd13ifvqek0","pricing_plan_id":"cebpf4jnsgd1na2vs0mg"},{"bike_id":"be22def8-9143-47c2-9f93-914f06198414","system_id":"levelo_inurba_marseille","lat":43.30928,"lon":5.40141,"is_reserved":false,"is_disabled":false,"rental_uris":{"android":"levelo://app?vid=be22def8-9143-47c2-9f93-914f06198414","ios":"levelo://app?vid=be22def8-9143-47c2-9f93-914f06198414"},"vehicle_type_id":"4","last_reported":1748134787,"current_range_meters":8400,"station_id":"ce4bgvp2rcd13ifvqct0","pricing_plan_id":"cebpf4jnsgd1na2vs0mg"},{"bike_id":"266f63d3-91cc-45e6-bcde-2a6b3263f52e","system_id":"levelo_inurba_marseille","lat":43.25091,"lon":5.40353,"is_reserved":false,"is_disabled":false,"rental_uris":{"android":"levelo://app?vid=266f63d3-91cc-45e6-bcde-2a6b3263f52e","ios":"levelo://app?vid=266f63d3-91cc-45e6-bcde-2a6b3263f52e"},"vehicle_type_id":"4","last_reported":1748134787,"current_range_meters":8400,"station_id":"ce4bhlh2rcd13ifvqgig","pricing_plan_id":"cebpf4jnsgd1na2vs0mg"},{"bike_id":"c0b51b19-5a3c-47b6-a728-20e9b0d3fca2","system_id":"levelo_inurba_marseille","lat":43.21759,"lon":5.34632,"is_reserved":false,"is_disabled":true,"rental_uris":{"android":"levelo://app?vid=c0b51b19-5a3c-47b6-a728-20e9b0d3fca2","ios":"levelo://app?vid=c0b51b19-5a3c-47b6-a728-20e9b0d3fca2"},"vehicle_type_id":"4","last_reported":1748134787,"current_range_meters":8400,"station_id":"st_cvj6r9ubvosntc0bgbag","pricing_plan_id":"cebpf4jnsgd1na2vs0mg"},{"bike_id":"3581c28c-41f2-4cb7-b494-0448776c0438","system_id":"levelo_inurba_marseille","lat":43.29631,"lon":5.36035,"is_reserved":false,"is_disabled":false,"rental_uris":{"android":"levelo://app?vid=3581c28c-41f2-4cb7-b494-0448776c0438","ios":"levelo://app?vid=3581c28c-41f2-4cb7-b494-0448776c0438"},"vehicle_type_id":"4","last_reported":1748134787,"current_range_meters":8800,"station_id":"","pricing_plan_id":"cebpf4jnsgd1na2vs0mg"},{"bike_id":"3e277878-6c4e-4a86-81d8-e5634075f347","system_id":"levelo_inurba_marseille","lat":43.29951,"lon":5.4132,"is_reserved":false,"is_disabled":false,"rental_uris":{"android":"levelo://app?vid=3e277878-6c4e-4a86-81d8-e5634075f347","ios":"levelo://app?vid=3e277878-6c4e-4a86-81d8-e5634075f347"},"vehicle_type_id":"4","last_reported":1748134787,"current_range_meters":8800,"station_id":"ce4bhp12rcd13ifvqh9g","pricing_plan_id":"cebpf4jnsgd1na2vs0mg"},{"bike_id":"7d4313c8-0ca9-4d4f-bb96-9ef242bfa2ee","system_id":"levelo_inurba_marseille","lat":43.29197,"lon":5.38463,"is_reserved":false,"is_disabled":true,"rental_uris":{"android":"levelo://app?vid=7d4313c8-0ca9-4d4f-bb96-9ef242bfa2ee","ios":"levelo://app?vid=7d4313c8-0ca9-4d4f-bb96-9ef242bfa2ee"},"vehicle_type_id":"4","last_reported":1748134787,"current_range_meters":8800,"station_id":"","pricing_plan_id":"cebpf4jnsgd1na2vs0mg"},{"bike_id":"db05a6aa-4d7b-4ffb-9e41-367b7d6c334a","system_id":"levelo_inurba_marseille","lat":43.30595,"lon":5.39348,"is_reserved":false,"is_disabled":false,"rental_uris":{"android":"levelo://app?vid=db05a6aa-4d7b-4ffb-9e41-367b7d6c334a","ios":"levelo://app?vid=db05a6aa-4d7b-4ffb-9e41-367b7d6c334a"},"vehicle_type_id":"4","last_reported":1748134787,"current_range_meters":8800,"station_id":"ce4bh0p2rcd13ifvqd80","pricing_plan_id":"cebpf4jnsgd1na2vs0mg"},{"bike_id":"8dcc7c08-49d9-4554-86bb-9d705f917077","system_id":"levelo_inurba_marseille","lat":43.28706,"lon":5.39995,"is_reserved":false,"is_disabled":false,"rental_uris":{"android":"levelo://app?vid=8dcc7c08-49d9-4554-86bb-9d705f917077","ios":"levelo://app?vid=8dcc7c08-49d9-4554-86bb-9d705f917077"},"vehicle_type_id":"4","last_reported":1748134787,"current_range_meters":8800,"station_id":"ce4bho92rcd13ifvqh3g","pricing_plan_id":"cebpf4jnsgd1na2vs0mg"},{"bike_id":"02578fe3-0b09-4414-ac7a-e0c7201d11cb","system_id":"levelo_inurba_marseille","lat":43.33604,"lon":5.41014,"is_reserved":false,"is_disabled":false,"rental_uris":{"android":"levelo://app?vid=02578fe3-0b09-4414-ac7a-e0c7201d11cb","ios":"levelo://app?vid=02578fe3-0b09-4414-ac7a-e0c7201d11cb"},"vehicle_type_id":"4","last_reported":1748134787,"current_range_meters":8800,"station_id":"ce4bhqh2rcd13ifvqhmg","pricing_plan_id":"cebpf4jnsgd1na2vs0mg"},{"bike_id":"ceb5dae6-874b-4d60-9609-82bcf4c8d4ed","system_id":"levelo_inurba_marseille","lat":43.30431,"lon":5.38851,"is_reserved":false,"is_disabled":true,"rental_uris":{"android":"levelo://app?vid=ceb5dae6-874b-4d60-9609-82bcf4c8d4ed","ios":"levelo://app?vid=ceb5dae6-874b-4d60-9609-82bcf4c8d4ed"},"vehicle_type_id":"4","last_reported":1748134787,"current_range_meters":8800,"station_id":"ce4bgk12rcd13ifvqbi0","pricing_plan_id":"cebpf4jnsgd1na2vs0mg"},{"bike_id":"cb3127c5-a16a-4197-a684-7d1dd406bfe1","system_id":"levelo_inurba_marseille","lat":43.31329,"lon":5.39714,"is_reserved":false,"is_disabled":false,"rental_uris":{"android":"levelo://app?vid=cb3127c5-a16a-4197-a684-7d1dd406bfe1","ios":"levelo://app?vid=cb3127c5-a16a-4197-a684-7d1dd406bfe1"},"vehicle_type_id":"4","last_reported":1748134787,"current_range_meters":8800,"station_id":"ce4bgvp2rcd13ifvqcu0","pricing_plan_id":"cebpf4jnsgd1na2vs0mg"},{"bike_id":"2e24465f-04d9-4ef0-aeb8-b2d276322da0","system_id":"levelo_inurba_marseille","lat":43.31126,"lon":5.37772,"is_reserved":false,"is_disabled":false,"rental_uris":{"android":"levelo://app?vid=2e24465f-04d9-4ef0-aeb8-b2d276322da0","ios":"levelo://app?vid=2e24465f-04d9-4ef0-aeb8-b2d276322da0"},"vehicle_type_id":"4","last_reported":1748134787,"current_range_meters":8800,"station_id":"ce4bgt92rcd13ifvqcg0","pricing_plan_id":"cebpf4jnsgd1na2vs0mg"},{"bike_id":"c48c0c6d-638e-4ea6-b59e-9249e3f6466d","system_id":"levelo_inurba_marseille","lat":43.31467,"lon":5.37294,"is_reserved":false,"is_disabled":false,"rental_uris":{"android":"levelo://app?vid=c48c0c6d-638e-4ea6-b59e-9249e3f6466d","ios":"levelo://app?vid=c48c0c6d-638e-4ea6-b59e-9249e3f6466d"},"vehicle_type_id":"4","last_reported":1748134787,"current_range_meters":8800,"station_id":"ce4bgt12rcd13ifvqcd0","pricing_plan_id":"cebpf4jnsgd1na2vs0mg"},{"bike_id":"d5ddd455-df57-470b-90b1-29664b7edf5f","system_id":"levelo_inurba_marseille","lat":43.334117,"lon":5.400331,"is_reserved":false,"is_disabled":false,"rental_uris":{"android":"levelo://app?vid=d5ddd455-df57-470b-90b1-29664b7edf5f","ios":"levelo://app?vid=d5ddd455-df57-470b-90b1-29664b7edf5f"},"vehicle_type_id":"4","last_reported":1748134787,"current_range_meters":8800,"station_id":"","pricing_plan_id":"cebpf4jnsgd1na2vs0mg"},{"bike_id":"9e10a5b8-5080-4f7e-8499-b14ca29da876","system_id":"levelo_inurba_marseille","lat":43.28994,"lon":5.35642,"is_reserved":false,"is_disabled":true,"rental_uris":{"android":"levelo://app?vid=9e10a5b8-5080-4f7e-8499-b14ca29da876","ios":"levelo://app?vid=9e10a5b8-5080-4f7e-8499-b14ca29da876"},"vehicle_type_id":"4","last_reported":1748134787,"current_range_meters":9200,"station_id":"ce4bhb92rcd13ifvqen0","pricing_plan_id":"cebpf4jnsgd1na2vs0mg"},{"bike_id":"3c75e648-a525-4de9-93fa-090b0f418121","system_id":"levelo_inurba_marseille","lat":43.31271,"lon":5.36744,"is_reserved":false,"is_disabled":false,"rental_uris":{"android":"levelo://app?vid=3c75e648-a525-4de9-93fa-090b0f418121","ios":"levelo://app?vid=3c75e648-a525-4de9-93fa-090b0f418121"},"vehicle_type_id":"4","last_reported":1748134787,"current_range_meters":9200,"station_id":"","pricing_plan_id":"cebpf4jnsgd1na2vs0mg"},{"bike_id":"fc8c72ad-ca61-42c6-ae90-f61b57e45328","system_id":"levelo_inurba_marseille","lat":43.27888,"lon":5.41851,"is_reserved":false,"is_disabled":false,"rental_uris":{"android":"levelo://app?vid=fc8c72ad-ca61-42c6-ae90-f61b57e45328","ios":"levelo://app?vid=fc8c72ad-ca61-42c6-ae90-f61b57e45328"},"vehicle_type_id":"4","last_reported":1748134787,"current_range_meters":9200,"station_id":"","pricing_plan_id":"cebpf4jnsgd1na2vs0mg"},{"bike_id":"d01263a6-c1f1-4ebc-9e8c-301181992250","system_id":"levelo_inurba_marseille","lat":43.27913,"lon":5.39577,"is_reserved":false,"is_disabled":false,"rental_uris":{"android":"levelo://app?vid=d01263a6-c1f1-4ebc-9e8c-301181992250","ios":"levelo://app?vid=d01263a6-c1f1-4ebc-9e8c-301181992250"},"vehicle_type_id":"4","last_reported":1748134787,"current_range_meters":9200,"station_id":"ce4bhf92rcd13ifvqf40","pricing_plan_id":"cebpf4jnsgd1na2vs0mg"},{"bike_id":"84b1d1a2-2301-4f7e-8fde-ecd5a1274476","system_id":"levelo_inurba_marseille","lat":43.27067,"lon":5.42283,"is_reserved":false,"is_disabled":false,"rental_uris":{"android":"levelo://app?vid=84b1d1a2-2301-4f7e-8fde-ecd5a1274476","ios":"levelo://app?vid=84b1d1a2-2301-4f7e-8fde-ecd5a1274476"},"vehicle_type_id":"4","last_reported":1748134787,"current_range_meters":9200,"station_id":"ce4bhk92rcd13ifvqgb0","pricing_plan_id":"cebpf4jnsgd1na2vs0mg"},{"bike_id":"aeb9ef90-389d-4ef3-899b-0a0feff09a32","system_id":"levelo_inurba_marseille","lat":43.313512,"lon":5.380237,"is_reserved":false,"is_disabled":false,"rental_uris":{"android":"levelo://app?vid=aeb9ef90-389d-4ef3-899b-0a0feff09a32","ios":"levelo://app?vid=aeb9ef90-389d-4ef3-899b-0a0feff09a32"},"vehicle_type_id":"4","last_reported":1748134787,"current_range_meters":9200,"station_id":"","pricing_plan_id":"cebpf4jnsgd1na2vs0mg"},{"bike_id":"50df2833-c24f-4064-9f93-b9a81dc82f32","system_id":"levelo_inurba_marseille","lat":43.309312,"lon":5.401545,"is_reserved":false,"is_disabled":false,"rental_uris":{"android":"levelo://app?vid=50df2833-c24f-4064-9f93-b9a81dc82f32","ios":"levelo://app?vid=50df2833-c24f-4064-9f93-b9a81dc82f32"},"vehicle_type_id":"4","last_reported":1748134787,"current_range_meters":9200,"station_id":"ce4bgvp2rcd13ifvqct0","pricing_plan_id":"cebpf4jnsgd1na2vs0mg"},{"bike_id":"40572cad-a796-4f87-a02c-44bcfdb01f65","system_id":"levelo_inurba_marseille","lat":43.273422,"lon":5.361547,"is_reserved":false,"is_disabled":false,"rental_uris":{"android":"levelo://app?vid=40572cad-a796-4f87-a02c-44bcfdb01f65","ios":"levelo://app?vid=40572cad-a796-4f87-a02c-44bcfdb01f65"},"vehicle_type_id":"4","last_reported":1748134787,"current_range_meters":9200,"station_id":"","pricing_plan_id":"cebpf4jnsgd1na2vs0mg"},{"bike_id":"d8c73d26-ef14-4027-b859-a9644e254b3d","system_id":"levelo_inurba_marseille","lat":43.31514,"lon":5.36929,"is_reserved":false,"is_disabled":false,"rental_uris":{"android":"levelo://app?vid=d8c73d26-ef14-4027-b859-a9644e254b3d","ios":"levelo://app?vid=d8c73d26-ef14-4027-b859-a9644e254b3d"},"vehicle_type_id":"4","last_reported":1748134787,"current_range_meters":9200,"station_id":"","pricing_plan_id":"cebpf4jnsgd1na2vs0mg"},{"bike_id":"fda8603c-ad7b-46d7-873b-31d8bf06c08e","system_id":"levelo_inurba_marseille","lat":43.28841,"lon":5.3586,"is_reserved":false,"is_disabled":false,"rental_uris":{"android":"levelo://app?vid=fda8603c-ad7b-46d7-873b-31d8bf06c08e","ios":"levelo://app?vid=fda8603c-ad7b-46d7-873b-31d8bf06c08e"},"vehicle_type_id":"4","last_reported":1748134787,"current_range_meters":9200,"station_id":"ce4bhb12rcd13ifvqem0","pricing_plan_id":"cebpf4jnsgd1na2vs0mg"},{"bike_id":"eb7449bf-569b-46bd-ac86-51a1edea3186","system_id":"levelo_inurba_marseille","lat":43.30237,"lon":5.40046,"is_reserved":false,"is_disabled":false,"rental_uris":{"android":"levelo://app?vid=eb7449bf-569b-46bd-ac86-51a1edea3186","ios":"levelo://app?vid=eb7449bf-569b-46bd-ac86-51a1edea3186"},"vehicle_type_id":"4","last_reported":1748134787,"current_range_meters":9200,"station_id":"","pricing_plan_id":"cebpf4jnsgd1na2vs0mg"},{"bike_id":"af143851-39be-49b2-9363-1ef6d66beccd","system_id":"levelo_inurba_marseille","lat":43.26218,"lon":5.4045,"is_reserved":false,"is_disabled":false,"rental_uris":{"android":"levelo://app?vid=af143851-39be-49b2-9363-1ef6d66beccd","ios":"levelo://app?vid=af143851-39be-49b2-9363-1ef6d66beccd"},"vehicle_type_id":"4","last_reported":1748134787,"current_range_meters":9200,"station_id":"ce4bhmh2rcd13ifvqgmg","pricing_plan_id":"cebpf4jnsgd1na2vs0mg"},{"bike_id":"7ea1a4eb-6d4b-44e3-b5fc-9a1127bcb445","system_id":"levelo_inurba_marseille","lat":43.30249,"lon":5.40068,"is_reserved":false,"is_disabled":false,"rental_uris":{"android":"levelo://app?vid=7ea1a4eb-6d4b-44e3-b5fc-9a1127bcb445","ios":"levelo://app?vid=7ea1a4eb-6d4b-44e3-b5fc-9a1127bcb445"},"vehicle_type_id":"4","last_reported":1748134787,"current_range_meters":9200,"station_id":"ce4bgvh2rcd13ifvqcs0","pricing_plan_id":"cebpf4jnsgd1na2vs0mg"},{"bike_id":"8947d5ff-6ff8-4524-8c4b-e7e8ba0a8867","system_id":"levelo_inurba_marseille","lat":43.29548,"lon":5.42271,"is_reserved":false,"is_disabled":false,"rental_uris":{"android":"levelo://app?vid=8947d5ff-6ff8-4524-8c4b-e7e8ba0a8867","ios":"levelo://app?vid=8947d5ff-6ff8-4524-8c4b-e7e8ba0a8867"},"vehicle_type_id":"4","last_reported":1748134787,"current_range_meters":9600,"station_id":"ce4bhph2rcd13ifvqhdg","pricing_plan_id":"cebpf4jnsgd1na2vs0mg"},{"bike_id":"f2c486ae-f19a-4349-8179-575001da6673","system_id":"levelo_inurba_marseille","lat":43.31762,"lon":5.39012,"is_reserved":false,"is_disabled":false,"rental_uris":{"android":"levelo://app?vid=f2c486ae-f19a-4349-8179-575001da6673","ios":"levelo://app?vid=f2c486ae-f19a-4349-8179-575001da6673"},"vehicle_type_id":"4","last_reported":1748134787,"current_range_meters":9600,"station_id":"ce4bhqp2rcd13ifvqhng","pricing_plan_id":"cebpf4jnsgd1na2vs0mg"},{"bike_id":"317402d7-3cf9-48ed-a017-14be367d398d","system_id":"levelo_inurba_marseille","lat":43.32334,"lon":5.40615,"is_reserved":false,"is_disabled":false,"rental_uris":{"android":"levelo://app?vid=317402d7-3cf9-48ed-a017-14be367d398d","ios":"levelo://app?vid=317402d7-3cf9-48ed-a017-14be367d398d"},"vehicle_type_id":"4","last_reported":1748134787,"current_range_meters":9600,"station_id":"ce4bhq92rcd13ifvqhjg","pricing_plan_id":"cebpf4jnsgd1na2vs0mg"},{"bike_id":"b257e1c4-2f2e-4cd2-bdcb-f4495a7aed9a","system_id":"levelo_inurba_marseille","lat":43.32099,"lon":5.40793,"is_reserved":false,"is_disabled":false,"rental_uris":{"android":"levelo://app?vid=b257e1c4-2f2e-4cd2-bdcb-f4495a7aed9a","ios":"levelo://app?vid=b257e1c4-2f2e-4cd2-bdcb-f4495a7aed9a"},"vehicle_type_id":"4","last_reported":1748134787,"current_range_meters":9600,"station_id":"","pricing_plan_id":"cebpf4jnsgd1na2vs0mg"},{"bike_id":"494dfee6-f062-4620-b8a3-b03deeffc8c1","system_id":"levelo_inurba_marseille","lat":43.31234,"lon":5.3684,"is_reserved":false,"is_disabled":false,"rental_uris":{"android":"levelo://app?vid=494dfee6-f062-4620-b8a3-b03deeffc8c1","ios":"levelo://app?vid=494dfee6-f062-4620-b8a3-b03deeffc8c1"},"vehicle_type_id":"4","last_reported":1748134787,"current_range_meters":9600,"station_id":"ce4bgl92rcd13ifvqbq0","pricing_plan_id":"cebpf4jnsgd1na2vs0mg"},{"bike_id":"03d95fe7-85f3-4d60-b450-6e8d7e335304","system_id":"levelo_inurba_marseille","lat":43.31753,"lon":5.39025,"is_reserved":false,"is_disabled":false,"rental_uris":{"android":"levelo://app?vid=03d95fe7-85f3-4d60-b450-6e8d7e335304","ios":"levelo://app?vid=03d95fe7-85f3-4d60-b450-6e8d7e335304"},"vehicle_type_id":"4","last_reported":1748134787,"current_range_meters":9600,"station_id":"ce4bhqp2rcd13ifvqhng","pricing_plan_id":"cebpf4jnsgd1na2vs0mg"},{"bike_id":"9de16baa-a0ec-439a-85e0-bbb91b9cb0a1","system_id":"levelo_inurba_marseille","lat":43.29946,"lon":5.37152,"is_reserved":false,"is_disabled":false,"rental_uris":{"android":"levelo://app?vid=9de16baa-a0ec-439a-85e0-bbb91b9cb0a1","ios":"levelo://app?vid=9de16baa-a0ec-439a-85e0-bbb91b9cb0a1"},"vehicle_type_id":"4","last_reported":1748134787,"current_range_meters":9600,"station_id":"ce4bgr92rcd13ifvqc7g","pricing_plan_id":"cebpf4jnsgd1na2vs0mg"},{"bike_id":"631364b9-4f5e-4cc8-8e04-6ec26ba24d61","system_id":"levelo_inurba_marseille","lat":43.301343,"lon":5.387812,"is_reserved":false,"is_disabled":true,"rental_uris":{"android":"levelo://app?vid=631364b9-4f5e-4cc8-8e04-6ec26ba24d61","ios":"levelo://app?vid=631364b9-4f5e-4cc8-8e04-6ec26ba24d61"},"vehicle_type_id":"4","last_reported":1748134787,"current_range_meters":9600,"station_id":"ce4bghh2rcd13ifvqb60","pricing_plan_id":"cebpf4jnsgd1na2vs0mg"},{"bike_id":"bf8e8887-6d33-45c4-a469-449aeaef0cbc","system_id":"levelo_inurba_marseille","lat":43.26055,"lon":5.39429,"is_reserved":false,"is_disabled":false,"rental_uris":{"android":"levelo://app?vid=bf8e8887-6d33-45c4-a469-449aeaef0cbc","ios":"levelo://app?vid=bf8e8887-6d33-45c4-a469-449aeaef0cbc"},"vehicle_type_id":"4","last_reported":1748134787,"current_range_meters":9600,"station_id":"ce4bhh92rcd13ifvqfj0","pricing_plan_id":"cebpf4jnsgd1na2vs0mg"},{"bike_id":"2db9b4dd-6c57-41f2-970a-2b6a881f3574","system_id":"levelo_inurba_marseille","lat":43.28023,"lon":5.36942,"is_reserved":false,"is_disabled":false,"rental_uris":{"android":"levelo://app?vid=2db9b4dd-6c57-41f2-970a-2b6a881f3574","ios":"levelo://app?vid=2db9b4dd-6c57-41f2-970a-2b6a881f3574"},"vehicle_type_id":"4","last_reported":1748134787,"current_range_meters":9600,"station_id":"ce4bha12rcd13ifvqef0","pricing_plan_id":"cebpf4jnsgd1na2vs0mg"},{"bike_id":"88ac5a91-56d3-4573-b0f2-5c6bbb7d986b","system_id":"levelo_inurba_marseille","lat":43.26074,"lon":5.39678,"is_reserved":false,"is_disabled":false,"rental_uris":{"android":"levelo://app?vid=88ac5a91-56d3-4573-b0f2-5c6bbb7d986b","ios":"levelo://app?vid=88ac5a91-56d3-4573-b0f2-5c6bbb7d986b"},"vehicle_type_id":"4","last_reported":1748134787,"current_range_meters":9600,"station_id":"","pricing_plan_id":"cebpf4jnsgd1na2vs0mg"},{"bike_id":"7716ce6a-459e-400b-adb2-38f7d87508e7","system_id":"levelo_inurba_marseille","lat":43.296997,"lon":5.379287,"is_reserved":false,"is_disabled":false,"rental_uris":{"android":"levelo://app?vid=7716ce6a-459e-400b-adb2-38f7d87508e7","ios":"levelo://app?vid=7716ce6a-459e-400b-adb2-38f7d87508e7"},"vehicle_type_id":"4","last_reported":1748134787,"current_range_meters":9600,"station_id":"","pricing_plan_id":"cebpf4jnsgd1na2vs0mg"},{"bike_id":"077e9f78-4104-4bcf-9ae4-bd82e0644222","system_id":"levelo_inurba_marseille","lat":43.30293,"lon":5.39215,"is_reserved":false,"is_disabled":false,"rental_uris":{"android":"levelo://app?vid=077e9f78-4104-4bcf-9ae4-bd82e0644222","ios":"levelo://app?vid=077e9f78-4104-4bcf-9ae4-bd82e0644222"},"vehicle_type_id":"4","last_reported":1748134787,"current_range_meters":9600,"station_id":"ce4bgkh2rcd13ifvqbk0","pricing_plan_id":"cebpf4jnsgd1na2vs0mg"},{"bike_id":"a2969d9b-b308-43ba-a932-55b8bd550f28","system_id":"levelo_inurba_marseille","lat":43.31514,"lon":5.40397,"is_reserved":false,"is_disabled":false,"rental_uris":{"android":"levelo://app?vid=a2969d9b-b308-43ba-a932-55b8bd550f28","ios":"levelo://app?vid=a2969d9b-b308-43ba-a932-55b8bd550f28"},"vehicle_type_id":"4","last_reported":1748134787,"current_range_meters":10000,"station_id":"","pricing_plan_id":"cebpf4jnsgd1na2vs0mg"},{"bike_id":"d9fa0449-e47c-4bbe-a91c-4939cab5d888","system_id":"levelo_inurba_marseille","lat":43.28516,"lon":5.42606,"is_reserved":false,"is_disabled":false,"rental_uris":{"android":"levelo://app?vid=d9fa0449-e47c-4bbe-a91c-4939cab5d888","ios":"levelo://app?vid=d9fa0449-e47c-4bbe-a91c-4939cab5d888"},"vehicle_type_id":"4","last_reported":1748134787,"current_range_meters":10000,"station_id":"","pricing_plan_id":"cebpf4jnsgd1na2vs0mg"},{"bike_id":"301fe2f8-a535-492e-8e34-7fadff48a616","system_id":"levelo_inurba_marseille","lat":43.30939,"lon":5.40186,"is_reserved":false,"is_disabled":false,"rental_uris":{"android":"levelo://app?vid=301fe2f8-a535-492e-8e34-7fadff48a616","ios":"levelo://app?vid=301fe2f8-a535-492e-8e34-7fadff48a616"},"vehicle_type_id":"4","last_reported":1748134787,"current_range_meters":10000,"station_id":"ce4bgvp2rcd13ifvqct0","pricing_plan_id":"cebpf4jnsgd1na2vs0mg"},{"bike_id":"b4537b34-8026-4936-a520-4dd4ba0f044b","system_id":"levelo_inurba_marseille","lat":43.27995,"lon":5.40017,"is_reserved":false,"is_disabled":false,"rental_uris":{"android":"levelo://app?vid=b4537b34-8026-4936-a520-4dd4ba0f044b","ios":"levelo://app?vid=b4537b34-8026-4936-a520-4dd4ba0f044b"},"vehicle_type_id":"4","last_reported":1748134787,"current_range_meters":10000,"station_id":"ce4bho92rcd13ifvqh4g","pricing_plan_id":"cebpf4jnsgd1na2vs0mg"},{"bike_id":"4b21239c-4264-43d2-9677-18eac578f916","system_id":"levelo_inurba_marseille","lat":43.27861,"lon":5.40759,"is_reserved":false,"is_disabled":true,"rental_uris":{"android":"levelo://app?vid=4b21239c-4264-43d2-9677-18eac578f916","ios":"levelo://app?vid=4b21239c-4264-43d2-9677-18eac578f916"},"vehicle_type_id":"4","last_reported":1748134787,"current_range_meters":10000,"station_id":"ce4bhnh2rcd13ifvqgtg","pricing_plan_id":"cebpf4jnsgd1na2vs0mg"},{"bike_id":"583a65fb-6e62-4d9c-9bce-98b6a07c0ec2","system_id":"levelo_inurba_marseille","lat":43.30922,"lon":5.40148,"is_reserved":false,"is_disabled":false,"rental_uris":{"android":"levelo://app?vid=583a65fb-6e62-4d9c-9bce-98b6a07c0ec2","ios":"levelo://app?vid=583a65fb-6e62-4d9c-9bce-98b6a07c0ec2"},"vehicle_type_id":"4","last_reported":1748134787,"current_range_meters":10000,"station_id":"ce4bgvp2rcd13ifvqct0","pricing_plan_id":"cebpf4jnsgd1na2vs0mg"},{"bike_id":"b72ccfd1-35cf-4b02-9c1a-90aef7c74e5f","system_id":"levelo_inurba_marseille","lat":43.24874,"lon":5.44205,"is_reserved":false,"is_disabled":false,"rental_uris":{"android":"levelo://app?vid=b72ccfd1-35cf-4b02-9c1a-90aef7c74e5f","ios":"levelo://app?vid=b72ccfd1-35cf-4b02-9c1a-90aef7c74e5f"},"vehicle_type_id":"4","last_reported":1748134787,"current_range_meters":10000,"station_id":"","pricing_plan_id":"cebpf4jnsgd1na2vs0mg"},{"bike_id":"8199505b-e114-4138-8581-1cb9b97e9b8c","system_id":"levelo_inurba_marseille","lat":43.292644,"lon":5.401209,"is_reserved":false,"is_disabled":false,"rental_uris":{"android":"levelo://app?vid=8199505b-e114-4138-8581-1cb9b97e9b8c","ios":"levelo://app?vid=8199505b-e114-4138-8581-1cb9b97e9b8c"},"vehicle_type_id":"4","last_reported":1748134787,"current_range_meters":10000,"station_id":"ce4bh312rcd13ifvqdk0","pricing_plan_id":"cebpf4jnsgd1na2vs0mg"},{"bike_id":"927e3f29-24b9-4e3b-83cd-8df6b912e853","system_id":"levelo_inurba_marseille","lat":43.30258,"lon":5.37291,"is_reserved":false,"is_disabled":false,"rental_uris":{"android":"levelo://app?vid=927e3f29-24b9-4e3b-83cd-8df6b912e853","ios":"levelo://app?vid=927e3f29-24b9-4e3b-83cd-8df6b912e853"},"vehicle_type_id":"4","last_reported":1748134787,"current_range_meters":10000,"station_id":"","pricing_plan_id":"cebpf4jnsgd1na2vs0mg"},{"bike_id":"63c73c72-ec46-4177-9a06-13e001f4ae65","system_id":"levelo_inurba_marseille","lat":43.30213,"lon":5.39503,"is_reserved":false,"is_disabled":false,"rental_uris":{"android":"levelo://app?vid=63c73c72-ec46-4177-9a06-13e001f4ae65","ios":"levelo://app?vid=63c73c72-ec46-4177-9a06-13e001f4ae65"},"vehicle_type_id":"4","last_reported":1748134787,"current_range_meters":10000,"station_id":"ce4bh0p2rcd13ifvqd70","pricing_plan_id":"cebpf4jnsgd1na2vs0mg"},{"bike_id":"bf1f7f3c-cd03-4e16-83bf-ebf54137f48e","system_id":"levelo_inurba_marseille","lat":43.29052,"lon":5.36653,"is_reserved":false,"is_disabled":false,"rental_uris":{"android":"levelo://app?vid=bf1f7f3c-cd03-4e16-83bf-ebf54137f48e","ios":"levelo://app?vid=bf1f7f3c-cd03-4e16-83bf-ebf54137f48e"},"vehicle_type_id":"4","last_reported":1748134787,"current_range_meters":10800,"station_id":"","pricing_plan_id":"cebpf4jnsgd1na2vs0mg"},{"bike_id":"8c792118-1983-43ef-abf3-620de86bf8ba","system_id":"levelo_inurba_marseille","lat":43.34136,"lon":5.40902,"is_reserved":false,"is_disabled":false,"rental_uris":{"android":"levelo://app?vid=8c792118-1983-43ef-abf3-620de86bf8ba","ios":"levelo://app?vid=8c792118-1983-43ef-abf3-620de86bf8ba"},"vehicle_type_id":"4","last_reported":1748134787,"current_range_meters":10000,"station_id":"ce4bhqh2rcd13ifvqhlg","pricing_plan_id":"cebpf4jnsgd1na2vs0mg"},{"bike_id":"83156db7-3088-4dca-9346-1b73e55de16f","system_id":"levelo_inurba_marseille","lat":43.28845,"lon":5.35886,"is_reserved":false,"is_disabled":false,"rental_uris":{"android":"levelo://app?vid=83156db7-3088-4dca-9346-1b73e55de16f","ios":"levelo://app?vid=83156db7-3088-4dca-9346-1b73e55de16f"},"vehicle_type_id":"4","last_reported":1748134787,"current_range_meters":10800,"station_id":"ce4bhb12rcd13ifvqem0","pricing_plan_id":"cebpf4jnsgd1na2vs0mg"},{"bike_id":"764aa4a5-fdf1-45d2-8d85-f92b7302018b","system_id":"levelo_inurba_marseille","lat":43.32189,"lon":5.44015,"is_reserved":false,"is_disabled":false,"rental_uris":{"android":"levelo://app?vid=764aa4a5-fdf1-45d2-8d85-f92b7302018b","ios":"levelo://app?vid=764aa4a5-fdf1-45d2-8d85-f92b7302018b"},"vehicle_type_id":"4","last_reported":1748134787,"current_range_meters":10800,"station_id":"","pricing_plan_id":"cebpf4jnsgd1na2vs0mg"},{"bike_id":"aa2aee6c-d5a2-4b33-bb06-2abf49f421ae","system_id":"levelo_inurba_marseille","lat":43.284768,"lon":5.384156,"is_reserved":false,"is_disabled":true,"rental_uris":{"android":"levelo://app?vid=aa2aee6c-d5a2-4b33-bb06-2abf49f421ae","ios":"levelo://app?vid=aa2aee6c-d5a2-4b33-bb06-2abf49f421ae"},"vehicle_type_id":"4","last_reported":1748134787,"current_range_meters":10800,"station_id":"ce4bh512rcd13ifvqe3g","pricing_plan_id":"cebpf4jnsgd1na2vs0mg"},{"bike_id":"1e3a32c0-7e67-4851-965f-c8e0ea83425d","system_id":"levelo_inurba_marseille","lat":43.28451,"lon":5.35888,"is_reserved":false,"is_disabled":false,"rental_uris":{"android":"levelo://app?vid=1e3a32c0-7e67-4851-965f-c8e0ea83425d","ios":"levelo://app?vid=1e3a32c0-7e67-4851-965f-c8e0ea83425d"},"vehicle_type_id":"4","last_reported":1748134787,"current_range_meters":10800,"station_id":"ce4bhah2rcd13ifvqei0","pricing_plan_id":"cebpf4jnsgd1na2vs0mg"},{"bike_id":"0ed7adf5-bdc1-4246-8ec6-b89b2551c486","system_id":"levelo_inurba_marseille","lat":43.30321,"lon":5.40448,"is_reserved":false,"is_disabled":false,"rental_uris":{"android":"levelo://app?vid=0ed7adf5-bdc1-4246-8ec6-b89b2551c486","ios":"levelo://app?vid=0ed7adf5-bdc1-4246-8ec6-b89b2551c486"},"vehicle_type_id":"4","last_reported":1748134787,"current_range_meters":10800,"station_id":"ce4bh012rcd13ifvqd10","pricing_plan_id":"cebpf4jnsgd1na2vs0mg"},{"bike_id":"ce4021c4-e888-4c28-9542-d6534be23e00","system_id":"levelo_inurba_marseille","lat":43.29617,"lon":5.3715,"is_reserved":false,"is_disabled":false,"rental_uris":{"android":"levelo://app?vid=ce4021c4-e888-4c28-9542-d6534be23e00","ios":"levelo://app?vid=ce4021c4-e888-4c28-9542-d6534be23e00"},"vehicle_type_id":"4","last_reported":1748134787,"current_range_meters":10800,"station_id":"ce4bgnh2rcd13ifvqc0g","pricing_plan_id":"cebpf4jnsgd1na2vs0mg"},{"bike_id":"4db9f946-61ad-4d2c-aa52-0eaf2186d550","system_id":"levelo_inurba_marseille","lat":43.29275,"lon":5.40117,"is_reserved":false,"is_disabled":false,"rental_uris":{"android":"levelo://app?vid=4db9f946-61ad-4d2c-aa52-0eaf2186d550","ios":"levelo://app?vid=4db9f946-61ad-4d2c-aa52-0eaf2186d550"},"vehicle_type_id":"4","last_reported":1748134787,"current_range_meters":10800,"station_id":"ce4bh312rcd13ifvqdk0","pricing_plan_id":"cebpf4jnsgd1na2vs0mg"},{"bike_id":"b5212b01-f768-4579-bb1f-18803bfb994e","system_id":"levelo_inurba_marseille","lat":43.31638,"lon":5.38905,"is_reserved":false,"is_disabled":false,"rental_uris":{"android":"levelo://app?vid=b5212b01-f768-4579-bb1f-18803bfb994e","ios":"levelo://app?vid=b5212b01-f768-4579-bb1f-18803bfb994e"},"vehicle_type_id":"4","last_reported":1748134787,"current_range_meters":11200,"station_id":"","pricing_plan_id":"cebpf4jnsgd1na2vs0mg"},{"bike_id":"452136e6-268f-4267-9c70-d28768f7bc9c","system_id":"levelo_inurba_marseille","lat":43.25105,"lon":5.40328,"is_reserved":false,"is_disabled":false,"rental_uris":{"android":"levelo://app?vid=452136e6-268f-4267-9c70-d28768f7bc9c","ios":"levelo://app?vid=452136e6-268f-4267-9c70-d28768f7bc9c"},"vehicle_type_id":"4","last_reported":1748134787,"current_range_meters":11200,"station_id":"ce4bhlh2rcd13ifvqgig","pricing_plan_id":"cebpf4jnsgd1na2vs0mg"},{"bike_id":"37c8c075-8f82-4272-989a-84f131b3479b","system_id":"levelo_inurba_marseille","lat":43.29206,"lon":5.36054,"is_reserved":false,"is_disabled":true,"rental_uris":{"android":"levelo://app?vid=37c8c075-8f82-4272-989a-84f131b3479b","ios":"levelo://app?vid=37c8c075-8f82-4272-989a-84f131b3479b"},"vehicle_type_id":"4","last_reported":1748134787,"current_range_meters":11200,"station_id":"ce4bhbh2rcd13ifvqeqg","pricing_plan_id":"cebpf4jnsgd1na2vs0mg"},{"bike_id":"6abb9ab4-3976-4e3e-b994-f2f72ee02055","system_id":"levelo_inurba_marseille","lat":43.318145,"lon":5.368346,"is_reserved":false,"is_disabled":false,"rental_uris":{"android":"levelo://app?vid=6abb9ab4-3976-4e3e-b994-f2f72ee02055","ios":"levelo://app?vid=6abb9ab4-3976-4e3e-b994-f2f72ee02055"},"vehicle_type_id":"4","last_reported":1748134787,"current_range_meters":11200,"station_id":"","pricing_plan_id":"cebpf4jnsgd1na2vs0mg"},{"bike_id":"847ace23-4b19-401e-a0a0-62985ebd3598","system_id":"levelo_inurba_marseille","lat":43.28845,"lon":5.39335,"is_reserved":false,"is_disabled":true,"rental_uris":{"android":"levelo://app?vid=847ace23-4b19-401e-a0a0-62985ebd3598","ios":"levelo://app?vid=847ace23-4b19-401e-a0a0-62985ebd3598"},"vehicle_type_id":"4","last_reported":1748134787,"current_range_meters":11200,"station_id":"ce4bh2p2rcd13ifvqdi0","pricing_plan_id":"cebpf4jnsgd1na2vs0mg"},{"bike_id":"40209089-ede8-4cc3-b89b-ffec9e3ab195","system_id":"levelo_inurba_marseille","lat":43.2293,"lon":5.35372,"is_reserved":false,"is_disabled":false,"rental_uris":{"android":"levelo://app?vid=40209089-ede8-4cc3-b89b-ffec9e3ab195","ios":"levelo://app?vid=40209089-ede8-4cc3-b89b-ffec9e3ab195"},"vehicle_type_id":"4","last_reported":1748134787,"current_range_meters":11200,"station_id":"cpo3532slgdg3j2ikp40","pricing_plan_id":"cebpf4jnsgd1na2vs0mg"},{"bike_id":"07c20b36-efcd-49b4-a301-75a9b7505c69","system_id":"levelo_inurba_marseille","lat":43.30154,"lon":5.38982,"is_reserved":false,"is_disabled":false,"rental_uris":{"android":"levelo://app?vid=07c20b36-efcd-49b4-a301-75a9b7505c69","ios":"levelo://app?vid=07c20b36-efcd-49b4-a301-75a9b7505c69"},"vehicle_type_id":"4","last_reported":1748134787,"current_range_meters":11200,"station_id":"","pricing_plan_id":"cebpf4jnsgd1na2vs0mg"},{"bike_id":"a4eba46b-0b2c-436e-bac9-c5bc5301b901","system_id":"levelo_inurba_marseille","lat":43.30882,"lon":5.39638,"is_reserved":false,"is_disabled":false,"rental_uris":{"android":"levelo://app?vid=a4eba46b-0b2c-436e-bac9-c5bc5301b901","ios":"levelo://app?vid=a4eba46b-0b2c-436e-bac9-c5bc5301b901"},"vehicle_type_id":"4","last_reported":1748134787,"current_range_meters":11200,"station_id":"ce4bh012rcd13ifvqcv0","pricing_plan_id":"cebpf4jnsgd1na2vs0mg"},{"bike_id":"da453a88-f81b-4e0f-9781-5a7f6c1d364c","system_id":"levelo_inurba_marseille","lat":43.337499,"lon":5.374469,"is_reserved":false,"is_disabled":false,"rental_uris":{"android":"levelo://app?vid=da453a88-f81b-4e0f-9781-5a7f6c1d364c","ios":"levelo://app?vid=da453a88-f81b-4e0f-9781-5a7f6c1d364c"},"vehicle_type_id":"4","last_reported":1748134787,"current_range_meters":11600,"station_id":"","pricing_plan_id":"cebpf4jnsgd1na2vs0mg"},{"bike_id":"a6d0259b-c4a3-4b49-ae20-4440c6d8a1b0","system_id":"levelo_inurba_marseille","lat":43.25097,"lon":5.39503,"is_reserved":false,"is_disabled":false,"rental_uris":{"android":"levelo://app?vid=a6d0259b-c4a3-4b49-ae20-4440c6d8a1b0","ios":"levelo://app?vid=a6d0259b-c4a3-4b49-ae20-4440c6d8a1b0"},"vehicle_type_id":"4","last_reported":1748134787,"current_range_meters":11600,"station_id":"ce4bhm12rcd13ifvqgkg","pricing_plan_id":"cebpf4jnsgd1na2vs0mg"},{"bike_id":"7f33a486-e8ac-45e1-a9ec-4ad11a5a5ebd","system_id":"levelo_inurba_marseille","lat":43.31114,"lon":5.37789,"is_reserved":false,"is_disabled":false,"rental_uris":{"android":"levelo://app?vid=7f33a486-e8ac-45e1-a9ec-4ad11a5a5ebd","ios":"levelo://app?vid=7f33a486-e8ac-45e1-a9ec-4ad11a5a5ebd"},"vehicle_type_id":"4","last_reported":1748134787,"current_range_meters":11600,"station_id":"ce4bgt92rcd13ifvqcg0","pricing_plan_id":"cebpf4jnsgd1na2vs0mg"},{"bike_id":"864ac3b2-136a-4dc9-80f9-30dea8edbd33","system_id":"levelo_inurba_marseille","lat":43.25116,"lon":5.403267,"is_reserved":false,"is_disabled":false,"rental_uris":{"android":"levelo://app?vid=864ac3b2-136a-4dc9-80f9-30dea8edbd33","ios":"levelo://app?vid=864ac3b2-136a-4dc9-80f9-30dea8edbd33"},"vehicle_type_id":"4","last_reported":1748134787,"current_range_meters":12000,"station_id":"ce4bhlh2rcd13ifvqgig","pricing_plan_id":"cebpf4jnsgd1na2vs0mg"},{"bike_id":"4f0adb5e-fcbf-4d9c-9091-a2bbf83763a0","system_id":"levelo_inurba_marseille","lat":43.27068,"lon":5.42286,"is_reserved":false,"is_disabled":false,"rental_uris":{"android":"levelo://app?vid=4f0adb5e-fcbf-4d9c-9091-a2bbf83763a0","ios":"levelo://app?vid=4f0adb5e-fcbf-4d9c-9091-a2bbf83763a0"},"vehicle_type_id":"4","last_reported":1748134787,"current_range_meters":12000,"station_id":"ce4bhk92rcd13ifvqgb0","pricing_plan_id":"cebpf4jnsgd1na2vs0mg"},{"bike_id":"6c57a62f-0555-4f48-bc45-68154f410b9f","system_id":"levelo_inurba_marseille","lat":43.30416,"lon":5.39744,"is_reserved":false,"is_disabled":false,"rental_uris":{"android":"levelo://app?vid=6c57a62f-0555-4f48-bc45-68154f410b9f","ios":"levelo://app?vid=6c57a62f-0555-4f48-bc45-68154f410b9f"},"vehicle_type_id":"4","last_reported":1748134787,"current_range_meters":11600,"station_id":"ce4bh092rcd13ifvqd20","pricing_plan_id":"cebpf4jnsgd1na2vs0mg"},{"bike_id":"55a2f403-4098-4910-bb02-f4b2d8522236","system_id":"levelo_inurba_marseille","lat":43.305316,"lon":5.384243,"is_reserved":false,"is_disabled":false,"rental_uris":{"android":"levelo://app?vid=55a2f403-4098-4910-bb02-f4b2d8522236","ios":"levelo://app?vid=55a2f403-4098-4910-bb02-f4b2d8522236"},"vehicle_type_id":"4","last_reported":1748134787,"current_range_meters":12000,"station_id":"ce4bgg92rcd13ifvqb30","pricing_plan_id":"cebpf4jnsgd1na2vs0mg"},{"bike_id":"57d3f697-0606-47c6-bf97-482d6a1b5410","system_id":"levelo_inurba_marseille","lat":43.246808,"lon":5.381547,"is_reserved":false,"is_disabled":false,"rental_uris":{"android":"levelo://app?vid=57d3f697-0606-47c6-bf97-482d6a1b5410","ios":"levelo://app?vid=57d3f697-0606-47c6-bf97-482d6a1b5410"},"vehicle_type_id":"4","last_reported":1748134787,"current_range_meters":12000,"station_id":"ce4bhih2rcd13ifvqfr0","pricing_plan_id":"cebpf4jnsgd1na2vs0mg"},{"bike_id":"585fb44b-ba99-4906-8719-18569cdebb21","system_id":"levelo_inurba_marseille","lat":43.23181,"lon":5.39999,"is_reserved":false,"is_disabled":false,"rental_uris":{"android":"levelo://app?vid=585fb44b-ba99-4906-8719-18569cdebb21","ios":"levelo://app?vid=585fb44b-ba99-4906-8719-18569cdebb21"},"vehicle_type_id":"4","last_reported":1748134787,"current_range_meters":11600,"station_id":"ce4bhn12rcd13ifvqgqg","pricing_plan_id":"cebpf4jnsgd1na2vs0mg"},{"bike_id":"9b9ef349-5da1-4bfa-87de-6595ec01dc00","system_id":"levelo_inurba_marseille","lat":43.30933,"lon":5.40143,"is_reserved":false,"is_disabled":false,"rental_uris":{"android":"levelo://app?vid=9b9ef349-5da1-4bfa-87de-6595ec01dc00","ios":"levelo://app?vid=9b9ef349-5da1-4bfa-87de-6595ec01dc00"},"vehicle_type_id":"4","last_reported":1748134787,"current_range_meters":12400,"station_id":"ce4bgvp2rcd13ifvqct0","pricing_plan_id":"cebpf4jnsgd1na2vs0mg"},{"bike_id":"ded3d16d-b52b-4915-8e48-712c0594085e","system_id":"levelo_inurba_marseille","lat":43.27373,"lon":5.36259,"is_reserved":false,"is_disabled":false,"rental_uris":{"android":"levelo://app?vid=ded3d16d-b52b-4915-8e48-712c0594085e","ios":"levelo://app?vid=ded3d16d-b52b-4915-8e48-712c0594085e"},"vehicle_type_id":"4","last_reported":1748134787,"current_range_meters":12400,"station_id":"ce4bhbh2rcd13ifvqeo0","pricing_plan_id":"cebpf4jnsgd1na2vs0mg"},{"bike_id":"5a43856c-8e7e-4b3c-9a95-a039a79dd888","system_id":"levelo_inurba_marseille","lat":43.32368,"lon":5.38888,"is_reserved":false,"is_disabled":false,"rental_uris":{"android":"levelo://app?vid=5a43856c-8e7e-4b3c-9a95-a039a79dd888","ios":"levelo://app?vid=5a43856c-8e7e-4b3c-9a95-a039a79dd888"},"vehicle_type_id":"4","last_reported":1748134787,"current_range_meters":12400,"station_id":"ce4bhqp2rcd13ifvqhog","pricing_plan_id":"cebpf4jnsgd1na2vs0mg"},{"bike_id":"3850fd70-bc18-4c11-8473-90e02d666583","system_id":"levelo_inurba_marseille","lat":43.2974,"lon":5.40419,"is_reserved":false,"is_disabled":false,"rental_uris":{"android":"levelo://app?vid=3850fd70-bc18-4c11-8473-90e02d666583","ios":"levelo://app?vid=3850fd70-bc18-4c11-8473-90e02d666583"},"vehicle_type_id":"4","last_reported":1748134787,"current_range_meters":13600,"station_id":"","pricing_plan_id":"cebpf4jnsgd1na2vs0mg"},{"bike_id":"18b61f20-e4cc-4aad-bbd3-3608eeef8a47","system_id":"levelo_inurba_marseille","lat":43.27991,"lon":5.41674,"is_reserved":false,"is_disabled":false,"rental_uris":{"android":"levelo://app?vid=18b61f20-e4cc-4aad-bbd3-3608eeef8a47","ios":"levelo://app?vid=18b61f20-e4cc-4aad-bbd3-3608eeef8a47"},"vehicle_type_id":"4","last_reported":1748134787,"current_range_meters":12400,"station_id":"ce4bho12rcd13ifvqh1g","pricing_plan_id":"cebpf4jnsgd1na2vs0mg"},{"bike_id":"750f6585-193a-4477-948c-580515d42c9e","system_id":"levelo_inurba_marseille","lat":43.32262,"lon":5.43953,"is_reserved":false,"is_disabled":false,"rental_uris":{"android":"levelo://app?vid=750f6585-193a-4477-948c-580515d42c9e","ios":"levelo://app?vid=750f6585-193a-4477-948c-580515d42c9e"},"vehicle_type_id":"4","last_reported":1748134787,"current_range_meters":12400,"station_id":"","pricing_plan_id":"cebpf4jnsgd1na2vs0mg"},{"bike_id":"2f03c2fb-b0e6-4dd3-8ae8-9e2ead738d93","system_id":"levelo_inurba_marseille","lat":43.24078,"lon":5.37778,"is_reserved":false,"is_disabled":false,"rental_uris":{"android":"levelo://app?vid=2f03c2fb-b0e6-4dd3-8ae8-9e2ead738d93","ios":"levelo://app?vid=2f03c2fb-b0e6-4dd3-8ae8-9e2ead738d93"},"vehicle_type_id":"4","last_reported":1748134787,"current_range_meters":12400,"station_id":"ce4bhnp2rcd13ifvqgvg","pricing_plan_id":"cebpf4jnsgd1na2vs0mg"},{"bike_id":"5abb8a77-fbf0-4d21-805b-29790cff0e49","system_id":"levelo_inurba_marseille","lat":43.31078,"lon":5.42482,"is_reserved":false,"is_disabled":false,"rental_uris":{"android":"levelo://app?vid=5abb8a77-fbf0-4d21-805b-29790cff0e49","ios":"levelo://app?vid=5abb8a77-fbf0-4d21-805b-29790cff0e49"},"vehicle_type_id":"4","last_reported":1748134787,"current_range_meters":12400,"station_id":"ce4bhp92rcd13ifvqhag","pricing_plan_id":"cebpf4jnsgd1na2vs0mg"},{"bike_id":"8263a665-1eb6-4552-9f12-823eebb158a0","system_id":"levelo_inurba_marseille","lat":43.28721,"lon":5.36106,"is_reserved":false,"is_disabled":false,"rental_uris":{"android":"levelo://app?vid=8263a665-1eb6-4552-9f12-823eebb158a0","ios":"levelo://app?vid=8263a665-1eb6-4552-9f12-823eebb158a0"},"vehicle_type_id":"4","last_reported":1748134787,"current_range_meters":12400,"station_id":"cki0cbj6b192h4jlfktg","pricing_plan_id":"cebpf4jnsgd1na2vs0mg"},{"bike_id":"429d171a-fa45-472e-ab45-f57396271827","system_id":"levelo_inurba_marseille","lat":43.29103,"lon":5.3813,"is_reserved":false,"is_disabled":true,"rental_uris":{"android":"levelo://app?vid=429d171a-fa45-472e-ab45-f57396271827","ios":"levelo://app?vid=429d171a-fa45-472e-ab45-f57396271827"},"vehicle_type_id":"4","last_reported":1748134787,"current_range_meters":12800,"station_id":"ce4bh512rcd13ifvqe2g","pricing_plan_id":"cebpf4jnsgd1na2vs0mg"},{"bike_id":"7ccb5967-b44e-4696-a291-c80afeb45cd9","system_id":"levelo_inurba_marseille","lat":43.30789,"lon":5.37666,"is_reserved":false,"is_disabled":false,"rental_uris":{"android":"levelo://app?vid=7ccb5967-b44e-4696-a291-c80afeb45cd9","ios":"levelo://app?vid=7ccb5967-b44e-4696-a291-c80afeb45cd9"},"vehicle_type_id":"4","last_reported":1748134787,"current_range_meters":12800,"station_id":"ce4bgv92rcd13ifvqcq0","pricing_plan_id":"cebpf4jnsgd1na2vs0mg"},{"bike_id":"7c320c1b-fb02-4806-9e80-37a7ccc7f401","system_id":"levelo_inurba_marseille","lat":43.231908,"lon":5.355611,"is_reserved":false,"is_disabled":false,"rental_uris":{"android":"levelo://app?vid=7c320c1b-fb02-4806-9e80-37a7ccc7f401","ios":"levelo://app?vid=7c320c1b-fb02-4806-9e80-37a7ccc7f401"},"vehicle_type_id":"4","last_reported":1748134787,"current_range_meters":13600,"station_id":"ce4bhu92rcd13ifvqi70","pricing_plan_id":"cebpf4jnsgd1na2vs0mg"},{"bike_id":"dc1e385f-d8da-4bb1-a475-7971558c165b","system_id":"levelo_inurba_marseille","lat":43.292611,"lon":5.409046,"is_reserved":false,"is_disabled":false,"rental_uris":{"android":"levelo://app?vid=dc1e385f-d8da-4bb1-a475-7971558c165b","ios":"levelo://app?vid=dc1e385f-d8da-4bb1-a475-7971558c165b"},"vehicle_type_id":"4","last_reported":1748134787,"current_range_meters":12400,"station_id":"ce4bh192rcd13ifvqdc0","pricing_plan_id":"cebpf4jnsgd1na2vs0mg"},{"bike_id":"2c9d4d00-7a63-473d-b55c-c423bc06eb22","system_id":"levelo_inurba_marseille","lat":43.307814,"lon":5.376491,"is_reserved":false,"is_disabled":false,"rental_uris":{"android":"levelo://app?vid=2c9d4d00-7a63-473d-b55c-c423bc06eb22","ios":"levelo://app?vid=2c9d4d00-7a63-473d-b55c-c423bc06eb22"},"vehicle_type_id":"4","last_reported":1748134787,"current_range_meters":12800,"station_id":"ce4bgv92rcd13ifvqcq0","pricing_plan_id":"cebpf4jnsgd1na2vs0mg"},{"bike_id":"f56429d0-ed4a-4d6f-b0cd-9be7ea67b08b","system_id":"levelo_inurba_marseille","lat":43.28935,"lon":5.3663,"is_reserved":false,"is_disabled":false,"rental_uris":{"android":"levelo://app?vid=f56429d0-ed4a-4d6f-b0cd-9be7ea67b08b","ios":"levelo://app?vid=f56429d0-ed4a-4d6f-b0cd-9be7ea67b08b"},"vehicle_type_id":"4","last_reported":1748134787,"current_range_meters":13600,"station_id":"ce4bhap2rcd13ifvqek0","pricing_plan_id":"cebpf4jnsgd1na2vs0mg"},{"bike_id":"5ee1d461-8000-4612-af18-06999c16222a","system_id":"levelo_inurba_marseille","lat":43.29624,"lon":5.40627,"is_reserved":false,"is_disabled":false,"rental_uris":{"android":"levelo://app?vid=5ee1d461-8000-4612-af18-06999c16222a","ios":"levelo://app?vid=5ee1d461-8000-4612-af18-06999c16222a"},"vehicle_type_id":"4","last_reported":1748134787,"current_range_meters":13600,"station_id":"ce4bh0h2rcd13ifvqd60","pricing_plan_id":"cebpf4jnsgd1na2vs0mg"},{"bike_id":"61fc0d9f-4dab-4b02-87e7-52ce5478b82f","system_id":"levelo_inurba_marseille","lat":43.28103,"lon":5.37837,"is_reserved":false,"is_disabled":false,"rental_uris":{"android":"levelo://app?vid=61fc0d9f-4dab-4b02-87e7-52ce5478b82f","ios":"levelo://app?vid=61fc0d9f-4dab-4b02-87e7-52ce5478b82f"},"vehicle_type_id":"4","last_reported":1748134787,"current_range_meters":13600,"station_id":"ce4bha12rcd13ifvqee0","pricing_plan_id":"cebpf4jnsgd1na2vs0mg"},{"bike_id":"17311fd0-7af3-41e1-9614-8c83aaa86d24","system_id":"levelo_inurba_marseille","lat":43.30562,"lon":5.39359,"is_reserved":false,"is_disabled":false,"rental_uris":{"android":"levelo://app?vid=17311fd0-7af3-41e1-9614-8c83aaa86d24","ios":"levelo://app?vid=17311fd0-7af3-41e1-9614-8c83aaa86d24"},"vehicle_type_id":"4","last_reported":1748134787,"current_range_meters":13600,"station_id":"ce4bh0p2rcd13ifvqd80","pricing_plan_id":"cebpf4jnsgd1na2vs0mg"},{"bike_id":"acb4ee96-5a51-47be-8398-8fc8108b75a2","system_id":"levelo_inurba_marseille","lat":43.30882,"lon":5.39658,"is_reserved":false,"is_disabled":false,"rental_uris":{"android":"levelo://app?vid=acb4ee96-5a51-47be-8398-8fc8108b75a2","ios":"levelo://app?vid=acb4ee96-5a51-47be-8398-8fc8108b75a2"},"vehicle_type_id":"4","last_reported":1748134787,"current_range_meters":13600,"station_id":"ce4bh012rcd13ifvqcv0","pricing_plan_id":"cebpf4jnsgd1na2vs0mg"},{"bike_id":"68c66f9b-11d6-4526-8b35-14773c09a352","system_id":"levelo_inurba_marseille","lat":43.30092,"lon":5.39094,"is_reserved":false,"is_disabled":false,"rental_uris":{"android":"levelo://app?vid=68c66f9b-11d6-4526-8b35-14773c09a352","ios":"levelo://app?vid=68c66f9b-11d6-4526-8b35-14773c09a352"},"vehicle_type_id":"4","last_reported":1748134787,"current_range_meters":13600,"station_id":"ce4bh192rcd13ifvqdb0","pricing_plan_id":"cebpf4jnsgd1na2vs0mg"},{"bike_id":"e5040cc6-5912-44c1-a358-57f34154615c","system_id":"levelo_inurba_marseille","lat":43.28241,"lon":5.38609,"is_reserved":false,"is_disabled":true,"rental_uris":{"android":"levelo://app?vid=e5040cc6-5912-44c1-a358-57f34154615c","ios":"levelo://app?vid=e5040cc6-5912-44c1-a358-57f34154615c"},"vehicle_type_id":"4","last_reported":1748134787,"current_range_meters":14000,"station_id":"","pricing_plan_id":"cebpf4jnsgd1na2vs0mg"},{"bike_id":"451993eb-de22-44e9-b007-1348984f5041","system_id":"levelo_inurba_marseille","lat":43.2511,"lon":5.40341,"is_reserved":false,"is_disabled":false,"rental_uris":{"android":"levelo://app?vid=451993eb-de22-44e9-b007-1348984f5041","ios":"levelo://app?vid=451993eb-de22-44e9-b007-1348984f5041"},"vehicle_type_id":"4","last_reported":1748134787,"current_range_meters":14000,"station_id":"ce4bhlh2rcd13ifvqgig","pricing_plan_id":"cebpf4jnsgd1na2vs0mg"},{"bike_id":"d294229d-0afe-4675-ae8a-a0bb5339eba4","system_id":"levelo_inurba_marseille","lat":43.284189,"lon":5.358474,"is_reserved":false,"is_disabled":false,"rental_uris":{"android":"levelo://app?vid=d294229d-0afe-4675-ae8a-a0bb5339eba4","ios":"levelo://app?vid=d294229d-0afe-4675-ae8a-a0bb5339eba4"},"vehicle_type_id":"4","last_reported":1748134787,"current_range_meters":14000,"station_id":"ce4bhah2rcd13ifvqei0","pricing_plan_id":"cebpf4jnsgd1na2vs0mg"},{"bike_id":"503e77ba-d207-4c9b-9afd-725500ea3736","system_id":"levelo_inurba_marseille","lat":43.282609,"lon":5.350579,"is_reserved":false,"is_disabled":false,"rental_uris":{"android":"levelo://app?vid=503e77ba-d207-4c9b-9afd-725500ea3736","ios":"levelo://app?vid=503e77ba-d207-4c9b-9afd-725500ea3736"},"vehicle_type_id":"4","last_reported":1748134787,"current_range_meters":14000,"station_id":"ce4bhh92rcd13ifvqfj0","pricing_plan_id":"cebpf4jnsgd1na2vs0mg"},{"bike_id":"587bbe26-07af-4d69-9723-9a190d343266","system_id":"levelo_inurba_marseille","lat":43.26934,"lon":5.38921,"is_reserved":false,"is_disabled":false,"rental_uris":{"android":"levelo://app?vid=587bbe26-07af-4d69-9723-9a190d343266","ios":"levelo://app?vid=587bbe26-07af-4d69-9723-9a190d343266"},"vehicle_type_id":"4","last_reported":1748134787,"current_range_meters":14000,"station_id":"ce4bhhh2rcd13ifvqfl0","pricing_plan_id":"cebpf4jnsgd1na2vs0mg"},{"bike_id":"cad06a48-5d5e-4efb-bea6-69c2a06fa63c","system_id":"levelo_inurba_marseille","lat":43.31499,"lon":5.37322,"is_reserved":false,"is_disabled":false,"rental_uris":{"android":"levelo://app?vid=cad06a48-5d5e-4efb-bea6-69c2a06fa63c","ios":"levelo://app?vid=cad06a48-5d5e-4efb-bea6-69c2a06fa63c"},"vehicle_type_id":"4","last_reported":1748134787,"current_range_meters":14000,"station_id":"ce4bgt12rcd13ifvqcd0","pricing_plan_id":"cebpf4jnsgd1na2vs0mg"},{"bike_id":"689832fd-700b-44cc-b355-a7879317a987","system_id":"levelo_inurba_marseille","lat":43.30651,"lon":5.40109,"is_reserved":false,"is_disabled":false,"rental_uris":{"android":"levelo://app?vid=689832fd-700b-44cc-b355-a7879317a987","ios":"levelo://app?vid=689832fd-700b-44cc-b355-a7879317a987"},"vehicle_type_id":"4","last_reported":1748134787,"current_range_meters":14000,"station_id":"ce4bh112rcd13ifvqda0","pricing_plan_id":"cebpf4jnsgd1na2vs0mg"},{"bike_id":"fe3e0658-634a-47de-a11c-0409377aa09d","system_id":"levelo_inurba_marseille","lat":43.251143,"lon":5.403194,"is_reserved":false,"is_disabled":false,"rental_uris":{"android":"levelo://app?vid=fe3e0658-634a-47de-a11c-0409377aa09d","ios":"levelo://app?vid=fe3e0658-634a-47de-a11c-0409377aa09d"},"vehicle_type_id":"4","last_reported":1748134787,"current_range_meters":14400,"station_id":"ce4bhlh2rcd13ifvqgig","pricing_plan_id":"cebpf4jnsgd1na2vs0mg"},{"bike_id":"264d8cef-6a27-4c12-9c8f-846b36316b81","system_id":"levelo_inurba_marseille","lat":43.25826,"lon":5.39451,"is_reserved":false,"is_disabled":false,"rental_uris":{"android":"levelo://app?vid=264d8cef-6a27-4c12-9c8f-846b36316b81","ios":"levelo://app?vid=264d8cef-6a27-4c12-9c8f-846b36316b81"},"vehicle_type_id":"4","last_reported":1748134787,"current_range_meters":14400,"station_id":"ce4bhip2rcd13ifvqft0","pricing_plan_id":"cebpf4jnsgd1na2vs0mg"},{"bike_id":"df2de9b4-89f4-460c-aa9c-556390a633bf","system_id":"levelo_inurba_marseille","lat":43.28727,"lon":5.36093,"is_reserved":false,"is_disabled":false,"rental_uris":{"android":"levelo://app?vid=df2de9b4-89f4-460c-aa9c-556390a633bf","ios":"levelo://app?vid=df2de9b4-89f4-460c-aa9c-556390a633bf"},"vehicle_type_id":"4","last_reported":1748134787,"current_range_meters":14400,"station_id":"cki0cbj6b192h4jlfktg","pricing_plan_id":"cebpf4jnsgd1na2vs0mg"},{"bike_id":"4c838c77-1d6d-4eea-8537-f45dc1e897aa","system_id":"levelo_inurba_marseille","lat":43.25867,"lon":5.39907,"is_reserved":false,"is_disabled":false,"rental_uris":{"android":"levelo://app?vid=4c838c77-1d6d-4eea-8537-f45dc1e897aa","ios":"levelo://app?vid=4c838c77-1d6d-4eea-8537-f45dc1e897aa"},"vehicle_type_id":"4","last_reported":1748134787,"current_range_meters":14400,"station_id":"ce4bhl92rcd13ifvqghg","pricing_plan_id":"cebpf4jnsgd1na2vs0mg"},{"bike_id":"e588bac4-9a86-4979-bfa2-d6f8331f4471","system_id":"levelo_inurba_marseille","lat":43.30645,"lon":5.40098,"is_reserved":false,"is_disabled":false,"rental_uris":{"android":"levelo://app?vid=e588bac4-9a86-4979-bfa2-d6f8331f4471","ios":"levelo://app?vid=e588bac4-9a86-4979-bfa2-d6f8331f4471"},"vehicle_type_id":"4","last_reported":1748134787,"current_range_meters":14400,"station_id":"ce4bh112rcd13ifvqda0","pricing_plan_id":"cebpf4jnsgd1na2vs0mg"},{"bike_id":"0e526ac6-d22a-466e-909a-8989748e04a2","system_id":"levelo_inurba_marseille","lat":43.2416,"lon":5.39731,"is_reserved":false,"is_disabled":false,"rental_uris":{"android":"levelo://app?vid=0e526ac6-d22a-466e-909a-8989748e04a2","ios":"levelo://app?vid=0e526ac6-d22a-466e-909a-8989748e04a2"},"vehicle_type_id":"4","last_reported":1748134787,"current_range_meters":14400,"station_id":"ce4bhn12rcd13ifvqgpg","pricing_plan_id":"cebpf4jnsgd1na2vs0mg"},{"bike_id":"05a6e561-67d4-4a18-a7fa-d115485a930f","system_id":"levelo_inurba_marseille","lat":43.31315,"lon":5.39715,"is_reserved":false,"is_disabled":false,"rental_uris":{"android":"levelo://app?vid=05a6e561-67d4-4a18-a7fa-d115485a930f","ios":"levelo://app?vid=05a6e561-67d4-4a18-a7fa-d115485a930f"},"vehicle_type_id":"4","last_reported":1748134787,"current_range_meters":14400,"station_id":"ce4bgvp2rcd13ifvqcu0","pricing_plan_id":"cebpf4jnsgd1na2vs0mg"},{"bike_id":"4a553253-2382-4c0b-882d-aca318dffb16","system_id":"levelo_inurba_marseille","lat":43.28262,"lon":5.35061,"is_reserved":false,"is_disabled":false,"rental_uris":{"android":"levelo://app?vid=4a553253-2382-4c0b-882d-aca318dffb16","ios":"levelo://app?vid=4a553253-2382-4c0b-882d-aca318dffb16"},"vehicle_type_id":"4","last_reported":1748134787,"current_range_meters":14000,"station_id":"ce4bhbp2rcd13ifvqerg","pricing_plan_id":"cebpf4jnsgd1na2vs0mg"},{"bike_id":"72e0cac9-485a-455e-9875-ab789aab5f94","system_id":"levelo_inurba_marseille","lat":43.249987,"lon":5.389263,"is_reserved":false,"is_disabled":false,"rental_uris":{"android":"levelo://app?vid=72e0cac9-485a-455e-9875-ab789aab5f94","ios":"levelo://app?vid=72e0cac9-485a-455e-9875-ab789aab5f94"},"vehicle_type_id":"4","last_reported":1748134787,"current_range_meters":14800,"station_id":"ce4bhgp2rcd13ifvqfd0","pricing_plan_id":"cebpf4jnsgd1na2vs0mg"},{"bike_id":"7f0b3323-77a1-43c6-a91f-7eae2ece8cc3","system_id":"levelo_inurba_marseille","lat":43.31649,"lon":5.38989,"is_reserved":false,"is_disabled":false,"rental_uris":{"android":"levelo://app?vid=7f0b3323-77a1-43c6-a91f-7eae2ece8cc3","ios":"levelo://app?vid=7f0b3323-77a1-43c6-a91f-7eae2ece8cc3"},"vehicle_type_id":"4","last_reported":1748134787,"current_range_meters":14800,"station_id":"","pricing_plan_id":"cebpf4jnsgd1na2vs0mg"},{"bike_id":"e9496718-b841-4999-823d-28c5bee5d6f1","system_id":"levelo_inurba_marseille","lat":43.265449,"lon":5.389873,"is_reserved":false,"is_disabled":false,"rental_uris":{"android":"levelo://app?vid=e9496718-b841-4999-823d-28c5bee5d6f1","ios":"levelo://app?vid=e9496718-b841-4999-823d-28c5bee5d6f1"},"vehicle_type_id":"4","last_reported":1748134787,"current_range_meters":14800,"station_id":"ce4bhe12rcd13ifvqf30","pricing_plan_id":"cebpf4jnsgd1na2vs0mg"},{"bike_id":"75462091-2d8e-4ce5-92e3-db45030d037c","system_id":"levelo_inurba_marseille","lat":43.25116,"lon":5.40318,"is_reserved":false,"is_disabled":false,"rental_uris":{"android":"levelo://app?vid=75462091-2d8e-4ce5-92e3-db45030d037c","ios":"levelo://app?vid=75462091-2d8e-4ce5-92e3-db45030d037c"},"vehicle_type_id":"4","last_reported":1748134787,"current_range_meters":14800,"station_id":"ce4bhlh2rcd13ifvqgig","pricing_plan_id":"cebpf4jnsgd1na2vs0mg"},{"bike_id":"446ec97d-5a68-43c3-bbb2-ed42bf29b327","system_id":"levelo_inurba_marseille","lat":43.31064,"lon":5.38356,"is_reserved":false,"is_disabled":false,"rental_uris":{"android":"levelo://app?vid=446ec97d-5a68-43c3-bbb2-ed42bf29b327","ios":"levelo://app?vid=446ec97d-5a68-43c3-bbb2-ed42bf29b327"},"vehicle_type_id":"4","last_reported":1748134787,"current_range_meters":14800,"station_id":"ce4bgv92rcd13ifvqcr0","pricing_plan_id":"cebpf4jnsgd1na2vs0mg"},{"bike_id":"54a3bbf5-ebe4-4594-9532-519c0897eb70","system_id":"levelo_inurba_marseille","lat":43.299654,"lon":5.41321,"is_reserved":false,"is_disabled":true,"rental_uris":{"android":"levelo://app?vid=54a3bbf5-ebe4-4594-9532-519c0897eb70","ios":"levelo://app?vid=54a3bbf5-ebe4-4594-9532-519c0897eb70"},"vehicle_type_id":"4","last_reported":1748134787,"current_range_meters":14800,"station_id":"ce4bhp12rcd13ifvqh9g","pricing_plan_id":"cebpf4jnsgd1na2vs0mg"},{"bike_id":"7d3bd24a-e5f9-4754-8ec6-3ba44c9c4f5b","system_id":"levelo_inurba_marseille","lat":43.248,"lon":5.37466,"is_reserved":false,"is_disabled":true,"rental_uris":{"android":"levelo://app?vid=7d3bd24a-e5f9-4754-8ec6-3ba44c9c4f5b","ios":"levelo://app?vid=7d3bd24a-e5f9-4754-8ec6-3ba44c9c4f5b"},"vehicle_type_id":"4","last_reported":1748134787,"current_range_meters":14800,"station_id":"ce4bhgh2rcd13ifvqfb0","pricing_plan_id":"cebpf4jnsgd1na2vs0mg"},{"bike_id":"a3071f1e-a9e6-4a50-9331-9f73af35b6cb","system_id":"levelo_inurba_marseille","lat":43.25722,"lon":5.41141,"is_reserved":false,"is_disabled":false,"rental_uris":{"android":"levelo://app?vid=a3071f1e-a9e6-4a50-9331-9f73af35b6cb","ios":"levelo://app?vid=a3071f1e-a9e6-4a50-9331-9f73af35b6cb"},"vehicle_type_id":"4","last_reported":1748134787,"current_range_meters":14800,"station_id":"ce4bhkp2rcd13ifvqgd0","pricing_plan_id":"cebpf4jnsgd1na2vs0mg"},{"bike_id":"8c24a1cc-9755-4ef3-aee7-aeff472999dc","system_id":"levelo_inurba_marseille","lat":43.28255,"lon":5.3508,"is_reserved":false,"is_disabled":true,"rental_uris":{"android":"levelo://app?vid=8c24a1cc-9755-4ef3-aee7-aeff472999dc","ios":"levelo://app?vid=8c24a1cc-9755-4ef3-aee7-aeff472999dc"},"vehicle_type_id":"4","last_reported":1748134787,"current_range_meters":14800,"station_id":"ce4bhbp2rcd13ifvqerg","pricing_plan_id":"cebpf4jnsgd1na2vs0mg"},{"bike_id":"dabc077c-bf8d-431d-a5ea-dcd441e9b7b1","system_id":"levelo_inurba_marseille","lat":43.248754,"lon":5.397212,"is_reserved":false,"is_disabled":false,"rental_uris":{"android":"levelo://app?vid=dabc077c-bf8d-431d-a5ea-dcd441e9b7b1","ios":"levelo://app?vid=dabc077c-bf8d-431d-a5ea-dcd441e9b7b1"},"vehicle_type_id":"4","last_reported":1748134787,"current_range_meters":14800,"station_id":"","pricing_plan_id":"cebpf4jnsgd1na2vs0mg"},{"bike_id":"68b98628-f7f6-41b6-8d78-7f4ef277f165","system_id":"levelo_inurba_marseille","lat":43.24177,"lon":5.39762,"is_reserved":false,"is_disabled":false,"rental_uris":{"android":"levelo://app?vid=68b98628-f7f6-41b6-8d78-7f4ef277f165","ios":"levelo://app?vid=68b98628-f7f6-41b6-8d78-7f4ef277f165"},"vehicle_type_id":"4","last_reported":1748134787,"current_range_meters":15200,"station_id":"ce4bhn12rcd13ifvqgpg","pricing_plan_id":"cebpf4jnsgd1na2vs0mg"},{"bike_id":"985dfe2e-48ab-4438-8b44-7034bccf028e","system_id":"levelo_inurba_marseille","lat":43.26993,"lon":5.39847,"is_reserved":false,"is_disabled":false,"rental_uris":{"android":"levelo://app?vid=985dfe2e-48ab-4438-8b44-7034bccf028e","ios":"levelo://app?vid=985dfe2e-48ab-4438-8b44-7034bccf028e"},"vehicle_type_id":"4","last_reported":1748134787,"current_range_meters":15200,"station_id":"","pricing_plan_id":"cebpf4jnsgd1na2vs0mg"},{"bike_id":"78084e65-0f8a-4a63-bf1c-3fbde80b370d","system_id":"levelo_inurba_marseille","lat":43.29442,"lon":5.43372,"is_reserved":false,"is_disabled":true,"rental_uris":{"android":"levelo://app?vid=78084e65-0f8a-4a63-bf1c-3fbde80b370d","ios":"levelo://app?vid=78084e65-0f8a-4a63-bf1c-3fbde80b370d"},"vehicle_type_id":"4","last_reported":1748134787,"current_range_meters":15200,"station_id":"","pricing_plan_id":"cebpf4jnsgd1na2vs0mg"},{"bike_id":"c86cfab1-5001-4b22-959b-864e00eafc09","system_id":"levelo_inurba_marseille","lat":43.30878,"lon":5.39629,"is_reserved":false,"is_disabled":false,"rental_uris":{"android":"levelo://app?vid=c86cfab1-5001-4b22-959b-864e00eafc09","ios":"levelo://app?vid=c86cfab1-5001-4b22-959b-864e00eafc09"},"vehicle_type_id":"4","last_reported":1748134787,"current_range_meters":15200,"station_id":"ce4bh012rcd13ifvqcv0","pricing_plan_id":"cebpf4jnsgd1na2vs0mg"},{"bike_id":"a90e20a6-bffb-4ea1-8324-9ffba03b3cf7","system_id":"levelo_inurba_marseille","lat":43.25124,"lon":5.4032,"is_reserved":false,"is_disabled":false,"rental_uris":{"android":"levelo://app?vid=a90e20a6-bffb-4ea1-8324-9ffba03b3cf7","ios":"levelo://app?vid=a90e20a6-bffb-4ea1-8324-9ffba03b3cf7"},"vehicle_type_id":"4","last_reported":1748134787,"current_range_meters":15200,"station_id":"ce4bhlh2rcd13ifvqgig","pricing_plan_id":"cebpf4jnsgd1na2vs0mg"},{"bike_id":"1b18625e-19e9-4ba4-8600-fb9d5a0f7c73","system_id":"levelo_inurba_marseille","lat":43.25126,"lon":5.40344,"is_reserved":false,"is_disabled":false,"rental_uris":{"android":"levelo://app?vid=1b18625e-19e9-4ba4-8600-fb9d5a0f7c73","ios":"levelo://app?vid=1b18625e-19e9-4ba4-8600-fb9d5a0f7c73"},"vehicle_type_id":"4","last_reported":1748134787,"current_range_meters":15200,"station_id":"ce4bhlh2rcd13ifvqgig","pricing_plan_id":"cebpf4jnsgd1na2vs0mg"},{"bike_id":"cd07eb63-8cb3-4a52-a62d-91a94bcdd0d9","system_id":"levelo_inurba_marseille","lat":43.29875,"lon":5.38942,"is_reserved":false,"is_disabled":true,"rental_uris":{"android":"levelo://app?vid=cd07eb63-8cb3-4a52-a62d-91a94bcdd0d9","ios":"levelo://app?vid=cd07eb63-8cb3-4a52-a62d-91a94bcdd0d9"},"vehicle_type_id":"4","last_reported":1748134787,"current_range_meters":16000,"station_id":"ce4bh392rcd13ifvqdl0","pricing_plan_id":"cebpf4jnsgd1na2vs0mg"},{"bike_id":"4f599a81-267a-4ad9-a831-9a79f3109a65","system_id":"levelo_inurba_marseille","lat":43.27821,"lon":5.40719,"is_reserved":false,"is_disabled":false,"rental_uris":{"android":"levelo://app?vid=4f599a81-267a-4ad9-a831-9a79f3109a65","ios":"levelo://app?vid=4f599a81-267a-4ad9-a831-9a79f3109a65"},"vehicle_type_id":"4","last_reported":1748134787,"current_range_meters":16000,"station_id":"ce4bhnh2rcd13ifvqgtg","pricing_plan_id":"cebpf4jnsgd1na2vs0mg"},{"bike_id":"d556693b-b657-4c5b-a34b-edba74314dcb","system_id":"levelo_inurba_marseille","lat":43.29283,"lon":5.40142,"is_reserved":false,"is_disabled":false,"rental_uris":{"android":"levelo://app?vid=d556693b-b657-4c5b-a34b-edba74314dcb","ios":"levelo://app?vid=d556693b-b657-4c5b-a34b-edba74314dcb"},"vehicle_type_id":"4","last_reported":1748134787,"current_range_meters":16000,"station_id":"ce4bh312rcd13ifvqdk0","pricing_plan_id":"cebpf4jnsgd1na2vs0mg"},{"bike_id":"a5b38d55-88c0-4aec-adc9-d8fc54a1ef4a","system_id":"levelo_inurba_marseille","lat":43.29265,"lon":5.40129,"is_reserved":false,"is_disabled":false,"rental_uris":{"android":"levelo://app?vid=a5b38d55-88c0-4aec-adc9-d8fc54a1ef4a","ios":"levelo://app?vid=a5b38d55-88c0-4aec-adc9-d8fc54a1ef4a"},"vehicle_type_id":"4","last_reported":1748134787,"current_range_meters":16000,"station_id":"ce4bh312rcd13ifvqdk0","pricing_plan_id":"cebpf4jnsgd1na2vs0mg"},{"bike_id":"244b36a0-5585-4aef-a371-7da408ef9135","system_id":"levelo_inurba_marseille","lat":43.30251,"lon":5.40066,"is_reserved":false,"is_disabled":false,"rental_uris":{"android":"levelo://app?vid=244b36a0-5585-4aef-a371-7da408ef9135","ios":"levelo://app?vid=244b36a0-5585-4aef-a371-7da408ef9135"},"vehicle_type_id":"4","last_reported":1748134787,"current_range_meters":16000,"station_id":"ce4bgvh2rcd13ifvqcs0","pricing_plan_id":"cebpf4jnsgd1na2vs0mg"},{"bike_id":"72bfd565-feeb-4e2a-a249-dfd1a33ced4f","system_id":"levelo_inurba_marseille","lat":43.30868,"lon":5.37204,"is_reserved":false,"is_disabled":false,"rental_uris":{"android":"levelo://app?vid=72bfd565-feeb-4e2a-a249-dfd1a33ced4f","ios":"levelo://app?vid=72bfd565-feeb-4e2a-a249-dfd1a33ced4f"},"vehicle_type_id":"4","last_reported":1748134787,"current_range_meters":16000,"station_id":"ce4bguh2rcd13ifvqckg","pricing_plan_id":"cebpf4jnsgd1na2vs0mg"},{"bike_id":"ad6b15fa-9c91-4b45-98f4-6693cbda0708","system_id":"levelo_inurba_marseille","lat":43.28656,"lon":5.36371,"is_reserved":false,"is_disabled":false,"rental_uris":{"android":"levelo://app?vid=ad6b15fa-9c91-4b45-98f4-6693cbda0708","ios":"levelo://app?vid=ad6b15fa-9c91-4b45-98f4-6693cbda0708"},"vehicle_type_id":"4","last_reported":1748134787,"current_range_meters":16000,"station_id":"ce4bhah2rcd13ifvqej0","pricing_plan_id":"cebpf4jnsgd1na2vs0mg"},{"bike_id":"2f4f97cc-faff-494c-82a3-534a476a06a3","system_id":"levelo_inurba_marseille","lat":43.27068,"lon":5.42264,"is_reserved":false,"is_disabled":false,"rental_uris":{"android":"levelo://app?vid=2f4f97cc-faff-494c-82a3-534a476a06a3","ios":"levelo://app?vid=2f4f97cc-faff-494c-82a3-534a476a06a3"},"vehicle_type_id":"4","last_reported":1748134787,"current_range_meters":16000,"station_id":"ce4bhk92rcd13ifvqgb0","pricing_plan_id":"cebpf4jnsgd1na2vs0mg"},{"bike_id":"c6a1711e-ee9a-40d5-b040-543f7ca91f8b","system_id":"levelo_inurba_marseille","lat":43.30348,"lon":5.41879,"is_reserved":false,"is_disabled":false,"rental_uris":{"android":"levelo://app?vid=c6a1711e-ee9a-40d5-b040-543f7ca91f8b","ios":"levelo://app?vid=c6a1711e-ee9a-40d5-b040-543f7ca91f8b"},"vehicle_type_id":"4","last_reported":1748134787,"current_range_meters":16000,"station_id":"ce4bhop2rcd13ifvqh7g","pricing_plan_id":"cebpf4jnsgd1na2vs0mg"},{"bike_id":"fc56555b-396d-4667-b896-0ad86036e39e","system_id":"levelo_inurba_marseille","lat":43.25889,"lon":5.38037,"is_reserved":false,"is_disabled":false,"rental_uris":{"android":"levelo://app?vid=fc56555b-396d-4667-b896-0ad86036e39e","ios":"levelo://app?vid=fc56555b-396d-4667-b896-0ad86036e39e"},"vehicle_type_id":"4","last_reported":1748134787,"current_range_meters":16400,"station_id":"","pricing_plan_id":"cebpf4jnsgd1na2vs0mg"},{"bike_id":"cb16c1b5-f0db-4cdd-bb07-10ba695a2b55","system_id":"levelo_inurba_marseille","lat":43.286786,"lon":5.373958,"is_reserved":false,"is_disabled":false,"rental_uris":{"android":"levelo://app?vid=cb16c1b5-f0db-4cdd-bb07-10ba695a2b55","ios":"levelo://app?vid=cb16c1b5-f0db-4cdd-bb07-10ba695a2b55"},"vehicle_type_id":"4","last_reported":1748134787,"current_range_meters":16400,"station_id":"ce4bh3p2rcd13ifvqdq0","pricing_plan_id":"cebpf4jnsgd1na2vs0mg"},