{"last_updated":1775148216,"ttl":60,"version":"2.2","data":{"bikes":[{"bike_id":"0351c064-b05d-45c2-9da9-5f6e70f5aa65","system_id":"levelo_inurba_marseille","lat":43.24158,"lon":5.36408,"is_reserved":false,"is_disabled":false,"rental_uris":{"android":"levelo://app?vid=0351c064-b05d-45c2-9da9-5f6e70f5aa65","ios":"levelo://app?vid=0351c064-b05d-45c2-9da9-5f6e70f5aa65"},"vehicle_type_id":"4","last_reported":1775148217,"current_range_meters":2800,"station_id":"cpo36qri1sfpv3e86is0","pricing_plan_id":"cebpf4jnsgd1na2vs0mg"},{"bike_id":"982951ba-d1eb-42d4-bb65-5d98050aa6ef","system_id":"levelo_inurba_marseille","lat":43.28476,"lon":5.48399,"is_reserved":false,"is_disabled":false,"rental_uris":{"android":"levelo://app?vid=982951ba-d1eb-42d4-bb65-5d98050aa6ef","ios":"levelo://app?vid=982951ba-d1eb-42d4-bb65-5d98050aa6ef"},"vehicle_type_id":"4","last_reported":1775148217,"current_range_meters":2800,"station_id":"","pricing_plan_id":"cebpf4jnsgd1na2vs0mg"},{"bike_id":"23a1f004-01c9-4416-9d3b-31e26d56c169","system_id":"levelo_inurba_marseille","lat":43.24085,"lon":5.37769,"is_reserved":false,"is_disabled":false,"rental_uris":{"android":"levelo://app?vid=23a1f004-01c9-4416-9d3b-31e26d56c169","ios":"levelo://app?vid=23a1f004-01c9-4416-9d3b-31e26d56c169"},"vehicle_type_id":"4","last_reported":1775148217,"current_range_meters":2800,"station_id":"ce4bhnp2rcd13ifvqgvg","pricing_plan_id":"cebpf4jnsgd1na2vs0mg"},{"bike_id":"6c3b2188-ad26-44f1-97bc-4de5c5fe5d74","system_id":"levelo_inurba_marseille","lat":43.28487,"lon":5.48388,"is_reserved":false,"is_disabled":false,"rental_uris":{"android":"levelo://app?vid=6c3b2188-ad26-44f1-97bc-4de5c5fe5d74","ios":"levelo://app?vid=6c3b2188-ad26-44f1-97bc-4de5c5fe5d74"},"vehicle_type_id":"4","last_reported":1775148217,"current_range_meters":2800,"station_id":"","pricing_plan_id":"cebpf4jnsgd1na2vs0mg"},{"bike_id":"a57e3fa4-a8fc-42db-a69f-71dedfdd46e7","system_id":"levelo_inurba_marseille","lat":43.27956,"lon":5.41054,"is_reserved":false,"is_disabled":true,"rental_uris":{"android":"levelo://app?vid=a57e3fa4-a8fc-42db-a69f-71dedfdd46e7","ios":"levelo://app?vid=a57e3fa4-a8fc-42db-a69f-71dedfdd46e7"},"vehicle_type_id":"4","last_reported":1775148217,"current_range_meters":2800,"station_id":"ce4bhnp2rcd13ifvqh0g","pricing_plan_id":"cebpf4jnsgd1na2vs0mg"},{"bike_id":"0d3c68d3-6ac1-42de-a0a0-43ea2832a6ea","system_id":"levelo_inurba_marseille","lat":43.29088,"lon":5.38137,"is_reserved":false,"is_disabled":false,"rental_uris":{"android":"levelo://app?vid=0d3c68d3-6ac1-42de-a0a0-43ea2832a6ea","ios":"levelo://app?vid=0d3c68d3-6ac1-42de-a0a0-43ea2832a6ea"},"vehicle_type_id":"4","last_reported":1775148217,"current_range_meters":2800,"station_id":"ce4bh512rcd13ifvqe2g","pricing_plan_id":"cebpf4jnsgd1na2vs0mg"},{"bike_id":"5964971c-e1ab-416d-a7a5-9fa8eb127283","system_id":"levelo_inurba_marseille","lat":43.24377,"lon":5.43785,"is_reserved":false,"is_disabled":false,"rental_uris":{"android":"levelo://app?vid=5964971c-e1ab-416d-a7a5-9fa8eb127283","ios":"levelo://app?vid=5964971c-e1ab-416d-a7a5-9fa8eb127283"},"vehicle_type_id":"4","last_reported":1775148217,"current_range_meters":2800,"station_id":"","pricing_plan_id":"cebpf4jnsgd1na2vs0mg"},{"bike_id":"6de81323-4ad6-4e0b-952d-b2ba752fd3d1","system_id":"levelo_inurba_marseille","lat":43.28357,"lon":5.38107,"is_reserved":false,"is_disabled":false,"rental_uris":{"android":"levelo://app?vid=6de81323-4ad6-4e0b-952d-b2ba752fd3d1","ios":"levelo://app?vid=6de81323-4ad6-4e0b-952d-b2ba752fd3d1"},"vehicle_type_id":"4","last_reported":1775148217,"current_range_meters":2800,"station_id":"ce4bh412rcd13ifvqdr0","pricing_plan_id":"cebpf4jnsgd1na2vs0mg"},{"bike_id":"c49bccd8-1278-4ef4-a747-46f2a7c25563","system_id":"levelo_inurba_marseille","lat":43.24482,"lon":5.42542,"is_reserved":false,"is_disabled":false,"rental_uris":{"android":"levelo://app?vid=c49bccd8-1278-4ef4-a747-46f2a7c25563","ios":"levelo://app?vid=c49bccd8-1278-4ef4-a747-46f2a7c25563"},"vehicle_type_id":"4","last_reported":1775148217,"current_range_meters":3200,"station_id":"st_d4a3vfp97mjs738cd8kg","pricing_plan_id":"cebpf4jnsgd1na2vs0mg"},{"bike_id":"9277c2cf-1598-4739-8d71-13f2e44eea43","system_id":"levelo_inurba_marseille","lat":43.29533,"lon":5.39405,"is_reserved":false,"is_disabled":false,"rental_uris":{"android":"levelo://app?vid=9277c2cf-1598-4739-8d71-13f2e44eea43","ios":"levelo://app?vid=9277c2cf-1598-4739-8d71-13f2e44eea43"},"vehicle_type_id":"4","last_reported":1775148217,"current_range_meters":3200,"station_id":"ce4bh292rcd13ifvqdf0","pricing_plan_id":"cebpf4jnsgd1na2vs0mg"},{"bike_id":"3b00fc1e-e36b-481b-a2bc-3dac3c178dbc","system_id":"levelo_inurba_marseille","lat":43.27764,"lon":5.40675,"is_reserved":false,"is_disabled":true,"rental_uris":{"android":"levelo://app?vid=3b00fc1e-e36b-481b-a2bc-3dac3c178dbc","ios":"levelo://app?vid=3b00fc1e-e36b-481b-a2bc-3dac3c178dbc"},"vehicle_type_id":"4","last_reported":1775148217,"current_range_meters":3200,"station_id":"","pricing_plan_id":"cebpf4jnsgd1na2vs0mg"},{"bike_id":"7b9afc77-0e17-48ba-b360-a407675726ad","system_id":"levelo_inurba_marseille","lat":43.28877,"lon":5.42505,"is_reserved":false,"is_disabled":false,"rental_uris":{"android":"levelo://app?vid=7b9afc77-0e17-48ba-b360-a407675726ad","ios":"levelo://app?vid=7b9afc77-0e17-48ba-b360-a407675726ad"},"vehicle_type_id":"4","last_reported":1775148217,"current_range_meters":3200,"station_id":"st_d3b462108ojc7389ooeg","pricing_plan_id":"cebpf4jnsgd1na2vs0mg"},{"bike_id":"d41d5ff3-651c-4e70-8a12-e8a105b53c64","system_id":"levelo_inurba_marseille","lat":43.31589,"lon":5.44559,"is_reserved":false,"is_disabled":false,"rental_uris":{"android":"levelo://app?vid=d41d5ff3-651c-4e70-8a12-e8a105b53c64","ios":"levelo://app?vid=d41d5ff3-651c-4e70-8a12-e8a105b53c64"},"vehicle_type_id":"4","last_reported":1775148217,"current_range_meters":3200,"station_id":"","pricing_plan_id":"cebpf4jnsgd1na2vs0mg"},{"bike_id":"54c2b8bb-7259-470c-a906-fdbbea78bb9c","system_id":"levelo_inurba_marseille","lat":43.28543,"lon":5.44102,"is_reserved":false,"is_disabled":false,"rental_uris":{"android":"levelo://app?vid=54c2b8bb-7259-470c-a906-fdbbea78bb9c","ios":"levelo://app?vid=54c2b8bb-7259-470c-a906-fdbbea78bb9c"},"vehicle_type_id":"4","last_reported":1775148217,"current_range_meters":3200,"station_id":"st_d3j3df2ikq2c7380ej80","pricing_plan_id":"cebpf4jnsgd1na2vs0mg"},{"bike_id":"d2730611-9a79-4c6c-baa1-9232a75b9cd9","system_id":"levelo_inurba_marseille","lat":43.28468,"lon":5.38547,"is_reserved":false,"is_disabled":false,"rental_uris":{"android":"levelo://app?vid=d2730611-9a79-4c6c-baa1-9232a75b9cd9","ios":"levelo://app?vid=d2730611-9a79-4c6c-baa1-9232a75b9cd9"},"vehicle_type_id":"4","last_reported":1775148217,"current_range_meters":3200,"station_id":"ce4bh8p2rcd13ifvqeb0","pricing_plan_id":"cebpf4jnsgd1na2vs0mg"},{"bike_id":"48f2b200-f45d-46a2-ad76-0c31c2fed20a","system_id":"levelo_inurba_marseille","lat":43.26208,"lon":5.37439,"is_reserved":false,"is_disabled":false,"rental_uris":{"android":"levelo://app?vid=48f2b200-f45d-46a2-ad76-0c31c2fed20a","ios":"levelo://app?vid=48f2b200-f45d-46a2-ad76-0c31c2fed20a"},"vehicle_type_id":"4","last_reported":1775148217,"current_range_meters":3200,"station_id":"ce4bhgp2rcd13ifvqfc0","pricing_plan_id":"cebpf4jnsgd1na2vs0mg"},{"bike_id":"bed085cd-e643-4cf8-a83c-4e3f37218df7","system_id":"levelo_inurba_marseille","lat":43.23121,"lon":5.40181,"is_reserved":false,"is_disabled":false,"rental_uris":{"android":"levelo://app?vid=bed085cd-e643-4cf8-a83c-4e3f37218df7","ios":"levelo://app?vid=bed085cd-e643-4cf8-a83c-4e3f37218df7"},"vehicle_type_id":"4","last_reported":1775148217,"current_range_meters":3200,"station_id":"","pricing_plan_id":"cebpf4jnsgd1na2vs0mg"},{"bike_id":"d0a923ac-75da-4205-9bd7-0a004a8fe4f8","system_id":"levelo_inurba_marseille","lat":43.28149,"lon":5.4264,"is_reserved":false,"is_disabled":false,"rental_uris":{"android":"levelo://app?vid=d0a923ac-75da-4205-9bd7-0a004a8fe4f8","ios":"levelo://app?vid=d0a923ac-75da-4205-9bd7-0a004a8fe4f8"},"vehicle_type_id":"4","last_reported":1775148217,"current_range_meters":3200,"station_id":"ce4bhnh2rcd13ifvqgug","pricing_plan_id":"cebpf4jnsgd1na2vs0mg"},{"bike_id":"2c78b9d7-6797-4c09-ad87-2e1c14443b34","system_id":"levelo_inurba_marseille","lat":43.28574,"lon":5.42923,"is_reserved":false,"is_disabled":false,"rental_uris":{"android":"levelo://app?vid=2c78b9d7-6797-4c09-ad87-2e1c14443b34","ios":"levelo://app?vid=2c78b9d7-6797-4c09-ad87-2e1c14443b34"},"vehicle_type_id":"4","last_reported":1775148217,"current_range_meters":3200,"station_id":"","pricing_plan_id":"cebpf4jnsgd1na2vs0mg"},{"bike_id":"43168d63-58b8-474b-9313-11407457ea96","system_id":"levelo_inurba_marseille","lat":43.29015,"lon":5.35628,"is_reserved":false,"is_disabled":false,"rental_uris":{"android":"levelo://app?vid=43168d63-58b8-474b-9313-11407457ea96","ios":"levelo://app?vid=43168d63-58b8-474b-9313-11407457ea96"},"vehicle_type_id":"4","last_reported":1775148217,"current_range_meters":3600,"station_id":"ce4bhb92rcd13ifvqen0","pricing_plan_id":"cebpf4jnsgd1na2vs0mg"},{"bike_id":"dbafccf7-0909-44bd-86f0-abe7aa0ed694","system_id":"levelo_inurba_marseille","lat":43.29369,"lon":5.43606,"is_reserved":false,"is_disabled":false,"rental_uris":{"android":"levelo://app?vid=dbafccf7-0909-44bd-86f0-abe7aa0ed694","ios":"levelo://app?vid=dbafccf7-0909-44bd-86f0-abe7aa0ed694"},"vehicle_type_id":"4","last_reported":1775148217,"current_range_meters":3600,"station_id":"","pricing_plan_id":"cebpf4jnsgd1na2vs0mg"},{"bike_id":"df303624-5651-4366-98b4-8dc96dee46a9","system_id":"levelo_inurba_marseille","lat":43.25587,"lon":5.38231,"is_reserved":false,"is_disabled":false,"rental_uris":{"android":"levelo://app?vid=df303624-5651-4366-98b4-8dc96dee46a9","ios":"levelo://app?vid=df303624-5651-4366-98b4-8dc96dee46a9"},"vehicle_type_id":"4","last_reported":1775148217,"current_range_meters":3600,"station_id":"ce4bhih2rcd13ifvqfs0","pricing_plan_id":"cebpf4jnsgd1na2vs0mg"},{"bike_id":"62bf82c9-a7d6-485f-b660-bbbb2d4f54e9","system_id":"levelo_inurba_marseille","lat":43.2439,"lon":5.37049,"is_reserved":false,"is_disabled":false,"rental_uris":{"android":"levelo://app?vid=62bf82c9-a7d6-485f-b660-bbbb2d4f54e9","ios":"levelo://app?vid=62bf82c9-a7d6-485f-b660-bbbb2d4f54e9"},"vehicle_type_id":"4","last_reported":1775148217,"current_range_meters":3600,"station_id":"ce4bhhh2rcd13ifvqfk0","pricing_plan_id":"cebpf4jnsgd1na2vs0mg"},{"bike_id":"b9a2dc0a-a78c-4ec1-b214-1ebc47ea2ab0","system_id":"levelo_inurba_marseille","lat":43.22548,"lon":5.41646,"is_reserved":false,"is_disabled":false,"rental_uris":{"android":"levelo://app?vid=b9a2dc0a-a78c-4ec1-b214-1ebc47ea2ab0","ios":"levelo://app?vid=b9a2dc0a-a78c-4ec1-b214-1ebc47ea2ab0"},"vehicle_type_id":"4","last_reported":1775148217,"current_range_meters":3600,"station_id":"st_d2o4gvlbi1j2169b742g","pricing_plan_id":"cebpf4jnsgd1na2vs0mg"},{"bike_id":"0b6c6387-d8b6-4bb8-b04c-d84bf5bfe001","system_id":"levelo_inurba_marseille","lat":43.31364,"lon":5.38501,"is_reserved":false,"is_disabled":false,"rental_uris":{"android":"levelo://app?vid=0b6c6387-d8b6-4bb8-b04c-d84bf5bfe001","ios":"levelo://app?vid=0b6c6387-d8b6-4bb8-b04c-d84bf5bfe001"},"vehicle_type_id":"4","last_reported":1775148217,"current_range_meters":3600,"station_id":"ce4bgt92rcd13ifvqcf0","pricing_plan_id":"cebpf4jnsgd1na2vs0mg"},{"bike_id":"49a63551-127a-40d2-9c75-b11725cae896","system_id":"levelo_inurba_marseille","lat":43.23198,"lon":5.39987,"is_reserved":false,"is_disabled":false,"rental_uris":{"android":"levelo://app?vid=49a63551-127a-40d2-9c75-b11725cae896","ios":"levelo://app?vid=49a63551-127a-40d2-9c75-b11725cae896"},"vehicle_type_id":"4","last_reported":1775148217,"current_range_meters":3600,"station_id":"ce4bhn12rcd13ifvqgqg","pricing_plan_id":"cebpf4jnsgd1na2vs0mg"},{"bike_id":"ffde6a95-5dec-426a-943f-3ce4b714e7dc","system_id":"levelo_inurba_marseille","lat":43.21751,"lon":5.34618,"is_reserved":false,"is_disabled":false,"rental_uris":{"android":"levelo://app?vid=ffde6a95-5dec-426a-943f-3ce4b714e7dc","ios":"levelo://app?vid=ffde6a95-5dec-426a-943f-3ce4b714e7dc"},"vehicle_type_id":"4","last_reported":1775148217,"current_range_meters":3600,"station_id":"st_cvj6r9ubvosntc0bgbag","pricing_plan_id":"cebpf4jnsgd1na2vs0mg"},{"bike_id":"d315f1ca-1685-4e49-b8e6-eaf1222b3433","system_id":"levelo_inurba_marseille","lat":43.29981,"lon":5.37182,"is_reserved":false,"is_disabled":false,"rental_uris":{"android":"levelo://app?vid=d315f1ca-1685-4e49-b8e6-eaf1222b3433","ios":"levelo://app?vid=d315f1ca-1685-4e49-b8e6-eaf1222b3433"},"vehicle_type_id":"4","last_reported":1775148217,"current_range_meters":3600,"station_id":"ce4bgr92rcd13ifvqc7g","pricing_plan_id":"cebpf4jnsgd1na2vs0mg"},{"bike_id":"f0fa40e7-02aa-42c9-8b71-8561c7978d2a","system_id":"levelo_inurba_marseille","lat":43.30431,"lon":5.39749,"is_reserved":false,"is_disabled":false,"rental_uris":{"android":"levelo://app?vid=f0fa40e7-02aa-42c9-8b71-8561c7978d2a","ios":"levelo://app?vid=f0fa40e7-02aa-42c9-8b71-8561c7978d2a"},"vehicle_type_id":"4","last_reported":1775148217,"current_range_meters":3600,"station_id":"ce4bh092rcd13ifvqd20","pricing_plan_id":"cebpf4jnsgd1na2vs0mg"},{"bike_id":"68945dd7-fcc7-4d4c-a459-6c84a8a17358","system_id":"levelo_inurba_marseille","lat":43.23955,"lon":5.36651,"is_reserved":false,"is_disabled":false,"rental_uris":{"android":"levelo://app?vid=68945dd7-fcc7-4d4c-a459-6c84a8a17358","ios":"levelo://app?vid=68945dd7-fcc7-4d4c-a459-6c84a8a17358"},"vehicle_type_id":"4","last_reported":1775148217,"current_range_meters":3600,"station_id":"ce4bhi12rcd13ifvqfp0","pricing_plan_id":"cebpf4jnsgd1na2vs0mg"},{"bike_id":"fcbd5a64-8133-43d2-a734-54027161201b","system_id":"levelo_inurba_marseille","lat":43.28842,"lon":5.39332,"is_reserved":false,"is_disabled":false,"rental_uris":{"android":"levelo://app?vid=fcbd5a64-8133-43d2-a734-54027161201b","ios":"levelo://app?vid=fcbd5a64-8133-43d2-a734-54027161201b"},"vehicle_type_id":"4","last_reported":1775148217,"current_range_meters":3600,"station_id":"ce4bh2p2rcd13ifvqdi0","pricing_plan_id":"cebpf4jnsgd1na2vs0mg"},{"bike_id":"19f52ad3-bdf4-4fcb-b55f-1c3d29ff936d","system_id":"levelo_inurba_marseille","lat":43.29842,"lon":5.36268,"is_reserved":false,"is_disabled":false,"rental_uris":{"android":"levelo://app?vid=19f52ad3-bdf4-4fcb-b55f-1c3d29ff936d","ios":"levelo://app?vid=19f52ad3-bdf4-4fcb-b55f-1c3d29ff936d"},"vehicle_type_id":"4","last_reported":1775148217,"current_range_meters":3600,"station_id":"ce4bgpp2rcd13ifvqc3g","pricing_plan_id":"cebpf4jnsgd1na2vs0mg"},{"bike_id":"da46a4c6-14ff-4547-851e-67aeaa7cd5b0","system_id":"levelo_inurba_marseille","lat":43.24833,"lon":5.37437,"is_reserved":false,"is_disabled":false,"rental_uris":{"android":"levelo://app?vid=da46a4c6-14ff-4547-851e-67aeaa7cd5b0","ios":"levelo://app?vid=da46a4c6-14ff-4547-851e-67aeaa7cd5b0"},"vehicle_type_id":"4","last_reported":1775148217,"current_range_meters":3600,"station_id":"ce4bhgh2rcd13ifvqfb0","pricing_plan_id":"cebpf4jnsgd1na2vs0mg"},{"bike_id":"14d7d97e-2244-4b31-b486-c1a5b411a623","system_id":"levelo_inurba_marseille","lat":43.286719,"lon":5.386734,"is_reserved":false,"is_disabled":false,"rental_uris":{"android":"levelo://app?vid=14d7d97e-2244-4b31-b486-c1a5b411a623","ios":"levelo://app?vid=14d7d97e-2244-4b31-b486-c1a5b411a623"},"vehicle_type_id":"4","last_reported":1775148217,"current_range_meters":3600,"station_id":"ce4bh492rcd13ifvqdug","pricing_plan_id":"cebpf4jnsgd1na2vs0mg"},{"bike_id":"b871d952-66ad-4808-9f40-091399c741cc","system_id":"levelo_inurba_marseille","lat":43.29282,"lon":5.38436,"is_reserved":false,"is_disabled":false,"rental_uris":{"android":"levelo://app?vid=b871d952-66ad-4808-9f40-091399c741cc","ios":"levelo://app?vid=b871d952-66ad-4808-9f40-091399c741cc"},"vehicle_type_id":"4","last_reported":1775148217,"current_range_meters":3600,"station_id":"ce4bh692rcd13ifvqea0","pricing_plan_id":"cebpf4jnsgd1na2vs0mg"},{"bike_id":"143104f6-3c40-4ae4-a11e-9f7a6eab6fe5","system_id":"levelo_inurba_marseille","lat":43.30206,"lon":5.38676,"is_reserved":false,"is_disabled":false,"rental_uris":{"android":"levelo://app?vid=143104f6-3c40-4ae4-a11e-9f7a6eab6fe5","ios":"levelo://app?vid=143104f6-3c40-4ae4-a11e-9f7a6eab6fe5"},"vehicle_type_id":"4","last_reported":1775148217,"current_range_meters":3600,"station_id":"","pricing_plan_id":"cebpf4jnsgd1na2vs0mg"},{"bike_id":"a97bb5fc-a1de-4358-bea3-8b9d363fa9b3","system_id":"levelo_inurba_marseille","lat":43.23797,"lon":5.36626,"is_reserved":false,"is_disabled":false,"rental_uris":{"android":"levelo://app?vid=a97bb5fc-a1de-4358-bea3-8b9d363fa9b3","ios":"levelo://app?vid=a97bb5fc-a1de-4358-bea3-8b9d363fa9b3"},"vehicle_type_id":"4","last_reported":1775148217,"current_range_meters":3600,"station_id":"st_d3nk18o9ro0c73en2l3g","pricing_plan_id":"cebpf4jnsgd1na2vs0mg"},{"bike_id":"c267eaf3-200a-4a1c-8074-fa1f1a8154c6","system_id":"levelo_inurba_marseille","lat":43.21725,"lon":5.34636,"is_reserved":false,"is_disabled":false,"rental_uris":{"android":"levelo://app?vid=c267eaf3-200a-4a1c-8074-fa1f1a8154c6","ios":"levelo://app?vid=c267eaf3-200a-4a1c-8074-fa1f1a8154c6"},"vehicle_type_id":"4","last_reported":1775148217,"current_range_meters":3600,"station_id":"st_cvj6r9ubvosntc0bgbag","pricing_plan_id":"cebpf4jnsgd1na2vs0mg"},{"bike_id":"e4956c66-fba0-45d5-a7d2-90ca01f34637","system_id":"levelo_inurba_marseille","lat":43.21745,"lon":5.34595,"is_reserved":false,"is_disabled":false,"rental_uris":{"android":"levelo://app?vid=e4956c66-fba0-45d5-a7d2-90ca01f34637","ios":"levelo://app?vid=e4956c66-fba0-45d5-a7d2-90ca01f34637"},"vehicle_type_id":"4","last_reported":1775148217,"current_range_meters":4000,"station_id":"st_cvj6r9ubvosntc0bgbag","pricing_plan_id":"cebpf4jnsgd1na2vs0mg"},{"bike_id":"28902c85-2ce9-4ec9-adfe-51cf4064fa09","system_id":"levelo_inurba_marseille","lat":43.28464,"lon":5.39199,"is_reserved":false,"is_disabled":true,"rental_uris":{"android":"levelo://app?vid=28902c85-2ce9-4ec9-adfe-51cf4064fa09","ios":"levelo://app?vid=28902c85-2ce9-4ec9-adfe-51cf4064fa09"},"vehicle_type_id":"4","last_reported":1775148217,"current_range_meters":4000,"station_id":"ce4bhoh2rcd13ifvqh5g","pricing_plan_id":"cebpf4jnsgd1na2vs0mg"},{"bike_id":"5b415b02-80b4-4838-acdb-dd0ce57c988b","system_id":"levelo_inurba_marseille","lat":43.24808,"lon":5.37451,"is_reserved":false,"is_disabled":false,"rental_uris":{"android":"levelo://app?vid=5b415b02-80b4-4838-acdb-dd0ce57c988b","ios":"levelo://app?vid=5b415b02-80b4-4838-acdb-dd0ce57c988b"},"vehicle_type_id":"4","last_reported":1775148217,"current_range_meters":4000,"station_id":"ce4bhgh2rcd13ifvqfb0","pricing_plan_id":"cebpf4jnsgd1na2vs0mg"},{"bike_id":"9acf76c9-2f8b-4b56-995f-c7334d0b16b0","system_id":"levelo_inurba_marseille","lat":43.29303,"lon":5.37455,"is_reserved":false,"is_disabled":false,"rental_uris":{"android":"levelo://app?vid=9acf76c9-2f8b-4b56-995f-c7334d0b16b0","ios":"levelo://app?vid=9acf76c9-2f8b-4b56-995f-c7334d0b16b0"},"vehicle_type_id":"4","last_reported":1775148217,"current_range_meters":4000,"station_id":"ce4bgi12rcd13ifvqb70","pricing_plan_id":"cebpf4jnsgd1na2vs0mg"},{"bike_id":"a17dbbf9-2919-4aa7-a6bc-4d101b9dc30c","system_id":"levelo_inurba_marseille","lat":43.27519,"lon":5.40938,"is_reserved":false,"is_disabled":false,"rental_uris":{"android":"levelo://app?vid=a17dbbf9-2919-4aa7-a6bc-4d101b9dc30c","ios":"levelo://app?vid=a17dbbf9-2919-4aa7-a6bc-4d101b9dc30c"},"vehicle_type_id":"4","last_reported":1775148217,"current_range_meters":4000,"station_id":"","pricing_plan_id":"cebpf4jnsgd1na2vs0mg"},{"bike_id":"26adf1f3-2502-4368-aa77-af48fd9171b3","system_id":"levelo_inurba_marseille","lat":43.284161,"lon":5.349777,"is_reserved":false,"is_disabled":false,"rental_uris":{"android":"levelo://app?vid=26adf1f3-2502-4368-aa77-af48fd9171b3","ios":"levelo://app?vid=26adf1f3-2502-4368-aa77-af48fd9171b3"},"vehicle_type_id":"4","last_reported":1775148217,"current_range_meters":4000,"station_id":"ce4bhbh2rcd13ifvqepg","pricing_plan_id":"cebpf4jnsgd1na2vs0mg"},{"bike_id":"9a415b3b-f92a-436c-bbcc-b07de8e1ffde","system_id":"levelo_inurba_marseille","lat":43.31354,"lon":5.38492,"is_reserved":false,"is_disabled":false,"rental_uris":{"android":"levelo://app?vid=9a415b3b-f92a-436c-bbcc-b07de8e1ffde","ios":"levelo://app?vid=9a415b3b-f92a-436c-bbcc-b07de8e1ffde"},"vehicle_type_id":"4","last_reported":1775148217,"current_range_meters":4000,"station_id":"ce4bgt92rcd13ifvqcf0","pricing_plan_id":"cebpf4jnsgd1na2vs0mg"},{"bike_id":"32bbc785-7878-457c-9b63-c753cac045af","system_id":"levelo_inurba_marseille","lat":43.21745,"lon":5.34597,"is_reserved":false,"is_disabled":false,"rental_uris":{"android":"levelo://app?vid=32bbc785-7878-457c-9b63-c753cac045af","ios":"levelo://app?vid=32bbc785-7878-457c-9b63-c753cac045af"},"vehicle_type_id":"4","last_reported":1775148217,"current_range_meters":4000,"station_id":"st_cvj6r9ubvosntc0bgbag","pricing_plan_id":"cebpf4jnsgd1na2vs0mg"},{"bike_id":"5a54de1e-71a6-42ad-93ae-5b74f4da0c92","system_id":"levelo_inurba_marseille","lat":43.298024,"lon":5.404105,"is_reserved":false,"is_disabled":false,"rental_uris":{"android":"levelo://app?vid=5a54de1e-71a6-42ad-93ae-5b74f4da0c92","ios":"levelo://app?vid=5a54de1e-71a6-42ad-93ae-5b74f4da0c92"},"vehicle_type_id":"4","last_reported":1775148217,"current_range_meters":4000,"station_id":"ce4bh112rcd13ifvqd90","pricing_plan_id":"cebpf4jnsgd1na2vs0mg"},{"bike_id":"de826667-86cb-4e1f-86ad-b452c185d727","system_id":"levelo_inurba_marseille","lat":43.24812,"lon":5.37456,"is_reserved":false,"is_disabled":false,"rental_uris":{"android":"levelo://app?vid=de826667-86cb-4e1f-86ad-b452c185d727","ios":"levelo://app?vid=de826667-86cb-4e1f-86ad-b452c185d727"},"vehicle_type_id":"4","last_reported":1775148217,"current_range_meters":4000,"station_id":"ce4bhgh2rcd13ifvqfb0","pricing_plan_id":"cebpf4jnsgd1na2vs0mg"},{"bike_id":"bd9a13e0-070f-4092-a45b-af3631aad9d2","system_id":"levelo_inurba_marseille","lat":43.2732,"lon":5.39119,"is_reserved":false,"is_disabled":false,"rental_uris":{"android":"levelo://app?vid=bd9a13e0-070f-4092-a45b-af3631aad9d2","ios":"levelo://app?vid=bd9a13e0-070f-4092-a45b-af3631aad9d2"},"vehicle_type_id":"4","last_reported":1775148217,"current_range_meters":4000,"station_id":"ce4bhgp2rcd13ifvqfe0","pricing_plan_id":"cebpf4jnsgd1na2vs0mg"},{"bike_id":"1bdbf982-d656-4173-91b1-d3055e78d6cd","system_id":"levelo_inurba_marseille","lat":43.22558,"lon":5.41622,"is_reserved":false,"is_disabled":false,"rental_uris":{"android":"levelo://app?vid=1bdbf982-d656-4173-91b1-d3055e78d6cd","ios":"levelo://app?vid=1bdbf982-d656-4173-91b1-d3055e78d6cd"},"vehicle_type_id":"4","last_reported":1775148217,"current_range_meters":4000,"station_id":"st_d2o4gvlbi1j2169b742g","pricing_plan_id":"cebpf4jnsgd1na2vs0mg"},{"bike_id":"41846012-9f03-4022-9df1-08503222031e","system_id":"levelo_inurba_marseille","lat":43.29277,"lon":5.36841,"is_reserved":false,"is_disabled":false,"rental_uris":{"android":"levelo://app?vid=41846012-9f03-4022-9df1-08503222031e","ios":"levelo://app?vid=41846012-9f03-4022-9df1-08503222031e"},"vehicle_type_id":"4","last_reported":1775148217,"current_range_meters":4000,"station_id":"ce4bhbp2rcd13ifvqesg","pricing_plan_id":"cebpf4jnsgd1na2vs0mg"},{"bike_id":"4a9a41a6-553c-42b4-9a76-1207b16dcd78","system_id":"levelo_inurba_marseille","lat":43.33556,"lon":5.37476,"is_reserved":false,"is_disabled":false,"rental_uris":{"android":"levelo://app?vid=4a9a41a6-553c-42b4-9a76-1207b16dcd78","ios":"levelo://app?vid=4a9a41a6-553c-42b4-9a76-1207b16dcd78"},"vehicle_type_id":"4","last_reported":1775148217,"current_range_meters":4000,"station_id":"st_d46tts09ee8s73dlu43g","pricing_plan_id":"cebpf4jnsgd1na2vs0mg"},{"bike_id":"465c3b97-fa3b-4987-a0da-c02fe6cfecbd","system_id":"levelo_inurba_marseille","lat":43.31072,"lon":5.37176,"is_reserved":false,"is_disabled":false,"rental_uris":{"android":"levelo://app?vid=465c3b97-fa3b-4987-a0da-c02fe6cfecbd","ios":"levelo://app?vid=465c3b97-fa3b-4987-a0da-c02fe6cfecbd"},"vehicle_type_id":"4","last_reported":1775148217,"current_range_meters":4400,"station_id":"st_d4kl2rp97mjs73e7tdfg","pricing_plan_id":"cebpf4jnsgd1na2vs0mg"},{"bike_id":"1b89f2e1-0726-4a0a-ba7f-f4397fe41860","system_id":"levelo_inurba_marseille","lat":43.28608,"lon":5.38379,"is_reserved":false,"is_disabled":false,"rental_uris":{"android":"levelo://app?vid=1b89f2e1-0726-4a0a-ba7f-f4397fe41860","ios":"levelo://app?vid=1b89f2e1-0726-4a0a-ba7f-f4397fe41860"},"vehicle_type_id":"4","last_reported":1775148217,"current_range_meters":4400,"station_id":"","pricing_plan_id":"cebpf4jnsgd1na2vs0mg"},{"bike_id":"8d67b323-4095-4405-9704-9e7776fd3be7","system_id":"levelo_inurba_marseille","lat":43.21195,"lon":5.35049,"is_reserved":false,"is_disabled":false,"rental_uris":{"android":"levelo://app?vid=8d67b323-4095-4405-9704-9e7776fd3be7","ios":"levelo://app?vid=8d67b323-4095-4405-9704-9e7776fd3be7"},"vehicle_type_id":"4","last_reported":1775148217,"current_range_meters":4400,"station_id":"st_cvj6sg6p6f1abm77japg","pricing_plan_id":"cebpf4jnsgd1na2vs0mg"},{"bike_id":"f0f772ad-ed8c-4d8e-bf01-1325088b8d2a","system_id":"levelo_inurba_marseille","lat":43.32065,"lon":5.41528,"is_reserved":false,"is_disabled":false,"rental_uris":{"android":"levelo://app?vid=f0f772ad-ed8c-4d8e-bf01-1325088b8d2a","ios":"levelo://app?vid=f0f772ad-ed8c-4d8e-bf01-1325088b8d2a"},"vehicle_type_id":"4","last_reported":1775148217,"current_range_meters":4400,"station_id":"ce4bhq92rcd13ifvqhkg","pricing_plan_id":"cebpf4jnsgd1na2vs0mg"},{"bike_id":"e9b3f906-3c96-41d2-bde3-70019147dd95","system_id":"levelo_inurba_marseille","lat":43.22567,"lon":5.4163,"is_reserved":false,"is_disabled":false,"rental_uris":{"android":"levelo://app?vid=e9b3f906-3c96-41d2-bde3-70019147dd95","ios":"levelo://app?vid=e9b3f906-3c96-41d2-bde3-70019147dd95"},"vehicle_type_id":"4","last_reported":1775148217,"current_range_meters":4400,"station_id":"st_d2o4gvlbi1j2169b742g","pricing_plan_id":"cebpf4jnsgd1na2vs0mg"},{"bike_id":"017ed578-42f3-4a17-89eb-c549b5ec7a4f","system_id":"levelo_inurba_marseille","lat":43.29025,"lon":5.38126,"is_reserved":false,"is_disabled":false,"rental_uris":{"android":"levelo://app?vid=017ed578-42f3-4a17-89eb-c549b5ec7a4f","ios":"levelo://app?vid=017ed578-42f3-4a17-89eb-c549b5ec7a4f"},"vehicle_type_id":"4","last_reported":1775148217,"current_range_meters":4400,"station_id":"ce4bh4p2rcd13ifvqe1g","pricing_plan_id":"cebpf4jnsgd1na2vs0mg"},{"bike_id":"f6e2224e-5980-43b8-8a16-61b37919baa4","system_id":"levelo_inurba_marseille","lat":43.3137,"lon":5.38495,"is_reserved":false,"is_disabled":false,"rental_uris":{"android":"levelo://app?vid=f6e2224e-5980-43b8-8a16-61b37919baa4","ios":"levelo://app?vid=f6e2224e-5980-43b8-8a16-61b37919baa4"},"vehicle_type_id":"4","last_reported":1775148217,"current_range_meters":4400,"station_id":"ce4bgt92rcd13ifvqcf0","pricing_plan_id":"cebpf4jnsgd1na2vs0mg"},{"bike_id":"2b176618-2114-4a94-bc43-fa6914887efb","system_id":"levelo_inurba_marseille","lat":43.33618,"lon":5.37445,"is_reserved":false,"is_disabled":false,"rental_uris":{"android":"levelo://app?vid=2b176618-2114-4a94-bc43-fa6914887efb","ios":"levelo://app?vid=2b176618-2114-4a94-bc43-fa6914887efb"},"vehicle_type_id":"4","last_reported":1775148217,"current_range_meters":4400,"station_id":"st_d46tts09ee8s73dlu43g","pricing_plan_id":"cebpf4jnsgd1na2vs0mg"},{"bike_id":"052f68eb-b3d2-4c29-a99d-37f9d3e34be6","system_id":"levelo_inurba_marseille","lat":43.24879,"lon":5.42655,"is_reserved":false,"is_disabled":false,"rental_uris":{"android":"levelo://app?vid=052f68eb-b3d2-4c29-a99d-37f9d3e34be6","ios":"levelo://app?vid=052f68eb-b3d2-4c29-a99d-37f9d3e34be6"},"vehicle_type_id":"4","last_reported":1775148217,"current_range_meters":4400,"station_id":"","pricing_plan_id":"cebpf4jnsgd1na2vs0mg"},{"bike_id":"751823b1-fecf-476f-a14d-b22ea92d3e4c","system_id":"levelo_inurba_marseille","lat":43.2917,"lon":5.42633,"is_reserved":false,"is_disabled":false,"rental_uris":{"android":"levelo://app?vid=751823b1-fecf-476f-a14d-b22ea92d3e4c","ios":"levelo://app?vid=751823b1-fecf-476f-a14d-b22ea92d3e4c"},"vehicle_type_id":"4","last_reported":1775148217,"current_range_meters":4400,"station_id":"","pricing_plan_id":"cebpf4jnsgd1na2vs0mg"},{"bike_id":"41cd8bf1-f074-41ef-a621-11928c4a85e3","system_id":"levelo_inurba_marseille","lat":43.31064,"lon":5.37217,"is_reserved":false,"is_disabled":false,"rental_uris":{"android":"levelo://app?vid=41cd8bf1-f074-41ef-a621-11928c4a85e3","ios":"levelo://app?vid=41cd8bf1-f074-41ef-a621-11928c4a85e3"},"vehicle_type_id":"4","last_reported":1775148217,"current_range_meters":4400,"station_id":"st_d4kl2rp97mjs73e7tdfg","pricing_plan_id":"cebpf4jnsgd1na2vs0mg"},{"bike_id":"ef8d4fc8-6bc3-4a9f-a476-2d23d9d29968","system_id":"levelo_inurba_marseille","lat":43.29224,"lon":5.40237,"is_reserved":false,"is_disabled":true,"rental_uris":{"android":"levelo://app?vid=ef8d4fc8-6bc3-4a9f-a476-2d23d9d29968","ios":"levelo://app?vid=ef8d4fc8-6bc3-4a9f-a476-2d23d9d29968"},"vehicle_type_id":"4","last_reported":1775148217,"current_range_meters":4400,"station_id":"ce4bh312rcd13ifvqdk0","pricing_plan_id":"cebpf4jnsgd1na2vs0mg"},{"bike_id":"fa52ce35-6ea9-4f46-bfd2-c8715437ce36","system_id":"levelo_inurba_marseille","lat":43.31033,"lon":5.3718,"is_reserved":false,"is_disabled":false,"rental_uris":{"android":"levelo://app?vid=fa52ce35-6ea9-4f46-bfd2-c8715437ce36","ios":"levelo://app?vid=fa52ce35-6ea9-4f46-bfd2-c8715437ce36"},"vehicle_type_id":"4","last_reported":1775148217,"current_range_meters":4800,"station_id":"st_d4kl2rp97mjs73e7tdfg","pricing_plan_id":"cebpf4jnsgd1na2vs0mg"},{"bike_id":"78151f0b-d096-4bc8-9d04-f28fec21246f","system_id":"levelo_inurba_marseille","lat":43.23186,"lon":5.40008,"is_reserved":false,"is_disabled":false,"rental_uris":{"android":"levelo://app?vid=78151f0b-d096-4bc8-9d04-f28fec21246f","ios":"levelo://app?vid=78151f0b-d096-4bc8-9d04-f28fec21246f"},"vehicle_type_id":"4","last_reported":1775148217,"current_range_meters":4800,"station_id":"ce4bhn12rcd13ifvqgqg","pricing_plan_id":"cebpf4jnsgd1na2vs0mg"},{"bike_id":"c69f7b18-98a2-454c-bac1-287f873aa573","system_id":"levelo_inurba_marseille","lat":43.262123,"lon":5.374489,"is_reserved":false,"is_disabled":true,"rental_uris":{"android":"levelo://app?vid=c69f7b18-98a2-454c-bac1-287f873aa573","ios":"levelo://app?vid=c69f7b18-98a2-454c-bac1-287f873aa573"},"vehicle_type_id":"4","last_reported":1775148217,"current_range_meters":4800,"station_id":"ce4bhbh2rcd13ifvqepg","pricing_plan_id":"cebpf4jnsgd1na2vs0mg"},{"bike_id":"d6b5a999-a514-42dd-bb17-e1c5e482c89b","system_id":"levelo_inurba_marseille","lat":43.2921,"lon":5.3583,"is_reserved":false,"is_disabled":false,"rental_uris":{"android":"levelo://app?vid=d6b5a999-a514-42dd-bb17-e1c5e482c89b","ios":"levelo://app?vid=d6b5a999-a514-42dd-bb17-e1c5e482c89b"},"vehicle_type_id":"4","last_reported":1775148217,"current_range_meters":4800,"station_id":"ce4bhb12rcd13ifvqel0","pricing_plan_id":"cebpf4jnsgd1na2vs0mg"},{"bike_id":"4b3c825a-c5e6-42c6-af30-700063fa913d","system_id":"levelo_inurba_marseille","lat":43.25981,"lon":5.37596,"is_reserved":false,"is_disabled":true,"rental_uris":{"android":"levelo://app?vid=4b3c825a-c5e6-42c6-af30-700063fa913d","ios":"levelo://app?vid=4b3c825a-c5e6-42c6-af30-700063fa913d"},"vehicle_type_id":"4","last_reported":1775148217,"current_range_meters":4800,"station_id":"","pricing_plan_id":"cebpf4jnsgd1na2vs0mg"},{"bike_id":"072c4fdd-51ec-4a2d-a783-ea06c7ea7430","system_id":"levelo_inurba_marseille","lat":43.293702,"lon":5.378376,"is_reserved":false,"is_disabled":false,"rental_uris":{"android":"levelo://app?vid=072c4fdd-51ec-4a2d-a783-ea06c7ea7430","ios":"levelo://app?vid=072c4fdd-51ec-4a2d-a783-ea06c7ea7430"},"vehicle_type_id":"4","last_reported":1775148217,"current_range_meters":4800,"station_id":"ce4bgjh2rcd13ifvqbf0","pricing_plan_id":"cebpf4jnsgd1na2vs0mg"},{"bike_id":"17b8fc26-3ba8-4cf9-a457-0b2cc0ec871e","system_id":"levelo_inurba_marseille","lat":43.27513,"lon":5.41682,"is_reserved":false,"is_disabled":false,"rental_uris":{"android":"levelo://app?vid=17b8fc26-3ba8-4cf9-a457-0b2cc0ec871e","ios":"levelo://app?vid=17b8fc26-3ba8-4cf9-a457-0b2cc0ec871e"},"vehicle_type_id":"4","last_reported":1775148217,"current_range_meters":4800,"station_id":"","pricing_plan_id":"cebpf4jnsgd1na2vs0mg"},{"bike_id":"cac3c55f-dcf5-4706-9051-185e14264ce9","system_id":"levelo_inurba_marseille","lat":43.26039,"lon":5.37535,"is_reserved":false,"is_disabled":false,"rental_uris":{"android":"levelo://app?vid=cac3c55f-dcf5-4706-9051-185e14264ce9","ios":"levelo://app?vid=cac3c55f-dcf5-4706-9051-185e14264ce9"},"vehicle_type_id":"4","last_reported":1775148217,"current_range_meters":4800,"station_id":"ce4bhgh2rcd13ifvqfa0","pricing_plan_id":"cebpf4jnsgd1na2vs0mg"},{"bike_id":"ea0e9256-ea94-4ada-ae35-6834a56de5c4","system_id":"levelo_inurba_marseille","lat":43.29538,"lon":5.38541,"is_reserved":false,"is_disabled":false,"rental_uris":{"android":"levelo://app?vid=ea0e9256-ea94-4ada-ae35-6834a56de5c4","ios":"levelo://app?vid=ea0e9256-ea94-4ada-ae35-6834a56de5c4"},"vehicle_type_id":"4","last_reported":1775148217,"current_range_meters":4800,"station_id":"ce4bgih2rcd13ifvqba0","pricing_plan_id":"cebpf4jnsgd1na2vs0mg"},{"bike_id":"fe9a5781-7d0a-4b93-b027-a0741fe044d3","system_id":"levelo_inurba_marseille","lat":43.27627,"lon":5.36116,"is_reserved":false,"is_disabled":false,"rental_uris":{"android":"levelo://app?vid=fe9a5781-7d0a-4b93-b027-a0741fe044d3","ios":"levelo://app?vid=fe9a5781-7d0a-4b93-b027-a0741fe044d3"},"vehicle_type_id":"4","last_reported":1775148217,"current_range_meters":4800,"station_id":"ce4bgj92rcd13ifvqbe0","pricing_plan_id":"cebpf4jnsgd1na2vs0mg"},{"bike_id":"0a3d5429-a052-4e93-a990-ed8ff383eb2d","system_id":"levelo_inurba_marseille","lat":43.30921,"lon":5.36845,"is_reserved":false,"is_disabled":false,"rental_uris":{"android":"levelo://app?vid=0a3d5429-a052-4e93-a990-ed8ff383eb2d","ios":"levelo://app?vid=0a3d5429-a052-4e93-a990-ed8ff383eb2d"},"vehicle_type_id":"4","last_reported":1775148217,"current_range_meters":4800,"station_id":"ce4bgn92rcd13ifvqbvg","pricing_plan_id":"cebpf4jnsgd1na2vs0mg"},{"bike_id":"4eda720f-73b7-443c-86cf-cc7068097a32","system_id":"levelo_inurba_marseille","lat":43.32291,"lon":5.38269,"is_reserved":false,"is_disabled":false,"rental_uris":{"android":"levelo://app?vid=4eda720f-73b7-443c-86cf-cc7068097a32","ios":"levelo://app?vid=4eda720f-73b7-443c-86cf-cc7068097a32"},"vehicle_type_id":"4","last_reported":1775148217,"current_range_meters":4800,"station_id":"ce4bhr12rcd13ifvqhqg","pricing_plan_id":"cebpf4jnsgd1na2vs0mg"},{"bike_id":"6e06f8fe-285e-4d96-8286-4945ac76853e","system_id":"levelo_inurba_marseille","lat":43.25126,"lon":5.40324,"is_reserved":false,"is_disabled":false,"rental_uris":{"android":"levelo://app?vid=6e06f8fe-285e-4d96-8286-4945ac76853e","ios":"levelo://app?vid=6e06f8fe-285e-4d96-8286-4945ac76853e"},"vehicle_type_id":"4","last_reported":1775148217,"current_range_meters":4800,"station_id":"ce4bhlh2rcd13ifvqgig","pricing_plan_id":"cebpf4jnsgd1na2vs0mg"},{"bike_id":"4e48773f-30f8-41cd-9be2-e8fe81c25162","system_id":"levelo_inurba_marseille","lat":43.21208,"lon":5.35079,"is_reserved":false,"is_disabled":false,"rental_uris":{"android":"levelo://app?vid=4e48773f-30f8-41cd-9be2-e8fe81c25162","ios":"levelo://app?vid=4e48773f-30f8-41cd-9be2-e8fe81c25162"},"vehicle_type_id":"4","last_reported":1775148217,"current_range_meters":5600,"station_id":"st_cvj6sg6p6f1abm77japg","pricing_plan_id":"cebpf4jnsgd1na2vs0mg"},{"bike_id":"b97544d4-fc20-4746-a137-2d69f3584b87","system_id":"levelo_inurba_marseille","lat":43.22488,"lon":5.34839,"is_reserved":false,"is_disabled":false,"rental_uris":{"android":"levelo://app?vid=b97544d4-fc20-4746-a137-2d69f3584b87","ios":"levelo://app?vid=b97544d4-fc20-4746-a137-2d69f3584b87"},"vehicle_type_id":"4","last_reported":1775148217,"current_range_meters":5600,"station_id":"","pricing_plan_id":"cebpf4jnsgd1na2vs0mg"},{"bike_id":"8429f855-c4a0-4803-9ce7-0d1fb93dbfe8","system_id":"levelo_inurba_marseille","lat":43.28556,"lon":5.48336,"is_reserved":false,"is_disabled":false,"rental_uris":{"android":"levelo://app?vid=8429f855-c4a0-4803-9ce7-0d1fb93dbfe8","ios":"levelo://app?vid=8429f855-c4a0-4803-9ce7-0d1fb93dbfe8"},"vehicle_type_id":"4","last_reported":1775148217,"current_range_meters":5600,"station_id":"","pricing_plan_id":"cebpf4jnsgd1na2vs0mg"},{"bike_id":"11d19dab-7798-472d-a3cd-c1ff1cf623a6","system_id":"levelo_inurba_marseille","lat":43.25051,"lon":5.38906,"is_reserved":false,"is_disabled":false,"rental_uris":{"android":"levelo://app?vid=11d19dab-7798-472d-a3cd-c1ff1cf623a6","ios":"levelo://app?vid=11d19dab-7798-472d-a3cd-c1ff1cf623a6"},"vehicle_type_id":"4","last_reported":1775148217,"current_range_meters":5600,"station_id":"","pricing_plan_id":"cebpf4jnsgd1na2vs0mg"},{"bike_id":"faeda510-7137-4a55-85c9-3b3828efdfc5","system_id":"levelo_inurba_marseille","lat":43.25582,"lon":5.38242,"is_reserved":false,"is_disabled":false,"rental_uris":{"android":"levelo://app?vid=faeda510-7137-4a55-85c9-3b3828efdfc5","ios":"levelo://app?vid=faeda510-7137-4a55-85c9-3b3828efdfc5"},"vehicle_type_id":"4","last_reported":1775148217,"current_range_meters":5600,"station_id":"ce4bhih2rcd13ifvqfs0","pricing_plan_id":"cebpf4jnsgd1na2vs0mg"},{"bike_id":"a5ccb9c6-4f2b-438b-b0de-c6c999b11fec","system_id":"levelo_inurba_marseille","lat":43.28417,"lon":5.34991,"is_reserved":false,"is_disabled":false,"rental_uris":{"android":"levelo://app?vid=a5ccb9c6-4f2b-438b-b0de-c6c999b11fec","ios":"levelo://app?vid=a5ccb9c6-4f2b-438b-b0de-c6c999b11fec"},"vehicle_type_id":"4","last_reported":1775148217,"current_range_meters":5600,"station_id":"ce4bhbh2rcd13ifvqepg","pricing_plan_id":"cebpf4jnsgd1na2vs0mg"},{"bike_id":"2e1bb915-7cc1-480d-b6c9-2c6a093b50b8","system_id":"levelo_inurba_marseille","lat":43.25005,"lon":5.38941,"is_reserved":false,"is_disabled":false,"rental_uris":{"android":"levelo://app?vid=2e1bb915-7cc1-480d-b6c9-2c6a093b50b8","ios":"levelo://app?vid=2e1bb915-7cc1-480d-b6c9-2c6a093b50b8"},"vehicle_type_id":"4","last_reported":1775148217,"current_range_meters":5600,"station_id":"ce4bhgp2rcd13ifvqfd0","pricing_plan_id":"cebpf4jnsgd1na2vs0mg"},{"bike_id":"903a43ad-721a-4b30-8292-032c5c7c0bac","system_id":"levelo_inurba_marseille","lat":43.25338,"lon":5.42175,"is_reserved":false,"is_disabled":false,"rental_uris":{"android":"levelo://app?vid=903a43ad-721a-4b30-8292-032c5c7c0bac","ios":"levelo://app?vid=903a43ad-721a-4b30-8292-032c5c7c0bac"},"vehicle_type_id":"4","last_reported":1775148217,"current_range_meters":5600,"station_id":"st_d2m65c5bi1j21697t3ng","pricing_plan_id":"cebpf4jnsgd1na2vs0mg"},{"bike_id":"62210ce0-a99a-4686-acce-34a5c68d8cfd","system_id":"levelo_inurba_marseille","lat":43.2402,"lon":5.3778,"is_reserved":false,"is_disabled":false,"rental_uris":{"android":"levelo://app?vid=62210ce0-a99a-4686-acce-34a5c68d8cfd","ios":"levelo://app?vid=62210ce0-a99a-4686-acce-34a5c68d8cfd"},"vehicle_type_id":"4","last_reported":1775148217,"current_range_meters":5600,"station_id":"","pricing_plan_id":"cebpf4jnsgd1na2vs0mg"},{"bike_id":"2be64f19-432b-4d07-98a7-6e9bfd23e981","system_id":"levelo_inurba_marseille","lat":43.29748,"lon":5.42792,"is_reserved":false,"is_disabled":false,"rental_uris":{"android":"levelo://app?vid=2be64f19-432b-4d07-98a7-6e9bfd23e981","ios":"levelo://app?vid=2be64f19-432b-4d07-98a7-6e9bfd23e981"},"vehicle_type_id":"4","last_reported":1775148217,"current_range_meters":5600,"station_id":"st_d3md5207bmas73dh9klg","pricing_plan_id":"cebpf4jnsgd1na2vs0mg"},{"bike_id":"8ea09a13-04b8-43b6-9d00-dde41be15674","system_id":"levelo_inurba_marseille","lat":43.28227,"lon":5.39064,"is_reserved":false,"is_disabled":false,"rental_uris":{"android":"levelo://app?vid=8ea09a13-04b8-43b6-9d00-dde41be15674","ios":"levelo://app?vid=8ea09a13-04b8-43b6-9d00-dde41be15674"},"vehicle_type_id":"4","last_reported":1775148217,"current_range_meters":5600,"station_id":"ce4bhn92rcd13ifvqgsg","pricing_plan_id":"cebpf4jnsgd1na2vs0mg"},{"bike_id":"2cb33edb-dc6f-4afe-aa64-596659d52379","system_id":"levelo_inurba_marseille","lat":43.26507,"lon":5.39554,"is_reserved":false,"is_disabled":false,"rental_uris":{"android":"levelo://app?vid=2cb33edb-dc6f-4afe-aa64-596659d52379","ios":"levelo://app?vid=2cb33edb-dc6f-4afe-aa64-596659d52379"},"vehicle_type_id":"4","last_reported":1775148217,"current_range_meters":5600,"station_id":"ce4bhi12rcd13ifvqfq0","pricing_plan_id":"cebpf4jnsgd1na2vs0mg"},{"bike_id":"cce71867-af00-4efb-acca-1ad994ce58c1","system_id":"levelo_inurba_marseille","lat":43.33167,"lon":5.3769,"is_reserved":false,"is_disabled":false,"rental_uris":{"android":"levelo://app?vid=cce71867-af00-4efb-acca-1ad994ce58c1","ios":"levelo://app?vid=cce71867-af00-4efb-acca-1ad994ce58c1"},"vehicle_type_id":"4","last_reported":1775148217,"current_range_meters":5600,"station_id":"st_d46cu089ee8s73dldbu0","pricing_plan_id":"cebpf4jnsgd1na2vs0mg"},{"bike_id":"56ec5d57-7c8c-4c1d-88bd-858b2f416a6f","system_id":"levelo_inurba_marseille","lat":43.28856,"lon":5.35852,"is_reserved":false,"is_disabled":false,"rental_uris":{"android":"levelo://app?vid=56ec5d57-7c8c-4c1d-88bd-858b2f416a6f","ios":"levelo://app?vid=56ec5d57-7c8c-4c1d-88bd-858b2f416a6f"},"vehicle_type_id":"4","last_reported":1775148217,"current_range_meters":5600,"station_id":"ce4bhb12rcd13ifvqem0","pricing_plan_id":"cebpf4jnsgd1na2vs0mg"},{"bike_id":"faf54974-9f72-4b05-ba38-a93aa850199e","system_id":"levelo_inurba_marseille","lat":43.291094,"lon":5.392502,"is_reserved":false,"is_disabled":false,"rental_uris":{"android":"levelo://app?vid=faf54974-9f72-4b05-ba38-a93aa850199e","ios":"levelo://app?vid=faf54974-9f72-4b05-ba38-a93aa850199e"},"vehicle_type_id":"4","last_reported":1775148217,"current_range_meters":5600,"station_id":"ce4bh192rcd13ifvqdd0","pricing_plan_id":"cebpf4jnsgd1na2vs0mg"},{"bike_id":"b3c5d317-006e-4edb-82b5-4864bde26e42","system_id":"levelo_inurba_marseille","lat":43.27856,"lon":5.42552,"is_reserved":false,"is_disabled":false,"rental_uris":{"android":"levelo://app?vid=b3c5d317-006e-4edb-82b5-4864bde26e42","ios":"levelo://app?vid=b3c5d317-006e-4edb-82b5-4864bde26e42"},"vehicle_type_id":"4","last_reported":1775148217,"current_range_meters":6000,"station_id":"","pricing_plan_id":"cebpf4jnsgd1na2vs0mg"},{"bike_id":"bd0ac768-7c9c-45a3-a37e-3f8f101dd4fa","system_id":"levelo_inurba_marseille","lat":43.22535,"lon":5.34808,"is_reserved":false,"is_disabled":false,"rental_uris":{"android":"levelo://app?vid=bd0ac768-7c9c-45a3-a37e-3f8f101dd4fa","ios":"levelo://app?vid=bd0ac768-7c9c-45a3-a37e-3f8f101dd4fa"},"vehicle_type_id":"4","last_reported":1775148217,"current_range_meters":6000,"station_id":"st_cvj5dfep6f1abm77gieg","pricing_plan_id":"cebpf4jnsgd1na2vs0mg"},{"bike_id":"da96e6b2-3325-4d5a-9c94-91edd5ddb030","system_id":"levelo_inurba_marseille","lat":43.308849,"lon":5.371912,"is_reserved":false,"is_disabled":false,"rental_uris":{"android":"levelo://app?vid=da96e6b2-3325-4d5a-9c94-91edd5ddb030","ios":"levelo://app?vid=da96e6b2-3325-4d5a-9c94-91edd5ddb030"},"vehicle_type_id":"4","last_reported":1775148217,"current_range_meters":6000,"station_id":"ce4bguh2rcd13ifvqckg","pricing_plan_id":"cebpf4jnsgd1na2vs0mg"},{"bike_id":"b149b05d-17dc-4174-91fd-6a2d9bb13c8f","system_id":"levelo_inurba_marseille","lat":43.31683,"lon":5.38158,"is_reserved":false,"is_disabled":false,"rental_uris":{"android":"levelo://app?vid=b149b05d-17dc-4174-91fd-6a2d9bb13c8f","ios":"levelo://app?vid=b149b05d-17dc-4174-91fd-6a2d9bb13c8f"},"vehicle_type_id":"4","last_reported":1775148217,"current_range_meters":6000,"station_id":"","pricing_plan_id":"cebpf4jnsgd1na2vs0mg"},{"bike_id":"0bccd438-ccc6-4db5-a746-92db398465e4","system_id":"levelo_inurba_marseille","lat":43.31465,"lon":5.36958,"is_reserved":false,"is_disabled":false,"rental_uris":{"android":"levelo://app?vid=0bccd438-ccc6-4db5-a746-92db398465e4","ios":"levelo://app?vid=0bccd438-ccc6-4db5-a746-92db398465e4"},"vehicle_type_id":"4","last_reported":1775148217,"current_range_meters":6000,"station_id":"","pricing_plan_id":"cebpf4jnsgd1na2vs0mg"},{"bike_id":"4d5384d3-8484-4fd4-ab3e-42cf8d8ddb2b","system_id":"levelo_inurba_marseille","lat":43.28903,"lon":5.42528,"is_reserved":false,"is_disabled":false,"rental_uris":{"android":"levelo://app?vid=4d5384d3-8484-4fd4-ab3e-42cf8d8ddb2b","ios":"levelo://app?vid=4d5384d3-8484-4fd4-ab3e-42cf8d8ddb2b"},"vehicle_type_id":"4","last_reported":1775148217,"current_range_meters":6000,"station_id":"st_d3b462108ojc7389ooeg","pricing_plan_id":"cebpf4jnsgd1na2vs0mg"},{"bike_id":"19df920b-861e-4e22-81ff-078a8e13f93d","system_id":"levelo_inurba_marseille","lat":43.2604,"lon":5.37558,"is_reserved":false,"is_disabled":false,"rental_uris":{"android":"levelo://app?vid=19df920b-861e-4e22-81ff-078a8e13f93d","ios":"levelo://app?vid=19df920b-861e-4e22-81ff-078a8e13f93d"},"vehicle_type_id":"4","last_reported":1775148217,"current_range_meters":6000,"station_id":"ce4bhgh2rcd13ifvqfa0","pricing_plan_id":"cebpf4jnsgd1na2vs0mg"},{"bike_id":"07251277-e624-4421-a2c6-c149e5a7fd45","system_id":"levelo_inurba_marseille","lat":43.31335,"lon":5.39696,"is_reserved":false,"is_disabled":false,"rental_uris":{"android":"levelo://app?vid=07251277-e624-4421-a2c6-c149e5a7fd45","ios":"levelo://app?vid=07251277-e624-4421-a2c6-c149e5a7fd45"},"vehicle_type_id":"4","last_reported":1775148217,"current_range_meters":6000,"station_id":"ce4bgvp2rcd13ifvqcu0","pricing_plan_id":"cebpf4jnsgd1na2vs0mg"},{"bike_id":"6a2b1b60-3323-4f4b-ab74-e828d20725fa","system_id":"levelo_inurba_marseille","lat":43.30148,"lon":5.37422,"is_reserved":false,"is_disabled":false,"rental_uris":{"android":"levelo://app?vid=6a2b1b60-3323-4f4b-ab74-e828d20725fa","ios":"levelo://app?vid=6a2b1b60-3323-4f4b-ab74-e828d20725fa"},"vehicle_type_id":"4","last_reported":1775148217,"current_range_meters":6000,"station_id":"ce4bgs92rcd13ifvqcc0","pricing_plan_id":"cebpf4jnsgd1na2vs0mg"},{"bike_id":"da8c104f-af21-4b1d-9047-b79ca483b672","system_id":"levelo_inurba_marseille","lat":43.29821,"lon":5.42072,"is_reserved":false,"is_disabled":false,"rental_uris":{"android":"levelo://app?vid=da8c104f-af21-4b1d-9047-b79ca483b672","ios":"levelo://app?vid=da8c104f-af21-4b1d-9047-b79ca483b672"},"vehicle_type_id":"4","last_reported":1775148217,"current_range_meters":6000,"station_id":"","pricing_plan_id":"cebpf4jnsgd1na2vs0mg"},{"bike_id":"d79043de-c8e5-4bdb-aecd-cc4044485d69","system_id":"levelo_inurba_marseille","lat":43.33167,"lon":5.37664,"is_reserved":false,"is_disabled":false,"rental_uris":{"android":"levelo://app?vid=d79043de-c8e5-4bdb-aecd-cc4044485d69","ios":"levelo://app?vid=d79043de-c8e5-4bdb-aecd-cc4044485d69"},"vehicle_type_id":"4","last_reported":1775148217,"current_range_meters":6000,"station_id":"st_d46cu089ee8s73dldbu0","pricing_plan_id":"cebpf4jnsgd1na2vs0mg"},{"bike_id":"bddf8fd1-7331-43a1-ac28-cb0a5768857b","system_id":"levelo_inurba_marseille","lat":43.25825,"lon":5.39439,"is_reserved":false,"is_disabled":false,"rental_uris":{"android":"levelo://app?vid=bddf8fd1-7331-43a1-ac28-cb0a5768857b","ios":"levelo://app?vid=bddf8fd1-7331-43a1-ac28-cb0a5768857b"},"vehicle_type_id":"4","last_reported":1775148217,"current_range_meters":6000,"station_id":"ce4bhip2rcd13ifvqft0","pricing_plan_id":"cebpf4jnsgd1na2vs0mg"},{"bike_id":"b3fdb3c6-13b8-4611-957c-1ad249219f8c","system_id":"levelo_inurba_marseille","lat":43.24479,"lon":5.42532,"is_reserved":false,"is_disabled":false,"rental_uris":{"android":"levelo://app?vid=b3fdb3c6-13b8-4611-957c-1ad249219f8c","ios":"levelo://app?vid=b3fdb3c6-13b8-4611-957c-1ad249219f8c"},"vehicle_type_id":"4","last_reported":1775148217,"current_range_meters":6000,"station_id":"st_d4a3vfp97mjs738cd8kg","pricing_plan_id":"cebpf4jnsgd1na2vs0mg"},{"bike_id":"01aecd18-45d4-4eef-b486-94b6abd0cca9","system_id":"levelo_inurba_marseille","lat":43.25587,"lon":5.38244,"is_reserved":false,"is_disabled":false,"rental_uris":{"android":"levelo://app?vid=01aecd18-45d4-4eef-b486-94b6abd0cca9","ios":"levelo://app?vid=01aecd18-45d4-4eef-b486-94b6abd0cca9"},"vehicle_type_id":"4","last_reported":1775148217,"current_range_meters":6000,"station_id":"ce4bhih2rcd13ifvqfs0","pricing_plan_id":"cebpf4jnsgd1na2vs0mg"},{"bike_id":"93b54f12-6027-40ee-aaaf-52c4a5342eb2","system_id":"levelo_inurba_marseille","lat":43.21199,"lon":5.35063,"is_reserved":false,"is_disabled":false,"rental_uris":{"android":"levelo://app?vid=93b54f12-6027-40ee-aaaf-52c4a5342eb2","ios":"levelo://app?vid=93b54f12-6027-40ee-aaaf-52c4a5342eb2"},"vehicle_type_id":"4","last_reported":1775148217,"current_range_meters":6000,"station_id":"st_cvj6sg6p6f1abm77japg","pricing_plan_id":"cebpf4jnsgd1na2vs0mg"},{"bike_id":"22f73038-1c9c-474e-a8d0-bfdd2497be7f","system_id":"levelo_inurba_marseille","lat":43.31698,"lon":5.4047,"is_reserved":false,"is_disabled":false,"rental_uris":{"android":"levelo://app?vid=22f73038-1c9c-474e-a8d0-bfdd2497be7f","ios":"levelo://app?vid=22f73038-1c9c-474e-a8d0-bfdd2497be7f"},"vehicle_type_id":"4","last_reported":1775148217,"current_range_meters":6000,"station_id":"ce4bh012rcd13ifvqd00","pricing_plan_id":"cebpf4jnsgd1na2vs0mg"},{"bike_id":"4d0c04af-9baa-455b-bd3b-78e6564e753d","system_id":"levelo_inurba_marseille","lat":43.269365,"lon":5.389257,"is_reserved":false,"is_disabled":false,"rental_uris":{"android":"levelo://app?vid=4d0c04af-9baa-455b-bd3b-78e6564e753d","ios":"levelo://app?vid=4d0c04af-9baa-455b-bd3b-78e6564e753d"},"vehicle_type_id":"4","last_reported":1775148217,"current_range_meters":6400,"station_id":"ce4bhe12rcd13ifvqf30","pricing_plan_id":"cebpf4jnsgd1na2vs0mg"},{"bike_id":"1ddada69-e90e-42d5-84c6-ca6acdb9f7a2","system_id":"levelo_inurba_marseille","lat":43.30055,"lon":5.43892,"is_reserved":false,"is_disabled":false,"rental_uris":{"android":"levelo://app?vid=1ddada69-e90e-42d5-84c6-ca6acdb9f7a2","ios":"levelo://app?vid=1ddada69-e90e-42d5-84c6-ca6acdb9f7a2"},"vehicle_type_id":"4","last_reported":1775148217,"current_range_meters":6400,"station_id":"","pricing_plan_id":"cebpf4jnsgd1na2vs0mg"},{"bike_id":"58d91ae1-8063-4e7d-870c-f6392dad8fd9","system_id":"levelo_inurba_marseille","lat":43.28492,"lon":5.48374,"is_reserved":false,"is_disabled":false,"rental_uris":{"android":"levelo://app?vid=58d91ae1-8063-4e7d-870c-f6392dad8fd9","ios":"levelo://app?vid=58d91ae1-8063-4e7d-870c-f6392dad8fd9"},"vehicle_type_id":"4","last_reported":1775148217,"current_range_meters":6400,"station_id":"","pricing_plan_id":"cebpf4jnsgd1na2vs0mg"},{"bike_id":"11a3575c-a967-4750-a89c-f077d62c5247","system_id":"levelo_inurba_marseille","lat":43.24703,"lon":5.38161,"is_reserved":false,"is_disabled":false,"rental_uris":{"android":"levelo://app?vid=11a3575c-a967-4750-a89c-f077d62c5247","ios":"levelo://app?vid=11a3575c-a967-4750-a89c-f077d62c5247"},"vehicle_type_id":"4","last_reported":1775148217,"current_range_meters":6400,"station_id":"ce4bhih2rcd13ifvqfr0","pricing_plan_id":"cebpf4jnsgd1na2vs0mg"},{"bike_id":"001b792b-1c15-4bd1-92f8-673889a2b001","system_id":"levelo_inurba_marseille","lat":43.29274,"lon":5.36851,"is_reserved":false,"is_disabled":false,"rental_uris":{"android":"levelo://app?vid=001b792b-1c15-4bd1-92f8-673889a2b001","ios":"levelo://app?vid=001b792b-1c15-4bd1-92f8-673889a2b001"},"vehicle_type_id":"4","last_reported":1775148217,"current_range_meters":6400,"station_id":"ce4bhbp2rcd13ifvqesg","pricing_plan_id":"cebpf4jnsgd1na2vs0mg"},{"bike_id":"2e0832a1-df67-4b8d-a986-10479d5638ee","system_id":"levelo_inurba_marseille","lat":43.29792,"lon":5.39341,"is_reserved":false,"is_disabled":false,"rental_uris":{"android":"levelo://app?vid=2e0832a1-df67-4b8d-a986-10479d5638ee","ios":"levelo://app?vid=2e0832a1-df67-4b8d-a986-10479d5638ee"},"vehicle_type_id":"4","last_reported":1775148217,"current_range_meters":6400,"station_id":"chh1huq6cuj3fo74tm60","pricing_plan_id":"cebpf4jnsgd1na2vs0mg"},{"bike_id":"ccccdd94-4e68-401f-ad9b-2b32fb050cf2","system_id":"levelo_inurba_marseille","lat":43.29644,"lon":5.37149,"is_reserved":false,"is_disabled":false,"rental_uris":{"android":"levelo://app?vid=ccccdd94-4e68-401f-ad9b-2b32fb050cf2","ios":"levelo://app?vid=ccccdd94-4e68-401f-ad9b-2b32fb050cf2"},"vehicle_type_id":"4","last_reported":1775148217,"current_range_meters":6400,"station_id":"ce4bgnh2rcd13ifvqc0g","pricing_plan_id":"cebpf4jnsgd1na2vs0mg"},{"bike_id":"cb5b1ee0-fb07-4fe9-8d2d-7bd39e547d09","system_id":"levelo_inurba_marseille","lat":43.33623,"lon":5.41059,"is_reserved":false,"is_disabled":true,"rental_uris":{"android":"levelo://app?vid=cb5b1ee0-fb07-4fe9-8d2d-7bd39e547d09","ios":"levelo://app?vid=cb5b1ee0-fb07-4fe9-8d2d-7bd39e547d09"},"vehicle_type_id":"4","last_reported":1775148217,"current_range_meters":6400,"station_id":"ce4bhqh2rcd13ifvqhmg","pricing_plan_id":"cebpf4jnsgd1na2vs0mg"},{"bike_id":"3d0eb1d5-081f-4076-9ea6-67db3498d2de","system_id":"levelo_inurba_marseille","lat":43.249955,"lon":5.389358,"is_reserved":false,"is_disabled":false,"rental_uris":{"android":"levelo://app?vid=3d0eb1d5-081f-4076-9ea6-67db3498d2de","ios":"levelo://app?vid=3d0eb1d5-081f-4076-9ea6-67db3498d2de"},"vehicle_type_id":"4","last_reported":1775148217,"current_range_meters":6400,"station_id":"ce4bhgp2rcd13ifvqfd0","pricing_plan_id":"cebpf4jnsgd1na2vs0mg"},{"bike_id":"b1cb2378-66e2-4e73-a135-28bf0dec66f1","system_id":"levelo_inurba_marseille","lat":43.31295,"lon":5.44083,"is_reserved":false,"is_disabled":false,"rental_uris":{"android":"levelo://app?vid=b1cb2378-66e2-4e73-a135-28bf0dec66f1","ios":"levelo://app?vid=b1cb2378-66e2-4e73-a135-28bf0dec66f1"},"vehicle_type_id":"4","last_reported":1775148217,"current_range_meters":6400,"station_id":"","pricing_plan_id":"cebpf4jnsgd1na2vs0mg"},{"bike_id":"cc3a6be8-94a3-42e3-a03c-33aeac4c94d2","system_id":"levelo_inurba_marseille","lat":43.24998,"lon":5.38948,"is_reserved":false,"is_disabled":false,"rental_uris":{"android":"levelo://app?vid=cc3a6be8-94a3-42e3-a03c-33aeac4c94d2","ios":"levelo://app?vid=cc3a6be8-94a3-42e3-a03c-33aeac4c94d2"},"vehicle_type_id":"4","last_reported":1775148217,"current_range_meters":6400,"station_id":"ce4bhgp2rcd13ifvqfd0","pricing_plan_id":"cebpf4jnsgd1na2vs0mg"},{"bike_id":"8b868cff-2d21-42b3-a60e-0537c7336721","system_id":"levelo_inurba_marseille","lat":43.3058,"lon":5.43022,"is_reserved":false,"is_disabled":false,"rental_uris":{"android":"levelo://app?vid=8b868cff-2d21-42b3-a60e-0537c7336721","ios":"levelo://app?vid=8b868cff-2d21-42b3-a60e-0537c7336721"},"vehicle_type_id":"4","last_reported":1775148217,"current_range_meters":6400,"station_id":"","pricing_plan_id":"cebpf4jnsgd1na2vs0mg"},{"bike_id":"9291dae7-b61f-4b45-8de8-0e850c2d1049","system_id":"levelo_inurba_marseille","lat":43.25581,"lon":5.38247,"is_reserved":false,"is_disabled":false,"rental_uris":{"android":"levelo://app?vid=9291dae7-b61f-4b45-8de8-0e850c2d1049","ios":"levelo://app?vid=9291dae7-b61f-4b45-8de8-0e850c2d1049"},"vehicle_type_id":"4","last_reported":1775148217,"current_range_meters":6400,"station_id":"ce4bhih2rcd13ifvqfs0","pricing_plan_id":"cebpf4jnsgd1na2vs0mg"},{"bike_id":"1a5c40fa-67a7-4eb1-a7da-42040f8caf4f","system_id":"levelo_inurba_marseille","lat":43.3129,"lon":5.40189,"is_reserved":false,"is_disabled":false,"rental_uris":{"android":"levelo://app?vid=1a5c40fa-67a7-4eb1-a7da-42040f8caf4f","ios":"levelo://app?vid=1a5c40fa-67a7-4eb1-a7da-42040f8caf4f"},"vehicle_type_id":"4","last_reported":1775148217,"current_range_meters":6400,"station_id":"ce4bh092rcd13ifvqd30","pricing_plan_id":"cebpf4jnsgd1na2vs0mg"},{"bike_id":"21c740ac-075e-41ae-a802-29927f966c9b","system_id":"levelo_inurba_marseille","lat":43.27943,"lon":5.41023,"is_reserved":false,"is_disabled":false,"rental_uris":{"android":"levelo://app?vid=21c740ac-075e-41ae-a802-29927f966c9b","ios":"levelo://app?vid=21c740ac-075e-41ae-a802-29927f966c9b"},"vehicle_type_id":"4","last_reported":1775148217,"current_range_meters":6400,"station_id":"ce4bhnp2rcd13ifvqh0g","pricing_plan_id":"cebpf4jnsgd1na2vs0mg"},{"bike_id":"ab06f0c1-dd3c-4093-aae2-11693a90ca5c","system_id":"levelo_inurba_marseille","lat":43.23963,"lon":5.36632,"is_reserved":false,"is_disabled":false,"rental_uris":{"android":"levelo://app?vid=ab06f0c1-dd3c-4093-aae2-11693a90ca5c","ios":"levelo://app?vid=ab06f0c1-dd3c-4093-aae2-11693a90ca5c"},"vehicle_type_id":"4","last_reported":1775148217,"current_range_meters":6400,"station_id":"ce4bhi12rcd13ifvqfp0","pricing_plan_id":"cebpf4jnsgd1na2vs0mg"},{"bike_id":"5017ed3e-5ae8-4a2b-bc3b-d1157886d715","system_id":"levelo_inurba_marseille","lat":43.2656,"lon":5.37275,"is_reserved":false,"is_disabled":false,"rental_uris":{"android":"levelo://app?vid=5017ed3e-5ae8-4a2b-bc3b-d1157886d715","ios":"levelo://app?vid=5017ed3e-5ae8-4a2b-bc3b-d1157886d715"},"vehicle_type_id":"4","last_reported":1775148217,"current_range_meters":6400,"station_id":"ce4bhg12rcd13ifvqf70","pricing_plan_id":"cebpf4jnsgd1na2vs0mg"},{"bike_id":"d6349826-5510-4834-ae61-5f416883040f","system_id":"levelo_inurba_marseille","lat":43.21755,"lon":5.346,"is_reserved":false,"is_disabled":false,"rental_uris":{"android":"levelo://app?vid=d6349826-5510-4834-ae61-5f416883040f","ios":"levelo://app?vid=d6349826-5510-4834-ae61-5f416883040f"},"vehicle_type_id":"4","last_reported":1775148217,"current_range_meters":6400,"station_id":"st_cvj6r9ubvosntc0bgbag","pricing_plan_id":"cebpf4jnsgd1na2vs0mg"},{"bike_id":"1f0040af-a8d3-46ad-81c1-e273d0e1d11e","system_id":"levelo_inurba_marseille","lat":43.26498,"lon":5.39538,"is_reserved":false,"is_disabled":false,"rental_uris":{"android":"levelo://app?vid=1f0040af-a8d3-46ad-81c1-e273d0e1d11e","ios":"levelo://app?vid=1f0040af-a8d3-46ad-81c1-e273d0e1d11e"},"vehicle_type_id":"4","last_reported":1775148217,"current_range_meters":6400,"station_id":"ce4bhi12rcd13ifvqfq0","pricing_plan_id":"cebpf4jnsgd1na2vs0mg"},{"bike_id":"2063ff31-6478-4b83-92f8-bef66829973e","system_id":"levelo_inurba_marseille","lat":43.28536,"lon":5.44111,"is_reserved":false,"is_disabled":false,"rental_uris":{"android":"levelo://app?vid=2063ff31-6478-4b83-92f8-bef66829973e","ios":"levelo://app?vid=2063ff31-6478-4b83-92f8-bef66829973e"},"vehicle_type_id":"4","last_reported":1775148217,"current_range_meters":6400,"station_id":"st_d3j3df2ikq2c7380ej80","pricing_plan_id":"cebpf4jnsgd1na2vs0mg"},{"bike_id":"f105672f-1724-48e4-b8b5-1df291d790f2","system_id":"levelo_inurba_marseille","lat":43.31739,"lon":5.4373,"is_reserved":false,"is_disabled":false,"rental_uris":{"android":"levelo://app?vid=f105672f-1724-48e4-b8b5-1df291d790f2","ios":"levelo://app?vid=f105672f-1724-48e4-b8b5-1df291d790f2"},"vehicle_type_id":"4","last_reported":1775148217,"current_range_meters":6400,"station_id":"ce4bhp92rcd13ifvqhcg","pricing_plan_id":"cebpf4jnsgd1na2vs0mg"},{"bike_id":"d0111825-3017-4e03-aba5-c350420e66fe","system_id":"levelo_inurba_marseille","lat":43.21203,"lon":5.35063,"is_reserved":false,"is_disabled":false,"rental_uris":{"android":"levelo://app?vid=d0111825-3017-4e03-aba5-c350420e66fe","ios":"levelo://app?vid=d0111825-3017-4e03-aba5-c350420e66fe"},"vehicle_type_id":"4","last_reported":1775148217,"current_range_meters":6800,"station_id":"st_cvj6sg6p6f1abm77japg","pricing_plan_id":"cebpf4jnsgd1na2vs0mg"},{"bike_id":"793b472f-3246-4295-8dc2-cf0dac98a9ac","system_id":"levelo_inurba_marseille","lat":43.29555,"lon":5.39092,"is_reserved":false,"is_disabled":false,"rental_uris":{"android":"levelo://app?vid=793b472f-3246-4295-8dc2-cf0dac98a9ac","ios":"levelo://app?vid=793b472f-3246-4295-8dc2-cf0dac98a9ac"},"vehicle_type_id":"4","last_reported":1775148217,"current_range_meters":6800,"station_id":"","pricing_plan_id":"cebpf4jnsgd1na2vs0mg"},{"bike_id":"fc2e91ed-7416-4ad4-908c-4d6cf0d24d2b","system_id":"levelo_inurba_marseille","lat":43.28144,"lon":5.38309,"is_reserved":false,"is_disabled":false,"rental_uris":{"android":"levelo://app?vid=fc2e91ed-7416-4ad4-908c-4d6cf0d24d2b","ios":"levelo://app?vid=fc2e91ed-7416-4ad4-908c-4d6cf0d24d2b"},"vehicle_type_id":"4","last_reported":1775148217,"current_range_meters":6800,"station_id":"","pricing_plan_id":"cebpf4jnsgd1na2vs0mg"},{"bike_id":"38229089-2eba-460d-8fa7-69cd48d52f91","system_id":"levelo_inurba_marseille","lat":43.28869,"lon":5.42515,"is_reserved":false,"is_disabled":false,"rental_uris":{"android":"levelo://app?vid=38229089-2eba-460d-8fa7-69cd48d52f91","ios":"levelo://app?vid=38229089-2eba-460d-8fa7-69cd48d52f91"},"vehicle_type_id":"4","last_reported":1775148217,"current_range_meters":6800,"station_id":"st_d3b462108ojc7389ooeg","pricing_plan_id":"cebpf4jnsgd1na2vs0mg"},{"bike_id":"e2d4538e-989f-404e-b5fb-58cfe29ddc03","system_id":"levelo_inurba_marseille","lat":43.24462,"lon":5.42538,"is_reserved":false,"is_disabled":false,"rental_uris":{"android":"levelo://app?vid=e2d4538e-989f-404e-b5fb-58cfe29ddc03","ios":"levelo://app?vid=e2d4538e-989f-404e-b5fb-58cfe29ddc03"},"vehicle_type_id":"4","last_reported":1775148217,"current_range_meters":6800,"station_id":"st_d4a3vfp97mjs738cd8kg","pricing_plan_id":"cebpf4jnsgd1na2vs0mg"},{"bike_id":"33d8fe3b-51df-4371-9ad9-0047c21810bc","system_id":"levelo_inurba_marseille","lat":43.2927,"lon":5.3844,"is_reserved":false,"is_disabled":false,"rental_uris":{"android":"levelo://app?vid=33d8fe3b-51df-4371-9ad9-0047c21810bc","ios":"levelo://app?vid=33d8fe3b-51df-4371-9ad9-0047c21810bc"},"vehicle_type_id":"4","last_reported":1775148217,"current_range_meters":6800,"station_id":"ce4bh692rcd13ifvqea0","pricing_plan_id":"cebpf4jnsgd1na2vs0mg"},{"bike_id":"2820c4fb-7e4b-409a-aede-4faa3f27252f","system_id":"levelo_inurba_marseille","lat":43.29781,"lon":5.371083,"is_reserved":false,"is_disabled":false,"rental_uris":{"android":"levelo://app?vid=2820c4fb-7e4b-409a-aede-4faa3f27252f","ios":"levelo://app?vid=2820c4fb-7e4b-409a-aede-4faa3f27252f"},"vehicle_type_id":"4","last_reported":1775148217,"current_range_meters":6800,"station_id":"ce4bgop2rcd13ifvqc1g","pricing_plan_id":"cebpf4jnsgd1na2vs0mg"},{"bike_id":"6535518c-804f-447b-a494-407b4e1dbc8e","system_id":"levelo_inurba_marseille","lat":43.31288,"lon":5.36836,"is_reserved":false,"is_disabled":false,"rental_uris":{"android":"levelo://app?vid=6535518c-804f-447b-a494-407b4e1dbc8e","ios":"levelo://app?vid=6535518c-804f-447b-a494-407b4e1dbc8e"},"vehicle_type_id":"4","last_reported":1775148217,"current_range_meters":6800,"station_id":"ce4bgl92rcd13ifvqbq0","pricing_plan_id":"cebpf4jnsgd1na2vs0mg"},{"bike_id":"70fc6236-eec0-4af8-a5cc-e026be56b5e0","system_id":"levelo_inurba_marseille","lat":43.27947,"lon":5.41043,"is_reserved":false,"is_disabled":false,"rental_uris":{"android":"levelo://app?vid=70fc6236-eec0-4af8-a5cc-e026be56b5e0","ios":"levelo://app?vid=70fc6236-eec0-4af8-a5cc-e026be56b5e0"},"vehicle_type_id":"4","last_reported":1775148217,"current_range_meters":6800,"station_id":"ce4bhnp2rcd13ifvqh0g","pricing_plan_id":"cebpf4jnsgd1na2vs0mg"},{"bike_id":"7d8f3bc3-46ff-4802-82b9-2bf86ded1c15","system_id":"levelo_inurba_marseille","lat":43.33743,"lon":5.37477,"is_reserved":false,"is_disabled":true,"rental_uris":{"android":"levelo://app?vid=7d8f3bc3-46ff-4802-82b9-2bf86ded1c15","ios":"levelo://app?vid=7d8f3bc3-46ff-4802-82b9-2bf86ded1c15"},"vehicle_type_id":"4","last_reported":1775148217,"current_range_meters":6800,"station_id":"","pricing_plan_id":"cebpf4jnsgd1na2vs0mg"},{"bike_id":"636a9d07-7519-419f-befa-c91693c170ab","system_id":"levelo_inurba_marseille","lat":43.25079,"lon":5.39523,"is_reserved":false,"is_disabled":false,"rental_uris":{"android":"levelo://app?vid=636a9d07-7519-419f-befa-c91693c170ab","ios":"levelo://app?vid=636a9d07-7519-419f-befa-c91693c170ab"},"vehicle_type_id":"4","last_reported":1775148217,"current_range_meters":6800,"station_id":"ce4bhm12rcd13ifvqgkg","pricing_plan_id":"cebpf4jnsgd1na2vs0mg"},{"bike_id":"fc6395ad-d62f-4a87-ac5d-6a2edf2e75a8","system_id":"levelo_inurba_marseille","lat":43.31262,"lon":5.36739,"is_reserved":false,"is_disabled":false,"rental_uris":{"android":"levelo://app?vid=fc6395ad-d62f-4a87-ac5d-6a2edf2e75a8","ios":"levelo://app?vid=fc6395ad-d62f-4a87-ac5d-6a2edf2e75a8"},"vehicle_type_id":"4","last_reported":1775148217,"current_range_meters":6800,"station_id":"ce4bgr92rcd13ifvqc6g","pricing_plan_id":"cebpf4jnsgd1na2vs0mg"},{"bike_id":"a281e3d6-c990-47df-9792-3470b2b1d389","system_id":"levelo_inurba_marseille","lat":43.25582,"lon":5.38223,"is_reserved":false,"is_disabled":false,"rental_uris":{"android":"levelo://app?vid=a281e3d6-c990-47df-9792-3470b2b1d389","ios":"levelo://app?vid=a281e3d6-c990-47df-9792-3470b2b1d389"},"vehicle_type_id":"4","last_reported":1775148217,"current_range_meters":6800,"station_id":"ce4bhih2rcd13ifvqfs0","pricing_plan_id":"cebpf4jnsgd1na2vs0mg"},{"bike_id":"b5e099d3-5984-48f4-9d59-9272ed1d972e","system_id":"levelo_inurba_marseille","lat":43.29374,"lon":5.37836,"is_reserved":false,"is_disabled":false,"rental_uris":{"android":"levelo://app?vid=b5e099d3-5984-48f4-9d59-9272ed1d972e","ios":"levelo://app?vid=b5e099d3-5984-48f4-9d59-9272ed1d972e"},"vehicle_type_id":"4","last_reported":1775148217,"current_range_meters":6800,"station_id":"ce4bgjh2rcd13ifvqbf0","pricing_plan_id":"cebpf4jnsgd1na2vs0mg"},{"bike_id":"a3e023e2-d4d4-4709-b2ae-04a06b5ecc63","system_id":"levelo_inurba_marseille","lat":43.22558,"lon":5.41638,"is_reserved":false,"is_disabled":false,"rental_uris":{"android":"levelo://app?vid=a3e023e2-d4d4-4709-b2ae-04a06b5ecc63","ios":"levelo://app?vid=a3e023e2-d4d4-4709-b2ae-04a06b5ecc63"},"vehicle_type_id":"4","last_reported":1775148217,"current_range_meters":6800,"station_id":"st_d2o4gvlbi1j2169b742g","pricing_plan_id":"cebpf4jnsgd1na2vs0mg"},{"bike_id":"fe0a3fa3-1a01-4338-919a-e9d1fe0b671b","system_id":"levelo_inurba_marseille","lat":43.26678,"lon":5.38264,"is_reserved":false,"is_disabled":false,"rental_uris":{"android":"levelo://app?vid=fe0a3fa3-1a01-4338-919a-e9d1fe0b671b","ios":"levelo://app?vid=fe0a3fa3-1a01-4338-919a-e9d1fe0b671b"},"vehicle_type_id":"4","last_reported":1775148217,"current_range_meters":6800,"station_id":"ce4bhg92rcd13ifvqf90","pricing_plan_id":"cebpf4jnsgd1na2vs0mg"},{"bike_id":"a0a1c86e-5fa0-4e0f-a8f2-d2edfc092585","system_id":"levelo_inurba_marseille","lat":43.281,"lon":5.37823,"is_reserved":false,"is_disabled":false,"rental_uris":{"android":"levelo://app?vid=a0a1c86e-5fa0-4e0f-a8f2-d2edfc092585","ios":"levelo://app?vid=a0a1c86e-5fa0-4e0f-a8f2-d2edfc092585"},"vehicle_type_id":"4","last_reported":1775148217,"current_range_meters":6800,"station_id":"ce4bha12rcd13ifvqee0","pricing_plan_id":"cebpf4jnsgd1na2vs0mg"},{"bike_id":"59af559a-c64a-4a65-8006-da8e36a6f86b","system_id":"levelo_inurba_marseille","lat":43.33538,"lon":5.37462,"is_reserved":false,"is_disabled":false,"rental_uris":{"android":"levelo://app?vid=59af559a-c64a-4a65-8006-da8e36a6f86b","ios":"levelo://app?vid=59af559a-c64a-4a65-8006-da8e36a6f86b"},"vehicle_type_id":"4","last_reported":1775148217,"current_range_meters":6800,"station_id":"st_d46tts09ee8s73dlu43g","pricing_plan_id":"cebpf4jnsgd1na2vs0mg"},{"bike_id":"af88c590-127e-42ae-93a1-aadb2ddc57db","system_id":"levelo_inurba_marseille","lat":43.29012,"lon":5.35617,"is_reserved":false,"is_disabled":false,"rental_uris":{"android":"levelo://app?vid=af88c590-127e-42ae-93a1-aadb2ddc57db","ios":"levelo://app?vid=af88c590-127e-42ae-93a1-aadb2ddc57db"},"vehicle_type_id":"4","last_reported":1775148217,"current_range_meters":6800,"station_id":"ce4bhb92rcd13ifvqen0","pricing_plan_id":"cebpf4jnsgd1na2vs0mg"},{"bike_id":"2c9913a6-624a-40a6-a028-bc5e9a3b5a20","system_id":"levelo_inurba_marseille","lat":43.30661,"lon":5.40082,"is_reserved":false,"is_disabled":false,"rental_uris":{"android":"levelo://app?vid=2c9913a6-624a-40a6-a028-bc5e9a3b5a20","ios":"levelo://app?vid=2c9913a6-624a-40a6-a028-bc5e9a3b5a20"},"vehicle_type_id":"4","last_reported":1775148217,"current_range_meters":6800,"station_id":"ce4bh112rcd13ifvqda0","pricing_plan_id":"cebpf4jnsgd1na2vs0mg"},{"bike_id":"3af5d67e-c84e-4eb5-b12f-14ee4912bccd","system_id":"levelo_inurba_marseille","lat":43.31489,"lon":5.37309,"is_reserved":false,"is_disabled":false,"rental_uris":{"android":"levelo://app?vid=3af5d67e-c84e-4eb5-b12f-14ee4912bccd","ios":"levelo://app?vid=3af5d67e-c84e-4eb5-b12f-14ee4912bccd"},"vehicle_type_id":"4","last_reported":1775148217,"current_range_meters":6800,"station_id":"ce4bgt12rcd13ifvqcd0","pricing_plan_id":"cebpf4jnsgd1na2vs0mg"},{"bike_id":"ba33614c-a307-4e62-b0d9-643b797f7d62","system_id":"levelo_inurba_marseille","lat":43.30211,"lon":5.3855,"is_reserved":false,"is_disabled":false,"rental_uris":{"android":"levelo://app?vid=ba33614c-a307-4e62-b0d9-643b797f7d62","ios":"levelo://app?vid=ba33614c-a307-4e62-b0d9-643b797f7d62"},"vehicle_type_id":"4","last_reported":1775148217,"current_range_meters":6800,"station_id":"","pricing_plan_id":"cebpf4jnsgd1na2vs0mg"},{"bike_id":"dbd2a994-6554-4d42-815b-2cddec5cb9e8","system_id":"levelo_inurba_marseille","lat":43.24827,"lon":5.37476,"is_reserved":false,"is_disabled":false,"rental_uris":{"android":"levelo://app?vid=dbd2a994-6554-4d42-815b-2cddec5cb9e8","ios":"levelo://app?vid=dbd2a994-6554-4d42-815b-2cddec5cb9e8"},"vehicle_type_id":"4","last_reported":1775148217,"current_range_meters":6800,"station_id":"ce4bhgh2rcd13ifvqfb0","pricing_plan_id":"cebpf4jnsgd1na2vs0mg"},{"bike_id":"bb435da3-856a-4144-9704-d052e66aeded","system_id":"levelo_inurba_marseille","lat":43.33155,"lon":5.37701,"is_reserved":false,"is_disabled":false,"rental_uris":{"android":"levelo://app?vid=bb435da3-856a-4144-9704-d052e66aeded","ios":"levelo://app?vid=bb435da3-856a-4144-9704-d052e66aeded"},"vehicle_type_id":"4","last_reported":1775148217,"current_range_meters":6800,"station_id":"st_d46cu089ee8s73dldbu0","pricing_plan_id":"cebpf4jnsgd1na2vs0mg"},{"bike_id":"63e9c27e-df35-4221-a72b-372775ab28af","system_id":"levelo_inurba_marseille","lat":43.24644,"lon":5.38892,"is_reserved":false,"is_disabled":false,"rental_uris":{"android":"levelo://app?vid=63e9c27e-df35-4221-a72b-372775ab28af","ios":"levelo://app?vid=63e9c27e-df35-4221-a72b-372775ab28af"},"vehicle_type_id":"4","last_reported":1775148217,"current_range_meters":6800,"station_id":"ce4bhg12rcd13ifvqf60","pricing_plan_id":"cebpf4jnsgd1na2vs0mg"},{"bike_id":"55c74f62-059e-420c-a82f-9ceb661cd71c","system_id":"levelo_inurba_marseille","lat":43.28978,"lon":5.37833,"is_reserved":false,"is_disabled":false,"rental_uris":{"android":"levelo://app?vid=55c74f62-059e-420c-a82f-9ceb661cd71c","ios":"levelo://app?vid=55c74f62-059e-420c-a82f-9ceb661cd71c"},"vehicle_type_id":"4","last_reported":1775148217,"current_range_meters":6800,"station_id":"ce4bh9p2rcd13ifvqed0","pricing_plan_id":"cebpf4jnsgd1na2vs0mg"},{"bike_id":"2e4810cd-c6fa-46ee-a5b8-761d7d161964","system_id":"levelo_inurba_marseille","lat":43.28464,"lon":5.38847,"is_reserved":false,"is_disabled":false,"rental_uris":{"android":"levelo://app?vid=2e4810cd-c6fa-46ee-a5b8-761d7d161964","ios":"levelo://app?vid=2e4810cd-c6fa-46ee-a5b8-761d7d161964"},"vehicle_type_id":"4","last_reported":1775148217,"current_range_meters":6800,"station_id":"","pricing_plan_id":"cebpf4jnsgd1na2vs0mg"},{"bike_id":"094d9b13-1962-4687-a19b-a28fbe36c836","system_id":"levelo_inurba_marseille","lat":43.30275,"lon":5.36828,"is_reserved":false,"is_disabled":false,"rental_uris":{"android":"levelo://app?vid=094d9b13-1962-4687-a19b-a28fbe36c836","ios":"levelo://app?vid=094d9b13-1962-4687-a19b-a28fbe36c836"},"vehicle_type_id":"4","last_reported":1775148217,"current_range_meters":7200,"station_id":"","pricing_plan_id":"cebpf4jnsgd1na2vs0mg"},{"bike_id":"905289e5-7113-4e8f-9100-1778260d107a","system_id":"levelo_inurba_marseille","lat":43.24403,"lon":5.37062,"is_reserved":false,"is_disabled":false,"rental_uris":{"android":"levelo://app?vid=905289e5-7113-4e8f-9100-1778260d107a","ios":"levelo://app?vid=905289e5-7113-4e8f-9100-1778260d107a"},"vehicle_type_id":"4","last_reported":1775148217,"current_range_meters":7200,"station_id":"ce4bhhh2rcd13ifvqfk0","pricing_plan_id":"cebpf4jnsgd1na2vs0mg"},{"bike_id":"a26e0612-5996-4080-8567-451a7c6785da","system_id":"levelo_inurba_marseille","lat":43.28483,"lon":5.4839,"is_reserved":false,"is_disabled":false,"rental_uris":{"android":"levelo://app?vid=a26e0612-5996-4080-8567-451a7c6785da","ios":"levelo://app?vid=a26e0612-5996-4080-8567-451a7c6785da"},"vehicle_type_id":"4","last_reported":1775148217,"current_range_meters":7200,"station_id":"","pricing_plan_id":"cebpf4jnsgd1na2vs0mg"},{"bike_id":"baaa819f-f621-4bbc-b8f6-009cbb2eb24c","system_id":"levelo_inurba_marseille","lat":43.23189,"lon":5.35547,"is_reserved":false,"is_disabled":false,"rental_uris":{"android":"levelo://app?vid=baaa819f-f621-4bbc-b8f6-009cbb2eb24c","ios":"levelo://app?vid=baaa819f-f621-4bbc-b8f6-009cbb2eb24c"},"vehicle_type_id":"4","last_reported":1775148217,"current_range_meters":7200,"station_id":"ce4bhu92rcd13ifvqi70","pricing_plan_id":"cebpf4jnsgd1na2vs0mg"},{"bike_id":"4662ce83-961a-43fe-b5d2-6ce767222e0c","system_id":"levelo_inurba_marseille","lat":43.28623,"lon":5.35117,"is_reserved":false,"is_disabled":false,"rental_uris":{"android":"levelo://app?vid=4662ce83-961a-43fe-b5d2-6ce767222e0c","ios":"levelo://app?vid=4662ce83-961a-43fe-b5d2-6ce767222e0c"},"vehicle_type_id":"4","last_reported":1775148217,"current_range_meters":7200,"station_id":"ce4bhch2rcd13ifvqeug","pricing_plan_id":"cebpf4jnsgd1na2vs0mg"},{"bike_id":"6f266924-cb31-4a64-a9db-e6d39bc5e6c5","system_id":"levelo_inurba_marseille","lat":43.25003,"lon":5.38927,"is_reserved":false,"is_disabled":false,"rental_uris":{"android":"levelo://app?vid=6f266924-cb31-4a64-a9db-e6d39bc5e6c5","ios":"levelo://app?vid=6f266924-cb31-4a64-a9db-e6d39bc5e6c5"},"vehicle_type_id":"4","last_reported":1775148217,"current_range_meters":7200,"station_id":"ce4bhgp2rcd13ifvqfd0","pricing_plan_id":"cebpf4jnsgd1na2vs0mg"},{"bike_id":"993554b6-0de0-483c-81a8-74355d0900be","system_id":"levelo_inurba_marseille","lat":43.29641,"lon":5.38104,"is_reserved":false,"is_disabled":false,"rental_uris":{"android":"levelo://app?vid=993554b6-0de0-483c-81a8-74355d0900be","ios":"levelo://app?vid=993554b6-0de0-483c-81a8-74355d0900be"},"vehicle_type_id":"4","last_reported":1775148217,"current_range_meters":7200,"station_id":"ce4bgl12rcd13ifvqbo0","pricing_plan_id":"cebpf4jnsgd1na2vs0mg"},{"bike_id":"7454e20f-aeeb-429e-8370-29d207e4b480","system_id":"levelo_inurba_marseille","lat":43.25491,"lon":5.37645,"is_reserved":false,"is_disabled":false,"rental_uris":{"android":"levelo://app?vid=7454e20f-aeeb-429e-8370-29d207e4b480","ios":"levelo://app?vid=7454e20f-aeeb-429e-8370-29d207e4b480"},"vehicle_type_id":"4","last_reported":1775148217,"current_range_meters":7200,"station_id":"ce4bhh12rcd13ifvqff0","pricing_plan_id":"cebpf4jnsgd1na2vs0mg"},{"bike_id":"229f0e67-0671-4c17-8f2a-9394f3ccb1c5","system_id":"levelo_inurba_marseille","lat":43.24412,"lon":5.37026,"is_reserved":false,"is_disabled":false,"rental_uris":{"android":"levelo://app?vid=229f0e67-0671-4c17-8f2a-9394f3ccb1c5","ios":"levelo://app?vid=229f0e67-0671-4c17-8f2a-9394f3ccb1c5"},"vehicle_type_id":"4","last_reported":1775148217,"current_range_meters":7200,"station_id":"ce4bhhh2rcd13ifvqfk0","pricing_plan_id":"cebpf4jnsgd1na2vs0mg"},{"bike_id":"2821d6b0-26b2-47c1-a75a-c38c967d84c8","system_id":"levelo_inurba_marseille","lat":43.28002,"lon":5.41687,"is_reserved":false,"is_disabled":false,"rental_uris":{"android":"levelo://app?vid=2821d6b0-26b2-47c1-a75a-c38c967d84c8","ios":"levelo://app?vid=2821d6b0-26b2-47c1-a75a-c38c967d84c8"},"vehicle_type_id":"4","last_reported":1775148217,"current_range_meters":7200,"station_id":"ce4bho12rcd13ifvqh1g","pricing_plan_id":"cebpf4jnsgd1na2vs0mg"},{"bike_id":"065a62fb-9f98-47c4-b7da-93871e76ad58","system_id":"levelo_inurba_marseille","lat":43.28356,"lon":5.38104,"is_reserved":false,"is_disabled":false,"rental_uris":{"android":"levelo://app?vid=065a62fb-9f98-47c4-b7da-93871e76ad58","ios":"levelo://app?vid=065a62fb-9f98-47c4-b7da-93871e76ad58"},"vehicle_type_id":"4","last_reported":1775148217,"current_range_meters":7200,"station_id":"ce4bh412rcd13ifvqdr0","pricing_plan_id":"cebpf4jnsgd1na2vs0mg"},{"bike_id":"2eb685dc-d4f9-46ec-9872-316c66dab224","system_id":"levelo_inurba_marseille","lat":43.24172,"lon":5.36394,"is_reserved":false,"is_disabled":false,"rental_uris":{"android":"levelo://app?vid=2eb685dc-d4f9-46ec-9872-316c66dab224","ios":"levelo://app?vid=2eb685dc-d4f9-46ec-9872-316c66dab224"},"vehicle_type_id":"4","last_reported":1775148217,"current_range_meters":7200,"station_id":"cpo36qri1sfpv3e86is0","pricing_plan_id":"cebpf4jnsgd1na2vs0mg"},{"bike_id":"ff259b83-c24b-48cf-bb19-caebf228d015","system_id":"levelo_inurba_marseille","lat":43.24379,"lon":5.371,"is_reserved":false,"is_disabled":false,"rental_uris":{"android":"levelo://app?vid=ff259b83-c24b-48cf-bb19-caebf228d015","ios":"levelo://app?vid=ff259b83-c24b-48cf-bb19-caebf228d015"},"vehicle_type_id":"4","last_reported":1775148217,"current_range_meters":7200,"station_id":"ce4bhhh2rcd13ifvqfk0","pricing_plan_id":"cebpf4jnsgd1na2vs0mg"},{"bike_id":"f62ff8d5-3d47-4bb4-906e-344e9b5207aa","system_id":"levelo_inurba_marseille","lat":43.21202,"lon":5.35065,"is_reserved":false,"is_disabled":false,"rental_uris":{"android":"levelo://app?vid=f62ff8d5-3d47-4bb4-906e-344e9b5207aa","ios":"levelo://app?vid=f62ff8d5-3d47-4bb4-906e-344e9b5207aa"},"vehicle_type_id":"4","last_reported":1775148217,"current_range_meters":7200,"station_id":"st_cvj6sg6p6f1abm77japg","pricing_plan_id":"cebpf4jnsgd1na2vs0mg"},{"bike_id":"13713002-484d-442d-8d88-c09ee25b68e4","system_id":"levelo_inurba_marseille","lat":43.27806,"lon":5.42356,"is_reserved":false,"is_disabled":false,"rental_uris":{"android":"levelo://app?vid=13713002-484d-442d-8d88-c09ee25b68e4","ios":"levelo://app?vid=13713002-484d-442d-8d88-c09ee25b68e4"},"vehicle_type_id":"4","last_reported":1775148217,"current_range_meters":7200,"station_id":"","pricing_plan_id":"cebpf4jnsgd1na2vs0mg"},{"bike_id":"dd13b54f-9470-4529-ad98-6d5e8bf6d86d","system_id":"levelo_inurba_marseille","lat":43.32057,"lon":5.41546,"is_reserved":false,"is_disabled":false,"rental_uris":{"android":"levelo://app?vid=dd13b54f-9470-4529-ad98-6d5e8bf6d86d","ios":"levelo://app?vid=dd13b54f-9470-4529-ad98-6d5e8bf6d86d"},"vehicle_type_id":"4","last_reported":1775148217,"current_range_meters":7200,"station_id":"ce4bhq92rcd13ifvqhkg","pricing_plan_id":"cebpf4jnsgd1na2vs0mg"},{"bike_id":"49d02932-c23b-4a6c-a2b4-a9f1400b1d26","system_id":"levelo_inurba_marseille","lat":43.25767,"lon":5.41075,"is_reserved":false,"is_disabled":false,"rental_uris":{"android":"levelo://app?vid=49d02932-c23b-4a6c-a2b4-a9f1400b1d26","ios":"levelo://app?vid=49d02932-c23b-4a6c-a2b4-a9f1400b1d26"},"vehicle_type_id":"4","last_reported":1775148217,"current_range_meters":7200,"station_id":"","pricing_plan_id":"cebpf4jnsgd1na2vs0mg"},{"bike_id":"522fc102-4edd-43cc-a67c-66222ad82f02","system_id":"levelo_inurba_marseille","lat":43.31345,"lon":5.40328,"is_reserved":false,"is_disabled":false,"rental_uris":{"android":"levelo://app?vid=522fc102-4edd-43cc-a67c-66222ad82f02","ios":"levelo://app?vid=522fc102-4edd-43cc-a67c-66222ad82f02"},"vehicle_type_id":"4","last_reported":1775148217,"current_range_meters":7200,"station_id":"","pricing_plan_id":"cebpf4jnsgd1na2vs0mg"},{"bike_id":"f3cb88da-f447-4248-b446-19573b7f0925","system_id":"levelo_inurba_marseille","lat":43.25343,"lon":5.42175,"is_reserved":false,"is_disabled":false,"rental_uris":{"android":"levelo://app?vid=f3cb88da-f447-4248-b446-19573b7f0925","ios":"levelo://app?vid=f3cb88da-f447-4248-b446-19573b7f0925"},"vehicle_type_id":"4","last_reported":1775148217,"current_range_meters":7200,"station_id":"st_d2m65c5bi1j21697t3ng","pricing_plan_id":"cebpf4jnsgd1na2vs0mg"},{"bike_id":"1d92dec5-88a1-4f6e-bd5f-0d081647078c","system_id":"levelo_inurba_marseille","lat":43.24658,"lon":5.38126,"is_reserved":false,"is_disabled":false,"rental_uris":{"android":"levelo://app?vid=1d92dec5-88a1-4f6e-bd5f-0d081647078c","ios":"levelo://app?vid=1d92dec5-88a1-4f6e-bd5f-0d081647078c"},"vehicle_type_id":"4","last_reported":1775148217,"current_range_meters":7200,"station_id":"ce4bhih2rcd13ifvqfr0","pricing_plan_id":"cebpf4jnsgd1na2vs0mg"},{"bike_id":"c48c743e-a568-49ee-8b62-b869013c8254","system_id":"levelo_inurba_marseille","lat":43.29535,"lon":5.39402,"is_reserved":false,"is_disabled":false,"rental_uris":{"android":"levelo://app?vid=c48c743e-a568-49ee-8b62-b869013c8254","ios":"levelo://app?vid=c48c743e-a568-49ee-8b62-b869013c8254"},"vehicle_type_id":"4","last_reported":1775148217,"current_range_meters":7200,"station_id":"ce4bh292rcd13ifvqdf0","pricing_plan_id":"cebpf4jnsgd1na2vs0mg"},{"bike_id":"7a5a210d-61fc-4d03-a557-eb846b17279b","system_id":"levelo_inurba_marseille","lat":43.28605,"lon":5.44605,"is_reserved":false,"is_disabled":false,"rental_uris":{"android":"levelo://app?vid=7a5a210d-61fc-4d03-a557-eb846b17279b","ios":"levelo://app?vid=7a5a210d-61fc-4d03-a557-eb846b17279b"},"vehicle_type_id":"4","last_reported":1775148217,"current_range_meters":7200,"station_id":"","pricing_plan_id":"cebpf4jnsgd1na2vs0mg"},{"bike_id":"5a04ac0a-e794-433d-845f-7f49f3fdb206","system_id":"levelo_inurba_marseille","lat":43.25335,"lon":5.42166,"is_reserved":false,"is_disabled":false,"rental_uris":{"android":"levelo://app?vid=5a04ac0a-e794-433d-845f-7f49f3fdb206","ios":"levelo://app?vid=5a04ac0a-e794-433d-845f-7f49f3fdb206"},"vehicle_type_id":"4","last_reported":1775148217,"current_range_meters":7200,"station_id":"st_d2m65c5bi1j21697t3ng","pricing_plan_id":"cebpf4jnsgd1na2vs0mg"},{"bike_id":"c0244268-1300-41a7-9a33-8160575e0bc7","system_id":"levelo_inurba_marseille","lat":43.23202,"lon":5.35566,"is_reserved":false,"is_disabled":false,"rental_uris":{"android":"levelo://app?vid=c0244268-1300-41a7-9a33-8160575e0bc7","ios":"levelo://app?vid=c0244268-1300-41a7-9a33-8160575e0bc7"},"vehicle_type_id":"4","last_reported":1775148217,"current_range_meters":7200,"station_id":"ce4bhu92rcd13ifvqi70","pricing_plan_id":"cebpf4jnsgd1na2vs0mg"},{"bike_id":"396c351a-3dd4-4b00-ac12-dbdbfbc822cd","system_id":"levelo_inurba_marseille","lat":43.30538,"lon":5.38426,"is_reserved":false,"is_disabled":false,"rental_uris":{"android":"levelo://app?vid=396c351a-3dd4-4b00-ac12-dbdbfbc822cd","ios":"levelo://app?vid=396c351a-3dd4-4b00-ac12-dbdbfbc822cd"},"vehicle_type_id":"4","last_reported":1775148217,"current_range_meters":7200,"station_id":"ce4bgg92rcd13ifvqb30","pricing_plan_id":"cebpf4jnsgd1na2vs0mg"},{"bike_id":"b17c4f99-f264-4929-869c-2e7e7176ce13","system_id":"levelo_inurba_marseille","lat":43.28684,"lon":5.38654,"is_reserved":false,"is_disabled":true,"rental_uris":{"android":"levelo://app?vid=b17c4f99-f264-4929-869c-2e7e7176ce13","ios":"levelo://app?vid=b17c4f99-f264-4929-869c-2e7e7176ce13"},"vehicle_type_id":"4","last_reported":1775148217,"current_range_meters":7200,"station_id":"ce4bh492rcd13ifvqdug","pricing_plan_id":"cebpf4jnsgd1na2vs0mg"},{"bike_id":"53f1d28b-559d-4aa7-a3f8-4e3935f7c03a","system_id":"levelo_inurba_marseille","lat":43.3063,"lon":5.42935,"is_reserved":false,"is_disabled":false,"rental_uris":{"android":"levelo://app?vid=53f1d28b-559d-4aa7-a3f8-4e3935f7c03a","ios":"levelo://app?vid=53f1d28b-559d-4aa7-a3f8-4e3935f7c03a"},"vehicle_type_id":"4","last_reported":1775148217,"current_range_meters":7200,"station_id":"","pricing_plan_id":"cebpf4jnsgd1na2vs0mg"},{"bike_id":"38e80db4-bc42-4997-b4ea-cbcf8cf47de9","system_id":"levelo_inurba_marseille","lat":43.29875,"lon":5.39734,"is_reserved":false,"is_disabled":false,"rental_uris":{"android":"levelo://app?vid=38e80db4-bc42-4997-b4ea-cbcf8cf47de9","ios":"levelo://app?vid=38e80db4-bc42-4997-b4ea-cbcf8cf47de9"},"vehicle_type_id":"4","last_reported":1775148217,"current_range_meters":8000,"station_id":"ce4bh0h2rcd13ifvqd50","pricing_plan_id":"cebpf4jnsgd1na2vs0mg"},{"bike_id":"87e346fe-57ff-40e1-bc30-332765acdf33","system_id":"levelo_inurba_marseille","lat":43.22933,"lon":5.35381,"is_reserved":false,"is_disabled":false,"rental_uris":{"android":"levelo://app?vid=87e346fe-57ff-40e1-bc30-332765acdf33","ios":"levelo://app?vid=87e346fe-57ff-40e1-bc30-332765acdf33"},"vehicle_type_id":"4","last_reported":1775148217,"current_range_meters":8000,"station_id":"cpo3532slgdg3j2ikp40","pricing_plan_id":"cebpf4jnsgd1na2vs0mg"},{"bike_id":"832873a7-0d8c-4b94-98bd-0b0e93271fb8","system_id":"levelo_inurba_marseille","lat":43.29272,"lon":5.38433,"is_reserved":false,"is_disabled":true,"rental_uris":{"android":"levelo://app?vid=832873a7-0d8c-4b94-98bd-0b0e93271fb8","ios":"levelo://app?vid=832873a7-0d8c-4b94-98bd-0b0e93271fb8"},"vehicle_type_id":"4","last_reported":1775148217,"current_range_meters":8000,"station_id":"ce4bh692rcd13ifvqea0","pricing_plan_id":"cebpf4jnsgd1na2vs0mg"},{"bike_id":"ed2bc61f-72aa-4fa8-b592-aa4e71f2e4da","system_id":"levelo_inurba_marseille","lat":43.22539,"lon":5.34822,"is_reserved":false,"is_disabled":false,"rental_uris":{"android":"levelo://app?vid=ed2bc61f-72aa-4fa8-b592-aa4e71f2e4da","ios":"levelo://app?vid=ed2bc61f-72aa-4fa8-b592-aa4e71f2e4da"},"vehicle_type_id":"4","last_reported":1775148217,"current_range_meters":8000,"station_id":"st_cvj5dfep6f1abm77gieg","pricing_plan_id":"cebpf4jnsgd1na2vs0mg"},{"bike_id":"ebf8d41b-af9e-48cd-b4ac-c559138fc501","system_id":"levelo_inurba_marseille","lat":43.2413,"lon":5.36417,"is_reserved":false,"is_disabled":false,"rental_uris":{"android":"levelo://app?vid=ebf8d41b-af9e-48cd-b4ac-c559138fc501","ios":"levelo://app?vid=ebf8d41b-af9e-48cd-b4ac-c559138fc501"},"vehicle_type_id":"4","last_reported":1775148217,"current_range_meters":8000,"station_id":"cpo36qri1sfpv3e86is0","pricing_plan_id":"cebpf4jnsgd1na2vs0mg"},{"bike_id":"8ad91a42-b4c8-4044-99d3-7cbe628645b3","system_id":"levelo_inurba_marseille","lat":43.2257,"lon":5.41632,"is_reserved":false,"is_disabled":false,"rental_uris":{"android":"levelo://app?vid=8ad91a42-b4c8-4044-99d3-7cbe628645b3","ios":"levelo://app?vid=8ad91a42-b4c8-4044-99d3-7cbe628645b3"},"vehicle_type_id":"4","last_reported":1775148217,"current_range_meters":8000,"station_id":"st_d2o4gvlbi1j2169b742g","pricing_plan_id":"cebpf4jnsgd1na2vs0mg"},{"bike_id":"9b76a430-1715-4bdf-ba95-ccb004ee3579","system_id":"levelo_inurba_marseille","lat":43.2728,"lon":5.39143,"is_reserved":false,"is_disabled":false,"rental_uris":{"android":"levelo://app?vid=9b76a430-1715-4bdf-ba95-ccb004ee3579","ios":"levelo://app?vid=9b76a430-1715-4bdf-ba95-ccb004ee3579"},"vehicle_type_id":"4","last_reported":1775148217,"current_range_meters":8000,"station_id":"","pricing_plan_id":"cebpf4jnsgd1na2vs0mg"},{"bike_id":"4806d180-f360-4add-becf-82d18feb28c6","system_id":"levelo_inurba_marseille","lat":43.32672,"lon":5.38711,"is_reserved":false,"is_disabled":false,"rental_uris":{"android":"levelo://app?vid=4806d180-f360-4add-becf-82d18feb28c6","ios":"levelo://app?vid=4806d180-f360-4add-becf-82d18feb28c6"},"vehicle_type_id":"4","last_reported":1775148217,"current_range_meters":8000,"station_id":"","pricing_plan_id":"cebpf4jnsgd1na2vs0mg"},{"bike_id":"0cfb8b93-62d3-455d-8ddc-2a098cd03197","system_id":"levelo_inurba_marseille","lat":43.32377,"lon":5.36758,"is_reserved":false,"is_disabled":false,"rental_uris":{"android":"levelo://app?vid=0cfb8b93-62d3-455d-8ddc-2a098cd03197","ios":"levelo://app?vid=0cfb8b93-62d3-455d-8ddc-2a098cd03197"},"vehicle_type_id":"4","last_reported":1775148217,"current_range_meters":8000,"station_id":"ce4bhsh2rcd13ifvqi2g","pricing_plan_id":"cebpf4jnsgd1na2vs0mg"},{"bike_id":"f98e4f88-8b4b-4518-8d83-cba82e19aac5","system_id":"levelo_inurba_marseille","lat":43.2953,"lon":5.3867,"is_reserved":false,"is_disabled":false,"rental_uris":{"android":"levelo://app?vid=f98e4f88-8b4b-4518-8d83-cba82e19aac5","ios":"levelo://app?vid=f98e4f88-8b4b-4518-8d83-cba82e19aac5"},"vehicle_type_id":"4","last_reported":1775148217,"current_range_meters":8000,"station_id":"","pricing_plan_id":"cebpf4jnsgd1na2vs0mg"},{"bike_id":"a0bbc992-87da-4583-a529-59d0980f5448","system_id":"levelo_inurba_marseille","lat":43.29827,"lon":5.44068,"is_reserved":false,"is_disabled":false,"rental_uris":{"android":"levelo://app?vid=a0bbc992-87da-4583-a529-59d0980f5448","ios":"levelo://app?vid=a0bbc992-87da-4583-a529-59d0980f5448"},"vehicle_type_id":"4","last_reported":1775148217,"current_range_meters":8000,"station_id":"st_d3jp68qikq2c7381ktn0","pricing_plan_id":"cebpf4jnsgd1na2vs0mg"},{"bike_id":"b276c3c2-7b5b-4cdf-a8b7-da86be0ddfc7","system_id":"levelo_inurba_marseille","lat":43.23793,"lon":5.36639,"is_reserved":false,"is_disabled":false,"rental_uris":{"android":"levelo://app?vid=b276c3c2-7b5b-4cdf-a8b7-da86be0ddfc7","ios":"levelo://app?vid=b276c3c2-7b5b-4cdf-a8b7-da86be0ddfc7"},"vehicle_type_id":"4","last_reported":1775148217,"current_range_meters":8000,"station_id":"st_d3nk18o9ro0c73en2l3g","pricing_plan_id":"cebpf4jnsgd1na2vs0mg"},{"bike_id":"39a09993-3bb1-4633-8cf0-6afe54aa2e6b","system_id":"levelo_inurba_marseille","lat":43.29529,"lon":5.39042,"is_reserved":false,"is_disabled":false,"rental_uris":{"android":"levelo://app?vid=39a09993-3bb1-4633-8cf0-6afe54aa2e6b","ios":"levelo://app?vid=39a09993-3bb1-4633-8cf0-6afe54aa2e6b"},"vehicle_type_id":"4","last_reported":1775148217,"current_range_meters":8000,"station_id":"ce4bh3p2rcd13ifvqdp0","pricing_plan_id":"cebpf4jnsgd1na2vs0mg"},{"bike_id":"e2d1ce23-fac0-4bc3-8cdd-1623ba12336c","system_id":"levelo_inurba_marseille","lat":43.28792,"lon":5.43808,"is_reserved":false,"is_disabled":false,"rental_uris":{"android":"levelo://app?vid=e2d1ce23-fac0-4bc3-8cdd-1623ba12336c","ios":"levelo://app?vid=e2d1ce23-fac0-4bc3-8cdd-1623ba12336c"},"vehicle_type_id":"4","last_reported":1775148217,"current_range_meters":8000,"station_id":"","pricing_plan_id":"cebpf4jnsgd1na2vs0mg"},{"bike_id":"2568d28f-71d3-4df8-a7a0-a23f281b67c5","system_id":"levelo_inurba_marseille","lat":43.29259,"lon":5.38426,"is_reserved":false,"is_disabled":false,"rental_uris":{"android":"levelo://app?vid=2568d28f-71d3-4df8-a7a0-a23f281b67c5","ios":"levelo://app?vid=2568d28f-71d3-4df8-a7a0-a23f281b67c5"},"vehicle_type_id":"4","last_reported":1775148217,"current_range_meters":8000,"station_id":"ce4bh692rcd13ifvqea0","pricing_plan_id":"cebpf4jnsgd1na2vs0mg"},{"bike_id":"3b22d7ff-60ef-4c70-a9fd-796d6e8cc5e7","system_id":"levelo_inurba_marseille","lat":43.2903,"lon":5.38132,"is_reserved":false,"is_disabled":false,"rental_uris":{"android":"levelo://app?vid=3b22d7ff-60ef-4c70-a9fd-796d6e8cc5e7","ios":"levelo://app?vid=3b22d7ff-60ef-4c70-a9fd-796d6e8cc5e7"},"vehicle_type_id":"4","last_reported":1775148217,"current_range_meters":8000,"station_id":"ce4bho92rcd13ifvqh3g","pricing_plan_id":"cebpf4jnsgd1na2vs0mg"},{"bike_id":"16e7c23e-c9e5-40cb-a279-61cd259ec9eb","system_id":"levelo_inurba_marseille","lat":43.29528,"lon":5.39399,"is_reserved":false,"is_disabled":false,"rental_uris":{"android":"levelo://app?vid=16e7c23e-c9e5-40cb-a279-61cd259ec9eb","ios":"levelo://app?vid=16e7c23e-c9e5-40cb-a279-61cd259ec9eb"},"vehicle_type_id":"4","last_reported":1775148217,"current_range_meters":8000,"station_id":"ce4bh292rcd13ifvqdf0","pricing_plan_id":"cebpf4jnsgd1na2vs0mg"},{"bike_id":"8da7f768-ae1f-48ac-9a52-cd5578850161","system_id":"levelo_inurba_marseille","lat":43.26572,"lon":5.39002,"is_reserved":false,"is_disabled":false,"rental_uris":{"android":"levelo://app?vid=8da7f768-ae1f-48ac-9a52-cd5578850161","ios":"levelo://app?vid=8da7f768-ae1f-48ac-9a52-cd5578850161"},"vehicle_type_id":"4","last_reported":1775148217,"current_range_meters":8000,"station_id":"ce4bhe12rcd13ifvqf30","pricing_plan_id":"cebpf4jnsgd1na2vs0mg"},{"bike_id":"4b626325-cc12-4c30-b32c-a9eae71ae167","system_id":"levelo_inurba_marseille","lat":43.29177,"lon":5.42629,"is_reserved":false,"is_disabled":false,"rental_uris":{"android":"levelo://app?vid=4b626325-cc12-4c30-b32c-a9eae71ae167","ios":"levelo://app?vid=4b626325-cc12-4c30-b32c-a9eae71ae167"},"vehicle_type_id":"4","last_reported":1775148217,"current_range_meters":8000,"station_id":"","pricing_plan_id":"cebpf4jnsgd1na2vs0mg"},{"bike_id":"102c7519-e7e3-4de8-8a1e-2a86a3f7c287","system_id":"levelo_inurba_marseille","lat":43.31307,"lon":5.36818,"is_reserved":false,"is_disabled":false,"rental_uris":{"android":"levelo://app?vid=102c7519-e7e3-4de8-8a1e-2a86a3f7c287","ios":"levelo://app?vid=102c7519-e7e3-4de8-8a1e-2a86a3f7c287"},"vehicle_type_id":"4","last_reported":1775148217,"current_range_meters":8000,"station_id":"","pricing_plan_id":"cebpf4jnsgd1na2vs0mg"},{"bike_id":"26538423-cad0-45fb-9a92-330fec3cadfb","system_id":"levelo_inurba_marseille","lat":43.21748,"lon":5.34626,"is_reserved":false,"is_disabled":false,"rental_uris":{"android":"levelo://app?vid=26538423-cad0-45fb-9a92-330fec3cadfb","ios":"levelo://app?vid=26538423-cad0-45fb-9a92-330fec3cadfb"},"vehicle_type_id":"4","last_reported":1775148217,"current_range_meters":8000,"station_id":"st_cvj6r9ubvosntc0bgbag","pricing_plan_id":"cebpf4jnsgd1na2vs0mg"},{"bike_id":"85bd7590-dc00-4396-a5c7-552ad5f06944","system_id":"levelo_inurba_marseille","lat":43.24177,"lon":5.3641,"is_reserved":false,"is_disabled":false,"rental_uris":{"android":"levelo://app?vid=85bd7590-dc00-4396-a5c7-552ad5f06944","ios":"levelo://app?vid=85bd7590-dc00-4396-a5c7-552ad5f06944"},"vehicle_type_id":"4","last_reported":1775148217,"current_range_meters":8000,"station_id":"cpo36qri1sfpv3e86is0","pricing_plan_id":"cebpf4jnsgd1na2vs0mg"},{"bike_id":"e190e9ca-b0f7-414e-b6ac-e6b81b957107","system_id":"levelo_inurba_marseille","lat":43.21734,"lon":5.34608,"is_reserved":false,"is_disabled":false,"rental_uris":{"android":"levelo://app?vid=e190e9ca-b0f7-414e-b6ac-e6b81b957107","ios":"levelo://app?vid=e190e9ca-b0f7-414e-b6ac-e6b81b957107"},"vehicle_type_id":"4","last_reported":1775148217,"current_range_meters":8000,"station_id":"st_cvj6r9ubvosntc0bgbag","pricing_plan_id":"cebpf4jnsgd1na2vs0mg"},{"bike_id":"ec73d10f-d000-4d7d-ab9a-4a1d96a7ccc2","system_id":"levelo_inurba_marseille","lat":43.31225,"lon":5.36865,"is_reserved":false,"is_disabled":false,"rental_uris":{"android":"levelo://app?vid=ec73d10f-d000-4d7d-ab9a-4a1d96a7ccc2","ios":"levelo://app?vid=ec73d10f-d000-4d7d-ab9a-4a1d96a7ccc2"},"vehicle_type_id":"4","last_reported":1775148217,"current_range_meters":8000,"station_id":"ce4bgl92rcd13ifvqbq0","pricing_plan_id":"cebpf4jnsgd1na2vs0mg"},{"bike_id":"2e0545ad-d824-454e-b745-a6d9a8bc929b","system_id":"levelo_inurba_marseille","lat":43.32361,"lon":5.36781,"is_reserved":false,"is_disabled":false,"rental_uris":{"android":"levelo://app?vid=2e0545ad-d824-454e-b745-a6d9a8bc929b","ios":"levelo://app?vid=2e0545ad-d824-454e-b745-a6d9a8bc929b"},"vehicle_type_id":"4","last_reported":1775148217,"current_range_meters":8400,"station_id":"ce4bhsh2rcd13ifvqi2g","pricing_plan_id":"cebpf4jnsgd1na2vs0mg"},{"bike_id":"63f54104-1358-46d5-b04e-dbd776a1d3a2","system_id":"levelo_inurba_marseille","lat":43.2179,"lon":5.3463,"is_reserved":false,"is_disabled":false,"rental_uris":{"android":"levelo://app?vid=63f54104-1358-46d5-b04e-dbd776a1d3a2","ios":"levelo://app?vid=63f54104-1358-46d5-b04e-dbd776a1d3a2"},"vehicle_type_id":"4","last_reported":1775148217,"current_range_meters":8400,"station_id":"","pricing_plan_id":"cebpf4jnsgd1na2vs0mg"},{"bike_id":"acfb6f54-04fd-41b0-b2d5-fb9fa6024a9f","system_id":"levelo_inurba_marseille","lat":43.2657,"lon":5.39018,"is_reserved":false,"is_disabled":false,"rental_uris":{"android":"levelo://app?vid=acfb6f54-04fd-41b0-b2d5-fb9fa6024a9f","ios":"levelo://app?vid=acfb6f54-04fd-41b0-b2d5-fb9fa6024a9f"},"vehicle_type_id":"4","last_reported":1775148217,"current_range_meters":8400,"station_id":"ce4bhe12rcd13ifvqf30","pricing_plan_id":"cebpf4jnsgd1na2vs0mg"},{"bike_id":"c616a2bd-181d-4820-86b5-a7078e2181a6","system_id":"levelo_inurba_marseille","lat":43.2119,"lon":5.3508,"is_reserved":false,"is_disabled":false,"rental_uris":{"android":"levelo://app?vid=c616a2bd-181d-4820-86b5-a7078e2181a6","ios":"levelo://app?vid=c616a2bd-181d-4820-86b5-a7078e2181a6"},"vehicle_type_id":"4","last_reported":1775148217,"current_range_meters":8400,"station_id":"st_cvj6sg6p6f1abm77japg","pricing_plan_id":"cebpf4jnsgd1na2vs0mg"},{"bike_id":"0245e7db-688b-48e6-a6fc-cc29f4d96761","system_id":"levelo_inurba_marseille","lat":43.24172,"lon":5.36402,"is_reserved":false,"is_disabled":false,"rental_uris":{"android":"levelo://app?vid=0245e7db-688b-48e6-a6fc-cc29f4d96761","ios":"levelo://app?vid=0245e7db-688b-48e6-a6fc-cc29f4d96761"},"vehicle_type_id":"4","last_reported":1775148217,"current_range_meters":8400,"station_id":"cpo36qri1sfpv3e86is0","pricing_plan_id":"cebpf4jnsgd1na2vs0mg"},{"bike_id":"e29e1953-b5e2-42ad-b863-e11d2fd568e7","system_id":"levelo_inurba_marseille","lat":43.33552,"lon":5.37472,"is_reserved":false,"is_disabled":false,"rental_uris":{"android":"levelo://app?vid=e29e1953-b5e2-42ad-b863-e11d2fd568e7","ios":"levelo://app?vid=e29e1953-b5e2-42ad-b863-e11d2fd568e7"},"vehicle_type_id":"4","last_reported":1775148217,"current_range_meters":8400,"station_id":"st_d46tts09ee8s73dlu43g","pricing_plan_id":"cebpf4jnsgd1na2vs0mg"},{"bike_id":"c037f83f-f003-4303-90f0-90be115dced4","system_id":"levelo_inurba_marseille","lat":43.24171,"lon":5.36388,"is_reserved":false,"is_disabled":false,"rental_uris":{"android":"levelo://app?vid=c037f83f-f003-4303-90f0-90be115dced4","ios":"levelo://app?vid=c037f83f-f003-4303-90f0-90be115dced4"},"vehicle_type_id":"4","last_reported":1775148217,"current_range_meters":8400,"station_id":"cpo36qri1sfpv3e86is0","pricing_plan_id":"cebpf4jnsgd1na2vs0mg"},{"bike_id":"5b00fba5-d32f-403f-adaa-6496c17d9a5a","system_id":"levelo_inurba_marseille","lat":43.290929,"lon":5.375277,"is_reserved":false,"is_disabled":false,"rental_uris":{"android":"levelo://app?vid=5b00fba5-d32f-403f-adaa-6496c17d9a5a","ios":"levelo://app?vid=5b00fba5-d32f-403f-adaa-6496c17d9a5a"},"vehicle_type_id":"4","last_reported":1775148217,"current_range_meters":8400,"station_id":"","pricing_plan_id":"cebpf4jnsgd1na2vs0mg"},{"bike_id":"0f43f217-8aa1-4a00-93bf-e372375befb9","system_id":"levelo_inurba_marseille","lat":43.29307,"lon":5.37197,"is_reserved":false,"is_disabled":false,"rental_uris":{"android":"levelo://app?vid=0f43f217-8aa1-4a00-93bf-e372375befb9","ios":"levelo://app?vid=0f43f217-8aa1-4a00-93bf-e372375befb9"},"vehicle_type_id":"4","last_reported":1775148217,"current_range_meters":8400,"station_id":"ce4bgh92rcd13ifvqb40","pricing_plan_id":"cebpf4jnsgd1na2vs0mg"},{"bike_id":"2fc7f4c1-d23e-45ff-be79-b53b6bbdaaf1","system_id":"levelo_inurba_marseille","lat":43.28421,"lon":5.34994,"is_reserved":false,"is_disabled":false,"rental_uris":{"android":"levelo://app?vid=2fc7f4c1-d23e-45ff-be79-b53b6bbdaaf1","ios":"levelo://app?vid=2fc7f4c1-d23e-45ff-be79-b53b6bbdaaf1"},"vehicle_type_id":"4","last_reported":1775148217,"current_range_meters":8400,"station_id":"ce4bhbh2rcd13ifvqepg","pricing_plan_id":"cebpf4jnsgd1na2vs0mg"},{"bike_id":"53da873f-e6f8-4606-b48f-0cf820bdc3de","system_id":"levelo_inurba_marseille","lat":43.24677,"lon":5.38196,"is_reserved":false,"is_disabled":false,"rental_uris":{"android":"levelo://app?vid=53da873f-e6f8-4606-b48f-0cf820bdc3de","ios":"levelo://app?vid=53da873f-e6f8-4606-b48f-0cf820bdc3de"},"vehicle_type_id":"4","last_reported":1775148217,"current_range_meters":8400,"station_id":"ce4bhih2rcd13ifvqfr0","pricing_plan_id":"cebpf4jnsgd1na2vs0mg"},{"bike_id":"7f331a45-ab18-4a20-bb31-96c6e9325d41","system_id":"levelo_inurba_marseille","lat":43.29623,"lon":5.37187,"is_reserved":false,"is_disabled":false,"rental_uris":{"android":"levelo://app?vid=7f331a45-ab18-4a20-bb31-96c6e9325d41","ios":"levelo://app?vid=7f331a45-ab18-4a20-bb31-96c6e9325d41"},"vehicle_type_id":"4","last_reported":1775148217,"current_range_meters":8400,"station_id":"ce4bgnh2rcd13ifvqc0g","pricing_plan_id":"cebpf4jnsgd1na2vs0mg"},{"bike_id":"778df578-6123-4128-bfc7-a9b6e8590d02","system_id":"levelo_inurba_marseille","lat":43.22933,"lon":5.35384,"is_reserved":false,"is_disabled":false,"rental_uris":{"android":"levelo://app?vid=778df578-6123-4128-bfc7-a9b6e8590d02","ios":"levelo://app?vid=778df578-6123-4128-bfc7-a9b6e8590d02"},"vehicle_type_id":"4","last_reported":1775148217,"current_range_meters":8400,"station_id":"cpo3532slgdg3j2ikp40","pricing_plan_id":"cebpf4jnsgd1na2vs0mg"},{"bike_id":"18fde2f7-a2f1-4f81-8b88-6ca0ca01a333","system_id":"levelo_inurba_marseille","lat":43.28687,"lon":5.38673,"is_reserved":false,"is_disabled":false,"rental_uris":{"android":"levelo://app?vid=18fde2f7-a2f1-4f81-8b88-6ca0ca01a333","ios":"levelo://app?vid=18fde2f7-a2f1-4f81-8b88-6ca0ca01a333"},