{"last_updated":1727270334,"ttl":60,"version":"2.2","data":{"bikes":[{"bike_id":"d073cf82-5275-4db9-a04c-3a6a0c3448c2","system_id":"levelo_inurba_marseille","lat":43.28572,"lon":5.39495,"is_reserved":false,"is_disabled":false,"rental_uris":{"android":"levelo://app?vid=d073cf82-5275-4db9-a04c-3a6a0c3448c2","ios":"levelo://app?vid=d073cf82-5275-4db9-a04c-3a6a0c3448c2"},"vehicle_type_id":"4","last_reported":1727270334,"current_range_meters":12400,"station_id":"ce4bh292rcd13ifvqdg0","pricing_plan_id":"cebpf4jnsgd1na2vs0mg"},{"bike_id":"37f12dcb-0b05-47ec-ba78-966cc60e1d15","system_id":"levelo_inurba_marseille","lat":43.28087,"lon":5.36688,"is_reserved":false,"is_disabled":false,"rental_uris":{"android":"levelo://app?vid=37f12dcb-0b05-47ec-ba78-966cc60e1d15","ios":"levelo://app?vid=37f12dcb-0b05-47ec-ba78-966cc60e1d15"},"vehicle_type_id":"4","last_reported":1727270334,"current_range_meters":13600,"station_id":"","pricing_plan_id":"cebpf4jnsgd1na2vs0mg"},{"bike_id":"6109ada7-505d-440e-a420-8d4d66c41f19","system_id":"levelo_inurba_marseille","lat":43.27438,"lon":5.42467,"is_reserved":false,"is_disabled":false,"rental_uris":{"android":"levelo://app?vid=6109ada7-505d-440e-a420-8d4d66c41f19","ios":"levelo://app?vid=6109ada7-505d-440e-a420-8d4d66c41f19"},"vehicle_type_id":"4","last_reported":1727270334,"current_range_meters":24800,"station_id":"","pricing_plan_id":"cebpf4jnsgd1na2vs0mg"},{"bike_id":"1035aa74-604a-43b2-bfcc-ffbd3a1cb238","system_id":"levelo_inurba_marseille","lat":43.2512,"lon":5.40318,"is_reserved":false,"is_disabled":false,"rental_uris":{"android":"levelo://app?vid=1035aa74-604a-43b2-bfcc-ffbd3a1cb238","ios":"levelo://app?vid=1035aa74-604a-43b2-bfcc-ffbd3a1cb238"},"vehicle_type_id":"4","last_reported":1727270334,"current_range_meters":39200,"station_id":"ce4bhlh2rcd13ifvqgig","pricing_plan_id":"cebpf4jnsgd1na2vs0mg"},{"bike_id":"347df51f-3ada-413a-8aca-85c91c7f4fbf","system_id":"levelo_inurba_marseille","lat":43.24666,"lon":5.38167,"is_reserved":false,"is_disabled":false,"rental_uris":{"android":"levelo://app?vid=347df51f-3ada-413a-8aca-85c91c7f4fbf","ios":"levelo://app?vid=347df51f-3ada-413a-8aca-85c91c7f4fbf"},"vehicle_type_id":"4","last_reported":1727270334,"current_range_meters":28800,"station_id":"ce4bhih2rcd13ifvqfr0","pricing_plan_id":"cebpf4jnsgd1na2vs0mg"},{"bike_id":"ef783995-369e-4e3d-86dd-db5168584640","system_id":"levelo_inurba_marseille","lat":43.30913,"lon":5.36837,"is_reserved":false,"is_disabled":false,"rental_uris":{"android":"levelo://app?vid=ef783995-369e-4e3d-86dd-db5168584640","ios":"levelo://app?vid=ef783995-369e-4e3d-86dd-db5168584640"},"vehicle_type_id":"4","last_reported":1727270334,"current_range_meters":14800,"station_id":"ce4bgn92rcd13ifvqbvg","pricing_plan_id":"cebpf4jnsgd1na2vs0mg"},{"bike_id":"d423041d-6db6-40c2-adfe-cc579ebcb794","system_id":"levelo_inurba_marseille","lat":43.3018,"lon":5.36637,"is_reserved":false,"is_disabled":false,"rental_uris":{"android":"levelo://app?vid=d423041d-6db6-40c2-adfe-cc579ebcb794","ios":"levelo://app?vid=d423041d-6db6-40c2-adfe-cc579ebcb794"},"vehicle_type_id":"4","last_reported":1727270334,"current_range_meters":38000,"station_id":"ce4bgrh2rcd13ifvqc8g","pricing_plan_id":"cebpf4jnsgd1na2vs0mg"},{"bike_id":"f7a338af-1395-4aab-9a8f-5f637cc6b9d3","system_id":"levelo_inurba_marseille","lat":43.3094,"lon":5.36851,"is_reserved":false,"is_disabled":false,"rental_uris":{"android":"levelo://app?vid=f7a338af-1395-4aab-9a8f-5f637cc6b9d3","ios":"levelo://app?vid=f7a338af-1395-4aab-9a8f-5f637cc6b9d3"},"vehicle_type_id":"4","last_reported":1727270334,"current_range_meters":22000,"station_id":"ce4bgn92rcd13ifvqbvg","pricing_plan_id":"cebpf4jnsgd1na2vs0mg"},{"bike_id":"8e4c65e7-ad8f-4696-82cf-2c3894da304d","system_id":"levelo_inurba_marseille","lat":43.26207,"lon":5.37928,"is_reserved":false,"is_disabled":false,"rental_uris":{"android":"levelo://app?vid=8e4c65e7-ad8f-4696-82cf-2c3894da304d","ios":"levelo://app?vid=8e4c65e7-ad8f-4696-82cf-2c3894da304d"},"vehicle_type_id":"4","last_reported":1727270334,"current_range_meters":9600,"station_id":"ce4bhjp2rcd13ifvqg90","pricing_plan_id":"cebpf4jnsgd1na2vs0mg"},{"bike_id":"79002178-4c1b-4e99-b153-0ab996fa2c2d","system_id":"levelo_inurba_marseille","lat":43.28944,"lon":5.39641,"is_reserved":false,"is_disabled":false,"rental_uris":{"android":"levelo://app?vid=79002178-4c1b-4e99-b153-0ab996fa2c2d","ios":"levelo://app?vid=79002178-4c1b-4e99-b153-0ab996fa2c2d"},"vehicle_type_id":"4","last_reported":1727270334,"current_range_meters":16000,"station_id":"ce4bh3h2rcd13ifvqdn0","pricing_plan_id":"cebpf4jnsgd1na2vs0mg"},{"bike_id":"b3b4ffea-4a69-495a-b61a-866742dfd2d7","system_id":"levelo_inurba_marseille","lat":43.299633,"lon":5.413221,"is_reserved":false,"is_disabled":false,"rental_uris":{"android":"levelo://app?vid=b3b4ffea-4a69-495a-b61a-866742dfd2d7","ios":"levelo://app?vid=b3b4ffea-4a69-495a-b61a-866742dfd2d7"},"vehicle_type_id":"4","last_reported":1727270334,"current_range_meters":36000,"station_id":"ce4bhp12rcd13ifvqh9g","pricing_plan_id":"cebpf4jnsgd1na2vs0mg"},{"bike_id":"616ac4ff-c57f-440d-a459-01839d2aafb3","system_id":"levelo_inurba_marseille","lat":43.32663,"lon":5.40987,"is_reserved":false,"is_disabled":false,"rental_uris":{"android":"levelo://app?vid=616ac4ff-c57f-440d-a459-01839d2aafb3","ios":"levelo://app?vid=616ac4ff-c57f-440d-a459-01839d2aafb3"},"vehicle_type_id":"4","last_reported":1727270334,"current_range_meters":38400,"station_id":"ce4bhpp2rcd13ifvqhgg","pricing_plan_id":"cebpf4jnsgd1na2vs0mg"},{"bike_id":"ee562a8d-660b-442d-b983-400db80977d0","system_id":"levelo_inurba_marseille","lat":43.24664,"lon":5.38163,"is_reserved":false,"is_disabled":false,"rental_uris":{"android":"levelo://app?vid=ee562a8d-660b-442d-b983-400db80977d0","ios":"levelo://app?vid=ee562a8d-660b-442d-b983-400db80977d0"},"vehicle_type_id":"4","last_reported":1727270334,"current_range_meters":23200,"station_id":"ce4bhih2rcd13ifvqfr0","pricing_plan_id":"cebpf4jnsgd1na2vs0mg"},{"bike_id":"aa33855a-7d8b-45e8-8369-5c6b32ea0872","system_id":"levelo_inurba_marseille","lat":43.23976,"lon":5.36619,"is_reserved":false,"is_disabled":false,"rental_uris":{"android":"levelo://app?vid=aa33855a-7d8b-45e8-8369-5c6b32ea0872","ios":"levelo://app?vid=aa33855a-7d8b-45e8-8369-5c6b32ea0872"},"vehicle_type_id":"4","last_reported":1727270334,"current_range_meters":36800,"station_id":"ce4bhi12rcd13ifvqfp0","pricing_plan_id":"cebpf4jnsgd1na2vs0mg"},{"bike_id":"9926f8d4-52ff-41d7-995b-39e4b6d4cdc0","system_id":"levelo_inurba_marseille","lat":43.32482,"lon":5.36569,"is_reserved":false,"is_disabled":false,"rental_uris":{"android":"levelo://app?vid=9926f8d4-52ff-41d7-995b-39e4b6d4cdc0","ios":"levelo://app?vid=9926f8d4-52ff-41d7-995b-39e4b6d4cdc0"},"vehicle_type_id":"4","last_reported":1727270334,"current_range_meters":38800,"station_id":"ce4bhs12rcd13ifvqhvg","pricing_plan_id":"cebpf4jnsgd1na2vs0mg"},{"bike_id":"4c92f1a1-bb40-4902-a9f5-fd48457f3930","system_id":"levelo_inurba_marseille","lat":43.243256,"lon":5.396667,"is_reserved":false,"is_disabled":false,"rental_uris":{"android":"levelo://app?vid=4c92f1a1-bb40-4902-a9f5-fd48457f3930","ios":"levelo://app?vid=4c92f1a1-bb40-4902-a9f5-fd48457f3930"},"vehicle_type_id":"4","last_reported":1727270334,"current_range_meters":8800,"station_id":"ce4bhn12rcd13ifvqgpg","pricing_plan_id":"cebpf4jnsgd1na2vs0mg"},{"bike_id":"270e455f-d3fd-428b-a44c-60e65bce0013","system_id":"levelo_inurba_marseille","lat":43.30942,"lon":5.40148,"is_reserved":false,"is_disabled":false,"rental_uris":{"android":"levelo://app?vid=270e455f-d3fd-428b-a44c-60e65bce0013","ios":"levelo://app?vid=270e455f-d3fd-428b-a44c-60e65bce0013"},"vehicle_type_id":"4","last_reported":1727270334,"current_range_meters":32800,"station_id":"ce4bgvp2rcd13ifvqct0","pricing_plan_id":"cebpf4jnsgd1na2vs0mg"},{"bike_id":"bf6f7dba-868f-4083-aed8-62335faaa471","system_id":"levelo_inurba_marseille","lat":43.24411,"lon":5.379448,"is_reserved":false,"is_disabled":false,"rental_uris":{"android":"levelo://app?vid=bf6f7dba-868f-4083-aed8-62335faaa471","ios":"levelo://app?vid=bf6f7dba-868f-4083-aed8-62335faaa471"},"vehicle_type_id":"4","last_reported":1727270334,"current_range_meters":28800,"station_id":"ce4bhn12rcd13ifvqgpg","pricing_plan_id":"cebpf4jnsgd1na2vs0mg"},{"bike_id":"231bba37-3a5f-47ff-9cd5-c6b041e260f9","system_id":"levelo_inurba_marseille","lat":43.28013,"lon":5.40003,"is_reserved":false,"is_disabled":false,"rental_uris":{"android":"levelo://app?vid=231bba37-3a5f-47ff-9cd5-c6b041e260f9","ios":"levelo://app?vid=231bba37-3a5f-47ff-9cd5-c6b041e260f9"},"vehicle_type_id":"4","last_reported":1727270334,"current_range_meters":24800,"station_id":"ce4bho92rcd13ifvqh4g","pricing_plan_id":"cebpf4jnsgd1na2vs0mg"},{"bike_id":"aeea4805-d17d-4c4c-a385-15625beb0d39","system_id":"levelo_inurba_marseille","lat":43.30316,"lon":5.36912,"is_reserved":false,"is_disabled":false,"rental_uris":{"android":"levelo://app?vid=aeea4805-d17d-4c4c-a385-15625beb0d39","ios":"levelo://app?vid=aeea4805-d17d-4c4c-a385-15625beb0d39"},"vehicle_type_id":"4","last_reported":1727270334,"current_range_meters":38400,"station_id":"ce4bgqh2rcd13ifvqc5g","pricing_plan_id":"cebpf4jnsgd1na2vs0mg"},{"bike_id":"70782cde-4d73-4f8a-b703-a64709a45a26","system_id":"levelo_inurba_marseille","lat":43.29078,"lon":5.37167,"is_reserved":false,"is_disabled":false,"rental_uris":{"android":"levelo://app?vid=70782cde-4d73-4f8a-b703-a64709a45a26","ios":"levelo://app?vid=70782cde-4d73-4f8a-b703-a64709a45a26"},"vehicle_type_id":"4","last_reported":1727270334,"current_range_meters":28000,"station_id":"ce4bh5p2rcd13ifvqe4g","pricing_plan_id":"cebpf4jnsgd1na2vs0mg"},{"bike_id":"aa0c5329-bfb6-4b58-bb76-bcbc29575262","system_id":"levelo_inurba_marseille","lat":43.29933,"lon":5.36545,"is_reserved":false,"is_disabled":false,"rental_uris":{"android":"levelo://app?vid=aa0c5329-bfb6-4b58-bb76-bcbc29575262","ios":"levelo://app?vid=aa0c5329-bfb6-4b58-bb76-bcbc29575262"},"vehicle_type_id":"4","last_reported":1727270334,"current_range_meters":24800,"station_id":"ce4bgm92rcd13ifvqbr0","pricing_plan_id":"cebpf4jnsgd1na2vs0mg"},{"bike_id":"ca987aa6-0115-44b0-aa7e-52af42702cf0","system_id":"levelo_inurba_marseille","lat":43.28264,"lon":5.35059,"is_reserved":false,"is_disabled":false,"rental_uris":{"android":"levelo://app?vid=ca987aa6-0115-44b0-aa7e-52af42702cf0","ios":"levelo://app?vid=ca987aa6-0115-44b0-aa7e-52af42702cf0"},"vehicle_type_id":"4","last_reported":1727270334,"current_range_meters":27600,"station_id":"ce4bhbp2rcd13ifvqerg","pricing_plan_id":"cebpf4jnsgd1na2vs0mg"},{"bike_id":"7737b815-6daf-41f0-8354-4b28ba75917f","system_id":"levelo_inurba_marseille","lat":43.30198,"lon":5.3982,"is_reserved":false,"is_disabled":false,"rental_uris":{"android":"levelo://app?vid=7737b815-6daf-41f0-8354-4b28ba75917f","ios":"levelo://app?vid=7737b815-6daf-41f0-8354-4b28ba75917f"},"vehicle_type_id":"4","last_reported":1727270334,"current_range_meters":17200,"station_id":"ce4bgvp2rcd13ifvqct0","pricing_plan_id":"cebpf4jnsgd1na2vs0mg"},{"bike_id":"ada62bf4-1435-4c44-a96a-7e0f08a6a93c","system_id":"levelo_inurba_marseille","lat":43.289215,"lon":5.354686,"is_reserved":false,"is_disabled":false,"rental_uris":{"android":"levelo://app?vid=ada62bf4-1435-4c44-a96a-7e0f08a6a93c","ios":"levelo://app?vid=ada62bf4-1435-4c44-a96a-7e0f08a6a93c"},"vehicle_type_id":"4","last_reported":1727270334,"current_range_meters":17200,"station_id":"ce4bhb92rcd13ifvqen0","pricing_plan_id":"cebpf4jnsgd1na2vs0mg"},{"bike_id":"50a2eb01-787b-43fc-800c-b8e614e01a19","system_id":"levelo_inurba_marseille","lat":43.29529,"lon":5.39397,"is_reserved":false,"is_disabled":false,"rental_uris":{"android":"levelo://app?vid=50a2eb01-787b-43fc-800c-b8e614e01a19","ios":"levelo://app?vid=50a2eb01-787b-43fc-800c-b8e614e01a19"},"vehicle_type_id":"4","last_reported":1727270334,"current_range_meters":28400,"station_id":"ce4bh292rcd13ifvqdf0","pricing_plan_id":"cebpf4jnsgd1na2vs0mg"},{"bike_id":"1a12c837-f89e-4ed8-8674-d39ae475ada8","system_id":"levelo_inurba_marseille","lat":43.26033,"lon":5.37548,"is_reserved":false,"is_disabled":false,"rental_uris":{"android":"levelo://app?vid=1a12c837-f89e-4ed8-8674-d39ae475ada8","ios":"levelo://app?vid=1a12c837-f89e-4ed8-8674-d39ae475ada8"},"vehicle_type_id":"4","last_reported":1727270334,"current_range_meters":36800,"station_id":"ce4bhgh2rcd13ifvqfa0","pricing_plan_id":"cebpf4jnsgd1na2vs0mg"},{"bike_id":"3b195df4-d71b-45c6-b4ee-0701cb9345da","system_id":"levelo_inurba_marseille","lat":43.30142,"lon":5.37421,"is_reserved":false,"is_disabled":false,"rental_uris":{"android":"levelo://app?vid=3b195df4-d71b-45c6-b4ee-0701cb9345da","ios":"levelo://app?vid=3b195df4-d71b-45c6-b4ee-0701cb9345da"},"vehicle_type_id":"4","last_reported":1727270334,"current_range_meters":26800,"station_id":"ce4bgs92rcd13ifvqcc0","pricing_plan_id":"cebpf4jnsgd1na2vs0mg"},{"bike_id":"f57f9a2b-463a-495e-b929-b7d110fc5488","system_id":"levelo_inurba_marseille","lat":43.2984,"lon":5.36265,"is_reserved":false,"is_disabled":false,"rental_uris":{"android":"levelo://app?vid=f57f9a2b-463a-495e-b929-b7d110fc5488","ios":"levelo://app?vid=f57f9a2b-463a-495e-b929-b7d110fc5488"},"vehicle_type_id":"4","last_reported":1727270334,"current_range_meters":11600,"station_id":"ce4bgpp2rcd13ifvqc3g","pricing_plan_id":"cebpf4jnsgd1na2vs0mg"},{"bike_id":"7b4ca0b6-6f71-4323-bfa1-f17b15c7d3a4","system_id":"levelo_inurba_marseille","lat":43.28479,"lon":5.38435,"is_reserved":false,"is_disabled":false,"rental_uris":{"android":"levelo://app?vid=7b4ca0b6-6f71-4323-bfa1-f17b15c7d3a4","ios":"levelo://app?vid=7b4ca0b6-6f71-4323-bfa1-f17b15c7d3a4"},"vehicle_type_id":"4","last_reported":1727270334,"current_range_meters":25200,"station_id":"ce4bh512rcd13ifvqe3g","pricing_plan_id":"cebpf4jnsgd1na2vs0mg"},{"bike_id":"e9e079ca-42fb-48ba-a6e1-682b20d310ce","system_id":"levelo_inurba_marseille","lat":43.23213,"lon":5.35539,"is_reserved":false,"is_disabled":false,"rental_uris":{"android":"levelo://app?vid=e9e079ca-42fb-48ba-a6e1-682b20d310ce","ios":"levelo://app?vid=e9e079ca-42fb-48ba-a6e1-682b20d310ce"},"vehicle_type_id":"4","last_reported":1727270334,"current_range_meters":27600,"station_id":"ce4bhu92rcd13ifvqi70","pricing_plan_id":"cebpf4jnsgd1na2vs0mg"},{"bike_id":"eacf5b67-56fb-45bf-87c7-1553bbb93da4","system_id":"levelo_inurba_marseille","lat":43.30939,"lon":5.40143,"is_reserved":false,"is_disabled":false,"rental_uris":{"android":"levelo://app?vid=eacf5b67-56fb-45bf-87c7-1553bbb93da4","ios":"levelo://app?vid=eacf5b67-56fb-45bf-87c7-1553bbb93da4"},"vehicle_type_id":"4","last_reported":1727270334,"current_range_meters":37600,"station_id":"ce4bgvp2rcd13ifvqct0","pricing_plan_id":"cebpf4jnsgd1na2vs0mg"},{"bike_id":"7a8458d5-44ac-4f2e-abef-3f01eb31f7ca","system_id":"levelo_inurba_marseille","lat":43.337444,"lon":5.374475,"is_reserved":false,"is_disabled":false,"rental_uris":{"android":"levelo://app?vid=7a8458d5-44ac-4f2e-abef-3f01eb31f7ca","ios":"levelo://app?vid=7a8458d5-44ac-4f2e-abef-3f01eb31f7ca"},"vehicle_type_id":"4","last_reported":1727270334,"current_range_meters":25600,"station_id":"","pricing_plan_id":"cebpf4jnsgd1na2vs0mg"},{"bike_id":"06265587-1a02-47da-a0c9-68c60f0f3326","system_id":"levelo_inurba_marseille","lat":43.29849,"lon":5.36269,"is_reserved":false,"is_disabled":false,"rental_uris":{"android":"levelo://app?vid=06265587-1a02-47da-a0c9-68c60f0f3326","ios":"levelo://app?vid=06265587-1a02-47da-a0c9-68c60f0f3326"},"vehicle_type_id":"4","last_reported":1727270334,"current_range_meters":38000,"station_id":"ce4bgpp2rcd13ifvqc3g","pricing_plan_id":"cebpf4jnsgd1na2vs0mg"},{"bike_id":"300c6076-c425-4213-a44c-2ca78507b12e","system_id":"levelo_inurba_marseille","lat":43.22932,"lon":5.35373,"is_reserved":false,"is_disabled":false,"rental_uris":{"android":"levelo://app?vid=300c6076-c425-4213-a44c-2ca78507b12e","ios":"levelo://app?vid=300c6076-c425-4213-a44c-2ca78507b12e"},"vehicle_type_id":"4","last_reported":1727270334,"current_range_meters":14000,"station_id":"cpo3532slgdg3j2ikp40","pricing_plan_id":"cebpf4jnsgd1na2vs0mg"},{"bike_id":"5b80f534-31aa-493e-a7af-c5c257fa4e9e","system_id":"levelo_inurba_marseille","lat":43.29692,"lon":5.37283,"is_reserved":false,"is_disabled":false,"rental_uris":{"android":"levelo://app?vid=5b80f534-31aa-493e-a7af-c5c257fa4e9e","ios":"levelo://app?vid=5b80f534-31aa-493e-a7af-c5c257fa4e9e"},"vehicle_type_id":"4","last_reported":1727270334,"current_range_meters":38800,"station_id":"ce4bgk12rcd13ifvqbj0","pricing_plan_id":"cebpf4jnsgd1na2vs0mg"},{"bike_id":"d84f4ecc-7ddd-4d3a-9171-2e0ec28b8045","system_id":"levelo_inurba_marseille","lat":43.30143,"lon":5.37416,"is_reserved":false,"is_disabled":false,"rental_uris":{"android":"levelo://app?vid=d84f4ecc-7ddd-4d3a-9171-2e0ec28b8045","ios":"levelo://app?vid=d84f4ecc-7ddd-4d3a-9171-2e0ec28b8045"},"vehicle_type_id":"4","last_reported":1727270334,"current_range_meters":10000,"station_id":"ce4bgs92rcd13ifvqcc0","pricing_plan_id":"cebpf4jnsgd1na2vs0mg"},{"bike_id":"c9caa42e-e8a7-4b6e-b172-795704959513","system_id":"levelo_inurba_marseille","lat":43.30922,"lon":5.36839,"is_reserved":false,"is_disabled":false,"rental_uris":{"android":"levelo://app?vid=c9caa42e-e8a7-4b6e-b172-795704959513","ios":"levelo://app?vid=c9caa42e-e8a7-4b6e-b172-795704959513"},"vehicle_type_id":"4","last_reported":1727270334,"current_range_meters":31200,"station_id":"ce4bgn92rcd13ifvqbvg","pricing_plan_id":"cebpf4jnsgd1na2vs0mg"},{"bike_id":"534b694c-9f15-429b-9306-e4d76d37056c","system_id":"levelo_inurba_marseille","lat":43.29927,"lon":5.37488,"is_reserved":false,"is_disabled":false,"rental_uris":{"android":"levelo://app?vid=534b694c-9f15-429b-9306-e4d76d37056c","ios":"levelo://app?vid=534b694c-9f15-429b-9306-e4d76d37056c"},"vehicle_type_id":"4","last_reported":1727270334,"current_range_meters":8000,"station_id":"ce4bgjh2rcd13ifvqbg0","pricing_plan_id":"cebpf4jnsgd1na2vs0mg"},{"bike_id":"cbc57e25-c2f2-41b0-ba3b-35e713f8d350","system_id":"levelo_inurba_marseille","lat":43.29279,"lon":5.3684,"is_reserved":false,"is_disabled":false,"rental_uris":{"android":"levelo://app?vid=cbc57e25-c2f2-41b0-ba3b-35e713f8d350","ios":"levelo://app?vid=cbc57e25-c2f2-41b0-ba3b-35e713f8d350"},"vehicle_type_id":"4","last_reported":1727270334,"current_range_meters":38800,"station_id":"ce4bhbp2rcd13ifvqesg","pricing_plan_id":"cebpf4jnsgd1na2vs0mg"},{"bike_id":"d1b60436-8b7f-4b93-a8be-b8553410e5e2","system_id":"levelo_inurba_marseille","lat":43.25121,"lon":5.4032,"is_reserved":false,"is_disabled":false,"rental_uris":{"android":"levelo://app?vid=d1b60436-8b7f-4b93-a8be-b8553410e5e2","ios":"levelo://app?vid=d1b60436-8b7f-4b93-a8be-b8553410e5e2"},"vehicle_type_id":"4","last_reported":1727270334,"current_range_meters":19200,"station_id":"ce4bhlh2rcd13ifvqgig","pricing_plan_id":"cebpf4jnsgd1na2vs0mg"},{"bike_id":"d94df6b6-8b77-4d5b-bb79-0af90afec344","system_id":"levelo_inurba_marseille","lat":43.27421,"lon":5.39413,"is_reserved":false,"is_disabled":false,"rental_uris":{"android":"levelo://app?vid=d94df6b6-8b77-4d5b-bb79-0af90afec344","ios":"levelo://app?vid=d94df6b6-8b77-4d5b-bb79-0af90afec344"},"vehicle_type_id":"4","last_reported":1727270334,"current_range_meters":25600,"station_id":"ce4bhdp2rcd13ifvqf20","pricing_plan_id":"cebpf4jnsgd1na2vs0mg"},{"bike_id":"44944327-804d-4efd-957d-c88684856ece","system_id":"levelo_inurba_marseille","lat":43.299529,"lon":5.413146,"is_reserved":false,"is_disabled":false,"rental_uris":{"android":"levelo://app?vid=44944327-804d-4efd-957d-c88684856ece","ios":"levelo://app?vid=44944327-804d-4efd-957d-c88684856ece"},"vehicle_type_id":"4","last_reported":1727270334,"current_range_meters":33200,"station_id":"ce4bhp12rcd13ifvqh9g","pricing_plan_id":"cebpf4jnsgd1na2vs0mg"},{"bike_id":"c616d233-ea67-4895-8880-51b610224d27","system_id":"levelo_inurba_marseille","lat":43.305339,"lon":5.365285,"is_reserved":false,"is_disabled":false,"rental_uris":{"android":"levelo://app?vid=c616d233-ea67-4895-8880-51b610224d27","ios":"levelo://app?vid=c616d233-ea67-4895-8880-51b610224d27"},"vehicle_type_id":"4","last_reported":1727270334,"current_range_meters":16000,"station_id":"ce4bgs12rcd13ifvqcag","pricing_plan_id":"cebpf4jnsgd1na2vs0mg"},{"bike_id":"1ac78896-c5ff-4f12-abe3-b01303334e1a","system_id":"levelo_inurba_marseille","lat":43.305457,"lon":5.36724,"is_reserved":false,"is_disabled":false,"rental_uris":{"android":"levelo://app?vid=1ac78896-c5ff-4f12-abe3-b01303334e1a","ios":"levelo://app?vid=1ac78896-c5ff-4f12-abe3-b01303334e1a"},"vehicle_type_id":"4","last_reported":1727270334,"current_range_meters":37600,"station_id":"ce4bgrp2rcd13ifvqc9g","pricing_plan_id":"cebpf4jnsgd1na2vs0mg"},{"bike_id":"71d5c228-ea10-47ff-8baa-c3d5c2194fb8","system_id":"levelo_inurba_marseille","lat":43.30187,"lon":5.36612,"is_reserved":false,"is_disabled":false,"rental_uris":{"android":"levelo://app?vid=71d5c228-ea10-47ff-8baa-c3d5c2194fb8","ios":"levelo://app?vid=71d5c228-ea10-47ff-8baa-c3d5c2194fb8"},"vehicle_type_id":"4","last_reported":1727270334,"current_range_meters":22800,"station_id":"ce4bgrh2rcd13ifvqc8g","pricing_plan_id":"cebpf4jnsgd1na2vs0mg"},{"bike_id":"25c2da3d-9bb6-48b8-8579-2ff6744c67cb","system_id":"levelo_inurba_marseille","lat":43.23153,"lon":5.43711,"is_reserved":false,"is_disabled":false,"rental_uris":{"android":"levelo://app?vid=25c2da3d-9bb6-48b8-8579-2ff6744c67cb","ios":"levelo://app?vid=25c2da3d-9bb6-48b8-8579-2ff6744c67cb"},"vehicle_type_id":"4","last_reported":1727270334,"current_range_meters":36800,"station_id":"ce4bhmp2rcd13ifvqgog","pricing_plan_id":"cebpf4jnsgd1na2vs0mg"},{"bike_id":"65e56e11-cf82-4fd5-bc9a-610f981768c9","system_id":"levelo_inurba_marseille","lat":43.28717,"lon":5.37931,"is_reserved":false,"is_disabled":false,"rental_uris":{"android":"levelo://app?vid=65e56e11-cf82-4fd5-bc9a-610f981768c9","ios":"levelo://app?vid=65e56e11-cf82-4fd5-bc9a-610f981768c9"},"vehicle_type_id":"4","last_reported":1727270334,"current_range_meters":19600,"station_id":"ce4bh9p2rcd13ifvqec0","pricing_plan_id":"cebpf4jnsgd1na2vs0mg"},{"bike_id":"11f88091-15b5-46ee-a7dc-252de020b772","system_id":"levelo_inurba_marseille","lat":43.23194,"lon":5.35549,"is_reserved":false,"is_disabled":false,"rental_uris":{"android":"levelo://app?vid=11f88091-15b5-46ee-a7dc-252de020b772","ios":"levelo://app?vid=11f88091-15b5-46ee-a7dc-252de020b772"},"vehicle_type_id":"4","last_reported":1727270334,"current_range_meters":19600,"station_id":"ce4bhu92rcd13ifvqi70","pricing_plan_id":"cebpf4jnsgd1na2vs0mg"},{"bike_id":"3c7daa5a-2229-4ef5-8f32-ce0c6827033b","system_id":"levelo_inurba_marseille","lat":43.25729,"lon":5.411,"is_reserved":false,"is_disabled":false,"rental_uris":{"android":"levelo://app?vid=3c7daa5a-2229-4ef5-8f32-ce0c6827033b","ios":"levelo://app?vid=3c7daa5a-2229-4ef5-8f32-ce0c6827033b"},"vehicle_type_id":"4","last_reported":1727270334,"current_range_meters":39200,"station_id":"ce4bhkp2rcd13ifvqgd0","pricing_plan_id":"cebpf4jnsgd1na2vs0mg"},{"bike_id":"79a05bb1-ccec-47f0-8ebd-1f95854549f8","system_id":"levelo_inurba_marseille","lat":43.31285,"lon":5.38042,"is_reserved":false,"is_disabled":false,"rental_uris":{"android":"levelo://app?vid=79a05bb1-ccec-47f0-8ebd-1f95854549f8","ios":"levelo://app?vid=79a05bb1-ccec-47f0-8ebd-1f95854549f8"},"vehicle_type_id":"4","last_reported":1727270334,"current_range_meters":10800,"station_id":"","pricing_plan_id":"cebpf4jnsgd1na2vs0mg"},{"bike_id":"82a46f4c-338e-4f2c-bb15-b73bebda5189","system_id":"levelo_inurba_marseille","lat":43.23148,"lon":5.43708,"is_reserved":false,"is_disabled":false,"rental_uris":{"android":"levelo://app?vid=82a46f4c-338e-4f2c-bb15-b73bebda5189","ios":"levelo://app?vid=82a46f4c-338e-4f2c-bb15-b73bebda5189"},"vehicle_type_id":"4","last_reported":1727270334,"current_range_meters":37600,"station_id":"ce4bhmp2rcd13ifvqgog","pricing_plan_id":"cebpf4jnsgd1na2vs0mg"},{"bike_id":"796cb342-ddc2-46b9-af55-e1044983438d","system_id":"levelo_inurba_marseille","lat":43.30307,"lon":5.36915,"is_reserved":false,"is_disabled":false,"rental_uris":{"android":"levelo://app?vid=796cb342-ddc2-46b9-af55-e1044983438d","ios":"levelo://app?vid=796cb342-ddc2-46b9-af55-e1044983438d"},"vehicle_type_id":"4","last_reported":1727270334,"current_range_meters":32800,"station_id":"ce4bgqh2rcd13ifvqc5g","pricing_plan_id":"cebpf4jnsgd1na2vs0mg"},{"bike_id":"f254c1a6-815f-4439-a521-360043e931d8","system_id":"levelo_inurba_marseille","lat":43.26682,"lon":5.38269,"is_reserved":false,"is_disabled":false,"rental_uris":{"android":"levelo://app?vid=f254c1a6-815f-4439-a521-360043e931d8","ios":"levelo://app?vid=f254c1a6-815f-4439-a521-360043e931d8"},"vehicle_type_id":"4","last_reported":1727270334,"current_range_meters":6000,"station_id":"ce4bhg92rcd13ifvqf90","pricing_plan_id":"cebpf4jnsgd1na2vs0mg"},{"bike_id":"f97ba308-62f2-45e6-b928-755fc3107561","system_id":"levelo_inurba_marseille","lat":43.23197,"lon":5.39989,"is_reserved":false,"is_disabled":false,"rental_uris":{"android":"levelo://app?vid=f97ba308-62f2-45e6-b928-755fc3107561","ios":"levelo://app?vid=f97ba308-62f2-45e6-b928-755fc3107561"},"vehicle_type_id":"4","last_reported":1727270334,"current_range_meters":38800,"station_id":"ce4bhn12rcd13ifvqgqg","pricing_plan_id":"cebpf4jnsgd1na2vs0mg"},{"bike_id":"ffb788d4-680f-4792-a087-79cf193199fa","system_id":"levelo_inurba_marseille","lat":43.31889,"lon":5.4072,"is_reserved":false,"is_disabled":false,"rental_uris":{"android":"levelo://app?vid=ffb788d4-680f-4792-a087-79cf193199fa","ios":"levelo://app?vid=ffb788d4-680f-4792-a087-79cf193199fa"},"vehicle_type_id":"4","last_reported":1727270334,"current_range_meters":38800,"station_id":"ce4bhq12rcd13ifvqhig","pricing_plan_id":"cebpf4jnsgd1na2vs0mg"},{"bike_id":"3fb94ac6-1872-4a49-be5f-fc77bf5b3901","system_id":"levelo_inurba_marseille","lat":43.3091,"lon":5.36847,"is_reserved":false,"is_disabled":false,"rental_uris":{"android":"levelo://app?vid=3fb94ac6-1872-4a49-be5f-fc77bf5b3901","ios":"levelo://app?vid=3fb94ac6-1872-4a49-be5f-fc77bf5b3901"},"vehicle_type_id":"4","last_reported":1727270334,"current_range_meters":36400,"station_id":"ce4bgn92rcd13ifvqbvg","pricing_plan_id":"cebpf4jnsgd1na2vs0mg"},{"bike_id":"f74649f0-4114-4b2e-b704-f4a84c9348fa","system_id":"levelo_inurba_marseille","lat":43.28717,"lon":5.37934,"is_reserved":false,"is_disabled":false,"rental_uris":{"android":"levelo://app?vid=f74649f0-4114-4b2e-b704-f4a84c9348fa","ios":"levelo://app?vid=f74649f0-4114-4b2e-b704-f4a84c9348fa"},"vehicle_type_id":"4","last_reported":1727270334,"current_range_meters":14000,"station_id":"ce4bh9p2rcd13ifvqec0","pricing_plan_id":"cebpf4jnsgd1na2vs0mg"},{"bike_id":"c260f9fe-e63d-46a3-97de-318904eabf8c","system_id":"levelo_inurba_marseille","lat":43.305,"lon":5.36714,"is_reserved":false,"is_disabled":false,"rental_uris":{"android":"levelo://app?vid=c260f9fe-e63d-46a3-97de-318904eabf8c","ios":"levelo://app?vid=c260f9fe-e63d-46a3-97de-318904eabf8c"},"vehicle_type_id":"4","last_reported":1727270334,"current_range_meters":28800,"station_id":"ce4bgrp2rcd13ifvqc9g","pricing_plan_id":"cebpf4jnsgd1na2vs0mg"},{"bike_id":"ecb70881-b110-48a8-b751-24b4690d4031","system_id":"levelo_inurba_marseille","lat":43.23191,"lon":5.39971,"is_reserved":false,"is_disabled":false,"rental_uris":{"android":"levelo://app?vid=ecb70881-b110-48a8-b751-24b4690d4031","ios":"levelo://app?vid=ecb70881-b110-48a8-b751-24b4690d4031"},"vehicle_type_id":"4","last_reported":1727270334,"current_range_meters":38000,"station_id":"ce4bhn12rcd13ifvqgqg","pricing_plan_id":"cebpf4jnsgd1na2vs0mg"},{"bike_id":"8629fc96-8f77-44a4-a451-955e31386731","system_id":"levelo_inurba_marseille","lat":43.30328,"lon":5.40436,"is_reserved":false,"is_disabled":false,"rental_uris":{"android":"levelo://app?vid=8629fc96-8f77-44a4-a451-955e31386731","ios":"levelo://app?vid=8629fc96-8f77-44a4-a451-955e31386731"},"vehicle_type_id":"4","last_reported":1727270334,"current_range_meters":38800,"station_id":"ce4bh012rcd13ifvqd10","pricing_plan_id":"cebpf4jnsgd1na2vs0mg"},{"bike_id":"25bd7405-be80-4a77-a761-8a1efed52652","system_id":"levelo_inurba_marseille","lat":43.299,"lon":5.43668,"is_reserved":false,"is_disabled":false,"rental_uris":{"android":"levelo://app?vid=25bd7405-be80-4a77-a761-8a1efed52652","ios":"levelo://app?vid=25bd7405-be80-4a77-a761-8a1efed52652"},"vehicle_type_id":"4","last_reported":1727270334,"current_range_meters":38800,"station_id":"ce4bhpp2rcd13ifvqhfg","pricing_plan_id":"cebpf4jnsgd1na2vs0mg"},{"bike_id":"bbd31db5-c137-4320-95f9-7cb19235dc07","system_id":"levelo_inurba_marseille","lat":43.30805,"lon":5.43521,"is_reserved":false,"is_disabled":false,"rental_uris":{"android":"levelo://app?vid=bbd31db5-c137-4320-95f9-7cb19235dc07","ios":"levelo://app?vid=bbd31db5-c137-4320-95f9-7cb19235dc07"},"vehicle_type_id":"4","last_reported":1727270334,"current_range_meters":38800,"station_id":"ce4bhph2rcd13ifvqheg","pricing_plan_id":"cebpf4jnsgd1na2vs0mg"},{"bike_id":"8ab885fd-70a2-43ee-9896-159857b52f7e","system_id":"levelo_inurba_marseille","lat":43.23185,"lon":5.39978,"is_reserved":false,"is_disabled":false,"rental_uris":{"android":"levelo://app?vid=8ab885fd-70a2-43ee-9896-159857b52f7e","ios":"levelo://app?vid=8ab885fd-70a2-43ee-9896-159857b52f7e"},"vehicle_type_id":"4","last_reported":1727270334,"current_range_meters":38800,"station_id":"ce4bhh12rcd13ifvqff0","pricing_plan_id":"cebpf4jnsgd1na2vs0mg"},{"bike_id":"d57df3bc-2941-47d5-9d3d-c6fd9702d6a2","system_id":"levelo_inurba_marseille","lat":43.28077,"lon":5.39656,"is_reserved":false,"is_disabled":false,"rental_uris":{"android":"levelo://app?vid=d57df3bc-2941-47d5-9d3d-c6fd9702d6a2","ios":"levelo://app?vid=d57df3bc-2941-47d5-9d3d-c6fd9702d6a2"},"vehicle_type_id":"4","last_reported":1727270334,"current_range_meters":32000,"station_id":"ce4bho12rcd13ifvqh2g","pricing_plan_id":"cebpf4jnsgd1na2vs0mg"},{"bike_id":"124ed7b5-473e-4a00-a600-343137f4cef9","system_id":"levelo_inurba_marseille","lat":43.33727,"lon":5.39179,"is_reserved":false,"is_disabled":false,"rental_uris":{"android":"levelo://app?vid=124ed7b5-473e-4a00-a600-343137f4cef9","ios":"levelo://app?vid=124ed7b5-473e-4a00-a600-343137f4cef9"},"vehicle_type_id":"4","last_reported":1727270334,"current_range_meters":38800,"station_id":"ce4bhr92rcd13ifvqhsg","pricing_plan_id":"cebpf4jnsgd1na2vs0mg"},{"bike_id":"81d04c1b-c8e8-47fd-ba31-69e62e449e7e","system_id":"levelo_inurba_marseille","lat":43.31889,"lon":5.4073,"is_reserved":false,"is_disabled":false,"rental_uris":{"android":"levelo://app?vid=81d04c1b-c8e8-47fd-ba31-69e62e449e7e","ios":"levelo://app?vid=81d04c1b-c8e8-47fd-ba31-69e62e449e7e"},"vehicle_type_id":"4","last_reported":1727270334,"current_range_meters":11600,"station_id":"ce4bhq12rcd13ifvqhig","pricing_plan_id":"cebpf4jnsgd1na2vs0mg"},{"bike_id":"7308ee73-d401-4cd9-99de-1fa0dc62eb00","system_id":"levelo_inurba_marseille","lat":43.27619,"lon":5.36115,"is_reserved":false,"is_disabled":false,"rental_uris":{"android":"levelo://app?vid=7308ee73-d401-4cd9-99de-1fa0dc62eb00","ios":"levelo://app?vid=7308ee73-d401-4cd9-99de-1fa0dc62eb00"},"vehicle_type_id":"4","last_reported":1727270334,"current_range_meters":12800,"station_id":"ce4bgj92rcd13ifvqbe0","pricing_plan_id":"cebpf4jnsgd1na2vs0mg"},{"bike_id":"de0cf91b-b689-4166-bd20-967e5efca410","system_id":"levelo_inurba_marseille","lat":43.27333,"lon":5.39042,"is_reserved":false,"is_disabled":false,"rental_uris":{"android":"levelo://app?vid=de0cf91b-b689-4166-bd20-967e5efca410","ios":"levelo://app?vid=de0cf91b-b689-4166-bd20-967e5efca410"},"vehicle_type_id":"4","last_reported":1727270334,"current_range_meters":36800,"station_id":"ce4bhgp2rcd13ifvqfe0","pricing_plan_id":"cebpf4jnsgd1na2vs0mg"},{"bike_id":"aa853ba1-de67-4d2f-bea0-b71b61b02004","system_id":"levelo_inurba_marseille","lat":43.31272,"lon":5.40165,"is_reserved":false,"is_disabled":false,"rental_uris":{"android":"levelo://app?vid=aa853ba1-de67-4d2f-bea0-b71b61b02004","ios":"levelo://app?vid=aa853ba1-de67-4d2f-bea0-b71b61b02004"},"vehicle_type_id":"4","last_reported":1727270334,"current_range_meters":20800,"station_id":"ce4bh092rcd13ifvqd30","pricing_plan_id":"cebpf4jnsgd1na2vs0mg"},{"bike_id":"ba48d8f2-32d1-4432-ab59-da552ea9cf00","system_id":"levelo_inurba_marseille","lat":43.28711,"lon":5.37375,"is_reserved":false,"is_disabled":false,"rental_uris":{"android":"levelo://app?vid=ba48d8f2-32d1-4432-ab59-da552ea9cf00","ios":"levelo://app?vid=ba48d8f2-32d1-4432-ab59-da552ea9cf00"},"vehicle_type_id":"4","last_reported":1727270334,"current_range_meters":12400,"station_id":"ce4bh3p2rcd13ifvqdq0","pricing_plan_id":"cebpf4jnsgd1na2vs0mg"},{"bike_id":"3280970d-0bac-4995-a5af-c50ff94b8500","system_id":"levelo_inurba_marseille","lat":43.23966,"lon":5.36632,"is_reserved":false,"is_disabled":false,"rental_uris":{"android":"levelo://app?vid=3280970d-0bac-4995-a5af-c50ff94b8500","ios":"levelo://app?vid=3280970d-0bac-4995-a5af-c50ff94b8500"},"vehicle_type_id":"4","last_reported":1727270334,"current_range_meters":25600,"station_id":"ce4bhi12rcd13ifvqfp0","pricing_plan_id":"cebpf4jnsgd1na2vs0mg"},{"bike_id":"d18e33d1-440e-4c0b-9a8b-2d2580d7559d","system_id":"levelo_inurba_marseille","lat":43.32484,"lon":5.36563,"is_reserved":false,"is_disabled":false,"rental_uris":{"android":"levelo://app?vid=d18e33d1-440e-4c0b-9a8b-2d2580d7559d","ios":"levelo://app?vid=d18e33d1-440e-4c0b-9a8b-2d2580d7559d"},"vehicle_type_id":"4","last_reported":1727270334,"current_range_meters":2800,"station_id":"ce4bhs12rcd13ifvqhvg","pricing_plan_id":"cebpf4jnsgd1na2vs0mg"},{"bike_id":"ee83f892-024a-4bb0-9cd5-fbf12aeb1514","system_id":"levelo_inurba_marseille","lat":43.30546,"lon":5.36694,"is_reserved":false,"is_disabled":false,"rental_uris":{"android":"levelo://app?vid=ee83f892-024a-4bb0-9cd5-fbf12aeb1514","ios":"levelo://app?vid=ee83f892-024a-4bb0-9cd5-fbf12aeb1514"},"vehicle_type_id":"4","last_reported":1727270334,"current_range_meters":38800,"station_id":"ce4bgrp2rcd13ifvqc9g","pricing_plan_id":"cebpf4jnsgd1na2vs0mg"},{"bike_id":"dd242317-41e5-44f2-bc98-6bc74d7c5925","system_id":"levelo_inurba_marseille","lat":43.23154,"lon":5.43704,"is_reserved":false,"is_disabled":false,"rental_uris":{"android":"levelo://app?vid=dd242317-41e5-44f2-bc98-6bc74d7c5925","ios":"levelo://app?vid=dd242317-41e5-44f2-bc98-6bc74d7c5925"},"vehicle_type_id":"4","last_reported":1727270334,"current_range_meters":22000,"station_id":"ce4bhmp2rcd13ifvqgog","pricing_plan_id":"cebpf4jnsgd1na2vs0mg"},{"bike_id":"e75a8ea6-e75b-4ff2-8201-11eb1d7ef8ed","system_id":"levelo_inurba_marseille","lat":43.26685,"lon":5.38266,"is_reserved":false,"is_disabled":false,"rental_uris":{"android":"levelo://app?vid=e75a8ea6-e75b-4ff2-8201-11eb1d7ef8ed","ios":"levelo://app?vid=e75a8ea6-e75b-4ff2-8201-11eb1d7ef8ed"},"vehicle_type_id":"4","last_reported":1727270334,"current_range_meters":36000,"station_id":"ce4bhg92rcd13ifvqf90","pricing_plan_id":"cebpf4jnsgd1na2vs0mg"},{"bike_id":"7d1c5f24-b2c4-4b39-a45e-5cd31c748af9","system_id":"levelo_inurba_marseille","lat":43.32491,"lon":5.36564,"is_reserved":false,"is_disabled":false,"rental_uris":{"android":"levelo://app?vid=7d1c5f24-b2c4-4b39-a45e-5cd31c748af9","ios":"levelo://app?vid=7d1c5f24-b2c4-4b39-a45e-5cd31c748af9"},"vehicle_type_id":"4","last_reported":1727270334,"current_range_meters":33600,"station_id":"ce4bhs12rcd13ifvqhvg","pricing_plan_id":"cebpf4jnsgd1na2vs0mg"},{"bike_id":"873052f7-9bc5-4a04-9907-f5412dc2735a","system_id":"levelo_inurba_marseille","lat":43.33764,"lon":5.37438,"is_reserved":false,"is_disabled":false,"rental_uris":{"android":"levelo://app?vid=873052f7-9bc5-4a04-9907-f5412dc2735a","ios":"levelo://app?vid=873052f7-9bc5-4a04-9907-f5412dc2735a"},"vehicle_type_id":"4","last_reported":1727270334,"current_range_meters":24400,"station_id":"","pricing_plan_id":"cebpf4jnsgd1na2vs0mg"},{"bike_id":"433fe203-7f88-44e9-9db7-53e258fbd170","system_id":"levelo_inurba_marseille","lat":43.30541,"lon":5.36525,"is_reserved":false,"is_disabled":false,"rental_uris":{"android":"levelo://app?vid=433fe203-7f88-44e9-9db7-53e258fbd170","ios":"levelo://app?vid=433fe203-7f88-44e9-9db7-53e258fbd170"},"vehicle_type_id":"4","last_reported":1727270334,"current_range_meters":24800,"station_id":"ce4bgs12rcd13ifvqcag","pricing_plan_id":"cebpf4jnsgd1na2vs0mg"},{"bike_id":"af4bd883-ba6d-45c4-bfa5-9b040e8d0a92","system_id":"levelo_inurba_marseille","lat":43.28418,"lon":5.34983,"is_reserved":false,"is_disabled":false,"rental_uris":{"android":"levelo://app?vid=af4bd883-ba6d-45c4-bfa5-9b040e8d0a92","ios":"levelo://app?vid=af4bd883-ba6d-45c4-bfa5-9b040e8d0a92"},"vehicle_type_id":"4","last_reported":1727270334,"current_range_meters":16000,"station_id":"ce4bhbh2rcd13ifvqepg","pricing_plan_id":"cebpf4jnsgd1na2vs0mg"},{"bike_id":"88cc7053-86e8-4e72-8004-8cca12524def","system_id":"levelo_inurba_marseille","lat":43.29788,"lon":5.37107,"is_reserved":false,"is_disabled":false,"rental_uris":{"android":"levelo://app?vid=88cc7053-86e8-4e72-8004-8cca12524def","ios":"levelo://app?vid=88cc7053-86e8-4e72-8004-8cca12524def"},"vehicle_type_id":"4","last_reported":1727270334,"current_range_meters":35200,"station_id":"ce4bgop2rcd13ifvqc1g","pricing_plan_id":"cebpf4jnsgd1na2vs0mg"},{"bike_id":"5d6875fb-80f6-430b-ae5b-fb00451d0862","system_id":"levelo_inurba_marseille","lat":43.2979,"lon":5.38114,"is_reserved":false,"is_disabled":false,"rental_uris":{"android":"levelo://app?vid=5d6875fb-80f6-430b-ae5b-fb00451d0862","ios":"levelo://app?vid=5d6875fb-80f6-430b-ae5b-fb00451d0862"},"vehicle_type_id":"4","last_reported":1727270334,"current_range_meters":4400,"station_id":"ce4bgip2rcd13ifvqbb0","pricing_plan_id":"cebpf4jnsgd1na2vs0mg"},{"bike_id":"e35ab449-7ef3-4cc5-8c52-a80a98c9ea11","system_id":"levelo_inurba_marseille","lat":43.26199,"lon":5.37921,"is_reserved":false,"is_disabled":false,"rental_uris":{"android":"levelo://app?vid=e35ab449-7ef3-4cc5-8c52-a80a98c9ea11","ios":"levelo://app?vid=e35ab449-7ef3-4cc5-8c52-a80a98c9ea11"},"vehicle_type_id":"4","last_reported":1727270334,"current_range_meters":14400,"station_id":"ce4bhjp2rcd13ifvqg90","pricing_plan_id":"cebpf4jnsgd1na2vs0mg"},{"bike_id":"7fd33ddd-a234-4783-87bf-1ca7483e44d7","system_id":"levelo_inurba_marseille","lat":43.28936,"lon":5.36634,"is_reserved":false,"is_disabled":false,"rental_uris":{"android":"levelo://app?vid=7fd33ddd-a234-4783-87bf-1ca7483e44d7","ios":"levelo://app?vid=7fd33ddd-a234-4783-87bf-1ca7483e44d7"},"vehicle_type_id":"4","last_reported":1727270334,"current_range_meters":18800,"station_id":"ce4bhap2rcd13ifvqek0","pricing_plan_id":"cebpf4jnsgd1na2vs0mg"},{"bike_id":"9a49e071-e994-4421-a8da-dc05ac5e5069","system_id":"levelo_inurba_marseille","lat":43.3234,"lon":5.40624,"is_reserved":false,"is_disabled":false,"rental_uris":{"android":"levelo://app?vid=9a49e071-e994-4421-a8da-dc05ac5e5069","ios":"levelo://app?vid=9a49e071-e994-4421-a8da-dc05ac5e5069"},"vehicle_type_id":"4","last_reported":1727270334,"current_range_meters":8400,"station_id":"ce4bhq92rcd13ifvqhjg","pricing_plan_id":"cebpf4jnsgd1na2vs0mg"},{"bike_id":"a75d11e4-5000-41f8-9ff2-fbd2a76366d5","system_id":"levelo_inurba_marseille","lat":43.33953,"lon":5.42075,"is_reserved":false,"is_disabled":false,"rental_uris":{"android":"levelo://app?vid=a75d11e4-5000-41f8-9ff2-fbd2a76366d5","ios":"levelo://app?vid=a75d11e4-5000-41f8-9ff2-fbd2a76366d5"},"vehicle_type_id":"4","last_reported":1727270334,"current_range_meters":20800,"station_id":"","pricing_plan_id":"cebpf4jnsgd1na2vs0mg"},{"bike_id":"cbba5396-600c-4e32-8734-b1818e89e22f","system_id":"levelo_inurba_marseille","lat":43.23157,"lon":5.43711,"is_reserved":false,"is_disabled":false,"rental_uris":{"android":"levelo://app?vid=cbba5396-600c-4e32-8734-b1818e89e22f","ios":"levelo://app?vid=cbba5396-600c-4e32-8734-b1818e89e22f"},"vehicle_type_id":"4","last_reported":1727270334,"current_range_meters":20400,"station_id":"ce4bhmp2rcd13ifvqgog","pricing_plan_id":"cebpf4jnsgd1na2vs0mg"},{"bike_id":"01595288-f39c-4dd0-b435-b0343de32e35","system_id":"levelo_inurba_marseille","lat":43.29044,"lon":5.37563,"is_reserved":false,"is_disabled":false,"rental_uris":{"android":"levelo://app?vid=01595288-f39c-4dd0-b435-b0343de32e35","ios":"levelo://app?vid=01595288-f39c-4dd0-b435-b0343de32e35"},"vehicle_type_id":"4","last_reported":1727270334,"current_range_meters":13600,"station_id":"ce4bh692rcd13ifvqe90","pricing_plan_id":"cebpf4jnsgd1na2vs0mg"},{"bike_id":"d07978be-35bf-4494-93fc-5df9099226be","system_id":"levelo_inurba_marseille","lat":43.31698,"lon":5.40474,"is_reserved":false,"is_disabled":false,"rental_uris":{"android":"levelo://app?vid=d07978be-35bf-4494-93fc-5df9099226be","ios":"levelo://app?vid=d07978be-35bf-4494-93fc-5df9099226be"},"vehicle_type_id":"4","last_reported":1727270334,"current_range_meters":16000,"station_id":"ce4bh012rcd13ifvqd00","pricing_plan_id":"cebpf4jnsgd1na2vs0mg"},{"bike_id":"639d02cd-5724-4d3b-a4e5-58816d2d7230","system_id":"levelo_inurba_marseille","lat":43.27999,"lon":5.41661,"is_reserved":false,"is_disabled":false,"rental_uris":{"android":"levelo://app?vid=639d02cd-5724-4d3b-a4e5-58816d2d7230","ios":"levelo://app?vid=639d02cd-5724-4d3b-a4e5-58816d2d7230"},"vehicle_type_id":"4","last_reported":1727270334,"current_range_meters":38800,"station_id":"ce4bho12rcd13ifvqh1g","pricing_plan_id":"cebpf4jnsgd1na2vs0mg"},{"bike_id":"0a293b2b-93eb-4869-889e-86f23b15aca3","system_id":"levelo_inurba_marseille","lat":43.28282,"lon":5.35072,"is_reserved":false,"is_disabled":false,"rental_uris":{"android":"levelo://app?vid=0a293b2b-93eb-4869-889e-86f23b15aca3","ios":"levelo://app?vid=0a293b2b-93eb-4869-889e-86f23b15aca3"},"vehicle_type_id":"4","last_reported":1727270334,"current_range_meters":39200,"station_id":"ce4bhbp2rcd13ifvqerg","pricing_plan_id":"cebpf4jnsgd1na2vs0mg"},{"bike_id":"d2b29a3f-a9f9-4e26-bd8f-3dbbdf2f5a97","system_id":"levelo_inurba_marseille","lat":43.30531,"lon":5.36529,"is_reserved":false,"is_disabled":false,"rental_uris":{"android":"levelo://app?vid=d2b29a3f-a9f9-4e26-bd8f-3dbbdf2f5a97","ios":"levelo://app?vid=d2b29a3f-a9f9-4e26-bd8f-3dbbdf2f5a97"},"vehicle_type_id":"4","last_reported":1727270334,"current_range_meters":35200,"station_id":"ce4bgs12rcd13ifvqcag","pricing_plan_id":"cebpf4jnsgd1na2vs0mg"},{"bike_id":"d51ecaf6-b012-461c-ae72-edfff9f80715","system_id":"levelo_inurba_marseille","lat":43.23969,"lon":5.36621,"is_reserved":false,"is_disabled":false,"rental_uris":{"android":"levelo://app?vid=d51ecaf6-b012-461c-ae72-edfff9f80715","ios":"levelo://app?vid=d51ecaf6-b012-461c-ae72-edfff9f80715"},"vehicle_type_id":"4","last_reported":1727270334,"current_range_meters":30400,"station_id":"ce4bhi12rcd13ifvqfp0","pricing_plan_id":"cebpf4jnsgd1na2vs0mg"},{"bike_id":"0e9b8561-fe65-475c-bb2a-b03392fb2639","system_id":"levelo_inurba_marseille","lat":43.31083,"lon":5.3836,"is_reserved":false,"is_disabled":false,"rental_uris":{"android":"levelo://app?vid=0e9b8561-fe65-475c-bb2a-b03392fb2639","ios":"levelo://app?vid=0e9b8561-fe65-475c-bb2a-b03392fb2639"},"vehicle_type_id":"4","last_reported":1727270334,"current_range_meters":6400,"station_id":"ce4bgv92rcd13ifvqcr0","pricing_plan_id":"cebpf4jnsgd1na2vs0mg"},{"bike_id":"e5961e7f-9a2e-4bfe-af5d-24e710418eaf","system_id":"levelo_inurba_marseille","lat":43.29935,"lon":5.36534,"is_reserved":false,"is_disabled":false,"rental_uris":{"android":"levelo://app?vid=e5961e7f-9a2e-4bfe-af5d-24e710418eaf","ios":"levelo://app?vid=e5961e7f-9a2e-4bfe-af5d-24e710418eaf"},"vehicle_type_id":"4","last_reported":1727270334,"current_range_meters":38800,"station_id":"ce4bgm92rcd13ifvqbr0","pricing_plan_id":"cebpf4jnsgd1na2vs0mg"},{"bike_id":"c80eec86-a8c9-4662-a1ea-3fc69eb420b2","system_id":"levelo_inurba_marseille","lat":43.30536,"lon":5.367,"is_reserved":false,"is_disabled":false,"rental_uris":{"android":"levelo://app?vid=c80eec86-a8c9-4662-a1ea-3fc69eb420b2","ios":"levelo://app?vid=c80eec86-a8c9-4662-a1ea-3fc69eb420b2"},"vehicle_type_id":"4","last_reported":1727270334,"current_range_meters":24000,"station_id":"ce4bgrp2rcd13ifvqc9g","pricing_plan_id":"cebpf4jnsgd1na2vs0mg"},{"bike_id":"dff5b480-2f0f-4235-8970-6a378b475319","system_id":"levelo_inurba_marseille","lat":43.29897,"lon":5.43669,"is_reserved":false,"is_disabled":false,"rental_uris":{"android":"levelo://app?vid=dff5b480-2f0f-4235-8970-6a378b475319","ios":"levelo://app?vid=dff5b480-2f0f-4235-8970-6a378b475319"},"vehicle_type_id":"4","last_reported":1727270334,"current_range_meters":23200,"station_id":"ce4bhpp2rcd13ifvqhfg","pricing_plan_id":"cebpf4jnsgd1na2vs0mg"},{"bike_id":"67518d7f-b070-48bf-a9c4-384c7439074a","system_id":"levelo_inurba_marseille","lat":43.27376,"lon":5.36255,"is_reserved":false,"is_disabled":false,"rental_uris":{"android":"levelo://app?vid=67518d7f-b070-48bf-a9c4-384c7439074a","ios":"levelo://app?vid=67518d7f-b070-48bf-a9c4-384c7439074a"},"vehicle_type_id":"4","last_reported":1727270334,"current_range_meters":27200,"station_id":"ce4bhbh2rcd13ifvqeo0","pricing_plan_id":"cebpf4jnsgd1na2vs0mg"},{"bike_id":"7ac42b12-0834-4e23-abe0-bc3ff7e02419","system_id":"levelo_inurba_marseille","lat":43.300537,"lon":5.380633,"is_reserved":false,"is_disabled":false,"rental_uris":{"android":"levelo://app?vid=7ac42b12-0834-4e23-abe0-bc3ff7e02419","ios":"levelo://app?vid=7ac42b12-0834-4e23-abe0-bc3ff7e02419"},"vehicle_type_id":"4","last_reported":1727270334,"current_range_meters":30800,"station_id":"ce4bhc92rcd13ifvqetg","pricing_plan_id":"cebpf4jnsgd1na2vs0mg"},{"bike_id":"8e05af2b-9b3f-476e-849e-aaaf8aec646f","system_id":"levelo_inurba_marseille","lat":43.287,"lon":5.37386,"is_reserved":false,"is_disabled":false,"rental_uris":{"android":"levelo://app?vid=8e05af2b-9b3f-476e-849e-aaaf8aec646f","ios":"levelo://app?vid=8e05af2b-9b3f-476e-849e-aaaf8aec646f"},"vehicle_type_id":"4","last_reported":1727270334,"current_range_meters":39200,"station_id":"ce4bh3p2rcd13ifvqdq0","pricing_plan_id":"cebpf4jnsgd1na2vs0mg"},{"bike_id":"1e654916-7518-4df9-b641-e2dc64d6c7b9","system_id":"levelo_inurba_marseille","lat":43.30951,"lon":5.39028,"is_reserved":false,"is_disabled":false,"rental_uris":{"android":"levelo://app?vid=1e654916-7518-4df9-b641-e2dc64d6c7b9","ios":"levelo://app?vid=1e654916-7518-4df9-b641-e2dc64d6c7b9"},"vehicle_type_id":"4","last_reported":1727270334,"current_range_meters":26800,"station_id":"ce4bgup2rcd13ifvqco0","pricing_plan_id":"cebpf4jnsgd1na2vs0mg"},{"bike_id":"9183d803-7939-4646-aa0b-d72e497346d8","system_id":"levelo_inurba_marseille","lat":43.31073,"lon":5.3835,"is_reserved":false,"is_disabled":false,"rental_uris":{"android":"levelo://app?vid=9183d803-7939-4646-aa0b-d72e497346d8","ios":"levelo://app?vid=9183d803-7939-4646-aa0b-d72e497346d8"},"vehicle_type_id":"4","last_reported":1727270334,"current_range_meters":34000,"station_id":"ce4bgv92rcd13ifvqcr0","pricing_plan_id":"cebpf4jnsgd1na2vs0mg"},{"bike_id":"1f3f4789-58e7-4b89-90f4-6cb0ed76fdf1","system_id":"levelo_inurba_marseille","lat":43.288177,"lon":5.395212,"is_reserved":false,"is_disabled":false,"rental_uris":{"android":"levelo://app?vid=1f3f4789-58e7-4b89-90f4-6cb0ed76fdf1","ios":"levelo://app?vid=1f3f4789-58e7-4b89-90f4-6cb0ed76fdf1"},"vehicle_type_id":"4","last_reported":1727270334,"current_range_meters":17600,"station_id":"ce4bh412rcd13ifvqdr0","pricing_plan_id":"cebpf4jnsgd1na2vs0mg"},{"bike_id":"d3ef1248-13b1-479e-b5b5-d260c85713ae","system_id":"levelo_inurba_marseille","lat":43.30883,"lon":5.37195,"is_reserved":false,"is_disabled":false,"rental_uris":{"android":"levelo://app?vid=d3ef1248-13b1-479e-b5b5-d260c85713ae","ios":"levelo://app?vid=d3ef1248-13b1-479e-b5b5-d260c85713ae"},"vehicle_type_id":"4","last_reported":1727270334,"current_range_meters":6800,"station_id":"ce4bguh2rcd13ifvqckg","pricing_plan_id":"cebpf4jnsgd1na2vs0mg"},{"bike_id":"782d02e8-4268-49f6-9a9e-efae38b630ed","system_id":"levelo_inurba_marseille","lat":43.297667,"lon":5.381005,"is_reserved":false,"is_disabled":false,"rental_uris":{"android":"levelo://app?vid=782d02e8-4268-49f6-9a9e-efae38b630ed","ios":"levelo://app?vid=782d02e8-4268-49f6-9a9e-efae38b630ed"},"vehicle_type_id":"4","last_reported":1727270334,"current_range_meters":25600,"station_id":"ce4bgip2rcd13ifvqbb0","pricing_plan_id":"cebpf4jnsgd1na2vs0mg"},{"bike_id":"fe9f343e-7a95-4e85-bb42-7a0554aaefbd","system_id":"levelo_inurba_marseille","lat":43.32482,"lon":5.36561,"is_reserved":false,"is_disabled":false,"rental_uris":{"android":"levelo://app?vid=fe9f343e-7a95-4e85-bb42-7a0554aaefbd","ios":"levelo://app?vid=fe9f343e-7a95-4e85-bb42-7a0554aaefbd"},"vehicle_type_id":"4","last_reported":1727270334,"current_range_meters":12000,"station_id":"ce4bhs12rcd13ifvqhvg","pricing_plan_id":"cebpf4jnsgd1na2vs0mg"},{"bike_id":"df5b38d2-64cb-4df0-856f-ea9bd22c082c","system_id":"levelo_inurba_marseille","lat":43.23187,"lon":5.35556,"is_reserved":false,"is_disabled":false,"rental_uris":{"android":"levelo://app?vid=df5b38d2-64cb-4df0-856f-ea9bd22c082c","ios":"levelo://app?vid=df5b38d2-64cb-4df0-856f-ea9bd22c082c"},"vehicle_type_id":"4","last_reported":1727270334,"current_range_meters":8000,"station_id":"ce4bhu92rcd13ifvqi70","pricing_plan_id":"cebpf4jnsgd1na2vs0mg"},{"bike_id":"891137de-5805-4e25-8c63-e02660ead314","system_id":"levelo_inurba_marseille","lat":43.25873,"lon":5.39898,"is_reserved":false,"is_disabled":false,"rental_uris":{"android":"levelo://app?vid=891137de-5805-4e25-8c63-e02660ead314","ios":"levelo://app?vid=891137de-5805-4e25-8c63-e02660ead314"},"vehicle_type_id":"4","last_reported":1727270334,"current_range_meters":32000,"station_id":"ce4bhl92rcd13ifvqghg","pricing_plan_id":"cebpf4jnsgd1na2vs0mg"},{"bike_id":"1d19d43a-746f-4ec6-a6a3-c574899f679a","system_id":"levelo_inurba_marseille","lat":43.25004,"lon":5.38923,"is_reserved":false,"is_disabled":false,"rental_uris":{"android":"levelo://app?vid=1d19d43a-746f-4ec6-a6a3-c574899f679a","ios":"levelo://app?vid=1d19d43a-746f-4ec6-a6a3-c574899f679a"},"vehicle_type_id":"4","last_reported":1727270334,"current_range_meters":16000,"station_id":"ce4bhgp2rcd13ifvqfd0","pricing_plan_id":"cebpf4jnsgd1na2vs0mg"},{"bike_id":"16572a4e-842d-44fc-9dea-41399ddd68bf","system_id":"levelo_inurba_marseille","lat":43.26806,"lon":5.40268,"is_reserved":false,"is_disabled":false,"rental_uris":{"android":"levelo://app?vid=16572a4e-842d-44fc-9dea-41399ddd68bf","ios":"levelo://app?vid=16572a4e-842d-44fc-9dea-41399ddd68bf"},"vehicle_type_id":"4","last_reported":1727270334,"current_range_meters":24800,"station_id":"ce501612rcd8frsf0b60","pricing_plan_id":"cebpf4jnsgd1na2vs0mg"},{"bike_id":"3fb95c81-ef95-48e3-a8c3-f895f69c22eb","system_id":"levelo_inurba_marseille","lat":43.25869,"lon":5.39896,"is_reserved":false,"is_disabled":false,"rental_uris":{"android":"levelo://app?vid=3fb95c81-ef95-48e3-a8c3-f895f69c22eb","ios":"levelo://app?vid=3fb95c81-ef95-48e3-a8c3-f895f69c22eb"},"vehicle_type_id":"4","last_reported":1727270334,"current_range_meters":13600,"station_id":"ce4bhl92rcd13ifvqghg","pricing_plan_id":"cebpf4jnsgd1na2vs0mg"},{"bike_id":"e6581c86-ea5b-4865-89e9-2d08bc65b701","system_id":"levelo_inurba_marseille","lat":43.27178,"lon":5.40983,"is_reserved":false,"is_disabled":false,"rental_uris":{"android":"levelo://app?vid=e6581c86-ea5b-4865-89e9-2d08bc65b701","ios":"levelo://app?vid=e6581c86-ea5b-4865-89e9-2d08bc65b701"},"vehicle_type_id":"4","last_reported":1727270334,"current_range_meters":38000,"station_id":"ce4bhl12rcd13ifvqgf0","pricing_plan_id":"cebpf4jnsgd1na2vs0mg"},{"bike_id":"e7c3faff-1672-4700-b6c2-552610c90f93","system_id":"levelo_inurba_marseille","lat":43.30534,"lon":5.36533,"is_reserved":false,"is_disabled":false,"rental_uris":{"android":"levelo://app?vid=e7c3faff-1672-4700-b6c2-552610c90f93","ios":"levelo://app?vid=e7c3faff-1672-4700-b6c2-552610c90f93"},"vehicle_type_id":"4","last_reported":1727270334,"current_range_meters":38800,"station_id":"ce4bgs12rcd13ifvqcag","pricing_plan_id":"cebpf4jnsgd1na2vs0mg"},{"bike_id":"bca81bcc-db8f-4252-98dd-a19370662d96","system_id":"levelo_inurba_marseille","lat":43.30135,"lon":5.37416,"is_reserved":false,"is_disabled":false,"rental_uris":{"android":"levelo://app?vid=bca81bcc-db8f-4252-98dd-a19370662d96","ios":"levelo://app?vid=bca81bcc-db8f-4252-98dd-a19370662d96"},"vehicle_type_id":"4","last_reported":1727270334,"current_range_meters":22000,"station_id":"ce4bgs92rcd13ifvqcc0","pricing_plan_id":"cebpf4jnsgd1na2vs0mg"},{"bike_id":"12d7053e-cea1-40b3-a966-a7d733501bec","system_id":"levelo_inurba_marseille","lat":43.24386,"lon":5.37062,"is_reserved":false,"is_disabled":false,"rental_uris":{"android":"levelo://app?vid=12d7053e-cea1-40b3-a966-a7d733501bec","ios":"levelo://app?vid=12d7053e-cea1-40b3-a966-a7d733501bec"},"vehicle_type_id":"4","last_reported":1727270334,"current_range_meters":14800,"station_id":"ce4bhhh2rcd13ifvqfk0","pricing_plan_id":"cebpf4jnsgd1na2vs0mg"},{"bike_id":"cde29f88-37a7-4fca-800e-2a54fcbf5931","system_id":"levelo_inurba_marseille","lat":43.29625,"lon":5.37148,"is_reserved":false,"is_disabled":false,"rental_uris":{"android":"levelo://app?vid=cde29f88-37a7-4fca-800e-2a54fcbf5931","ios":"levelo://app?vid=cde29f88-37a7-4fca-800e-2a54fcbf5931"},"vehicle_type_id":"4","last_reported":1727270334,"current_range_meters":38800,"station_id":"ce4bgnh2rcd13ifvqc0g","pricing_plan_id":"cebpf4jnsgd1na2vs0mg"},{"bike_id":"27431c98-bcee-4fbc-9005-ef4fd6a106b8","system_id":"levelo_inurba_marseille","lat":43.23192,"lon":5.39976,"is_reserved":false,"is_disabled":false,"rental_uris":{"android":"levelo://app?vid=27431c98-bcee-4fbc-9005-ef4fd6a106b8","ios":"levelo://app?vid=27431c98-bcee-4fbc-9005-ef4fd6a106b8"},"vehicle_type_id":"4","last_reported":1727270334,"current_range_meters":10800,"station_id":"ce4bhn12rcd13ifvqgqg","pricing_plan_id":"cebpf4jnsgd1na2vs0mg"},{"bike_id":"00b89244-44c9-4cdf-9a77-43a1428ef3ef","system_id":"levelo_inurba_marseille","lat":43.27427,"lon":5.39412,"is_reserved":false,"is_disabled":false,"rental_uris":{"android":"levelo://app?vid=00b89244-44c9-4cdf-9a77-43a1428ef3ef","ios":"levelo://app?vid=00b89244-44c9-4cdf-9a77-43a1428ef3ef"},"vehicle_type_id":"4","last_reported":1727270334,"current_range_meters":22400,"station_id":"ce4bhdp2rcd13ifvqf20","pricing_plan_id":"cebpf4jnsgd1na2vs0mg"},{"bike_id":"6b67c6ca-8c85-442f-91a5-5271149dfa81","system_id":"levelo_inurba_marseille","lat":43.2998,"lon":5.37174,"is_reserved":false,"is_disabled":false,"rental_uris":{"android":"levelo://app?vid=6b67c6ca-8c85-442f-91a5-5271149dfa81","ios":"levelo://app?vid=6b67c6ca-8c85-442f-91a5-5271149dfa81"},"vehicle_type_id":"4","last_reported":1727270334,"current_range_meters":12800,"station_id":"ce4bgr92rcd13ifvqc7g","pricing_plan_id":"cebpf4jnsgd1na2vs0mg"},{"bike_id":"b4895f83-547d-439c-b412-6a88f09c97fc","system_id":"levelo_inurba_marseille","lat":43.29257,"lon":5.38435,"is_reserved":false,"is_disabled":false,"rental_uris":{"android":"levelo://app?vid=b4895f83-547d-439c-b412-6a88f09c97fc","ios":"levelo://app?vid=b4895f83-547d-439c-b412-6a88f09c97fc"},"vehicle_type_id":"4","last_reported":1727270334,"current_range_meters":4400,"station_id":"ce4bh692rcd13ifvqea0","pricing_plan_id":"cebpf4jnsgd1na2vs0mg"},{"bike_id":"e4694cbe-abfe-4232-86b0-1127775f75b8","system_id":"levelo_inurba_marseille","lat":43.30331,"lon":5.40433,"is_reserved":false,"is_disabled":false,"rental_uris":{"android":"levelo://app?vid=e4694cbe-abfe-4232-86b0-1127775f75b8","ios":"levelo://app?vid=e4694cbe-abfe-4232-86b0-1127775f75b8"},"vehicle_type_id":"4","last_reported":1727270334,"current_range_meters":38800,"station_id":"ce4bh012rcd13ifvqd10","pricing_plan_id":"cebpf4jnsgd1na2vs0mg"},{"bike_id":"1f658908-6ce5-4bb3-b6be-b1e46cd9a152","system_id":"levelo_inurba_marseille","lat":43.31084,"lon":5.42428,"is_reserved":false,"is_disabled":false,"rental_uris":{"android":"levelo://app?vid=1f658908-6ce5-4bb3-b6be-b1e46cd9a152","ios":"levelo://app?vid=1f658908-6ce5-4bb3-b6be-b1e46cd9a152"},"vehicle_type_id":"4","last_reported":1727270334,"current_range_meters":18800,"station_id":"ce4bhp92rcd13ifvqhag","pricing_plan_id":"cebpf4jnsgd1na2vs0mg"},{"bike_id":"903507de-16f6-48d0-a454-2c9d4c61bdc6","system_id":"levelo_inurba_marseille","lat":43.30138,"lon":5.37413,"is_reserved":false,"is_disabled":false,"rental_uris":{"android":"levelo://app?vid=903507de-16f6-48d0-a454-2c9d4c61bdc6","ios":"levelo://app?vid=903507de-16f6-48d0-a454-2c9d4c61bdc6"},"vehicle_type_id":"4","last_reported":1727270334,"current_range_meters":28400,"station_id":"ce4bgs92rcd13ifvqcc0","pricing_plan_id":"cebpf4jnsgd1na2vs0mg"},{"bike_id":"7be6f0fa-fda1-4f10-a2d5-dcbff62ee56a","system_id":"levelo_inurba_marseille","lat":43.33028,"lon":5.39033,"is_reserved":false,"is_disabled":false,"rental_uris":{"android":"levelo://app?vid=7be6f0fa-fda1-4f10-a2d5-dcbff62ee56a","ios":"levelo://app?vid=7be6f0fa-fda1-4f10-a2d5-dcbff62ee56a"},"vehicle_type_id":"4","last_reported":1727270334,"current_range_meters":33200,"station_id":"ce4bhr92rcd13ifvqhrg","pricing_plan_id":"cebpf4jnsgd1na2vs0mg"},{"bike_id":"5464bd4b-5c6d-4472-9105-7bc381bf630a","system_id":"levelo_inurba_marseille","lat":43.2998,"lon":5.37165,"is_reserved":false,"is_disabled":false,"rental_uris":{"android":"levelo://app?vid=5464bd4b-5c6d-4472-9105-7bc381bf630a","ios":"levelo://app?vid=5464bd4b-5c6d-4472-9105-7bc381bf630a"},"vehicle_type_id":"4","last_reported":1727270334,"current_range_meters":39200,"station_id":"ce4bgr92rcd13ifvqc7g","pricing_plan_id":"cebpf4jnsgd1na2vs0mg"},{"bike_id":"272b6a3d-2d24-475e-858c-5e80b98eade2","system_id":"levelo_inurba_marseille","lat":43.30288,"lon":5.40078,"is_reserved":false,"is_disabled":false,"rental_uris":{"android":"levelo://app?vid=272b6a3d-2d24-475e-858c-5e80b98eade2","ios":"levelo://app?vid=272b6a3d-2d24-475e-858c-5e80b98eade2"},"vehicle_type_id":"4","last_reported":1727270334,"current_range_meters":16000,"station_id":"ce4bh392rcd13ifvqdm0","pricing_plan_id":"cebpf4jnsgd1na2vs0mg"},{"bike_id":"c2929dfe-5db6-4e8c-9187-c59c4c2907d3","system_id":"levelo_inurba_marseille","lat":43.3375,"lon":5.37446,"is_reserved":false,"is_disabled":false,"rental_uris":{"android":"levelo://app?vid=c2929dfe-5db6-4e8c-9187-c59c4c2907d3","ios":"levelo://app?vid=c2929dfe-5db6-4e8c-9187-c59c4c2907d3"},"vehicle_type_id":"4","last_reported":1727270334,"current_range_meters":27200,"station_id":"","pricing_plan_id":"cebpf4jnsgd1na2vs0mg"},{"bike_id":"50a7fcdc-a7ea-4fa4-8d14-fa81d39361e4","system_id":"levelo_inurba_marseille","lat":43.30894,"lon":5.37181,"is_reserved":false,"is_disabled":false,"rental_uris":{"android":"levelo://app?vid=50a7fcdc-a7ea-4fa4-8d14-fa81d39361e4","ios":"levelo://app?vid=50a7fcdc-a7ea-4fa4-8d14-fa81d39361e4"},"vehicle_type_id":"4","last_reported":1727270334,"current_range_meters":12400,"station_id":"ce4bguh2rcd13ifvqckg","pricing_plan_id":"cebpf4jnsgd1na2vs0mg"},{"bike_id":"b6eda8d6-ad29-4a6c-890c-564af3af2a77","system_id":"levelo_inurba_marseille","lat":43.29832,"lon":5.36255,"is_reserved":false,"is_disabled":false,"rental_uris":{"android":"levelo://app?vid=b6eda8d6-ad29-4a6c-890c-564af3af2a77","ios":"levelo://app?vid=b6eda8d6-ad29-4a6c-890c-564af3af2a77"},"vehicle_type_id":"4","last_reported":1727270334,"current_range_meters":24400,"station_id":"ce4bgpp2rcd13ifvqc3g","pricing_plan_id":"cebpf4jnsgd1na2vs0mg"},{"bike_id":"ebb8c92a-1834-4e96-ae80-93de674a1924","system_id":"levelo_inurba_marseille","lat":43.32489,"lon":5.365722,"is_reserved":false,"is_disabled":false,"rental_uris":{"android":"levelo://app?vid=ebb8c92a-1834-4e96-ae80-93de674a1924","ios":"levelo://app?vid=ebb8c92a-1834-4e96-ae80-93de674a1924"},"vehicle_type_id":"4","last_reported":1727270334,"current_range_meters":11200,"station_id":"ce4bhb12rcd13ifvqem0","pricing_plan_id":"cebpf4jnsgd1na2vs0mg"},{"bike_id":"9fc60f3f-ff37-4698-b567-8c2e511c5a76","system_id":"levelo_inurba_marseille","lat":43.31176,"lon":5.38721,"is_reserved":false,"is_disabled":false,"rental_uris":{"android":"levelo://app?vid=9fc60f3f-ff37-4698-b567-8c2e511c5a76","ios":"levelo://app?vid=9fc60f3f-ff37-4698-b567-8c2e511c5a76"},"vehicle_type_id":"4","last_reported":1727270334,"current_range_meters":30000,"station_id":"ce4bgv12rcd13ifvqcp0","pricing_plan_id":"cebpf4jnsgd1na2vs0mg"},{"bike_id":"eff6951c-2024-4901-b07d-41ecd8a23209","system_id":"levelo_inurba_marseille","lat":43.33026,"lon":5.39034,"is_reserved":false,"is_disabled":false,"rental_uris":{"android":"levelo://app?vid=eff6951c-2024-4901-b07d-41ecd8a23209","ios":"levelo://app?vid=eff6951c-2024-4901-b07d-41ecd8a23209"},"vehicle_type_id":"4","last_reported":1727270334,"current_range_meters":14800,"station_id":"ce4bhr92rcd13ifvqhrg","pricing_plan_id":"cebpf4jnsgd1na2vs0mg"},{"bike_id":"564dab4c-45b1-4108-bb24-c8ef1359448f","system_id":"levelo_inurba_marseille","lat":43.3248,"lon":5.3657,"is_reserved":false,"is_disabled":false,"rental_uris":{"android":"levelo://app?vid=564dab4c-45b1-4108-bb24-c8ef1359448f","ios":"levelo://app?vid=564dab4c-45b1-4108-bb24-c8ef1359448f"},"vehicle_type_id":"4","last_reported":1727270334,"current_range_meters":2800,"station_id":"ce4bhs12rcd13ifvqhvg","pricing_plan_id":"cebpf4jnsgd1na2vs0mg"},{"bike_id":"60c7f33b-65fe-428d-ad8d-5f226e5af9d9","system_id":"levelo_inurba_marseille","lat":43.27623,"lon":5.36112,"is_reserved":false,"is_disabled":false,"rental_uris":{"android":"levelo://app?vid=60c7f33b-65fe-428d-ad8d-5f226e5af9d9","ios":"levelo://app?vid=60c7f33b-65fe-428d-ad8d-5f226e5af9d9"},"vehicle_type_id":"4","last_reported":1727270334,"current_range_meters":16400,"station_id":"ce4bgj92rcd13ifvqbe0","pricing_plan_id":"cebpf4jnsgd1na2vs0mg"},{"bike_id":"831f93d9-8dee-409f-b2cf-5022278e43df","system_id":"levelo_inurba_marseille","lat":43.30906,"lon":5.36835,"is_reserved":false,"is_disabled":false,"rental_uris":{"android":"levelo://app?vid=831f93d9-8dee-409f-b2cf-5022278e43df","ios":"levelo://app?vid=831f93d9-8dee-409f-b2cf-5022278e43df"},"vehicle_type_id":"4","last_reported":1727270334,"current_range_meters":29600,"station_id":"ce4bgn92rcd13ifvqbvg","pricing_plan_id":"cebpf4jnsgd1na2vs0mg"},{"bike_id":"03865dce-3846-4044-a4da-d94f561d092c","system_id":"levelo_inurba_marseille","lat":43.29939,"lon":5.36529,"is_reserved":false,"is_disabled":false,"rental_uris":{"android":"levelo://app?vid=03865dce-3846-4044-a4da-d94f561d092c","ios":"levelo://app?vid=03865dce-3846-4044-a4da-d94f561d092c"},"vehicle_type_id":"4","last_reported":1727270334,"current_range_meters":36800,"station_id":"","pricing_plan_id":"cebpf4jnsgd1na2vs0mg"},{"bike_id":"3833f1ff-a1dd-4e25-a558-1268c7b7c0f8","system_id":"levelo_inurba_marseille","lat":43.30611,"lon":5.37234,"is_reserved":false,"is_disabled":false,"rental_uris":{"android":"levelo://app?vid=3833f1ff-a1dd-4e25-a558-1268c7b7c0f8","ios":"levelo://app?vid=3833f1ff-a1dd-4e25-a558-1268c7b7c0f8"},"vehicle_type_id":"4","last_reported":1727270334,"current_range_meters":36800,"station_id":"ce4bgqh2rcd13ifvqc4g","pricing_plan_id":"cebpf4jnsgd1na2vs0mg"},{"bike_id":"e0d50eb1-af71-45de-b0f5-5b1a98d5bafa","system_id":"levelo_inurba_marseille","lat":43.24172,"lon":5.36396,"is_reserved":false,"is_disabled":false,"rental_uris":{"android":"levelo://app?vid=e0d50eb1-af71-45de-b0f5-5b1a98d5bafa","ios":"levelo://app?vid=e0d50eb1-af71-45de-b0f5-5b1a98d5bafa"},"vehicle_type_id":"4","last_reported":1727270334,"current_range_meters":35600,"station_id":"cpo36qri1sfpv3e86is0","pricing_plan_id":"cebpf4jnsgd1na2vs0mg"},{"bike_id":"249c9091-61aa-4e8e-8e7b-4cdb5273009f","system_id":"levelo_inurba_marseille","lat":43.3014,"lon":5.37416,"is_reserved":false,"is_disabled":false,"rental_uris":{"android":"levelo://app?vid=249c9091-61aa-4e8e-8e7b-4cdb5273009f","ios":"levelo://app?vid=249c9091-61aa-4e8e-8e7b-4cdb5273009f"},"vehicle_type_id":"4","last_reported":1727270334,"current_range_meters":39200,"station_id":"ce4bgs92rcd13ifvqcc0","pricing_plan_id":"cebpf4jnsgd1na2vs0mg"},{"bike_id":"99014105-177e-4234-b629-d44afde8884a","system_id":"levelo_inurba_marseille","lat":43.29854,"lon":5.36284,"is_reserved":false,"is_disabled":false,"rental_uris":{"android":"levelo://app?vid=99014105-177e-4234-b629-d44afde8884a","ios":"levelo://app?vid=99014105-177e-4234-b629-d44afde8884a"},"vehicle_type_id":"4","last_reported":1727270334,"current_range_meters":39200,"station_id":"ce4bgpp2rcd13ifvqc3g","pricing_plan_id":"cebpf4jnsgd1na2vs0mg"},{"bike_id":"a1101fda-42cd-4135-bb2d-4e3f5fb0cec3","system_id":"levelo_inurba_marseille","lat":43.2991,"lon":5.37479,"is_reserved":false,"is_disabled":false,"rental_uris":{"android":"levelo://app?vid=a1101fda-42cd-4135-bb2d-4e3f5fb0cec3","ios":"levelo://app?vid=a1101fda-42cd-4135-bb2d-4e3f5fb0cec3"},"vehicle_type_id":"4","last_reported":1727270334,"current_range_meters":11600,"station_id":"ce4bgjh2rcd13ifvqbg0","pricing_plan_id":"cebpf4jnsgd1na2vs0mg"},{"bike_id":"ebe6d5d8-1764-4052-b690-5085b7cc5560","system_id":"levelo_inurba_marseille","lat":43.31331,"lon":5.39693,"is_reserved":false,"is_disabled":false,"rental_uris":{"android":"levelo://app?vid=ebe6d5d8-1764-4052-b690-5085b7cc5560","ios":"levelo://app?vid=ebe6d5d8-1764-4052-b690-5085b7cc5560"},"vehicle_type_id":"4","last_reported":1727270334,"current_range_meters":6000,"station_id":"ce4bgvp2rcd13ifvqcu0","pricing_plan_id":"cebpf4jnsgd1na2vs0mg"},{"bike_id":"7c911eb4-4b2c-40ae-9ec5-2014feb04e78","system_id":"levelo_inurba_marseille","lat":43.33027,"lon":5.39041,"is_reserved":false,"is_disabled":false,"rental_uris":{"android":"levelo://app?vid=7c911eb4-4b2c-40ae-9ec5-2014feb04e78","ios":"levelo://app?vid=7c911eb4-4b2c-40ae-9ec5-2014feb04e78"},"vehicle_type_id":"4","last_reported":1727270334,"current_range_meters":28400,"station_id":"ce4bhr92rcd13ifvqhrg","pricing_plan_id":"cebpf4jnsgd1na2vs0mg"},{"bike_id":"2a8d2f4d-9446-494b-bf76-b6eaf542941a","system_id":"levelo_inurba_marseille","lat":43.28924,"lon":5.36396,"is_reserved":false,"is_disabled":false,"rental_uris":{"android":"levelo://app?vid=2a8d2f4d-9446-494b-bf76-b6eaf542941a","ios":"levelo://app?vid=2a8d2f4d-9446-494b-bf76-b6eaf542941a"},"vehicle_type_id":"4","last_reported":1727270334,"current_range_meters":32000,"station_id":"ce4bhc92rcd13ifvqetg","pricing_plan_id":"cebpf4jnsgd1na2vs0mg"},{"bike_id":"f0423c97-029a-4c7c-983d-9f57a3384e7d","system_id":"levelo_inurba_marseille","lat":43.271759,"lon":5.409843,"is_reserved":false,"is_disabled":false,"rental_uris":{"android":"levelo://app?vid=f0423c97-029a-4c7c-983d-9f57a3384e7d","ios":"levelo://app?vid=f0423c97-029a-4c7c-983d-9f57a3384e7d"},"vehicle_type_id":"4","last_reported":1727270334,"current_range_meters":22800,"station_id":"ce4bhh12rcd13ifvqff0","pricing_plan_id":"cebpf4jnsgd1na2vs0mg"},{"bike_id":"24c87310-0a04-4a27-8b55-9e73f47eda28","system_id":"levelo_inurba_marseille","lat":43.29003,"lon":5.35608,"is_reserved":false,"is_disabled":false,"rental_uris":{"android":"levelo://app?vid=24c87310-0a04-4a27-8b55-9e73f47eda28","ios":"levelo://app?vid=24c87310-0a04-4a27-8b55-9e73f47eda28"},"vehicle_type_id":"4","last_reported":1727270334,"current_range_meters":38000,"station_id":"ce4bhb92rcd13ifvqen0","pricing_plan_id":"cebpf4jnsgd1na2vs0mg"},{"bike_id":"ed8cf939-ea21-4ad3-9249-73bdf991d43f","system_id":"levelo_inurba_marseille","lat":43.30955,"lon":5.39029,"is_reserved":false,"is_disabled":false,"rental_uris":{"android":"levelo://app?vid=ed8cf939-ea21-4ad3-9249-73bdf991d43f","ios":"levelo://app?vid=ed8cf939-ea21-4ad3-9249-73bdf991d43f"},"vehicle_type_id":"4","last_reported":1727270334,"current_range_meters":12400,"station_id":"ce4bgup2rcd13ifvqco0","pricing_plan_id":"cebpf4jnsgd1na2vs0mg"},{"bike_id":"79436f61-3570-4ec8-aa5f-32095779c209","system_id":"levelo_inurba_marseille","lat":43.27572,"lon":5.38405,"is_reserved":false,"is_disabled":false,"rental_uris":{"android":"levelo://app?vid=79436f61-3570-4ec8-aa5f-32095779c209","ios":"levelo://app?vid=79436f61-3570-4ec8-aa5f-32095779c209"},"vehicle_type_id":"4","last_reported":1727270334,"current_range_meters":19600,"station_id":"ce4bhh92rcd13ifvqfi0","pricing_plan_id":"cebpf4jnsgd1na2vs0mg"},{"bike_id":"8fd06a4f-a449-4c3e-ad63-9246f39bee42","system_id":"levelo_inurba_marseille","lat":43.29532,"lon":5.39033,"is_reserved":false,"is_disabled":false,"rental_uris":{"android":"levelo://app?vid=8fd06a4f-a449-4c3e-ad63-9246f39bee42","ios":"levelo://app?vid=8fd06a4f-a449-4c3e-ad63-9246f39bee42"},"vehicle_type_id":"4","last_reported":1727270334,"current_range_meters":22000,"station_id":"ce4bh3p2rcd13ifvqdp0","pricing_plan_id":"cebpf4jnsgd1na2vs0mg"},{"bike_id":"76e0cd54-31b3-4102-9492-7e9e8428f81e","system_id":"levelo_inurba_marseille","lat":43.30184,"lon":5.36606,"is_reserved":false,"is_disabled":false,"rental_uris":{"android":"levelo://app?vid=76e0cd54-31b3-4102-9492-7e9e8428f81e","ios":"levelo://app?vid=76e0cd54-31b3-4102-9492-7e9e8428f81e"},"vehicle_type_id":"4","last_reported":1727270334,"current_range_meters":28000,"station_id":"ce4bgrh2rcd13ifvqc8g","pricing_plan_id":"cebpf4jnsgd1na2vs0mg"},{"bike_id":"75e1ea3a-c235-4a11-8b81-3903cc5d0fa0","system_id":"levelo_inurba_marseille","lat":43.26948,"lon":5.40241,"is_reserved":false,"is_disabled":false,"rental_uris":{"android":"levelo://app?vid=75e1ea3a-c235-4a11-8b81-3903cc5d0fa0","ios":"levelo://app?vid=75e1ea3a-c235-4a11-8b81-3903cc5d0fa0"},"vehicle_type_id":"4","last_reported":1727270334,"current_range_meters":18800,"station_id":"cjm6bp8fraef2m0cb0m0","pricing_plan_id":"cebpf4jnsgd1na2vs0mg"},{"bike_id":"ef931e7f-d1e9-4ecd-8708-d0194155786c","system_id":"levelo_inurba_marseille","lat":43.31227,"lon":5.36851,"is_reserved":false,"is_disabled":false,"rental_uris":{"android":"levelo://app?vid=ef931e7f-d1e9-4ecd-8708-d0194155786c","ios":"levelo://app?vid=ef931e7f-d1e9-4ecd-8708-d0194155786c"},"vehicle_type_id":"4","last_reported":1727270334,"current_range_meters":38800,"station_id":"ce4bgl92rcd13ifvqbq0","pricing_plan_id":"cebpf4jnsgd1na2vs0mg"},{"bike_id":"1f0ec08b-4094-4d61-b5f8-1365d8c65d07","system_id":"levelo_inurba_marseille","lat":43.301422,"lon":5.380795,"is_reserved":false,"is_disabled":false,"rental_uris":{"android":"levelo://app?vid=1f0ec08b-4094-4d61-b5f8-1365d8c65d07","ios":"levelo://app?vid=1f0ec08b-4094-4d61-b5f8-1365d8c65d07"},"vehicle_type_id":"4","last_reported":1727270334,"current_range_meters":16000,"station_id":"ce4bho92rcd13ifvqh4g","pricing_plan_id":"cebpf4jnsgd1na2vs0mg"},{"bike_id":"4c43b43f-be17-43d2-95e0-fab0c099fe37","system_id":"levelo_inurba_marseille","lat":43.23152,"lon":5.43701,"is_reserved":false,"is_disabled":false,"rental_uris":{"android":"levelo://app?vid=4c43b43f-be17-43d2-95e0-fab0c099fe37","ios":"levelo://app?vid=4c43b43f-be17-43d2-95e0-fab0c099fe37"},"vehicle_type_id":"4","last_reported":1727270334,"current_range_meters":36800,"station_id":"ce4bhmp2rcd13ifvqgog","pricing_plan_id":"cebpf4jnsgd1na2vs0mg"},{"bike_id":"dc473676-824d-41ad-aeb7-667c159f885c","system_id":"levelo_inurba_marseille","lat":43.23197,"lon":5.35544,"is_reserved":false,"is_disabled":false,"rental_uris":{"android":"levelo://app?vid=dc473676-824d-41ad-aeb7-667c159f885c","ios":"levelo://app?vid=dc473676-824d-41ad-aeb7-667c159f885c"},"vehicle_type_id":"4","last_reported":1727270334,"current_range_meters":28000,"station_id":"ce4bhu92rcd13ifvqi70","pricing_plan_id":"cebpf4jnsgd1na2vs0mg"},{"bike_id":"b44fe68c-0573-4b7d-ad16-ba1b0c496159","system_id":"levelo_inurba_marseille","lat":43.25728,"lon":5.41107,"is_reserved":false,"is_disabled":false,"rental_uris":{"android":"levelo://app?vid=b44fe68c-0573-4b7d-ad16-ba1b0c496159","ios":"levelo://app?vid=b44fe68c-0573-4b7d-ad16-ba1b0c496159"},"vehicle_type_id":"4","last_reported":1727270334,"current_range_meters":36800,"station_id":"ce4bhkp2rcd13ifvqgd0","pricing_plan_id":"cebpf4jnsgd1na2vs0mg"},{"bike_id":"a7bca3df-0344-4204-86d7-b742d4769839","system_id":"levelo_inurba_marseille","lat":43.30863,"lon":5.3685,"is_reserved":false,"is_disabled":false,"rental_uris":{"android":"levelo://app?vid=a7bca3df-0344-4204-86d7-b742d4769839","ios":"levelo://app?vid=a7bca3df-0344-4204-86d7-b742d4769839"},"vehicle_type_id":"4","last_reported":1727270334,"current_range_meters":27600,"station_id":"ce4bgn92rcd13ifvqbvg","pricing_plan_id":"cebpf4jnsgd1na2vs0mg"},{"bike_id":"53844258-a6a1-40dc-80f0-641052d4f250","system_id":"levelo_inurba_marseille","lat":43.23059,"lon":5.3549,"is_reserved":false,"is_disabled":false,"rental_uris":{"android":"levelo://app?vid=53844258-a6a1-40dc-80f0-641052d4f250","ios":"levelo://app?vid=53844258-a6a1-40dc-80f0-641052d4f250"},"vehicle_type_id":"4","last_reported":1727270334,"current_range_meters":25200,"station_id":"cpo3342slgdg3j2ifvpg","pricing_plan_id":"cebpf4jnsgd1na2vs0mg"},{"bike_id":"6bea3a43-1794-468a-98c9-9700c905d0be","system_id":"levelo_inurba_marseille","lat":43.29072,"lon":5.3716,"is_reserved":false,"is_disabled":false,"rental_uris":{"android":"levelo://app?vid=6bea3a43-1794-468a-98c9-9700c905d0be","ios":"levelo://app?vid=6bea3a43-1794-468a-98c9-9700c905d0be"},"vehicle_type_id":"4","last_reported":1727270334,"current_range_meters":14400,"station_id":"ce4bh5p2rcd13ifvqe4g","pricing_plan_id":"cebpf4jnsgd1na2vs0mg"},{"bike_id":"22a93696-29c8-4204-b668-5cf26c040a0d","system_id":"levelo_inurba_marseille","lat":43.3237,"lon":5.38877,"is_reserved":false,"is_disabled":false,"rental_uris":{"android":"levelo://app?vid=22a93696-29c8-4204-b668-5cf26c040a0d","ios":"levelo://app?vid=22a93696-29c8-4204-b668-5cf26c040a0d"},"vehicle_type_id":"4","last_reported":1727270334,"current_range_meters":27600,"station_id":"ce4bhqp2rcd13ifvqhog","pricing_plan_id":"cebpf4jnsgd1na2vs0mg"},{"bike_id":"7827170f-fe53-4f76-acc5-1f9d10e67145","system_id":"levelo_inurba_marseille","lat":43.22932,"lon":5.35375,"is_reserved":false,"is_disabled":false,"rental_uris":{"android":"levelo://app?vid=7827170f-fe53-4f76-acc5-1f9d10e67145","ios":"levelo://app?vid=7827170f-fe53-4f76-acc5-1f9d10e67145"},"vehicle_type_id":"4","last_reported":1727270334,"current_range_meters":38000,"station_id":"cpo3532slgdg3j2ikp40","pricing_plan_id":"cebpf4jnsgd1na2vs0mg"},{"bike_id":"433b4274-217e-4edf-ac8c-a452e1f45876","system_id":"levelo_inurba_marseille","lat":43.29589,"lon":5.36736,"is_reserved":false,"is_disabled":false,"rental_uris":{"android":"levelo://app?vid=433b4274-217e-4edf-ac8c-a452e1f45876","ios":"levelo://app?vid=433b4274-217e-4edf-ac8c-a452e1f45876"},"vehicle_type_id":"4","last_reported":1727270334,"current_range_meters":6400,"station_id":"ce4bgph2rcd13ifvqc2g","pricing_plan_id":"cebpf4jnsgd1na2vs0mg"},{"bike_id":"d831a0c8-0bcd-4449-91a5-836df1a52d4b","system_id":"levelo_inurba_marseille","lat":43.307183,"lon":5.37276,"is_reserved":false,"is_disabled":false,"rental_uris":{"android":"levelo://app?vid=d831a0c8-0bcd-4449-91a5-836df1a52d4b","ios":"levelo://app?vid=d831a0c8-0bcd-4449-91a5-836df1a52d4b"},"vehicle_type_id":"4","last_reported":1727270334,"current_range_meters":10800,"station_id":"","pricing_plan_id":"cebpf4jnsgd1na2vs0mg"},{"bike_id":"b41fc8d1-aaa6-48b8-85ea-0782e9dda81a","system_id":"levelo_inurba_marseille","lat":43.29586,"lon":5.36728,"is_reserved":false,"is_disabled":false,"rental_uris":{"android":"levelo://app?vid=b41fc8d1-aaa6-48b8-85ea-0782e9dda81a","ios":"levelo://app?vid=b41fc8d1-aaa6-48b8-85ea-0782e9dda81a"},"vehicle_type_id":"4","last_reported":1727270334,"current_range_meters":38000,"station_id":"ce4bgph2rcd13ifvqc2g","pricing_plan_id":"cebpf4jnsgd1na2vs0mg"},{"bike_id":"8bb6b925-c5d1-4e9a-a876-08dc5f15bd7d","system_id":"levelo_inurba_marseille","lat":43.33731,"lon":5.39182,"is_reserved":false,"is_disabled":false,"rental_uris":{"android":"levelo://app?vid=8bb6b925-c5d1-4e9a-a876-08dc5f15bd7d","ios":"levelo://app?vid=8bb6b925-c5d1-4e9a-a876-08dc5f15bd7d"},"vehicle_type_id":"4","last_reported":1727270334,"current_range_meters":32400,"station_id":"ce4bhr92rcd13ifvqhsg","pricing_plan_id":"cebpf4jnsgd1na2vs0mg"},{"bike_id":"25fc008f-cba0-4520-a495-da20005b2eca","system_id":"levelo_inurba_marseille","lat":43.29559,"lon":5.42287,"is_reserved":false,"is_disabled":false,"rental_uris":{"android":"levelo://app?vid=25fc008f-cba0-4520-a495-da20005b2eca","ios":"levelo://app?vid=25fc008f-cba0-4520-a495-da20005b2eca"},"vehicle_type_id":"4","last_reported":1727270334,"current_range_meters":35600,"station_id":"ce4bhph2rcd13ifvqhdg","pricing_plan_id":"cebpf4jnsgd1na2vs0mg"},{"bike_id":"7d13bfe6-cac1-417a-a866-11f3f6431dbc","system_id":"levelo_inurba_marseille","lat":43.28864,"lon":5.37148,"is_reserved":false,"is_disabled":false,"rental_uris":{"android":"levelo://app?vid=7d13bfe6-cac1-417a-a866-11f3f6431dbc","ios":"levelo://app?vid=7d13bfe6-cac1-417a-a866-11f3f6431dbc"},"vehicle_type_id":"4","last_reported":1727270334,"current_range_meters":25600,"station_id":"ce4bht12rcd13ifvqi60","pricing_plan_id":"cebpf4jnsgd1na2vs0mg"},{"bike_id":"4a4bfd88-bdfc-4802-b3a8-e798e4274727","system_id":"levelo_inurba_marseille","lat":43.322892,"lon":5.382549,"is_reserved":false,"is_disabled":false,"rental_uris":{"android":"levelo://app?vid=4a4bfd88-bdfc-4802-b3a8-e798e4274727","ios":"levelo://app?vid=4a4bfd88-bdfc-4802-b3a8-e798e4274727"},"vehicle_type_id":"4","last_reported":1727270334,"current_range_meters":28400,"station_id":"ce4bhr12rcd13ifvqhqg","pricing_plan_id":"cebpf4jnsgd1na2vs0mg"},{"bike_id":"55510e67-f2d9-4cd2-86a1-c10296679920","system_id":"levelo_inurba_marseille","lat":43.28426,"lon":5.34984,"is_reserved":false,"is_disabled":false,"rental_uris":{"android":"levelo://app?vid=55510e67-f2d9-4cd2-86a1-c10296679920","ios":"levelo://app?vid=55510e67-f2d9-4cd2-86a1-c10296679920"},"vehicle_type_id":"4","last_reported":1727270334,"current_range_meters":30000,"station_id":"ce4bhbh2rcd13ifvqepg","pricing_plan_id":"cebpf4jnsgd1na2vs0mg"},{"bike_id":"6d96f985-9c01-48a6-84cc-38d4437fa126","system_id":"levelo_inurba_marseille","lat":43.23155,"lon":5.43706,"is_reserved":false,"is_disabled":false,"rental_uris":{"android":"levelo://app?vid=6d96f985-9c01-48a6-84cc-38d4437fa126","ios":"levelo://app?vid=6d96f985-9c01-48a6-84cc-38d4437fa126"},"vehicle_type_id":"4","last_reported":1727270334,"current_range_meters":12400,"station_id":"ce4bhmp2rcd13ifvqgog","pricing_plan_id":"cebpf4jnsgd1na2vs0mg"},{"bike_id":"9fa31e2d-5cc3-46db-a1f4-a7af90113ebd","system_id":"levelo_inurba_marseille","lat":43.3033,"lon":5.40438,"is_reserved":false,"is_disabled":false,"rental_uris":{"android":"levelo://app?vid=9fa31e2d-5cc3-46db-a1f4-a7af90113ebd","ios":"levelo://app?vid=9fa31e2d-5cc3-46db-a1f4-a7af90113ebd"},"vehicle_type_id":"4","last_reported":1727270334,"current_range_meters":8800,"station_id":"ce4bh012rcd13ifvqd10","pricing_plan_id":"cebpf4jnsgd1na2vs0mg"},{"bike_id":"2a5a26eb-1e6d-4720-a5c0-14737be0e39b","system_id":"levelo_inurba_marseille","lat":43.29527,"lon":5.37506,"is_reserved":false,"is_disabled":false,"rental_uris":{"android":"levelo://app?vid=2a5a26eb-1e6d-4720-a5c0-14737be0e39b","ios":"levelo://app?vid=2a5a26eb-1e6d-4720-a5c0-14737be0e39b"},"vehicle_type_id":"4","last_reported":1727270334,"current_range_meters":5600,"station_id":"ce4bgkp2rcd13ifvqbmg","pricing_plan_id":"cebpf4jnsgd1na2vs0mg"},{"bike_id":"55629b39-5f30-46c9-a027-cdbff5918041","system_id":"levelo_inurba_marseille","lat":43.33028,"lon":5.39044,"is_reserved":false,"is_disabled":false,"rental_uris":{"android":"levelo://app?vid=55629b39-5f30-46c9-a027-cdbff5918041","ios":"levelo://app?vid=55629b39-5f30-46c9-a027-cdbff5918041"},"vehicle_type_id":"4","last_reported":1727270334,"current_range_meters":38800,"station_id":"ce4bhr92rcd13ifvqhrg","pricing_plan_id":"cebpf4jnsgd1na2vs0mg"},{"bike_id":"0fa02f19-62ea-444b-908b-23c26cd28fb0","system_id":"levelo_inurba_marseille","lat":43.30139,"lon":5.37422,"is_reserved":false,"is_disabled":false,"rental_uris":{"android":"levelo://app?vid=0fa02f19-62ea-444b-908b-23c26cd28fb0","ios":"levelo://app?vid=0fa02f19-62ea-444b-908b-23c26cd28fb0"},"vehicle_type_id":"4","last_reported":1727270334,"current_range_meters":38800,"station_id":"ce4bgs92rcd13ifvqcc0","pricing_plan_id":"cebpf4jnsgd1na2vs0mg"},{"bike_id":"1ac5bad7-a8fc-4000-a19e-ab73856fa5db","system_id":"levelo_inurba_marseille","lat":43.28722,"lon":5.37941,"is_reserved":false,"is_disabled":false,"rental_uris":{"android":"levelo://app?vid=1ac5bad7-a8fc-4000-a19e-ab73856fa5db","ios":"levelo://app?vid=1ac5bad7-a8fc-4000-a19e-ab73856fa5db"},"vehicle_type_id":"4","last_reported":1727270334,"current_range_meters":38800,"station_id":"ce4bh9p2rcd13ifvqec0","pricing_plan_id":"cebpf4jnsgd1na2vs0mg"},{"bike_id":"85879f8b-8257-48e2-821a-fdf47897d041","system_id":"levelo_inurba_marseille","lat":43.28277,"lon":5.35059,"is_reserved":false,"is_disabled":false,"rental_uris":{"android":"levelo://app?vid=85879f8b-8257-48e2-821a-fdf47897d041","ios":"levelo://app?vid=85879f8b-8257-48e2-821a-fdf47897d041"},"vehicle_type_id":"4","last_reported":1727270334,"current_range_meters":19600,"station_id":"ce4bhbp2rcd13ifvqerg","pricing_plan_id":"cebpf4jnsgd1na2vs0mg"},{"bike_id":"b2ee0d3e-5376-41b3-8ecd-6dc2f14f0598","system_id":"levelo_inurba_marseille","lat":43.30898,"lon":5.37176,"is_reserved":false,"is_disabled":false,"rental_uris":{"android":"levelo://app?vid=b2ee0d3e-5376-41b3-8ecd-6dc2f14f0598","ios":"levelo://app?vid=b2ee0d3e-5376-41b3-8ecd-6dc2f14f0598"},"vehicle_type_id":"4","last_reported":1727270334,"current_range_meters":8400,"station_id":"ce4bguh2rcd13ifvqckg","pricing_plan_id":"cebpf4jnsgd1na2vs0mg"},{"bike_id":"5e787303-50e2-4b6f-ac85-c0e6d3015235","system_id":"levelo_inurba_marseille","lat":43.29896,"lon":5.43656,"is_reserved":false,"is_disabled":false,"rental_uris":{"android":"levelo://app?vid=5e787303-50e2-4b6f-ac85-c0e6d3015235","ios":"levelo://app?vid=5e787303-50e2-4b6f-ac85-c0e6d3015235"},"vehicle_type_id":"4","last_reported":1727270334,"current_range_meters":37600,"station_id":"ce4bhpp2rcd13ifvqhfg","pricing_plan_id":"cebpf4jnsgd1na2vs0mg"},{"bike_id":"c6c83e13-3f99-4f3d-bb76-43f1f3e8331d","system_id":"levelo_inurba_marseille","lat":43.31358,"lon":5.36694,"is_reserved":false,"is_disabled":false,"rental_uris":{"android":"levelo://app?vid=c6c83e13-3f99-4f3d-bb76-43f1f3e8331d","ios":"levelo://app?vid=c6c83e13-3f99-4f3d-bb76-43f1f3e8331d"},"vehicle_type_id":"4","last_reported":1727270334,"current_range_meters":26800,"station_id":"ce4bgr92rcd13ifvqc6g","pricing_plan_id":"cebpf4jnsgd1na2vs0mg"},{"bike_id":"ede37da0-431f-462e-af97-45c71435ab2a","system_id":"levelo_inurba_marseille","lat":43.24181,"lon":5.39706,"is_reserved":false,"is_disabled":false,"rental_uris":{"android":"levelo://app?vid=ede37da0-431f-462e-af97-45c71435ab2a","ios":"levelo://app?vid=ede37da0-431f-462e-af97-45c71435ab2a"},"vehicle_type_id":"4","last_reported":1727270334,"current_range_meters":19600,"station_id":"ce4bhn12rcd13ifvqgpg","pricing_plan_id":"cebpf4jnsgd1na2vs0mg"},{"bike_id":"7fb0d0fb-dd7a-4ace-98da-9e3c8b1d73b0","system_id":"levelo_inurba_marseille","lat":43.22931,"lon":5.35372,"is_reserved":false,"is_disabled":false,"rental_uris":{"android":"levelo://app?vid=7fb0d0fb-dd7a-4ace-98da-9e3c8b1d73b0","ios":"levelo://app?vid=7fb0d0fb-dd7a-4ace-98da-9e3c8b1d73b0"},"vehicle_type_id":"4","last_reported":1727270334,"current_range_meters":25600,"station_id":"cpo3532slgdg3j2ikp40","pricing_plan_id":"cebpf4jnsgd1na2vs0mg"},{"bike_id":"fd588f05-ae1d-4f1b-82a6-43889fbce25e","system_id":"levelo_inurba_marseille","lat":43.24389,"lon":5.37053,"is_reserved":false,"is_disabled":false,"rental_uris":{"android":"levelo://app?vid=fd588f05-ae1d-4f1b-82a6-43889fbce25e","ios":"levelo://app?vid=fd588f05-ae1d-4f1b-82a6-43889fbce25e"},"vehicle_type_id":"4","last_reported":1727270334,"current_range_meters":11200,"station_id":"ce4bhhh2rcd13ifvqfk0","pricing_plan_id":"cebpf4jnsgd1na2vs0mg"},{"bike_id":"8c39c5d8-7497-4202-88cf-4cf418509800","system_id":"levelo_inurba_marseille","lat":43.28717,"lon":5.36076,"is_reserved":false,"is_disabled":false,"rental_uris":{"android":"levelo://app?vid=8c39c5d8-7497-4202-88cf-4cf418509800","ios":"levelo://app?vid=8c39c5d8-7497-4202-88cf-4cf418509800"},"vehicle_type_id":"4","last_reported":1727270334,"current_range_meters":20000,"station_id":"cki0cbj6b192h4jlfktg","pricing_plan_id":"cebpf4jnsgd1na2vs0mg"},{"bike_id":"7d273bdf-39b2-45f8-b708-579514f5305e","system_id":"levelo_inurba_marseille","lat":43.29852,"lon":5.36262,"is_reserved":false,"is_disabled":false,"rental_uris":{"android":"levelo://app?vid=7d273bdf-39b2-45f8-b708-579514f5305e","ios":"levelo://app?vid=7d273bdf-39b2-45f8-b708-579514f5305e"},"vehicle_type_id":"4","last_reported":1727270334,"current_range_meters":38800,"station_id":"ce4bgpp2rcd13ifvqc3g","pricing_plan_id":"cebpf4jnsgd1na2vs0mg"},{"bike_id":"93d53ac5-d965-4a96-836f-0fc4a99410ad","system_id":"levelo_inurba_marseille","lat":43.269557,"lon":5.386283,"is_reserved":false,"is_disabled":false,"rental_uris":{"android":"levelo://app?vid=93d53ac5-d965-4a96-836f-0fc4a99410ad","ios":"levelo://app?vid=93d53ac5-d965-4a96-836f-0fc4a99410ad"},"vehicle_type_id":"4","last_reported":1727270334,"current_range_meters":33200,"station_id":"ce4bhh92rcd13ifvqfh0","pricing_plan_id":"cebpf4jnsgd1na2vs0mg"},{"bike_id":"b41cabb9-80b4-406b-bd58-abeaa3909770","system_id":"levelo_inurba_marseille","lat":43.28464,"lon":5.35878,"is_reserved":false,"is_disabled":false,"rental_uris":{"android":"levelo://app?vid=b41cabb9-80b4-406b-bd58-abeaa3909770","ios":"levelo://app?vid=b41cabb9-80b4-406b-bd58-abeaa3909770"},"vehicle_type_id":"4","last_reported":1727270334,"current_range_meters":30000,"station_id":"ce4bhah2rcd13ifvqei0","pricing_plan_id":"cebpf4jnsgd1na2vs0mg"},{"bike_id":"71a76490-79e6-4f87-a7b6-aab6b8be9c0f","system_id":"levelo_inurba_marseille","lat":43.30277,"lon":5.37707,"is_reserved":false,"is_disabled":false,"rental_uris":{"android":"levelo://app?vid=71a76490-79e6-4f87-a7b6-aab6b8be9c0f","ios":"levelo://app?vid=71a76490-79e6-4f87-a7b6-aab6b8be9c0f"},"vehicle_type_id":"4","last_reported":1727270334,"current_range_meters":30400,"station_id":"ce4bguh2rcd13ifvqcj0","pricing_plan_id":"cebpf4jnsgd1na2vs0mg"},{"bike_id":"77a0b52d-381d-4877-835b-b29e7f9e7339","system_id":"levelo_inurba_marseille","lat":43.27184,"lon":5.40992,"is_reserved":false,"is_disabled":false,"rental_uris":{"android":"levelo://app?vid=77a0b52d-381d-4877-835b-b29e7f9e7339","ios":"levelo://app?vid=77a0b52d-381d-4877-835b-b29e7f9e7339"},"vehicle_type_id":"4","last_reported":1727270334,"current_range_meters":36800,"station_id":"ce4bhl12rcd13ifvqgf0","pricing_plan_id":"cebpf4jnsgd1na2vs0mg"},{"bike_id":"24fd7b0d-511e-403d-87ba-cd0f9c8771c8","system_id":"levelo_inurba_marseille","lat":43.33724,"lon":5.39176,"is_reserved":false,"is_disabled":false,"rental_uris":{"android":"levelo://app?vid=24fd7b0d-511e-403d-87ba-cd0f9c8771c8","ios":"levelo://app?vid=24fd7b0d-511e-403d-87ba-cd0f9c8771c8"},"vehicle_type_id":"4","last_reported":1727270334,"current_range_meters":19600,"station_id":"ce4bhr92rcd13ifvqhsg","pricing_plan_id":"cebpf4jnsgd1na2vs0mg"},{"bike_id":"3d160dae-6782-4e53-81e7-e40908ad46c5","system_id":"levelo_inurba_marseille","lat":43.31885,"lon":5.37419,"is_reserved":false,"is_disabled":false,"rental_uris":{"android":"levelo://app?vid=3d160dae-6782-4e53-81e7-e40908ad46c5","ios":"levelo://app?vid=3d160dae-6782-4e53-81e7-e40908ad46c5"},"vehicle_type_id":"4","last_reported":1727270334,"current_range_meters":35600,"station_id":"","pricing_plan_id":"cebpf4jnsgd1na2vs0mg"},{"bike_id":"38e9fe5d-afdd-4276-afa7-ab734e96b585","system_id":"levelo_inurba_marseille","lat":43.23196,"lon":5.35557,"is_reserved":false,"is_disabled":false,"rental_uris":{"android":"levelo://app?vid=38e9fe5d-afdd-4276-afa7-ab734e96b585","ios":"levelo://app?vid=38e9fe5d-afdd-4276-afa7-ab734e96b585"},"vehicle_type_id":"4","last_reported":1727270334,"current_range_meters":25200,"station_id":"ce4bhu92rcd13ifvqi70","pricing_plan_id":"cebpf4jnsgd1na2vs0mg"},{"bike_id":"20939ede-63f2-4154-b3ad-9d02db837d19","system_id":"levelo_inurba_marseille","lat":43.2991,"lon":5.37453,"is_reserved":false,"is_disabled":false,"rental_uris":{"android":"levelo://app?vid=20939ede-63f2-4154-b3ad-9d02db837d19","ios":"levelo://app?vid=20939ede-63f2-4154-b3ad-9d02db837d19"},"vehicle_type_id":"4","last_reported":1727270334,"current_range_meters":16800,"station_id":"ce4bgjh2rcd13ifvqbg0","pricing_plan_id":"cebpf4jnsgd1na2vs0mg"},{"bike_id":"8ccb6879-daf7-44e3-8327-107bd462a1dd","system_id":"levelo_inurba_marseille","lat":43.26502,"lon":5.39549,"is_reserved":false,"is_disabled":false,"rental_uris":{"android":"levelo://app?vid=8ccb6879-daf7-44e3-8327-107bd462a1dd","ios":"levelo://app?vid=8ccb6879-daf7-44e3-8327-107bd462a1dd"},"vehicle_type_id":"4","last_reported":1727270334,"current_range_meters":3600,"station_id":"ce4bhi12rcd13ifvqfq0","pricing_plan_id":"cebpf4jnsgd1na2vs0mg"},{"bike_id":"06cc2ff3-1a4f-4711-bccc-499768d04eeb","system_id":"levelo_inurba_marseille","lat":43.31329,"lon":5.39692,"is_reserved":false,"is_disabled":false,"rental_uris":{"android":"levelo://app?vid=06cc2ff3-1a4f-4711-bccc-499768d04eeb","ios":"levelo://app?vid=06cc2ff3-1a4f-4711-bccc-499768d04eeb"},"vehicle_type_id":"4","last_reported":1727270334,"current_range_meters":6800,"station_id":"ce4bgvp2rcd13ifvqcu0","pricing_plan_id":"cebpf4jnsgd1na2vs0mg"},{"bike_id":"2c947711-9a76-4185-b8b7-562ab19f1c5c","system_id":"levelo_inurba_marseille","lat":43.28274,"lon":5.35074,"is_reserved":false,"is_disabled":false,"rental_uris":{"android":"levelo://app?vid=2c947711-9a76-4185-b8b7-562ab19f1c5c","ios":"levelo://app?vid=2c947711-9a76-4185-b8b7-562ab19f1c5c"},"vehicle_type_id":"4","last_reported":1727270334,"current_range_meters":7200,"station_id":"ce4bhbp2rcd13ifvqerg","pricing_plan_id":"cebpf4jnsgd1na2vs0mg"},{"bike_id":"bf8746ac-7bda-43e8-9c55-5cdd72dafe90","system_id":"levelo_inurba_marseille","lat":43.29992,"lon":5.37177,"is_reserved":false,"is_disabled":false,"rental_uris":{"android":"levelo://app?vid=bf8746ac-7bda-43e8-9c55-5cdd72dafe90","ios":"levelo://app?vid=bf8746ac-7bda-43e8-9c55-5cdd72dafe90"},"vehicle_type_id":"4","last_reported":1727270334,"current_range_meters":32800,"station_id":"ce4bgr92rcd13ifvqc7g","pricing_plan_id":"cebpf4jnsgd1na2vs0mg"},{"bike_id":"bbcbd0f9-4c49-4cbb-8a45-0ef2145c8377","system_id":"levelo_inurba_marseille","lat":43.29847,"lon":5.36272,"is_reserved":false,"is_disabled":false,"rental_uris":{"android":"levelo://app?vid=bbcbd0f9-4c49-4cbb-8a45-0ef2145c8377","ios":"levelo://app?vid=bbcbd0f9-4c49-4cbb-8a45-0ef2145c8377"},"vehicle_type_id":"4","last_reported":1727270334,"current_range_meters":38800,"station_id":"ce4bgpp2rcd13ifvqc3g","pricing_plan_id":"cebpf4jnsgd1na2vs0mg"},{"bike_id":"d0da2fb6-2155-4c4d-8d53-9c4d82ef5520","system_id":"levelo_inurba_marseille","lat":43.30532,"lon":5.36531,"is_reserved":false,"is_disabled":false,"rental_uris":{"android":"levelo://app?vid=d0da2fb6-2155-4c4d-8d53-9c4d82ef5520","ios":"levelo://app?vid=d0da2fb6-2155-4c4d-8d53-9c4d82ef5520"},"vehicle_type_id":"4","last_reported":1727270334,"current_range_meters":36800,"station_id":"ce4bgs12rcd13ifvqcag","pricing_plan_id":"cebpf4jnsgd1na2vs0mg"},{"bike_id":"3cdb199b-bacd-44b6-8eed-476c74758fbd","system_id":"levelo_inurba_marseille","lat":43.32107,"lon":5.36764,"is_reserved":false,"is_disabled":false,"rental_uris":{"android":"levelo://app?vid=3cdb199b-bacd-44b6-8eed-476c74758fbd","ios":"levelo://app?vid=3cdb199b-bacd-44b6-8eed-476c74758fbd"},"vehicle_type_id":"4","last_reported":1727270334,"current_range_meters":25200,"station_id":"ce4bhrh2rcd13ifvqhug","pricing_plan_id":"cebpf4jnsgd1na2vs0mg"},{"bike_id":"7cfd166b-d851-4ef1-b62b-d92f1d55c1af","system_id":"levelo_inurba_marseille","lat":43.29036,"lon":5.37566,"is_reserved":false,"is_disabled":false,"rental_uris":{"android":"levelo://app?vid=7cfd166b-d851-4ef1-b62b-d92f1d55c1af","ios":"levelo://app?vid=7cfd166b-d851-4ef1-b62b-d92f1d55c1af"},"vehicle_type_id":"4","last_reported":1727270334,"current_range_meters":16000,"station_id":"ce4bh692rcd13ifvqe90","pricing_plan_id":"cebpf4jnsgd1na2vs0mg"},{"bike_id":"33430b0a-ef2e-45dc-853c-19e2a52996ef","system_id":"levelo_inurba_marseille","lat":43.324809,"lon":5.365597,"is_reserved":false,"is_disabled":false,"rental_uris":{"android":"levelo://app?vid=33430b0a-ef2e-45dc-853c-19e2a52996ef","ios":"levelo://app?vid=33430b0a-ef2e-45dc-853c-19e2a52996ef"},"vehicle_type_id":"4","last_reported":1727270334,"current_range_meters":38400,"station_id":"ce4bhs12rcd13ifvqhvg","pricing_plan_id":"cebpf4jnsgd1na2vs0mg"},{"bike_id":"8963e0b8-3a3d-428a-9caf-670b08ef8b10","system_id":"levelo_inurba_marseille","lat":43.29586,"lon":5.36733,"is_reserved":false,"is_disabled":false,"rental_uris":{"android":"levelo://app?vid=8963e0b8-3a3d-428a-9caf-670b08ef8b10","ios":"levelo://app?vid=8963e0b8-3a3d-428a-9caf-670b08ef8b10"},"vehicle_type_id":"4","last_reported":1727270334,"current_range_meters":39200,"station_id":"ce4bgph2rcd13ifvqc2g","pricing_plan_id":"cebpf4jnsgd1na2vs0mg"},{"bike_id":"e35f71cc-e821-4aed-9799-2554b08f93b3","system_id":"levelo_inurba_marseille","lat":43.309601,"lon":5.400255,"is_reserved":false,"is_disabled":false,"rental_uris":{"android":"levelo://app?vid=e35f71cc-e821-4aed-9799-2554b08f93b3","ios":"levelo://app?vid=e35f71cc-e821-4aed-9799-2554b08f93b3"},"vehicle_type_id":"4","last_reported":1727270334,"current_range_meters":10800,"station_id":"ce4bh092rcd13ifvqd30","pricing_plan_id":"cebpf4jnsgd1na2vs0mg"},{"bike_id":"aad22dc7-5b58-4c6e-b09a-11e1f606976b","system_id":"levelo_inurba_marseille","lat":43.26807,"lon":5.40264,"is_reserved":false,"is_disabled":false,"rental_uris":{"android":"levelo://app?vid=aad22dc7-5b58-4c6e-b09a-11e1f606976b","ios":"levelo://app?vid=aad22dc7-5b58-4c6e-b09a-11e1f606976b"},"vehicle_type_id":"4","last_reported":1727270334,"current_range_meters":39200,"station_id":"ce501612rcd8frsf0b60","pricing_plan_id":"cebpf4jnsgd1na2vs0mg"},{"bike_id":"edd1d204-5dde-4bf0-9825-2e8233ccafb0","system_id":"levelo_inurba_marseille","lat":43.24188,"lon":5.39721,"is_reserved":false,"is_disabled":false,"rental_uris":{"android":"levelo://app?vid=edd1d204-5dde-4bf0-9825-2e8233ccafb0","ios":"levelo://app?vid=edd1d204-5dde-4bf0-9825-2e8233ccafb0"},"vehicle_type_id":"4","last_reported":1727270334,"current_range_meters":37600,"station_id":"ce4bhn12rcd13ifvqgpg","pricing_plan_id":"cebpf4jnsgd1na2vs0mg"},{"bike_id":"d3a61b6a-71e8-4c6c-8c6c-30262b2b9bc2","system_id":"levelo_inurba_marseille","lat":43.337444,"lon":5.374475,"is_reserved":false,"is_disabled":false,"rental_uris":{"android":"levelo://app?vid=d3a61b6a-71e8-4c6c-8c6c-30262b2b9bc2","ios":"levelo://app?vid=d3a61b6a-71e8-4c6c-8c6c-30262b2b9bc2"},"vehicle_type_id":"4","last_reported":1727270334,"current_range_meters":36000,"station_id":"","pricing_plan_id":"cebpf4jnsgd1na2vs0mg"},{"bike_id":"64c80b1e-388c-4852-9ea0-ea079b02ec62","system_id":"levelo_inurba_marseille","lat":43.29937,"lon":5.36546,"is_reserved":false,"is_disabled":false,"rental_uris":{"android":"levelo://app?vid=64c80b1e-388c-4852-9ea0-ea079b02ec62","ios":"levelo://app?vid=64c80b1e-388c-4852-9ea0-ea079b02ec62"},"vehicle_type_id":"4","last_reported":1727270334,"current_range_meters":38800,"station_id":"ce4bgm92rcd13ifvqbr0","pricing_plan_id":"cebpf4jnsgd1na2vs0mg"},{"bike_id":"8972bacc-c7d1-4ea0-b86f-0434eda79627","system_id":"levelo_inurba_marseille","lat":43.29978,"lon":5.37176,"is_reserved":false,"is_disabled":false,"rental_uris":{"android":"levelo://app?vid=8972bacc-c7d1-4ea0-b86f-0434eda79627","ios":"levelo://app?vid=8972bacc-c7d1-4ea0-b86f-0434eda79627"},"vehicle_type_id":"4","last_reported":1727270334,"current_range_meters":18800,"station_id":"ce4bgr92rcd13ifvqc7g","pricing_plan_id":"cebpf4jnsgd1na2vs0mg"},{"bike_id":"dda067a4-68a6-447b-ace1-e110f8cd024e","system_id":"levelo_inurba_marseille","lat":43.25941,"lon":5.409,"is_reserved":false,"is_disabled":false,"rental_uris":{"android":"levelo://app?vid=dda067a4-68a6-447b-ace1-e110f8cd024e","ios":"levelo://app?vid=dda067a4-68a6-447b-ace1-e110f8cd024e"},"vehicle_type_id":"4","last_reported":1727270334,"current_range_meters":28000,"station_id":"ce4bhm92rcd13ifvqglg","pricing_plan_id":"cebpf4jnsgd1na2vs0mg"},{"bike_id":"0d89f55a-9ee3-4d2d-841a-769dbcc07aba","system_id":"levelo_inurba_marseille","lat":43.28094,"lon":5.37839,"is_reserved":false,"is_disabled":false,"rental_uris":{"android":"levelo://app?vid=0d89f55a-9ee3-4d2d-841a-769dbcc07aba","ios":"levelo://app?vid=0d89f55a-9ee3-4d2d-841a-769dbcc07aba"},"vehicle_type_id":"4","last_reported":1727270334,"current_range_meters":38000,"station_id":"ce4bha12rcd13ifvqee0","pricing_plan_id":"cebpf4jnsgd1na2vs0mg"},{"bike_id":"d8ad447f-e5fc-4a0a-8116-e6000066e58b","system_id":"levelo_inurba_marseille","lat":43.28483,"lon":5.38537,"is_reserved":false,"is_disabled":false,"rental_uris":{"android":"levelo://app?vid=d8ad447f-e5fc-4a0a-8116-e6000066e58b","ios":"levelo://app?vid=d8ad447f-e5fc-4a0a-8116-e6000066e58b"},"vehicle_type_id":"4","last_reported":1727270334,"current_range_meters":37600,"station_id":"ce4bh8p2rcd13ifvqeb0","pricing_plan_id":"cebpf4jnsgd1na2vs0mg"},{"bike_id":"01324ddd-a8ba-40c3-88b1-fb68e0e51185","system_id":"levelo_inurba_marseille","lat":43.32485,"lon":5.36564,"is_reserved":false,"is_disabled":false,"rental_uris":{"android":"levelo://app?vid=01324ddd-a8ba-40c3-88b1-fb68e0e51185","ios":"levelo://app?vid=01324ddd-a8ba-40c3-88b1-fb68e0e51185"},"vehicle_type_id":"4","last_reported":1727270334,"current_range_meters":36000,"station_id":"ce4bhs12rcd13ifvqhvg","pricing_plan_id":"cebpf4jnsgd1na2vs0mg"},{"bike_id":"1b97aaa9-dfa9-4f18-be7c-20231e6ba9b8","system_id":"levelo_inurba_marseille","lat":43.28664,"lon":5.36355,"is_reserved":false,"is_disabled":false,"rental_uris":{"android":"levelo://app?vid=1b97aaa9-dfa9-4f18-be7c-20231e6ba9b8","ios":"levelo://app?vid=1b97aaa9-dfa9-4f18-be7c-20231e6ba9b8"},"vehicle_type_id":"4","last_reported":1727270334,"current_range_meters":38000,"station_id":"ce4bhah2rcd13ifvqej0","pricing_plan_id":"cebpf4jnsgd1na2vs0mg"},{"bike_id":"53b548ba-7f97-4279-b719-215552b25709","system_id":"levelo_inurba_marseille","lat":43.30546,"lon":5.36701,"is_reserved":false,"is_disabled":false,"rental_uris":{"android":"levelo://app?vid=53b548ba-7f97-4279-b719-215552b25709","ios":"levelo://app?vid=53b548ba-7f97-4279-b719-215552b25709"},"vehicle_type_id":"4","last_reported":1727270334,"current_range_meters":38000,"station_id":"ce4bgrp2rcd13ifvqc9g","pricing_plan_id":"cebpf4jnsgd1na2vs0mg"},{"bike_id":"49302a07-6838-4962-ba77-feb14fe81ec4","system_id":"levelo_inurba_marseille","lat":43.33761,"lon":5.37436,"is_reserved":false,"is_disabled":false,"rental_uris":{"android":"levelo://app?vid=49302a07-6838-4962-ba77-feb14fe81ec4","ios":"levelo://app?vid=49302a07-6838-4962-ba77-feb14fe81ec4"},"vehicle_type_id":"4","last_reported":1727270334,"current_range_meters":35600,"station_id":"","pricing_plan_id":"cebpf4jnsgd1na2vs0mg"},{"bike_id":"d8044a3d-9b4d-437d-bb71-985be15d2c83","system_id":"levelo_inurba_marseille","lat":43.30294,"lon":5.37696,"is_reserved":false,"is_disabled":false,"rental_uris":{"android":"levelo://app?vid=d8044a3d-9b4d-437d-bb71-985be15d2c83","ios":"levelo://app?vid=d8044a3d-9b4d-437d-bb71-985be15d2c83"},"vehicle_type_id":"4","last_reported":1727270334,"current_range_meters":27200,"station_id":"ce4bguh2rcd13ifvqcj0","pricing_plan_id":"cebpf4jnsgd1na2vs0mg"},{"bike_id":"9050d0c4-f22d-4c94-803f-48072f0e0adc","system_id":"levelo_inurba_marseille","lat":43.32482,"lon":5.36565,"is_reserved":false,"is_disabled":false,"rental_uris":{"android":"levelo://app?vid=9050d0c4-f22d-4c94-803f-48072f0e0adc","ios":"levelo://app?vid=9050d0c4-f22d-4c94-803f-48072f0e0adc"},"vehicle_type_id":"4","last_reported":1727270334,"current_range_meters":28800,"station_id":"ce4bhs12rcd13ifvqhvg","pricing_plan_id":"cebpf4jnsgd1na2vs0mg"},{"bike_id":"f073078a-aa3b-44d8-9f1c-b082348f6656","system_id":"levelo_inurba_marseille","lat":43.27372,"lon":5.36246,"is_reserved":false,"is_disabled":false,"rental_uris":{"android":"levelo://app?vid=f073078a-aa3b-44d8-9f1c-b082348f6656","ios":"levelo://app?vid=f073078a-aa3b-44d8-9f1c-b082348f6656"},"vehicle_type_id":"4","last_reported":1727270334,"current_range_meters":15200,"station_id":"ce4bhbh2rcd13ifvqeo0","pricing_plan_id":"cebpf4jnsgd1na2vs0mg"},{"bike_id":"95111e60-f394-449e-af4c-ceb532bc319f","system_id":"levelo_inurba_marseille","lat":43.30911,"lon":5.36843,"is_reserved":false,"is_disabled":false,"rental_uris":{"android":"levelo://app?vid=95111e60-f394-449e-af4c-ceb532bc319f","ios":"levelo://app?vid=95111e60-f394-449e-af4c-ceb532bc319f"},"vehicle_type_id":"4","last_reported":1727270334,"current_range_meters":38800,"station_id":"ce4bgn92rcd13ifvqbvg","pricing_plan_id":"cebpf4jnsgd1na2vs0mg"},