{"last_updated":1748006561,"ttl":60,"version":"2.2","data":{"bikes":[{"bike_id":"c0b9fd4f-e181-46ce-b0bf-f5119973334f","system_id":"levelo_inurba_marseille","lat":43.33771,"lon":5.37424,"is_reserved":false,"is_disabled":true,"rental_uris":{"android":"levelo://app?vid=c0b9fd4f-e181-46ce-b0bf-f5119973334f","ios":"levelo://app?vid=c0b9fd4f-e181-46ce-b0bf-f5119973334f"},"vehicle_type_id":"4","last_reported":1748006561,"current_range_meters":0,"station_id":"","pricing_plan_id":"cebpf4jnsgd1na2vs0mg"},{"bike_id":"d4150556-b601-4cc0-b77e-49c2d38938cf","system_id":"levelo_inurba_marseille","lat":43.288586,"lon":5.455116,"is_reserved":false,"is_disabled":true,"rental_uris":{"android":"levelo://app?vid=d4150556-b601-4cc0-b77e-49c2d38938cf","ios":"levelo://app?vid=d4150556-b601-4cc0-b77e-49c2d38938cf"},"vehicle_type_id":"4","last_reported":1748006561,"current_range_meters":0,"station_id":"","pricing_plan_id":"cebpf4jnsgd1na2vs0mg"},{"bike_id":"e8162579-a5ad-485f-ad83-fec8a2ebe7e1","system_id":"levelo_inurba_marseille","lat":43.26838,"lon":5.39097,"is_reserved":false,"is_disabled":true,"rental_uris":{"android":"levelo://app?vid=e8162579-a5ad-485f-ad83-fec8a2ebe7e1","ios":"levelo://app?vid=e8162579-a5ad-485f-ad83-fec8a2ebe7e1"},"vehicle_type_id":"4","last_reported":1748006561,"current_range_meters":0,"station_id":"","pricing_plan_id":"cebpf4jnsgd1na2vs0mg"},{"bike_id":"a9d86a3e-ff61-4b3c-b1d6-cb137b96f17c","system_id":"levelo_inurba_marseille","lat":43.2889,"lon":5.4304,"is_reserved":false,"is_disabled":true,"rental_uris":{"android":"levelo://app?vid=a9d86a3e-ff61-4b3c-b1d6-cb137b96f17c","ios":"levelo://app?vid=a9d86a3e-ff61-4b3c-b1d6-cb137b96f17c"},"vehicle_type_id":"4","last_reported":1748006561,"current_range_meters":0,"station_id":"","pricing_plan_id":"cebpf4jnsgd1na2vs0mg"},{"bike_id":"15dcdbbd-a41e-43eb-9ed6-26ec15ce7a50","system_id":"levelo_inurba_marseille","lat":43.21414,"lon":5.34119,"is_reserved":false,"is_disabled":true,"rental_uris":{"android":"levelo://app?vid=15dcdbbd-a41e-43eb-9ed6-26ec15ce7a50","ios":"levelo://app?vid=15dcdbbd-a41e-43eb-9ed6-26ec15ce7a50"},"vehicle_type_id":"4","last_reported":1748006561,"current_range_meters":0,"station_id":"","pricing_plan_id":"cebpf4jnsgd1na2vs0mg"},{"bike_id":"e9dd3aa4-b5e7-4480-926d-d7f537719bfa","system_id":"levelo_inurba_marseille","lat":43.230331,"lon":5.401847,"is_reserved":false,"is_disabled":true,"rental_uris":{"android":"levelo://app?vid=e9dd3aa4-b5e7-4480-926d-d7f537719bfa","ios":"levelo://app?vid=e9dd3aa4-b5e7-4480-926d-d7f537719bfa"},"vehicle_type_id":"4","last_reported":1748006561,"current_range_meters":0,"station_id":"","pricing_plan_id":"cebpf4jnsgd1na2vs0mg"},{"bike_id":"f5ac5dea-5895-43ee-9064-b270f74dd95a","system_id":"levelo_inurba_marseille","lat":43.29789,"lon":5.38089,"is_reserved":false,"is_disabled":true,"rental_uris":{"android":"levelo://app?vid=f5ac5dea-5895-43ee-9064-b270f74dd95a","ios":"levelo://app?vid=f5ac5dea-5895-43ee-9064-b270f74dd95a"},"vehicle_type_id":"4","last_reported":1748006561,"current_range_meters":0,"station_id":"ce4bgip2rcd13ifvqbb0","pricing_plan_id":"cebpf4jnsgd1na2vs0mg"},{"bike_id":"815a6be7-d0bc-423c-886f-148e1eebf456","system_id":"levelo_inurba_marseille","lat":43.299362,"lon":5.372021,"is_reserved":false,"is_disabled":true,"rental_uris":{"android":"levelo://app?vid=815a6be7-d0bc-423c-886f-148e1eebf456","ios":"levelo://app?vid=815a6be7-d0bc-423c-886f-148e1eebf456"},"vehicle_type_id":"4","last_reported":1748006561,"current_range_meters":0,"station_id":"ce4bgr92rcd13ifvqc7g","pricing_plan_id":"cebpf4jnsgd1na2vs0mg"},{"bike_id":"c1494e03-e600-4caf-8870-4eba42ec0813","system_id":"levelo_inurba_marseille","lat":43.313601,"lon":5.384879,"is_reserved":false,"is_disabled":true,"rental_uris":{"android":"levelo://app?vid=c1494e03-e600-4caf-8870-4eba42ec0813","ios":"levelo://app?vid=c1494e03-e600-4caf-8870-4eba42ec0813"},"vehicle_type_id":"4","last_reported":1748006561,"current_range_meters":0,"station_id":"ce4bgt92rcd13ifvqcf0","pricing_plan_id":"cebpf4jnsgd1na2vs0mg"},{"bike_id":"39c7ba4c-81f2-4ce7-a402-5fb82f5c352d","system_id":"levelo_inurba_marseille","lat":43.2929,"lon":5.40115,"is_reserved":false,"is_disabled":true,"rental_uris":{"android":"levelo://app?vid=39c7ba4c-81f2-4ce7-a402-5fb82f5c352d","ios":"levelo://app?vid=39c7ba4c-81f2-4ce7-a402-5fb82f5c352d"},"vehicle_type_id":"4","last_reported":1748006561,"current_range_meters":0,"station_id":"ce4bh312rcd13ifvqdk0","pricing_plan_id":"cebpf4jnsgd1na2vs0mg"},{"bike_id":"e6b3ead3-d817-45d9-a34b-7a2737913513","system_id":"levelo_inurba_marseille","lat":43.29102,"lon":5.38142,"is_reserved":false,"is_disabled":true,"rental_uris":{"android":"levelo://app?vid=e6b3ead3-d817-45d9-a34b-7a2737913513","ios":"levelo://app?vid=e6b3ead3-d817-45d9-a34b-7a2737913513"},"vehicle_type_id":"4","last_reported":1748006561,"current_range_meters":0,"station_id":"ce4bh512rcd13ifvqe2g","pricing_plan_id":"cebpf4jnsgd1na2vs0mg"},{"bike_id":"382fc0f5-8d1d-435d-b00c-e89d2f6ac692","system_id":"levelo_inurba_marseille","lat":43.279259,"lon":5.395971,"is_reserved":false,"is_disabled":true,"rental_uris":{"android":"levelo://app?vid=382fc0f5-8d1d-435d-b00c-e89d2f6ac692","ios":"levelo://app?vid=382fc0f5-8d1d-435d-b00c-e89d2f6ac692"},"vehicle_type_id":"4","last_reported":1748006561,"current_range_meters":0,"station_id":"ce4bhf92rcd13ifvqf40","pricing_plan_id":"cebpf4jnsgd1na2vs0mg"},{"bike_id":"303860c8-a00d-4bce-a4f2-10da0906d7de","system_id":"levelo_inurba_marseille","lat":43.26702,"lon":5.38274,"is_reserved":false,"is_disabled":true,"rental_uris":{"android":"levelo://app?vid=303860c8-a00d-4bce-a4f2-10da0906d7de","ios":"levelo://app?vid=303860c8-a00d-4bce-a4f2-10da0906d7de"},"vehicle_type_id":"4","last_reported":1748006561,"current_range_meters":0,"station_id":"ce4bhg92rcd13ifvqf90","pricing_plan_id":"cebpf4jnsgd1na2vs0mg"},{"bike_id":"e7b2a0a8-0f52-4242-a675-f4f62900ef39","system_id":"levelo_inurba_marseille","lat":43.26739,"lon":5.39404,"is_reserved":false,"is_disabled":true,"rental_uris":{"android":"levelo://app?vid=e7b2a0a8-0f52-4242-a675-f4f62900ef39","ios":"levelo://app?vid=e7b2a0a8-0f52-4242-a675-f4f62900ef39"},"vehicle_type_id":"4","last_reported":1748006561,"current_range_meters":0,"station_id":"ce4bhh12rcd13ifvqfg0","pricing_plan_id":"cebpf4jnsgd1na2vs0mg"},{"bike_id":"0743bbd3-5d3e-4cbc-a172-b8dc6203e318","system_id":"levelo_inurba_marseille","lat":43.23966,"lon":5.36622,"is_reserved":false,"is_disabled":true,"rental_uris":{"android":"levelo://app?vid=0743bbd3-5d3e-4cbc-a172-b8dc6203e318","ios":"levelo://app?vid=0743bbd3-5d3e-4cbc-a172-b8dc6203e318"},"vehicle_type_id":"4","last_reported":1748006561,"current_range_meters":0,"station_id":"ce4bhi12rcd13ifvqfp0","pricing_plan_id":"cebpf4jnsgd1na2vs0mg"},{"bike_id":"9e80041f-72df-4074-9716-7020a24f8ea2","system_id":"levelo_inurba_marseille","lat":43.26204,"lon":5.37927,"is_reserved":false,"is_disabled":true,"rental_uris":{"android":"levelo://app?vid=9e80041f-72df-4074-9716-7020a24f8ea2","ios":"levelo://app?vid=9e80041f-72df-4074-9716-7020a24f8ea2"},"vehicle_type_id":"4","last_reported":1748006561,"current_range_meters":0,"station_id":"ce4bhjp2rcd13ifvqg90","pricing_plan_id":"cebpf4jnsgd1na2vs0mg"},{"bike_id":"2ca7a36d-f94a-4a75-8083-db0f9063bb08","system_id":"levelo_inurba_marseille","lat":43.25081,"lon":5.39543,"is_reserved":false,"is_disabled":true,"rental_uris":{"android":"levelo://app?vid=2ca7a36d-f94a-4a75-8083-db0f9063bb08","ios":"levelo://app?vid=2ca7a36d-f94a-4a75-8083-db0f9063bb08"},"vehicle_type_id":"4","last_reported":1748006561,"current_range_meters":0,"station_id":"ce4bhm12rcd13ifvqgkg","pricing_plan_id":"cebpf4jnsgd1na2vs0mg"},{"bike_id":"9f932ec1-2bf6-4f7d-9bc1-96b617409776","system_id":"levelo_inurba_marseille","lat":43.24172,"lon":5.36404,"is_reserved":false,"is_disabled":true,"rental_uris":{"android":"levelo://app?vid=9f932ec1-2bf6-4f7d-9bc1-96b617409776","ios":"levelo://app?vid=9f932ec1-2bf6-4f7d-9bc1-96b617409776"},"vehicle_type_id":"4","last_reported":1748006561,"current_range_meters":0,"station_id":"cpo36qri1sfpv3e86is0","pricing_plan_id":"cebpf4jnsgd1na2vs0mg"},{"bike_id":"1d9738ab-570c-4579-ad6c-c7197759d7ba","system_id":"levelo_inurba_marseille","lat":43.29208,"lon":5.39332,"is_reserved":false,"is_disabled":true,"rental_uris":{"android":"levelo://app?vid=1d9738ab-570c-4579-ad6c-c7197759d7ba","ios":"levelo://app?vid=1d9738ab-570c-4579-ad6c-c7197759d7ba"},"vehicle_type_id":"4","last_reported":1748006561,"current_range_meters":400,"station_id":"ce4bh192rcd13ifvqdd0","pricing_plan_id":"cebpf4jnsgd1na2vs0mg"},{"bike_id":"be370977-3d49-4b74-a654-e4f538a648fc","system_id":"levelo_inurba_marseille","lat":43.29175,"lon":5.37163,"is_reserved":false,"is_disabled":true,"rental_uris":{"android":"levelo://app?vid=be370977-3d49-4b74-a654-e4f538a648fc","ios":"levelo://app?vid=be370977-3d49-4b74-a654-e4f538a648fc"},"vehicle_type_id":"4","last_reported":1748006561,"current_range_meters":400,"station_id":"ce4bha92rcd13ifvqeh0","pricing_plan_id":"cebpf4jnsgd1na2vs0mg"},{"bike_id":"5ccf4a67-7ac1-4af0-9902-9dc2245c8dfb","system_id":"levelo_inurba_marseille","lat":43.26211,"lon":5.37451,"is_reserved":false,"is_disabled":true,"rental_uris":{"android":"levelo://app?vid=5ccf4a67-7ac1-4af0-9902-9dc2245c8dfb","ios":"levelo://app?vid=5ccf4a67-7ac1-4af0-9902-9dc2245c8dfb"},"vehicle_type_id":"4","last_reported":1748006561,"current_range_meters":400,"station_id":"ce4bhgp2rcd13ifvqfc0","pricing_plan_id":"cebpf4jnsgd1na2vs0mg"},{"bike_id":"c2a860e3-faae-4359-9cec-65d38c868680","system_id":"levelo_inurba_marseille","lat":43.2585,"lon":5.39903,"is_reserved":false,"is_disabled":true,"rental_uris":{"android":"levelo://app?vid=c2a860e3-faae-4359-9cec-65d38c868680","ios":"levelo://app?vid=c2a860e3-faae-4359-9cec-65d38c868680"},"vehicle_type_id":"4","last_reported":1748006561,"current_range_meters":400,"station_id":"ce4bhl92rcd13ifvqghg","pricing_plan_id":"cebpf4jnsgd1na2vs0mg"},{"bike_id":"1734e8f0-15ce-4096-9b9d-c08b62fdfbe0","system_id":"levelo_inurba_marseille","lat":43.24167,"lon":5.36391,"is_reserved":false,"is_disabled":true,"rental_uris":{"android":"levelo://app?vid=1734e8f0-15ce-4096-9b9d-c08b62fdfbe0","ios":"levelo://app?vid=1734e8f0-15ce-4096-9b9d-c08b62fdfbe0"},"vehicle_type_id":"4","last_reported":1748006561,"current_range_meters":400,"station_id":"cpo36qri1sfpv3e86is0","pricing_plan_id":"cebpf4jnsgd1na2vs0mg"},{"bike_id":"e6ee9c4a-aaa1-436a-8f1f-a860631f8f6d","system_id":"levelo_inurba_marseille","lat":43.31085,"lon":5.42431,"is_reserved":false,"is_disabled":true,"rental_uris":{"android":"levelo://app?vid=e6ee9c4a-aaa1-436a-8f1f-a860631f8f6d","ios":"levelo://app?vid=e6ee9c4a-aaa1-436a-8f1f-a860631f8f6d"},"vehicle_type_id":"4","last_reported":1748006561,"current_range_meters":800,"station_id":"ce4bhp92rcd13ifvqhag","pricing_plan_id":"cebpf4jnsgd1na2vs0mg"},{"bike_id":"df495aea-3cd7-4215-855b-916290111e86","system_id":"levelo_inurba_marseille","lat":43.29516,"lon":5.37497,"is_reserved":false,"is_disabled":true,"rental_uris":{"android":"levelo://app?vid=df495aea-3cd7-4215-855b-916290111e86","ios":"levelo://app?vid=df495aea-3cd7-4215-855b-916290111e86"},"vehicle_type_id":"4","last_reported":1748006561,"current_range_meters":1200,"station_id":"ce4bgkp2rcd13ifvqbmg","pricing_plan_id":"cebpf4jnsgd1na2vs0mg"},{"bike_id":"6edd336b-41c1-4c18-b0f5-336def9f6853","system_id":"levelo_inurba_marseille","lat":43.30604,"lon":5.37226,"is_reserved":false,"is_disabled":true,"rental_uris":{"android":"levelo://app?vid=6edd336b-41c1-4c18-b0f5-336def9f6853","ios":"levelo://app?vid=6edd336b-41c1-4c18-b0f5-336def9f6853"},"vehicle_type_id":"4","last_reported":1748006561,"current_range_meters":1200,"station_id":"ce4bgqh2rcd13ifvqc4g","pricing_plan_id":"cebpf4jnsgd1na2vs0mg"},{"bike_id":"a2e0b748-bed6-4b3e-a2e7-4aea35679a50","system_id":"levelo_inurba_marseille","lat":43.283246,"lon":5.381073,"is_reserved":false,"is_disabled":true,"rental_uris":{"android":"levelo://app?vid=a2e0b748-bed6-4b3e-a2e7-4aea35679a50","ios":"levelo://app?vid=a2e0b748-bed6-4b3e-a2e7-4aea35679a50"},"vehicle_type_id":"4","last_reported":1748006561,"current_range_meters":1200,"station_id":"ce4bh412rcd13ifvqdr0","pricing_plan_id":"cebpf4jnsgd1na2vs0mg"},{"bike_id":"3395f6ca-6de6-451e-a16b-397ab1adf464","system_id":"levelo_inurba_marseille","lat":43.26041,"lon":5.37559,"is_reserved":false,"is_disabled":true,"rental_uris":{"android":"levelo://app?vid=3395f6ca-6de6-451e-a16b-397ab1adf464","ios":"levelo://app?vid=3395f6ca-6de6-451e-a16b-397ab1adf464"},"vehicle_type_id":"4","last_reported":1748006561,"current_range_meters":1200,"station_id":"ce4bhgh2rcd13ifvqfa0","pricing_plan_id":"cebpf4jnsgd1na2vs0mg"},{"bike_id":"c947cf16-64bc-4e1e-a1b8-a4943bd228ed","system_id":"levelo_inurba_marseille","lat":43.27057,"lon":5.4026,"is_reserved":false,"is_disabled":true,"rental_uris":{"android":"levelo://app?vid=c947cf16-64bc-4e1e-a1b8-a4943bd228ed","ios":"levelo://app?vid=c947cf16-64bc-4e1e-a1b8-a4943bd228ed"},"vehicle_type_id":"4","last_reported":1748006561,"current_range_meters":1200,"station_id":"ce4bhk92rcd13ifvqgc0","pricing_plan_id":"cebpf4jnsgd1na2vs0mg"},{"bike_id":"822a9896-2482-4354-b6a6-6dbb86e1f1c1","system_id":"levelo_inurba_marseille","lat":43.31762,"lon":5.3902,"is_reserved":false,"is_disabled":true,"rental_uris":{"android":"levelo://app?vid=822a9896-2482-4354-b6a6-6dbb86e1f1c1","ios":"levelo://app?vid=822a9896-2482-4354-b6a6-6dbb86e1f1c1"},"vehicle_type_id":"4","last_reported":1748006561,"current_range_meters":1200,"station_id":"ce4bhqp2rcd13ifvqhng","pricing_plan_id":"cebpf4jnsgd1na2vs0mg"},{"bike_id":"8ddefb91-8a7e-48f1-9658-02f451f20b09","system_id":"levelo_inurba_marseille","lat":43.29416,"lon":5.38627,"is_reserved":false,"is_disabled":true,"rental_uris":{"android":"levelo://app?vid=8ddefb91-8a7e-48f1-9658-02f451f20b09","ios":"levelo://app?vid=8ddefb91-8a7e-48f1-9658-02f451f20b09"},"vehicle_type_id":"4","last_reported":1748006561,"current_range_meters":1600,"station_id":"","pricing_plan_id":"cebpf4jnsgd1na2vs0mg"},{"bike_id":"5ec64282-32a1-4c9f-ba93-9852476a9138","system_id":"levelo_inurba_marseille","lat":43.29425,"lon":5.39736,"is_reserved":false,"is_disabled":false,"rental_uris":{"android":"levelo://app?vid=5ec64282-32a1-4c9f-ba93-9852476a9138","ios":"levelo://app?vid=5ec64282-32a1-4c9f-ba93-9852476a9138"},"vehicle_type_id":"4","last_reported":1748006561,"current_range_meters":2000,"station_id":"ce4bh3h2rcd13ifvqdo0","pricing_plan_id":"cebpf4jnsgd1na2vs0mg"},{"bike_id":"99d80ea6-3e88-4da2-b6ec-a3e24e2e1956","system_id":"levelo_inurba_marseille","lat":43.29045,"lon":5.37564,"is_reserved":false,"is_disabled":true,"rental_uris":{"android":"levelo://app?vid=99d80ea6-3e88-4da2-b6ec-a3e24e2e1956","ios":"levelo://app?vid=99d80ea6-3e88-4da2-b6ec-a3e24e2e1956"},"vehicle_type_id":"4","last_reported":1748006561,"current_range_meters":2000,"station_id":"ce4bh692rcd13ifvqe90","pricing_plan_id":"cebpf4jnsgd1na2vs0mg"},{"bike_id":"3ec9922f-26ee-42ff-a108-36290b53645e","system_id":"levelo_inurba_marseille","lat":43.30911,"lon":5.36852,"is_reserved":false,"is_disabled":false,"rental_uris":{"android":"levelo://app?vid=3ec9922f-26ee-42ff-a108-36290b53645e","ios":"levelo://app?vid=3ec9922f-26ee-42ff-a108-36290b53645e"},"vehicle_type_id":"4","last_reported":1748006561,"current_range_meters":2800,"station_id":"ce4bgn92rcd13ifvqbvg","pricing_plan_id":"cebpf4jnsgd1na2vs0mg"},{"bike_id":"33489211-d1e5-476a-8682-f8241d6ea290","system_id":"levelo_inurba_marseille","lat":43.289459,"lon":5.39632,"is_reserved":false,"is_disabled":false,"rental_uris":{"android":"levelo://app?vid=33489211-d1e5-476a-8682-f8241d6ea290","ios":"levelo://app?vid=33489211-d1e5-476a-8682-f8241d6ea290"},"vehicle_type_id":"4","last_reported":1748006561,"current_range_meters":2800,"station_id":"ce4bh3h2rcd13ifvqdn0","pricing_plan_id":"cebpf4jnsgd1na2vs0mg"},{"bike_id":"ddec2c94-0cd0-45fd-a3e6-ecb6cd9c1cb7","system_id":"levelo_inurba_marseille","lat":43.28673,"lon":5.38667,"is_reserved":false,"is_disabled":false,"rental_uris":{"android":"levelo://app?vid=ddec2c94-0cd0-45fd-a3e6-ecb6cd9c1cb7","ios":"levelo://app?vid=ddec2c94-0cd0-45fd-a3e6-ecb6cd9c1cb7"},"vehicle_type_id":"4","last_reported":1748006561,"current_range_meters":2800,"station_id":"ce4bh492rcd13ifvqdug","pricing_plan_id":"cebpf4jnsgd1na2vs0mg"},{"bike_id":"3dd3fe7c-4376-464e-bdbd-172a175c91a6","system_id":"levelo_inurba_marseille","lat":43.28426,"lon":5.34982,"is_reserved":false,"is_disabled":false,"rental_uris":{"android":"levelo://app?vid=3dd3fe7c-4376-464e-bdbd-172a175c91a6","ios":"levelo://app?vid=3dd3fe7c-4376-464e-bdbd-172a175c91a6"},"vehicle_type_id":"4","last_reported":1748006561,"current_range_meters":2800,"station_id":"ce4bhbh2rcd13ifvqepg","pricing_plan_id":"cebpf4jnsgd1na2vs0mg"},{"bike_id":"6f0518f5-8456-4fc1-b926-deb4e73be7d2","system_id":"levelo_inurba_marseille","lat":43.24994,"lon":5.3894,"is_reserved":false,"is_disabled":false,"rental_uris":{"android":"levelo://app?vid=6f0518f5-8456-4fc1-b926-deb4e73be7d2","ios":"levelo://app?vid=6f0518f5-8456-4fc1-b926-deb4e73be7d2"},"vehicle_type_id":"4","last_reported":1748006561,"current_range_meters":2800,"station_id":"ce4bhgp2rcd13ifvqfd0","pricing_plan_id":"cebpf4jnsgd1na2vs0mg"},{"bike_id":"7d7eb00e-9da3-403d-8836-0841fa1c546d","system_id":"levelo_inurba_marseille","lat":43.30441,"lon":5.38888,"is_reserved":false,"is_disabled":false,"rental_uris":{"android":"levelo://app?vid=7d7eb00e-9da3-403d-8836-0841fa1c546d","ios":"levelo://app?vid=7d7eb00e-9da3-403d-8836-0841fa1c546d"},"vehicle_type_id":"4","last_reported":1748006561,"current_range_meters":3200,"station_id":"ce4bgk12rcd13ifvqbi0","pricing_plan_id":"cebpf4jnsgd1na2vs0mg"},{"bike_id":"3e300dc0-a57b-4bd4-ba03-a233323d11cb","system_id":"levelo_inurba_marseille","lat":43.28101,"lon":5.37831,"is_reserved":false,"is_disabled":false,"rental_uris":{"android":"levelo://app?vid=3e300dc0-a57b-4bd4-ba03-a233323d11cb","ios":"levelo://app?vid=3e300dc0-a57b-4bd4-ba03-a233323d11cb"},"vehicle_type_id":"4","last_reported":1748006561,"current_range_meters":3200,"station_id":"ce4bha12rcd13ifvqee0","pricing_plan_id":"cebpf4jnsgd1na2vs0mg"},{"bike_id":"4cff976c-6ba4-46ee-8e0b-ff4da51a44cb","system_id":"levelo_inurba_marseille","lat":43.28411,"lon":5.34974,"is_reserved":false,"is_disabled":false,"rental_uris":{"android":"levelo://app?vid=4cff976c-6ba4-46ee-8e0b-ff4da51a44cb","ios":"levelo://app?vid=4cff976c-6ba4-46ee-8e0b-ff4da51a44cb"},"vehicle_type_id":"4","last_reported":1748006561,"current_range_meters":3200,"station_id":"ce4bhbh2rcd13ifvqepg","pricing_plan_id":"cebpf4jnsgd1na2vs0mg"},{"bike_id":"c96080f8-515a-4fae-959d-a75ed6497f4e","system_id":"levelo_inurba_marseille","lat":43.27903,"lon":5.38017,"is_reserved":false,"is_disabled":false,"rental_uris":{"android":"levelo://app?vid=c96080f8-515a-4fae-959d-a75ed6497f4e","ios":"levelo://app?vid=c96080f8-515a-4fae-959d-a75ed6497f4e"},"vehicle_type_id":"4","last_reported":1748006561,"current_range_meters":3200,"station_id":"ce4bhf92rcd13ifvqf50","pricing_plan_id":"cebpf4jnsgd1na2vs0mg"},{"bike_id":"2827ef28-0e2e-44ad-a881-0f5a8a0f4025","system_id":"levelo_inurba_marseille","lat":43.23146,"lon":5.43714,"is_reserved":false,"is_disabled":false,"rental_uris":{"android":"levelo://app?vid=2827ef28-0e2e-44ad-a881-0f5a8a0f4025","ios":"levelo://app?vid=2827ef28-0e2e-44ad-a881-0f5a8a0f4025"},"vehicle_type_id":"4","last_reported":1748006561,"current_range_meters":3200,"station_id":"ce4bhmp2rcd13ifvqgog","pricing_plan_id":"cebpf4jnsgd1na2vs0mg"},{"bike_id":"538b5bcb-78f1-4045-8835-bbcbb4f3e58f","system_id":"levelo_inurba_marseille","lat":43.229292,"lon":5.35372,"is_reserved":false,"is_disabled":false,"rental_uris":{"android":"levelo://app?vid=538b5bcb-78f1-4045-8835-bbcbb4f3e58f","ios":"levelo://app?vid=538b5bcb-78f1-4045-8835-bbcbb4f3e58f"},"vehicle_type_id":"4","last_reported":1748006561,"current_range_meters":3600,"station_id":"cpo3532slgdg3j2ikp40","pricing_plan_id":"cebpf4jnsgd1na2vs0mg"},{"bike_id":"ec9105c9-7e50-4b7e-84ba-9d869d8613ff","system_id":"levelo_inurba_marseille","lat":43.2417,"lon":5.36394,"is_reserved":false,"is_disabled":false,"rental_uris":{"android":"levelo://app?vid=ec9105c9-7e50-4b7e-84ba-9d869d8613ff","ios":"levelo://app?vid=ec9105c9-7e50-4b7e-84ba-9d869d8613ff"},"vehicle_type_id":"4","last_reported":1748006561,"current_range_meters":3600,"station_id":"cpo36qri1sfpv3e86is0","pricing_plan_id":"cebpf4jnsgd1na2vs0mg"},{"bike_id":"c3c7ae58-40dc-49fe-91c8-045c830c98b8","system_id":"levelo_inurba_marseille","lat":43.31932,"lon":5.44985,"is_reserved":false,"is_disabled":false,"rental_uris":{"android":"levelo://app?vid=c3c7ae58-40dc-49fe-91c8-045c830c98b8","ios":"levelo://app?vid=c3c7ae58-40dc-49fe-91c8-045c830c98b8"},"vehicle_type_id":"4","last_reported":1748006561,"current_range_meters":4000,"station_id":"","pricing_plan_id":"cebpf4jnsgd1na2vs0mg"},{"bike_id":"e0eb00c3-6ac1-4839-ad1a-0f7f4ff34341","system_id":"levelo_inurba_marseille","lat":43.295227,"lon":5.375054,"is_reserved":false,"is_disabled":false,"rental_uris":{"android":"levelo://app?vid=e0eb00c3-6ac1-4839-ad1a-0f7f4ff34341","ios":"levelo://app?vid=e0eb00c3-6ac1-4839-ad1a-0f7f4ff34341"},"vehicle_type_id":"4","last_reported":1748006561,"current_range_meters":4000,"station_id":"ce4bgkp2rcd13ifvqbmg","pricing_plan_id":"cebpf4jnsgd1na2vs0mg"},{"bike_id":"b341ebb3-74b6-4c39-857b-ff83a0c739db","system_id":"levelo_inurba_marseille","lat":43.290344,"lon":5.37581,"is_reserved":false,"is_disabled":false,"rental_uris":{"android":"levelo://app?vid=b341ebb3-74b6-4c39-857b-ff83a0c739db","ios":"levelo://app?vid=b341ebb3-74b6-4c39-857b-ff83a0c739db"},"vehicle_type_id":"4","last_reported":1748006561,"current_range_meters":4000,"station_id":"ce4bh692rcd13ifvqe90","pricing_plan_id":"cebpf4jnsgd1na2vs0mg"},{"bike_id":"9507bca2-def7-4d83-a714-f4e7892e9300","system_id":"levelo_inurba_marseille","lat":43.27928,"lon":5.413315,"is_reserved":false,"is_disabled":false,"rental_uris":{"android":"levelo://app?vid=9507bca2-def7-4d83-a714-f4e7892e9300","ios":"levelo://app?vid=9507bca2-def7-4d83-a714-f4e7892e9300"},"vehicle_type_id":"4","last_reported":1748006561,"current_range_meters":4000,"station_id":"ce4bhk92rcd13ifvqgb0","pricing_plan_id":"cebpf4jnsgd1na2vs0mg"},{"bike_id":"3fe3d6c4-138a-47df-b6b4-e6f19e8f7d46","system_id":"levelo_inurba_marseille","lat":43.21404,"lon":5.34125,"is_reserved":false,"is_disabled":false,"rental_uris":{"android":"levelo://app?vid=3fe3d6c4-138a-47df-b6b4-e6f19e8f7d46","ios":"levelo://app?vid=3fe3d6c4-138a-47df-b6b4-e6f19e8f7d46"},"vehicle_type_id":"4","last_reported":1748006561,"current_range_meters":4400,"station_id":"","pricing_plan_id":"cebpf4jnsgd1na2vs0mg"},{"bike_id":"6a4f46d2-1f0f-421d-8709-408ef4c56951","system_id":"levelo_inurba_marseille","lat":43.27625,"lon":5.36131,"is_reserved":false,"is_disabled":false,"rental_uris":{"android":"levelo://app?vid=6a4f46d2-1f0f-421d-8709-408ef4c56951","ios":"levelo://app?vid=6a4f46d2-1f0f-421d-8709-408ef4c56951"},"vehicle_type_id":"4","last_reported":1748006561,"current_range_meters":4400,"station_id":"ce4bgj92rcd13ifvqbe0","pricing_plan_id":"cebpf4jnsgd1na2vs0mg"},{"bike_id":"f8db4335-c6cc-44e1-a112-41477c3f74b3","system_id":"levelo_inurba_marseille","lat":43.31356,"lon":5.38491,"is_reserved":false,"is_disabled":false,"rental_uris":{"android":"levelo://app?vid=f8db4335-c6cc-44e1-a112-41477c3f74b3","ios":"levelo://app?vid=f8db4335-c6cc-44e1-a112-41477c3f74b3"},"vehicle_type_id":"4","last_reported":1748006561,"current_range_meters":4800,"station_id":"ce4bgt92rcd13ifvqcf0","pricing_plan_id":"cebpf4jnsgd1na2vs0mg"},{"bike_id":"0b8c5c0c-fdf0-4cbc-b86a-04fc6bba9a2d","system_id":"levelo_inurba_marseille","lat":43.32107,"lon":5.36783,"is_reserved":false,"is_disabled":false,"rental_uris":{"android":"levelo://app?vid=0b8c5c0c-fdf0-4cbc-b86a-04fc6bba9a2d","ios":"levelo://app?vid=0b8c5c0c-fdf0-4cbc-b86a-04fc6bba9a2d"},"vehicle_type_id":"4","last_reported":1748006561,"current_range_meters":4800,"station_id":"ce4bhrh2rcd13ifvqhug","pricing_plan_id":"cebpf4jnsgd1na2vs0mg"},{"bike_id":"1e530aba-e79f-4371-bc0b-5e00b6045765","system_id":"levelo_inurba_marseille","lat":43.28613,"lon":5.37062,"is_reserved":false,"is_disabled":false,"rental_uris":{"android":"levelo://app?vid=1e530aba-e79f-4371-bc0b-5e00b6045765","ios":"levelo://app?vid=1e530aba-e79f-4371-bc0b-5e00b6045765"},"vehicle_type_id":"4","last_reported":1748006561,"current_range_meters":4800,"station_id":"ce4bht12rcd13ifvqi60","pricing_plan_id":"cebpf4jnsgd1na2vs0mg"},{"bike_id":"ad4d8099-03a6-43ca-966f-189fb83ff678","system_id":"levelo_inurba_marseille","lat":43.31267,"lon":5.3741,"is_reserved":false,"is_disabled":false,"rental_uris":{"android":"levelo://app?vid=ad4d8099-03a6-43ca-966f-189fb83ff678","ios":"levelo://app?vid=ad4d8099-03a6-43ca-966f-189fb83ff678"},"vehicle_type_id":"4","last_reported":1748006561,"current_range_meters":5600,"station_id":"","pricing_plan_id":"cebpf4jnsgd1na2vs0mg"},{"bike_id":"f9fb40c0-1fcd-48cb-8e26-3f2dc0fb2451","system_id":"levelo_inurba_marseille","lat":43.33751,"lon":5.37509,"is_reserved":false,"is_disabled":false,"rental_uris":{"android":"levelo://app?vid=f9fb40c0-1fcd-48cb-8e26-3f2dc0fb2451","ios":"levelo://app?vid=f9fb40c0-1fcd-48cb-8e26-3f2dc0fb2451"},"vehicle_type_id":"4","last_reported":1748006561,"current_range_meters":5600,"station_id":"","pricing_plan_id":"cebpf4jnsgd1na2vs0mg"},{"bike_id":"43ad4dd3-1649-4035-bbec-6b7b3a8e717b","system_id":"levelo_inurba_marseille","lat":43.304243,"lon":5.388942,"is_reserved":false,"is_disabled":false,"rental_uris":{"android":"levelo://app?vid=43ad4dd3-1649-4035-bbec-6b7b3a8e717b","ios":"levelo://app?vid=43ad4dd3-1649-4035-bbec-6b7b3a8e717b"},"vehicle_type_id":"4","last_reported":1748006561,"current_range_meters":5600,"station_id":"ce4bgk12rcd13ifvqbi0","pricing_plan_id":"cebpf4jnsgd1na2vs0mg"},{"bike_id":"6da26aec-1ad9-4b59-a0aa-684fed92a797","system_id":"levelo_inurba_marseille","lat":43.29426,"lon":5.38618,"is_reserved":false,"is_disabled":false,"rental_uris":{"android":"levelo://app?vid=6da26aec-1ad9-4b59-a0aa-684fed92a797","ios":"levelo://app?vid=6da26aec-1ad9-4b59-a0aa-684fed92a797"},"vehicle_type_id":"4","last_reported":1748006561,"current_range_meters":5600,"station_id":"ce4bh2h2rcd13ifvqdh0","pricing_plan_id":"cebpf4jnsgd1na2vs0mg"},{"bike_id":"02843aeb-19eb-40cf-b1ec-ba05d72c8389","system_id":"levelo_inurba_marseille","lat":43.25503,"lon":5.37663,"is_reserved":false,"is_disabled":false,"rental_uris":{"android":"levelo://app?vid=02843aeb-19eb-40cf-b1ec-ba05d72c8389","ios":"levelo://app?vid=02843aeb-19eb-40cf-b1ec-ba05d72c8389"},"vehicle_type_id":"4","last_reported":1748006561,"current_range_meters":5600,"station_id":"ce4bhh12rcd13ifvqff0","pricing_plan_id":"cebpf4jnsgd1na2vs0mg"},{"bike_id":"cd2b9d97-3676-4c83-8e3b-aa4857457d9a","system_id":"levelo_inurba_marseille","lat":43.31498,"lon":5.37037,"is_reserved":false,"is_disabled":false,"rental_uris":{"android":"levelo://app?vid=cd2b9d97-3676-4c83-8e3b-aa4857457d9a","ios":"levelo://app?vid=cd2b9d97-3676-4c83-8e3b-aa4857457d9a"},"vehicle_type_id":"4","last_reported":1748006561,"current_range_meters":6000,"station_id":"","pricing_plan_id":"cebpf4jnsgd1na2vs0mg"},{"bike_id":"6c7eb2a2-c461-464b-8737-c68ed563d462","system_id":"levelo_inurba_marseille","lat":43.308762,"lon":5.396588,"is_reserved":false,"is_disabled":false,"rental_uris":{"android":"levelo://app?vid=6c7eb2a2-c461-464b-8737-c68ed563d462","ios":"levelo://app?vid=6c7eb2a2-c461-464b-8737-c68ed563d462"},"vehicle_type_id":"4","last_reported":1748006561,"current_range_meters":6000,"station_id":"ce4bh012rcd13ifvqcv0","pricing_plan_id":"cebpf4jnsgd1na2vs0mg"},{"bike_id":"27653dcd-dec9-4f13-b172-8968c20c1725","system_id":"levelo_inurba_marseille","lat":43.23857,"lon":5.43103,"is_reserved":false,"is_disabled":false,"rental_uris":{"android":"levelo://app?vid=27653dcd-dec9-4f13-b172-8968c20c1725","ios":"levelo://app?vid=27653dcd-dec9-4f13-b172-8968c20c1725"},"vehicle_type_id":"4","last_reported":1748006561,"current_range_meters":6400,"station_id":"","pricing_plan_id":"cebpf4jnsgd1na2vs0mg"},{"bike_id":"8cb7f1b3-62cf-44b4-8dc6-0ed4a7cfd9a0","system_id":"levelo_inurba_marseille","lat":43.25506,"lon":5.37651,"is_reserved":false,"is_disabled":false,"rental_uris":{"android":"levelo://app?vid=8cb7f1b3-62cf-44b4-8dc6-0ed4a7cfd9a0","ios":"levelo://app?vid=8cb7f1b3-62cf-44b4-8dc6-0ed4a7cfd9a0"},"vehicle_type_id":"4","last_reported":1748006561,"current_range_meters":6400,"station_id":"ce4bhh12rcd13ifvqff0","pricing_plan_id":"cebpf4jnsgd1na2vs0mg"},{"bike_id":"8e19bdbd-25ca-403a-a981-a8b6bc701011","system_id":"levelo_inurba_marseille","lat":43.255,"lon":5.37649,"is_reserved":false,"is_disabled":false,"rental_uris":{"android":"levelo://app?vid=8e19bdbd-25ca-403a-a981-a8b6bc701011","ios":"levelo://app?vid=8e19bdbd-25ca-403a-a981-a8b6bc701011"},"vehicle_type_id":"4","last_reported":1748006561,"current_range_meters":6400,"station_id":"ce4bhh12rcd13ifvqff0","pricing_plan_id":"cebpf4jnsgd1na2vs0mg"},{"bike_id":"0a586eba-6ddd-46c7-b2ae-841c4c3f5434","system_id":"levelo_inurba_marseille","lat":43.3042,"lon":5.41279,"is_reserved":false,"is_disabled":false,"rental_uris":{"android":"levelo://app?vid=0a586eba-6ddd-46c7-b2ae-841c4c3f5434","ios":"levelo://app?vid=0a586eba-6ddd-46c7-b2ae-841c4c3f5434"},"vehicle_type_id":"4","last_reported":1748006561,"current_range_meters":6400,"station_id":"ce4bhop2rcd13ifvqh8g","pricing_plan_id":"cebpf4jnsgd1na2vs0mg"},{"bike_id":"6a85369f-636f-4448-91f6-e3994a0fb52b","system_id":"levelo_inurba_marseille","lat":43.27753,"lon":5.38692,"is_reserved":false,"is_disabled":false,"rental_uris":{"android":"levelo://app?vid=6a85369f-636f-4448-91f6-e3994a0fb52b","ios":"levelo://app?vid=6a85369f-636f-4448-91f6-e3994a0fb52b"},"vehicle_type_id":"4","last_reported":1748006561,"current_range_meters":6800,"station_id":"","pricing_plan_id":"cebpf4jnsgd1na2vs0mg"},{"bike_id":"1e7b9de6-2fc0-4704-8c1d-3472625c29a9","system_id":"levelo_inurba_marseille","lat":43.304223,"lon":5.388823,"is_reserved":false,"is_disabled":false,"rental_uris":{"android":"levelo://app?vid=1e7b9de6-2fc0-4704-8c1d-3472625c29a9","ios":"levelo://app?vid=1e7b9de6-2fc0-4704-8c1d-3472625c29a9"},"vehicle_type_id":"4","last_reported":1748006561,"current_range_meters":6800,"station_id":"ce4bgk12rcd13ifvqbi0","pricing_plan_id":"cebpf4jnsgd1na2vs0mg"},{"bike_id":"20d4c44a-7e96-49e4-a342-98942effd3ae","system_id":"levelo_inurba_marseille","lat":43.309588,"lon":5.390414,"is_reserved":false,"is_disabled":false,"rental_uris":{"android":"levelo://app?vid=20d4c44a-7e96-49e4-a342-98942effd3ae","ios":"levelo://app?vid=20d4c44a-7e96-49e4-a342-98942effd3ae"},"vehicle_type_id":"4","last_reported":1748006561,"current_range_meters":6800,"station_id":"ce4bgup2rcd13ifvqco0","pricing_plan_id":"cebpf4jnsgd1na2vs0mg"},{"bike_id":"40dcd092-69e3-40ad-a60c-753e45c6b1dc","system_id":"levelo_inurba_marseille","lat":43.26493,"lon":5.39537,"is_reserved":false,"is_disabled":false,"rental_uris":{"android":"levelo://app?vid=40dcd092-69e3-40ad-a60c-753e45c6b1dc","ios":"levelo://app?vid=40dcd092-69e3-40ad-a60c-753e45c6b1dc"},"vehicle_type_id":"4","last_reported":1748006561,"current_range_meters":6800,"station_id":"ce4bhi12rcd13ifvqfq0","pricing_plan_id":"cebpf4jnsgd1na2vs0mg"},{"bike_id":"e2d52b3d-beb0-4223-9194-743c0b13a66a","system_id":"levelo_inurba_marseille","lat":43.26204,"lon":5.37929,"is_reserved":false,"is_disabled":false,"rental_uris":{"android":"levelo://app?vid=e2d52b3d-beb0-4223-9194-743c0b13a66a","ios":"levelo://app?vid=e2d52b3d-beb0-4223-9194-743c0b13a66a"},"vehicle_type_id":"4","last_reported":1748006561,"current_range_meters":6800,"station_id":"ce4bhjp2rcd13ifvqg90","pricing_plan_id":"cebpf4jnsgd1na2vs0mg"},{"bike_id":"4233230d-c902-40cc-98dd-da48bcb170bd","system_id":"levelo_inurba_marseille","lat":43.27066,"lon":5.402554,"is_reserved":false,"is_disabled":false,"rental_uris":{"android":"levelo://app?vid=4233230d-c902-40cc-98dd-da48bcb170bd","ios":"levelo://app?vid=4233230d-c902-40cc-98dd-da48bcb170bd"},"vehicle_type_id":"4","last_reported":1748006561,"current_range_meters":6800,"station_id":"ce4bhk92rcd13ifvqgc0","pricing_plan_id":"cebpf4jnsgd1na2vs0mg"},{"bike_id":"93a344e6-8243-4070-bf43-270634e364fe","system_id":"levelo_inurba_marseille","lat":43.280018,"lon":5.400088,"is_reserved":false,"is_disabled":false,"rental_uris":{"android":"levelo://app?vid=93a344e6-8243-4070-bf43-270634e364fe","ios":"levelo://app?vid=93a344e6-8243-4070-bf43-270634e364fe"},"vehicle_type_id":"4","last_reported":1748006561,"current_range_meters":6800,"station_id":"ce4bho92rcd13ifvqh4g","pricing_plan_id":"cebpf4jnsgd1na2vs0mg"},{"bike_id":"895fec85-4848-4820-b938-243da6ee2367","system_id":"levelo_inurba_marseille","lat":43.304598,"lon":5.379112,"is_reserved":false,"is_disabled":false,"rental_uris":{"android":"levelo://app?vid=895fec85-4848-4820-b938-243da6ee2367","ios":"levelo://app?vid=895fec85-4848-4820-b938-243da6ee2367"},"vehicle_type_id":"4","last_reported":1748006561,"current_range_meters":6800,"station_id":"ce4bhs12rcd13ifvqhvg","pricing_plan_id":"cebpf4jnsgd1na2vs0mg"},{"bike_id":"5754523d-15a4-4297-b33a-3586b262bed2","system_id":"levelo_inurba_marseille","lat":43.30831,"lon":5.37238,"is_reserved":false,"is_disabled":false,"rental_uris":{"android":"levelo://app?vid=5754523d-15a4-4297-b33a-3586b262bed2","ios":"levelo://app?vid=5754523d-15a4-4297-b33a-3586b262bed2"},"vehicle_type_id":"4","last_reported":1748006561,"current_range_meters":7200,"station_id":"","pricing_plan_id":"cebpf4jnsgd1na2vs0mg"},{"bike_id":"9b40caf6-2e32-440b-8645-98bf8c4de126","system_id":"levelo_inurba_marseille","lat":43.30995,"lon":5.38447,"is_reserved":false,"is_disabled":false,"rental_uris":{"android":"levelo://app?vid=9b40caf6-2e32-440b-8645-98bf8c4de126","ios":"levelo://app?vid=9b40caf6-2e32-440b-8645-98bf8c4de126"},"vehicle_type_id":"4","last_reported":1748006561,"current_range_meters":7200,"station_id":"","pricing_plan_id":"cebpf4jnsgd1na2vs0mg"},{"bike_id":"31110881-d64f-45f8-9810-bbf84a002836","system_id":"levelo_inurba_marseille","lat":43.28343,"lon":5.46136,"is_reserved":false,"is_disabled":false,"rental_uris":{"android":"levelo://app?vid=31110881-d64f-45f8-9810-bbf84a002836","ios":"levelo://app?vid=31110881-d64f-45f8-9810-bbf84a002836"},"vehicle_type_id":"4","last_reported":1748006561,"current_range_meters":7200,"station_id":"","pricing_plan_id":"cebpf4jnsgd1na2vs0mg"},{"bike_id":"eab29bf2-9f3f-4780-ad60-647ee6007e48","system_id":"levelo_inurba_marseille","lat":43.29438,"lon":5.3976,"is_reserved":false,"is_disabled":false,"rental_uris":{"android":"levelo://app?vid=eab29bf2-9f3f-4780-ad60-647ee6007e48","ios":"levelo://app?vid=eab29bf2-9f3f-4780-ad60-647ee6007e48"},"vehicle_type_id":"4","last_reported":1748006561,"current_range_meters":7200,"station_id":"ce4bh3h2rcd13ifvqdo0","pricing_plan_id":"cebpf4jnsgd1na2vs0mg"},{"bike_id":"387ebfb5-8896-4d4b-b221-854066c9b01e","system_id":"levelo_inurba_marseille","lat":43.23151,"lon":5.43724,"is_reserved":false,"is_disabled":false,"rental_uris":{"android":"levelo://app?vid=387ebfb5-8896-4d4b-b221-854066c9b01e","ios":"levelo://app?vid=387ebfb5-8896-4d4b-b221-854066c9b01e"},"vehicle_type_id":"4","last_reported":1748006561,"current_range_meters":7200,"station_id":"ce4bhmp2rcd13ifvqgog","pricing_plan_id":"cebpf4jnsgd1na2vs0mg"},{"bike_id":"0cd6fdc7-5169-4fd1-b2be-08457c013d14","system_id":"levelo_inurba_marseille","lat":43.23198,"lon":5.35542,"is_reserved":false,"is_disabled":false,"rental_uris":{"android":"levelo://app?vid=0cd6fdc7-5169-4fd1-b2be-08457c013d14","ios":"levelo://app?vid=0cd6fdc7-5169-4fd1-b2be-08457c013d14"},"vehicle_type_id":"4","last_reported":1748006561,"current_range_meters":7200,"station_id":"ce4bhu92rcd13ifvqi70","pricing_plan_id":"cebpf4jnsgd1na2vs0mg"},{"bike_id":"950cad50-4e47-43b4-ba8e-d97ac6386634","system_id":"levelo_inurba_marseille","lat":43.255774,"lon":5.382209,"is_reserved":false,"is_disabled":false,"rental_uris":{"android":"levelo://app?vid=950cad50-4e47-43b4-ba8e-d97ac6386634","ios":"levelo://app?vid=950cad50-4e47-43b4-ba8e-d97ac6386634"},"vehicle_type_id":"4","last_reported":1748006561,"current_range_meters":8000,"station_id":"","pricing_plan_id":"cebpf4jnsgd1na2vs0mg"},{"bike_id":"c063baae-3f49-45d3-9a6d-f30d6d8e72bd","system_id":"levelo_inurba_marseille","lat":43.29719,"lon":5.37699,"is_reserved":false,"is_disabled":false,"rental_uris":{"android":"levelo://app?vid=c063baae-3f49-45d3-9a6d-f30d6d8e72bd","ios":"levelo://app?vid=c063baae-3f49-45d3-9a6d-f30d6d8e72bd"},"vehicle_type_id":"4","last_reported":1748006561,"current_range_meters":8000,"station_id":"ce4bgkh2rcd13ifvqbl0","pricing_plan_id":"cebpf4jnsgd1na2vs0mg"},{"bike_id":"6fb0a720-683a-41e2-aa58-b917f19c1264","system_id":"levelo_inurba_marseille","lat":43.313643,"lon":5.36721,"is_reserved":false,"is_disabled":false,"rental_uris":{"android":"levelo://app?vid=6fb0a720-683a-41e2-aa58-b917f19c1264","ios":"levelo://app?vid=6fb0a720-683a-41e2-aa58-b917f19c1264"},"vehicle_type_id":"4","last_reported":1748006561,"current_range_meters":8000,"station_id":"ce4bgr92rcd13ifvqc6g","pricing_plan_id":"cebpf4jnsgd1na2vs0mg"},{"bike_id":"8abf6bc8-2c1f-4995-87a3-981f8d873c16","system_id":"levelo_inurba_marseille","lat":43.28721,"lon":5.37934,"is_reserved":false,"is_disabled":false,"rental_uris":{"android":"levelo://app?vid=8abf6bc8-2c1f-4995-87a3-981f8d873c16","ios":"levelo://app?vid=8abf6bc8-2c1f-4995-87a3-981f8d873c16"},"vehicle_type_id":"4","last_reported":1748006561,"current_range_meters":8000,"station_id":"ce4bh9p2rcd13ifvqec0","pricing_plan_id":"cebpf4jnsgd1na2vs0mg"},{"bike_id":"101875a9-c480-4dc8-b548-20795d2fd257","system_id":"levelo_inurba_marseille","lat":43.25504,"lon":5.37651,"is_reserved":false,"is_disabled":false,"rental_uris":{"android":"levelo://app?vid=101875a9-c480-4dc8-b548-20795d2fd257","ios":"levelo://app?vid=101875a9-c480-4dc8-b548-20795d2fd257"},"vehicle_type_id":"4","last_reported":1748006561,"current_range_meters":8000,"station_id":"ce4bhh12rcd13ifvqff0","pricing_plan_id":"cebpf4jnsgd1na2vs0mg"},{"bike_id":"3ac1833d-4a14-46ce-a6d6-8f20f96988bc","system_id":"levelo_inurba_marseille","lat":43.24181,"lon":5.39731,"is_reserved":false,"is_disabled":false,"rental_uris":{"android":"levelo://app?vid=3ac1833d-4a14-46ce-a6d6-8f20f96988bc","ios":"levelo://app?vid=3ac1833d-4a14-46ce-a6d6-8f20f96988bc"},"vehicle_type_id":"4","last_reported":1748006561,"current_range_meters":8000,"station_id":"ce4bhn12rcd13ifvqgpg","pricing_plan_id":"cebpf4jnsgd1na2vs0mg"},{"bike_id":"46a7552e-327d-4d24-b929-46401c7f70f5","system_id":"levelo_inurba_marseille","lat":43.27815,"lon":5.40709,"is_reserved":false,"is_disabled":false,"rental_uris":{"android":"levelo://app?vid=46a7552e-327d-4d24-b929-46401c7f70f5","ios":"levelo://app?vid=46a7552e-327d-4d24-b929-46401c7f70f5"},"vehicle_type_id":"4","last_reported":1748006561,"current_range_meters":8000,"station_id":"ce4bhnh2rcd13ifvqgtg","pricing_plan_id":"cebpf4jnsgd1na2vs0mg"},{"bike_id":"e8c9c08f-e38f-48c2-9e9b-2383dddb8e6c","system_id":"levelo_inurba_marseille","lat":43.291261,"lon":5.382963,"is_reserved":false,"is_disabled":false,"rental_uris":{"android":"levelo://app?vid=e8c9c08f-e38f-48c2-9e9b-2383dddb8e6c","ios":"levelo://app?vid=e8c9c08f-e38f-48c2-9e9b-2383dddb8e6c"},"vehicle_type_id":"4","last_reported":1748006561,"current_range_meters":8400,"station_id":"","pricing_plan_id":"cebpf4jnsgd1na2vs0mg"},{"bike_id":"7dfdfdc8-9c79-46b6-9a4b-924773b53f29","system_id":"levelo_inurba_marseille","lat":43.268629,"lon":5.391501,"is_reserved":false,"is_disabled":false,"rental_uris":{"android":"levelo://app?vid=7dfdfdc8-9c79-46b6-9a4b-924773b53f29","ios":"levelo://app?vid=7dfdfdc8-9c79-46b6-9a4b-924773b53f29"},"vehicle_type_id":"4","last_reported":1748006561,"current_range_meters":8400,"station_id":"","pricing_plan_id":"cebpf4jnsgd1na2vs0mg"},{"bike_id":"06402d06-37be-4b95-9dfd-836b47269729","system_id":"levelo_inurba_marseille","lat":43.30807,"lon":5.3814,"is_reserved":false,"is_disabled":false,"rental_uris":{"android":"levelo://app?vid=06402d06-37be-4b95-9dfd-836b47269729","ios":"levelo://app?vid=06402d06-37be-4b95-9dfd-836b47269729"},"vehicle_type_id":"4","last_reported":1748006561,"current_range_meters":8400,"station_id":"ce4bgt12rcd13ifvqce0","pricing_plan_id":"cebpf4jnsgd1na2vs0mg"},{"bike_id":"4555d89d-5358-47fa-b448-e177eed617c9","system_id":"levelo_inurba_marseille","lat":43.30431,"lon":5.39737,"is_reserved":false,"is_disabled":false,"rental_uris":{"android":"levelo://app?vid=4555d89d-5358-47fa-b448-e177eed617c9","ios":"levelo://app?vid=4555d89d-5358-47fa-b448-e177eed617c9"},"vehicle_type_id":"4","last_reported":1748006561,"current_range_meters":8400,"station_id":"ce4bh092rcd13ifvqd20","pricing_plan_id":"cebpf4jnsgd1na2vs0mg"},{"bike_id":"8e304a8d-ad5f-463f-94f3-08e0cfa0094b","system_id":"levelo_inurba_marseille","lat":43.29246,"lon":5.38445,"is_reserved":false,"is_disabled":false,"rental_uris":{"android":"levelo://app?vid=8e304a8d-ad5f-463f-94f3-08e0cfa0094b","ios":"levelo://app?vid=8e304a8d-ad5f-463f-94f3-08e0cfa0094b"},"vehicle_type_id":"4","last_reported":1748006561,"current_range_meters":8400,"station_id":"ce4bh692rcd13ifvqea0","pricing_plan_id":"cebpf4jnsgd1na2vs0mg"},{"bike_id":"bd51ef23-9f57-4335-b419-7c87e68320b6","system_id":"levelo_inurba_marseille","lat":43.29199,"lon":5.35805,"is_reserved":false,"is_disabled":false,"rental_uris":{"android":"levelo://app?vid=bd51ef23-9f57-4335-b419-7c87e68320b6","ios":"levelo://app?vid=bd51ef23-9f57-4335-b419-7c87e68320b6"},"vehicle_type_id":"4","last_reported":1748006561,"current_range_meters":8400,"station_id":"ce4bhb12rcd13ifvqel0","pricing_plan_id":"cebpf4jnsgd1na2vs0mg"},{"bike_id":"3141dc53-8e17-4c61-a0f5-996495c4e4dd","system_id":"levelo_inurba_marseille","lat":43.26557,"lon":5.37284,"is_reserved":false,"is_disabled":false,"rental_uris":{"android":"levelo://app?vid=3141dc53-8e17-4c61-a0f5-996495c4e4dd","ios":"levelo://app?vid=3141dc53-8e17-4c61-a0f5-996495c4e4dd"},"vehicle_type_id":"4","last_reported":1748006561,"current_range_meters":8400,"station_id":"ce4bhg12rcd13ifvqf70","pricing_plan_id":"cebpf4jnsgd1na2vs0mg"},{"bike_id":"8a29e2cb-f572-476a-88f1-733e1ccabc83","system_id":"levelo_inurba_marseille","lat":43.30417,"lon":5.41282,"is_reserved":false,"is_disabled":false,"rental_uris":{"android":"levelo://app?vid=8a29e2cb-f572-476a-88f1-733e1ccabc83","ios":"levelo://app?vid=8a29e2cb-f572-476a-88f1-733e1ccabc83"},"vehicle_type_id":"4","last_reported":1748006561,"current_range_meters":8400,"station_id":"ce4bhop2rcd13ifvqh8g","pricing_plan_id":"cebpf4jnsgd1na2vs0mg"},{"bike_id":"e4562ad1-0a39-4300-91ec-1f0dc2c1ff97","system_id":"levelo_inurba_marseille","lat":43.32474,"lon":5.36587,"is_reserved":false,"is_disabled":false,"rental_uris":{"android":"levelo://app?vid=e4562ad1-0a39-4300-91ec-1f0dc2c1ff97","ios":"levelo://app?vid=e4562ad1-0a39-4300-91ec-1f0dc2c1ff97"},"vehicle_type_id":"4","last_reported":1748006561,"current_range_meters":8400,"station_id":"ce4bhs12rcd13ifvqhvg","pricing_plan_id":"cebpf4jnsgd1na2vs0mg"},{"bike_id":"ef4e10c1-a3cb-4a4d-a1c4-e3f822c92b75","system_id":"levelo_inurba_marseille","lat":43.286135,"lon":5.37068,"is_reserved":false,"is_disabled":false,"rental_uris":{"android":"levelo://app?vid=ef4e10c1-a3cb-4a4d-a1c4-e3f822c92b75","ios":"levelo://app?vid=ef4e10c1-a3cb-4a4d-a1c4-e3f822c92b75"},"vehicle_type_id":"4","last_reported":1748006561,"current_range_meters":8800,"station_id":"","pricing_plan_id":"cebpf4jnsgd1na2vs0mg"},{"bike_id":"147a50f2-d0c6-42c4-a276-19fc1a4af15a","system_id":"levelo_inurba_marseille","lat":43.29518,"lon":5.37504,"is_reserved":false,"is_disabled":false,"rental_uris":{"android":"levelo://app?vid=147a50f2-d0c6-42c4-a276-19fc1a4af15a","ios":"levelo://app?vid=147a50f2-d0c6-42c4-a276-19fc1a4af15a"},"vehicle_type_id":"4","last_reported":1748006561,"current_range_meters":8800,"station_id":"ce4bgkp2rcd13ifvqbmg","pricing_plan_id":"cebpf4jnsgd1na2vs0mg"},{"bike_id":"fa2e74d4-45d7-455a-98ee-e1faa05d97e7","system_id":"levelo_inurba_marseille","lat":43.30433,"lon":5.39748,"is_reserved":false,"is_disabled":false,"rental_uris":{"android":"levelo://app?vid=fa2e74d4-45d7-455a-98ee-e1faa05d97e7","ios":"levelo://app?vid=fa2e74d4-45d7-455a-98ee-e1faa05d97e7"},"vehicle_type_id":"4","last_reported":1748006561,"current_range_meters":8800,"station_id":"ce4bh092rcd13ifvqd20","pricing_plan_id":"cebpf4jnsgd1na2vs0mg"},{"bike_id":"e06af197-519c-44b8-abbc-63518305d88c","system_id":"levelo_inurba_marseille","lat":43.24999,"lon":5.38943,"is_reserved":false,"is_disabled":false,"rental_uris":{"android":"levelo://app?vid=e06af197-519c-44b8-abbc-63518305d88c","ios":"levelo://app?vid=e06af197-519c-44b8-abbc-63518305d88c"},"vehicle_type_id":"4","last_reported":1748006561,"current_range_meters":8800,"station_id":"ce4bhgp2rcd13ifvqfd0","pricing_plan_id":"cebpf4jnsgd1na2vs0mg"},{"bike_id":"82af740c-cdbd-4b31-936d-64d9dacc3901","system_id":"levelo_inurba_marseille","lat":43.26957,"lon":5.38633,"is_reserved":false,"is_disabled":false,"rental_uris":{"android":"levelo://app?vid=82af740c-cdbd-4b31-936d-64d9dacc3901","ios":"levelo://app?vid=82af740c-cdbd-4b31-936d-64d9dacc3901"},"vehicle_type_id":"4","last_reported":1748006561,"current_range_meters":8800,"station_id":"ce4bhh92rcd13ifvqfh0","pricing_plan_id":"cebpf4jnsgd1na2vs0mg"},{"bike_id":"c2ea5a9c-8fd7-40ac-8515-427466010d70","system_id":"levelo_inurba_marseille","lat":43.32101,"lon":5.36787,"is_reserved":false,"is_disabled":false,"rental_uris":{"android":"levelo://app?vid=c2ea5a9c-8fd7-40ac-8515-427466010d70","ios":"levelo://app?vid=c2ea5a9c-8fd7-40ac-8515-427466010d70"},"vehicle_type_id":"4","last_reported":1748006561,"current_range_meters":8800,"station_id":"ce4bhrh2rcd13ifvqhug","pricing_plan_id":"cebpf4jnsgd1na2vs0mg"},{"bike_id":"14feda73-7baf-4b64-8ae9-79f4fe7d4a5f","system_id":"levelo_inurba_marseille","lat":43.323724,"lon":5.367613,"is_reserved":false,"is_disabled":false,"rental_uris":{"android":"levelo://app?vid=14feda73-7baf-4b64-8ae9-79f4fe7d4a5f","ios":"levelo://app?vid=14feda73-7baf-4b64-8ae9-79f4fe7d4a5f"},"vehicle_type_id":"4","last_reported":1748006561,"current_range_meters":8800,"station_id":"ce4bhsh2rcd13ifvqi2g","pricing_plan_id":"cebpf4jnsgd1na2vs0mg"},{"bike_id":"afcf65f3-aece-4998-8394-2fff31e9f04f","system_id":"levelo_inurba_marseille","lat":43.295685,"lon":5.375242,"is_reserved":false,"is_disabled":false,"rental_uris":{"android":"levelo://app?vid=afcf65f3-aece-4998-8394-2fff31e9f04f","ios":"levelo://app?vid=afcf65f3-aece-4998-8394-2fff31e9f04f"},"vehicle_type_id":"4","last_reported":1748006561,"current_range_meters":9200,"station_id":"ce4bgh92rcd13ifvqb50","pricing_plan_id":"cebpf4jnsgd1na2vs0mg"},{"bike_id":"4973e21a-9433-4d7d-a26f-799a7db5e900","system_id":"levelo_inurba_marseille","lat":43.31739,"lon":5.40471,"is_reserved":false,"is_disabled":false,"rental_uris":{"android":"levelo://app?vid=4973e21a-9433-4d7d-a26f-799a7db5e900","ios":"levelo://app?vid=4973e21a-9433-4d7d-a26f-799a7db5e900"},"vehicle_type_id":"4","last_reported":1748006561,"current_range_meters":9200,"station_id":"ce4bh012rcd13ifvqd00","pricing_plan_id":"cebpf4jnsgd1na2vs0mg"},{"bike_id":"92210562-5663-435f-a3d9-d2f47c12d8d8","system_id":"levelo_inurba_marseille","lat":43.27999,"lon":5.40003,"is_reserved":false,"is_disabled":false,"rental_uris":{"android":"levelo://app?vid=92210562-5663-435f-a3d9-d2f47c12d8d8","ios":"levelo://app?vid=92210562-5663-435f-a3d9-d2f47c12d8d8"},"vehicle_type_id":"4","last_reported":1748006561,"current_range_meters":9200,"station_id":"ce4bho92rcd13ifvqh4g","pricing_plan_id":"cebpf4jnsgd1na2vs0mg"},{"bike_id":"2d5f7454-a4a6-4e8b-9495-8d6b94c61ba5","system_id":"levelo_inurba_marseille","lat":43.22943,"lon":5.35392,"is_reserved":false,"is_disabled":false,"rental_uris":{"android":"levelo://app?vid=2d5f7454-a4a6-4e8b-9495-8d6b94c61ba5","ios":"levelo://app?vid=2d5f7454-a4a6-4e8b-9495-8d6b94c61ba5"},"vehicle_type_id":"4","last_reported":1748006561,"current_range_meters":9200,"station_id":"cpo3532slgdg3j2ikp40","pricing_plan_id":"cebpf4jnsgd1na2vs0mg"},{"bike_id":"3c8b2665-726d-4254-9d75-0d93f0781589","system_id":"levelo_inurba_marseille","lat":43.31413,"lon":5.36969,"is_reserved":false,"is_disabled":false,"rental_uris":{"android":"levelo://app?vid=3c8b2665-726d-4254-9d75-0d93f0781589","ios":"levelo://app?vid=3c8b2665-726d-4254-9d75-0d93f0781589"},"vehicle_type_id":"4","last_reported":1748006561,"current_range_meters":9600,"station_id":"","pricing_plan_id":"cebpf4jnsgd1na2vs0mg"},{"bike_id":"b7de144a-3bda-4861-9343-021bdd4a4fe6","system_id":"levelo_inurba_marseille","lat":43.28853,"lon":5.39303,"is_reserved":false,"is_disabled":false,"rental_uris":{"android":"levelo://app?vid=b7de144a-3bda-4861-9343-021bdd4a4fe6","ios":"levelo://app?vid=b7de144a-3bda-4861-9343-021bdd4a4fe6"},"vehicle_type_id":"4","last_reported":1748006561,"current_range_meters":9600,"station_id":"ce4bh2p2rcd13ifvqdi0","pricing_plan_id":"cebpf4jnsgd1na2vs0mg"},{"bike_id":"0cdc087c-dcdd-4139-9705-f494f629fcde","system_id":"levelo_inurba_marseille","lat":43.2871,"lon":5.37385,"is_reserved":false,"is_disabled":false,"rental_uris":{"android":"levelo://app?vid=0cdc087c-dcdd-4139-9705-f494f629fcde","ios":"levelo://app?vid=0cdc087c-dcdd-4139-9705-f494f629fcde"},"vehicle_type_id":"4","last_reported":1748006561,"current_range_meters":9600,"station_id":"ce4bh3p2rcd13ifvqdq0","pricing_plan_id":"cebpf4jnsgd1na2vs0mg"},{"bike_id":"68f871da-e582-4e99-8494-85dd86f56f46","system_id":"levelo_inurba_marseille","lat":43.28274,"lon":5.35068,"is_reserved":false,"is_disabled":false,"rental_uris":{"android":"levelo://app?vid=68f871da-e582-4e99-8494-85dd86f56f46","ios":"levelo://app?vid=68f871da-e582-4e99-8494-85dd86f56f46"},"vehicle_type_id":"4","last_reported":1748006561,"current_range_meters":9600,"station_id":"ce4bhbp2rcd13ifvqerg","pricing_plan_id":"cebpf4jnsgd1na2vs0mg"},{"bike_id":"18ca849a-bab9-472d-80e2-f3856fcd9684","system_id":"levelo_inurba_marseille","lat":43.2396,"lon":5.36639,"is_reserved":false,"is_disabled":false,"rental_uris":{"android":"levelo://app?vid=18ca849a-bab9-472d-80e2-f3856fcd9684","ios":"levelo://app?vid=18ca849a-bab9-472d-80e2-f3856fcd9684"},"vehicle_type_id":"4","last_reported":1748006561,"current_range_meters":9600,"station_id":"ce4bhi12rcd13ifvqfp0","pricing_plan_id":"cebpf4jnsgd1na2vs0mg"},{"bike_id":"2ba7c0aa-6117-45a9-9611-8a4404c60bcd","system_id":"levelo_inurba_marseille","lat":43.25862,"lon":5.39908,"is_reserved":false,"is_disabled":false,"rental_uris":{"android":"levelo://app?vid=2ba7c0aa-6117-45a9-9611-8a4404c60bcd","ios":"levelo://app?vid=2ba7c0aa-6117-45a9-9611-8a4404c60bcd"},"vehicle_type_id":"4","last_reported":1748006561,"current_range_meters":9600,"station_id":"ce4bhl92rcd13ifvqghg","pricing_plan_id":"cebpf4jnsgd1na2vs0mg"},{"bike_id":"4b63e35c-d60f-40b7-a046-8ac2772fac2f","system_id":"levelo_inurba_marseille","lat":43.25078,"lon":5.39511,"is_reserved":false,"is_disabled":false,"rental_uris":{"android":"levelo://app?vid=4b63e35c-d60f-40b7-a046-8ac2772fac2f","ios":"levelo://app?vid=4b63e35c-d60f-40b7-a046-8ac2772fac2f"},"vehicle_type_id":"4","last_reported":1748006561,"current_range_meters":9600,"station_id":"ce4bhm12rcd13ifvqgkg","pricing_plan_id":"cebpf4jnsgd1na2vs0mg"},{"bike_id":"6e0ef299-0936-4911-b177-862cab14ae70","system_id":"levelo_inurba_marseille","lat":43.23143,"lon":5.43712,"is_reserved":false,"is_disabled":false,"rental_uris":{"android":"levelo://app?vid=6e0ef299-0936-4911-b177-862cab14ae70","ios":"levelo://app?vid=6e0ef299-0936-4911-b177-862cab14ae70"},"vehicle_type_id":"4","last_reported":1748006561,"current_range_meters":9600,"station_id":"ce4bhmp2rcd13ifvqgog","pricing_plan_id":"cebpf4jnsgd1na2vs0mg"},{"bike_id":"96f41721-3863-430e-9fa4-b2cfe983e031","system_id":"levelo_inurba_marseille","lat":43.29265,"lon":5.37629,"is_reserved":false,"is_disabled":false,"rental_uris":{"android":"levelo://app?vid=96f41721-3863-430e-9fa4-b2cfe983e031","ios":"levelo://app?vid=96f41721-3863-430e-9fa4-b2cfe983e031"},"vehicle_type_id":"4","last_reported":1748006561,"current_range_meters":10000,"station_id":"ce4bgi12rcd13ifvqb80","pricing_plan_id":"cebpf4jnsgd1na2vs0mg"},{"bike_id":"89aacdb7-d151-4db1-b438-3648450e9902","system_id":"levelo_inurba_marseille","lat":43.2981,"lon":5.40407,"is_reserved":false,"is_disabled":false,"rental_uris":{"android":"levelo://app?vid=89aacdb7-d151-4db1-b438-3648450e9902","ios":"levelo://app?vid=89aacdb7-d151-4db1-b438-3648450e9902"},"vehicle_type_id":"4","last_reported":1748006561,"current_range_meters":10000,"station_id":"ce4bh112rcd13ifvqd90","pricing_plan_id":"cebpf4jnsgd1na2vs0mg"},{"bike_id":"ec580c89-b272-4ec2-b56b-415a5ef20e71","system_id":"levelo_inurba_marseille","lat":43.25863,"lon":5.39908,"is_reserved":false,"is_disabled":false,"rental_uris":{"android":"levelo://app?vid=ec580c89-b272-4ec2-b56b-415a5ef20e71","ios":"levelo://app?vid=ec580c89-b272-4ec2-b56b-415a5ef20e71"},"vehicle_type_id":"4","last_reported":1748006561,"current_range_meters":10000,"station_id":"ce4bhl92rcd13ifvqghg","pricing_plan_id":"cebpf4jnsgd1na2vs0mg"},{"bike_id":"e3e19b90-9823-4b53-b8a7-4c599b3176c2","system_id":"levelo_inurba_marseille","lat":43.25101,"lon":5.40336,"is_reserved":false,"is_disabled":false,"rental_uris":{"android":"levelo://app?vid=e3e19b90-9823-4b53-b8a7-4c599b3176c2","ios":"levelo://app?vid=e3e19b90-9823-4b53-b8a7-4c599b3176c2"},"vehicle_type_id":"4","last_reported":1748006561,"current_range_meters":10000,"station_id":"ce4bhlh2rcd13ifvqgig","pricing_plan_id":"cebpf4jnsgd1na2vs0mg"},{"bike_id":"f752cbda-e0c3-41c3-83cb-29eaf6ccd7a5","system_id":"levelo_inurba_marseille","lat":43.21765,"lon":5.34593,"is_reserved":false,"is_disabled":false,"rental_uris":{"android":"levelo://app?vid=f752cbda-e0c3-41c3-83cb-29eaf6ccd7a5","ios":"levelo://app?vid=f752cbda-e0c3-41c3-83cb-29eaf6ccd7a5"},"vehicle_type_id":"4","last_reported":1748006561,"current_range_meters":10000,"station_id":"st_cvj6r9ubvosntc0bgbag","pricing_plan_id":"cebpf4jnsgd1na2vs0mg"},{"bike_id":"3c5fc75b-293f-4c90-b3b8-4e53c66771b9","system_id":"levelo_inurba_marseille","lat":43.30143,"lon":5.37428,"is_reserved":false,"is_disabled":false,"rental_uris":{"android":"levelo://app?vid=3c5fc75b-293f-4c90-b3b8-4e53c66771b9","ios":"levelo://app?vid=3c5fc75b-293f-4c90-b3b8-4e53c66771b9"},"vehicle_type_id":"4","last_reported":1748006561,"current_range_meters":10800,"station_id":"ce4bgs92rcd13ifvqcc0","pricing_plan_id":"cebpf4jnsgd1na2vs0mg"},{"bike_id":"3726d90a-d02d-44da-8a66-433bf161da79","system_id":"levelo_inurba_marseille","lat":43.28985,"lon":5.37834,"is_reserved":false,"is_disabled":false,"rental_uris":{"android":"levelo://app?vid=3726d90a-d02d-44da-8a66-433bf161da79","ios":"levelo://app?vid=3726d90a-d02d-44da-8a66-433bf161da79"},"vehicle_type_id":"4","last_reported":1748006561,"current_range_meters":10800,"station_id":"ce4bh9p2rcd13ifvqed0","pricing_plan_id":"cebpf4jnsgd1na2vs0mg"},{"bike_id":"e3a8707d-dcf4-4be2-a312-b33643ed9e6f","system_id":"levelo_inurba_marseille","lat":43.28617,"lon":5.35098,"is_reserved":false,"is_disabled":false,"rental_uris":{"android":"levelo://app?vid=e3a8707d-dcf4-4be2-a312-b33643ed9e6f","ios":"levelo://app?vid=e3a8707d-dcf4-4be2-a312-b33643ed9e6f"},"vehicle_type_id":"4","last_reported":1748006561,"current_range_meters":10800,"station_id":"ce4bhch2rcd13ifvqeug","pricing_plan_id":"cebpf4jnsgd1na2vs0mg"},{"bike_id":"59089108-c53e-4478-a13d-b8af9f5e8d8d","system_id":"levelo_inurba_marseille","lat":43.26067,"lon":5.39395,"is_reserved":false,"is_disabled":false,"rental_uris":{"android":"levelo://app?vid=59089108-c53e-4478-a13d-b8af9f5e8d8d","ios":"levelo://app?vid=59089108-c53e-4478-a13d-b8af9f5e8d8d"},"vehicle_type_id":"4","last_reported":1748006561,"current_range_meters":10800,"station_id":"ce4bhh92rcd13ifvqfj0","pricing_plan_id":"cebpf4jnsgd1na2vs0mg"},{"bike_id":"0306dfa0-d2d9-42b2-81a9-0f3e0a862254","system_id":"levelo_inurba_marseille","lat":43.23966,"lon":5.36629,"is_reserved":false,"is_disabled":false,"rental_uris":{"android":"levelo://app?vid=0306dfa0-d2d9-42b2-81a9-0f3e0a862254","ios":"levelo://app?vid=0306dfa0-d2d9-42b2-81a9-0f3e0a862254"},"vehicle_type_id":"4","last_reported":1748006561,"current_range_meters":10800,"station_id":"ce4bhi12rcd13ifvqfp0","pricing_plan_id":"cebpf4jnsgd1na2vs0mg"},{"bike_id":"e77a2d61-acd6-4b45-bd86-765cfeae168a","system_id":"levelo_inurba_marseille","lat":43.23178,"lon":5.39991,"is_reserved":false,"is_disabled":false,"rental_uris":{"android":"levelo://app?vid=e77a2d61-acd6-4b45-bd86-765cfeae168a","ios":"levelo://app?vid=e77a2d61-acd6-4b45-bd86-765cfeae168a"},"vehicle_type_id":"4","last_reported":1748006561,"current_range_meters":10800,"station_id":"ce4bhn12rcd13ifvqgqg","pricing_plan_id":"cebpf4jnsgd1na2vs0mg"},{"bike_id":"a5679708-ba27-4b9b-9bff-089837735ece","system_id":"levelo_inurba_marseille","lat":43.28448,"lon":5.39204,"is_reserved":false,"is_disabled":false,"rental_uris":{"android":"levelo://app?vid=a5679708-ba27-4b9b-9bff-089837735ece","ios":"levelo://app?vid=a5679708-ba27-4b9b-9bff-089837735ece"},"vehicle_type_id":"4","last_reported":1748006561,"current_range_meters":10800,"station_id":"ce4bhoh2rcd13ifvqh5g","pricing_plan_id":"cebpf4jnsgd1na2vs0mg"},{"bike_id":"1f8f2cf8-e258-4b66-9b66-66da44b9c55c","system_id":"levelo_inurba_marseille","lat":43.30989,"lon":5.40222,"is_reserved":false,"is_disabled":false,"rental_uris":{"android":"levelo://app?vid=1f8f2cf8-e258-4b66-9b66-66da44b9c55c","ios":"levelo://app?vid=1f8f2cf8-e258-4b66-9b66-66da44b9c55c"},"vehicle_type_id":"4","last_reported":1748006561,"current_range_meters":11200,"station_id":"","pricing_plan_id":"cebpf4jnsgd1na2vs0mg"},{"bike_id":"aae9a113-2b8b-4074-82f9-231329ed0623","system_id":"levelo_inurba_marseille","lat":43.30598,"lon":5.37215,"is_reserved":false,"is_disabled":false,"rental_uris":{"android":"levelo://app?vid=aae9a113-2b8b-4074-82f9-231329ed0623","ios":"levelo://app?vid=aae9a113-2b8b-4074-82f9-231329ed0623"},"vehicle_type_id":"4","last_reported":1748006561,"current_range_meters":11200,"station_id":"ce4bgqh2rcd13ifvqc4g","pricing_plan_id":"cebpf4jnsgd1na2vs0mg"},{"bike_id":"c0c8e9a6-df71-464f-9d34-3829dd2a61a7","system_id":"levelo_inurba_marseille","lat":43.30537,"lon":5.3654,"is_reserved":false,"is_disabled":false,"rental_uris":{"android":"levelo://app?vid=c0c8e9a6-df71-464f-9d34-3829dd2a61a7","ios":"levelo://app?vid=c0c8e9a6-df71-464f-9d34-3829dd2a61a7"},"vehicle_type_id":"4","last_reported":1748006561,"current_range_meters":11200,"station_id":"ce4bgs12rcd13ifvqcag","pricing_plan_id":"cebpf4jnsgd1na2vs0mg"},{"bike_id":"7a174cf0-49bb-442b-9787-ed977ba34ca4","system_id":"levelo_inurba_marseille","lat":43.241665,"lon":5.397362,"is_reserved":false,"is_disabled":false,"rental_uris":{"android":"levelo://app?vid=7a174cf0-49bb-442b-9787-ed977ba34ca4","ios":"levelo://app?vid=7a174cf0-49bb-442b-9787-ed977ba34ca4"},"vehicle_type_id":"4","last_reported":1748006561,"current_range_meters":11200,"station_id":"ce4bhn12rcd13ifvqgpg","pricing_plan_id":"cebpf4jnsgd1na2vs0mg"},{"bike_id":"ba942f8d-06c1-444d-83f1-4495fff904c7","system_id":"levelo_inurba_marseille","lat":43.28078,"lon":5.3966,"is_reserved":false,"is_disabled":false,"rental_uris":{"android":"levelo://app?vid=ba942f8d-06c1-444d-83f1-4495fff904c7","ios":"levelo://app?vid=ba942f8d-06c1-444d-83f1-4495fff904c7"},"vehicle_type_id":"4","last_reported":1748006561,"current_range_meters":11200,"station_id":"ce4bho12rcd13ifvqh2g","pricing_plan_id":"cebpf4jnsgd1na2vs0mg"},{"bike_id":"9fe4cd37-6d45-440e-972e-e6659798805a","system_id":"levelo_inurba_marseille","lat":43.286531,"lon":5.390861,"is_reserved":false,"is_disabled":false,"rental_uris":{"android":"levelo://app?vid=9fe4cd37-6d45-440e-972e-e6659798805a","ios":"levelo://app?vid=9fe4cd37-6d45-440e-972e-e6659798805a"},"vehicle_type_id":"4","last_reported":1748006561,"current_range_meters":11200,"station_id":"ce4bhoh2rcd13ifvqh5g","pricing_plan_id":"cebpf4jnsgd1na2vs0mg"},{"bike_id":"ea973530-9f2e-4a52-95b0-e9f326a8d1a3","system_id":"levelo_inurba_marseille","lat":43.26781,"lon":5.39421,"is_reserved":false,"is_disabled":false,"rental_uris":{"android":"levelo://app?vid=ea973530-9f2e-4a52-95b0-e9f326a8d1a3","ios":"levelo://app?vid=ea973530-9f2e-4a52-95b0-e9f326a8d1a3"},"vehicle_type_id":"4","last_reported":1748006561,"current_range_meters":11600,"station_id":"ce4bhh12rcd13ifvqfg0","pricing_plan_id":"cebpf4jnsgd1na2vs0mg"},{"bike_id":"febd3845-ce06-4fa5-b257-0369c4ccdc89","system_id":"levelo_inurba_marseille","lat":43.255788,"lon":5.382277,"is_reserved":false,"is_disabled":false,"rental_uris":{"android":"levelo://app?vid=febd3845-ce06-4fa5-b257-0369c4ccdc89","ios":"levelo://app?vid=febd3845-ce06-4fa5-b257-0369c4ccdc89"},"vehicle_type_id":"4","last_reported":1748006561,"current_range_meters":11600,"station_id":"ce4bhih2rcd13ifvqfs0","pricing_plan_id":"cebpf4jnsgd1na2vs0mg"},{"bike_id":"6dde22b3-be2c-4353-838d-05c85608e4d3","system_id":"levelo_inurba_marseille","lat":43.323626,"lon":5.367543,"is_reserved":false,"is_disabled":false,"rental_uris":{"android":"levelo://app?vid=6dde22b3-be2c-4353-838d-05c85608e4d3","ios":"levelo://app?vid=6dde22b3-be2c-4353-838d-05c85608e4d3"},"vehicle_type_id":"4","last_reported":1748006561,"current_range_meters":11600,"station_id":"ce4bhsh2rcd13ifvqi2g","pricing_plan_id":"cebpf4jnsgd1na2vs0mg"},{"bike_id":"fff558df-e75d-48e8-b7dc-b4e866eac896","system_id":"levelo_inurba_marseille","lat":43.29792,"lon":5.39337,"is_reserved":false,"is_disabled":false,"rental_uris":{"android":"levelo://app?vid=fff558df-e75d-48e8-b7dc-b4e866eac896","ios":"levelo://app?vid=fff558df-e75d-48e8-b7dc-b4e866eac896"},"vehicle_type_id":"4","last_reported":1748006561,"current_range_meters":11600,"station_id":"chh1huq6cuj3fo74tm60","pricing_plan_id":"cebpf4jnsgd1na2vs0mg"},{"bike_id":"12e50a63-fd0b-49ae-b18f-ec958ee24058","system_id":"levelo_inurba_marseille","lat":43.25188,"lon":5.404,"is_reserved":false,"is_disabled":false,"rental_uris":{"android":"levelo://app?vid=12e50a63-fd0b-49ae-b18f-ec958ee24058","ios":"levelo://app?vid=12e50a63-fd0b-49ae-b18f-ec958ee24058"},"vehicle_type_id":"4","last_reported":1748006561,"current_range_meters":12000,"station_id":"","pricing_plan_id":"cebpf4jnsgd1na2vs0mg"},{"bike_id":"ca6e9c93-0d92-4299-a33a-b6224bc297cc","system_id":"levelo_inurba_marseille","lat":43.295567,"lon":5.365623,"is_reserved":false,"is_disabled":false,"rental_uris":{"android":"levelo://app?vid=ca6e9c93-0d92-4299-a33a-b6224bc297cc","ios":"levelo://app?vid=ca6e9c93-0d92-4299-a33a-b6224bc297cc"},"vehicle_type_id":"4","last_reported":1748006561,"current_range_meters":12000,"station_id":"","pricing_plan_id":"cebpf4jnsgd1na2vs0mg"},{"bike_id":"ea605a65-3097-4a7c-849c-042fa2987fe5","system_id":"levelo_inurba_marseille","lat":43.27622,"lon":5.36101,"is_reserved":false,"is_disabled":false,"rental_uris":{"android":"levelo://app?vid=ea605a65-3097-4a7c-849c-042fa2987fe5","ios":"levelo://app?vid=ea605a65-3097-4a7c-849c-042fa2987fe5"},"vehicle_type_id":"4","last_reported":1748006561,"current_range_meters":12000,"station_id":"ce4bgj92rcd13ifvqbe0","pricing_plan_id":"cebpf4jnsgd1na2vs0mg"},{"bike_id":"ee36a0f1-19ec-4889-bbd5-8afa88004f05","system_id":"levelo_inurba_marseille","lat":43.27372,"lon":5.36261,"is_reserved":false,"is_disabled":false,"rental_uris":{"android":"levelo://app?vid=ee36a0f1-19ec-4889-bbd5-8afa88004f05","ios":"levelo://app?vid=ee36a0f1-19ec-4889-bbd5-8afa88004f05"},"vehicle_type_id":"4","last_reported":1748006561,"current_range_meters":12000,"station_id":"ce4bhbh2rcd13ifvqeo0","pricing_plan_id":"cebpf4jnsgd1na2vs0mg"},{"bike_id":"5cbdcc73-0083-4d49-a685-a8fcffc67b4a","system_id":"levelo_inurba_marseille","lat":43.2695,"lon":5.38904,"is_reserved":false,"is_disabled":false,"rental_uris":{"android":"levelo://app?vid=5cbdcc73-0083-4d49-a685-a8fcffc67b4a","ios":"levelo://app?vid=5cbdcc73-0083-4d49-a685-a8fcffc67b4a"},"vehicle_type_id":"4","last_reported":1748006561,"current_range_meters":12000,"station_id":"ce4bhhh2rcd13ifvqfl0","pricing_plan_id":"cebpf4jnsgd1na2vs0mg"},{"bike_id":"417c3be0-e998-46f7-a251-1b136ecd2751","system_id":"levelo_inurba_marseille","lat":43.25124,"lon":5.40316,"is_reserved":false,"is_disabled":false,"rental_uris":{"android":"levelo://app?vid=417c3be0-e998-46f7-a251-1b136ecd2751","ios":"levelo://app?vid=417c3be0-e998-46f7-a251-1b136ecd2751"},"vehicle_type_id":"4","last_reported":1748006561,"current_range_meters":12000,"station_id":"ce4bhlh2rcd13ifvqgig","pricing_plan_id":"cebpf4jnsgd1na2vs0mg"},{"bike_id":"e37819ed-ebfb-4841-b970-f10ff6d4891f","system_id":"levelo_inurba_marseille","lat":43.32107,"lon":5.36773,"is_reserved":false,"is_disabled":false,"rental_uris":{"android":"levelo://app?vid=e37819ed-ebfb-4841-b970-f10ff6d4891f","ios":"levelo://app?vid=e37819ed-ebfb-4841-b970-f10ff6d4891f"},"vehicle_type_id":"4","last_reported":1748006561,"current_range_meters":12000,"station_id":"ce4bhrh2rcd13ifvqhug","pricing_plan_id":"cebpf4jnsgd1na2vs0mg"},{"bike_id":"b959a865-fc01-4964-9b1d-7e25b047370d","system_id":"levelo_inurba_marseille","lat":43.23195,"lon":5.35546,"is_reserved":false,"is_disabled":false,"rental_uris":{"android":"levelo://app?vid=b959a865-fc01-4964-9b1d-7e25b047370d","ios":"levelo://app?vid=b959a865-fc01-4964-9b1d-7e25b047370d"},"vehicle_type_id":"4","last_reported":1748006561,"current_range_meters":12000,"station_id":"ce4bhu92rcd13ifvqi70","pricing_plan_id":"cebpf4jnsgd1na2vs0mg"},{"bike_id":"1e164eaf-2ffb-4814-9442-b43f6b5c9f80","system_id":"levelo_inurba_marseille","lat":43.2415,"lon":5.36424,"is_reserved":false,"is_disabled":false,"rental_uris":{"android":"levelo://app?vid=1e164eaf-2ffb-4814-9442-b43f6b5c9f80","ios":"levelo://app?vid=1e164eaf-2ffb-4814-9442-b43f6b5c9f80"},"vehicle_type_id":"4","last_reported":1748006561,"current_range_meters":12000,"station_id":"cpo36qri1sfpv3e86is0","pricing_plan_id":"cebpf4jnsgd1na2vs0mg"},{"bike_id":"670eb2ec-477a-4b2d-a309-d90e8964fea5","system_id":"levelo_inurba_marseille","lat":43.282817,"lon":5.350564,"is_reserved":false,"is_disabled":false,"rental_uris":{"android":"levelo://app?vid=670eb2ec-477a-4b2d-a309-d90e8964fea5","ios":"levelo://app?vid=670eb2ec-477a-4b2d-a309-d90e8964fea5"},"vehicle_type_id":"4","last_reported":1748006561,"current_range_meters":12400,"station_id":"","pricing_plan_id":"cebpf4jnsgd1na2vs0mg"},{"bike_id":"868cbb19-a526-4d52-82d0-ae920123d8a9","system_id":"levelo_inurba_marseille","lat":43.28458,"lon":5.35003,"is_reserved":false,"is_disabled":false,"rental_uris":{"android":"levelo://app?vid=868cbb19-a526-4d52-82d0-ae920123d8a9","ios":"levelo://app?vid=868cbb19-a526-4d52-82d0-ae920123d8a9"},"vehicle_type_id":"4","last_reported":1748006561,"current_range_meters":12400,"station_id":"ce4bhbh2rcd13ifvqepg","pricing_plan_id":"cebpf4jnsgd1na2vs0mg"},{"bike_id":"6ccd95da-1cc6-4157-bce9-bf8faefeead4","system_id":"levelo_inurba_marseille","lat":43.28432,"lon":5.35002,"is_reserved":false,"is_disabled":false,"rental_uris":{"android":"levelo://app?vid=6ccd95da-1cc6-4157-bce9-bf8faefeead4","ios":"levelo://app?vid=6ccd95da-1cc6-4157-bce9-bf8faefeead4"},"vehicle_type_id":"4","last_reported":1748006561,"current_range_meters":12400,"station_id":"ce4bhbh2rcd13ifvqepg","pricing_plan_id":"cebpf4jnsgd1na2vs0mg"},{"bike_id":"4f7e7691-2525-44ff-a293-086b1a75f283","system_id":"levelo_inurba_marseille","lat":43.26197,"lon":5.37448,"is_reserved":false,"is_disabled":false,"rental_uris":{"android":"levelo://app?vid=4f7e7691-2525-44ff-a293-086b1a75f283","ios":"levelo://app?vid=4f7e7691-2525-44ff-a293-086b1a75f283"},"vehicle_type_id":"4","last_reported":1748006561,"current_range_meters":12400,"station_id":"ce4bhgp2rcd13ifvqfc0","pricing_plan_id":"cebpf4jnsgd1na2vs0mg"},{"bike_id":"10078c27-0194-4729-94d6-6e244c47bc94","system_id":"levelo_inurba_marseille","lat":43.27316,"lon":5.39092,"is_reserved":false,"is_disabled":false,"rental_uris":{"android":"levelo://app?vid=10078c27-0194-4729-94d6-6e244c47bc94","ios":"levelo://app?vid=10078c27-0194-4729-94d6-6e244c47bc94"},"vehicle_type_id":"4","last_reported":1748006561,"current_range_meters":12400,"station_id":"ce4bhgp2rcd13ifvqfe0","pricing_plan_id":"cebpf4jnsgd1na2vs0mg"},{"bike_id":"fa529a29-8d21-4f13-9783-e1708a99c344","system_id":"levelo_inurba_marseille","lat":43.246516,"lon":5.388955,"is_reserved":false,"is_disabled":false,"rental_uris":{"android":"levelo://app?vid=fa529a29-8d21-4f13-9783-e1708a99c344","ios":"levelo://app?vid=fa529a29-8d21-4f13-9783-e1708a99c344"},"vehicle_type_id":"4","last_reported":1748006561,"current_range_meters":12400,"station_id":"ce4bhlh2rcd13ifvqgig","pricing_plan_id":"cebpf4jnsgd1na2vs0mg"},{"bike_id":"8f5ad702-5ff8-41ee-b034-3d5a2428c0c5","system_id":"levelo_inurba_marseille","lat":43.251146,"lon":5.40329,"is_reserved":false,"is_disabled":false,"rental_uris":{"android":"levelo://app?vid=8f5ad702-5ff8-41ee-b034-3d5a2428c0c5","ios":"levelo://app?vid=8f5ad702-5ff8-41ee-b034-3d5a2428c0c5"},"vehicle_type_id":"4","last_reported":1748006561,"current_range_meters":12400,"station_id":"ce4bhlh2rcd13ifvqgig","pricing_plan_id":"cebpf4jnsgd1na2vs0mg"},{"bike_id":"2ea50577-1176-467c-8d1f-ce07d6571fb8","system_id":"levelo_inurba_marseille","lat":43.23194,"lon":5.35572,"is_reserved":false,"is_disabled":false,"rental_uris":{"android":"levelo://app?vid=2ea50577-1176-467c-8d1f-ce07d6571fb8","ios":"levelo://app?vid=2ea50577-1176-467c-8d1f-ce07d6571fb8"},"vehicle_type_id":"4","last_reported":1748006561,"current_range_meters":12400,"station_id":"ce4bhu92rcd13ifvqi70","pricing_plan_id":"cebpf4jnsgd1na2vs0mg"},{"bike_id":"9ffce623-64a0-4190-8f01-af8e1cc5846e","system_id":"levelo_inurba_marseille","lat":43.30588,"lon":5.3652,"is_reserved":false,"is_disabled":false,"rental_uris":{"android":"levelo://app?vid=9ffce623-64a0-4190-8f01-af8e1cc5846e","ios":"levelo://app?vid=9ffce623-64a0-4190-8f01-af8e1cc5846e"},"vehicle_type_id":"4","last_reported":1748006561,"current_range_meters":12800,"station_id":"ce4bgs12rcd13ifvqcag","pricing_plan_id":"cebpf4jnsgd1na2vs0mg"},{"bike_id":"16ede704-9c1e-49fc-a7c7-ec608a31117d","system_id":"levelo_inurba_marseille","lat":43.29794,"lon":5.40407,"is_reserved":false,"is_disabled":false,"rental_uris":{"android":"levelo://app?vid=16ede704-9c1e-49fc-a7c7-ec608a31117d","ios":"levelo://app?vid=16ede704-9c1e-49fc-a7c7-ec608a31117d"},"vehicle_type_id":"4","last_reported":1748006561,"current_range_meters":12800,"station_id":"ce4bh112rcd13ifvqd90","pricing_plan_id":"cebpf4jnsgd1na2vs0mg"},{"bike_id":"51d7e9e2-d9b2-4a0d-9003-5e749118f3bc","system_id":"levelo_inurba_marseille","lat":43.231408,"lon":5.437197,"is_reserved":false,"is_disabled":false,"rental_uris":{"android":"levelo://app?vid=51d7e9e2-d9b2-4a0d-9003-5e749118f3bc","ios":"levelo://app?vid=51d7e9e2-d9b2-4a0d-9003-5e749118f3bc"},"vehicle_type_id":"4","last_reported":1748006561,"current_range_meters":12800,"station_id":"ce4bhmp2rcd13ifvqgog","pricing_plan_id":"cebpf4jnsgd1na2vs0mg"},{"bike_id":"f318102d-f1a8-49fc-a809-0dce05850acb","system_id":"levelo_inurba_marseille","lat":43.30421,"lon":5.4128,"is_reserved":false,"is_disabled":false,"rental_uris":{"android":"levelo://app?vid=f318102d-f1a8-49fc-a809-0dce05850acb","ios":"levelo://app?vid=f318102d-f1a8-49fc-a809-0dce05850acb"},"vehicle_type_id":"4","last_reported":1748006561,"current_range_meters":12800,"station_id":"ce4bhop2rcd13ifvqh8g","pricing_plan_id":"cebpf4jnsgd1na2vs0mg"},{"bike_id":"bc4da63c-27a5-4b82-a540-bf2dba2cc343","system_id":"levelo_inurba_marseille","lat":43.33723,"lon":5.39191,"is_reserved":false,"is_disabled":false,"rental_uris":{"android":"levelo://app?vid=bc4da63c-27a5-4b82-a540-bf2dba2cc343","ios":"levelo://app?vid=bc4da63c-27a5-4b82-a540-bf2dba2cc343"},"vehicle_type_id":"4","last_reported":1748006561,"current_range_meters":13600,"station_id":"ce4bhr92rcd13ifvqhsg","pricing_plan_id":"cebpf4jnsgd1na2vs0mg"},{"bike_id":"f84e7850-4e38-4a2f-8058-4b5888bcc49b","system_id":"levelo_inurba_marseille","lat":43.32085,"lon":5.36814,"is_reserved":false,"is_disabled":false,"rental_uris":{"android":"levelo://app?vid=f84e7850-4e38-4a2f-8058-4b5888bcc49b","ios":"levelo://app?vid=f84e7850-4e38-4a2f-8058-4b5888bcc49b"},"vehicle_type_id":"4","last_reported":1748006561,"current_range_meters":13600,"station_id":"ce4bhrh2rcd13ifvqhug","pricing_plan_id":"cebpf4jnsgd1na2vs0mg"},{"bike_id":"a8e47536-7885-432b-b4e5-d1829ade9144","system_id":"levelo_inurba_marseille","lat":43.25586,"lon":5.38228,"is_reserved":false,"is_disabled":false,"rental_uris":{"android":"levelo://app?vid=a8e47536-7885-432b-b4e5-d1829ade9144","ios":"levelo://app?vid=a8e47536-7885-432b-b4e5-d1829ade9144"},"vehicle_type_id":"4","last_reported":1748006561,"current_range_meters":14000,"station_id":"ce4bhih2rcd13ifvqfs0","pricing_plan_id":"cebpf4jnsgd1na2vs0mg"},{"bike_id":"a34d3b32-51fa-4913-a288-115505672fb0","system_id":"levelo_inurba_marseille","lat":43.23181,"lon":5.39984,"is_reserved":false,"is_disabled":false,"rental_uris":{"android":"levelo://app?vid=a34d3b32-51fa-4913-a288-115505672fb0","ios":"levelo://app?vid=a34d3b32-51fa-4913-a288-115505672fb0"},"vehicle_type_id":"4","last_reported":1748006561,"current_range_meters":14000,"station_id":"ce4bhn12rcd13ifvqgqg","pricing_plan_id":"cebpf4jnsgd1na2vs0mg"},{"bike_id":"3b7b286b-7350-4614-b1a8-a3186195b8ec","system_id":"levelo_inurba_marseille","lat":43.29559,"lon":5.42306,"is_reserved":false,"is_disabled":false,"rental_uris":{"android":"levelo://app?vid=3b7b286b-7350-4614-b1a8-a3186195b8ec","ios":"levelo://app?vid=3b7b286b-7350-4614-b1a8-a3186195b8ec"},"vehicle_type_id":"4","last_reported":1748006561,"current_range_meters":14000,"station_id":"ce4bhph2rcd13ifvqhdg","pricing_plan_id":"cebpf4jnsgd1na2vs0mg"},{"bike_id":"ca334ea8-c8d1-423f-ad5f-90c15f6b14fc","system_id":"levelo_inurba_marseille","lat":43.24172,"lon":5.36397,"is_reserved":false,"is_disabled":false,"rental_uris":{"android":"levelo://app?vid=ca334ea8-c8d1-423f-ad5f-90c15f6b14fc","ios":"levelo://app?vid=ca334ea8-c8d1-423f-ad5f-90c15f6b14fc"},"vehicle_type_id":"4","last_reported":1748006561,"current_range_meters":14000,"station_id":"cpo36qri1sfpv3e86is0","pricing_plan_id":"cebpf4jnsgd1na2vs0mg"},{"bike_id":"e85710d8-0451-4310-9d43-3629429d8bc9","system_id":"levelo_inurba_marseille","lat":43.309048,"lon":5.36851,"is_reserved":false,"is_disabled":false,"rental_uris":{"android":"levelo://app?vid=e85710d8-0451-4310-9d43-3629429d8bc9","ios":"levelo://app?vid=e85710d8-0451-4310-9d43-3629429d8bc9"},"vehicle_type_id":"4","last_reported":1748006561,"current_range_meters":14400,"station_id":"ce4bgn92rcd13ifvqbvg","pricing_plan_id":"cebpf4jnsgd1na2vs0mg"},{"bike_id":"0a5ddbf8-983f-4843-9a58-6282e8daaf33","system_id":"levelo_inurba_marseille","lat":43.29049,"lon":5.39964,"is_reserved":false,"is_disabled":false,"rental_uris":{"android":"levelo://app?vid=0a5ddbf8-983f-4843-9a58-6282e8daaf33","ios":"levelo://app?vid=0a5ddbf8-983f-4843-9a58-6282e8daaf33"},"vehicle_type_id":"4","last_reported":1748006561,"current_range_meters":14400,"station_id":"ce4bh392rcd13ifvqdm0","pricing_plan_id":"cebpf4jnsgd1na2vs0mg"},{"bike_id":"a57eebf2-e2ad-49b0-91ce-6d23232fff60","system_id":"levelo_inurba_marseille","lat":43.28701,"lon":5.37383,"is_reserved":false,"is_disabled":false,"rental_uris":{"android":"levelo://app?vid=a57eebf2-e2ad-49b0-91ce-6d23232fff60","ios":"levelo://app?vid=a57eebf2-e2ad-49b0-91ce-6d23232fff60"},"vehicle_type_id":"4","last_reported":1748006561,"current_range_meters":14400,"station_id":"ce4bh3p2rcd13ifvqdq0","pricing_plan_id":"cebpf4jnsgd1na2vs0mg"},{"bike_id":"c63fee15-44a5-43b0-a15b-2eec299ee515","system_id":"levelo_inurba_marseille","lat":43.28265,"lon":5.35067,"is_reserved":false,"is_disabled":false,"rental_uris":{"android":"levelo://app?vid=c63fee15-44a5-43b0-a15b-2eec299ee515","ios":"levelo://app?vid=c63fee15-44a5-43b0-a15b-2eec299ee515"},"vehicle_type_id":"4","last_reported":1748006561,"current_range_meters":14400,"station_id":"ce4bhbp2rcd13ifvqerg","pricing_plan_id":"cebpf4jnsgd1na2vs0mg"},{"bike_id":"63082146-035b-4533-9391-3e8d8ece60f3","system_id":"levelo_inurba_marseille","lat":43.30912,"lon":5.36858,"is_reserved":false,"is_disabled":false,"rental_uris":{"android":"levelo://app?vid=63082146-035b-4533-9391-3e8d8ece60f3","ios":"levelo://app?vid=63082146-035b-4533-9391-3e8d8ece60f3"},"vehicle_type_id":"4","last_reported":1748006561,"current_range_meters":14800,"station_id":"ce4bgn92rcd13ifvqbvg","pricing_plan_id":"cebpf4jnsgd1na2vs0mg"},{"bike_id":"da6af199-7307-4f16-b770-10e4df55a8e3","system_id":"levelo_inurba_marseille","lat":43.3043,"lon":5.39754,"is_reserved":false,"is_disabled":false,"rental_uris":{"android":"levelo://app?vid=da6af199-7307-4f16-b770-10e4df55a8e3","ios":"levelo://app?vid=da6af199-7307-4f16-b770-10e4df55a8e3"},"vehicle_type_id":"4","last_reported":1748006561,"current_range_meters":14800,"station_id":"ce4bh092rcd13ifvqd20","pricing_plan_id":"cebpf4jnsgd1na2vs0mg"},{"bike_id":"4804c064-380f-499f-ace9-8520c83141f0","system_id":"levelo_inurba_marseille","lat":43.304079,"lon":5.423213,"is_reserved":false,"is_disabled":false,"rental_uris":{"android":"levelo://app?vid=4804c064-380f-499f-ace9-8520c83141f0","ios":"levelo://app?vid=4804c064-380f-499f-ace9-8520c83141f0"},"vehicle_type_id":"4","last_reported":1748006561,"current_range_meters":14800,"station_id":"ce4bh0h2rcd13ifvqd40","pricing_plan_id":"cebpf4jnsgd1na2vs0mg"},{"bike_id":"4a05223f-f745-40a2-8d0c-547bee8031f1","system_id":"levelo_inurba_marseille","lat":43.28417,"lon":5.37515,"is_reserved":false,"is_disabled":false,"rental_uris":{"android":"levelo://app?vid=4a05223f-f745-40a2-8d0c-547bee8031f1","ios":"levelo://app?vid=4a05223f-f745-40a2-8d0c-547bee8031f1"},"vehicle_type_id":"4","last_reported":1748006561,"current_range_meters":14800,"station_id":"ce4bh412rcd13ifvqds0","pricing_plan_id":"cebpf4jnsgd1na2vs0mg"},{"bike_id":"f76f0a7c-ac36-4946-96eb-7bea467573a1","system_id":"levelo_inurba_marseille","lat":43.28855,"lon":5.35857,"is_reserved":false,"is_disabled":false,"rental_uris":{"android":"levelo://app?vid=f76f0a7c-ac36-4946-96eb-7bea467573a1","ios":"levelo://app?vid=f76f0a7c-ac36-4946-96eb-7bea467573a1"},"vehicle_type_id":"4","last_reported":1748006561,"current_range_meters":14800,"station_id":"ce4bhb12rcd13ifvqem0","pricing_plan_id":"cebpf4jnsgd1na2vs0mg"},{"bike_id":"f9b8de3e-f216-4a97-a31c-9c85d23db479","system_id":"levelo_inurba_marseille","lat":43.286453,"lon":5.351407,"is_reserved":false,"is_disabled":false,"rental_uris":{"android":"levelo://app?vid=f9b8de3e-f216-4a97-a31c-9c85d23db479","ios":"levelo://app?vid=f9b8de3e-f216-4a97-a31c-9c85d23db479"},"vehicle_type_id":"4","last_reported":1748006561,"current_range_meters":14800,"station_id":"ce4bhch2rcd13ifvqeug","pricing_plan_id":"cebpf4jnsgd1na2vs0mg"},{"bike_id":"1a7b409e-f787-4792-ae89-7ef41984e471","system_id":"levelo_inurba_marseille","lat":43.250026,"lon":5.389255,"is_reserved":false,"is_disabled":false,"rental_uris":{"android":"levelo://app?vid=1a7b409e-f787-4792-ae89-7ef41984e471","ios":"levelo://app?vid=1a7b409e-f787-4792-ae89-7ef41984e471"},"vehicle_type_id":"4","last_reported":1748006561,"current_range_meters":14800,"station_id":"ce4bhgp2rcd13ifvqfd0","pricing_plan_id":"cebpf4jnsgd1na2vs0mg"},{"bike_id":"fbd2dd5d-16c2-4eaf-81aa-7daa025675b6","system_id":"levelo_inurba_marseille","lat":43.26783,"lon":5.39437,"is_reserved":false,"is_disabled":false,"rental_uris":{"android":"levelo://app?vid=fbd2dd5d-16c2-4eaf-81aa-7daa025675b6","ios":"levelo://app?vid=fbd2dd5d-16c2-4eaf-81aa-7daa025675b6"},"vehicle_type_id":"4","last_reported":1748006561,"current_range_meters":14800,"station_id":"ce4bhh12rcd13ifvqfg0","pricing_plan_id":"cebpf4jnsgd1na2vs0mg"},{"bike_id":"54635c45-83d3-4db4-bf65-d3c5f6360af8","system_id":"levelo_inurba_marseille","lat":43.23151,"lon":5.43711,"is_reserved":false,"is_disabled":false,"rental_uris":{"android":"levelo://app?vid=54635c45-83d3-4db4-bf65-d3c5f6360af8","ios":"levelo://app?vid=54635c45-83d3-4db4-bf65-d3c5f6360af8"},"vehicle_type_id":"4","last_reported":1748006561,"current_range_meters":14800,"station_id":"ce4bhmp2rcd13ifvqgog","pricing_plan_id":"cebpf4jnsgd1na2vs0mg"},{"bike_id":"36169518-8050-4db9-aac3-0cfbb47581a1","system_id":"levelo_inurba_marseille","lat":43.286154,"lon":5.351033,"is_reserved":false,"is_disabled":false,"rental_uris":{"android":"levelo://app?vid=36169518-8050-4db9-aac3-0cfbb47581a1","ios":"levelo://app?vid=36169518-8050-4db9-aac3-0cfbb47581a1"},"vehicle_type_id":"4","last_reported":1748006561,"current_range_meters":15200,"station_id":"","pricing_plan_id":"cebpf4jnsgd1na2vs0mg"},{"bike_id":"1170fcf4-2a0d-4938-a582-46e39135031d","system_id":"levelo_inurba_marseille","lat":43.28421,"lon":5.34984,"is_reserved":false,"is_disabled":false,"rental_uris":{"android":"levelo://app?vid=1170fcf4-2a0d-4938-a582-46e39135031d","ios":"levelo://app?vid=1170fcf4-2a0d-4938-a582-46e39135031d"},"vehicle_type_id":"4","last_reported":1748006561,"current_range_meters":15200,"station_id":"ce4bhbh2rcd13ifvqepg","pricing_plan_id":"cebpf4jnsgd1na2vs0mg"},{"bike_id":"0955cae1-7c9b-4554-b0ea-ee67c08a7d54","system_id":"levelo_inurba_marseille","lat":43.23969,"lon":5.36623,"is_reserved":false,"is_disabled":false,"rental_uris":{"android":"levelo://app?vid=0955cae1-7c9b-4554-b0ea-ee67c08a7d54","ios":"levelo://app?vid=0955cae1-7c9b-4554-b0ea-ee67c08a7d54"},"vehicle_type_id":"4","last_reported":1748006561,"current_range_meters":15200,"station_id":"ce4bhi12rcd13ifvqfp0","pricing_plan_id":"cebpf4jnsgd1na2vs0mg"},{"bike_id":"9c5786ab-f880-4811-a809-ca4758267ae9","system_id":"levelo_inurba_marseille","lat":43.32493,"lon":5.36589,"is_reserved":false,"is_disabled":false,"rental_uris":{"android":"levelo://app?vid=9c5786ab-f880-4811-a809-ca4758267ae9","ios":"levelo://app?vid=9c5786ab-f880-4811-a809-ca4758267ae9"},"vehicle_type_id":"4","last_reported":1748006561,"current_range_meters":15200,"station_id":"ce4bhs12rcd13ifvqhvg","pricing_plan_id":"cebpf4jnsgd1na2vs0mg"},{"bike_id":"6dabdc28-1516-4526-a634-0d1125235cd1","system_id":"levelo_inurba_marseille","lat":43.21756,"lon":5.34603,"is_reserved":false,"is_disabled":false,"rental_uris":{"android":"levelo://app?vid=6dabdc28-1516-4526-a634-0d1125235cd1","ios":"levelo://app?vid=6dabdc28-1516-4526-a634-0d1125235cd1"},"vehicle_type_id":"4","last_reported":1748006561,"current_range_meters":15200,"station_id":"st_cvj6r9ubvosntc0bgbag","pricing_plan_id":"cebpf4jnsgd1na2vs0mg"},{"bike_id":"293d61e5-2bb1-407f-9e33-e203d0ecedbf","system_id":"levelo_inurba_marseille","lat":43.27994,"lon":5.40117,"is_reserved":false,"is_disabled":false,"rental_uris":{"android":"levelo://app?vid=293d61e5-2bb1-407f-9e33-e203d0ecedbf","ios":"levelo://app?vid=293d61e5-2bb1-407f-9e33-e203d0ecedbf"},"vehicle_type_id":"4","last_reported":1748006561,"current_range_meters":16000,"station_id":"","pricing_plan_id":"cebpf4jnsgd1na2vs0mg"},{"bike_id":"c68068cb-1e46-45e9-a477-328abce92844","system_id":"levelo_inurba_marseille","lat":43.2175,"lon":5.3459,"is_reserved":false,"is_disabled":false,"rental_uris":{"android":"levelo://app?vid=c68068cb-1e46-45e9-a477-328abce92844","ios":"levelo://app?vid=c68068cb-1e46-45e9-a477-328abce92844"},"vehicle_type_id":"4","last_reported":1748006561,"current_range_meters":16000,"station_id":"","pricing_plan_id":"cebpf4jnsgd1na2vs0mg"},{"bike_id":"fc8c72ad-ca61-42c6-ae90-f61b57e45328","system_id":"levelo_inurba_marseille","lat":43.27908,"lon":5.41865,"is_reserved":false,"is_disabled":false,"rental_uris":{"android":"levelo://app?vid=fc8c72ad-ca61-42c6-ae90-f61b57e45328","ios":"levelo://app?vid=fc8c72ad-ca61-42c6-ae90-f61b57e45328"},"vehicle_type_id":"4","last_reported":1748006561,"current_range_meters":16000,"station_id":"","pricing_plan_id":"cebpf4jnsgd1na2vs0mg"},{"bike_id":"75e91607-f093-41b1-947a-69b62fe724b6","system_id":"levelo_inurba_marseille","lat":43.34689,"lon":5.34542,"is_reserved":false,"is_disabled":false,"rental_uris":{"android":"levelo://app?vid=75e91607-f093-41b1-947a-69b62fe724b6","ios":"levelo://app?vid=75e91607-f093-41b1-947a-69b62fe724b6"},"vehicle_type_id":"4","last_reported":1748006561,"current_range_meters":16000,"station_id":"","pricing_plan_id":"cebpf4jnsgd1na2vs0mg"},{"bike_id":"6e5a158f-7f1d-4312-9977-ede4602769a5","system_id":"levelo_inurba_marseille","lat":43.28217,"lon":5.39068,"is_reserved":false,"is_disabled":false,"rental_uris":{"android":"levelo://app?vid=6e5a158f-7f1d-4312-9977-ede4602769a5","ios":"levelo://app?vid=6e5a158f-7f1d-4312-9977-ede4602769a5"},"vehicle_type_id":"4","last_reported":1748006561,"current_range_meters":16000,"station_id":"","pricing_plan_id":"cebpf4jnsgd1na2vs0mg"},{"bike_id":"23c0d60f-370c-4db9-8d10-63fb79b07f08","system_id":"levelo_inurba_marseille","lat":43.29049,"lon":5.35935,"is_reserved":false,"is_disabled":false,"rental_uris":{"android":"levelo://app?vid=23c0d60f-370c-4db9-8d10-63fb79b07f08","ios":"levelo://app?vid=23c0d60f-370c-4db9-8d10-63fb79b07f08"},"vehicle_type_id":"4","last_reported":1748006561,"current_range_meters":16000,"station_id":"ce4bha92rcd13ifvqeg0","pricing_plan_id":"cebpf4jnsgd1na2vs0mg"},{"bike_id":"01c0716b-8957-4246-bdf6-67b363ea8382","system_id":"levelo_inurba_marseille","lat":43.28621,"lon":5.35107,"is_reserved":false,"is_disabled":false,"rental_uris":{"android":"levelo://app?vid=01c0716b-8957-4246-bdf6-67b363ea8382","ios":"levelo://app?vid=01c0716b-8957-4246-bdf6-67b363ea8382"},"vehicle_type_id":"4","last_reported":1748006561,"current_range_meters":16000,"station_id":"ce4bhch2rcd13ifvqeug","pricing_plan_id":"cebpf4jnsgd1na2vs0mg"},{"bike_id":"3f952b7c-8f9c-4cb9-8903-36ac3e5412ae","system_id":"levelo_inurba_marseille","lat":43.25122,"lon":5.40314,"is_reserved":false,"is_disabled":false,"rental_uris":{"android":"levelo://app?vid=3f952b7c-8f9c-4cb9-8903-36ac3e5412ae","ios":"levelo://app?vid=3f952b7c-8f9c-4cb9-8903-36ac3e5412ae"},"vehicle_type_id":"4","last_reported":1748006561,"current_range_meters":16000,"station_id":"ce4bhlh2rcd13ifvqgig","pricing_plan_id":"cebpf4jnsgd1na2vs0mg"},{"bike_id":"a0fc5246-82f4-47a9-894c-ddb6bd8d8f60","system_id":"levelo_inurba_marseille","lat":43.23188,"lon":5.3553,"is_reserved":false,"is_disabled":false,"rental_uris":{"android":"levelo://app?vid=a0fc5246-82f4-47a9-894c-ddb6bd8d8f60","ios":"levelo://app?vid=a0fc5246-82f4-47a9-894c-ddb6bd8d8f60"},"vehicle_type_id":"4","last_reported":1748006561,"current_range_meters":16000,"station_id":"ce4bhu92rcd13ifvqi70","pricing_plan_id":"cebpf4jnsgd1na2vs0mg"},{"bike_id":"8bf531c8-63c9-4599-a836-ffb8cfe6db01","system_id":"levelo_inurba_marseille","lat":43.24167,"lon":5.36392,"is_reserved":false,"is_disabled":false,"rental_uris":{"android":"levelo://app?vid=8bf531c8-63c9-4599-a836-ffb8cfe6db01","ios":"levelo://app?vid=8bf531c8-63c9-4599-a836-ffb8cfe6db01"},"vehicle_type_id":"4","last_reported":1748006561,"current_range_meters":16000,"station_id":"cpo36qri1sfpv3e86is0","pricing_plan_id":"cebpf4jnsgd1na2vs0mg"},{"bike_id":"d09ef814-804c-4f6c-975b-f6b57cc87572","system_id":"levelo_inurba_marseille","lat":43.23067,"lon":5.43824,"is_reserved":false,"is_disabled":false,"rental_uris":{"android":"levelo://app?vid=d09ef814-804c-4f6c-975b-f6b57cc87572","ios":"levelo://app?vid=d09ef814-804c-4f6c-975b-f6b57cc87572"},"vehicle_type_id":"4","last_reported":1748006561,"current_range_meters":16400,"station_id":"","pricing_plan_id":"cebpf4jnsgd1na2vs0mg"},{"bike_id":"61d9f763-efdb-4d2a-9881-0b7d51d43b32","system_id":"levelo_inurba_marseille","lat":43.2994,"lon":5.36551,"is_reserved":false,"is_disabled":false,"rental_uris":{"android":"levelo://app?vid=61d9f763-efdb-4d2a-9881-0b7d51d43b32","ios":"levelo://app?vid=61d9f763-efdb-4d2a-9881-0b7d51d43b32"},"vehicle_type_id":"4","last_reported":1748006561,"current_range_meters":16400,"station_id":"ce4bgm92rcd13ifvqbr0","pricing_plan_id":"cebpf4jnsgd1na2vs0mg"},{"bike_id":"776aa6ee-a926-415e-94a8-8fc764cbae8e","system_id":"levelo_inurba_marseille","lat":43.28441,"lon":5.39197,"is_reserved":false,"is_disabled":false,"rental_uris":{"android":"levelo://app?vid=776aa6ee-a926-415e-94a8-8fc764cbae8e","ios":"levelo://app?vid=776aa6ee-a926-415e-94a8-8fc764cbae8e"},"vehicle_type_id":"4","last_reported":1748006561,"current_range_meters":16400,"station_id":"ce4bhoh2rcd13ifvqh5g","pricing_plan_id":"cebpf4jnsgd1na2vs0mg"},{"bike_id":"03ac2a01-7b90-4851-a89b-d76e6b7b5e67","system_id":"levelo_inurba_marseille","lat":43.21194,"lon":5.3507,"is_reserved":false,"is_disabled":false,"rental_uris":{"android":"levelo://app?vid=03ac2a01-7b90-4851-a89b-d76e6b7b5e67","ios":"levelo://app?vid=03ac2a01-7b90-4851-a89b-d76e6b7b5e67"},"vehicle_type_id":"4","last_reported":1748006561,"current_range_meters":16400,"station_id":"st_cvj6sg6p6f1abm77japg","pricing_plan_id":"cebpf4jnsgd1na2vs0mg"},{"bike_id":"b5bdd92f-4bb4-42fe-ba27-4733159b5f2f","system_id":"levelo_inurba_marseille","lat":43.28956,"lon":5.36397,"is_reserved":false,"is_disabled":false,"rental_uris":{"android":"levelo://app?vid=b5bdd92f-4bb4-42fe-ba27-4733159b5f2f","ios":"levelo://app?vid=b5bdd92f-4bb4-42fe-ba27-4733159b5f2f"},"vehicle_type_id":"4","last_reported":1748006561,"current_range_meters":16800,"station_id":"ce4bhc92rcd13ifvqetg","pricing_plan_id":"cebpf4jnsgd1na2vs0mg"},{"bike_id":"1c960faf-d0f3-4e63-9b21-e35f107e1861","system_id":"levelo_inurba_marseille","lat":43.23962,"lon":5.36631,"is_reserved":false,"is_disabled":false,"rental_uris":{"android":"levelo://app?vid=1c960faf-d0f3-4e63-9b21-e35f107e1861","ios":"levelo://app?vid=1c960faf-d0f3-4e63-9b21-e35f107e1861"},"vehicle_type_id":"4","last_reported":1748006561,"current_range_meters":17200,"station_id":"","pricing_plan_id":"cebpf4jnsgd1na2vs0mg"},{"bike_id":"352802ec-4213-495f-b3af-734001272c6a","system_id":"levelo_inurba_marseille","lat":43.30436,"lon":5.38896,"is_reserved":false,"is_disabled":false,"rental_uris":{"android":"levelo://app?vid=352802ec-4213-495f-b3af-734001272c6a","ios":"levelo://app?vid=352802ec-4213-495f-b3af-734001272c6a"},"vehicle_type_id":"4","last_reported":1748006561,"current_range_meters":17200,"station_id":"ce4bgk12rcd13ifvqbi0","pricing_plan_id":"cebpf4jnsgd1na2vs0mg"},{"bike_id":"d1d0cae5-6baf-4afe-84ee-f418471187e1","system_id":"levelo_inurba_marseille","lat":43.29849,"lon":5.36289,"is_reserved":false,"is_disabled":false,"rental_uris":{"android":"levelo://app?vid=d1d0cae5-6baf-4afe-84ee-f418471187e1","ios":"levelo://app?vid=d1d0cae5-6baf-4afe-84ee-f418471187e1"},"vehicle_type_id":"4","last_reported":1748006561,"current_range_meters":17200,"station_id":"ce4bgpp2rcd13ifvqc3g","pricing_plan_id":"cebpf4jnsgd1na2vs0mg"},{"bike_id":"ec81dc1b-d94a-4d1c-b460-4a686b848ec0","system_id":"levelo_inurba_marseille","lat":43.2667,"lon":5.38288,"is_reserved":false,"is_disabled":false,"rental_uris":{"android":"levelo://app?vid=ec81dc1b-d94a-4d1c-b460-4a686b848ec0","ios":"levelo://app?vid=ec81dc1b-d94a-4d1c-b460-4a686b848ec0"},"vehicle_type_id":"4","last_reported":1748006561,"current_range_meters":17200,"station_id":"ce4bhg92rcd13ifvqf90","pricing_plan_id":"cebpf4jnsgd1na2vs0mg"},{"bike_id":"a55af27c-d717-4d23-a359-c6f121b60330","system_id":"levelo_inurba_marseille","lat":43.28162,"lon":5.42647,"is_reserved":false,"is_disabled":false,"rental_uris":{"android":"levelo://app?vid=a55af27c-d717-4d23-a359-c6f121b60330","ios":"levelo://app?vid=a55af27c-d717-4d23-a359-c6f121b60330"},"vehicle_type_id":"4","last_reported":1748006561,"current_range_meters":17200,"station_id":"ce4bhnh2rcd13ifvqgug","pricing_plan_id":"cebpf4jnsgd1na2vs0mg"},{"bike_id":"1ecd6a5f-b496-4862-86bf-797f3b370d9a","system_id":"levelo_inurba_marseille","lat":43.32341,"lon":5.40621,"is_reserved":false,"is_disabled":false,"rental_uris":{"android":"levelo://app?vid=1ecd6a5f-b496-4862-86bf-797f3b370d9a","ios":"levelo://app?vid=1ecd6a5f-b496-4862-86bf-797f3b370d9a"},"vehicle_type_id":"4","last_reported":1748006561,"current_range_meters":17200,"station_id":"ce4bhq92rcd13ifvqhjg","pricing_plan_id":"cebpf4jnsgd1na2vs0mg"},{"bike_id":"9be1af00-4723-42c4-96d2-f5854da73a04","system_id":"levelo_inurba_marseille","lat":43.23197,"lon":5.35554,"is_reserved":false,"is_disabled":false,"rental_uris":{"android":"levelo://app?vid=9be1af00-4723-42c4-96d2-f5854da73a04","ios":"levelo://app?vid=9be1af00-4723-42c4-96d2-f5854da73a04"},"vehicle_type_id":"4","last_reported":1748006561,"current_range_meters":17200,"station_id":"ce4bhu92rcd13ifvqi70","pricing_plan_id":"cebpf4jnsgd1na2vs0mg"},{"bike_id":"ad45e537-e49a-43c0-a03b-8b1cd1c8d4b6","system_id":"levelo_inurba_marseille","lat":43.27624,"lon":5.36117,"is_reserved":false,"is_disabled":false,"rental_uris":{"android":"levelo://app?vid=ad45e537-e49a-43c0-a03b-8b1cd1c8d4b6","ios":"levelo://app?vid=ad45e537-e49a-43c0-a03b-8b1cd1c8d4b6"},"vehicle_type_id":"4","last_reported":1748006561,"current_range_meters":17600,"station_id":"ce4bgj92rcd13ifvqbe0","pricing_plan_id":"cebpf4jnsgd1na2vs0mg"},{"bike_id":"319d6256-dd1c-4b86-98e2-3b32cb08f299","system_id":"levelo_inurba_marseille","lat":43.309116,"lon":5.368534,"is_reserved":false,"is_disabled":false,"rental_uris":{"android":"levelo://app?vid=319d6256-dd1c-4b86-98e2-3b32cb08f299","ios":"levelo://app?vid=319d6256-dd1c-4b86-98e2-3b32cb08f299"},"vehicle_type_id":"4","last_reported":1748006561,"current_range_meters":17600,"station_id":"ce4bgn92rcd13ifvqbvg","pricing_plan_id":"cebpf4jnsgd1na2vs0mg"},{"bike_id":"792b255a-d56a-40d7-b450-4184048bef31","system_id":"levelo_inurba_marseille","lat":43.28714,"lon":5.374,"is_reserved":false,"is_disabled":false,"rental_uris":{"android":"levelo://app?vid=792b255a-d56a-40d7-b450-4184048bef31","ios":"levelo://app?vid=792b255a-d56a-40d7-b450-4184048bef31"},"vehicle_type_id":"4","last_reported":1748006561,"current_range_meters":17600,"station_id":"ce4bh3p2rcd13ifvqdq0","pricing_plan_id":"cebpf4jnsgd1na2vs0mg"},{"bike_id":"78d211fd-4961-418e-9fe1-67e47609d52e","system_id":"levelo_inurba_marseille","lat":43.28422,"lon":5.34979,"is_reserved":false,"is_disabled":false,"rental_uris":{"android":"levelo://app?vid=78d211fd-4961-418e-9fe1-67e47609d52e","ios":"levelo://app?vid=78d211fd-4961-418e-9fe1-67e47609d52e"},"vehicle_type_id":"4","last_reported":1748006561,"current_range_meters":17600,"station_id":"ce4bhbh2rcd13ifvqepg","pricing_plan_id":"cebpf4jnsgd1na2vs0mg"},{"bike_id":"23b9348d-75b5-4eba-ad8f-f241de51118b","system_id":"levelo_inurba_marseille","lat":43.28274,"lon":5.35071,"is_reserved":false,"is_disabled":false,"rental_uris":{"android":"levelo://app?vid=23b9348d-75b5-4eba-ad8f-f241de51118b","ios":"levelo://app?vid=23b9348d-75b5-4eba-ad8f-f241de51118b"},"vehicle_type_id":"4","last_reported":1748006561,"current_range_meters":17600,"station_id":"ce4bhbp2rcd13ifvqerg","pricing_plan_id":"cebpf4jnsgd1na2vs0mg"},{"bike_id":"6682acf5-b629-4059-8273-a0a5dbdceea1","system_id":"levelo_inurba_marseille","lat":43.2465,"lon":5.38891,"is_reserved":false,"is_disabled":false,"rental_uris":{"android":"levelo://app?vid=6682acf5-b629-4059-8273-a0a5dbdceea1","ios":"levelo://app?vid=6682acf5-b629-4059-8273-a0a5dbdceea1"},"vehicle_type_id":"4","last_reported":1748006561,"current_range_meters":17600,"station_id":"ce4bhg12rcd13ifvqf60","pricing_plan_id":"cebpf4jnsgd1na2vs0mg"},{"bike_id":"5a10ee41-9f87-4320-ae8d-9840cdb2fe6d","system_id":"levelo_inurba_marseille","lat":43.25583,"lon":5.38229,"is_reserved":false,"is_disabled":false,"rental_uris":{"android":"levelo://app?vid=5a10ee41-9f87-4320-ae8d-9840cdb2fe6d","ios":"levelo://app?vid=5a10ee41-9f87-4320-ae8d-9840cdb2fe6d"},"vehicle_type_id":"4","last_reported":1748006561,"current_range_meters":17600,"station_id":"ce4bhih2rcd13ifvqfs0","pricing_plan_id":"cebpf4jnsgd1na2vs0mg"},{"bike_id":"ebbffdd2-1f89-455c-85ab-f7033826ced4","system_id":"levelo_inurba_marseille","lat":43.23145,"lon":5.43768,"is_reserved":false,"is_disabled":false,"rental_uris":{"android":"levelo://app?vid=ebbffdd2-1f89-455c-85ab-f7033826ced4","ios":"levelo://app?vid=ebbffdd2-1f89-455c-85ab-f7033826ced4"},"vehicle_type_id":"4","last_reported":1748006561,"current_range_meters":17600,"station_id":"ce4bhmp2rcd13ifvqgog","pricing_plan_id":"cebpf4jnsgd1na2vs0mg"},{"bike_id":"4c27ef65-8995-4e9d-95a8-5d04fb0e9fcd","system_id":"levelo_inurba_marseille","lat":43.27817,"lon":5.40715,"is_reserved":false,"is_disabled":false,"rental_uris":{"android":"levelo://app?vid=4c27ef65-8995-4e9d-95a8-5d04fb0e9fcd","ios":"levelo://app?vid=4c27ef65-8995-4e9d-95a8-5d04fb0e9fcd"},"vehicle_type_id":"4","last_reported":1748006561,"current_range_meters":17600,"station_id":"ce4bhnh2rcd13ifvqgtg","pricing_plan_id":"cebpf4jnsgd1na2vs0mg"},{"bike_id":"6d7c935a-591a-4e31-aa91-6b540699765a","system_id":"levelo_inurba_marseille","lat":43.22931,"lon":5.35379,"is_reserved":false,"is_disabled":false,"rental_uris":{"android":"levelo://app?vid=6d7c935a-591a-4e31-aa91-6b540699765a","ios":"levelo://app?vid=6d7c935a-591a-4e31-aa91-6b540699765a"},"vehicle_type_id":"4","last_reported":1748006561,"current_range_meters":17600,"station_id":"cpo3532slgdg3j2ikp40","pricing_plan_id":"cebpf4jnsgd1na2vs0mg"},{"bike_id":"e9438d85-cbc4-49fb-b976-af0ef346d708","system_id":"levelo_inurba_marseille","lat":43.21183,"lon":5.35098,"is_reserved":false,"is_disabled":false,"rental_uris":{"android":"levelo://app?vid=e9438d85-cbc4-49fb-b976-af0ef346d708","ios":"levelo://app?vid=e9438d85-cbc4-49fb-b976-af0ef346d708"},"vehicle_type_id":"4","last_reported":1748006561,"current_range_meters":17600,"station_id":"st_cvj6sg6p6f1abm77japg","pricing_plan_id":"cebpf4jnsgd1na2vs0mg"},{"bike_id":"da453a88-f81b-4e0f-9781-5a7f6c1d364c","system_id":"levelo_inurba_marseille","lat":43.337499,"lon":5.374469,"is_reserved":false,"is_disabled":false,"rental_uris":{"android":"levelo://app?vid=da453a88-f81b-4e0f-9781-5a7f6c1d364c","ios":"levelo://app?vid=da453a88-f81b-4e0f-9781-5a7f6c1d364c"},"vehicle_type_id":"4","last_reported":1748006561,"current_range_meters":18000,"station_id":"","pricing_plan_id":"cebpf4jnsgd1na2vs0mg"},{"bike_id":"88ac5a91-56d3-4573-b0f2-5c6bbb7d986b","system_id":"levelo_inurba_marseille","lat":43.26083,"lon":5.39652,"is_reserved":false,"is_disabled":false,"rental_uris":{"android":"levelo://app?vid=88ac5a91-56d3-4573-b0f2-5c6bbb7d986b","ios":"levelo://app?vid=88ac5a91-56d3-4573-b0f2-5c6bbb7d986b"},"vehicle_type_id":"4","last_reported":1748006561,"current_range_meters":18000,"station_id":"","pricing_plan_id":"cebpf4jnsgd1na2vs0mg"},{"bike_id":"792899f8-bc71-4f07-9b67-c530af049cc4","system_id":"levelo_inurba_marseille","lat":43.29373,"lon":5.37847,"is_reserved":false,"is_disabled":false,"rental_uris":{"android":"levelo://app?vid=792899f8-bc71-4f07-9b67-c530af049cc4","ios":"levelo://app?vid=792899f8-bc71-4f07-9b67-c530af049cc4"},"vehicle_type_id":"4","last_reported":1748006561,"current_range_meters":18000,"station_id":"ce4bgjh2rcd13ifvqbf0","pricing_plan_id":"cebpf4jnsgd1na2vs0mg"},{"bike_id":"fb6706ff-2f6a-4a77-8dee-8b378c0b9651","system_id":"levelo_inurba_marseille","lat":43.29914,"lon":5.37466,"is_reserved":false,"is_disabled":false,"rental_uris":{"android":"levelo://app?vid=fb6706ff-2f6a-4a77-8dee-8b378c0b9651","ios":"levelo://app?vid=fb6706ff-2f6a-4a77-8dee-8b378c0b9651"},"vehicle_type_id":"4","last_reported":1748006561,"current_range_meters":18000,"station_id":"ce4bgjh2rcd13ifvqbg0","pricing_plan_id":"cebpf4jnsgd1na2vs0mg"},{"bike_id":"533f1cce-7df2-4af9-8647-93e31d0da3cf","system_id":"levelo_inurba_marseille","lat":43.29976,"lon":5.37176,"is_reserved":false,"is_disabled":false,"rental_uris":{"android":"levelo://app?vid=533f1cce-7df2-4af9-8647-93e31d0da3cf","ios":"levelo://app?vid=533f1cce-7df2-4af9-8647-93e31d0da3cf"},"vehicle_type_id":"4","last_reported":1748006561,"current_range_meters":18000,"station_id":"ce4bgr92rcd13ifvqc7g","pricing_plan_id":"cebpf4jnsgd1na2vs0mg"},{"bike_id":"147f8927-4685-42bd-a6c5-e441222c3b69","system_id":"levelo_inurba_marseille","lat":43.26659,"lon":5.383,"is_reserved":false,"is_disabled":false,"rental_uris":{"android":"levelo://app?vid=147f8927-4685-42bd-a6c5-e441222c3b69","ios":"levelo://app?vid=147f8927-4685-42bd-a6c5-e441222c3b69"},"vehicle_type_id":"4","last_reported":1748006561,"current_range_meters":18000,"station_id":"ce4bhg92rcd13ifvqf90","pricing_plan_id":"cebpf4jnsgd1na2vs0mg"},