{"last_updated":1730178582,"ttl":60,"version":"2.2","data":{"bikes":[{"bike_id":"993bad32-3e7a-4762-9370-f2c1eab969ef","system_id":"levelo_inurba_marseille","lat":43.23962,"lon":5.36641,"is_reserved":false,"is_disabled":false,"rental_uris":{"android":"levelo://app?vid=993bad32-3e7a-4762-9370-f2c1eab969ef","ios":"levelo://app?vid=993bad32-3e7a-4762-9370-f2c1eab969ef"},"vehicle_type_id":"4","last_reported":1730178582,"current_range_meters":26800,"station_id":"ce4bhi12rcd13ifvqfp0","pricing_plan_id":"cebpf4jnsgd1na2vs0mg"},{"bike_id":"a62ffa85-d308-4830-a151-ae2728e308b9","system_id":"levelo_inurba_marseille","lat":43.30932,"lon":5.40142,"is_reserved":false,"is_disabled":false,"rental_uris":{"android":"levelo://app?vid=a62ffa85-d308-4830-a151-ae2728e308b9","ios":"levelo://app?vid=a62ffa85-d308-4830-a151-ae2728e308b9"},"vehicle_type_id":"4","last_reported":1730178582,"current_range_meters":37600,"station_id":"ce4bgvp2rcd13ifvqct0","pricing_plan_id":"cebpf4jnsgd1na2vs0mg"},{"bike_id":"5b6da0fb-5d65-41eb-8aa7-edd3cba55e1e","system_id":"levelo_inurba_marseille","lat":43.303609,"lon":5.41883,"is_reserved":false,"is_disabled":false,"rental_uris":{"android":"levelo://app?vid=5b6da0fb-5d65-41eb-8aa7-edd3cba55e1e","ios":"levelo://app?vid=5b6da0fb-5d65-41eb-8aa7-edd3cba55e1e"},"vehicle_type_id":"4","last_reported":1730178582,"current_range_meters":38800,"station_id":"ce4bhop2rcd13ifvqh7g","pricing_plan_id":"cebpf4jnsgd1na2vs0mg"},{"bike_id":"5aef8b8d-a1c0-4d83-a273-c6b671bedd61","system_id":"levelo_inurba_marseille","lat":43.271864,"lon":5.409997,"is_reserved":false,"is_disabled":false,"rental_uris":{"android":"levelo://app?vid=5aef8b8d-a1c0-4d83-a273-c6b671bedd61","ios":"levelo://app?vid=5aef8b8d-a1c0-4d83-a273-c6b671bedd61"},"vehicle_type_id":"4","last_reported":1730178582,"current_range_meters":8400,"station_id":"ce4bhl12rcd13ifvqgf0","pricing_plan_id":"cebpf4jnsgd1na2vs0mg"},{"bike_id":"68fb4f18-f8e3-4888-ad74-cdb4024540a7","system_id":"levelo_inurba_marseille","lat":43.29898,"lon":5.43662,"is_reserved":false,"is_disabled":false,"rental_uris":{"android":"levelo://app?vid=68fb4f18-f8e3-4888-ad74-cdb4024540a7","ios":"levelo://app?vid=68fb4f18-f8e3-4888-ad74-cdb4024540a7"},"vehicle_type_id":"4","last_reported":1730178582,"current_range_meters":38800,"station_id":"ce4bhpp2rcd13ifvqhfg","pricing_plan_id":"cebpf4jnsgd1na2vs0mg"},{"bike_id":"83f7db1f-5175-4f37-854b-cde355acc9c6","system_id":"levelo_inurba_marseille","lat":43.322917,"lon":5.382811,"is_reserved":false,"is_disabled":false,"rental_uris":{"android":"levelo://app?vid=83f7db1f-5175-4f37-854b-cde355acc9c6","ios":"levelo://app?vid=83f7db1f-5175-4f37-854b-cde355acc9c6"},"vehicle_type_id":"4","last_reported":1730178582,"current_range_meters":38800,"station_id":"ce4bhr12rcd13ifvqhqg","pricing_plan_id":"cebpf4jnsgd1na2vs0mg"},{"bike_id":"1512b63c-f0fc-4345-9d33-cf4933db07fa","system_id":"levelo_inurba_marseille","lat":43.28711,"lon":5.39981,"is_reserved":false,"is_disabled":false,"rental_uris":{"android":"levelo://app?vid=1512b63c-f0fc-4345-9d33-cf4933db07fa","ios":"levelo://app?vid=1512b63c-f0fc-4345-9d33-cf4933db07fa"},"vehicle_type_id":"4","last_reported":1730178582,"current_range_meters":37600,"station_id":"ce4bho92rcd13ifvqh3g","pricing_plan_id":"cebpf4jnsgd1na2vs0mg"},{"bike_id":"8691266c-b078-424b-a387-0bb56f925da9","system_id":"levelo_inurba_marseille","lat":43.30422,"lon":5.3976,"is_reserved":false,"is_disabled":false,"rental_uris":{"android":"levelo://app?vid=8691266c-b078-424b-a387-0bb56f925da9","ios":"levelo://app?vid=8691266c-b078-424b-a387-0bb56f925da9"},"vehicle_type_id":"4","last_reported":1730178582,"current_range_meters":36400,"station_id":"ce4bh092rcd13ifvqd20","pricing_plan_id":"cebpf4jnsgd1na2vs0mg"},{"bike_id":"96989abe-76cb-4554-acad-3e96bc325f55","system_id":"levelo_inurba_marseille","lat":43.29015,"lon":5.38131,"is_reserved":false,"is_disabled":false,"rental_uris":{"android":"levelo://app?vid=96989abe-76cb-4554-acad-3e96bc325f55","ios":"levelo://app?vid=96989abe-76cb-4554-acad-3e96bc325f55"},"vehicle_type_id":"4","last_reported":1730178582,"current_range_meters":38800,"station_id":"ce4bh4p2rcd13ifvqe1g","pricing_plan_id":"cebpf4jnsgd1na2vs0mg"},{"bike_id":"891a5191-3140-475a-ad3d-7c65985cad15","system_id":"levelo_inurba_marseille","lat":43.25103,"lon":5.40341,"is_reserved":false,"is_disabled":false,"rental_uris":{"android":"levelo://app?vid=891a5191-3140-475a-ad3d-7c65985cad15","ios":"levelo://app?vid=891a5191-3140-475a-ad3d-7c65985cad15"},"vehicle_type_id":"4","last_reported":1730178582,"current_range_meters":38800,"station_id":"ce4bhlh2rcd13ifvqgig","pricing_plan_id":"cebpf4jnsgd1na2vs0mg"},{"bike_id":"79962e24-45d6-4bc1-ae9c-33ce3d4cfd10","system_id":"levelo_inurba_marseille","lat":43.30097,"lon":5.39088,"is_reserved":false,"is_disabled":false,"rental_uris":{"android":"levelo://app?vid=79962e24-45d6-4bc1-ae9c-33ce3d4cfd10","ios":"levelo://app?vid=79962e24-45d6-4bc1-ae9c-33ce3d4cfd10"},"vehicle_type_id":"4","last_reported":1730178582,"current_range_meters":32400,"station_id":"ce4bh192rcd13ifvqdb0","pricing_plan_id":"cebpf4jnsgd1na2vs0mg"},{"bike_id":"1fa5b94f-d471-4cd7-af51-ff12dad343c1","system_id":"levelo_inurba_marseille","lat":43.2987,"lon":5.39761,"is_reserved":false,"is_disabled":false,"rental_uris":{"android":"levelo://app?vid=1fa5b94f-d471-4cd7-af51-ff12dad343c1","ios":"levelo://app?vid=1fa5b94f-d471-4cd7-af51-ff12dad343c1"},"vehicle_type_id":"4","last_reported":1730178582,"current_range_meters":25600,"station_id":"ce4bh0h2rcd13ifvqd50","pricing_plan_id":"cebpf4jnsgd1na2vs0mg"},{"bike_id":"0dd0ccc2-f1bf-42cd-a425-db2be977a4df","system_id":"levelo_inurba_marseille","lat":43.255822,"lon":5.382331,"is_reserved":false,"is_disabled":false,"rental_uris":{"android":"levelo://app?vid=0dd0ccc2-f1bf-42cd-a425-db2be977a4df","ios":"levelo://app?vid=0dd0ccc2-f1bf-42cd-a425-db2be977a4df"},"vehicle_type_id":"4","last_reported":1730178582,"current_range_meters":38800,"station_id":"ce4bhih2rcd13ifvqfs0","pricing_plan_id":"cebpf4jnsgd1na2vs0mg"},{"bike_id":"62b5614c-5f33-4953-a27e-e0c821552090","system_id":"levelo_inurba_marseille","lat":43.23196,"lon":5.35544,"is_reserved":false,"is_disabled":false,"rental_uris":{"android":"levelo://app?vid=62b5614c-5f33-4953-a27e-e0c821552090","ios":"levelo://app?vid=62b5614c-5f33-4953-a27e-e0c821552090"},"vehicle_type_id":"4","last_reported":1730178582,"current_range_meters":38800,"station_id":"ce4bhu92rcd13ifvqi70","pricing_plan_id":"cebpf4jnsgd1na2vs0mg"},{"bike_id":"48c9e414-9d6e-4a0a-bf92-9510d69dd36e","system_id":"levelo_inurba_marseille","lat":43.30326,"lon":5.40439,"is_reserved":false,"is_disabled":false,"rental_uris":{"android":"levelo://app?vid=48c9e414-9d6e-4a0a-bf92-9510d69dd36e","ios":"levelo://app?vid=48c9e414-9d6e-4a0a-bf92-9510d69dd36e"},"vehicle_type_id":"4","last_reported":1730178582,"current_range_meters":36000,"station_id":"ce4bh012rcd13ifvqd10","pricing_plan_id":"cebpf4jnsgd1na2vs0mg"},{"bike_id":"bc1da436-2a2e-45da-b2a5-32f7806ffa51","system_id":"levelo_inurba_marseille","lat":43.3042,"lon":5.39759,"is_reserved":false,"is_disabled":false,"rental_uris":{"android":"levelo://app?vid=bc1da436-2a2e-45da-b2a5-32f7806ffa51","ios":"levelo://app?vid=bc1da436-2a2e-45da-b2a5-32f7806ffa51"},"vehicle_type_id":"4","last_reported":1730178582,"current_range_meters":39200,"station_id":"ce4bh092rcd13ifvqd20","pricing_plan_id":"cebpf4jnsgd1na2vs0mg"},{"bike_id":"77868dea-5cf2-414b-bf97-ccde2042cefd","system_id":"levelo_inurba_marseille","lat":43.28005,"lon":5.40037,"is_reserved":false,"is_disabled":false,"rental_uris":{"android":"levelo://app?vid=77868dea-5cf2-414b-bf97-ccde2042cefd","ios":"levelo://app?vid=77868dea-5cf2-414b-bf97-ccde2042cefd"},"vehicle_type_id":"4","last_reported":1730178582,"current_range_meters":38400,"station_id":"ce4bho92rcd13ifvqh4g","pricing_plan_id":"cebpf4jnsgd1na2vs0mg"},{"bike_id":"39c65ec2-b79c-4711-ba54-2958bac9ea59","system_id":"levelo_inurba_marseille","lat":43.28702,"lon":5.39991,"is_reserved":false,"is_disabled":false,"rental_uris":{"android":"levelo://app?vid=39c65ec2-b79c-4711-ba54-2958bac9ea59","ios":"levelo://app?vid=39c65ec2-b79c-4711-ba54-2958bac9ea59"},"vehicle_type_id":"4","last_reported":1730178582,"current_range_meters":21600,"station_id":"ce4bho92rcd13ifvqh3g","pricing_plan_id":"cebpf4jnsgd1na2vs0mg"},{"bike_id":"5f24487f-6cf6-4ac6-b5be-c9a7f76a21e9","system_id":"levelo_inurba_marseille","lat":43.26946,"lon":5.38653,"is_reserved":false,"is_disabled":false,"rental_uris":{"android":"levelo://app?vid=5f24487f-6cf6-4ac6-b5be-c9a7f76a21e9","ios":"levelo://app?vid=5f24487f-6cf6-4ac6-b5be-c9a7f76a21e9"},"vehicle_type_id":"4","last_reported":1730178582,"current_range_meters":38800,"station_id":"ce4bhh92rcd13ifvqfh0","pricing_plan_id":"cebpf4jnsgd1na2vs0mg"},{"bike_id":"f03c0344-9c04-4fad-895b-ea47e8889e0d","system_id":"levelo_inurba_marseille","lat":43.28705,"lon":5.39993,"is_reserved":false,"is_disabled":false,"rental_uris":{"android":"levelo://app?vid=f03c0344-9c04-4fad-895b-ea47e8889e0d","ios":"levelo://app?vid=f03c0344-9c04-4fad-895b-ea47e8889e0d"},"vehicle_type_id":"4","last_reported":1730178582,"current_range_meters":38800,"station_id":"ce4bho92rcd13ifvqh3g","pricing_plan_id":"cebpf4jnsgd1na2vs0mg"},{"bike_id":"74ce0f25-afa3-4f3f-afa0-7dcd368ef12f","system_id":"levelo_inurba_marseille","lat":43.27898,"lon":5.38019,"is_reserved":false,"is_disabled":false,"rental_uris":{"android":"levelo://app?vid=74ce0f25-afa3-4f3f-afa0-7dcd368ef12f","ios":"levelo://app?vid=74ce0f25-afa3-4f3f-afa0-7dcd368ef12f"},"vehicle_type_id":"4","last_reported":1730178582,"current_range_meters":38000,"station_id":"ce4bhf92rcd13ifvqf50","pricing_plan_id":"cebpf4jnsgd1na2vs0mg"},{"bike_id":"0415be9b-88d6-4d85-9d1e-3930b85f0223","system_id":"levelo_inurba_marseille","lat":43.30418,"lon":5.39756,"is_reserved":false,"is_disabled":false,"rental_uris":{"android":"levelo://app?vid=0415be9b-88d6-4d85-9d1e-3930b85f0223","ios":"levelo://app?vid=0415be9b-88d6-4d85-9d1e-3930b85f0223"},"vehicle_type_id":"4","last_reported":1730178582,"current_range_meters":38800,"station_id":"ce4bh092rcd13ifvqd20","pricing_plan_id":"cebpf4jnsgd1na2vs0mg"},{"bike_id":"8d191566-d8a6-44ba-bebe-2a9d6ff01fde","system_id":"levelo_inurba_marseille","lat":43.27237,"lon":5.38695,"is_reserved":false,"is_disabled":false,"rental_uris":{"android":"levelo://app?vid=8d191566-d8a6-44ba-bebe-2a9d6ff01fde","ios":"levelo://app?vid=8d191566-d8a6-44ba-bebe-2a9d6ff01fde"},"vehicle_type_id":"4","last_reported":1730178582,"current_range_meters":24800,"station_id":"","pricing_plan_id":"cebpf4jnsgd1na2vs0mg"},{"bike_id":"1080ee42-79d1-4ab4-9d66-72f5befd9074","system_id":"levelo_inurba_marseille","lat":43.28351,"lon":5.38111,"is_reserved":false,"is_disabled":false,"rental_uris":{"android":"levelo://app?vid=1080ee42-79d1-4ab4-9d66-72f5befd9074","ios":"levelo://app?vid=1080ee42-79d1-4ab4-9d66-72f5befd9074"},"vehicle_type_id":"4","last_reported":1730178582,"current_range_meters":37600,"station_id":"ce4bh412rcd13ifvqdr0","pricing_plan_id":"cebpf4jnsgd1na2vs0mg"},{"bike_id":"08801734-d960-4cd0-9e69-61687b638757","system_id":"levelo_inurba_marseille","lat":43.24078,"lon":5.37746,"is_reserved":false,"is_disabled":false,"rental_uris":{"android":"levelo://app?vid=08801734-d960-4cd0-9e69-61687b638757","ios":"levelo://app?vid=08801734-d960-4cd0-9e69-61687b638757"},"vehicle_type_id":"4","last_reported":1730178582,"current_range_meters":28800,"station_id":"ce4bhnp2rcd13ifvqgvg","pricing_plan_id":"cebpf4jnsgd1na2vs0mg"},{"bike_id":"18d073cb-83b6-4a56-b36c-f24538a0e583","system_id":"levelo_inurba_marseille","lat":43.231867,"lon":5.399791,"is_reserved":false,"is_disabled":false,"rental_uris":{"android":"levelo://app?vid=18d073cb-83b6-4a56-b36c-f24538a0e583","ios":"levelo://app?vid=18d073cb-83b6-4a56-b36c-f24538a0e583"},"vehicle_type_id":"4","last_reported":1730178582,"current_range_meters":38800,"station_id":"ce4bhn12rcd13ifvqgqg","pricing_plan_id":"cebpf4jnsgd1na2vs0mg"},{"bike_id":"012c2ee5-d9ed-4efb-8323-b37e2b97ac55","system_id":"levelo_inurba_marseille","lat":43.231819,"lon":5.399857,"is_reserved":false,"is_disabled":false,"rental_uris":{"android":"levelo://app?vid=012c2ee5-d9ed-4efb-8323-b37e2b97ac55","ios":"levelo://app?vid=012c2ee5-d9ed-4efb-8323-b37e2b97ac55"},"vehicle_type_id":"4","last_reported":1730178582,"current_range_meters":25600,"station_id":"ce4bhn12rcd13ifvqgqg","pricing_plan_id":"cebpf4jnsgd1na2vs0mg"},{"bike_id":"b24b17ee-eec5-4357-a377-55485ac219c9","system_id":"levelo_inurba_marseille","lat":43.30153,"lon":5.38073,"is_reserved":false,"is_disabled":false,"rental_uris":{"android":"levelo://app?vid=b24b17ee-eec5-4357-a377-55485ac219c9","ios":"levelo://app?vid=b24b17ee-eec5-4357-a377-55485ac219c9"},"vehicle_type_id":"4","last_reported":1730178582,"current_range_meters":38000,"station_id":"ce4bgjp2rcd13ifvqbh0","pricing_plan_id":"cebpf4jnsgd1na2vs0mg"},{"bike_id":"fb65aaac-8bcd-42f1-b8e9-772193da838a","system_id":"levelo_inurba_marseille","lat":43.27551,"lon":5.38434,"is_reserved":false,"is_disabled":false,"rental_uris":{"android":"levelo://app?vid=fb65aaac-8bcd-42f1-b8e9-772193da838a","ios":"levelo://app?vid=fb65aaac-8bcd-42f1-b8e9-772193da838a"},"vehicle_type_id":"4","last_reported":1730178582,"current_range_meters":39200,"station_id":"ce4bhh92rcd13ifvqfi0","pricing_plan_id":"cebpf4jnsgd1na2vs0mg"},{"bike_id":"5ad31ad7-174f-412e-87d5-b57faa5d4787","system_id":"levelo_inurba_marseille","lat":43.28158,"lon":5.42636,"is_reserved":false,"is_disabled":false,"rental_uris":{"android":"levelo://app?vid=5ad31ad7-174f-412e-87d5-b57faa5d4787","ios":"levelo://app?vid=5ad31ad7-174f-412e-87d5-b57faa5d4787"},"vehicle_type_id":"4","last_reported":1730178582,"current_range_meters":4400,"station_id":"ce4bhnh2rcd13ifvqgug","pricing_plan_id":"cebpf4jnsgd1na2vs0mg"},{"bike_id":"f4e7de81-6156-48d1-890a-71a9eb7750d1","system_id":"levelo_inurba_marseille","lat":43.28612,"lon":5.37061,"is_reserved":false,"is_disabled":false,"rental_uris":{"android":"levelo://app?vid=f4e7de81-6156-48d1-890a-71a9eb7750d1","ios":"levelo://app?vid=f4e7de81-6156-48d1-890a-71a9eb7750d1"},"vehicle_type_id":"4","last_reported":1730178582,"current_range_meters":24000,"station_id":"ce4bht12rcd13ifvqi60","pricing_plan_id":"cebpf4jnsgd1na2vs0mg"},{"bike_id":"582346ef-f641-4fb4-b680-a158ffb5bc7f","system_id":"levelo_inurba_marseille","lat":43.3128,"lon":5.40175,"is_reserved":false,"is_disabled":false,"rental_uris":{"android":"levelo://app?vid=582346ef-f641-4fb4-b680-a158ffb5bc7f","ios":"levelo://app?vid=582346ef-f641-4fb4-b680-a158ffb5bc7f"},"vehicle_type_id":"4","last_reported":1730178582,"current_range_meters":22400,"station_id":"ce4bh092rcd13ifvqd30","pricing_plan_id":"cebpf4jnsgd1na2vs0mg"},{"bike_id":"1dda8e03-a199-4ff5-b993-db10045b7caa","system_id":"levelo_inurba_marseille","lat":43.31317,"lon":5.39713,"is_reserved":false,"is_disabled":false,"rental_uris":{"android":"levelo://app?vid=1dda8e03-a199-4ff5-b993-db10045b7caa","ios":"levelo://app?vid=1dda8e03-a199-4ff5-b993-db10045b7caa"},"vehicle_type_id":"4","last_reported":1730178582,"current_range_meters":33600,"station_id":"ce4bgvp2rcd13ifvqcu0","pricing_plan_id":"cebpf4jnsgd1na2vs0mg"},{"bike_id":"8d680d29-738c-4dc0-9d5b-00fc14aa115d","system_id":"levelo_inurba_marseille","lat":43.28712,"lon":5.39987,"is_reserved":false,"is_disabled":false,"rental_uris":{"android":"levelo://app?vid=8d680d29-738c-4dc0-9d5b-00fc14aa115d","ios":"levelo://app?vid=8d680d29-738c-4dc0-9d5b-00fc14aa115d"},"vehicle_type_id":"4","last_reported":1730178582,"current_range_meters":28400,"station_id":"ce4bho92rcd13ifvqh3g","pricing_plan_id":"cebpf4jnsgd1na2vs0mg"},{"bike_id":"bd8baaec-45d2-4e43-93df-f9f2bae82e2e","system_id":"levelo_inurba_marseille","lat":43.30414,"lon":5.39753,"is_reserved":false,"is_disabled":false,"rental_uris":{"android":"levelo://app?vid=bd8baaec-45d2-4e43-93df-f9f2bae82e2e","ios":"levelo://app?vid=bd8baaec-45d2-4e43-93df-f9f2bae82e2e"},"vehicle_type_id":"4","last_reported":1730178582,"current_range_meters":38000,"station_id":"ce4bh092rcd13ifvqd20","pricing_plan_id":"cebpf4jnsgd1na2vs0mg"},{"bike_id":"559e0993-d3ec-4994-8a4d-edbc5593d328","system_id":"levelo_inurba_marseille","lat":43.22926,"lon":5.35379,"is_reserved":false,"is_disabled":false,"rental_uris":{"android":"levelo://app?vid=559e0993-d3ec-4994-8a4d-edbc5593d328","ios":"levelo://app?vid=559e0993-d3ec-4994-8a4d-edbc5593d328"},"vehicle_type_id":"4","last_reported":1730178582,"current_range_meters":38800,"station_id":"cpo3532slgdg3j2ikp40","pricing_plan_id":"cebpf4jnsgd1na2vs0mg"},{"bike_id":"8672f55e-f83c-4099-9580-2b198abba8d1","system_id":"levelo_inurba_marseille","lat":43.28705,"lon":5.3737,"is_reserved":false,"is_disabled":false,"rental_uris":{"android":"levelo://app?vid=8672f55e-f83c-4099-9580-2b198abba8d1","ios":"levelo://app?vid=8672f55e-f83c-4099-9580-2b198abba8d1"},"vehicle_type_id":"4","last_reported":1730178582,"current_range_meters":27200,"station_id":"ce4bh3p2rcd13ifvqdq0","pricing_plan_id":"cebpf4jnsgd1na2vs0mg"},{"bike_id":"d1e00fab-a0af-4eee-b85e-c5f241a6cb99","system_id":"levelo_inurba_marseille","lat":43.292581,"lon":5.409051,"is_reserved":false,"is_disabled":false,"rental_uris":{"android":"levelo://app?vid=d1e00fab-a0af-4eee-b85e-c5f241a6cb99","ios":"levelo://app?vid=d1e00fab-a0af-4eee-b85e-c5f241a6cb99"},"vehicle_type_id":"4","last_reported":1730178582,"current_range_meters":38800,"station_id":"ce4bh192rcd13ifvqdc0","pricing_plan_id":"cebpf4jnsgd1na2vs0mg"},{"bike_id":"8706ceeb-0c9c-420d-a36b-ac84e47f7c85","system_id":"levelo_inurba_marseille","lat":43.28855,"lon":5.393225,"is_reserved":false,"is_disabled":false,"rental_uris":{"android":"levelo://app?vid=8706ceeb-0c9c-420d-a36b-ac84e47f7c85","ios":"levelo://app?vid=8706ceeb-0c9c-420d-a36b-ac84e47f7c85"},"vehicle_type_id":"4","last_reported":1730178582,"current_range_meters":38800,"station_id":"ce4bh2p2rcd13ifvqdi0","pricing_plan_id":"cebpf4jnsgd1na2vs0mg"},{"bike_id":"d1dacee6-8f47-4ca5-823b-a2ea6c3413e8","system_id":"levelo_inurba_marseille","lat":43.23192,"lon":5.35556,"is_reserved":false,"is_disabled":false,"rental_uris":{"android":"levelo://app?vid=d1dacee6-8f47-4ca5-823b-a2ea6c3413e8","ios":"levelo://app?vid=d1dacee6-8f47-4ca5-823b-a2ea6c3413e8"},"vehicle_type_id":"4","last_reported":1730178582,"current_range_meters":38800,"station_id":"ce4bhu92rcd13ifvqi70","pricing_plan_id":"cebpf4jnsgd1na2vs0mg"},{"bike_id":"409aaf5e-680b-47ec-83f6-033c62068ffa","system_id":"levelo_inurba_marseille","lat":43.281049,"lon":5.37849,"is_reserved":false,"is_disabled":false,"rental_uris":{"android":"levelo://app?vid=409aaf5e-680b-47ec-83f6-033c62068ffa","ios":"levelo://app?vid=409aaf5e-680b-47ec-83f6-033c62068ffa"},"vehicle_type_id":"4","last_reported":1730178582,"current_range_meters":32800,"station_id":"ce4bha12rcd13ifvqee0","pricing_plan_id":"cebpf4jnsgd1na2vs0mg"},{"bike_id":"05f53b43-7435-42bd-8666-896fcfaabd69","system_id":"levelo_inurba_marseille","lat":43.27051,"lon":5.40267,"is_reserved":false,"is_disabled":false,"rental_uris":{"android":"levelo://app?vid=05f53b43-7435-42bd-8666-896fcfaabd69","ios":"levelo://app?vid=05f53b43-7435-42bd-8666-896fcfaabd69"},"vehicle_type_id":"4","last_reported":1730178582,"current_range_meters":36800,"station_id":"ce4bhk92rcd13ifvqgc0","pricing_plan_id":"cebpf4jnsgd1na2vs0mg"},{"bike_id":"64a6f5fb-0409-46e0-b4cd-18785f02bade","system_id":"levelo_inurba_marseille","lat":43.28697,"lon":5.39975,"is_reserved":false,"is_disabled":false,"rental_uris":{"android":"levelo://app?vid=64a6f5fb-0409-46e0-b4cd-18785f02bade","ios":"levelo://app?vid=64a6f5fb-0409-46e0-b4cd-18785f02bade"},"vehicle_type_id":"4","last_reported":1730178582,"current_range_meters":38800,"station_id":"ce4bho92rcd13ifvqh3g","pricing_plan_id":"cebpf4jnsgd1na2vs0mg"},{"bike_id":"54399a13-f8cb-435f-8b52-6878bec0e3bf","system_id":"levelo_inurba_marseille","lat":43.28153,"lon":5.42648,"is_reserved":false,"is_disabled":false,"rental_uris":{"android":"levelo://app?vid=54399a13-f8cb-435f-8b52-6878bec0e3bf","ios":"levelo://app?vid=54399a13-f8cb-435f-8b52-6878bec0e3bf"},"vehicle_type_id":"4","last_reported":1730178582,"current_range_meters":36800,"station_id":"ce4bhnh2rcd13ifvqgug","pricing_plan_id":"cebpf4jnsgd1na2vs0mg"},{"bike_id":"f244edde-4075-4f85-933b-78974b7d856d","system_id":"levelo_inurba_marseille","lat":43.26684,"lon":5.38264,"is_reserved":false,"is_disabled":false,"rental_uris":{"android":"levelo://app?vid=f244edde-4075-4f85-933b-78974b7d856d","ios":"levelo://app?vid=f244edde-4075-4f85-933b-78974b7d856d"},"vehicle_type_id":"4","last_reported":1730178582,"current_range_meters":34000,"station_id":"ce4bhg92rcd13ifvqf90","pricing_plan_id":"cebpf4jnsgd1na2vs0mg"},{"bike_id":"bed983b0-4dd0-4343-8c2b-f9433485f5af","system_id":"levelo_inurba_marseille","lat":43.30148,"lon":5.38098,"is_reserved":false,"is_disabled":false,"rental_uris":{"android":"levelo://app?vid=bed983b0-4dd0-4343-8c2b-f9433485f5af","ios":"levelo://app?vid=bed983b0-4dd0-4343-8c2b-f9433485f5af"},"vehicle_type_id":"4","last_reported":1730178582,"current_range_meters":28400,"station_id":"ce4bgjp2rcd13ifvqbh0","pricing_plan_id":"cebpf4jnsgd1na2vs0mg"},{"bike_id":"3f46399f-b9fa-4676-9b7c-2d39f3403df5","system_id":"levelo_inurba_marseille","lat":43.336,"lon":5.41037,"is_reserved":false,"is_disabled":false,"rental_uris":{"android":"levelo://app?vid=3f46399f-b9fa-4676-9b7c-2d39f3403df5","ios":"levelo://app?vid=3f46399f-b9fa-4676-9b7c-2d39f3403df5"},"vehicle_type_id":"4","last_reported":1730178582,"current_range_meters":27600,"station_id":"ce4bhqh2rcd13ifvqhmg","pricing_plan_id":"cebpf4jnsgd1na2vs0mg"},{"bike_id":"f8e40ec6-02d7-48d8-9484-3fe6f97bc7b1","system_id":"levelo_inurba_marseille","lat":43.28663,"lon":5.36357,"is_reserved":false,"is_disabled":false,"rental_uris":{"android":"levelo://app?vid=f8e40ec6-02d7-48d8-9484-3fe6f97bc7b1","ios":"levelo://app?vid=f8e40ec6-02d7-48d8-9484-3fe6f97bc7b1"},"vehicle_type_id":"4","last_reported":1730178582,"current_range_meters":38800,"station_id":"ce4bhah2rcd13ifvqej0","pricing_plan_id":"cebpf4jnsgd1na2vs0mg"},{"bike_id":"269ec33a-73d4-40db-a158-88626839bb14","system_id":"levelo_inurba_marseille","lat":43.30654,"lon":5.40085,"is_reserved":false,"is_disabled":false,"rental_uris":{"android":"levelo://app?vid=269ec33a-73d4-40db-a158-88626839bb14","ios":"levelo://app?vid=269ec33a-73d4-40db-a158-88626839bb14"},"vehicle_type_id":"4","last_reported":1730178582,"current_range_meters":12400,"station_id":"ce4bh112rcd13ifvqda0","pricing_plan_id":"cebpf4jnsgd1na2vs0mg"},{"bike_id":"4b1f45ca-5ba1-42a7-87e4-e9967261b64c","system_id":"levelo_inurba_marseille","lat":43.31083,"lon":5.42422,"is_reserved":false,"is_disabled":false,"rental_uris":{"android":"levelo://app?vid=4b1f45ca-5ba1-42a7-87e4-e9967261b64c","ios":"levelo://app?vid=4b1f45ca-5ba1-42a7-87e4-e9967261b64c"},"vehicle_type_id":"4","last_reported":1730178582,"current_range_meters":38800,"station_id":"ce4bhp92rcd13ifvqhag","pricing_plan_id":"cebpf4jnsgd1na2vs0mg"},{"bike_id":"71a81f53-60b2-49be-89f2-329fe5bcab0f","system_id":"levelo_inurba_marseille","lat":43.28939,"lon":5.36627,"is_reserved":false,"is_disabled":false,"rental_uris":{"android":"levelo://app?vid=71a81f53-60b2-49be-89f2-329fe5bcab0f","ios":"levelo://app?vid=71a81f53-60b2-49be-89f2-329fe5bcab0f"},"vehicle_type_id":"4","last_reported":1730178582,"current_range_meters":38800,"station_id":"ce4bhap2rcd13ifvqek0","pricing_plan_id":"cebpf4jnsgd1na2vs0mg"},{"bike_id":"ff1b5205-06e6-469a-91a4-08d3f8f74ee5","system_id":"levelo_inurba_marseille","lat":43.28842,"lon":5.39327,"is_reserved":false,"is_disabled":false,"rental_uris":{"android":"levelo://app?vid=ff1b5205-06e6-469a-91a4-08d3f8f74ee5","ios":"levelo://app?vid=ff1b5205-06e6-469a-91a4-08d3f8f74ee5"},"vehicle_type_id":"4","last_reported":1730178582,"current_range_meters":38000,"station_id":"ce4bh2p2rcd13ifvqdi0","pricing_plan_id":"cebpf4jnsgd1na2vs0mg"},{"bike_id":"29b97861-e650-49bd-9e4c-e37584d59fac","system_id":"levelo_inurba_marseille","lat":43.30459,"lon":5.37913,"is_reserved":false,"is_disabled":false,"rental_uris":{"android":"levelo://app?vid=29b97861-e650-49bd-9e4c-e37584d59fac","ios":"levelo://app?vid=29b97861-e650-49bd-9e4c-e37584d59fac"},"vehicle_type_id":"4","last_reported":1730178582,"current_range_meters":39200,"station_id":"ce4bgup2rcd13ifvqcn0","pricing_plan_id":"cebpf4jnsgd1na2vs0mg"},{"bike_id":"9094db15-4bdf-4864-acf9-452b8d5c661a","system_id":"levelo_inurba_marseille","lat":43.27186,"lon":5.40997,"is_reserved":false,"is_disabled":false,"rental_uris":{"android":"levelo://app?vid=9094db15-4bdf-4864-acf9-452b8d5c661a","ios":"levelo://app?vid=9094db15-4bdf-4864-acf9-452b8d5c661a"},"vehicle_type_id":"4","last_reported":1730178582,"current_range_meters":16800,"station_id":"ce4bhl12rcd13ifvqgf0","pricing_plan_id":"cebpf4jnsgd1na2vs0mg"},{"bike_id":"2da026c9-8b39-419a-b7e8-874540f303d5","system_id":"levelo_inurba_marseille","lat":43.29563,"lon":5.37516,"is_reserved":false,"is_disabled":false,"rental_uris":{"android":"levelo://app?vid=2da026c9-8b39-419a-b7e8-874540f303d5","ios":"levelo://app?vid=2da026c9-8b39-419a-b7e8-874540f303d5"},"vehicle_type_id":"4","last_reported":1730178582,"current_range_meters":34000,"station_id":"ce4bgh92rcd13ifvqb50","pricing_plan_id":"cebpf4jnsgd1na2vs0mg"},{"bike_id":"c5aed74c-2556-4499-81a2-61e56f0ad7bb","system_id":"levelo_inurba_marseille","lat":43.31115,"lon":5.37777,"is_reserved":false,"is_disabled":false,"rental_uris":{"android":"levelo://app?vid=c5aed74c-2556-4499-81a2-61e56f0ad7bb","ios":"levelo://app?vid=c5aed74c-2556-4499-81a2-61e56f0ad7bb"},"vehicle_type_id":"4","last_reported":1730178582,"current_range_meters":27200,"station_id":"ce4bgt92rcd13ifvqcg0","pricing_plan_id":"cebpf4jnsgd1na2vs0mg"},{"bike_id":"64df0b22-11d7-4411-9223-8037b97126e5","system_id":"levelo_inurba_marseille","lat":43.31529,"lon":5.38031,"is_reserved":false,"is_disabled":false,"rental_uris":{"android":"levelo://app?vid=64df0b22-11d7-4411-9223-8037b97126e5","ios":"levelo://app?vid=64df0b22-11d7-4411-9223-8037b97126e5"},"vehicle_type_id":"4","last_reported":1730178582,"current_range_meters":35200,"station_id":"ce4bhsp2rcd13ifvqi50","pricing_plan_id":"cebpf4jnsgd1na2vs0mg"},{"bike_id":"2eb33259-06bf-49ce-85cb-5256124b5f12","system_id":"levelo_inurba_marseille","lat":43.3016,"lon":5.38088,"is_reserved":false,"is_disabled":false,"rental_uris":{"android":"levelo://app?vid=2eb33259-06bf-49ce-85cb-5256124b5f12","ios":"levelo://app?vid=2eb33259-06bf-49ce-85cb-5256124b5f12"},"vehicle_type_id":"4","last_reported":1730178582,"current_range_meters":38800,"station_id":"ce4bgjp2rcd13ifvqbh0","pricing_plan_id":"cebpf4jnsgd1na2vs0mg"},{"bike_id":"edee228c-76f1-4f9d-b4f7-5773b8a0b850","system_id":"levelo_inurba_marseille","lat":43.23196,"lon":5.35557,"is_reserved":false,"is_disabled":false,"rental_uris":{"android":"levelo://app?vid=edee228c-76f1-4f9d-b4f7-5773b8a0b850","ios":"levelo://app?vid=edee228c-76f1-4f9d-b4f7-5773b8a0b850"},"vehicle_type_id":"4","last_reported":1730178582,"current_range_meters":20800,"station_id":"ce4bhu92rcd13ifvqi70","pricing_plan_id":"cebpf4jnsgd1na2vs0mg"},{"bike_id":"de64aefc-2736-480f-8f17-3a77ec3af0e8","system_id":"levelo_inurba_marseille","lat":43.25577,"lon":5.38238,"is_reserved":false,"is_disabled":false,"rental_uris":{"android":"levelo://app?vid=de64aefc-2736-480f-8f17-3a77ec3af0e8","ios":"levelo://app?vid=de64aefc-2736-480f-8f17-3a77ec3af0e8"},"vehicle_type_id":"4","last_reported":1730178582,"current_range_meters":38800,"station_id":"ce4bhih2rcd13ifvqfs0","pricing_plan_id":"cebpf4jnsgd1na2vs0mg"},{"bike_id":"343b87d6-7bc3-47bb-aa46-9d61479b7b91","system_id":"levelo_inurba_marseille","lat":43.31328,"lon":5.39697,"is_reserved":false,"is_disabled":false,"rental_uris":{"android":"levelo://app?vid=343b87d6-7bc3-47bb-aa46-9d61479b7b91","ios":"levelo://app?vid=343b87d6-7bc3-47bb-aa46-9d61479b7b91"},"vehicle_type_id":"4","last_reported":1730178582,"current_range_meters":26000,"station_id":"ce4bgvp2rcd13ifvqcu0","pricing_plan_id":"cebpf4jnsgd1na2vs0mg"},{"bike_id":"186ce089-32d5-439b-b76c-8a146c9531e6","system_id":"levelo_inurba_marseille","lat":43.30418,"lon":5.39746,"is_reserved":false,"is_disabled":false,"rental_uris":{"android":"levelo://app?vid=186ce089-32d5-439b-b76c-8a146c9531e6","ios":"levelo://app?vid=186ce089-32d5-439b-b76c-8a146c9531e6"},"vehicle_type_id":"4","last_reported":1730178582,"current_range_meters":24800,"station_id":"ce4bh092rcd13ifvqd20","pricing_plan_id":"cebpf4jnsgd1na2vs0mg"},{"bike_id":"261aa359-8b40-48f3-ae02-14cfa1843977","system_id":"levelo_inurba_marseille","lat":43.29729,"lon":5.37695,"is_reserved":false,"is_disabled":false,"rental_uris":{"android":"levelo://app?vid=261aa359-8b40-48f3-ae02-14cfa1843977","ios":"levelo://app?vid=261aa359-8b40-48f3-ae02-14cfa1843977"},"vehicle_type_id":"4","last_reported":1730178582,"current_range_meters":23200,"station_id":"ce4bgkh2rcd13ifvqbl0","pricing_plan_id":"cebpf4jnsgd1na2vs0mg"},{"bike_id":"27a3bee1-4ace-4ffd-b4ef-7e7fd88242e2","system_id":"levelo_inurba_marseille","lat":43.31119,"lon":5.37765,"is_reserved":false,"is_disabled":false,"rental_uris":{"android":"levelo://app?vid=27a3bee1-4ace-4ffd-b4ef-7e7fd88242e2","ios":"levelo://app?vid=27a3bee1-4ace-4ffd-b4ef-7e7fd88242e2"},"vehicle_type_id":"4","last_reported":1730178582,"current_range_meters":34800,"station_id":"ce4bgt92rcd13ifvqcg0","pricing_plan_id":"cebpf4jnsgd1na2vs0mg"},{"bike_id":"8ca04872-f5ac-4171-a8d0-c35675004919","system_id":"levelo_inurba_marseille","lat":43.28564,"lon":5.39507,"is_reserved":false,"is_disabled":false,"rental_uris":{"android":"levelo://app?vid=8ca04872-f5ac-4171-a8d0-c35675004919","ios":"levelo://app?vid=8ca04872-f5ac-4171-a8d0-c35675004919"},"vehicle_type_id":"4","last_reported":1730178582,"current_range_meters":29600,"station_id":"ce4bh292rcd13ifvqdg0","pricing_plan_id":"cebpf4jnsgd1na2vs0mg"},{"bike_id":"e3d27640-a7eb-4407-a3ae-d168fb29106a","system_id":"levelo_inurba_marseille","lat":43.31756,"lon":5.39023,"is_reserved":false,"is_disabled":false,"rental_uris":{"android":"levelo://app?vid=e3d27640-a7eb-4407-a3ae-d168fb29106a","ios":"levelo://app?vid=e3d27640-a7eb-4407-a3ae-d168fb29106a"},"vehicle_type_id":"4","last_reported":1730178582,"current_range_meters":38800,"station_id":"ce4bhqp2rcd13ifvqhng","pricing_plan_id":"cebpf4jnsgd1na2vs0mg"},{"bike_id":"cc4f48bc-1ebf-481e-a42a-ef03c2092f7c","system_id":"levelo_inurba_marseille","lat":43.27903,"lon":5.38005,"is_reserved":false,"is_disabled":false,"rental_uris":{"android":"levelo://app?vid=cc4f48bc-1ebf-481e-a42a-ef03c2092f7c","ios":"levelo://app?vid=cc4f48bc-1ebf-481e-a42a-ef03c2092f7c"},"vehicle_type_id":"4","last_reported":1730178582,"current_range_meters":38000,"station_id":"ce4bhf92rcd13ifvqf50","pricing_plan_id":"cebpf4jnsgd1na2vs0mg"},{"bike_id":"9de31693-0654-47b5-a08d-29bb01df2d3f","system_id":"levelo_inurba_marseille","lat":43.30325,"lon":5.40441,"is_reserved":false,"is_disabled":false,"rental_uris":{"android":"levelo://app?vid=9de31693-0654-47b5-a08d-29bb01df2d3f","ios":"levelo://app?vid=9de31693-0654-47b5-a08d-29bb01df2d3f"},"vehicle_type_id":"4","last_reported":1730178582,"current_range_meters":32400,"station_id":"ce4bh012rcd13ifvqd10","pricing_plan_id":"cebpf4jnsgd1na2vs0mg"},{"bike_id":"c8795ecf-f45c-49a4-b247-b398f70242b7","system_id":"levelo_inurba_marseille","lat":43.29902,"lon":5.43665,"is_reserved":false,"is_disabled":false,"rental_uris":{"android":"levelo://app?vid=c8795ecf-f45c-49a4-b247-b398f70242b7","ios":"levelo://app?vid=c8795ecf-f45c-49a4-b247-b398f70242b7"},"vehicle_type_id":"4","last_reported":1730178582,"current_range_meters":38800,"station_id":"ce4bhpp2rcd13ifvqhfg","pricing_plan_id":"cebpf4jnsgd1na2vs0mg"},{"bike_id":"5eff1ac8-06c8-4593-afd6-53fa404c7aba","system_id":"levelo_inurba_marseille","lat":43.295326,"lon":5.374943,"is_reserved":false,"is_disabled":false,"rental_uris":{"android":"levelo://app?vid=5eff1ac8-06c8-4593-afd6-53fa404c7aba","ios":"levelo://app?vid=5eff1ac8-06c8-4593-afd6-53fa404c7aba"},"vehicle_type_id":"4","last_reported":1730178582,"current_range_meters":38000,"station_id":"ce4bgkp2rcd13ifvqbmg","pricing_plan_id":"cebpf4jnsgd1na2vs0mg"},{"bike_id":"898c841e-ec28-4a62-acd7-785b5acde4a3","system_id":"levelo_inurba_marseille","lat":43.31892,"lon":5.40739,"is_reserved":false,"is_disabled":false,"rental_uris":{"android":"levelo://app?vid=898c841e-ec28-4a62-acd7-785b5acde4a3","ios":"levelo://app?vid=898c841e-ec28-4a62-acd7-785b5acde4a3"},"vehicle_type_id":"4","last_reported":1730178582,"current_range_meters":37600,"station_id":"ce4bhq12rcd13ifvqhig","pricing_plan_id":"cebpf4jnsgd1na2vs0mg"},{"bike_id":"2f921f60-1890-404a-898c-6dae28d2ff64","system_id":"levelo_inurba_marseille","lat":43.32109,"lon":5.36778,"is_reserved":false,"is_disabled":false,"rental_uris":{"android":"levelo://app?vid=2f921f60-1890-404a-898c-6dae28d2ff64","ios":"levelo://app?vid=2f921f60-1890-404a-898c-6dae28d2ff64"},"vehicle_type_id":"4","last_reported":1730178582,"current_range_meters":37600,"station_id":"ce4bhrh2rcd13ifvqhug","pricing_plan_id":"cebpf4jnsgd1na2vs0mg"},{"bike_id":"9b0ca825-3f39-445e-8fc4-a51d90608e79","system_id":"levelo_inurba_marseille","lat":43.27905,"lon":5.38013,"is_reserved":false,"is_disabled":false,"rental_uris":{"android":"levelo://app?vid=9b0ca825-3f39-445e-8fc4-a51d90608e79","ios":"levelo://app?vid=9b0ca825-3f39-445e-8fc4-a51d90608e79"},"vehicle_type_id":"4","last_reported":1730178582,"current_range_meters":38000,"station_id":"ce4bhf92rcd13ifvqf50","pricing_plan_id":"cebpf4jnsgd1na2vs0mg"},{"bike_id":"e0564415-2096-494d-a66c-842ec5dc9e1a","system_id":"levelo_inurba_marseille","lat":43.30427,"lon":5.39759,"is_reserved":false,"is_disabled":false,"rental_uris":{"android":"levelo://app?vid=e0564415-2096-494d-a66c-842ec5dc9e1a","ios":"levelo://app?vid=e0564415-2096-494d-a66c-842ec5dc9e1a"},"vehicle_type_id":"4","last_reported":1730178582,"current_range_meters":32800,"station_id":"ce4bh092rcd13ifvqd20","pricing_plan_id":"cebpf4jnsgd1na2vs0mg"},{"bike_id":"e7c28416-4a7f-4d06-99c7-70505e487027","system_id":"levelo_inurba_marseille","lat":43.29275,"lon":5.36835,"is_reserved":false,"is_disabled":false,"rental_uris":{"android":"levelo://app?vid=e7c28416-4a7f-4d06-99c7-70505e487027","ios":"levelo://app?vid=e7c28416-4a7f-4d06-99c7-70505e487027"},"vehicle_type_id":"4","last_reported":1730178582,"current_range_meters":38000,"station_id":"ce4bhbp2rcd13ifvqesg","pricing_plan_id":"cebpf4jnsgd1na2vs0mg"},{"bike_id":"b53b2426-9551-4aaa-9ad2-6b882ad6cc29","system_id":"levelo_inurba_marseille","lat":43.31696,"lon":5.40472,"is_reserved":false,"is_disabled":false,"rental_uris":{"android":"levelo://app?vid=b53b2426-9551-4aaa-9ad2-6b882ad6cc29","ios":"levelo://app?vid=b53b2426-9551-4aaa-9ad2-6b882ad6cc29"},"vehicle_type_id":"4","last_reported":1730178582,"current_range_meters":26800,"station_id":"ce4bh012rcd13ifvqd00","pricing_plan_id":"cebpf4jnsgd1na2vs0mg"},{"bike_id":"9989b398-ea1f-43b4-92f6-cb3a0e8d8247","system_id":"levelo_inurba_marseille","lat":43.31332,"lon":5.39694,"is_reserved":false,"is_disabled":false,"rental_uris":{"android":"levelo://app?vid=9989b398-ea1f-43b4-92f6-cb3a0e8d8247","ios":"levelo://app?vid=9989b398-ea1f-43b4-92f6-cb3a0e8d8247"},"vehicle_type_id":"4","last_reported":1730178582,"current_range_meters":38400,"station_id":"ce4bgvp2rcd13ifvqcu0","pricing_plan_id":"cebpf4jnsgd1na2vs0mg"},{"bike_id":"bafa5beb-324c-4b0f-a35e-2c8f7c6a1071","system_id":"levelo_inurba_marseille","lat":43.29866,"lon":5.39737,"is_reserved":false,"is_disabled":false,"rental_uris":{"android":"levelo://app?vid=bafa5beb-324c-4b0f-a35e-2c8f7c6a1071","ios":"levelo://app?vid=bafa5beb-324c-4b0f-a35e-2c8f7c6a1071"},"vehicle_type_id":"4","last_reported":1730178582,"current_range_meters":16000,"station_id":"ce4bh0h2rcd13ifvqd50","pricing_plan_id":"cebpf4jnsgd1na2vs0mg"},{"bike_id":"adcee44e-aff8-4933-88fe-bae99cafa494","system_id":"levelo_inurba_marseille","lat":43.23963,"lon":5.36642,"is_reserved":false,"is_disabled":false,"rental_uris":{"android":"levelo://app?vid=adcee44e-aff8-4933-88fe-bae99cafa494","ios":"levelo://app?vid=adcee44e-aff8-4933-88fe-bae99cafa494"},"vehicle_type_id":"4","last_reported":1730178582,"current_range_meters":32000,"station_id":"ce4bhi12rcd13ifvqfp0","pricing_plan_id":"cebpf4jnsgd1na2vs0mg"},{"bike_id":"be8f9378-5b19-499d-9ce5-3881043b071a","system_id":"levelo_inurba_marseille","lat":43.33614,"lon":5.41029,"is_reserved":false,"is_disabled":false,"rental_uris":{"android":"levelo://app?vid=be8f9378-5b19-499d-9ce5-3881043b071a","ios":"levelo://app?vid=be8f9378-5b19-499d-9ce5-3881043b071a"},"vehicle_type_id":"4","last_reported":1730178582,"current_range_meters":30400,"station_id":"ce4bhqh2rcd13ifvqhmg","pricing_plan_id":"cebpf4jnsgd1na2vs0mg"},{"bike_id":"3c083404-e2d9-48d5-a2d9-71da6b37319f","system_id":"levelo_inurba_marseille","lat":43.28154,"lon":5.42645,"is_reserved":false,"is_disabled":false,"rental_uris":{"android":"levelo://app?vid=3c083404-e2d9-48d5-a2d9-71da6b37319f","ios":"levelo://app?vid=3c083404-e2d9-48d5-a2d9-71da6b37319f"},"vehicle_type_id":"4","last_reported":1730178582,"current_range_meters":39200,"station_id":"ce4bhnh2rcd13ifvqgug","pricing_plan_id":"cebpf4jnsgd1na2vs0mg"},{"bike_id":"84b84779-113d-453c-9e02-492dc687744d","system_id":"levelo_inurba_marseille","lat":43.300939,"lon":5.390744,"is_reserved":false,"is_disabled":false,"rental_uris":{"android":"levelo://app?vid=84b84779-113d-453c-9e02-492dc687744d","ios":"levelo://app?vid=84b84779-113d-453c-9e02-492dc687744d"},"vehicle_type_id":"4","last_reported":1730178582,"current_range_meters":26000,"station_id":"ce4bh192rcd13ifvqdb0","pricing_plan_id":"cebpf4jnsgd1na2vs0mg"},{"bike_id":"4ef1724b-a751-4520-baf6-8a6ea2261038","system_id":"levelo_inurba_marseille","lat":43.31761,"lon":5.39017,"is_reserved":false,"is_disabled":false,"rental_uris":{"android":"levelo://app?vid=4ef1724b-a751-4520-baf6-8a6ea2261038","ios":"levelo://app?vid=4ef1724b-a751-4520-baf6-8a6ea2261038"},"vehicle_type_id":"4","last_reported":1730178582,"current_range_meters":25200,"station_id":"ce4bhqp2rcd13ifvqhng","pricing_plan_id":"cebpf4jnsgd1na2vs0mg"},{"bike_id":"4f4bf255-9d1a-4a0e-9a11-a04474ca4160","system_id":"levelo_inurba_marseille","lat":43.27174,"lon":5.4099,"is_reserved":false,"is_disabled":false,"rental_uris":{"android":"levelo://app?vid=4f4bf255-9d1a-4a0e-9a11-a04474ca4160","ios":"levelo://app?vid=4f4bf255-9d1a-4a0e-9a11-a04474ca4160"},"vehicle_type_id":"4","last_reported":1730178582,"current_range_meters":38800,"station_id":"ce4bhl12rcd13ifvqgf0","pricing_plan_id":"cebpf4jnsgd1na2vs0mg"},{"bike_id":"d9d4a298-8acd-4d1c-8825-3408f5f02c5a","system_id":"levelo_inurba_marseille","lat":43.308,"lon":5.43523,"is_reserved":false,"is_disabled":false,"rental_uris":{"android":"levelo://app?vid=d9d4a298-8acd-4d1c-8825-3408f5f02c5a","ios":"levelo://app?vid=d9d4a298-8acd-4d1c-8825-3408f5f02c5a"},"vehicle_type_id":"4","last_reported":1730178582,"current_range_meters":37600,"station_id":"ce4bhph2rcd13ifvqheg","pricing_plan_id":"cebpf4jnsgd1na2vs0mg"},{"bike_id":"3596a464-c770-4ebd-b1e2-e40084414ba9","system_id":"levelo_inurba_marseille","lat":43.23183,"lon":5.3999,"is_reserved":false,"is_disabled":false,"rental_uris":{"android":"levelo://app?vid=3596a464-c770-4ebd-b1e2-e40084414ba9","ios":"levelo://app?vid=3596a464-c770-4ebd-b1e2-e40084414ba9"},"vehicle_type_id":"4","last_reported":1730178582,"current_range_meters":38400,"station_id":"ce4bhn12rcd13ifvqgqg","pricing_plan_id":"cebpf4jnsgd1na2vs0mg"},{"bike_id":"df61b96c-b629-4fb1-8a4b-d3354e3de566","system_id":"levelo_inurba_marseille","lat":43.28272,"lon":5.35072,"is_reserved":false,"is_disabled":false,"rental_uris":{"android":"levelo://app?vid=df61b96c-b629-4fb1-8a4b-d3354e3de566","ios":"levelo://app?vid=df61b96c-b629-4fb1-8a4b-d3354e3de566"},"vehicle_type_id":"4","last_reported":1730178582,"current_range_meters":38000,"station_id":"ce4bhbp2rcd13ifvqerg","pricing_plan_id":"cebpf4jnsgd1na2vs0mg"},{"bike_id":"8ca46cee-b4b4-4785-9443-08a4f0e441ac","system_id":"levelo_inurba_marseille","lat":43.3078,"lon":5.37652,"is_reserved":false,"is_disabled":false,"rental_uris":{"android":"levelo://app?vid=8ca46cee-b4b4-4785-9443-08a4f0e441ac","ios":"levelo://app?vid=8ca46cee-b4b4-4785-9443-08a4f0e441ac"},"vehicle_type_id":"4","last_reported":1730178582,"current_range_meters":26800,"station_id":"ce4bgv92rcd13ifvqcq0","pricing_plan_id":"cebpf4jnsgd1na2vs0mg"},{"bike_id":"468aa9c7-6f8e-48c3-85e9-d3d7a1cdcc52","system_id":"levelo_inurba_marseille","lat":43.27111,"lon":5.40301,"is_reserved":false,"is_disabled":false,"rental_uris":{"android":"levelo://app?vid=468aa9c7-6f8e-48c3-85e9-d3d7a1cdcc52","ios":"levelo://app?vid=468aa9c7-6f8e-48c3-85e9-d3d7a1cdcc52"},"vehicle_type_id":"4","last_reported":1730178582,"current_range_meters":30400,"station_id":"","pricing_plan_id":"cebpf4jnsgd1na2vs0mg"},{"bike_id":"af5ed467-da4b-4ac6-9878-3fb6218b79c3","system_id":"levelo_inurba_marseille","lat":43.28933,"lon":5.36633,"is_reserved":false,"is_disabled":false,"rental_uris":{"android":"levelo://app?vid=af5ed467-da4b-4ac6-9878-3fb6218b79c3","ios":"levelo://app?vid=af5ed467-da4b-4ac6-9878-3fb6218b79c3"},"vehicle_type_id":"4","last_reported":1730178582,"current_range_meters":38800,"station_id":"ce4bhap2rcd13ifvqek0","pricing_plan_id":"cebpf4jnsgd1na2vs0mg"},{"bike_id":"fe9754d8-37d8-43d3-8346-c5b8041ea467","system_id":"levelo_inurba_marseille","lat":43.306496,"lon":5.400682,"is_reserved":false,"is_disabled":false,"rental_uris":{"android":"levelo://app?vid=fe9754d8-37d8-43d3-8346-c5b8041ea467","ios":"levelo://app?vid=fe9754d8-37d8-43d3-8346-c5b8041ea467"},"vehicle_type_id":"4","last_reported":1730178582,"current_range_meters":35600,"station_id":"ce4bh112rcd13ifvqda0","pricing_plan_id":"cebpf4jnsgd1na2vs0mg"},{"bike_id":"4d1fd0a4-ed41-4d3d-af7c-2191d7e78249","system_id":"levelo_inurba_marseille","lat":43.27829,"lon":5.39214,"is_reserved":false,"is_disabled":false,"rental_uris":{"android":"levelo://app?vid=4d1fd0a4-ed41-4d3d-af7c-2191d7e78249","ios":"levelo://app?vid=4d1fd0a4-ed41-4d3d-af7c-2191d7e78249"},"vehicle_type_id":"4","last_reported":1730178582,"current_range_meters":17600,"station_id":"ce4bhjp2rcd13ifvqga0","pricing_plan_id":"cebpf4jnsgd1na2vs0mg"},{"bike_id":"77cb55b9-befc-4438-9ba0-92a2678dd5ea","system_id":"levelo_inurba_marseille","lat":43.28465,"lon":5.35878,"is_reserved":false,"is_disabled":false,"rental_uris":{"android":"levelo://app?vid=77cb55b9-befc-4438-9ba0-92a2678dd5ea","ios":"levelo://app?vid=77cb55b9-befc-4438-9ba0-92a2678dd5ea"},"vehicle_type_id":"4","last_reported":1730178582,"current_range_meters":24400,"station_id":"ce4bhah2rcd13ifvqei0","pricing_plan_id":"cebpf4jnsgd1na2vs0mg"},{"bike_id":"a8921c98-5919-4f64-bcfb-877e8a77a7f4","system_id":"levelo_inurba_marseille","lat":43.24393,"lon":5.37051,"is_reserved":false,"is_disabled":false,"rental_uris":{"android":"levelo://app?vid=a8921c98-5919-4f64-bcfb-877e8a77a7f4","ios":"levelo://app?vid=a8921c98-5919-4f64-bcfb-877e8a77a7f4"},"vehicle_type_id":"4","last_reported":1730178582,"current_range_meters":37600,"station_id":"ce4bhhh2rcd13ifvqfk0","pricing_plan_id":"cebpf4jnsgd1na2vs0mg"},{"bike_id":"fe0f4ad9-8221-48ed-be5d-c64547a2f47a","system_id":"levelo_inurba_marseille","lat":43.28625,"lon":5.38353,"is_reserved":false,"is_disabled":false,"rental_uris":{"android":"levelo://app?vid=fe0f4ad9-8221-48ed-be5d-c64547a2f47a","ios":"levelo://app?vid=fe0f4ad9-8221-48ed-be5d-c64547a2f47a"},"vehicle_type_id":"4","last_reported":1730178582,"current_range_meters":17600,"station_id":"ce4bh4p2rcd13ifvqe1g","pricing_plan_id":"cebpf4jnsgd1na2vs0mg"},{"bike_id":"3a623379-12f7-480b-8a9e-8b6b1addda7f","system_id":"levelo_inurba_marseille","lat":43.29903,"lon":5.37468,"is_reserved":false,"is_disabled":false,"rental_uris":{"android":"levelo://app?vid=3a623379-12f7-480b-8a9e-8b6b1addda7f","ios":"levelo://app?vid=3a623379-12f7-480b-8a9e-8b6b1addda7f"},"vehicle_type_id":"4","last_reported":1730178582,"current_range_meters":38800,"station_id":"ce4bgjh2rcd13ifvqbg0","pricing_plan_id":"cebpf4jnsgd1na2vs0mg"},{"bike_id":"95a0b55b-c5e7-457d-a4e9-41be027a3aeb","system_id":"levelo_inurba_marseille","lat":43.27179,"lon":5.40999,"is_reserved":false,"is_disabled":false,"rental_uris":{"android":"levelo://app?vid=95a0b55b-c5e7-457d-a4e9-41be027a3aeb","ios":"levelo://app?vid=95a0b55b-c5e7-457d-a4e9-41be027a3aeb"},"vehicle_type_id":"4","last_reported":1730178582,"current_range_meters":38000,"station_id":"ce4bhl12rcd13ifvqgf0","pricing_plan_id":"cebpf4jnsgd1na2vs0mg"},{"bike_id":"6161ee4d-3bd9-4b36-a4d7-867c052bdc22","system_id":"levelo_inurba_marseille","lat":43.32042,"lon":5.4155,"is_reserved":false,"is_disabled":false,"rental_uris":{"android":"levelo://app?vid=6161ee4d-3bd9-4b36-a4d7-867c052bdc22","ios":"levelo://app?vid=6161ee4d-3bd9-4b36-a4d7-867c052bdc22"},"vehicle_type_id":"4","last_reported":1730178582,"current_range_meters":36400,"station_id":"ce4bhq92rcd13ifvqhkg","pricing_plan_id":"cebpf4jnsgd1na2vs0mg"},{"bike_id":"a846678d-cd93-4890-9fdc-977c67090280","system_id":"levelo_inurba_marseille","lat":43.28408,"lon":5.37511,"is_reserved":false,"is_disabled":false,"rental_uris":{"android":"levelo://app?vid=a846678d-cd93-4890-9fdc-977c67090280","ios":"levelo://app?vid=a846678d-cd93-4890-9fdc-977c67090280"},"vehicle_type_id":"4","last_reported":1730178582,"current_range_meters":26800,"station_id":"ce4bh412rcd13ifvqds0","pricing_plan_id":"cebpf4jnsgd1na2vs0mg"},{"bike_id":"4bcd1886-adca-47f0-b11a-c93bb04ae42e","system_id":"levelo_inurba_marseille","lat":43.281026,"lon":5.378413,"is_reserved":false,"is_disabled":false,"rental_uris":{"android":"levelo://app?vid=4bcd1886-adca-47f0-b11a-c93bb04ae42e","ios":"levelo://app?vid=4bcd1886-adca-47f0-b11a-c93bb04ae42e"},"vehicle_type_id":"4","last_reported":1730178582,"current_range_meters":30800,"station_id":"ce4bha12rcd13ifvqee0","pricing_plan_id":"cebpf4jnsgd1na2vs0mg"},{"bike_id":"c103f3cf-a699-4d79-9cc1-df1ab22121e9","system_id":"levelo_inurba_marseille","lat":43.286603,"lon":5.363498,"is_reserved":false,"is_disabled":false,"rental_uris":{"android":"levelo://app?vid=c103f3cf-a699-4d79-9cc1-df1ab22121e9","ios":"levelo://app?vid=c103f3cf-a699-4d79-9cc1-df1ab22121e9"},"vehicle_type_id":"4","last_reported":1730178582,"current_range_meters":33600,"station_id":"ce4bhah2rcd13ifvqej0","pricing_plan_id":"cebpf4jnsgd1na2vs0mg"},{"bike_id":"21b0d405-022c-4046-9483-b0c711fb60b5","system_id":"levelo_inurba_marseille","lat":43.29552,"lon":5.42285,"is_reserved":false,"is_disabled":false,"rental_uris":{"android":"levelo://app?vid=21b0d405-022c-4046-9483-b0c711fb60b5","ios":"levelo://app?vid=21b0d405-022c-4046-9483-b0c711fb60b5"},"vehicle_type_id":"4","last_reported":1730178582,"current_range_meters":38800,"station_id":"ce4bhph2rcd13ifvqhdg","pricing_plan_id":"cebpf4jnsgd1na2vs0mg"},{"bike_id":"42fb0cf3-ff30-4940-b460-48fc20458231","system_id":"levelo_inurba_marseille","lat":43.31117,"lon":5.37771,"is_reserved":false,"is_disabled":false,"rental_uris":{"android":"levelo://app?vid=42fb0cf3-ff30-4940-b460-48fc20458231","ios":"levelo://app?vid=42fb0cf3-ff30-4940-b460-48fc20458231"},"vehicle_type_id":"4","last_reported":1730178582,"current_range_meters":38800,"station_id":"ce4bgt92rcd13ifvqcg0","pricing_plan_id":"cebpf4jnsgd1na2vs0mg"},{"bike_id":"b3c95314-deff-4948-8213-391859cbe57d","system_id":"levelo_inurba_marseille","lat":43.29567,"lon":5.39977,"is_reserved":false,"is_disabled":false,"rental_uris":{"android":"levelo://app?vid=b3c95314-deff-4948-8213-391859cbe57d","ios":"levelo://app?vid=b3c95314-deff-4948-8213-391859cbe57d"},"vehicle_type_id":"4","last_reported":1730178582,"current_range_meters":38400,"station_id":"ce4bh312rcd13ifvqdj0","pricing_plan_id":"cebpf4jnsgd1na2vs0mg"},{"bike_id":"133acd97-0649-4b1c-9d4d-f00ef10062a4","system_id":"levelo_inurba_marseille","lat":43.301573,"lon":5.3807,"is_reserved":false,"is_disabled":false,"rental_uris":{"android":"levelo://app?vid=133acd97-0649-4b1c-9d4d-f00ef10062a4","ios":"levelo://app?vid=133acd97-0649-4b1c-9d4d-f00ef10062a4"},"vehicle_type_id":"4","last_reported":1730178582,"current_range_meters":36400,"station_id":"ce4bgjp2rcd13ifvqbh0","pricing_plan_id":"cebpf4jnsgd1na2vs0mg"},{"bike_id":"674e6e66-391e-4a7b-a2f1-c4555285cb9e","system_id":"levelo_inurba_marseille","lat":43.31071,"lon":5.38358,"is_reserved":false,"is_disabled":false,"rental_uris":{"android":"levelo://app?vid=674e6e66-391e-4a7b-a2f1-c4555285cb9e","ios":"levelo://app?vid=674e6e66-391e-4a7b-a2f1-c4555285cb9e"},"vehicle_type_id":"4","last_reported":1730178582,"current_range_meters":10800,"station_id":"ce4bgv92rcd13ifvqcr0","pricing_plan_id":"cebpf4jnsgd1na2vs0mg"},{"bike_id":"3f218860-2066-43e2-aa51-ec73febafd27","system_id":"levelo_inurba_marseille","lat":43.32057,"lon":5.41545,"is_reserved":false,"is_disabled":false,"rental_uris":{"android":"levelo://app?vid=3f218860-2066-43e2-aa51-ec73febafd27","ios":"levelo://app?vid=3f218860-2066-43e2-aa51-ec73febafd27"},"vehicle_type_id":"4","last_reported":1730178582,"current_range_meters":38000,"station_id":"ce4bhq92rcd13ifvqhkg","pricing_plan_id":"cebpf4jnsgd1na2vs0mg"},{"bike_id":"a3232012-fec1-44cd-9f21-0f3bd3439eac","system_id":"levelo_inurba_marseille","lat":43.2894,"lon":5.39627,"is_reserved":false,"is_disabled":false,"rental_uris":{"android":"levelo://app?vid=a3232012-fec1-44cd-9f21-0f3bd3439eac","ios":"levelo://app?vid=a3232012-fec1-44cd-9f21-0f3bd3439eac"},"vehicle_type_id":"4","last_reported":1730178582,"current_range_meters":38400,"station_id":"ce4bh3h2rcd13ifvqdn0","pricing_plan_id":"cebpf4jnsgd1na2vs0mg"},{"bike_id":"76f2154f-aca9-4400-9712-31e97cca02c3","system_id":"levelo_inurba_marseille","lat":43.28154,"lon":5.42647,"is_reserved":false,"is_disabled":false,"rental_uris":{"android":"levelo://app?vid=76f2154f-aca9-4400-9712-31e97cca02c3","ios":"levelo://app?vid=76f2154f-aca9-4400-9712-31e97cca02c3"},"vehicle_type_id":"4","last_reported":1730178582,"current_range_meters":39200,"station_id":"ce4bhnh2rcd13ifvqgug","pricing_plan_id":"cebpf4jnsgd1na2vs0mg"},{"bike_id":"7edaf7fe-1abb-43ad-bf45-23e93d3c6287","system_id":"levelo_inurba_marseille","lat":43.25826,"lon":5.39429,"is_reserved":false,"is_disabled":false,"rental_uris":{"android":"levelo://app?vid=7edaf7fe-1abb-43ad-bf45-23e93d3c6287","ios":"levelo://app?vid=7edaf7fe-1abb-43ad-bf45-23e93d3c6287"},"vehicle_type_id":"4","last_reported":1730178582,"current_range_meters":38800,"station_id":"ce4bhip2rcd13ifvqft0","pricing_plan_id":"cebpf4jnsgd1na2vs0mg"},{"bike_id":"af9ef057-20de-4b60-bf0a-29043b54ec58","system_id":"levelo_inurba_marseille","lat":43.29871,"lon":5.39753,"is_reserved":false,"is_disabled":false,"rental_uris":{"android":"levelo://app?vid=af9ef057-20de-4b60-bf0a-29043b54ec58","ios":"levelo://app?vid=af9ef057-20de-4b60-bf0a-29043b54ec58"},"vehicle_type_id":"4","last_reported":1730178582,"current_range_meters":8400,"station_id":"ce4bh0h2rcd13ifvqd50","pricing_plan_id":"cebpf4jnsgd1na2vs0mg"},{"bike_id":"a53c049f-6f82-47cf-8dbf-2be4ba325c3b","system_id":"levelo_inurba_marseille","lat":43.28157,"lon":5.42637,"is_reserved":false,"is_disabled":false,"rental_uris":{"android":"levelo://app?vid=a53c049f-6f82-47cf-8dbf-2be4ba325c3b","ios":"levelo://app?vid=a53c049f-6f82-47cf-8dbf-2be4ba325c3b"},"vehicle_type_id":"4","last_reported":1730178582,"current_range_meters":38400,"station_id":"ce4bhnh2rcd13ifvqgug","pricing_plan_id":"cebpf4jnsgd1na2vs0mg"},{"bike_id":"e5eeca8e-eae6-4ded-8e97-461d735497ca","system_id":"levelo_inurba_marseille","lat":43.30129,"lon":5.38042,"is_reserved":false,"is_disabled":false,"rental_uris":{"android":"levelo://app?vid=e5eeca8e-eae6-4ded-8e97-461d735497ca","ios":"levelo://app?vid=e5eeca8e-eae6-4ded-8e97-461d735497ca"},"vehicle_type_id":"4","last_reported":1730178582,"current_range_meters":28000,"station_id":"ce4bgjp2rcd13ifvqbh0","pricing_plan_id":"cebpf4jnsgd1na2vs0mg"},{"bike_id":"5c0efbde-35a1-4eee-9df5-13014e555547","system_id":"levelo_inurba_marseille","lat":43.2826,"lon":5.35071,"is_reserved":false,"is_disabled":false,"rental_uris":{"android":"levelo://app?vid=5c0efbde-35a1-4eee-9df5-13014e555547","ios":"levelo://app?vid=5c0efbde-35a1-4eee-9df5-13014e555547"},"vehicle_type_id":"4","last_reported":1730178582,"current_range_meters":38800,"station_id":"ce4bhbp2rcd13ifvqerg","pricing_plan_id":"cebpf4jnsgd1na2vs0mg"},{"bike_id":"c83bf92a-895e-4031-90cc-0a4806604b3f","system_id":"levelo_inurba_marseille","lat":43.23054,"lon":5.35494,"is_reserved":false,"is_disabled":false,"rental_uris":{"android":"levelo://app?vid=c83bf92a-895e-4031-90cc-0a4806604b3f","ios":"levelo://app?vid=c83bf92a-895e-4031-90cc-0a4806604b3f"},"vehicle_type_id":"4","last_reported":1730178582,"current_range_meters":33600,"station_id":"cpo3342slgdg3j2ifvpg","pricing_plan_id":"cebpf4jnsgd1na2vs0mg"},{"bike_id":"e65a07c9-739d-441d-83e2-45b8a6caa16d","system_id":"levelo_inurba_marseille","lat":43.29278,"lon":5.36837,"is_reserved":false,"is_disabled":false,"rental_uris":{"android":"levelo://app?vid=e65a07c9-739d-441d-83e2-45b8a6caa16d","ios":"levelo://app?vid=e65a07c9-739d-441d-83e2-45b8a6caa16d"},"vehicle_type_id":"4","last_reported":1730178582,"current_range_meters":37600,"station_id":"ce4bhbp2rcd13ifvqesg","pricing_plan_id":"cebpf4jnsgd1na2vs0mg"},{"bike_id":"3f4e9f7d-d364-447b-b7a3-5938ab5df8c4","system_id":"levelo_inurba_marseille","lat":43.3248,"lon":5.36561,"is_reserved":false,"is_disabled":false,"rental_uris":{"android":"levelo://app?vid=3f4e9f7d-d364-447b-b7a3-5938ab5df8c4","ios":"levelo://app?vid=3f4e9f7d-d364-447b-b7a3-5938ab5df8c4"},"vehicle_type_id":"4","last_reported":1730178582,"current_range_meters":40000,"station_id":"ce4bhs12rcd13ifvqhvg","pricing_plan_id":"cebpf4jnsgd1na2vs0mg"},{"bike_id":"9fd56fad-5f3d-42b4-b491-7b57b76bc0cf","system_id":"levelo_inurba_marseille","lat":43.27816,"lon":5.40719,"is_reserved":false,"is_disabled":false,"rental_uris":{"android":"levelo://app?vid=9fd56fad-5f3d-42b4-b491-7b57b76bc0cf","ios":"levelo://app?vid=9fd56fad-5f3d-42b4-b491-7b57b76bc0cf"},"vehicle_type_id":"4","last_reported":1730178582,"current_range_meters":12000,"station_id":"ce4bhnh2rcd13ifvqgtg","pricing_plan_id":"cebpf4jnsgd1na2vs0mg"},{"bike_id":"d84610d6-c6a3-4a38-822d-08ccd78292c6","system_id":"levelo_inurba_marseille","lat":43.289364,"lon":5.363903,"is_reserved":false,"is_disabled":false,"rental_uris":{"android":"levelo://app?vid=d84610d6-c6a3-4a38-822d-08ccd78292c6","ios":"levelo://app?vid=d84610d6-c6a3-4a38-822d-08ccd78292c6"},"vehicle_type_id":"4","last_reported":1730178582,"current_range_meters":38400,"station_id":"ce4bhc92rcd13ifvqetg","pricing_plan_id":"cebpf4jnsgd1na2vs0mg"},{"bike_id":"29e730b5-77d0-469f-aebb-f8f3daf3000c","system_id":"levelo_inurba_marseille","lat":43.24661,"lon":5.38157,"is_reserved":false,"is_disabled":false,"rental_uris":{"android":"levelo://app?vid=29e730b5-77d0-469f-aebb-f8f3daf3000c","ios":"levelo://app?vid=29e730b5-77d0-469f-aebb-f8f3daf3000c"},"vehicle_type_id":"4","last_reported":1730178582,"current_range_meters":24000,"station_id":"ce4bhih2rcd13ifvqfr0","pricing_plan_id":"cebpf4jnsgd1na2vs0mg"},{"bike_id":"d223370f-7cb9-467f-bd3e-fc947a59a2c5","system_id":"levelo_inurba_marseille","lat":43.27941,"lon":5.41047,"is_reserved":false,"is_disabled":false,"rental_uris":{"android":"levelo://app?vid=d223370f-7cb9-467f-bd3e-fc947a59a2c5","ios":"levelo://app?vid=d223370f-7cb9-467f-bd3e-fc947a59a2c5"},"vehicle_type_id":"4","last_reported":1730178582,"current_range_meters":38800,"station_id":"ce4bhnp2rcd13ifvqh0g","pricing_plan_id":"cebpf4jnsgd1na2vs0mg"},{"bike_id":"20a12424-6dfc-45c9-bdf5-00a6b092680a","system_id":"levelo_inurba_marseille","lat":43.24078,"lon":5.37756,"is_reserved":false,"is_disabled":false,"rental_uris":{"android":"levelo://app?vid=20a12424-6dfc-45c9-bdf5-00a6b092680a","ios":"levelo://app?vid=20a12424-6dfc-45c9-bdf5-00a6b092680a"},"vehicle_type_id":"4","last_reported":1730178582,"current_range_meters":16400,"station_id":"ce4bhnp2rcd13ifvqgvg","pricing_plan_id":"cebpf4jnsgd1na2vs0mg"},{"bike_id":"be140c2c-9e9f-4116-823c-bebf1b666941","system_id":"levelo_inurba_marseille","lat":43.27902,"lon":5.38003,"is_reserved":false,"is_disabled":false,"rental_uris":{"android":"levelo://app?vid=be140c2c-9e9f-4116-823c-bebf1b666941","ios":"levelo://app?vid=be140c2c-9e9f-4116-823c-bebf1b666941"},"vehicle_type_id":"4","last_reported":1730178582,"current_range_meters":38800,"station_id":"ce4bhf92rcd13ifvqf50","pricing_plan_id":"cebpf4jnsgd1na2vs0mg"},{"bike_id":"4d0afaed-40df-4176-86e2-9618783b2643","system_id":"levelo_inurba_marseille","lat":43.29632,"lon":5.406,"is_reserved":false,"is_disabled":false,"rental_uris":{"android":"levelo://app?vid=4d0afaed-40df-4176-86e2-9618783b2643","ios":"levelo://app?vid=4d0afaed-40df-4176-86e2-9618783b2643"},"vehicle_type_id":"4","last_reported":1730178582,"current_range_meters":38800,"station_id":"ce4bh0h2rcd13ifvqd60","pricing_plan_id":"cebpf4jnsgd1na2vs0mg"},{"bike_id":"84fb256a-a8e2-4be8-a18b-9ab2318d1bb4","system_id":"levelo_inurba_marseille","lat":43.26206,"lon":5.37446,"is_reserved":false,"is_disabled":false,"rental_uris":{"android":"levelo://app?vid=84fb256a-a8e2-4be8-a18b-9ab2318d1bb4","ios":"levelo://app?vid=84fb256a-a8e2-4be8-a18b-9ab2318d1bb4"},"vehicle_type_id":"4","last_reported":1730178582,"current_range_meters":24000,"station_id":"ce4bhgp2rcd13ifvqfc0","pricing_plan_id":"cebpf4jnsgd1na2vs0mg"},{"bike_id":"be646fbc-67f8-483e-b8fd-535fa4778f30","system_id":"levelo_inurba_marseille","lat":43.31167,"lon":5.38711,"is_reserved":false,"is_disabled":false,"rental_uris":{"android":"levelo://app?vid=be646fbc-67f8-483e-b8fd-535fa4778f30","ios":"levelo://app?vid=be646fbc-67f8-483e-b8fd-535fa4778f30"},"vehicle_type_id":"4","last_reported":1730178582,"current_range_meters":38800,"station_id":"ce4bgv12rcd13ifvqcp0","pricing_plan_id":"cebpf4jnsgd1na2vs0mg"},{"bike_id":"88ccc8fa-7cb9-45ca-9121-dbcf779c5cac","system_id":"levelo_inurba_marseille","lat":43.31171,"lon":5.38707,"is_reserved":false,"is_disabled":false,"rental_uris":{"android":"levelo://app?vid=88ccc8fa-7cb9-45ca-9121-dbcf779c5cac","ios":"levelo://app?vid=88ccc8fa-7cb9-45ca-9121-dbcf779c5cac"},"vehicle_type_id":"4","last_reported":1730178582,"current_range_meters":37600,"station_id":"ce4bgv12rcd13ifvqcp0","pricing_plan_id":"cebpf4jnsgd1na2vs0mg"},{"bike_id":"2aa747f4-2815-4a3e-80ef-62b5d775fd2a","system_id":"levelo_inurba_marseille","lat":43.2718,"lon":5.40998,"is_reserved":false,"is_disabled":false,"rental_uris":{"android":"levelo://app?vid=2aa747f4-2815-4a3e-80ef-62b5d775fd2a","ios":"levelo://app?vid=2aa747f4-2815-4a3e-80ef-62b5d775fd2a"},"vehicle_type_id":"4","last_reported":1730178582,"current_range_meters":38800,"station_id":"ce4bhl12rcd13ifvqgf0","pricing_plan_id":"cebpf4jnsgd1na2vs0mg"},{"bike_id":"89edad0c-1a5e-4c25-9928-9dd1aef30274","system_id":"levelo_inurba_marseille","lat":43.295349,"lon":5.385528,"is_reserved":false,"is_disabled":false,"rental_uris":{"android":"levelo://app?vid=89edad0c-1a5e-4c25-9928-9dd1aef30274","ios":"levelo://app?vid=89edad0c-1a5e-4c25-9928-9dd1aef30274"},"vehicle_type_id":"4","last_reported":1730178582,"current_range_meters":37600,"station_id":"ce4bgih2rcd13ifvqba0","pricing_plan_id":"cebpf4jnsgd1na2vs0mg"},{"bike_id":"3f8626e1-e8a4-4f10-9a3b-b01695500b9e","system_id":"levelo_inurba_marseille","lat":43.29254,"lon":5.40902,"is_reserved":false,"is_disabled":false,"rental_uris":{"android":"levelo://app?vid=3f8626e1-e8a4-4f10-9a3b-b01695500b9e","ios":"levelo://app?vid=3f8626e1-e8a4-4f10-9a3b-b01695500b9e"},"vehicle_type_id":"4","last_reported":1730178582,"current_range_meters":38400,"station_id":"ce4bh192rcd13ifvqdc0","pricing_plan_id":"cebpf4jnsgd1na2vs0mg"},{"bike_id":"eb6a465d-c852-44cf-a56e-63c0c90f1e20","system_id":"levelo_inurba_marseille","lat":43.30419,"lon":5.41276,"is_reserved":false,"is_disabled":false,"rental_uris":{"android":"levelo://app?vid=eb6a465d-c852-44cf-a56e-63c0c90f1e20","ios":"levelo://app?vid=eb6a465d-c852-44cf-a56e-63c0c90f1e20"},"vehicle_type_id":"4","last_reported":1730178582,"current_range_meters":21600,"station_id":"ce4bhop2rcd13ifvqh8g","pricing_plan_id":"cebpf4jnsgd1na2vs0mg"},{"bike_id":"d7130213-5f63-4734-a5d3-ec784fc960ee","system_id":"levelo_inurba_marseille","lat":43.28432,"lon":5.36053,"is_reserved":false,"is_disabled":false,"rental_uris":{"android":"levelo://app?vid=d7130213-5f63-4734-a5d3-ec784fc960ee","ios":"levelo://app?vid=d7130213-5f63-4734-a5d3-ec784fc960ee"},"vehicle_type_id":"4","last_reported":1730178582,"current_range_meters":10000,"station_id":"","pricing_plan_id":"cebpf4jnsgd1na2vs0mg"},{"bike_id":"afaf4ca1-8396-4b07-88c1-0668a05183a6","system_id":"levelo_inurba_marseille","lat":43.28722,"lon":5.36099,"is_reserved":false,"is_disabled":false,"rental_uris":{"android":"levelo://app?vid=afaf4ca1-8396-4b07-88c1-0668a05183a6","ios":"levelo://app?vid=afaf4ca1-8396-4b07-88c1-0668a05183a6"},"vehicle_type_id":"4","last_reported":1730178582,"current_range_meters":38800,"station_id":"cki0cbj6b192h4jlfktg","pricing_plan_id":"cebpf4jnsgd1na2vs0mg"},{"bike_id":"23672e5b-050f-4837-a454-e50245d17695","system_id":"levelo_inurba_marseille","lat":43.31704,"lon":5.37769,"is_reserved":false,"is_disabled":false,"rental_uris":{"android":"levelo://app?vid=23672e5b-050f-4837-a454-e50245d17695","ios":"levelo://app?vid=23672e5b-050f-4837-a454-e50245d17695"},"vehicle_type_id":"4","last_reported":1730178582,"current_range_meters":37600,"station_id":"ce4bgth2rcd13ifvqch0","pricing_plan_id":"cebpf4jnsgd1na2vs0mg"},{"bike_id":"7d448865-89d6-47db-9acc-4a303dfc59b2","system_id":"levelo_inurba_marseille","lat":43.30279,"lon":5.37699,"is_reserved":false,"is_disabled":false,"rental_uris":{"android":"levelo://app?vid=7d448865-89d6-47db-9acc-4a303dfc59b2","ios":"levelo://app?vid=7d448865-89d6-47db-9acc-4a303dfc59b2"},"vehicle_type_id":"4","last_reported":1730178582,"current_range_meters":34800,"station_id":"ce4bguh2rcd13ifvqcj0","pricing_plan_id":"cebpf4jnsgd1na2vs0mg"},{"bike_id":"d868f3f0-cf27-49d5-8f8c-0755c399ba13","system_id":"levelo_inurba_marseille","lat":43.30418,"lon":5.41285,"is_reserved":false,"is_disabled":false,"rental_uris":{"android":"levelo://app?vid=d868f3f0-cf27-49d5-8f8c-0755c399ba13","ios":"levelo://app?vid=d868f3f0-cf27-49d5-8f8c-0755c399ba13"},"vehicle_type_id":"4","last_reported":1730178582,"current_range_meters":30000,"station_id":"ce4bhop2rcd13ifvqh8g","pricing_plan_id":"cebpf4jnsgd1na2vs0mg"},{"bike_id":"8ff214c0-7c27-4a71-8a7a-6fc7b318ca0e","system_id":"levelo_inurba_marseille","lat":43.30792,"lon":5.38136,"is_reserved":false,"is_disabled":false,"rental_uris":{"android":"levelo://app?vid=8ff214c0-7c27-4a71-8a7a-6fc7b318ca0e","ios":"levelo://app?vid=8ff214c0-7c27-4a71-8a7a-6fc7b318ca0e"},"vehicle_type_id":"4","last_reported":1730178582,"current_range_meters":37600,"station_id":"ce4bgt12rcd13ifvqce0","pricing_plan_id":"cebpf4jnsgd1na2vs0mg"},{"bike_id":"6eeb570e-5001-43cc-b0b1-007d89caa70a","system_id":"levelo_inurba_marseille","lat":43.29438,"lon":5.39745,"is_reserved":false,"is_disabled":false,"rental_uris":{"android":"levelo://app?vid=6eeb570e-5001-43cc-b0b1-007d89caa70a","ios":"levelo://app?vid=6eeb570e-5001-43cc-b0b1-007d89caa70a"},"vehicle_type_id":"4","last_reported":1730178582,"current_range_meters":19200,"station_id":"ce4bh3h2rcd13ifvqdo0","pricing_plan_id":"cebpf4jnsgd1na2vs0mg"},{"bike_id":"483a242c-ff66-4b30-9b1e-99fa173f6f27","system_id":"levelo_inurba_marseille","lat":43.28103,"lon":5.3785,"is_reserved":false,"is_disabled":false,"rental_uris":{"android":"levelo://app?vid=483a242c-ff66-4b30-9b1e-99fa173f6f27","ios":"levelo://app?vid=483a242c-ff66-4b30-9b1e-99fa173f6f27"},"vehicle_type_id":"4","last_reported":1730178582,"current_range_meters":36400,"station_id":"ce4bha12rcd13ifvqee0","pricing_plan_id":"cebpf4jnsgd1na2vs0mg"},{"bike_id":"8c481f3d-6b8d-4cff-9fe9-4866a2d5404c","system_id":"levelo_inurba_marseille","lat":43.311713,"lon":5.387144,"is_reserved":false,"is_disabled":false,"rental_uris":{"android":"levelo://app?vid=8c481f3d-6b8d-4cff-9fe9-4866a2d5404c","ios":"levelo://app?vid=8c481f3d-6b8d-4cff-9fe9-4866a2d5404c"},"vehicle_type_id":"4","last_reported":1730178582,"current_range_meters":38800,"station_id":"ce4bgv12rcd13ifvqcp0","pricing_plan_id":"cebpf4jnsgd1na2vs0mg"},{"bike_id":"0767fba8-2acc-437e-85a2-d8e45257d9b6","system_id":"levelo_inurba_marseille","lat":43.31328,"lon":5.39695,"is_reserved":false,"is_disabled":false,"rental_uris":{"android":"levelo://app?vid=0767fba8-2acc-437e-85a2-d8e45257d9b6","ios":"levelo://app?vid=0767fba8-2acc-437e-85a2-d8e45257d9b6"},"vehicle_type_id":"4","last_reported":1730178582,"current_range_meters":37600,"station_id":"ce4bgvp2rcd13ifvqcu0","pricing_plan_id":"cebpf4jnsgd1na2vs0mg"},{"bike_id":"27e569e3-fc00-4e2e-b17d-bba008711c06","system_id":"levelo_inurba_marseille","lat":43.24803,"lon":5.37452,"is_reserved":false,"is_disabled":false,"rental_uris":{"android":"levelo://app?vid=27e569e3-fc00-4e2e-b17d-bba008711c06","ios":"levelo://app?vid=27e569e3-fc00-4e2e-b17d-bba008711c06"},"vehicle_type_id":"4","last_reported":1730178582,"current_range_meters":37600,"station_id":"ce4bhgh2rcd13ifvqfb0","pricing_plan_id":"cebpf4jnsgd1na2vs0mg"},{"bike_id":"f7a50275-88a4-4be4-ac33-5cce1242cfaa","system_id":"levelo_inurba_marseille","lat":43.31657,"lon":5.37687,"is_reserved":false,"is_disabled":false,"rental_uris":{"android":"levelo://app?vid=f7a50275-88a4-4be4-ac33-5cce1242cfaa","ios":"levelo://app?vid=f7a50275-88a4-4be4-ac33-5cce1242cfaa"},"vehicle_type_id":"4","last_reported":1730178582,"current_range_meters":36000,"station_id":"","pricing_plan_id":"cebpf4jnsgd1na2vs0mg"},{"bike_id":"69d3a6e2-3f07-40ef-bdf0-53e5bd3677a3","system_id":"levelo_inurba_marseille","lat":43.28698,"lon":5.39979,"is_reserved":false,"is_disabled":false,"rental_uris":{"android":"levelo://app?vid=69d3a6e2-3f07-40ef-bdf0-53e5bd3677a3","ios":"levelo://app?vid=69d3a6e2-3f07-40ef-bdf0-53e5bd3677a3"},"vehicle_type_id":"4","last_reported":1730178582,"current_range_meters":38800,"station_id":"ce4bho92rcd13ifvqh3g","pricing_plan_id":"cebpf4jnsgd1na2vs0mg"},{"bike_id":"c60fcbfa-5bba-48ae-bafc-8dcd56afe436","system_id":"levelo_inurba_marseille","lat":43.286644,"lon":5.36351,"is_reserved":false,"is_disabled":false,"rental_uris":{"android":"levelo://app?vid=c60fcbfa-5bba-48ae-bafc-8dcd56afe436","ios":"levelo://app?vid=c60fcbfa-5bba-48ae-bafc-8dcd56afe436"},"vehicle_type_id":"4","last_reported":1730178582,"current_range_meters":38000,"station_id":"ce4bhah2rcd13ifvqej0","pricing_plan_id":"cebpf4jnsgd1na2vs0mg"},{"bike_id":"23084cca-de0d-4f37-80ab-37ba6326d16d","system_id":"levelo_inurba_marseille","lat":43.28417,"lon":5.37519,"is_reserved":false,"is_disabled":false,"rental_uris":{"android":"levelo://app?vid=23084cca-de0d-4f37-80ab-37ba6326d16d","ios":"levelo://app?vid=23084cca-de0d-4f37-80ab-37ba6326d16d"},"vehicle_type_id":"4","last_reported":1730178582,"current_range_meters":36000,"station_id":"ce4bh412rcd13ifvqds0","pricing_plan_id":"cebpf4jnsgd1na2vs0mg"},{"bike_id":"3ae749c1-46ed-4d6f-8a2b-05668312da6a","system_id":"levelo_inurba_marseille","lat":43.25101,"lon":5.40321,"is_reserved":false,"is_disabled":false,"rental_uris":{"android":"levelo://app?vid=3ae749c1-46ed-4d6f-8a2b-05668312da6a","ios":"levelo://app?vid=3ae749c1-46ed-4d6f-8a2b-05668312da6a"},"vehicle_type_id":"4","last_reported":1730178582,"current_range_meters":16800,"station_id":"ce4bhlh2rcd13ifvqgig","pricing_plan_id":"cebpf4jnsgd1na2vs0mg"},{"bike_id":"9f0a823c-0a23-47d1-8e59-da94a117ebff","system_id":"levelo_inurba_marseille","lat":43.28662,"lon":5.36357,"is_reserved":false,"is_disabled":false,"rental_uris":{"android":"levelo://app?vid=9f0a823c-0a23-47d1-8e59-da94a117ebff","ios":"levelo://app?vid=9f0a823c-0a23-47d1-8e59-da94a117ebff"},"vehicle_type_id":"4","last_reported":1730178582,"current_range_meters":38800,"station_id":"ce4bhah2rcd13ifvqej0","pricing_plan_id":"cebpf4jnsgd1na2vs0mg"},{"bike_id":"4a7d2e78-51b9-46d2-bf89-98a48709d13a","system_id":"levelo_inurba_marseille","lat":43.31719,"lon":5.42404,"is_reserved":false,"is_disabled":false,"rental_uris":{"android":"levelo://app?vid=4a7d2e78-51b9-46d2-bf89-98a48709d13a","ios":"levelo://app?vid=4a7d2e78-51b9-46d2-bf89-98a48709d13a"},"vehicle_type_id":"4","last_reported":1730178582,"current_range_meters":39200,"station_id":"ce4bhp92rcd13ifvqhbg","pricing_plan_id":"cebpf4jnsgd1na2vs0mg"},{"bike_id":"bdad40da-4714-4179-a84e-4bbe5a2c808e","system_id":"levelo_inurba_marseille","lat":43.268147,"lon":5.411201,"is_reserved":false,"is_disabled":false,"rental_uris":{"android":"levelo://app?vid=bdad40da-4714-4179-a84e-4bbe5a2c808e","ios":"levelo://app?vid=bdad40da-4714-4179-a84e-4bbe5a2c808e"},"vehicle_type_id":"4","last_reported":1730178582,"current_range_meters":21600,"station_id":"","pricing_plan_id":"cebpf4jnsgd1na2vs0mg"},{"bike_id":"922c716d-f63f-4828-a50f-f7d856e817c5","system_id":"levelo_inurba_marseille","lat":43.29572,"lon":5.37513,"is_reserved":false,"is_disabled":false,"rental_uris":{"android":"levelo://app?vid=922c716d-f63f-4828-a50f-f7d856e817c5","ios":"levelo://app?vid=922c716d-f63f-4828-a50f-f7d856e817c5"},"vehicle_type_id":"4","last_reported":1730178582,"current_range_meters":38000,"station_id":"ce4bgh92rcd13ifvqb50","pricing_plan_id":"cebpf4jnsgd1na2vs0mg"},{"bike_id":"0c53382f-83fb-45ec-871d-d4e880c7383e","system_id":"levelo_inurba_marseille","lat":43.27995,"lon":5.40032,"is_reserved":false,"is_disabled":false,"rental_uris":{"android":"levelo://app?vid=0c53382f-83fb-45ec-871d-d4e880c7383e","ios":"levelo://app?vid=0c53382f-83fb-45ec-871d-d4e880c7383e"},"vehicle_type_id":"4","last_reported":1730178582,"current_range_meters":11200,"station_id":"ce4bho92rcd13ifvqh4g","pricing_plan_id":"cebpf4jnsgd1na2vs0mg"},{"bike_id":"fbc27b08-f101-4599-8f6b-beb812780993","system_id":"levelo_inurba_marseille","lat":43.29895,"lon":5.43666,"is_reserved":false,"is_disabled":false,"rental_uris":{"android":"levelo://app?vid=fbc27b08-f101-4599-8f6b-beb812780993","ios":"levelo://app?vid=fbc27b08-f101-4599-8f6b-beb812780993"},"vehicle_type_id":"4","last_reported":1730178582,"current_range_meters":39200,"station_id":"ce4bhpp2rcd13ifvqhfg","pricing_plan_id":"cebpf4jnsgd1na2vs0mg"},{"bike_id":"9b425178-757c-443e-ad64-22be8ad6f322","system_id":"levelo_inurba_marseille","lat":43.288519,"lon":5.358498,"is_reserved":false,"is_disabled":false,"rental_uris":{"android":"levelo://app?vid=9b425178-757c-443e-ad64-22be8ad6f322","ios":"levelo://app?vid=9b425178-757c-443e-ad64-22be8ad6f322"},"vehicle_type_id":"4","last_reported":1730178582,"current_range_meters":38000,"station_id":"ce4bhb12rcd13ifvqem0","pricing_plan_id":"cebpf4jnsgd1na2vs0mg"},{"bike_id":"6f487d93-ed54-4bc3-8917-f0af52bd63dd","system_id":"levelo_inurba_marseille","lat":43.27915,"lon":5.39579,"is_reserved":false,"is_disabled":false,"rental_uris":{"android":"levelo://app?vid=6f487d93-ed54-4bc3-8917-f0af52bd63dd","ios":"levelo://app?vid=6f487d93-ed54-4bc3-8917-f0af52bd63dd"},"vehicle_type_id":"4","last_reported":1730178582,"current_range_meters":6000,"station_id":"ce4bhf92rcd13ifvqf40","pricing_plan_id":"cebpf4jnsgd1na2vs0mg"},{"bike_id":"eadfee46-9822-40ad-8cda-cc07633b3b78","system_id":"levelo_inurba_marseille","lat":43.279026,"lon":5.380086,"is_reserved":false,"is_disabled":false,"rental_uris":{"android":"levelo://app?vid=eadfee46-9822-40ad-8cda-cc07633b3b78","ios":"levelo://app?vid=eadfee46-9822-40ad-8cda-cc07633b3b78"},"vehicle_type_id":"4","last_reported":1730178582,"current_range_meters":37600,"station_id":"ce4bhf92rcd13ifvqf50","pricing_plan_id":"cebpf4jnsgd1na2vs0mg"},{"bike_id":"9befed88-9f8c-464c-b07b-093bd97066bb","system_id":"levelo_inurba_marseille","lat":43.29805,"lon":5.37136,"is_reserved":false,"is_disabled":false,"rental_uris":{"android":"levelo://app?vid=9befed88-9f8c-464c-b07b-093bd97066bb","ios":"levelo://app?vid=9befed88-9f8c-464c-b07b-093bd97066bb"},"vehicle_type_id":"4","last_reported":1730178582,"current_range_meters":12000,"station_id":"","pricing_plan_id":"cebpf4jnsgd1na2vs0mg"},{"bike_id":"c8a92740-2b09-4ca5-9043-1ba83935e34d","system_id":"levelo_inurba_marseille","lat":43.24391,"lon":5.37065,"is_reserved":false,"is_disabled":false,"rental_uris":{"android":"levelo://app?vid=c8a92740-2b09-4ca5-9043-1ba83935e34d","ios":"levelo://app?vid=c8a92740-2b09-4ca5-9043-1ba83935e34d"},"vehicle_type_id":"4","last_reported":1730178582,"current_range_meters":38400,"station_id":"ce4bhhh2rcd13ifvqfk0","pricing_plan_id":"cebpf4jnsgd1na2vs0mg"},{"bike_id":"f9b128ce-498f-42c7-bec6-83e99e8e3eaa","system_id":"levelo_inurba_marseille","lat":43.25724,"lon":5.41103,"is_reserved":false,"is_disabled":false,"rental_uris":{"android":"levelo://app?vid=f9b128ce-498f-42c7-bec6-83e99e8e3eaa","ios":"levelo://app?vid=f9b128ce-498f-42c7-bec6-83e99e8e3eaa"},"vehicle_type_id":"4","last_reported":1730178582,"current_range_meters":37600,"station_id":"ce4bhkp2rcd13ifvqgd0","pricing_plan_id":"cebpf4jnsgd1na2vs0mg"},{"bike_id":"d89738db-46f7-4419-afe9-5c262921f5df","system_id":"levelo_inurba_marseille","lat":43.26212,"lon":5.37443,"is_reserved":false,"is_disabled":false,"rental_uris":{"android":"levelo://app?vid=d89738db-46f7-4419-afe9-5c262921f5df","ios":"levelo://app?vid=d89738db-46f7-4419-afe9-5c262921f5df"},"vehicle_type_id":"4","last_reported":1730178582,"current_range_meters":28800,"station_id":"ce4bhgp2rcd13ifvqfc0","pricing_plan_id":"cebpf4jnsgd1na2vs0mg"},{"bike_id":"2939a545-bf49-4ac9-84eb-69dd8138616a","system_id":"levelo_inurba_marseille","lat":43.27171,"lon":5.40999,"is_reserved":false,"is_disabled":false,"rental_uris":{"android":"levelo://app?vid=2939a545-bf49-4ac9-84eb-69dd8138616a","ios":"levelo://app?vid=2939a545-bf49-4ac9-84eb-69dd8138616a"},"vehicle_type_id":"4","last_reported":1730178582,"current_range_meters":38800,"station_id":"ce4bhl12rcd13ifvqgf0","pricing_plan_id":"cebpf4jnsgd1na2vs0mg"},{"bike_id":"2de29851-ae7c-4f1b-8124-871379c2cd77","system_id":"levelo_inurba_marseille","lat":43.28697,"lon":5.37383,"is_reserved":false,"is_disabled":false,"rental_uris":{"android":"levelo://app?vid=2de29851-ae7c-4f1b-8124-871379c2cd77","ios":"levelo://app?vid=2de29851-ae7c-4f1b-8124-871379c2cd77"},"vehicle_type_id":"4","last_reported":1730178582,"current_range_meters":38800,"station_id":"ce4bh3p2rcd13ifvqdq0","pricing_plan_id":"cebpf4jnsgd1na2vs0mg"},{"bike_id":"f9a2aa18-615d-43f8-9a19-eb948e242e45","system_id":"levelo_inurba_marseille","lat":43.24999,"lon":5.38919,"is_reserved":false,"is_disabled":false,"rental_uris":{"android":"levelo://app?vid=f9a2aa18-615d-43f8-9a19-eb948e242e45","ios":"levelo://app?vid=f9a2aa18-615d-43f8-9a19-eb948e242e45"},"vehicle_type_id":"4","last_reported":1730178582,"current_range_meters":38800,"station_id":"ce4bhgp2rcd13ifvqfd0","pricing_plan_id":"cebpf4jnsgd1na2vs0mg"},{"bike_id":"1641e2d9-e39a-4f2a-a551-3a59775f9162","system_id":"levelo_inurba_marseille","lat":43.32482,"lon":5.36572,"is_reserved":false,"is_disabled":false,"rental_uris":{"android":"levelo://app?vid=1641e2d9-e39a-4f2a-a551-3a59775f9162","ios":"levelo://app?vid=1641e2d9-e39a-4f2a-a551-3a59775f9162"},"vehicle_type_id":"4","last_reported":1730178582,"current_range_meters":12800,"station_id":"ce4bhs12rcd13ifvqhvg","pricing_plan_id":"cebpf4jnsgd1na2vs0mg"},{"bike_id":"1edf7652-196f-4b08-a478-4680fe6f3c76","system_id":"levelo_inurba_marseille","lat":43.33603,"lon":5.41034,"is_reserved":false,"is_disabled":false,"rental_uris":{"android":"levelo://app?vid=1edf7652-196f-4b08-a478-4680fe6f3c76","ios":"levelo://app?vid=1edf7652-196f-4b08-a478-4680fe6f3c76"},"vehicle_type_id":"4","last_reported":1730178582,"current_range_meters":36000,"station_id":"ce4bhqh2rcd13ifvqhmg","pricing_plan_id":"cebpf4jnsgd1na2vs0mg"},{"bike_id":"99be546e-23a0-4a8f-897d-f4ebd4b3bc15","system_id":"levelo_inurba_marseille","lat":43.27377,"lon":5.36253,"is_reserved":false,"is_disabled":false,"rental_uris":{"android":"levelo://app?vid=99be546e-23a0-4a8f-897d-f4ebd4b3bc15","ios":"levelo://app?vid=99be546e-23a0-4a8f-897d-f4ebd4b3bc15"},"vehicle_type_id":"4","last_reported":1730178582,"current_range_meters":38400,"station_id":"ce4bhbh2rcd13ifvqeo0","pricing_plan_id":"cebpf4jnsgd1na2vs0mg"},{"bike_id":"5e918a46-16d8-438e-88a0-86a0e45c5e53","system_id":"levelo_inurba_marseille","lat":43.25115,"lon":5.40313,"is_reserved":false,"is_disabled":false,"rental_uris":{"android":"levelo://app?vid=5e918a46-16d8-438e-88a0-86a0e45c5e53","ios":"levelo://app?vid=5e918a46-16d8-438e-88a0-86a0e45c5e53"},"vehicle_type_id":"4","last_reported":1730178582,"current_range_meters":16800,"station_id":"ce4bhlh2rcd13ifvqgig","pricing_plan_id":"cebpf4jnsgd1na2vs0mg"},{"bike_id":"844023ff-6d0b-454c-9110-ed149a7ecdf3","system_id":"levelo_inurba_marseille","lat":43.336131,"lon":5.410296,"is_reserved":false,"is_disabled":false,"rental_uris":{"android":"levelo://app?vid=844023ff-6d0b-454c-9110-ed149a7ecdf3","ios":"levelo://app?vid=844023ff-6d0b-454c-9110-ed149a7ecdf3"},"vehicle_type_id":"4","last_reported":1730178582,"current_range_meters":18000,"station_id":"ce4bhqh2rcd13ifvqhmg","pricing_plan_id":"cebpf4jnsgd1na2vs0mg"},{"bike_id":"6967ff5b-04da-439b-aacc-0ed05cc002bb","system_id":"levelo_inurba_marseille","lat":43.28573,"lon":5.39501,"is_reserved":false,"is_disabled":false,"rental_uris":{"android":"levelo://app?vid=6967ff5b-04da-439b-aacc-0ed05cc002bb","ios":"levelo://app?vid=6967ff5b-04da-439b-aacc-0ed05cc002bb"},"vehicle_type_id":"4","last_reported":1730178582,"current_range_meters":39200,"station_id":"ce4bh292rcd13ifvqdg0","pricing_plan_id":"cebpf4jnsgd1na2vs0mg"},{"bike_id":"db407270-14e4-450d-916b-188e766022fd","system_id":"levelo_inurba_marseille","lat":43.28078,"lon":5.39646,"is_reserved":false,"is_disabled":false,"rental_uris":{"android":"levelo://app?vid=db407270-14e4-450d-916b-188e766022fd","ios":"levelo://app?vid=db407270-14e4-450d-916b-188e766022fd"},"vehicle_type_id":"4","last_reported":1730178582,"current_range_meters":18000,"station_id":"ce4bho12rcd13ifvqh2g","pricing_plan_id":"cebpf4jnsgd1na2vs0mg"},{"bike_id":"a1d4c5e8-df12-4372-bde5-940110035ad1","system_id":"levelo_inurba_marseille","lat":43.28076,"lon":5.39657,"is_reserved":false,"is_disabled":false,"rental_uris":{"android":"levelo://app?vid=a1d4c5e8-df12-4372-bde5-940110035ad1","ios":"levelo://app?vid=a1d4c5e8-df12-4372-bde5-940110035ad1"},"vehicle_type_id":"4","last_reported":1730178582,"current_range_meters":34800,"station_id":"ce4bho12rcd13ifvqh2g","pricing_plan_id":"cebpf4jnsgd1na2vs0mg"},{"bike_id":"1b0fd3f0-29d5-4908-8ab9-1a00b8883aba","system_id":"levelo_inurba_marseille","lat":43.30882,"lon":5.39643,"is_reserved":false,"is_disabled":false,"rental_uris":{"android":"levelo://app?vid=1b0fd3f0-29d5-4908-8ab9-1a00b8883aba","ios":"levelo://app?vid=1b0fd3f0-29d5-4908-8ab9-1a00b8883aba"},"vehicle_type_id":"4","last_reported":1730178582,"current_range_meters":38400,"station_id":"ce4bh012rcd13ifvqcv0","pricing_plan_id":"cebpf4jnsgd1na2vs0mg"},{"bike_id":"86af7185-af18-474c-bcb9-202fb450d530","system_id":"levelo_inurba_marseille","lat":43.28366,"lon":5.38625,"is_reserved":false,"is_disabled":false,"rental_uris":{"android":"levelo://app?vid=86af7185-af18-474c-bcb9-202fb450d530","ios":"levelo://app?vid=86af7185-af18-474c-bcb9-202fb450d530"},"vehicle_type_id":"4","last_reported":1730178582,"current_range_meters":38800,"station_id":"ce4bh492rcd13ifvqdvg","pricing_plan_id":"cebpf4jnsgd1na2vs0mg"},{"bike_id":"2413689d-b755-4b99-9b90-eaec7177d920","system_id":"levelo_inurba_marseille","lat":43.28853,"lon":5.39327,"is_reserved":false,"is_disabled":false,"rental_uris":{"android":"levelo://app?vid=2413689d-b755-4b99-9b90-eaec7177d920","ios":"levelo://app?vid=2413689d-b755-4b99-9b90-eaec7177d920"},"vehicle_type_id":"4","last_reported":1730178582,"current_range_meters":38800,"station_id":"ce4bh2p2rcd13ifvqdi0","pricing_plan_id":"cebpf4jnsgd1na2vs0mg"},{"bike_id":"bf0f96cf-0556-405e-a53d-bf2cceb406fb","system_id":"levelo_inurba_marseille","lat":43.28708,"lon":5.37387,"is_reserved":false,"is_disabled":false,"rental_uris":{"android":"levelo://app?vid=bf0f96cf-0556-405e-a53d-bf2cceb406fb","ios":"levelo://app?vid=bf0f96cf-0556-405e-a53d-bf2cceb406fb"},"vehicle_type_id":"4","last_reported":1730178582,"current_range_meters":38800,"station_id":"ce4bh3p2rcd13ifvqdq0","pricing_plan_id":"cebpf4jnsgd1na2vs0mg"},{"bike_id":"fff69dbf-830d-44dc-bc3c-d07af40c1894","system_id":"levelo_inurba_marseille","lat":43.29035,"lon":5.35916,"is_reserved":false,"is_disabled":false,"rental_uris":{"android":"levelo://app?vid=fff69dbf-830d-44dc-bc3c-d07af40c1894","ios":"levelo://app?vid=fff69dbf-830d-44dc-bc3c-d07af40c1894"},"vehicle_type_id":"4","last_reported":1730178582,"current_range_meters":37600,"station_id":"ce4bha92rcd13ifvqeg0","pricing_plan_id":"cebpf4jnsgd1na2vs0mg"},{"bike_id":"073ffdc0-da83-4fc2-9e5e-14f7cab57d05","system_id":"levelo_inurba_marseille","lat":43.24386,"lon":5.37059,"is_reserved":false,"is_disabled":false,"rental_uris":{"android":"levelo://app?vid=073ffdc0-da83-4fc2-9e5e-14f7cab57d05","ios":"levelo://app?vid=073ffdc0-da83-4fc2-9e5e-14f7cab57d05"},"vehicle_type_id":"4","last_reported":1730178582,"current_range_meters":24400,"station_id":"ce4bhhh2rcd13ifvqfk0","pricing_plan_id":"cebpf4jnsgd1na2vs0mg"},{"bike_id":"d59aa319-34fa-4d80-9f02-8177e87beeed","system_id":"levelo_inurba_marseille","lat":43.30252,"lon":5.40067,"is_reserved":false,"is_disabled":false,"rental_uris":{"android":"levelo://app?vid=d59aa319-34fa-4d80-9f02-8177e87beeed","ios":"levelo://app?vid=d59aa319-34fa-4d80-9f02-8177e87beeed"},"vehicle_type_id":"4","last_reported":1730178582,"current_range_meters":38800,"station_id":"ce4bgvh2rcd13ifvqcs0","pricing_plan_id":"cebpf4jnsgd1na2vs0mg"},{"bike_id":"e31650d1-6313-4c09-96ff-bc5a7403b852","system_id":"levelo_inurba_marseille","lat":43.323303,"lon":5.406317,"is_reserved":false,"is_disabled":false,"rental_uris":{"android":"levelo://app?vid=e31650d1-6313-4c09-96ff-bc5a7403b852","ios":"levelo://app?vid=e31650d1-6313-4c09-96ff-bc5a7403b852"},"vehicle_type_id":"4","last_reported":1730178582,"current_range_meters":36800,"station_id":"ce4bhq92rcd13ifvqhjg","pricing_plan_id":"cebpf4jnsgd1na2vs0mg"},{"bike_id":"aefac986-b0c6-43dd-b63b-a00cd751d12d","system_id":"levelo_inurba_marseille","lat":43.32,"lon":5.38149,"is_reserved":false,"is_disabled":false,"rental_uris":{"android":"levelo://app?vid=aefac986-b0c6-43dd-b63b-a00cd751d12d","ios":"levelo://app?vid=aefac986-b0c6-43dd-b63b-a00cd751d12d"},"vehicle_type_id":"4","last_reported":1730178582,"current_range_meters":38800,"station_id":"ce4bhr12rcd13ifvqhpg","pricing_plan_id":"cebpf4jnsgd1na2vs0mg"},{"bike_id":"f581e29b-f342-4b13-9690-dc98c45a898a","system_id":"levelo_inurba_marseille","lat":43.28668,"lon":5.36359,"is_reserved":false,"is_disabled":false,"rental_uris":{"android":"levelo://app?vid=f581e29b-f342-4b13-9690-dc98c45a898a","ios":"levelo://app?vid=f581e29b-f342-4b13-9690-dc98c45a898a"},"vehicle_type_id":"4","last_reported":1730178582,"current_range_meters":39200,"station_id":"ce4bhah2rcd13ifvqej0","pricing_plan_id":"cebpf4jnsgd1na2vs0mg"},{"bike_id":"35181493-5177-48df-a63d-55d3e2261bc4","system_id":"levelo_inurba_marseille","lat":43.29572,"lon":5.399639,"is_reserved":false,"is_disabled":false,"rental_uris":{"android":"levelo://app?vid=35181493-5177-48df-a63d-55d3e2261bc4","ios":"levelo://app?vid=35181493-5177-48df-a63d-55d3e2261bc4"},"vehicle_type_id":"4","last_reported":1730178582,"current_range_meters":37600,"station_id":"ce4bh312rcd13ifvqdj0","pricing_plan_id":"cebpf4jnsgd1na2vs0mg"},{"bike_id":"6468957c-fe8a-44d7-975a-fb56f0ee7113","system_id":"levelo_inurba_marseille","lat":43.28697,"lon":5.39989,"is_reserved":false,"is_disabled":false,"rental_uris":{"android":"levelo://app?vid=6468957c-fe8a-44d7-975a-fb56f0ee7113","ios":"levelo://app?vid=6468957c-fe8a-44d7-975a-fb56f0ee7113"},"vehicle_type_id":"4","last_reported":1730178582,"current_range_meters":12000,"station_id":"ce4bho92rcd13ifvqh3g","pricing_plan_id":"cebpf4jnsgd1na2vs0mg"},{"bike_id":"139e4e14-3acd-4926-be2a-8abda0d038a3","system_id":"levelo_inurba_marseille","lat":43.30137,"lon":5.39873,"is_reserved":false,"is_disabled":false,"rental_uris":{"android":"levelo://app?vid=139e4e14-3acd-4926-be2a-8abda0d038a3","ios":"levelo://app?vid=139e4e14-3acd-4926-be2a-8abda0d038a3"},"vehicle_type_id":"4","last_reported":1730178582,"current_range_meters":28000,"station_id":"ce4bh0h2rcd13ifvqd40","pricing_plan_id":"cebpf4jnsgd1na2vs0mg"},{"bike_id":"a115272b-d982-443a-87c0-8ebb7cafe252","system_id":"levelo_inurba_marseille","lat":43.24075,"lon":5.37756,"is_reserved":false,"is_disabled":false,"rental_uris":{"android":"levelo://app?vid=a115272b-d982-443a-87c0-8ebb7cafe252","ios":"levelo://app?vid=a115272b-d982-443a-87c0-8ebb7cafe252"},"vehicle_type_id":"4","last_reported":1730178582,"current_range_meters":11600,"station_id":"ce4bhnp2rcd13ifvqgvg","pricing_plan_id":"cebpf4jnsgd1na2vs0mg"},{"bike_id":"6e02245b-3fe7-4986-b229-7be88c6f2495","system_id":"levelo_inurba_marseille","lat":43.31277,"lon":5.40179,"is_reserved":false,"is_disabled":false,"rental_uris":{"android":"levelo://app?vid=6e02245b-3fe7-4986-b229-7be88c6f2495","ios":"levelo://app?vid=6e02245b-3fe7-4986-b229-7be88c6f2495"},"vehicle_type_id":"4","last_reported":1730178582,"current_range_meters":28000,"station_id":"ce4bh092rcd13ifvqd30","pricing_plan_id":"cebpf4jnsgd1na2vs0mg"},{"bike_id":"abd8feae-cf8c-479c-8edb-90d1ade1578c","system_id":"levelo_inurba_marseille","lat":43.31759,"lon":5.3902,"is_reserved":false,"is_disabled":false,"rental_uris":{"android":"levelo://app?vid=abd8feae-cf8c-479c-8edb-90d1ade1578c","ios":"levelo://app?vid=abd8feae-cf8c-479c-8edb-90d1ade1578c"},"vehicle_type_id":"4","last_reported":1730178582,"current_range_meters":24400,"station_id":"ce4bhqp2rcd13ifvqhng","pricing_plan_id":"cebpf4jnsgd1na2vs0mg"},{"bike_id":"03a6f70c-355c-46ae-b6c0-70b30c1b1dd1","system_id":"levelo_inurba_marseille","lat":43.31108,"lon":5.37771,"is_reserved":false,"is_disabled":false,"rental_uris":{"android":"levelo://app?vid=03a6f70c-355c-46ae-b6c0-70b30c1b1dd1","ios":"levelo://app?vid=03a6f70c-355c-46ae-b6c0-70b30c1b1dd1"},"vehicle_type_id":"4","last_reported":1730178582,"current_range_meters":10800,"station_id":"ce4bgt92rcd13ifvqcg0","pricing_plan_id":"cebpf4jnsgd1na2vs0mg"},{"bike_id":"aedbb7ee-0feb-429e-9595-415a8019a609","system_id":"levelo_inurba_marseille","lat":43.28702,"lon":5.39987,"is_reserved":false,"is_disabled":false,"rental_uris":{"android":"levelo://app?vid=aedbb7ee-0feb-429e-9595-415a8019a609","ios":"levelo://app?vid=aedbb7ee-0feb-429e-9595-415a8019a609"},"vehicle_type_id":"4","last_reported":1730178582,"current_range_meters":38800,"station_id":"ce4bho92rcd13ifvqh3g","pricing_plan_id":"cebpf4jnsgd1na2vs0mg"},{"bike_id":"7e30e268-ecec-4fd2-be52-8b3863ce97d7","system_id":"levelo_inurba_marseille","lat":43.30471,"lon":5.371,"is_reserved":false,"is_disabled":false,"rental_uris":{"android":"levelo://app?vid=7e30e268-ecec-4fd2-be52-8b3863ce97d7","ios":"levelo://app?vid=7e30e268-ecec-4fd2-be52-8b3863ce97d7"},"vehicle_type_id":"4","last_reported":1730178582,"current_range_meters":15200,"station_id":"","pricing_plan_id":"cebpf4jnsgd1na2vs0mg"},{"bike_id":"30673776-1e3b-4da6-ba79-4f7467860f37","system_id":"levelo_inurba_marseille","lat":43.30893,"lon":5.39631,"is_reserved":false,"is_disabled":false,"rental_uris":{"android":"levelo://app?vid=30673776-1e3b-4da6-ba79-4f7467860f37","ios":"levelo://app?vid=30673776-1e3b-4da6-ba79-4f7467860f37"},"vehicle_type_id":"4","last_reported":1730178582,"current_range_meters":32800,"station_id":"ce4bh012rcd13ifvqcv0","pricing_plan_id":"cebpf4jnsgd1na2vs0mg"},{"bike_id":"51aff4ff-028b-43d1-95e9-4cef9fbc5f16","system_id":"levelo_inurba_marseille","lat":43.28415,"lon":5.34975,"is_reserved":false,"is_disabled":false,"rental_uris":{"android":"levelo://app?vid=51aff4ff-028b-43d1-95e9-4cef9fbc5f16","ios":"levelo://app?vid=51aff4ff-028b-43d1-95e9-4cef9fbc5f16"},"vehicle_type_id":"4","last_reported":1730178582,"current_range_meters":22800,"station_id":"ce4bhbh2rcd13ifvqepg","pricing_plan_id":"cebpf4jnsgd1na2vs0mg"},{"bike_id":"d0ddd9bd-3e71-428b-9b62-7304c74c9026","system_id":"levelo_inurba_marseille","lat":43.29519,"lon":5.39052,"is_reserved":false,"is_disabled":false,"rental_uris":{"android":"levelo://app?vid=d0ddd9bd-3e71-428b-9b62-7304c74c9026","ios":"levelo://app?vid=d0ddd9bd-3e71-428b-9b62-7304c74c9026"},"vehicle_type_id":"4","last_reported":1730178582,"current_range_meters":17600,"station_id":"ce4bh3p2rcd13ifvqdp0","pricing_plan_id":"cebpf4jnsgd1na2vs0mg"},{"bike_id":"698899f6-3487-4fb4-b742-af5da9820346","system_id":"levelo_inurba_marseille","lat":43.3266,"lon":5.40991,"is_reserved":false,"is_disabled":false,"rental_uris":{"android":"levelo://app?vid=698899f6-3487-4fb4-b742-af5da9820346","ios":"levelo://app?vid=698899f6-3487-4fb4-b742-af5da9820346"},"vehicle_type_id":"4","last_reported":1730178582,"current_range_meters":38000,"station_id":"ce4bhpp2rcd13ifvqhgg","pricing_plan_id":"cebpf4jnsgd1na2vs0mg"},{"bike_id":"42d1cb38-6e83-4b53-aa8b-9b3713837569","system_id":"levelo_inurba_marseille","lat":43.2742,"lon":5.39412,"is_reserved":false,"is_disabled":false,"rental_uris":{"android":"levelo://app?vid=42d1cb38-6e83-4b53-aa8b-9b3713837569","ios":"levelo://app?vid=42d1cb38-6e83-4b53-aa8b-9b3713837569"},"vehicle_type_id":"4","last_reported":1730178582,"current_range_meters":34800,"station_id":"ce4bhdp2rcd13ifvqf20","pricing_plan_id":"cebpf4jnsgd1na2vs0mg"},{"bike_id":"d15d36db-1b3e-40bc-bfad-6ca2ace78469","system_id":"levelo_inurba_marseille","lat":43.29434,"lon":5.3974,"is_reserved":false,"is_disabled":false,"rental_uris":{"android":"levelo://app?vid=d15d36db-1b3e-40bc-bfad-6ca2ace78469","ios":"levelo://app?vid=d15d36db-1b3e-40bc-bfad-6ca2ace78469"},"vehicle_type_id":"4","last_reported":1730178582,"current_range_meters":38800,"station_id":"ce4bh3h2rcd13ifvqdo0","pricing_plan_id":"cebpf4jnsgd1na2vs0mg"},{"bike_id":"24193066-3395-4dde-a775-80a3ea3a02a6","system_id":"levelo_inurba_marseille","lat":43.31281,"lon":5.40177,"is_reserved":false,"is_disabled":false,"rental_uris":{"android":"levelo://app?vid=24193066-3395-4dde-a775-80a3ea3a02a6","ios":"levelo://app?vid=24193066-3395-4dde-a775-80a3ea3a02a6"},"vehicle_type_id":"4","last_reported":1730178582,"current_range_meters":39200,"station_id":"ce4bh092rcd13ifvqd30","pricing_plan_id":"cebpf4jnsgd1na2vs0mg"},{"bike_id":"aab128fc-e233-4d2a-af14-745db0624ca0","system_id":"levelo_inurba_marseille","lat":43.27982,"lon":5.40022,"is_reserved":false,"is_disabled":false,"rental_uris":{"android":"levelo://app?vid=aab128fc-e233-4d2a-af14-745db0624ca0","ios":"levelo://app?vid=aab128fc-e233-4d2a-af14-745db0624ca0"},"vehicle_type_id":"4","last_reported":1730178582,"current_range_meters":36000,"station_id":"ce4bho92rcd13ifvqh4g","pricing_plan_id":"cebpf4jnsgd1na2vs0mg"},{"bike_id":"9aa32732-1fd7-40a7-bc98-b747cd1e3c16","system_id":"levelo_inurba_marseille","lat":43.2781,"lon":5.40711,"is_reserved":false,"is_disabled":false,"rental_uris":{"android":"levelo://app?vid=9aa32732-1fd7-40a7-bc98-b747cd1e3c16","ios":"levelo://app?vid=9aa32732-1fd7-40a7-bc98-b747cd1e3c16"},"vehicle_type_id":"4","last_reported":1730178582,"current_range_meters":32400,"station_id":"ce4bhnh2rcd13ifvqgtg","pricing_plan_id":"cebpf4jnsgd1na2vs0mg"},{"bike_id":"37e27a5f-7e89-45ca-945b-7aa9c31f0714","system_id":"levelo_inurba_marseille","lat":43.28037,"lon":5.36954,"is_reserved":false,"is_disabled":false,"rental_uris":{"android":"levelo://app?vid=37e27a5f-7e89-45ca-945b-7aa9c31f0714","ios":"levelo://app?vid=37e27a5f-7e89-45ca-945b-7aa9c31f0714"},"vehicle_type_id":"4","last_reported":1730178582,"current_range_meters":28000,"station_id":"ce4bha12rcd13ifvqef0","pricing_plan_id":"cebpf4jnsgd1na2vs0mg"},{"bike_id":"43966cb7-6f2e-496d-bfcf-055444b3f859","system_id":"levelo_inurba_marseille","lat":43.27986,"lon":5.41655,"is_reserved":false,"is_disabled":false,"rental_uris":{"android":"levelo://app?vid=43966cb7-6f2e-496d-bfcf-055444b3f859","ios":"levelo://app?vid=43966cb7-6f2e-496d-bfcf-055444b3f859"},"vehicle_type_id":"4","last_reported":1730178582,"current_range_meters":33200,"station_id":"ce4bho12rcd13ifvqh1g","pricing_plan_id":"cebpf4jnsgd1na2vs0mg"},{"bike_id":"59a50482-cb1e-4ca9-8514-d5b201b306ed","system_id":"levelo_inurba_marseille","lat":43.30149,"lon":5.3808,"is_reserved":false,"is_disabled":false,"rental_uris":{"android":"levelo://app?vid=59a50482-cb1e-4ca9-8514-d5b201b306ed","ios":"levelo://app?vid=59a50482-cb1e-4ca9-8514-d5b201b306ed"},"vehicle_type_id":"4","last_reported":1730178582,"current_range_meters":33200,"station_id":"ce4bgjp2rcd13ifvqbh0","pricing_plan_id":"cebpf4jnsgd1na2vs0mg"},{"bike_id":"60b8b964-c042-41c3-a94b-f87c5cff29c8","system_id":"levelo_inurba_marseille","lat":43.29256,"lon":5.40904,"is_reserved":false,"is_disabled":false,"rental_uris":{"android":"levelo://app?vid=60b8b964-c042-41c3-a94b-f87c5cff29c8","ios":"levelo://app?vid=60b8b964-c042-41c3-a94b-f87c5cff29c8"},"vehicle_type_id":"4","last_reported":1730178582,"current_range_meters":28400,"station_id":"ce4bh192rcd13ifvqdc0","pricing_plan_id":"cebpf4jnsgd1na2vs0mg"},{"bike_id":"cf1ec604-a931-42e2-8451-acf2ecad43de","system_id":"levelo_inurba_marseille","lat":43.306,"lon":5.39354,"is_reserved":false,"is_disabled":false,"rental_uris":{"android":"levelo://app?vid=cf1ec604-a931-42e2-8451-acf2ecad43de","ios":"levelo://app?vid=cf1ec604-a931-42e2-8451-acf2ecad43de"},"vehicle_type_id":"4","last_reported":1730178582,"current_range_meters":37600,"station_id":"ce4bh0p2rcd13ifvqd80","pricing_plan_id":"cebpf4jnsgd1na2vs0mg"},{"bike_id":"3ef2769c-5c51-4fff-961e-572e810fdf57","system_id":"levelo_inurba_marseille","lat":43.31492,"lon":5.37298,"is_reserved":false,"is_disabled":false,"rental_uris":{"android":"levelo://app?vid=3ef2769c-5c51-4fff-961e-572e810fdf57","ios":"levelo://app?vid=3ef2769c-5c51-4fff-961e-572e810fdf57"},"vehicle_type_id":"4","last_reported":1730178582,"current_range_meters":35200,"station_id":"ce4bgt12rcd13ifvqcd0","pricing_plan_id":"cebpf4jnsgd1na2vs0mg"},{"bike_id":"0faab5d3-a72e-43a2-87ce-162e84a8720d","system_id":"levelo_inurba_marseille","lat":43.31264,"lon":5.40173,"is_reserved":false,"is_disabled":false,"rental_uris":{"android":"levelo://app?vid=0faab5d3-a72e-43a2-87ce-162e84a8720d","ios":"levelo://app?vid=0faab5d3-a72e-43a2-87ce-162e84a8720d"},"vehicle_type_id":"4","last_reported":1730178582,"current_range_meters":24000,"station_id":"ce4bh092rcd13ifvqd30","pricing_plan_id":"cebpf4jnsgd1na2vs0mg"},{"bike_id":"bd801bbe-605a-44d5-aa84-a87dae5a750a","system_id":"levelo_inurba_marseille","lat":43.24064,"lon":5.37757,"is_reserved":false,"is_disabled":false,"rental_uris":{"android":"levelo://app?vid=bd801bbe-605a-44d5-aa84-a87dae5a750a","ios":"levelo://app?vid=bd801bbe-605a-44d5-aa84-a87dae5a750a"},"vehicle_type_id":"4","last_reported":1730178582,"current_range_meters":32400,"station_id":"ce4bhnp2rcd13ifvqgvg","pricing_plan_id":"cebpf4jnsgd1na2vs0mg"},{"bike_id":"3c5d53f8-a9fd-4253-821c-a2ecf91f8e79","system_id":"levelo_inurba_marseille","lat":43.30088,"lon":5.39091,"is_reserved":false,"is_disabled":false,"rental_uris":{"android":"levelo://app?vid=3c5d53f8-a9fd-4253-821c-a2ecf91f8e79","ios":"levelo://app?vid=3c5d53f8-a9fd-4253-821c-a2ecf91f8e79"},"vehicle_type_id":"4","last_reported":1730178582,"current_range_meters":37600,"station_id":"ce4bh192rcd13ifvqdb0","pricing_plan_id":"cebpf4jnsgd1na2vs0mg"},{"bike_id":"510a5fc5-038b-4b7e-95a7-062cbdaa3be9","system_id":"levelo_inurba_marseille","lat":43.31279,"lon":5.40172,"is_reserved":false,"is_disabled":false,"rental_uris":{"android":"levelo://app?vid=510a5fc5-038b-4b7e-95a7-062cbdaa3be9","ios":"levelo://app?vid=510a5fc5-038b-4b7e-95a7-062cbdaa3be9"},"vehicle_type_id":"4","last_reported":1730178582,"current_range_meters":38800,"station_id":"ce4bh092rcd13ifvqd30","pricing_plan_id":"cebpf4jnsgd1na2vs0mg"},{"bike_id":"e79de953-afab-425a-84d5-0be4c9734950","system_id":"levelo_inurba_marseille","lat":43.28151,"lon":5.42638,"is_reserved":false,"is_disabled":false,"rental_uris":{"android":"levelo://app?vid=e79de953-afab-425a-84d5-0be4c9734950","ios":"levelo://app?vid=e79de953-afab-425a-84d5-0be4c9734950"},"vehicle_type_id":"4","last_reported":1730178582,"current_range_meters":38800,"station_id":"ce4bhnh2rcd13ifvqgug","pricing_plan_id":"cebpf4jnsgd1na2vs0mg"},{"bike_id":"3d36dc0c-0f96-4b07-b17a-78a838fe800f","system_id":"levelo_inurba_marseille","lat":43.31722,"lon":5.42408,"is_reserved":false,"is_disabled":false,"rental_uris":{"android":"levelo://app?vid=3d36dc0c-0f96-4b07-b17a-78a838fe800f","ios":"levelo://app?vid=3d36dc0c-0f96-4b07-b17a-78a838fe800f"},"vehicle_type_id":"4","last_reported":1730178582,"current_range_meters":38800,"station_id":"ce4bhp92rcd13ifvqhbg","pricing_plan_id":"cebpf4jnsgd1na2vs0mg"},{"bike_id":"5a343c2c-b013-4634-aadf-9e6e4e37fb46","system_id":"levelo_inurba_marseille","lat":43.31496,"lon":5.37297,"is_reserved":false,"is_disabled":false,"rental_uris":{"android":"levelo://app?vid=5a343c2c-b013-4634-aadf-9e6e4e37fb46","ios":"levelo://app?vid=5a343c2c-b013-4634-aadf-9e6e4e37fb46"},"vehicle_type_id":"4","last_reported":1730178582,"current_range_meters":37600,"station_id":"ce4bgt12rcd13ifvqcd0","pricing_plan_id":"cebpf4jnsgd1na2vs0mg"},{"bike_id":"637e9d7d-59a2-4300-b38b-31b2f1fbc965","system_id":"levelo_inurba_marseille","lat":43.31064,"lon":5.38341,"is_reserved":false,"is_disabled":false,"rental_uris":{"android":"levelo://app?vid=637e9d7d-59a2-4300-b38b-31b2f1fbc965","ios":"levelo://app?vid=637e9d7d-59a2-4300-b38b-31b2f1fbc965"},"vehicle_type_id":"4","last_reported":1730178582,"current_range_meters":17600,"station_id":"ce4bgv92rcd13ifvqcr0","pricing_plan_id":"cebpf4jnsgd1na2vs0mg"},{"bike_id":"76b4b015-0593-4f41-a1ca-091f205c40aa","system_id":"levelo_inurba_marseille","lat":43.28938,"lon":5.3663,"is_reserved":false,"is_disabled":false,"rental_uris":{"android":"levelo://app?vid=76b4b015-0593-4f41-a1ca-091f205c40aa","ios":"levelo://app?vid=76b4b015-0593-4f41-a1ca-091f205c40aa"},"vehicle_type_id":"4","last_reported":1730178582,"current_range_meters":34000,"station_id":"ce4bhap2rcd13ifvqek0","pricing_plan_id":"cebpf4jnsgd1na2vs0mg"},{"bike_id":"43301d51-2b2c-4ea0-84a3-28e32f47550e","system_id":"levelo_inurba_marseille","lat":43.27072,"lon":5.42281,"is_reserved":false,"is_disabled":false,"rental_uris":{"android":"levelo://app?vid=43301d51-2b2c-4ea0-84a3-28e32f47550e","ios":"levelo://app?vid=43301d51-2b2c-4ea0-84a3-28e32f47550e"},"vehicle_type_id":"4","last_reported":1730178582,"current_range_meters":38800,"station_id":"ce4bhk92rcd13ifvqgb0","pricing_plan_id":"cebpf4jnsgd1na2vs0mg"},{"bike_id":"ae8ca2fb-db8b-4b08-b674-fdeb82537e41","system_id":"levelo_inurba_marseille","lat":43.30588,"lon":5.39351,"is_reserved":false,"is_disabled":false,"rental_uris":{"android":"levelo://app?vid=ae8ca2fb-db8b-4b08-b674-fdeb82537e41","ios":"levelo://app?vid=ae8ca2fb-db8b-4b08-b674-fdeb82537e41"},"vehicle_type_id":"4","last_reported":1730178582,"current_range_meters":38800,"station_id":"ce4bh0p2rcd13ifvqd80","pricing_plan_id":"cebpf4jnsgd1na2vs0mg"},{"bike_id":"33c97bc3-55de-47a3-9d49-02ddce2071b7","system_id":"levelo_inurba_marseille","lat":43.30146,"lon":5.3808,"is_reserved":false,"is_disabled":false,"rental_uris":{"android":"levelo://app?vid=33c97bc3-55de-47a3-9d49-02ddce2071b7","ios":"levelo://app?vid=33c97bc3-55de-47a3-9d49-02ddce2071b7"},"vehicle_type_id":"4","last_reported":1730178582,"current_range_meters":35200,"station_id":"ce4bgjp2rcd13ifvqbh0","pricing_plan_id":"cebpf4jnsgd1na2vs0mg"},{"bike_id":"286a1ad0-de56-404d-b964-bab8becdd08e","system_id":"levelo_inurba_marseille","lat":43.296346,"lon":5.405978,"is_reserved":false,"is_disabled":false,"rental_uris":{"android":"levelo://app?vid=286a1ad0-de56-404d-b964-bab8becdd08e","ios":"levelo://app?vid=286a1ad0-de56-404d-b964-bab8becdd08e"},"vehicle_type_id":"4","last_reported":1730178582,"current_range_meters":38000,"station_id":"ce4bh0h2rcd13ifvqd60","pricing_plan_id":"cebpf4jnsgd1na2vs0mg"},{"bike_id":"e94be738-1f81-4ef2-8919-b6162fbe12c8","system_id":"levelo_inurba_marseille","lat":43.32367,"lon":5.38881,"is_reserved":false,"is_disabled":false,"rental_uris":{"android":"levelo://app?vid=e94be738-1f81-4ef2-8919-b6162fbe12c8","ios":"levelo://app?vid=e94be738-1f81-4ef2-8919-b6162fbe12c8"},