{"last_updated":1743351034,"ttl":60,"version":"2.2","data":{"bikes":[{"bike_id":"6dd02f85-6cf6-46d2-9894-d0d58ed0d569","system_id":"levelo_inurba_marseille","lat":43.30725,"lon":5.42453,"is_reserved":false,"is_disabled":false,"rental_uris":{"android":"levelo://app?vid=6dd02f85-6cf6-46d2-9894-d0d58ed0d569","ios":"levelo://app?vid=6dd02f85-6cf6-46d2-9894-d0d58ed0d569"},"vehicle_type_id":"4","last_reported":1743351035,"current_range_meters":2800,"station_id":"st_cvj6ca6bvosntc0bfgr0","pricing_plan_id":"cebpf4jnsgd1na2vs0mg"},{"bike_id":"43d76349-cb58-4767-aa2f-8085d3ada420","system_id":"levelo_inurba_marseille","lat":43.24553,"lon":5.39535,"is_reserved":false,"is_disabled":false,"rental_uris":{"android":"levelo://app?vid=43d76349-cb58-4767-aa2f-8085d3ada420","ios":"levelo://app?vid=43d76349-cb58-4767-aa2f-8085d3ada420"},"vehicle_type_id":"4","last_reported":1743351035,"current_range_meters":2800,"station_id":"ce4bhlp2rcd13ifvqgjg","pricing_plan_id":"cebpf4jnsgd1na2vs0mg"},{"bike_id":"6b9bd8ae-8ee9-4269-b2bd-6c3d8c883a71","system_id":"levelo_inurba_marseille","lat":43.298,"lon":5.39349,"is_reserved":false,"is_disabled":false,"rental_uris":{"android":"levelo://app?vid=6b9bd8ae-8ee9-4269-b2bd-6c3d8c883a71","ios":"levelo://app?vid=6b9bd8ae-8ee9-4269-b2bd-6c3d8c883a71"},"vehicle_type_id":"4","last_reported":1743351035,"current_range_meters":2800,"station_id":"chh1huq6cuj3fo74tm60","pricing_plan_id":"cebpf4jnsgd1na2vs0mg"},{"bike_id":"0b20dce2-99b5-4a42-bab1-b1ab97491c58","system_id":"levelo_inurba_marseille","lat":43.29567,"lon":5.37497,"is_reserved":false,"is_disabled":false,"rental_uris":{"android":"levelo://app?vid=0b20dce2-99b5-4a42-bab1-b1ab97491c58","ios":"levelo://app?vid=0b20dce2-99b5-4a42-bab1-b1ab97491c58"},"vehicle_type_id":"4","last_reported":1743351035,"current_range_meters":2800,"station_id":"ce4bgh92rcd13ifvqb50","pricing_plan_id":"cebpf4jnsgd1na2vs0mg"},{"bike_id":"df76930c-a964-47a5-b136-81f68fa1bde2","system_id":"levelo_inurba_marseille","lat":43.26563,"lon":5.39014,"is_reserved":false,"is_disabled":false,"rental_uris":{"android":"levelo://app?vid=df76930c-a964-47a5-b136-81f68fa1bde2","ios":"levelo://app?vid=df76930c-a964-47a5-b136-81f68fa1bde2"},"vehicle_type_id":"4","last_reported":1743351035,"current_range_meters":2800,"station_id":"ce4bhe12rcd13ifvqf30","pricing_plan_id":"cebpf4jnsgd1na2vs0mg"},{"bike_id":"7a2071f9-9afc-45dc-b771-88ff8d9cc8be","system_id":"levelo_inurba_marseille","lat":43.28348,"lon":5.38099,"is_reserved":false,"is_disabled":false,"rental_uris":{"android":"levelo://app?vid=7a2071f9-9afc-45dc-b771-88ff8d9cc8be","ios":"levelo://app?vid=7a2071f9-9afc-45dc-b771-88ff8d9cc8be"},"vehicle_type_id":"4","last_reported":1743351035,"current_range_meters":3200,"station_id":"ce4bh412rcd13ifvqdr0","pricing_plan_id":"cebpf4jnsgd1na2vs0mg"},{"bike_id":"4777850e-a840-44f2-a6a5-fd44a1ac41d3","system_id":"levelo_inurba_marseille","lat":43.28724,"lon":5.40004,"is_reserved":false,"is_disabled":true,"rental_uris":{"android":"levelo://app?vid=4777850e-a840-44f2-a6a5-fd44a1ac41d3","ios":"levelo://app?vid=4777850e-a840-44f2-a6a5-fd44a1ac41d3"},"vehicle_type_id":"4","last_reported":1743351035,"current_range_meters":3200,"station_id":"ce4bho92rcd13ifvqh3g","pricing_plan_id":"cebpf4jnsgd1na2vs0mg"},{"bike_id":"5e44dadd-e5b8-41a4-b7aa-edee919d139d","system_id":"levelo_inurba_marseille","lat":43.27941,"lon":5.41051,"is_reserved":false,"is_disabled":false,"rental_uris":{"android":"levelo://app?vid=5e44dadd-e5b8-41a4-b7aa-edee919d139d","ios":"levelo://app?vid=5e44dadd-e5b8-41a4-b7aa-edee919d139d"},"vehicle_type_id":"4","last_reported":1743351035,"current_range_meters":3200,"station_id":"ce4bhnp2rcd13ifvqh0g","pricing_plan_id":"cebpf4jnsgd1na2vs0mg"},{"bike_id":"5fbcf3af-1f2f-4af5-bd0e-179492158132","system_id":"levelo_inurba_marseille","lat":43.24549,"lon":5.39543,"is_reserved":false,"is_disabled":false,"rental_uris":{"android":"levelo://app?vid=5fbcf3af-1f2f-4af5-bd0e-179492158132","ios":"levelo://app?vid=5fbcf3af-1f2f-4af5-bd0e-179492158132"},"vehicle_type_id":"4","last_reported":1743351035,"current_range_meters":3200,"station_id":"ce4bhlp2rcd13ifvqgjg","pricing_plan_id":"cebpf4jnsgd1na2vs0mg"},{"bike_id":"2433a151-180a-42b4-a287-c4599ae92c18","system_id":"levelo_inurba_marseille","lat":43.28842,"lon":5.3584,"is_reserved":false,"is_disabled":false,"rental_uris":{"android":"levelo://app?vid=2433a151-180a-42b4-a287-c4599ae92c18","ios":"levelo://app?vid=2433a151-180a-42b4-a287-c4599ae92c18"},"vehicle_type_id":"4","last_reported":1743351035,"current_range_meters":3200,"station_id":"ce4bhb12rcd13ifvqem0","pricing_plan_id":"cebpf4jnsgd1na2vs0mg"},{"bike_id":"f959f8ce-0888-4ca4-9b27-395da8e7e6b3","system_id":"levelo_inurba_marseille","lat":43.26556,"lon":5.37288,"is_reserved":false,"is_disabled":false,"rental_uris":{"android":"levelo://app?vid=f959f8ce-0888-4ca4-9b27-395da8e7e6b3","ios":"levelo://app?vid=f959f8ce-0888-4ca4-9b27-395da8e7e6b3"},"vehicle_type_id":"4","last_reported":1743351035,"current_range_meters":3200,"station_id":"ce4bhg12rcd13ifvqf70","pricing_plan_id":"cebpf4jnsgd1na2vs0mg"},{"bike_id":"d45525c8-f7e5-440c-99c8-cd330de17212","system_id":"levelo_inurba_marseille","lat":43.248091,"lon":5.374639,"is_reserved":false,"is_disabled":false,"rental_uris":{"android":"levelo://app?vid=d45525c8-f7e5-440c-99c8-cd330de17212","ios":"levelo://app?vid=d45525c8-f7e5-440c-99c8-cd330de17212"},"vehicle_type_id":"4","last_reported":1743351035,"current_range_meters":3200,"station_id":"ce4bhgh2rcd13ifvqfb0","pricing_plan_id":"cebpf4jnsgd1na2vs0mg"},{"bike_id":"b823f91e-64b1-44e3-8320-b8f90b5aa0e7","system_id":"levelo_inurba_marseille","lat":43.2841,"lon":5.34999,"is_reserved":false,"is_disabled":false,"rental_uris":{"android":"levelo://app?vid=b823f91e-64b1-44e3-8320-b8f90b5aa0e7","ios":"levelo://app?vid=b823f91e-64b1-44e3-8320-b8f90b5aa0e7"},"vehicle_type_id":"4","last_reported":1743351035,"current_range_meters":3600,"station_id":"ce4bhbh2rcd13ifvqepg","pricing_plan_id":"cebpf4jnsgd1na2vs0mg"},{"bike_id":"c2de0218-78c9-464f-a574-46cbd8219b77","system_id":"levelo_inurba_marseille","lat":43.25579,"lon":5.38238,"is_reserved":false,"is_disabled":false,"rental_uris":{"android":"levelo://app?vid=c2de0218-78c9-464f-a574-46cbd8219b77","ios":"levelo://app?vid=c2de0218-78c9-464f-a574-46cbd8219b77"},"vehicle_type_id":"4","last_reported":1743351035,"current_range_meters":3600,"station_id":"ce4bhih2rcd13ifvqfs0","pricing_plan_id":"cebpf4jnsgd1na2vs0mg"},{"bike_id":"f6a1f293-cf28-4ef6-af9c-a4497d472d61","system_id":"levelo_inurba_marseille","lat":43.29532,"lon":5.39417,"is_reserved":false,"is_disabled":false,"rental_uris":{"android":"levelo://app?vid=f6a1f293-cf28-4ef6-af9c-a4497d472d61","ios":"levelo://app?vid=f6a1f293-cf28-4ef6-af9c-a4497d472d61"},"vehicle_type_id":"4","last_reported":1743351035,"current_range_meters":3600,"station_id":"ce4bh292rcd13ifvqdf0","pricing_plan_id":"cebpf4jnsgd1na2vs0mg"},{"bike_id":"c37ff683-74d5-425d-b312-8c599719beaf","system_id":"levelo_inurba_marseille","lat":43.27385,"lon":5.36259,"is_reserved":false,"is_disabled":false,"rental_uris":{"android":"levelo://app?vid=c37ff683-74d5-425d-b312-8c599719beaf","ios":"levelo://app?vid=c37ff683-74d5-425d-b312-8c599719beaf"},"vehicle_type_id":"4","last_reported":1743351035,"current_range_meters":4000,"station_id":"ce4bhbh2rcd13ifvqeo0","pricing_plan_id":"cebpf4jnsgd1na2vs0mg"},{"bike_id":"80d5d892-eb52-4c54-bc1c-504bc388e4cd","system_id":"levelo_inurba_marseille","lat":43.26196,"lon":5.37932,"is_reserved":false,"is_disabled":false,"rental_uris":{"android":"levelo://app?vid=80d5d892-eb52-4c54-bc1c-504bc388e4cd","ios":"levelo://app?vid=80d5d892-eb52-4c54-bc1c-504bc388e4cd"},"vehicle_type_id":"4","last_reported":1743351035,"current_range_meters":4000,"station_id":"ce4bhjp2rcd13ifvqg90","pricing_plan_id":"cebpf4jnsgd1na2vs0mg"},{"bike_id":"a63eddec-0ed5-4f6e-a844-b978245561d2","system_id":"levelo_inurba_marseille","lat":43.2894,"lon":5.3638,"is_reserved":false,"is_disabled":false,"rental_uris":{"android":"levelo://app?vid=a63eddec-0ed5-4f6e-a844-b978245561d2","ios":"levelo://app?vid=a63eddec-0ed5-4f6e-a844-b978245561d2"},"vehicle_type_id":"4","last_reported":1743351035,"current_range_meters":4000,"station_id":"ce4bhc92rcd13ifvqetg","pricing_plan_id":"cebpf4jnsgd1na2vs0mg"},{"bike_id":"0f398636-b218-4917-a391-50e692dd21c7","system_id":"levelo_inurba_marseille","lat":43.241669,"lon":5.363914,"is_reserved":false,"is_disabled":false,"rental_uris":{"android":"levelo://app?vid=0f398636-b218-4917-a391-50e692dd21c7","ios":"levelo://app?vid=0f398636-b218-4917-a391-50e692dd21c7"},"vehicle_type_id":"4","last_reported":1743351035,"current_range_meters":4000,"station_id":"cpo36qri1sfpv3e86is0","pricing_plan_id":"cebpf4jnsgd1na2vs0mg"},{"bike_id":"11704267-e2a9-45d1-8def-431df4a00c11","system_id":"levelo_inurba_marseille","lat":43.274925,"lon":5.424549,"is_reserved":false,"is_disabled":false,"rental_uris":{"android":"levelo://app?vid=11704267-e2a9-45d1-8def-431df4a00c11","ios":"levelo://app?vid=11704267-e2a9-45d1-8def-431df4a00c11"},"vehicle_type_id":"4","last_reported":1743351035,"current_range_meters":4000,"station_id":"ce4bhn92rcd13ifvqgrg","pricing_plan_id":"cebpf4jnsgd1na2vs0mg"},{"bike_id":"8d6abdef-27aa-4d1b-9448-656a6296f19d","system_id":"levelo_inurba_marseille","lat":43.24214,"lon":5.39735,"is_reserved":false,"is_disabled":false,"rental_uris":{"android":"levelo://app?vid=8d6abdef-27aa-4d1b-9448-656a6296f19d","ios":"levelo://app?vid=8d6abdef-27aa-4d1b-9448-656a6296f19d"},"vehicle_type_id":"4","last_reported":1743351035,"current_range_meters":4000,"station_id":"ce4bhn12rcd13ifvqgpg","pricing_plan_id":"cebpf4jnsgd1na2vs0mg"},{"bike_id":"5fa76be9-4f44-42b2-9369-ca86f6bbce5c","system_id":"levelo_inurba_marseille","lat":43.26552,"lon":5.37294,"is_reserved":false,"is_disabled":true,"rental_uris":{"android":"levelo://app?vid=5fa76be9-4f44-42b2-9369-ca86f6bbce5c","ios":"levelo://app?vid=5fa76be9-4f44-42b2-9369-ca86f6bbce5c"},"vehicle_type_id":"4","last_reported":1743351035,"current_range_meters":4400,"station_id":"ce4bhg12rcd13ifvqf70","pricing_plan_id":"cebpf4jnsgd1na2vs0mg"},{"bike_id":"d957f25a-8367-4455-a0e2-a55695434379","system_id":"levelo_inurba_marseille","lat":43.28406,"lon":5.375091,"is_reserved":false,"is_disabled":false,"rental_uris":{"android":"levelo://app?vid=d957f25a-8367-4455-a0e2-a55695434379","ios":"levelo://app?vid=d957f25a-8367-4455-a0e2-a55695434379"},"vehicle_type_id":"4","last_reported":1743351035,"current_range_meters":4400,"station_id":"ce4bh412rcd13ifvqds0","pricing_plan_id":"cebpf4jnsgd1na2vs0mg"},{"bike_id":"2d1ce42f-a4b2-4dd7-b670-e4430b178737","system_id":"levelo_inurba_marseille","lat":43.25865,"lon":5.39896,"is_reserved":false,"is_disabled":false,"rental_uris":{"android":"levelo://app?vid=2d1ce42f-a4b2-4dd7-b670-e4430b178737","ios":"levelo://app?vid=2d1ce42f-a4b2-4dd7-b670-e4430b178737"},"vehicle_type_id":"4","last_reported":1743351035,"current_range_meters":4400,"station_id":"ce4bhl92rcd13ifvqghg","pricing_plan_id":"cebpf4jnsgd1na2vs0mg"},{"bike_id":"90996858-2700-41a4-a125-e615c9279ee9","system_id":"levelo_inurba_marseille","lat":43.2738,"lon":5.3625,"is_reserved":false,"is_disabled":false,"rental_uris":{"android":"levelo://app?vid=90996858-2700-41a4-a125-e615c9279ee9","ios":"levelo://app?vid=90996858-2700-41a4-a125-e615c9279ee9"},"vehicle_type_id":"4","last_reported":1743351035,"current_range_meters":4400,"station_id":"ce4bhbh2rcd13ifvqeo0","pricing_plan_id":"cebpf4jnsgd1na2vs0mg"},{"bike_id":"6429faf8-a8b4-4121-a0ad-ad9ec52c635e","system_id":"levelo_inurba_marseille","lat":43.31761,"lon":5.39013,"is_reserved":false,"is_disabled":false,"rental_uris":{"android":"levelo://app?vid=6429faf8-a8b4-4121-a0ad-ad9ec52c635e","ios":"levelo://app?vid=6429faf8-a8b4-4121-a0ad-ad9ec52c635e"},"vehicle_type_id":"4","last_reported":1743351035,"current_range_meters":4400,"station_id":"ce4bhqp2rcd13ifvqhng","pricing_plan_id":"cebpf4jnsgd1na2vs0mg"},{"bike_id":"4c8703ac-199d-4858-8326-fbb6ba39b80b","system_id":"levelo_inurba_marseille","lat":43.29769,"lon":5.37108,"is_reserved":false,"is_disabled":false,"rental_uris":{"android":"levelo://app?vid=4c8703ac-199d-4858-8326-fbb6ba39b80b","ios":"levelo://app?vid=4c8703ac-199d-4858-8326-fbb6ba39b80b"},"vehicle_type_id":"4","last_reported":1743351035,"current_range_meters":2800,"station_id":"ce4bgop2rcd13ifvqc1g","pricing_plan_id":"cebpf4jnsgd1na2vs0mg"},{"bike_id":"5ce81545-ad27-4e27-bdfe-1c386f1be178","system_id":"levelo_inurba_marseille","lat":43.29416,"lon":5.38625,"is_reserved":false,"is_disabled":false,"rental_uris":{"android":"levelo://app?vid=5ce81545-ad27-4e27-bdfe-1c386f1be178","ios":"levelo://app?vid=5ce81545-ad27-4e27-bdfe-1c386f1be178"},"vehicle_type_id":"4","last_reported":1743351035,"current_range_meters":4400,"station_id":"ce4bh2h2rcd13ifvqdh0","pricing_plan_id":"cebpf4jnsgd1na2vs0mg"},{"bike_id":"c3175718-7f01-4121-a54d-262406a83846","system_id":"levelo_inurba_marseille","lat":43.23191,"lon":5.35546,"is_reserved":false,"is_disabled":false,"rental_uris":{"android":"levelo://app?vid=c3175718-7f01-4121-a54d-262406a83846","ios":"levelo://app?vid=c3175718-7f01-4121-a54d-262406a83846"},"vehicle_type_id":"4","last_reported":1743351035,"current_range_meters":4400,"station_id":"ce4bhu92rcd13ifvqi70","pricing_plan_id":"cebpf4jnsgd1na2vs0mg"},{"bike_id":"a2685d22-8ba5-49a1-ae9d-a5445e64367b","system_id":"levelo_inurba_marseille","lat":43.289345,"lon":5.366398,"is_reserved":false,"is_disabled":false,"rental_uris":{"android":"levelo://app?vid=a2685d22-8ba5-49a1-ae9d-a5445e64367b","ios":"levelo://app?vid=a2685d22-8ba5-49a1-ae9d-a5445e64367b"},"vehicle_type_id":"4","last_reported":1743351035,"current_range_meters":4400,"station_id":"ce4bhap2rcd13ifvqek0","pricing_plan_id":"cebpf4jnsgd1na2vs0mg"},{"bike_id":"bf36c0a8-c927-4ba0-97b6-42b624ea06d7","system_id":"levelo_inurba_marseille","lat":43.24391,"lon":5.37051,"is_reserved":false,"is_disabled":false,"rental_uris":{"android":"levelo://app?vid=bf36c0a8-c927-4ba0-97b6-42b624ea06d7","ios":"levelo://app?vid=bf36c0a8-c927-4ba0-97b6-42b624ea06d7"},"vehicle_type_id":"4","last_reported":1743351035,"current_range_meters":4400,"station_id":"ce4bhhh2rcd13ifvqfk0","pricing_plan_id":"cebpf4jnsgd1na2vs0mg"},{"bike_id":"24fcccba-efc5-4f8a-83f7-8b196b941597","system_id":"levelo_inurba_marseille","lat":43.28398,"lon":5.34985,"is_reserved":false,"is_disabled":false,"rental_uris":{"android":"levelo://app?vid=24fcccba-efc5-4f8a-83f7-8b196b941597","ios":"levelo://app?vid=24fcccba-efc5-4f8a-83f7-8b196b941597"},"vehicle_type_id":"4","last_reported":1743351035,"current_range_meters":4400,"station_id":"ce4bhbh2rcd13ifvqepg","pricing_plan_id":"cebpf4jnsgd1na2vs0mg"},{"bike_id":"2bc24b3b-6579-466c-b283-c9a221e78287","system_id":"levelo_inurba_marseille","lat":43.29829,"lon":5.39345,"is_reserved":false,"is_disabled":false,"rental_uris":{"android":"levelo://app?vid=2bc24b3b-6579-466c-b283-c9a221e78287","ios":"levelo://app?vid=2bc24b3b-6579-466c-b283-c9a221e78287"},"vehicle_type_id":"4","last_reported":1743351035,"current_range_meters":4400,"station_id":"chh1huq6cuj3fo74tm60","pricing_plan_id":"cebpf4jnsgd1na2vs0mg"},{"bike_id":"ae276624-cb6d-4132-b9e9-e77a72206ed1","system_id":"levelo_inurba_marseille","lat":43.293732,"lon":5.378554,"is_reserved":false,"is_disabled":false,"rental_uris":{"android":"levelo://app?vid=ae276624-cb6d-4132-b9e9-e77a72206ed1","ios":"levelo://app?vid=ae276624-cb6d-4132-b9e9-e77a72206ed1"},"vehicle_type_id":"4","last_reported":1743351035,"current_range_meters":4800,"station_id":"","pricing_plan_id":"cebpf4jnsgd1na2vs0mg"},{"bike_id":"b5ace6c6-32e3-486d-9744-efb1ce0dfa9d","system_id":"levelo_inurba_marseille","lat":43.28904,"lon":5.3664,"is_reserved":false,"is_disabled":true,"rental_uris":{"android":"levelo://app?vid=b5ace6c6-32e3-486d-9744-efb1ce0dfa9d","ios":"levelo://app?vid=b5ace6c6-32e3-486d-9744-efb1ce0dfa9d"},"vehicle_type_id":"4","last_reported":1743351035,"current_range_meters":4800,"station_id":"ce4bhap2rcd13ifvqek0","pricing_plan_id":"cebpf4jnsgd1na2vs0mg"},{"bike_id":"533b7871-3295-4d97-b48b-5101342f3d4f","system_id":"levelo_inurba_marseille","lat":43.2843,"lon":5.34985,"is_reserved":false,"is_disabled":false,"rental_uris":{"android":"levelo://app?vid=533b7871-3295-4d97-b48b-5101342f3d4f","ios":"levelo://app?vid=533b7871-3295-4d97-b48b-5101342f3d4f"},"vehicle_type_id":"4","last_reported":1743351035,"current_range_meters":4800,"station_id":"ce4bhbh2rcd13ifvqepg","pricing_plan_id":"cebpf4jnsgd1na2vs0mg"},{"bike_id":"affe2ab6-cf3a-4ed6-9354-e0053a21dd64","system_id":"levelo_inurba_marseille","lat":43.27376,"lon":5.36252,"is_reserved":false,"is_disabled":false,"rental_uris":{"android":"levelo://app?vid=affe2ab6-cf3a-4ed6-9354-e0053a21dd64","ios":"levelo://app?vid=affe2ab6-cf3a-4ed6-9354-e0053a21dd64"},"vehicle_type_id":"4","last_reported":1743351035,"current_range_meters":4800,"station_id":"ce4bhbh2rcd13ifvqeo0","pricing_plan_id":"cebpf4jnsgd1na2vs0mg"},{"bike_id":"61caf906-da8f-40ab-ae50-fc4d33be4738","system_id":"levelo_inurba_marseille","lat":43.28152,"lon":5.42645,"is_reserved":false,"is_disabled":false,"rental_uris":{"android":"levelo://app?vid=61caf906-da8f-40ab-ae50-fc4d33be4738","ios":"levelo://app?vid=61caf906-da8f-40ab-ae50-fc4d33be4738"},"vehicle_type_id":"4","last_reported":1743351035,"current_range_meters":4800,"station_id":"ce4bhnh2rcd13ifvqgug","pricing_plan_id":"cebpf4jnsgd1na2vs0mg"},{"bike_id":"29256cca-4c2f-4bd4-898e-1f175dd6315b","system_id":"levelo_inurba_marseille","lat":43.23925,"lon":5.36567,"is_reserved":false,"is_disabled":false,"rental_uris":{"android":"levelo://app?vid=29256cca-4c2f-4bd4-898e-1f175dd6315b","ios":"levelo://app?vid=29256cca-4c2f-4bd4-898e-1f175dd6315b"},"vehicle_type_id":"4","last_reported":1743351035,"current_range_meters":4800,"station_id":"","pricing_plan_id":"cebpf4jnsgd1na2vs0mg"},{"bike_id":"1a6bbcb4-3de8-47a6-bb9b-bf7b8b5a2902","system_id":"levelo_inurba_marseille","lat":43.24175,"lon":5.36421,"is_reserved":false,"is_disabled":false,"rental_uris":{"android":"levelo://app?vid=1a6bbcb4-3de8-47a6-bb9b-bf7b8b5a2902","ios":"levelo://app?vid=1a6bbcb4-3de8-47a6-bb9b-bf7b8b5a2902"},"vehicle_type_id":"4","last_reported":1743351035,"current_range_meters":5600,"station_id":"cpo36qri1sfpv3e86is0","pricing_plan_id":"cebpf4jnsgd1na2vs0mg"},{"bike_id":"0754a5be-0eaf-412d-9883-0523ef5c99fd","system_id":"levelo_inurba_marseille","lat":43.31203,"lon":5.38775,"is_reserved":false,"is_disabled":false,"rental_uris":{"android":"levelo://app?vid=0754a5be-0eaf-412d-9883-0523ef5c99fd","ios":"levelo://app?vid=0754a5be-0eaf-412d-9883-0523ef5c99fd"},"vehicle_type_id":"4","last_reported":1743351035,"current_range_meters":5600,"station_id":"ce4bgih2rcd13ifvqba0","pricing_plan_id":"cebpf4jnsgd1na2vs0mg"},{"bike_id":"05554e5f-4ad5-422d-b19e-4fe0f3f66f25","system_id":"levelo_inurba_marseille","lat":43.284612,"lon":5.358862,"is_reserved":false,"is_disabled":false,"rental_uris":{"android":"levelo://app?vid=05554e5f-4ad5-422d-b19e-4fe0f3f66f25","ios":"levelo://app?vid=05554e5f-4ad5-422d-b19e-4fe0f3f66f25"},"vehicle_type_id":"4","last_reported":1743351035,"current_range_meters":5600,"station_id":"ce4bhah2rcd13ifvqei0","pricing_plan_id":"cebpf4jnsgd1na2vs0mg"},{"bike_id":"80507833-57fc-4199-a0f8-32eca269665b","system_id":"levelo_inurba_marseille","lat":43.2417,"lon":5.36428,"is_reserved":false,"is_disabled":false,"rental_uris":{"android":"levelo://app?vid=80507833-57fc-4199-a0f8-32eca269665b","ios":"levelo://app?vid=80507833-57fc-4199-a0f8-32eca269665b"},"vehicle_type_id":"4","last_reported":1743351035,"current_range_meters":5600,"station_id":"cpo36qri1sfpv3e86is0","pricing_plan_id":"cebpf4jnsgd1na2vs0mg"},{"bike_id":"4b2323ae-94b8-41f7-9062-4d9bd4bd549e","system_id":"levelo_inurba_marseille","lat":43.24175,"lon":5.36442,"is_reserved":false,"is_disabled":false,"rental_uris":{"android":"levelo://app?vid=4b2323ae-94b8-41f7-9062-4d9bd4bd549e","ios":"levelo://app?vid=4b2323ae-94b8-41f7-9062-4d9bd4bd549e"},"vehicle_type_id":"4","last_reported":1743351035,"current_range_meters":5600,"station_id":"cpo36qri1sfpv3e86is0","pricing_plan_id":"cebpf4jnsgd1na2vs0mg"},{"bike_id":"8f20d79c-0969-420d-a4c9-db46e221bb65","system_id":"levelo_inurba_marseille","lat":43.30162,"lon":5.38083,"is_reserved":false,"is_disabled":false,"rental_uris":{"android":"levelo://app?vid=8f20d79c-0969-420d-a4c9-db46e221bb65","ios":"levelo://app?vid=8f20d79c-0969-420d-a4c9-db46e221bb65"},"vehicle_type_id":"4","last_reported":1743351035,"current_range_meters":5600,"station_id":"ce4bgjp2rcd13ifvqbh0","pricing_plan_id":"cebpf4jnsgd1na2vs0mg"},{"bike_id":"f8ed3009-6d31-4d12-af28-58d547d38689","system_id":"levelo_inurba_marseille","lat":43.23959,"lon":5.36635,"is_reserved":false,"is_disabled":false,"rental_uris":{"android":"levelo://app?vid=f8ed3009-6d31-4d12-af28-58d547d38689","ios":"levelo://app?vid=f8ed3009-6d31-4d12-af28-58d547d38689"},"vehicle_type_id":"4","last_reported":1743351035,"current_range_meters":5600,"station_id":"ce4bhi12rcd13ifvqfp0","pricing_plan_id":"cebpf4jnsgd1na2vs0mg"},{"bike_id":"fbdbf30e-fccd-4c38-bbff-feb18e729671","system_id":"levelo_inurba_marseille","lat":43.29268,"lon":5.38442,"is_reserved":false,"is_disabled":false,"rental_uris":{"android":"levelo://app?vid=fbdbf30e-fccd-4c38-bbff-feb18e729671","ios":"levelo://app?vid=fbdbf30e-fccd-4c38-bbff-feb18e729671"},"vehicle_type_id":"4","last_reported":1743351035,"current_range_meters":5600,"station_id":"ce4bh692rcd13ifvqea0","pricing_plan_id":"cebpf4jnsgd1na2vs0mg"},{"bike_id":"d6a870e3-ee0a-44ee-8df8-00dd527c09fd","system_id":"levelo_inurba_marseille","lat":43.305411,"lon":5.384258,"is_reserved":false,"is_disabled":false,"rental_uris":{"android":"levelo://app?vid=d6a870e3-ee0a-44ee-8df8-00dd527c09fd","ios":"levelo://app?vid=d6a870e3-ee0a-44ee-8df8-00dd527c09fd"},"vehicle_type_id":"4","last_reported":1743351035,"current_range_meters":5600,"station_id":"ce4bgg92rcd13ifvqb30","pricing_plan_id":"cebpf4jnsgd1na2vs0mg"},{"bike_id":"3f4d058d-1b0b-44cd-a30f-5956b4ef54ea","system_id":"levelo_inurba_marseille","lat":43.287,"lon":5.3738,"is_reserved":false,"is_disabled":false,"rental_uris":{"android":"levelo://app?vid=3f4d058d-1b0b-44cd-a30f-5956b4ef54ea","ios":"levelo://app?vid=3f4d058d-1b0b-44cd-a30f-5956b4ef54ea"},"vehicle_type_id":"4","last_reported":1743351035,"current_range_meters":5600,"station_id":"ce4bh3p2rcd13ifvqdq0","pricing_plan_id":"cebpf4jnsgd1na2vs0mg"},{"bike_id":"b97fab6e-2e78-4719-8eec-4f978ca3d9e4","system_id":"levelo_inurba_marseille","lat":43.23199,"lon":5.35597,"is_reserved":false,"is_disabled":false,"rental_uris":{"android":"levelo://app?vid=b97fab6e-2e78-4719-8eec-4f978ca3d9e4","ios":"levelo://app?vid=b97fab6e-2e78-4719-8eec-4f978ca3d9e4"},"vehicle_type_id":"4","last_reported":1743351035,"current_range_meters":6000,"station_id":"ce4bhu92rcd13ifvqi70","pricing_plan_id":"cebpf4jnsgd1na2vs0mg"},{"bike_id":"75076714-fb89-4ceb-9b3e-74cda32c31ef","system_id":"levelo_inurba_marseille","lat":43.28939,"lon":5.3664,"is_reserved":false,"is_disabled":false,"rental_uris":{"android":"levelo://app?vid=75076714-fb89-4ceb-9b3e-74cda32c31ef","ios":"levelo://app?vid=75076714-fb89-4ceb-9b3e-74cda32c31ef"},"vehicle_type_id":"4","last_reported":1743351035,"current_range_meters":6000,"station_id":"ce4bhap2rcd13ifvqek0","pricing_plan_id":"cebpf4jnsgd1na2vs0mg"},{"bike_id":"96fa1290-e699-40b9-9109-379d3b77c6fb","system_id":"levelo_inurba_marseille","lat":43.33719,"lon":5.39181,"is_reserved":false,"is_disabled":false,"rental_uris":{"android":"levelo://app?vid=96fa1290-e699-40b9-9109-379d3b77c6fb","ios":"levelo://app?vid=96fa1290-e699-40b9-9109-379d3b77c6fb"},"vehicle_type_id":"4","last_reported":1743351035,"current_range_meters":6000,"station_id":"ce4bhr92rcd13ifvqhsg","pricing_plan_id":"cebpf4jnsgd1na2vs0mg"},{"bike_id":"755e11fb-2b28-4d7d-a913-4ffc17ecc83f","system_id":"levelo_inurba_marseille","lat":43.29271,"lon":5.38433,"is_reserved":false,"is_disabled":false,"rental_uris":{"android":"levelo://app?vid=755e11fb-2b28-4d7d-a913-4ffc17ecc83f","ios":"levelo://app?vid=755e11fb-2b28-4d7d-a913-4ffc17ecc83f"},"vehicle_type_id":"4","last_reported":1743351035,"current_range_meters":6000,"station_id":"ce4bh692rcd13ifvqea0","pricing_plan_id":"cebpf4jnsgd1na2vs0mg"},{"bike_id":"2057d7c4-c76c-4e7c-91af-ca8e09b28743","system_id":"levelo_inurba_marseille","lat":43.26227,"lon":5.40447,"is_reserved":false,"is_disabled":false,"rental_uris":{"android":"levelo://app?vid=2057d7c4-c76c-4e7c-91af-ca8e09b28743","ios":"levelo://app?vid=2057d7c4-c76c-4e7c-91af-ca8e09b28743"},"vehicle_type_id":"4","last_reported":1743351035,"current_range_meters":6000,"station_id":"ce4bhmh2rcd13ifvqgmg","pricing_plan_id":"cebpf4jnsgd1na2vs0mg"},{"bike_id":"90ef93cd-7bcd-46f4-8666-28c4486843ea","system_id":"levelo_inurba_marseille","lat":43.29005,"lon":5.35615,"is_reserved":false,"is_disabled":false,"rental_uris":{"android":"levelo://app?vid=90ef93cd-7bcd-46f4-8666-28c4486843ea","ios":"levelo://app?vid=90ef93cd-7bcd-46f4-8666-28c4486843ea"},"vehicle_type_id":"4","last_reported":1743351035,"current_range_meters":0,"station_id":"ce4bhb92rcd13ifvqen0","pricing_plan_id":"cebpf4jnsgd1na2vs0mg"},{"bike_id":"1a8ec8fe-cd0f-44f4-9a76-dfc354a60ccc","system_id":"levelo_inurba_marseille","lat":43.23948,"lon":5.36209,"is_reserved":false,"is_disabled":false,"rental_uris":{"android":"levelo://app?vid=1a8ec8fe-cd0f-44f4-9a76-dfc354a60ccc","ios":"levelo://app?vid=1a8ec8fe-cd0f-44f4-9a76-dfc354a60ccc"},"vehicle_type_id":"4","last_reported":1743351035,"current_range_meters":6000,"station_id":"","pricing_plan_id":"cebpf4jnsgd1na2vs0mg"},{"bike_id":"f43cccf4-7cd2-4fa6-9fbb-fb74d7164516","system_id":"levelo_inurba_marseille","lat":43.24075,"lon":5.37769,"is_reserved":false,"is_disabled":false,"rental_uris":{"android":"levelo://app?vid=f43cccf4-7cd2-4fa6-9fbb-fb74d7164516","ios":"levelo://app?vid=f43cccf4-7cd2-4fa6-9fbb-fb74d7164516"},"vehicle_type_id":"4","last_reported":1743351035,"current_range_meters":6400,"station_id":"ce4bhnp2rcd13ifvqgvg","pricing_plan_id":"cebpf4jnsgd1na2vs0mg"},{"bike_id":"bc5cfae9-626f-42fb-8071-04d09a103078","system_id":"levelo_inurba_marseille","lat":43.32076,"lon":5.41529,"is_reserved":false,"is_disabled":false,"rental_uris":{"android":"levelo://app?vid=bc5cfae9-626f-42fb-8071-04d09a103078","ios":"levelo://app?vid=bc5cfae9-626f-42fb-8071-04d09a103078"},"vehicle_type_id":"4","last_reported":1743351035,"current_range_meters":6400,"station_id":"ce4bhq92rcd13ifvqhkg","pricing_plan_id":"cebpf4jnsgd1na2vs0mg"},{"bike_id":"2ad094e4-24f5-48c5-8bef-9f93709f80b1","system_id":"levelo_inurba_marseille","lat":43.29168,"lon":5.35603,"is_reserved":false,"is_disabled":false,"rental_uris":{"android":"levelo://app?vid=2ad094e4-24f5-48c5-8bef-9f93709f80b1","ios":"levelo://app?vid=2ad094e4-24f5-48c5-8bef-9f93709f80b1"},"vehicle_type_id":"4","last_reported":1743351035,"current_range_meters":6400,"station_id":"","pricing_plan_id":"cebpf4jnsgd1na2vs0mg"},{"bike_id":"4e55eca5-b1e6-4d15-aa06-0b66a78fad98","system_id":"levelo_inurba_marseille","lat":43.30527,"lon":5.36544,"is_reserved":false,"is_disabled":false,"rental_uris":{"android":"levelo://app?vid=4e55eca5-b1e6-4d15-aa06-0b66a78fad98","ios":"levelo://app?vid=4e55eca5-b1e6-4d15-aa06-0b66a78fad98"},"vehicle_type_id":"4","last_reported":1743351035,"current_range_meters":6400,"station_id":"ce4bgs12rcd13ifvqcag","pricing_plan_id":"cebpf4jnsgd1na2vs0mg"},{"bike_id":"11ffa072-3e68-42ce-9ba6-aeac7a42428b","system_id":"levelo_inurba_marseille","lat":43.2762,"lon":5.36131,"is_reserved":false,"is_disabled":false,"rental_uris":{"android":"levelo://app?vid=11ffa072-3e68-42ce-9ba6-aeac7a42428b","ios":"levelo://app?vid=11ffa072-3e68-42ce-9ba6-aeac7a42428b"},"vehicle_type_id":"4","last_reported":1743351035,"current_range_meters":6400,"station_id":"ce4bgj92rcd13ifvqbe0","pricing_plan_id":"cebpf4jnsgd1na2vs0mg"},{"bike_id":"0942d152-eaf7-4b80-b762-15271cb7f72f","system_id":"levelo_inurba_marseille","lat":43.25581,"lon":5.38246,"is_reserved":false,"is_disabled":false,"rental_uris":{"android":"levelo://app?vid=0942d152-eaf7-4b80-b762-15271cb7f72f","ios":"levelo://app?vid=0942d152-eaf7-4b80-b762-15271cb7f72f"},"vehicle_type_id":"4","last_reported":1743351035,"current_range_meters":6400,"station_id":"ce4bhih2rcd13ifvqfs0","pricing_plan_id":"cebpf4jnsgd1na2vs0mg"},{"bike_id":"714a4f0b-a43c-4b60-9965-f459a37a3489","system_id":"levelo_inurba_marseille","lat":43.33111,"lon":5.38639,"is_reserved":false,"is_disabled":false,"rental_uris":{"android":"levelo://app?vid=714a4f0b-a43c-4b60-9965-f459a37a3489","ios":"levelo://app?vid=714a4f0b-a43c-4b60-9965-f459a37a3489"},"vehicle_type_id":"4","last_reported":1743351035,"current_range_meters":6400,"station_id":"","pricing_plan_id":"cebpf4jnsgd1na2vs0mg"},{"bike_id":"562c173b-3b8e-4910-ab11-1e2a6a4dfce4","system_id":"levelo_inurba_marseille","lat":43.265746,"lon":5.390045,"is_reserved":false,"is_disabled":false,"rental_uris":{"android":"levelo://app?vid=562c173b-3b8e-4910-ab11-1e2a6a4dfce4","ios":"levelo://app?vid=562c173b-3b8e-4910-ab11-1e2a6a4dfce4"},"vehicle_type_id":"4","last_reported":1743351035,"current_range_meters":6800,"station_id":"ce4bhip2rcd13ifvqft0","pricing_plan_id":"cebpf4jnsgd1na2vs0mg"},{"bike_id":"3b9e2dbb-dda4-4ed5-8aef-7e67e6437f0d","system_id":"levelo_inurba_marseille","lat":43.33341,"lon":5.40137,"is_reserved":false,"is_disabled":false,"rental_uris":{"android":"levelo://app?vid=3b9e2dbb-dda4-4ed5-8aef-7e67e6437f0d","ios":"levelo://app?vid=3b9e2dbb-dda4-4ed5-8aef-7e67e6437f0d"},"vehicle_type_id":"4","last_reported":1743351035,"current_range_meters":6400,"station_id":"","pricing_plan_id":"cebpf4jnsgd1na2vs0mg"},{"bike_id":"3c79c76c-84ac-435c-b5a6-29a2a65b90d3","system_id":"levelo_inurba_marseille","lat":43.28037,"lon":5.36946,"is_reserved":false,"is_disabled":false,"rental_uris":{"android":"levelo://app?vid=3c79c76c-84ac-435c-b5a6-29a2a65b90d3","ios":"levelo://app?vid=3c79c76c-84ac-435c-b5a6-29a2a65b90d3"},"vehicle_type_id":"4","last_reported":1743351035,"current_range_meters":6800,"station_id":"ce4bha12rcd13ifvqef0","pricing_plan_id":"cebpf4jnsgd1na2vs0mg"},{"bike_id":"2a8d2633-c7b3-42e7-b12e-ae52471bca0d","system_id":"levelo_inurba_marseille","lat":43.26217,"lon":5.40457,"is_reserved":false,"is_disabled":false,"rental_uris":{"android":"levelo://app?vid=2a8d2633-c7b3-42e7-b12e-ae52471bca0d","ios":"levelo://app?vid=2a8d2633-c7b3-42e7-b12e-ae52471bca0d"},"vehicle_type_id":"4","last_reported":1743351035,"current_range_meters":6800,"station_id":"ce4bhmh2rcd13ifvqgmg","pricing_plan_id":"cebpf4jnsgd1na2vs0mg"},{"bike_id":"6f6e8980-5f41-479c-bf69-f90def123c34","system_id":"levelo_inurba_marseille","lat":43.31365,"lon":5.38488,"is_reserved":false,"is_disabled":false,"rental_uris":{"android":"levelo://app?vid=6f6e8980-5f41-479c-bf69-f90def123c34","ios":"levelo://app?vid=6f6e8980-5f41-479c-bf69-f90def123c34"},"vehicle_type_id":"4","last_reported":1743351035,"current_range_meters":6800,"station_id":"ce4bgt92rcd13ifvqcf0","pricing_plan_id":"cebpf4jnsgd1na2vs0mg"},{"bike_id":"8e69e7f9-76b5-4d0a-8b34-45d50fc637f3","system_id":"levelo_inurba_marseille","lat":43.24209,"lon":5.38425,"is_reserved":false,"is_disabled":false,"rental_uris":{"android":"levelo://app?vid=8e69e7f9-76b5-4d0a-8b34-45d50fc637f3","ios":"levelo://app?vid=8e69e7f9-76b5-4d0a-8b34-45d50fc637f3"},"vehicle_type_id":"4","last_reported":1743351035,"current_range_meters":6800,"station_id":"","pricing_plan_id":"cebpf4jnsgd1na2vs0mg"},{"bike_id":"5cacda67-0697-43bb-acaa-494ee37c6cde","system_id":"levelo_inurba_marseille","lat":43.23191,"lon":5.35552,"is_reserved":false,"is_disabled":false,"rental_uris":{"android":"levelo://app?vid=5cacda67-0697-43bb-acaa-494ee37c6cde","ios":"levelo://app?vid=5cacda67-0697-43bb-acaa-494ee37c6cde"},"vehicle_type_id":"4","last_reported":1743351035,"current_range_meters":6800,"station_id":"ce4bhu92rcd13ifvqi70","pricing_plan_id":"cebpf4jnsgd1na2vs0mg"},{"bike_id":"c8b7de83-0dd0-40d2-9e19-db7790111576","system_id":"levelo_inurba_marseille","lat":43.28422,"lon":5.34995,"is_reserved":false,"is_disabled":false,"rental_uris":{"android":"levelo://app?vid=c8b7de83-0dd0-40d2-9e19-db7790111576","ios":"levelo://app?vid=c8b7de83-0dd0-40d2-9e19-db7790111576"},"vehicle_type_id":"4","last_reported":1743351035,"current_range_meters":6800,"station_id":"ce4bhbh2rcd13ifvqepg","pricing_plan_id":"cebpf4jnsgd1na2vs0mg"},{"bike_id":"5a3307a6-54ca-44bc-a5fd-ab80751e6464","system_id":"levelo_inurba_marseille","lat":43.23192,"lon":5.39979,"is_reserved":false,"is_disabled":true,"rental_uris":{"android":"levelo://app?vid=5a3307a6-54ca-44bc-a5fd-ab80751e6464","ios":"levelo://app?vid=5a3307a6-54ca-44bc-a5fd-ab80751e6464"},"vehicle_type_id":"4","last_reported":1743351035,"current_range_meters":6800,"station_id":"ce4bhn12rcd13ifvqgqg","pricing_plan_id":"cebpf4jnsgd1na2vs0mg"},{"bike_id":"f4514236-06e3-48aa-92bb-49d186118376","system_id":"levelo_inurba_marseille","lat":43.24173,"lon":5.364,"is_reserved":false,"is_disabled":false,"rental_uris":{"android":"levelo://app?vid=f4514236-06e3-48aa-92bb-49d186118376","ios":"levelo://app?vid=f4514236-06e3-48aa-92bb-49d186118376"},"vehicle_type_id":"4","last_reported":1743351035,"current_range_meters":6800,"station_id":"cpo36qri1sfpv3e86is0","pricing_plan_id":"cebpf4jnsgd1na2vs0mg"},{"bike_id":"1e9e8dd3-36b1-4144-a27b-6864e9656b32","system_id":"levelo_inurba_marseille","lat":43.31024,"lon":5.42755,"is_reserved":false,"is_disabled":false,"rental_uris":{"android":"levelo://app?vid=1e9e8dd3-36b1-4144-a27b-6864e9656b32","ios":"levelo://app?vid=1e9e8dd3-36b1-4144-a27b-6864e9656b32"},"vehicle_type_id":"4","last_reported":1743351035,"current_range_meters":6800,"station_id":"","pricing_plan_id":"cebpf4jnsgd1na2vs0mg"},{"bike_id":"b2e6e5f9-815c-46ac-bebd-de4e22a8e049","system_id":"levelo_inurba_marseille","lat":43.33183,"lon":5.39568,"is_reserved":false,"is_disabled":false,"rental_uris":{"android":"levelo://app?vid=b2e6e5f9-815c-46ac-bebd-de4e22a8e049","ios":"levelo://app?vid=b2e6e5f9-815c-46ac-bebd-de4e22a8e049"},"vehicle_type_id":"4","last_reported":1743351035,"current_range_meters":7200,"station_id":"","pricing_plan_id":"cebpf4jnsgd1na2vs0mg"},{"bike_id":"b98594d7-8128-4bc2-a9d4-f4c330986c65","system_id":"levelo_inurba_marseille","lat":43.23972,"lon":5.36667,"is_reserved":false,"is_disabled":false,"rental_uris":{"android":"levelo://app?vid=b98594d7-8128-4bc2-a9d4-f4c330986c65","ios":"levelo://app?vid=b98594d7-8128-4bc2-a9d4-f4c330986c65"},"vehicle_type_id":"4","last_reported":1743351035,"current_range_meters":7200,"station_id":"ce4bhi12rcd13ifvqfp0","pricing_plan_id":"cebpf4jnsgd1na2vs0mg"},{"bike_id":"51cdce4b-e7da-459e-8ee4-1f907fb64061","system_id":"levelo_inurba_marseille","lat":43.29415,"lon":5.38628,"is_reserved":false,"is_disabled":false,"rental_uris":{"android":"levelo://app?vid=51cdce4b-e7da-459e-8ee4-1f907fb64061","ios":"levelo://app?vid=51cdce4b-e7da-459e-8ee4-1f907fb64061"},"vehicle_type_id":"4","last_reported":1743351035,"current_range_meters":7200,"station_id":"ce4bh2h2rcd13ifvqdh0","pricing_plan_id":"cebpf4jnsgd1na2vs0mg"},{"bike_id":"f6d9a657-1884-4623-b181-56f09b7318b1","system_id":"levelo_inurba_marseille","lat":43.25497,"lon":5.37649,"is_reserved":false,"is_disabled":false,"rental_uris":{"android":"levelo://app?vid=f6d9a657-1884-4623-b181-56f09b7318b1","ios":"levelo://app?vid=f6d9a657-1884-4623-b181-56f09b7318b1"},"vehicle_type_id":"4","last_reported":1743351035,"current_range_meters":6400,"station_id":"ce4bhh12rcd13ifvqff0","pricing_plan_id":"cebpf4jnsgd1na2vs0mg"},{"bike_id":"486b231e-b6b6-4e97-a826-eb8541d8d1e7","system_id":"levelo_inurba_marseille","lat":43.246183,"lon":5.380617,"is_reserved":false,"is_disabled":false,"rental_uris":{"android":"levelo://app?vid=486b231e-b6b6-4e97-a826-eb8541d8d1e7","ios":"levelo://app?vid=486b231e-b6b6-4e97-a826-eb8541d8d1e7"},"vehicle_type_id":"4","last_reported":1743351035,"current_range_meters":7200,"station_id":"ce4bhgh2rcd13ifvqfb0","pricing_plan_id":"cebpf4jnsgd1na2vs0mg"},{"bike_id":"284a1f4d-bf0a-45fc-b4a6-34676ba11dbe","system_id":"levelo_inurba_marseille","lat":43.24201,"lon":5.36448,"is_reserved":false,"is_disabled":false,"rental_uris":{"android":"levelo://app?vid=284a1f4d-bf0a-45fc-b4a6-34676ba11dbe","ios":"levelo://app?vid=284a1f4d-bf0a-45fc-b4a6-34676ba11dbe"},"vehicle_type_id":"4","last_reported":1743351035,"current_range_meters":7200,"station_id":"","pricing_plan_id":"cebpf4jnsgd1na2vs0mg"},{"bike_id":"861fba4a-9c12-463c-8a39-b4a694ea5d40","system_id":"levelo_inurba_marseille","lat":43.23958,"lon":5.36647,"is_reserved":false,"is_disabled":true,"rental_uris":{"android":"levelo://app?vid=861fba4a-9c12-463c-8a39-b4a694ea5d40","ios":"levelo://app?vid=861fba4a-9c12-463c-8a39-b4a694ea5d40"},"vehicle_type_id":"4","last_reported":1743351035,"current_range_meters":7200,"station_id":"ce4bhi12rcd13ifvqfp0","pricing_plan_id":"cebpf4jnsgd1na2vs0mg"},{"bike_id":"e6b237ea-6a2c-4ba7-8b42-e284823c64e6","system_id":"levelo_inurba_marseille","lat":43.29863,"lon":5.36299,"is_reserved":false,"is_disabled":true,"rental_uris":{"android":"levelo://app?vid=e6b237ea-6a2c-4ba7-8b42-e284823c64e6","ios":"levelo://app?vid=e6b237ea-6a2c-4ba7-8b42-e284823c64e6"},"vehicle_type_id":"4","last_reported":1743351035,"current_range_meters":7200,"station_id":"ce4bgpp2rcd13ifvqc3g","pricing_plan_id":"cebpf4jnsgd1na2vs0mg"},{"bike_id":"919db4fc-baad-449b-8b21-5fa283bd76fb","system_id":"levelo_inurba_marseille","lat":43.29867,"lon":5.38801,"is_reserved":false,"is_disabled":false,"rental_uris":{"android":"levelo://app?vid=919db4fc-baad-449b-8b21-5fa283bd76fb","ios":"levelo://app?vid=919db4fc-baad-449b-8b21-5fa283bd76fb"},"vehicle_type_id":"4","last_reported":1743351035,"current_range_meters":7200,"station_id":"chh1huq6cuj3fo74tm60","pricing_plan_id":"cebpf4jnsgd1na2vs0mg"},{"bike_id":"a1b5a514-f0ef-42eb-b1a4-22dd30a86324","system_id":"levelo_inurba_marseille","lat":43.31754,"lon":5.39057,"is_reserved":false,"is_disabled":false,"rental_uris":{"android":"levelo://app?vid=a1b5a514-f0ef-42eb-b1a4-22dd30a86324","ios":"levelo://app?vid=a1b5a514-f0ef-42eb-b1a4-22dd30a86324"},"vehicle_type_id":"4","last_reported":1743351035,"current_range_meters":7200,"station_id":"ce4bhqp2rcd13ifvqhng","pricing_plan_id":"cebpf4jnsgd1na2vs0mg"},{"bike_id":"1ee3ce0e-dd2d-47f9-9e65-0b791d57c83d","system_id":"levelo_inurba_marseille","lat":43.24167,"lon":5.36385,"is_reserved":false,"is_disabled":false,"rental_uris":{"android":"levelo://app?vid=1ee3ce0e-dd2d-47f9-9e65-0b791d57c83d","ios":"levelo://app?vid=1ee3ce0e-dd2d-47f9-9e65-0b791d57c83d"},"vehicle_type_id":"4","last_reported":1743351035,"current_range_meters":8000,"station_id":"cpo36qri1sfpv3e86is0","pricing_plan_id":"cebpf4jnsgd1na2vs0mg"},{"bike_id":"2be4c041-7dd3-47f1-962f-d6875754bbfa","system_id":"levelo_inurba_marseille","lat":43.30474,"lon":5.37907,"is_reserved":false,"is_disabled":false,"rental_uris":{"android":"levelo://app?vid=2be4c041-7dd3-47f1-962f-d6875754bbfa","ios":"levelo://app?vid=2be4c041-7dd3-47f1-962f-d6875754bbfa"},"vehicle_type_id":"4","last_reported":1743351035,"current_range_meters":8000,"station_id":"ce4bgup2rcd13ifvqcn0","pricing_plan_id":"cebpf4jnsgd1na2vs0mg"},{"bike_id":"d0ed36b4-3c5a-4da6-8fb4-955c321dd03a","system_id":"levelo_inurba_marseille","lat":43.27537,"lon":5.41016,"is_reserved":false,"is_disabled":false,"rental_uris":{"android":"levelo://app?vid=d0ed36b4-3c5a-4da6-8fb4-955c321dd03a","ios":"levelo://app?vid=d0ed36b4-3c5a-4da6-8fb4-955c321dd03a"},"vehicle_type_id":"4","last_reported":1743351035,"current_range_meters":8000,"station_id":"","pricing_plan_id":"cebpf4jnsgd1na2vs0mg"},{"bike_id":"92bfecbf-789d-4c73-ae76-0e5a1e2a6e8a","system_id":"levelo_inurba_marseille","lat":43.25578,"lon":5.38241,"is_reserved":false,"is_disabled":false,"rental_uris":{"android":"levelo://app?vid=92bfecbf-789d-4c73-ae76-0e5a1e2a6e8a","ios":"levelo://app?vid=92bfecbf-789d-4c73-ae76-0e5a1e2a6e8a"},"vehicle_type_id":"4","last_reported":1743351035,"current_range_meters":8000,"station_id":"ce4bhih2rcd13ifvqfs0","pricing_plan_id":"cebpf4jnsgd1na2vs0mg"},{"bike_id":"96ac20e8-5840-4579-b371-184ec6253952","system_id":"levelo_inurba_marseille","lat":43.27497,"lon":5.41122,"is_reserved":false,"is_disabled":false,"rental_uris":{"android":"levelo://app?vid=96ac20e8-5840-4579-b371-184ec6253952","ios":"levelo://app?vid=96ac20e8-5840-4579-b371-184ec6253952"},"vehicle_type_id":"4","last_reported":1743351035,"current_range_meters":8000,"station_id":"","pricing_plan_id":"cebpf4jnsgd1na2vs0mg"},{"bike_id":"85790c5c-0791-4399-ac72-916309fd0eb1","system_id":"levelo_inurba_marseille","lat":43.31078,"lon":5.42427,"is_reserved":false,"is_disabled":false,"rental_uris":{"android":"levelo://app?vid=85790c5c-0791-4399-ac72-916309fd0eb1","ios":"levelo://app?vid=85790c5c-0791-4399-ac72-916309fd0eb1"},"vehicle_type_id":"4","last_reported":1743351035,"current_range_meters":8000,"station_id":"ce4bhp92rcd13ifvqhag","pricing_plan_id":"cebpf4jnsgd1na2vs0mg"},{"bike_id":"747d2bc2-6706-42d9-8381-8fcc8fac62bd","system_id":"levelo_inurba_marseille","lat":43.29007,"lon":5.37151,"is_reserved":false,"is_disabled":true,"rental_uris":{"android":"levelo://app?vid=747d2bc2-6706-42d9-8381-8fcc8fac62bd","ios":"levelo://app?vid=747d2bc2-6706-42d9-8381-8fcc8fac62bd"},"vehicle_type_id":"4","last_reported":1743351035,"current_range_meters":8000,"station_id":"","pricing_plan_id":"cebpf4jnsgd1na2vs0mg"},{"bike_id":"6ef33fb7-c8f7-439c-8d0f-8f5702394320","system_id":"levelo_inurba_marseille","lat":43.24545,"lon":5.3952,"is_reserved":false,"is_disabled":false,"rental_uris":{"android":"levelo://app?vid=6ef33fb7-c8f7-439c-8d0f-8f5702394320","ios":"levelo://app?vid=6ef33fb7-c8f7-439c-8d0f-8f5702394320"},"vehicle_type_id":"4","last_reported":1743351035,"current_range_meters":8000,"station_id":"ce4bhlp2rcd13ifvqgjg","pricing_plan_id":"cebpf4jnsgd1na2vs0mg"},{"bike_id":"ead84735-1991-4501-b506-2229ced7058a","system_id":"levelo_inurba_marseille","lat":43.23053,"lon":5.35485,"is_reserved":false,"is_disabled":false,"rental_uris":{"android":"levelo://app?vid=ead84735-1991-4501-b506-2229ced7058a","ios":"levelo://app?vid=ead84735-1991-4501-b506-2229ced7058a"},"vehicle_type_id":"4","last_reported":1743351035,"current_range_meters":8000,"station_id":"cpo3342slgdg3j2ifvpg","pricing_plan_id":"cebpf4jnsgd1na2vs0mg"},{"bike_id":"99864047-3ac3-45c4-a913-53ee9cea7446","system_id":"levelo_inurba_marseille","lat":43.28701,"lon":5.37416,"is_reserved":false,"is_disabled":true,"rental_uris":{"android":"levelo://app?vid=99864047-3ac3-45c4-a913-53ee9cea7446","ios":"levelo://app?vid=99864047-3ac3-45c4-a913-53ee9cea7446"},"vehicle_type_id":"4","last_reported":1743351035,"current_range_meters":8000,"station_id":"ce4bh3p2rcd13ifvqdq0","pricing_plan_id":"cebpf4jnsgd1na2vs0mg"},{"bike_id":"37f41d5f-3983-4db2-8781-c345307ed7b9","system_id":"levelo_inurba_marseille","lat":43.27492,"lon":5.42456,"is_reserved":false,"is_disabled":false,"rental_uris":{"android":"levelo://app?vid=37f41d5f-3983-4db2-8781-c345307ed7b9","ios":"levelo://app?vid=37f41d5f-3983-4db2-8781-c345307ed7b9"},"vehicle_type_id":"4","last_reported":1743351035,"current_range_meters":8000,"station_id":"ce4bhn92rcd13ifvqgrg","pricing_plan_id":"cebpf4jnsgd1na2vs0mg"},{"bike_id":"b1118916-55b8-475c-b235-b75b0d2b76da","system_id":"levelo_inurba_marseille","lat":43.288499,"lon":5.393126,"is_reserved":false,"is_disabled":false,"rental_uris":{"android":"levelo://app?vid=b1118916-55b8-475c-b235-b75b0d2b76da","ios":"levelo://app?vid=b1118916-55b8-475c-b235-b75b0d2b76da"},"vehicle_type_id":"4","last_reported":1743351035,"current_range_meters":8000,"station_id":"ce4bh2p2rcd13ifvqdi0","pricing_plan_id":"cebpf4jnsgd1na2vs0mg"},{"bike_id":"2826a014-46a8-4ce1-9aa3-9809edb0e507","system_id":"levelo_inurba_marseille","lat":43.29039,"lon":5.37548,"is_reserved":false,"is_disabled":false,"rental_uris":{"android":"levelo://app?vid=2826a014-46a8-4ce1-9aa3-9809edb0e507","ios":"levelo://app?vid=2826a014-46a8-4ce1-9aa3-9809edb0e507"},"vehicle_type_id":"4","last_reported":1743351035,"current_range_meters":8000,"station_id":"ce4bh692rcd13ifvqe90","pricing_plan_id":"cebpf4jnsgd1na2vs0mg"},{"bike_id":"faedcdbc-5f57-41dc-bb21-13417442dbf5","system_id":"levelo_inurba_marseille","lat":43.30131,"lon":5.38786,"is_reserved":false,"is_disabled":false,"rental_uris":{"android":"levelo://app?vid=faedcdbc-5f57-41dc-bb21-13417442dbf5","ios":"levelo://app?vid=faedcdbc-5f57-41dc-bb21-13417442dbf5"},"vehicle_type_id":"4","last_reported":1743351035,"current_range_meters":8000,"station_id":"ce4bghh2rcd13ifvqb60","pricing_plan_id":"cebpf4jnsgd1na2vs0mg"},{"bike_id":"c839e48e-0359-4e60-87f4-ae83deaabfd0","system_id":"levelo_inurba_marseille","lat":43.32334,"lon":5.406247,"is_reserved":false,"is_disabled":false,"rental_uris":{"android":"levelo://app?vid=c839e48e-0359-4e60-87f4-ae83deaabfd0","ios":"levelo://app?vid=c839e48e-0359-4e60-87f4-ae83deaabfd0"},"vehicle_type_id":"4","last_reported":1743351035,"current_range_meters":8000,"station_id":"ce4bhq12rcd13ifvqhig","pricing_plan_id":"cebpf4jnsgd1na2vs0mg"},{"bike_id":"1a09ad93-3d91-4423-9534-3f85a3a85bd7","system_id":"levelo_inurba_marseille","lat":43.292637,"lon":5.384408,"is_reserved":false,"is_disabled":false,"rental_uris":{"android":"levelo://app?vid=1a09ad93-3d91-4423-9534-3f85a3a85bd7","ios":"levelo://app?vid=1a09ad93-3d91-4423-9534-3f85a3a85bd7"},"vehicle_type_id":"4","last_reported":1743351035,"current_range_meters":8400,"station_id":"ce4bh692rcd13ifvqea0","pricing_plan_id":"cebpf4jnsgd1na2vs0mg"},{"bike_id":"25bb5fbc-8229-4010-b703-31f5ee6ac141","system_id":"levelo_inurba_marseille","lat":43.30658,"lon":5.36595,"is_reserved":false,"is_disabled":false,"rental_uris":{"android":"levelo://app?vid=25bb5fbc-8229-4010-b703-31f5ee6ac141","ios":"levelo://app?vid=25bb5fbc-8229-4010-b703-31f5ee6ac141"},"vehicle_type_id":"4","last_reported":1743351035,"current_range_meters":8400,"station_id":"","pricing_plan_id":"cebpf4jnsgd1na2vs0mg"},{"bike_id":"a75bc88c-a685-4dc7-8af9-ad27eb8fcd97","system_id":"levelo_inurba_marseille","lat":43.24075,"lon":5.37762,"is_reserved":false,"is_disabled":false,"rental_uris":{"android":"levelo://app?vid=a75bc88c-a685-4dc7-8af9-ad27eb8fcd97","ios":"levelo://app?vid=a75bc88c-a685-4dc7-8af9-ad27eb8fcd97"},"vehicle_type_id":"4","last_reported":1743351035,"current_range_meters":8400,"station_id":"ce4bhnp2rcd13ifvqgvg","pricing_plan_id":"cebpf4jnsgd1na2vs0mg"},{"bike_id":"42bc7b23-0e2f-4d72-b583-40bcdabb28c7","system_id":"levelo_inurba_marseille","lat":43.29543,"lon":5.3738,"is_reserved":false,"is_disabled":false,"rental_uris":{"android":"levelo://app?vid=42bc7b23-0e2f-4d72-b583-40bcdabb28c7","ios":"levelo://app?vid=42bc7b23-0e2f-4d72-b583-40bcdabb28c7"},"vehicle_type_id":"4","last_reported":1743351035,"current_range_meters":8400,"station_id":"","pricing_plan_id":"cebpf4jnsgd1na2vs0mg"},{"bike_id":"0299ebd1-aa5f-446a-8c85-d3a74d6635ef","system_id":"levelo_inurba_marseille","lat":43.25117,"lon":5.40316,"is_reserved":false,"is_disabled":false,"rental_uris":{"android":"levelo://app?vid=0299ebd1-aa5f-446a-8c85-d3a74d6635ef","ios":"levelo://app?vid=0299ebd1-aa5f-446a-8c85-d3a74d6635ef"},"vehicle_type_id":"4","last_reported":1743351035,"current_range_meters":8400,"station_id":"ce4bhlh2rcd13ifvqgig","pricing_plan_id":"cebpf4jnsgd1na2vs0mg"},{"bike_id":"f1f937ef-3e56-40c0-91fd-d5a532c01480","system_id":"levelo_inurba_marseille","lat":43.24674,"lon":5.38161,"is_reserved":false,"is_disabled":true,"rental_uris":{"android":"levelo://app?vid=f1f937ef-3e56-40c0-91fd-d5a532c01480","ios":"levelo://app?vid=f1f937ef-3e56-40c0-91fd-d5a532c01480"},"vehicle_type_id":"4","last_reported":1743351035,"current_range_meters":8400,"station_id":"ce4bhih2rcd13ifvqfr0","pricing_plan_id":"cebpf4jnsgd1na2vs0mg"},{"bike_id":"488767ae-a52a-41d7-8f9a-e947164469f3","system_id":"levelo_inurba_marseille","lat":43.31624,"lon":5.41652,"is_reserved":false,"is_disabled":true,"rental_uris":{"android":"levelo://app?vid=488767ae-a52a-41d7-8f9a-e947164469f3","ios":"levelo://app?vid=488767ae-a52a-41d7-8f9a-e947164469f3"},"vehicle_type_id":"4","last_reported":1743351035,"current_range_meters":8400,"station_id":"","pricing_plan_id":"cebpf4jnsgd1na2vs0mg"},{"bike_id":"19e5b8ed-85f2-479c-a734-555d5bea6989","system_id":"levelo_inurba_marseille","lat":43.23059,"lon":5.35492,"is_reserved":false,"is_disabled":false,"rental_uris":{"android":"levelo://app?vid=19e5b8ed-85f2-479c-a734-555d5bea6989","ios":"levelo://app?vid=19e5b8ed-85f2-479c-a734-555d5bea6989"},"vehicle_type_id":"4","last_reported":1743351035,"current_range_meters":8400,"station_id":"cpo3342slgdg3j2ifvpg","pricing_plan_id":"cebpf4jnsgd1na2vs0mg"},{"bike_id":"5e529e73-0bba-45d8-b1ad-2bd6d3254b55","system_id":"levelo_inurba_marseille","lat":43.24807,"lon":5.37456,"is_reserved":false,"is_disabled":false,"rental_uris":{"android":"levelo://app?vid=5e529e73-0bba-45d8-b1ad-2bd6d3254b55","ios":"levelo://app?vid=5e529e73-0bba-45d8-b1ad-2bd6d3254b55"},"vehicle_type_id":"4","last_reported":1743351035,"current_range_meters":8400,"station_id":"ce4bhgh2rcd13ifvqfb0","pricing_plan_id":"cebpf4jnsgd1na2vs0mg"},{"bike_id":"adbaefcb-77f8-4d24-9c51-5bcc981799d8","system_id":"levelo_inurba_marseille","lat":43.27375,"lon":5.36246,"is_reserved":false,"is_disabled":false,"rental_uris":{"android":"levelo://app?vid=adbaefcb-77f8-4d24-9c51-5bcc981799d8","ios":"levelo://app?vid=adbaefcb-77f8-4d24-9c51-5bcc981799d8"},"vehicle_type_id":"4","last_reported":1743351035,"current_range_meters":8400,"station_id":"ce4bhbh2rcd13ifvqeo0","pricing_plan_id":"cebpf4jnsgd1na2vs0mg"},{"bike_id":"3e162b14-fff6-4274-8bc6-c664046090ff","system_id":"levelo_inurba_marseille","lat":43.23198,"lon":5.40005,"is_reserved":false,"is_disabled":false,"rental_uris":{"android":"levelo://app?vid=3e162b14-fff6-4274-8bc6-c664046090ff","ios":"levelo://app?vid=3e162b14-fff6-4274-8bc6-c664046090ff"},"vehicle_type_id":"4","last_reported":1743351035,"current_range_meters":8400,"station_id":"ce4bhn12rcd13ifvqgqg","pricing_plan_id":"cebpf4jnsgd1na2vs0mg"},{"bike_id":"4576df33-62a6-4a82-9ad2-6633066a7f89","system_id":"levelo_inurba_marseille","lat":43.30809,"lon":5.38155,"is_reserved":false,"is_disabled":false,"rental_uris":{"android":"levelo://app?vid=4576df33-62a6-4a82-9ad2-6633066a7f89","ios":"levelo://app?vid=4576df33-62a6-4a82-9ad2-6633066a7f89"},"vehicle_type_id":"4","last_reported":1743351035,"current_range_meters":8400,"station_id":"ce4bgt12rcd13ifvqce0","pricing_plan_id":"cebpf4jnsgd1na2vs0mg"},{"bike_id":"dc80ccf0-70a3-4ea8-8da8-f11dae588e88","system_id":"levelo_inurba_marseille","lat":43.274,"lon":5.36265,"is_reserved":false,"is_disabled":false,"rental_uris":{"android":"levelo://app?vid=dc80ccf0-70a3-4ea8-8da8-f11dae588e88","ios":"levelo://app?vid=dc80ccf0-70a3-4ea8-8da8-f11dae588e88"},"vehicle_type_id":"4","last_reported":1743351035,"current_range_meters":8400,"station_id":"ce4bhbh2rcd13ifvqeo0","pricing_plan_id":"cebpf4jnsgd1na2vs0mg"},{"bike_id":"334da490-8ea6-4ec7-a59d-a3880a5e3d1e","system_id":"levelo_inurba_marseille","lat":43.27389,"lon":5.3627,"is_reserved":false,"is_disabled":false,"rental_uris":{"android":"levelo://app?vid=334da490-8ea6-4ec7-a59d-a3880a5e3d1e","ios":"levelo://app?vid=334da490-8ea6-4ec7-a59d-a3880a5e3d1e"},"vehicle_type_id":"4","last_reported":1743351035,"current_range_meters":8800,"station_id":"ce4bhbh2rcd13ifvqeo0","pricing_plan_id":"cebpf4jnsgd1na2vs0mg"},{"bike_id":"76d4ed16-8625-4a14-a5f1-d28ac2574c13","system_id":"levelo_inurba_marseille","lat":43.24548,"lon":5.3954,"is_reserved":false,"is_disabled":false,"rental_uris":{"android":"levelo://app?vid=76d4ed16-8625-4a14-a5f1-d28ac2574c13","ios":"levelo://app?vid=76d4ed16-8625-4a14-a5f1-d28ac2574c13"},"vehicle_type_id":"4","last_reported":1743351035,"current_range_meters":8800,"station_id":"ce4bhlp2rcd13ifvqgjg","pricing_plan_id":"cebpf4jnsgd1na2vs0mg"},{"bike_id":"fa747ab9-1631-47f5-91b0-5727a7d365e8","system_id":"levelo_inurba_marseille","lat":43.246528,"lon":5.388916,"is_reserved":false,"is_disabled":false,"rental_uris":{"android":"levelo://app?vid=fa747ab9-1631-47f5-91b0-5727a7d365e8","ios":"levelo://app?vid=fa747ab9-1631-47f5-91b0-5727a7d365e8"},"vehicle_type_id":"4","last_reported":1743351035,"current_range_meters":8800,"station_id":"ce4bhg12rcd13ifvqf60","pricing_plan_id":"cebpf4jnsgd1na2vs0mg"},{"bike_id":"4f38958f-a5aa-4da2-acc2-f2afdf58d119","system_id":"levelo_inurba_marseille","lat":43.2987,"lon":5.39732,"is_reserved":false,"is_disabled":false,"rental_uris":{"android":"levelo://app?vid=4f38958f-a5aa-4da2-acc2-f2afdf58d119","ios":"levelo://app?vid=4f38958f-a5aa-4da2-acc2-f2afdf58d119"},"vehicle_type_id":"4","last_reported":1743351035,"current_range_meters":8800,"station_id":"ce4bh0h2rcd13ifvqd50","pricing_plan_id":"cebpf4jnsgd1na2vs0mg"},{"bike_id":"7b3996bd-8489-4d30-b4c0-fc05c60d1cc7","system_id":"levelo_inurba_marseille","lat":43.27913,"lon":5.39577,"is_reserved":false,"is_disabled":false,"rental_uris":{"android":"levelo://app?vid=7b3996bd-8489-4d30-b4c0-fc05c60d1cc7","ios":"levelo://app?vid=7b3996bd-8489-4d30-b4c0-fc05c60d1cc7"},"vehicle_type_id":"4","last_reported":1743351035,"current_range_meters":8800,"station_id":"ce4bhf92rcd13ifvqf40","pricing_plan_id":"cebpf4jnsgd1na2vs0mg"},{"bike_id":"9975c7eb-ba11-4502-8a3c-63b05c75b1b4","system_id":"levelo_inurba_marseille","lat":43.29984,"lon":5.37185,"is_reserved":false,"is_disabled":false,"rental_uris":{"android":"levelo://app?vid=9975c7eb-ba11-4502-8a3c-63b05c75b1b4","ios":"levelo://app?vid=9975c7eb-ba11-4502-8a3c-63b05c75b1b4"},"vehicle_type_id":"4","last_reported":1743351035,"current_range_meters":8800,"station_id":"ce4bgr92rcd13ifvqc7g","pricing_plan_id":"cebpf4jnsgd1na2vs0mg"},{"bike_id":"ee329477-fab7-44d9-8cdd-d6aec9dc4073","system_id":"levelo_inurba_marseille","lat":43.29198,"lon":5.35801,"is_reserved":false,"is_disabled":false,"rental_uris":{"android":"levelo://app?vid=ee329477-fab7-44d9-8cdd-d6aec9dc4073","ios":"levelo://app?vid=ee329477-fab7-44d9-8cdd-d6aec9dc4073"},"vehicle_type_id":"4","last_reported":1743351035,"current_range_meters":8800,"station_id":"ce4bhb12rcd13ifvqel0","pricing_plan_id":"cebpf4jnsgd1na2vs0mg"},{"bike_id":"915f875a-1d86-4319-b636-2c4274059607","system_id":"levelo_inurba_marseille","lat":43.24162,"lon":5.36401,"is_reserved":false,"is_disabled":false,"rental_uris":{"android":"levelo://app?vid=915f875a-1d86-4319-b636-2c4274059607","ios":"levelo://app?vid=915f875a-1d86-4319-b636-2c4274059607"},"vehicle_type_id":"4","last_reported":1743351035,"current_range_meters":8800,"station_id":"cpo36qri1sfpv3e86is0","pricing_plan_id":"cebpf4jnsgd1na2vs0mg"},{"bike_id":"6d4206fd-9a0f-44b9-a121-786d35c913f8","system_id":"levelo_inurba_marseille","lat":43.2509,"lon":5.40315,"is_reserved":false,"is_disabled":false,"rental_uris":{"android":"levelo://app?vid=6d4206fd-9a0f-44b9-a121-786d35c913f8","ios":"levelo://app?vid=6d4206fd-9a0f-44b9-a121-786d35c913f8"},"vehicle_type_id":"4","last_reported":1743351035,"current_range_meters":8800,"station_id":"ce4bhlh2rcd13ifvqgig","pricing_plan_id":"cebpf4jnsgd1na2vs0mg"},{"bike_id":"1872464d-6a9a-4320-8167-1ba2928e088f","system_id":"levelo_inurba_marseille","lat":43.29676,"lon":5.37273,"is_reserved":false,"is_disabled":false,"rental_uris":{"android":"levelo://app?vid=1872464d-6a9a-4320-8167-1ba2928e088f","ios":"levelo://app?vid=1872464d-6a9a-4320-8167-1ba2928e088f"},"vehicle_type_id":"4","last_reported":1743351035,"current_range_meters":8800,"station_id":"ce4bgk12rcd13ifvqbj0","pricing_plan_id":"cebpf4jnsgd1na2vs0mg"},{"bike_id":"73484ef5-38ac-45ee-8637-95752d42965e","system_id":"levelo_inurba_marseille","lat":43.30984,"lon":5.37984,"is_reserved":false,"is_disabled":true,"rental_uris":{"android":"levelo://app?vid=73484ef5-38ac-45ee-8637-95752d42965e","ios":"levelo://app?vid=73484ef5-38ac-45ee-8637-95752d42965e"},"vehicle_type_id":"4","last_reported":1743351035,"current_range_meters":8800,"station_id":"","pricing_plan_id":"cebpf4jnsgd1na2vs0mg"},{"bike_id":"95ae2f73-d331-46bf-b1b1-e69e98400250","system_id":"levelo_inurba_marseille","lat":43.23063,"lon":5.35498,"is_reserved":false,"is_disabled":false,"rental_uris":{"android":"levelo://app?vid=95ae2f73-d331-46bf-b1b1-e69e98400250","ios":"levelo://app?vid=95ae2f73-d331-46bf-b1b1-e69e98400250"},"vehicle_type_id":"4","last_reported":1743351035,"current_range_meters":9200,"station_id":"cpo3342slgdg3j2ifvpg","pricing_plan_id":"cebpf4jnsgd1na2vs0mg"},{"bike_id":"64408daf-1ca5-4542-a58b-bb6756b8b251","system_id":"levelo_inurba_marseille","lat":43.28421,"lon":5.34981,"is_reserved":false,"is_disabled":false,"rental_uris":{"android":"levelo://app?vid=64408daf-1ca5-4542-a58b-bb6756b8b251","ios":"levelo://app?vid=64408daf-1ca5-4542-a58b-bb6756b8b251"},"vehicle_type_id":"4","last_reported":1743351035,"current_range_meters":9200,"station_id":"ce4bhbh2rcd13ifvqepg","pricing_plan_id":"cebpf4jnsgd1na2vs0mg"},{"bike_id":"b896fa0c-aa8a-47be-906b-b8e49416a070","system_id":"levelo_inurba_marseille","lat":43.28418,"lon":5.34986,"is_reserved":false,"is_disabled":false,"rental_uris":{"android":"levelo://app?vid=b896fa0c-aa8a-47be-906b-b8e49416a070","ios":"levelo://app?vid=b896fa0c-aa8a-47be-906b-b8e49416a070"},"vehicle_type_id":"4","last_reported":1743351035,"current_range_meters":9200,"station_id":"ce4bhbh2rcd13ifvqepg","pricing_plan_id":"cebpf4jnsgd1na2vs0mg"},{"bike_id":"7e331ff4-6282-406c-8967-a76a2f91fd20","system_id":"levelo_inurba_marseille","lat":43.30554,"lon":5.36558,"is_reserved":false,"is_disabled":false,"rental_uris":{"android":"levelo://app?vid=7e331ff4-6282-406c-8967-a76a2f91fd20","ios":"levelo://app?vid=7e331ff4-6282-406c-8967-a76a2f91fd20"},"vehicle_type_id":"4","last_reported":1743351035,"current_range_meters":9200,"station_id":"ce4bgs12rcd13ifvqcag","pricing_plan_id":"cebpf4jnsgd1na2vs0mg"},{"bike_id":"fb5a3640-c2bd-4d5a-a532-631ac7449c3d","system_id":"levelo_inurba_marseille","lat":43.28007,"lon":5.40936,"is_reserved":false,"is_disabled":false,"rental_uris":{"android":"levelo://app?vid=fb5a3640-c2bd-4d5a-a532-631ac7449c3d","ios":"levelo://app?vid=fb5a3640-c2bd-4d5a-a532-631ac7449c3d"},"vehicle_type_id":"4","last_reported":1743351035,"current_range_meters":9200,"station_id":"","pricing_plan_id":"cebpf4jnsgd1na2vs0mg"},{"bike_id":"653ea6de-a177-4007-9cfa-5f3f77e975f6","system_id":"levelo_inurba_marseille","lat":43.24818,"lon":5.37481,"is_reserved":false,"is_disabled":false,"rental_uris":{"android":"levelo://app?vid=653ea6de-a177-4007-9cfa-5f3f77e975f6","ios":"levelo://app?vid=653ea6de-a177-4007-9cfa-5f3f77e975f6"},"vehicle_type_id":"4","last_reported":1743351035,"current_range_meters":9200,"station_id":"ce4bhgh2rcd13ifvqfb0","pricing_plan_id":"cebpf4jnsgd1na2vs0mg"},{"bike_id":"7a038292-0ee0-44fd-91f6-cd16be90d9ad","system_id":"levelo_inurba_marseille","lat":43.29257,"lon":5.38445,"is_reserved":false,"is_disabled":false,"rental_uris":{"android":"levelo://app?vid=7a038292-0ee0-44fd-91f6-cd16be90d9ad","ios":"levelo://app?vid=7a038292-0ee0-44fd-91f6-cd16be90d9ad"},"vehicle_type_id":"4","last_reported":1743351035,"current_range_meters":9200,"station_id":"ce4bh692rcd13ifvqea0","pricing_plan_id":"cebpf4jnsgd1na2vs0mg"},{"bike_id":"1b4581b8-0354-417e-8cde-4b5b871c5295","system_id":"levelo_inurba_marseille","lat":43.22934,"lon":5.3539,"is_reserved":false,"is_disabled":false,"rental_uris":{"android":"levelo://app?vid=1b4581b8-0354-417e-8cde-4b5b871c5295","ios":"levelo://app?vid=1b4581b8-0354-417e-8cde-4b5b871c5295"},"vehicle_type_id":"4","last_reported":1743351035,"current_range_meters":9200,"station_id":"cpo3532slgdg3j2ikp40","pricing_plan_id":"cebpf4jnsgd1na2vs0mg"},{"bike_id":"ce4b2457-97ac-47fb-b802-9660757e3461","system_id":"levelo_inurba_marseille","lat":43.28021,"lon":5.36945,"is_reserved":false,"is_disabled":false,"rental_uris":{"android":"levelo://app?vid=ce4b2457-97ac-47fb-b802-9660757e3461","ios":"levelo://app?vid=ce4b2457-97ac-47fb-b802-9660757e3461"},"vehicle_type_id":"4","last_reported":1743351035,"current_range_meters":9200,"station_id":"ce4bha12rcd13ifvqef0","pricing_plan_id":"cebpf4jnsgd1na2vs0mg"},{"bike_id":"1240e4e1-528c-4d03-a782-79e7ad53b242","system_id":"levelo_inurba_marseille","lat":43.2418,"lon":5.39736,"is_reserved":false,"is_disabled":false,"rental_uris":{"android":"levelo://app?vid=1240e4e1-528c-4d03-a782-79e7ad53b242","ios":"levelo://app?vid=1240e4e1-528c-4d03-a782-79e7ad53b242"},"vehicle_type_id":"4","last_reported":1743351035,"current_range_meters":9200,"station_id":"ce4bhn12rcd13ifvqgpg","pricing_plan_id":"cebpf4jnsgd1na2vs0mg"},{"bike_id":"015f9d15-1821-4c64-82b0-b65d546879a2","system_id":"levelo_inurba_marseille","lat":43.29016,"lon":5.38129,"is_reserved":false,"is_disabled":false,"rental_uris":{"android":"levelo://app?vid=015f9d15-1821-4c64-82b0-b65d546879a2","ios":"levelo://app?vid=015f9d15-1821-4c64-82b0-b65d546879a2"},"vehicle_type_id":"4","last_reported":1743351035,"current_range_meters":9200,"station_id":"ce4bh4p2rcd13ifvqe1g","pricing_plan_id":"cebpf4jnsgd1na2vs0mg"},{"bike_id":"82d8e203-da64-466b-9b1d-e9f0a9bfebfe","system_id":"levelo_inurba_marseille","lat":43.32527,"lon":5.41451,"is_reserved":false,"is_disabled":true,"rental_uris":{"android":"levelo://app?vid=82d8e203-da64-466b-9b1d-e9f0a9bfebfe","ios":"levelo://app?vid=82d8e203-da64-466b-9b1d-e9f0a9bfebfe"},"vehicle_type_id":"4","last_reported":1743351035,"current_range_meters":9600,"station_id":"ce4bhq12rcd13ifvqhhg","pricing_plan_id":"cebpf4jnsgd1na2vs0mg"},{"bike_id":"7b9d9c17-c4e3-4286-b986-9fa38ace3f6e","system_id":"levelo_inurba_marseille","lat":43.23209,"lon":5.39981,"is_reserved":false,"is_disabled":false,"rental_uris":{"android":"levelo://app?vid=7b9d9c17-c4e3-4286-b986-9fa38ace3f6e","ios":"levelo://app?vid=7b9d9c17-c4e3-4286-b986-9fa38ace3f6e"},"vehicle_type_id":"4","last_reported":1743351035,"current_range_meters":9600,"station_id":"ce4bhn12rcd13ifvqgqg","pricing_plan_id":"cebpf4jnsgd1na2vs0mg"},{"bike_id":"9d8637d7-f667-48d3-aade-c74a2a4ff77f","system_id":"levelo_inurba_marseille","lat":43.28719,"lon":5.36095,"is_reserved":false,"is_disabled":false,"rental_uris":{"android":"levelo://app?vid=9d8637d7-f667-48d3-aade-c74a2a4ff77f","ios":"levelo://app?vid=9d8637d7-f667-48d3-aade-c74a2a4ff77f"},"vehicle_type_id":"4","last_reported":1743351035,"current_range_meters":9600,"station_id":"cki0cbj6b192h4jlfktg","pricing_plan_id":"cebpf4jnsgd1na2vs0mg"},{"bike_id":"3ee7180e-326f-4745-8787-75b446ad9ac9","system_id":"levelo_inurba_marseille","lat":43.31063,"lon":5.38348,"is_reserved":false,"is_disabled":false,"rental_uris":{"android":"levelo://app?vid=3ee7180e-326f-4745-8787-75b446ad9ac9","ios":"levelo://app?vid=3ee7180e-326f-4745-8787-75b446ad9ac9"},"vehicle_type_id":"4","last_reported":1743351035,"current_range_meters":9600,"station_id":"ce4bgv92rcd13ifvqcr0","pricing_plan_id":"cebpf4jnsgd1na2vs0mg"},{"bike_id":"52a9cd19-5959-457c-83c3-8fe3c9a3f2c9","system_id":"levelo_inurba_marseille","lat":43.27401,"lon":5.36263,"is_reserved":false,"is_disabled":false,"rental_uris":{"android":"levelo://app?vid=52a9cd19-5959-457c-83c3-8fe3c9a3f2c9","ios":"levelo://app?vid=52a9cd19-5959-457c-83c3-8fe3c9a3f2c9"},"vehicle_type_id":"4","last_reported":1743351035,"current_range_meters":9600,"station_id":"ce4bhbh2rcd13ifvqeo0","pricing_plan_id":"cebpf4jnsgd1na2vs0mg"},{"bike_id":"30f3b512-c138-431b-943a-0283bc4d8d83","system_id":"levelo_inurba_marseille","lat":43.22944,"lon":5.35377,"is_reserved":false,"is_disabled":false,"rental_uris":{"android":"levelo://app?vid=30f3b512-c138-431b-943a-0283bc4d8d83","ios":"levelo://app?vid=30f3b512-c138-431b-943a-0283bc4d8d83"},"vehicle_type_id":"4","last_reported":1743351035,"current_range_meters":9600,"station_id":"cpo3532slgdg3j2ikp40","pricing_plan_id":"cebpf4jnsgd1na2vs0mg"},{"bike_id":"db5be766-7b29-4674-bb19-60136e2eef35","system_id":"levelo_inurba_marseille","lat":43.28727,"lon":5.36088,"is_reserved":false,"is_disabled":false,"rental_uris":{"android":"levelo://app?vid=db5be766-7b29-4674-bb19-60136e2eef35","ios":"levelo://app?vid=db5be766-7b29-4674-bb19-60136e2eef35"},"vehicle_type_id":"4","last_reported":1743351035,"current_range_meters":9600,"station_id":"cki0cbj6b192h4jlfktg","pricing_plan_id":"cebpf4jnsgd1na2vs0mg"},{"bike_id":"8c9c7121-e404-4bda-bd48-08b0dd3c8455","system_id":"levelo_inurba_marseille","lat":43.2919,"lon":5.39315,"is_reserved":false,"is_disabled":false,"rental_uris":{"android":"levelo://app?vid=8c9c7121-e404-4bda-bd48-08b0dd3c8455","ios":"levelo://app?vid=8c9c7121-e404-4bda-bd48-08b0dd3c8455"},"vehicle_type_id":"4","last_reported":1743351035,"current_range_meters":9600,"station_id":"ce4bh192rcd13ifvqdd0","pricing_plan_id":"cebpf4jnsgd1na2vs0mg"},{"bike_id":"047afdf3-33f9-4fa4-b186-25c1f95989ef","system_id":"levelo_inurba_marseille","lat":43.2961,"lon":5.37719,"is_reserved":false,"is_disabled":false,"rental_uris":{"android":"levelo://app?vid=047afdf3-33f9-4fa4-b186-25c1f95989ef","ios":"levelo://app?vid=047afdf3-33f9-4fa4-b186-25c1f95989ef"},"vehicle_type_id":"4","last_reported":1743351035,"current_range_meters":9600,"station_id":"ce4bgi92rcd13ifvqb90","pricing_plan_id":"cebpf4jnsgd1na2vs0mg"},{"bike_id":"fa5af674-1110-4272-8e99-753958c3dff9","system_id":"levelo_inurba_marseille","lat":43.23963,"lon":5.36652,"is_reserved":false,"is_disabled":false,"rental_uris":{"android":"levelo://app?vid=fa5af674-1110-4272-8e99-753958c3dff9","ios":"levelo://app?vid=fa5af674-1110-4272-8e99-753958c3dff9"},"vehicle_type_id":"4","last_reported":1743351035,"current_range_meters":9600,"station_id":"ce4bhi12rcd13ifvqfp0","pricing_plan_id":"cebpf4jnsgd1na2vs0mg"},{"bike_id":"b3055923-cb73-4646-bc26-a9c71c5c0cb5","system_id":"levelo_inurba_marseille","lat":43.26255,"lon":5.374436,"is_reserved":false,"is_disabled":false,"rental_uris":{"android":"levelo://app?vid=b3055923-cb73-4646-bc26-a9c71c5c0cb5","ios":"levelo://app?vid=b3055923-cb73-4646-bc26-a9c71c5c0cb5"},"vehicle_type_id":"4","last_reported":1743351035,"current_range_meters":9600,"station_id":"ce4bhgp2rcd13ifvqfc0","pricing_plan_id":"cebpf4jnsgd1na2vs0mg"},{"bike_id":"8bcc045e-f28b-442a-a0af-38457b26197c","system_id":"levelo_inurba_marseille","lat":43.24182,"lon":5.36411,"is_reserved":false,"is_disabled":false,"rental_uris":{"android":"levelo://app?vid=8bcc045e-f28b-442a-a0af-38457b26197c","ios":"levelo://app?vid=8bcc045e-f28b-442a-a0af-38457b26197c"},"vehicle_type_id":"4","last_reported":1743351035,"current_range_meters":9600,"station_id":"cpo36qri1sfpv3e86is0","pricing_plan_id":"cebpf4jnsgd1na2vs0mg"},{"bike_id":"5128d52c-3901-428a-b9f7-f24c62afa36f","system_id":"levelo_inurba_marseille","lat":43.2957,"lon":5.37497,"is_reserved":false,"is_disabled":true,"rental_uris":{"android":"levelo://app?vid=5128d52c-3901-428a-b9f7-f24c62afa36f","ios":"levelo://app?vid=5128d52c-3901-428a-b9f7-f24c62afa36f"},"vehicle_type_id":"4","last_reported":1743351035,"current_range_meters":9600,"station_id":"ce4bgh92rcd13ifvqb50","pricing_plan_id":"cebpf4jnsgd1na2vs0mg"},{"bike_id":"bec24054-6ad4-405b-8867-1237a6230216","system_id":"levelo_inurba_marseille","lat":43.29226,"lon":5.38423,"is_reserved":false,"is_disabled":false,"rental_uris":{"android":"levelo://app?vid=bec24054-6ad4-405b-8867-1237a6230216","ios":"levelo://app?vid=bec24054-6ad4-405b-8867-1237a6230216"},"vehicle_type_id":"4","last_reported":1743351035,"current_range_meters":10000,"station_id":"ce4bh692rcd13ifvqea0","pricing_plan_id":"cebpf4jnsgd1na2vs0mg"},{"bike_id":"5c49fc8b-b573-44cd-9da2-767f8f7a765b","system_id":"levelo_inurba_marseille","lat":43.31765,"lon":5.39034,"is_reserved":false,"is_disabled":false,"rental_uris":{"android":"levelo://app?vid=5c49fc8b-b573-44cd-9da2-767f8f7a765b","ios":"levelo://app?vid=5c49fc8b-b573-44cd-9da2-767f8f7a765b"},"vehicle_type_id":"4","last_reported":1743351035,"current_range_meters":10000,"station_id":"ce4bhqp2rcd13ifvqhng","pricing_plan_id":"cebpf4jnsgd1na2vs0mg"},{"bike_id":"00de6555-2f94-4115-ad2a-3ade2466de77","system_id":"levelo_inurba_marseille","lat":43.29529,"lon":5.38538,"is_reserved":false,"is_disabled":true,"rental_uris":{"android":"levelo://app?vid=00de6555-2f94-4115-ad2a-3ade2466de77","ios":"levelo://app?vid=00de6555-2f94-4115-ad2a-3ade2466de77"},"vehicle_type_id":"4","last_reported":1743351035,"current_range_meters":10000,"station_id":"ce4bgih2rcd13ifvqba0","pricing_plan_id":"cebpf4jnsgd1na2vs0mg"},{"bike_id":"f150450a-749a-4373-a4fa-76425248e702","system_id":"levelo_inurba_marseille","lat":43.28101,"lon":5.3787,"is_reserved":false,"is_disabled":false,"rental_uris":{"android":"levelo://app?vid=f150450a-749a-4373-a4fa-76425248e702","ios":"levelo://app?vid=f150450a-749a-4373-a4fa-76425248e702"},"vehicle_type_id":"4","last_reported":1743351035,"current_range_meters":10000,"station_id":"ce4bha12rcd13ifvqee0","pricing_plan_id":"cebpf4jnsgd1na2vs0mg"},{"bike_id":"2eb0e752-c750-4742-9457-bad0aa2ff506","system_id":"levelo_inurba_marseille","lat":43.250046,"lon":5.389284,"is_reserved":false,"is_disabled":false,"rental_uris":{"android":"levelo://app?vid=2eb0e752-c750-4742-9457-bad0aa2ff506","ios":"levelo://app?vid=2eb0e752-c750-4742-9457-bad0aa2ff506"},"vehicle_type_id":"4","last_reported":1743351035,"current_range_meters":10000,"station_id":"ce4bhgp2rcd13ifvqfd0","pricing_plan_id":"cebpf4jnsgd1na2vs0mg"},{"bike_id":"cb8c9ca5-9083-4e86-9e9f-2bc245af5095","system_id":"levelo_inurba_marseille","lat":43.28402,"lon":5.37514,"is_reserved":false,"is_disabled":true,"rental_uris":{"android":"levelo://app?vid=cb8c9ca5-9083-4e86-9e9f-2bc245af5095","ios":"levelo://app?vid=cb8c9ca5-9083-4e86-9e9f-2bc245af5095"},"vehicle_type_id":"4","last_reported":1743351035,"current_range_meters":10000,"station_id":"ce4bh412rcd13ifvqds0","pricing_plan_id":"cebpf4jnsgd1na2vs0mg"},{"bike_id":"86f139b9-ffd3-4a79-86e8-d22d017328ee","system_id":"levelo_inurba_marseille","lat":43.34729,"lon":5.38128,"is_reserved":false,"is_disabled":false,"rental_uris":{"android":"levelo://app?vid=86f139b9-ffd3-4a79-86e8-d22d017328ee","ios":"levelo://app?vid=86f139b9-ffd3-4a79-86e8-d22d017328ee"},"vehicle_type_id":"4","last_reported":1743351035,"current_range_meters":10000,"station_id":"","pricing_plan_id":"cebpf4jnsgd1na2vs0mg"},{"bike_id":"b5ecf03b-3b2d-478f-86f0-5800d5ffb014","system_id":"levelo_inurba_marseille","lat":43.29178,"lon":5.39298,"is_reserved":false,"is_disabled":false,"rental_uris":{"android":"levelo://app?vid=b5ecf03b-3b2d-478f-86f0-5800d5ffb014","ios":"levelo://app?vid=b5ecf03b-3b2d-478f-86f0-5800d5ffb014"},"vehicle_type_id":"4","last_reported":1743351035,"current_range_meters":4400,"station_id":"ce4bh192rcd13ifvqdd0","pricing_plan_id":"cebpf4jnsgd1na2vs0mg"},{"bike_id":"e3fae6a8-1d2a-4e5c-9146-0838fbaefb27","system_id":"levelo_inurba_marseille","lat":43.30568,"lon":5.3653,"is_reserved":false,"is_disabled":false,"rental_uris":{"android":"levelo://app?vid=e3fae6a8-1d2a-4e5c-9146-0838fbaefb27","ios":"levelo://app?vid=e3fae6a8-1d2a-4e5c-9146-0838fbaefb27"},"vehicle_type_id":"4","last_reported":1743351035,"current_range_meters":10000,"station_id":"ce4bgs12rcd13ifvqcag","pricing_plan_id":"cebpf4jnsgd1na2vs0mg"},{"bike_id":"e605d5ca-3ea9-420f-a248-9496269c809e","system_id":"levelo_inurba_marseille","lat":43.32112,"lon":5.36778,"is_reserved":false,"is_disabled":false,"rental_uris":{"android":"levelo://app?vid=e605d5ca-3ea9-420f-a248-9496269c809e","ios":"levelo://app?vid=e605d5ca-3ea9-420f-a248-9496269c809e"},"vehicle_type_id":"4","last_reported":1743351035,"current_range_meters":10000,"station_id":"ce4bhrh2rcd13ifvqhug","pricing_plan_id":"cebpf4jnsgd1na2vs0mg"},{"bike_id":"4d6ad7ee-4946-4b97-9263-f8a8cebe7a07","system_id":"levelo_inurba_marseille","lat":43.2792,"lon":5.39574,"is_reserved":false,"is_disabled":false,"rental_uris":{"android":"levelo://app?vid=4d6ad7ee-4946-4b97-9263-f8a8cebe7a07","ios":"levelo://app?vid=4d6ad7ee-4946-4b97-9263-f8a8cebe7a07"},"vehicle_type_id":"4","last_reported":1743351035,"current_range_meters":10800,"station_id":"ce4bhf92rcd13ifvqf40","pricing_plan_id":"cebpf4jnsgd1na2vs0mg"},{"bike_id":"24e1bca7-228c-4fe5-af46-58ea62e074a0","system_id":"levelo_inurba_marseille","lat":43.28417,"lon":5.34984,"is_reserved":false,"is_disabled":false,"rental_uris":{"android":"levelo://app?vid=24e1bca7-228c-4fe5-af46-58ea62e074a0","ios":"levelo://app?vid=24e1bca7-228c-4fe5-af46-58ea62e074a0"},"vehicle_type_id":"4","last_reported":1743351035,"current_range_meters":10800,"station_id":"ce4bhbh2rcd13ifvqepg","pricing_plan_id":"cebpf4jnsgd1na2vs0mg"},{"bike_id":"7e46e322-27d9-4f9d-b1ce-11741eb7c78f","system_id":"levelo_inurba_marseille","lat":43.31765,"lon":5.39041,"is_reserved":false,"is_disabled":false,"rental_uris":{"android":"levelo://app?vid=7e46e322-27d9-4f9d-b1ce-11741eb7c78f","ios":"levelo://app?vid=7e46e322-27d9-4f9d-b1ce-11741eb7c78f"},"vehicle_type_id":"4","last_reported":1743351035,"current_range_meters":10800,"station_id":"ce4bhqp2rcd13ifvqhng","pricing_plan_id":"cebpf4jnsgd1na2vs0mg"},{"bike_id":"bdb5d15a-00a8-44ec-8c3a-f69715aa72b2","system_id":"levelo_inurba_marseille","lat":43.29578,"lon":5.37498,"is_reserved":false,"is_disabled":false,"rental_uris":{"android":"levelo://app?vid=bdb5d15a-00a8-44ec-8c3a-f69715aa72b2","ios":"levelo://app?vid=bdb5d15a-00a8-44ec-8c3a-f69715aa72b2"},"vehicle_type_id":"4","last_reported":1743351035,"current_range_meters":10800,"station_id":"ce4bgh92rcd13ifvqb50","pricing_plan_id":"cebpf4jnsgd1na2vs0mg"},{"bike_id":"1db49edd-6de7-48f9-b18a-23a07e8ebd2c","system_id":"levelo_inurba_marseille","lat":43.23199,"lon":5.35558,"is_reserved":false,"is_disabled":false,"rental_uris":{"android":"levelo://app?vid=1db49edd-6de7-48f9-b18a-23a07e8ebd2c","ios":"levelo://app?vid=1db49edd-6de7-48f9-b18a-23a07e8ebd2c"},"vehicle_type_id":"4","last_reported":1743351035,"current_range_meters":10800,"station_id":"ce4bhu92rcd13ifvqi70","pricing_plan_id":"cebpf4jnsgd1na2vs0mg"},{"bike_id":"e9a2a445-241d-4d76-ae7f-242ac1e603b1","system_id":"levelo_inurba_marseille","lat":43.23188,"lon":5.35568,"is_reserved":false,"is_disabled":false,"rental_uris":{"android":"levelo://app?vid=e9a2a445-241d-4d76-ae7f-242ac1e603b1","ios":"levelo://app?vid=e9a2a445-241d-4d76-ae7f-242ac1e603b1"},"vehicle_type_id":"4","last_reported":1743351035,"current_range_meters":10800,"station_id":"ce4bhu92rcd13ifvqi70","pricing_plan_id":"cebpf4jnsgd1na2vs0mg"},{"bike_id":"bfcad82b-6acc-493c-b418-93ec0bae17e4","system_id":"levelo_inurba_marseille","lat":43.32102,"lon":5.36798,"is_reserved":false,"is_disabled":false,"rental_uris":{"android":"levelo://app?vid=bfcad82b-6acc-493c-b418-93ec0bae17e4","ios":"levelo://app?vid=bfcad82b-6acc-493c-b418-93ec0bae17e4"},"vehicle_type_id":"4","last_reported":1743351035,"current_range_meters":10800,"station_id":"ce4bhrh2rcd13ifvqhug","pricing_plan_id":"cebpf4jnsgd1na2vs0mg"},{"bike_id":"dca112f4-9707-4336-b81c-ebcffbc92738","system_id":"levelo_inurba_marseille","lat":43.29605,"lon":5.37721,"is_reserved":false,"is_disabled":false,"rental_uris":{"android":"levelo://app?vid=dca112f4-9707-4336-b81c-ebcffbc92738","ios":"levelo://app?vid=dca112f4-9707-4336-b81c-ebcffbc92738"},"vehicle_type_id":"4","last_reported":1743351035,"current_range_meters":10800,"station_id":"ce4bgi92rcd13ifvqb90","pricing_plan_id":"cebpf4jnsgd1na2vs0mg"},{"bike_id":"039d6195-a4ab-472f-929f-b9ba7e67e0d4","system_id":"levelo_inurba_marseille","lat":43.28636,"lon":5.35088,"is_reserved":false,"is_disabled":false,"rental_uris":{"android":"levelo://app?vid=039d6195-a4ab-472f-929f-b9ba7e67e0d4","ios":"levelo://app?vid=039d6195-a4ab-472f-929f-b9ba7e67e0d4"},"vehicle_type_id":"4","last_reported":1743351035,"current_range_meters":10800,"station_id":"ce4bhch2rcd13ifvqeug","pricing_plan_id":"cebpf4jnsgd1na2vs0mg"},{"bike_id":"da41b9cb-d8ea-48c9-bb98-8717ea1c0745","system_id":"levelo_inurba_marseille","lat":43.29524,"lon":5.37509,"is_reserved":false,"is_disabled":false,"rental_uris":{"android":"levelo://app?vid=da41b9cb-d8ea-48c9-bb98-8717ea1c0745","ios":"levelo://app?vid=da41b9cb-d8ea-48c9-bb98-8717ea1c0745"},"vehicle_type_id":"4","last_reported":1743351035,"current_range_meters":10800,"station_id":"ce4bgkp2rcd13ifvqbmg","pricing_plan_id":"cebpf4jnsgd1na2vs0mg"},{"bike_id":"809a47f2-ac51-47d1-8bf7-2702a6a60091","system_id":"levelo_inurba_marseille","lat":43.28402,"lon":5.34994,"is_reserved":false,"is_disabled":false,"rental_uris":{"android":"levelo://app?vid=809a47f2-ac51-47d1-8bf7-2702a6a60091","ios":"levelo://app?vid=809a47f2-ac51-47d1-8bf7-2702a6a60091"},"vehicle_type_id":"4","last_reported":1743351035,"current_range_meters":10800,"station_id":"ce4bhbh2rcd13ifvqepg","pricing_plan_id":"cebpf4jnsgd1na2vs0mg"},{"bike_id":"560edb7a-c19c-49ac-b483-e2633dd40b70","system_id":"levelo_inurba_marseille","lat":43.29264,"lon":5.37625,"is_reserved":false,"is_disabled":false,"rental_uris":{"android":"levelo://app?vid=560edb7a-c19c-49ac-b483-e2633dd40b70","ios":"levelo://app?vid=560edb7a-c19c-49ac-b483-e2633dd40b70"},"vehicle_type_id":"4","last_reported":1743351035,"current_range_meters":10800,"station_id":"ce4bgi12rcd13ifvqb80","pricing_plan_id":"cebpf4jnsgd1na2vs0mg"},{"bike_id":"5cd011b5-4f38-47a6-95c5-47212fba922e","system_id":"levelo_inurba_marseille","lat":43.2417,"lon":5.36397,"is_reserved":false,"is_disabled":false,"rental_uris":{"android":"levelo://app?vid=5cd011b5-4f38-47a6-95c5-47212fba922e","ios":"levelo://app?vid=5cd011b5-4f38-47a6-95c5-47212fba922e"},"vehicle_type_id":"4","last_reported":1743351035,"current_range_meters":10800,"station_id":"cpo36qri1sfpv3e86is0","pricing_plan_id":"cebpf4jnsgd1na2vs0mg"},{"bike_id":"871f3035-10bb-4a28-afa0-18619600e1a6","system_id":"levelo_inurba_marseille","lat":43.29933,"lon":5.36528,"is_reserved":false,"is_disabled":true,"rental_uris":{"android":"levelo://app?vid=871f3035-10bb-4a28-afa0-18619600e1a6","ios":"levelo://app?vid=871f3035-10bb-4a28-afa0-18619600e1a6"},"vehicle_type_id":"4","last_reported":1743351035,"current_range_meters":11200,"station_id":"ce4bgm92rcd13ifvqbr0","pricing_plan_id":"cebpf4jnsgd1na2vs0mg"},{"bike_id":"9641e489-cce1-438f-902a-7ab928f448c4","system_id":"levelo_inurba_marseille","lat":43.2842,"lon":5.34987,"is_reserved":false,"is_disabled":false,"rental_uris":{"android":"levelo://app?vid=9641e489-cce1-438f-902a-7ab928f448c4","ios":"levelo://app?vid=9641e489-cce1-438f-902a-7ab928f448c4"},"vehicle_type_id":"4","last_reported":1743351035,"current_range_meters":11200,"station_id":"ce4bhbh2rcd13ifvqepg","pricing_plan_id":"cebpf4jnsgd1na2vs0mg"},{"bike_id":"2403089b-07d2-4817-842f-5393e534470e","system_id":"levelo_inurba_marseille","lat":43.27999,"lon":5.41655,"is_reserved":false,"is_disabled":false,"rental_uris":{"android":"levelo://app?vid=2403089b-07d2-4817-842f-5393e534470e","ios":"levelo://app?vid=2403089b-07d2-4817-842f-5393e534470e"},"vehicle_type_id":"4","last_reported":1743351035,"current_range_meters":11200,"station_id":"ce4bho12rcd13ifvqh1g","pricing_plan_id":"cebpf4jnsgd1na2vs0mg"},{"bike_id":"a94c1e2b-8c2f-4646-913e-4fd379bb90d5","system_id":"levelo_inurba_marseille","lat":43.28407,"lon":5.34974,"is_reserved":false,"is_disabled":false,"rental_uris":{"android":"levelo://app?vid=a94c1e2b-8c2f-4646-913e-4fd379bb90d5","ios":"levelo://app?vid=a94c1e2b-8c2f-4646-913e-4fd379bb90d5"},"vehicle_type_id":"4","last_reported":1743351035,"current_range_meters":11200,"station_id":"ce4bhbh2rcd13ifvqepg","pricing_plan_id":"cebpf4jnsgd1na2vs0mg"},{"bike_id":"32471ba9-fd17-40c0-ab4f-200aab707b9b","system_id":"levelo_inurba_marseille","lat":43.23066,"lon":5.35508,"is_reserved":false,"is_disabled":false,"rental_uris":{"android":"levelo://app?vid=32471ba9-fd17-40c0-ab4f-200aab707b9b","ios":"levelo://app?vid=32471ba9-fd17-40c0-ab4f-200aab707b9b"},"vehicle_type_id":"4","last_reported":1743351035,"current_range_meters":11200,"station_id":"cpo3342slgdg3j2ifvpg","pricing_plan_id":"cebpf4jnsgd1na2vs0mg"},{"bike_id":"82be5020-df29-4bb6-b821-10f31b9ed89a","system_id":"levelo_inurba_marseille","lat":43.28426,"lon":5.35009,"is_reserved":false,"is_disabled":false,"rental_uris":{"android":"levelo://app?vid=82be5020-df29-4bb6-b821-10f31b9ed89a","ios":"levelo://app?vid=82be5020-df29-4bb6-b821-10f31b9ed89a"},"vehicle_type_id":"4","last_reported":1743351035,"current_range_meters":11200,"station_id":"ce4bhbh2rcd13ifvqepg","pricing_plan_id":"cebpf4jnsgd1na2vs0mg"},{"bike_id":"6988c0a8-90aa-41a1-afc1-fa994e9d77fb","system_id":"levelo_inurba_marseille","lat":43.28851,"lon":5.39309,"is_reserved":false,"is_disabled":false,"rental_uris":{"android":"levelo://app?vid=6988c0a8-90aa-41a1-afc1-fa994e9d77fb","ios":"levelo://app?vid=6988c0a8-90aa-41a1-afc1-fa994e9d77fb"},"vehicle_type_id":"4","last_reported":1743351035,"current_range_meters":11200,"station_id":"ce4bh2p2rcd13ifvqdi0","pricing_plan_id":"cebpf4jnsgd1na2vs0mg"},{"bike_id":"901ff40c-a03c-498b-9653-ed0b40b9c90d","system_id":"levelo_inurba_marseille","lat":43.27997,"lon":5.41663,"is_reserved":false,"is_disabled":false,"rental_uris":{"android":"levelo://app?vid=901ff40c-a03c-498b-9653-ed0b40b9c90d","ios":"levelo://app?vid=901ff40c-a03c-498b-9653-ed0b40b9c90d"},"vehicle_type_id":"4","last_reported":1743351035,"current_range_meters":10800,"station_id":"ce4bho12rcd13ifvqh1g","pricing_plan_id":"cebpf4jnsgd1na2vs0mg"},{"bike_id":"2332fe03-e089-43d3-830e-204f18d40f79","system_id":"levelo_inurba_marseille","lat":43.295142,"lon":5.375006,"is_reserved":false,"is_disabled":false,"rental_uris":{"android":"levelo://app?vid=2332fe03-e089-43d3-830e-204f18d40f79","ios":"levelo://app?vid=2332fe03-e089-43d3-830e-204f18d40f79"},"vehicle_type_id":"4","last_reported":1743351035,"current_range_meters":11600,"station_id":"ce4bgkp2rcd13ifvqbmg","pricing_plan_id":"cebpf4jnsgd1na2vs0mg"},{"bike_id":"f55695a6-b65f-4a30-99ab-94b2bfa63268","system_id":"levelo_inurba_marseille","lat":43.23199,"lon":5.3556,"is_reserved":false,"is_disabled":false,"rental_uris":{"android":"levelo://app?vid=f55695a6-b65f-4a30-99ab-94b2bfa63268","ios":"levelo://app?vid=f55695a6-b65f-4a30-99ab-94b2bfa63268"},"vehicle_type_id":"4","last_reported":1743351035,"current_range_meters":11600,"station_id":"ce4bhu92rcd13ifvqi70","pricing_plan_id":"cebpf4jnsgd1na2vs0mg"},{"bike_id":"504504c8-5e53-4b1b-a2f5-d94ed570a5d7","system_id":"levelo_inurba_marseille","lat":43.295349,"lon":5.38541,"is_reserved":false,"is_disabled":false,"rental_uris":{"android":"levelo://app?vid=504504c8-5e53-4b1b-a2f5-d94ed570a5d7","ios":"levelo://app?vid=504504c8-5e53-4b1b-a2f5-d94ed570a5d7"},"vehicle_type_id":"4","last_reported":1743351035,"current_range_meters":11600,"station_id":"ce4bgih2rcd13ifvqba0","pricing_plan_id":"cebpf4jnsgd1na2vs0mg"},{"bike_id":"0252f97d-bff9-439c-803a-8997f054c06b","system_id":"levelo_inurba_marseille","lat":43.24166,"lon":5.36393,"is_reserved":false,"is_disabled":false,"rental_uris":{"android":"levelo://app?vid=0252f97d-bff9-439c-803a-8997f054c06b","ios":"levelo://app?vid=0252f97d-bff9-439c-803a-8997f054c06b"},"vehicle_type_id":"4","last_reported":1743351035,"current_range_meters":11600,"station_id":"cpo36qri1sfpv3e86is0","pricing_plan_id":"cebpf4jnsgd1na2vs0mg"},{"bike_id":"fd29fdb2-ace8-4682-9204-be67488d2466","system_id":"levelo_inurba_marseille","lat":43.29019,"lon":5.38123,"is_reserved":false,"is_disabled":false,"rental_uris":{"android":"levelo://app?vid=fd29fdb2-ace8-4682-9204-be67488d2466","ios":"levelo://app?vid=fd29fdb2-ace8-4682-9204-be67488d2466"},"vehicle_type_id":"4","last_reported":1743351035,"current_range_meters":11600,"station_id":"ce4bh4p2rcd13ifvqe1g","pricing_plan_id":"cebpf4jnsgd1na2vs0mg"},{"bike_id":"d2b56b5c-2d58-4ae4-ac03-bfdf53418fb6","system_id":"levelo_inurba_marseille","lat":43.2846,"lon":5.35884,"is_reserved":false,"is_disabled":false,"rental_uris":{"android":"levelo://app?vid=d2b56b5c-2d58-4ae4-ac03-bfdf53418fb6","ios":"levelo://app?vid=d2b56b5c-2d58-4ae4-ac03-bfdf53418fb6"},"vehicle_type_id":"4","last_reported":1743351035,"current_range_meters":11600,"station_id":"ce4bhah2rcd13ifvqei0","pricing_plan_id":"cebpf4jnsgd1na2vs0mg"},{"bike_id":"73d8cf25-212a-4a6b-a102-59e9946e23be","system_id":"levelo_inurba_marseille","lat":43.32334,"lon":5.38892,"is_reserved":false,"is_disabled":false,"rental_uris":{"android":"levelo://app?vid=73d8cf25-212a-4a6b-a102-59e9946e23be","ios":"levelo://app?vid=73d8cf25-212a-4a6b-a102-59e9946e23be"},"vehicle_type_id":"4","last_reported":1743351035,"current_range_meters":11600,"station_id":"ce4bhqp2rcd13ifvqhog","pricing_plan_id":"cebpf4jnsgd1na2vs0mg"},{"bike_id":"76859129-4009-4843-90a4-dc4d2b65271a","system_id":"levelo_inurba_marseille","lat":43.2417,"lon":5.36478,"is_reserved":false,"is_disabled":false,"rental_uris":{"android":"levelo://app?vid=76859129-4009-4843-90a4-dc4d2b65271a","ios":"levelo://app?vid=76859129-4009-4843-90a4-dc4d2b65271a"},"vehicle_type_id":"4","last_reported":1743351035,"current_range_meters":12000,"station_id":"cpo36qri1sfpv3e86is0","pricing_plan_id":"cebpf4jnsgd1na2vs0mg"},{"bike_id":"7ca6f145-aad1-46a9-862f-db9fe95e22ed","system_id":"levelo_inurba_marseille","lat":43.32138,"lon":5.36815,"is_reserved":false,"is_disabled":false,"rental_uris":{"android":"levelo://app?vid=7ca6f145-aad1-46a9-862f-db9fe95e22ed","ios":"levelo://app?vid=7ca6f145-aad1-46a9-862f-db9fe95e22ed"},"vehicle_type_id":"4","last_reported":1743351035,"current_range_meters":12000,"station_id":"ce4bhrh2rcd13ifvqhug","pricing_plan_id":"cebpf4jnsgd1na2vs0mg"},{"bike_id":"452ee7ed-aed5-4f3a-80c1-b63ab3953967","system_id":"levelo_inurba_marseille","lat":43.27941,"lon":5.41044,"is_reserved":false,"is_disabled":false,"rental_uris":{"android":"levelo://app?vid=452ee7ed-aed5-4f3a-80c1-b63ab3953967","ios":"levelo://app?vid=452ee7ed-aed5-4f3a-80c1-b63ab3953967"},"vehicle_type_id":"4","last_reported":1743351035,"current_range_meters":12000,"station_id":"ce4bhnp2rcd13ifvqh0g","pricing_plan_id":"cebpf4jnsgd1na2vs0mg"},{"bike_id":"6165c5e1-15f4-4779-ba2f-91df8ba3f8c0","system_id":"levelo_inurba_marseille","lat":43.28913,"lon":5.43041,"is_reserved":false,"is_disabled":false,"rental_uris":{"android":"levelo://app?vid=6165c5e1-15f4-4779-ba2f-91df8ba3f8c0","ios":"levelo://app?vid=6165c5e1-15f4-4779-ba2f-91df8ba3f8c0"},"vehicle_type_id":"4","last_reported":1743351035,"current_range_meters":12000,"station_id":"","pricing_plan_id":"cebpf4jnsgd1na2vs0mg"},{"bike_id":"24c910f8-a00a-49ca-b3fe-5d967a40972a","system_id":"levelo_inurba_marseille","lat":43.2306,"lon":5.35506,"is_reserved":false,"is_disabled":false,"rental_uris":{"android":"levelo://app?vid=24c910f8-a00a-49ca-b3fe-5d967a40972a","ios":"levelo://app?vid=24c910f8-a00a-49ca-b3fe-5d967a40972a"},"vehicle_type_id":"4","last_reported":1743351035,"current_range_meters":12000,"station_id":"cpo3342slgdg3j2ifvpg","pricing_plan_id":"cebpf4jnsgd1na2vs0mg"},{"bike_id":"b73281d3-4024-4cc2-9467-a02b03434418","system_id":"levelo_inurba_marseille","lat":43.28614,"lon":5.351,"is_reserved":false,"is_disabled":false,"rental_uris":{"android":"levelo://app?vid=b73281d3-4024-4cc2-9467-a02b03434418","ios":"levelo://app?vid=b73281d3-4024-4cc2-9467-a02b03434418"},"vehicle_type_id":"4","last_reported":1743351035,"current_range_meters":12000,"station_id":"ce4bhch2rcd13ifvqeug","pricing_plan_id":"cebpf4jnsgd1na2vs0mg"},{"bike_id":"12cd2614-5759-4501-9c23-d3351a7cc7df","system_id":"levelo_inurba_marseille","lat":43.30537,"lon":5.38423,"is_reserved":false,"is_disabled":true,"rental_uris":{"android":"levelo://app?vid=12cd2614-5759-4501-9c23-d3351a7cc7df","ios":"levelo://app?vid=12cd2614-5759-4501-9c23-d3351a7cc7df"},"vehicle_type_id":"4","last_reported":1743351035,"current_range_meters":12400,"station_id":"ce4bgg92rcd13ifvqb30","pricing_plan_id":"cebpf4jnsgd1na2vs0mg"},{"bike_id":"aeef6193-37c4-4ea4-bc89-3ac29d7faf06","system_id":"levelo_inurba_marseille","lat":43.29268,"lon":5.38435,"is_reserved":false,"is_disabled":false,"rental_uris":{"android":"levelo://app?vid=aeef6193-37c4-4ea4-bc89-3ac29d7faf06","ios":"levelo://app?vid=aeef6193-37c4-4ea4-bc89-3ac29d7faf06"},"vehicle_type_id":"4","last_reported":1743351035,"current_range_meters":12400,"station_id":"ce4bh692rcd13ifvqea0","pricing_plan_id":"cebpf4jnsgd1na2vs0mg"},{"bike_id":"80e68d46-030b-436e-aece-90783cccba7c","system_id":"levelo_inurba_marseille","lat":43.24161,"lon":5.36412,"is_reserved":false,"is_disabled":false,"rental_uris":{"android":"levelo://app?vid=80e68d46-030b-436e-aece-90783cccba7c","ios":"levelo://app?vid=80e68d46-030b-436e-aece-90783cccba7c"},"vehicle_type_id":"4","last_reported":1743351035,"current_range_meters":12400,"station_id":"cpo36qri1sfpv3e86is0","pricing_plan_id":"cebpf4jnsgd1na2vs0mg"},{"bike_id":"0b60b6cc-65bb-4e73-8958-1b351c6fdd96","system_id":"levelo_inurba_marseille","lat":43.32091,"lon":5.36811,"is_reserved":false,"is_disabled":false,"rental_uris":{"android":"levelo://app?vid=0b60b6cc-65bb-4e73-8958-1b351c6fdd96","ios":"levelo://app?vid=0b60b6cc-65bb-4e73-8958-1b351c6fdd96"},"vehicle_type_id":"4","last_reported":1743351035,"current_range_meters":12400,"station_id":"ce4bhrh2rcd13ifvqhug","pricing_plan_id":"cebpf4jnsgd1na2vs0mg"},{"bike_id":"78edf300-7db3-4c93-9631-38797c9b1771","system_id":"levelo_inurba_marseille","lat":43.29067,"lon":5.37175,"is_reserved":false,"is_disabled":true,"rental_uris":{"android":"levelo://app?vid=78edf300-7db3-4c93-9631-38797c9b1771","ios":"levelo://app?vid=78edf300-7db3-4c93-9631-38797c9b1771"},"vehicle_type_id":"4","last_reported":1743351035,"current_range_meters":12400,"station_id":"ce4bh5p2rcd13ifvqe4g","pricing_plan_id":"cebpf4jnsgd1na2vs0mg"},{"bike_id":"f0bd5f01-48f5-4bed-99e1-04d4725ac079","system_id":"levelo_inurba_marseille","lat":43.278035,"lon":5.403638,"is_reserved":false,"is_disabled":false,"rental_uris":{"android":"levelo://app?vid=f0bd5f01-48f5-4bed-99e1-04d4725ac079","ios":"levelo://app?vid=f0bd5f01-48f5-4bed-99e1-04d4725ac079"},"vehicle_type_id":"4","last_reported":1743351035,"current_range_meters":12400,"station_id":"ce4bhnp2rcd13ifvqh0g","pricing_plan_id":"cebpf4jnsgd1na2vs0mg"},{"bike_id":"5bfd713f-4544-4b6f-9ef2-e3c8ea6459bc","system_id":"levelo_inurba_marseille","lat":43.3032,"lon":5.40426,"is_reserved":false,"is_disabled":false,"rental_uris":{"android":"levelo://app?vid=5bfd713f-4544-4b6f-9ef2-e3c8ea6459bc","ios":"levelo://app?vid=5bfd713f-4544-4b6f-9ef2-e3c8ea6459bc"},"vehicle_type_id":"4","last_reported":1743351035,"current_range_meters":16400,"station_id":"ce4bh012rcd13ifvqd10","pricing_plan_id":"cebpf4jnsgd1na2vs0mg"},{"bike_id":"712dd974-2e52-44eb-b0f4-39a5fbac26e1","system_id":"levelo_inurba_marseille","lat":43.28416,"lon":5.3498,"is_reserved":false,"is_disabled":false,"rental_uris":{"android":"levelo://app?vid=712dd974-2e52-44eb-b0f4-39a5fbac26e1","ios":"levelo://app?vid=712dd974-2e52-44eb-b0f4-39a5fbac26e1"},"vehicle_type_id":"4","last_reported":1743351035,"current_range_meters":12800,"station_id":"ce4bhbh2rcd13ifvqepg","pricing_plan_id":"cebpf4jnsgd1na2vs0mg"},{"bike_id":"fd077727-cac9-4da1-be78-e3859541690a","system_id":"levelo_inurba_marseille","lat":43.30536,"lon":5.38436,"is_reserved":false,"is_disabled":true,"rental_uris":{"android":"levelo://app?vid=fd077727-cac9-4da1-be78-e3859541690a","ios":"levelo://app?vid=fd077727-cac9-4da1-be78-e3859541690a"},"vehicle_type_id":"4","last_reported":1743351035,"current_range_meters":12800,"station_id":"ce4bgg92rcd13ifvqb30","pricing_plan_id":"cebpf4jnsgd1na2vs0mg"},{"bike_id":"8800990b-0588-4701-9f9b-d00ff201f1bf","system_id":"levelo_inurba_marseille","lat":43.3176,"lon":5.38997,"is_reserved":false,"is_disabled":false,"rental_uris":{"android":"levelo://app?vid=8800990b-0588-4701-9f9b-d00ff201f1bf","ios":"levelo://app?vid=8800990b-0588-4701-9f9b-d00ff201f1bf"},"vehicle_type_id":"4","last_reported":1743351035,"current_range_meters":12800,"station_id":"ce4bhqp2rcd13ifvqhng","pricing_plan_id":"cebpf4jnsgd1na2vs0mg"},{"bike_id":"6a671005-605d-45b4-8f1e-a9c3087d7201","system_id":"levelo_inurba_marseille","lat":43.30433,"lon":5.39749,"is_reserved":false,"is_disabled":false,"rental_uris":{"android":"levelo://app?vid=6a671005-605d-45b4-8f1e-a9c3087d7201","ios":"levelo://app?vid=6a671005-605d-45b4-8f1e-a9c3087d7201"},"vehicle_type_id":"4","last_reported":1743351035,"current_range_meters":12800,"station_id":"ce4bh092rcd13ifvqd20","pricing_plan_id":"cebpf4jnsgd1na2vs0mg"},{"bike_id":"7bcef57b-2b32-4033-b8b4-6fd7fe51a930","system_id":"levelo_inurba_marseille","lat":43.28643,"lon":5.35087,"is_reserved":false,"is_disabled":false,"rental_uris":{"android":"levelo://app?vid=7bcef57b-2b32-4033-b8b4-6fd7fe51a930","ios":"levelo://app?vid=7bcef57b-2b32-4033-b8b4-6fd7fe51a930"},"vehicle_type_id":"4","last_reported":1743351035,"current_range_meters":12800,"station_id":"ce4bhch2rcd13ifvqeug","pricing_plan_id":"cebpf4jnsgd1na2vs0mg"},{"bike_id":"fb0e2782-64d8-47c2-8a78-bad86b5dcc20","system_id":"levelo_inurba_marseille","lat":43.32129,"lon":5.36818,"is_reserved":false,"is_disabled":false,"rental_uris":{"android":"levelo://app?vid=fb0e2782-64d8-47c2-8a78-bad86b5dcc20","ios":"levelo://app?vid=fb0e2782-64d8-47c2-8a78-bad86b5dcc20"},"vehicle_type_id":"4","last_reported":1743351035,"current_range_meters":12800,"station_id":"ce4bhrh2rcd13ifvqhug","pricing_plan_id":"cebpf4jnsgd1na2vs0mg"},{"bike_id":"c864559c-c9e0-4a74-b47b-9d288577a0a7","system_id":"levelo_inurba_marseille","lat":43.28852,"lon":5.39302,"is_reserved":false,"is_disabled":false,"rental_uris":{"android":"levelo://app?vid=c864559c-c9e0-4a74-b47b-9d288577a0a7","ios":"levelo://app?vid=c864559c-c9e0-4a74-b47b-9d288577a0a7"},"vehicle_type_id":"4","last_reported":1743351035,"current_range_meters":12800,"station_id":"ce4bh2p2rcd13ifvqdi0","pricing_plan_id":"cebpf4jnsgd1na2vs0mg"},{"bike_id":"ba1107aa-9b1f-4710-bb75-05314e757fc6","system_id":"levelo_inurba_marseille","lat":43.31669,"lon":5.37247,"is_reserved":false,"is_disabled":false,"rental_uris":{"android":"levelo://app?vid=ba1107aa-9b1f-4710-bb75-05314e757fc6","ios":"levelo://app?vid=ba1107aa-9b1f-4710-bb75-05314e757fc6"},"vehicle_type_id":"4","last_reported":1743351035,"current_range_meters":12800,"station_id":"","pricing_plan_id":"cebpf4jnsgd1na2vs0mg"},{"bike_id":"ea5f1bb1-0d85-48f4-8b8b-cb54deda42a5","system_id":"levelo_inurba_marseille","lat":43.28409,"lon":5.34988,"is_reserved":false,"is_disabled":false,"rental_uris":{"android":"levelo://app?vid=ea5f1bb1-0d85-48f4-8b8b-cb54deda42a5","ios":"levelo://app?vid=ea5f1bb1-0d85-48f4-8b8b-cb54deda42a5"},"vehicle_type_id":"4","last_reported":1743351035,"current_range_meters":13600,"station_id":"ce4bhbh2rcd13ifvqepg","pricing_plan_id":"cebpf4jnsgd1na2vs0mg"},{"bike_id":"b3e97410-c1b2-4369-b878-0aa5bbd817bc","system_id":"levelo_inurba_marseille","lat":43.28501,"lon":5.35877,"is_reserved":false,"is_disabled":true,"rental_uris":{"android":"levelo://app?vid=b3e97410-c1b2-4369-b878-0aa5bbd817bc","ios":"levelo://app?vid=b3e97410-c1b2-4369-b878-0aa5bbd817bc"},"vehicle_type_id":"4","last_reported":1743351035,"current_range_meters":13600,"station_id":"ce4bhah2rcd13ifvqei0","pricing_plan_id":"cebpf4jnsgd1na2vs0mg"},{"bike_id":"1300ea1e-e5df-480c-970a-115cb45e0a10","system_id":"levelo_inurba_marseille","lat":43.26067,"lon":5.394,"is_reserved":false,"is_disabled":false,"rental_uris":{"android":"levelo://app?vid=1300ea1e-e5df-480c-970a-115cb45e0a10","ios":"levelo://app?vid=1300ea1e-e5df-480c-970a-115cb45e0a10"},"vehicle_type_id":"4","last_reported":1743351035,"current_range_meters":13600,"station_id":"ce4bhh92rcd13ifvqfj0","pricing_plan_id":"cebpf4jnsgd1na2vs0mg"},{"bike_id":"4db2abe8-ddc9-429c-adec-3c515a3e8b3c","system_id":"levelo_inurba_marseille","lat":43.24071,"lon":5.37774,"is_reserved":false,"is_disabled":false,"rental_uris":{"android":"levelo://app?vid=4db2abe8-ddc9-429c-adec-3c515a3e8b3c","ios":"levelo://app?vid=4db2abe8-ddc9-429c-adec-3c515a3e8b3c"},"vehicle_type_id":"4","last_reported":1743351035,"current_range_meters":13600,"station_id":"ce4bhnp2rcd13ifvqgvg","pricing_plan_id":"cebpf4jnsgd1na2vs0mg"},{"bike_id":"121010d1-d0ea-475b-97a6-f9054736109c","system_id":"levelo_inurba_marseille","lat":43.23191,"lon":5.39973,"is_reserved":false,"is_disabled":false,"rental_uris":{"android":"levelo://app?vid=121010d1-d0ea-475b-97a6-f9054736109c","ios":"levelo://app?vid=121010d1-d0ea-475b-97a6-f9054736109c"},"vehicle_type_id":"4","last_reported":1743351035,"current_range_meters":14000,"station_id":"ce4bhn12rcd13ifvqgqg","pricing_plan_id":"cebpf4jnsgd1na2vs0mg"},{"bike_id":"e0568e94-9771-4e58-a512-303b4e9cb4f3","system_id":"levelo_inurba_marseille","lat":43.27378,"lon":5.36249,"is_reserved":false,"is_disabled":false,"rental_uris":{"android":"levelo://app?vid=e0568e94-9771-4e58-a512-303b4e9cb4f3","ios":"levelo://app?vid=e0568e94-9771-4e58-a512-303b4e9cb4f3"},"vehicle_type_id":"4","last_reported":1743351035,"current_range_meters":14000,"station_id":"ce4bhbh2rcd13ifvqeo0","pricing_plan_id":"cebpf4jnsgd1na2vs0mg"},{"bike_id":"77a12b66-be5c-425a-9717-404ecd3ba703","system_id":"levelo_inurba_marseille","lat":43.30435,"lon":5.38878,"is_reserved":false,"is_disabled":false,"rental_uris":{"android":"levelo://app?vid=77a12b66-be5c-425a-9717-404ecd3ba703","ios":"levelo://app?vid=77a12b66-be5c-425a-9717-404ecd3ba703"},"vehicle_type_id":"4","last_reported":1743351035,"current_range_meters":14000,"station_id":"ce4bgk12rcd13ifvqbi0","pricing_plan_id":"cebpf4jnsgd1na2vs0mg"},{"bike_id":"e5e87896-fc79-4739-9748-f5cd1d13e44f","system_id":"levelo_inurba_marseille","lat":43.28609,"lon":5.35099,"is_reserved":false,"is_disabled":false,"rental_uris":{"android":"levelo://app?vid=e5e87896-fc79-4739-9748-f5cd1d13e44f","ios":"levelo://app?vid=e5e87896-fc79-4739-9748-f5cd1d13e44f"},"vehicle_type_id":"4","last_reported":1743351035,"current_range_meters":14000,"station_id":"ce4bhch2rcd13ifvqeug","pricing_plan_id":"cebpf4jnsgd1na2vs0mg"},{"bike_id":"a44bd7dc-e72b-41cb-9bda-7a1fa3ec4b1c","system_id":"levelo_inurba_marseille","lat":43.2904,"lon":5.35908,"is_reserved":false,"is_disabled":false,"rental_uris":{"android":"levelo://app?vid=a44bd7dc-e72b-41cb-9bda-7a1fa3ec4b1c","ios":"levelo://app?vid=a44bd7dc-e72b-41cb-9bda-7a1fa3ec4b1c"},"vehicle_type_id":"4","last_reported":1743351035,"current_range_meters":13600,"station_id":"ce4bha92rcd13ifvqeg0","pricing_plan_id":"cebpf4jnsgd1na2vs0mg"},{"bike_id":"f4aa7984-6e0a-4355-a188-7dfbb140094d","system_id":"levelo_inurba_marseille","lat":43.28186,"lon":5.42682,"is_reserved":false,"is_disabled":false,"rental_uris":{"android":"levelo://app?vid=f4aa7984-6e0a-4355-a188-7dfbb140094d","ios":"levelo://app?vid=f4aa7984-6e0a-4355-a188-7dfbb140094d"},"vehicle_type_id":"4","last_reported":1743351035,"current_range_meters":14400,"station_id":"ce4bhnh2rcd13ifvqgug","pricing_plan_id":"cebpf4jnsgd1na2vs0mg"},{"bike_id":"a56fdfa7-c6a1-4aee-ac6e-ff40706ab51d","system_id":"levelo_inurba_marseille","lat":43.24395,"lon":5.3706,"is_reserved":false,"is_disabled":false,"rental_uris":{"android":"levelo://app?vid=a56fdfa7-c6a1-4aee-ac6e-ff40706ab51d","ios":"levelo://app?vid=a56fdfa7-c6a1-4aee-ac6e-ff40706ab51d"},"vehicle_type_id":"4","last_reported":1743351035,"current_range_meters":14400,"station_id":"ce4bhhh2rcd13ifvqfk0","pricing_plan_id":"cebpf4jnsgd1na2vs0mg"},{"bike_id":"434ea3cf-5eeb-43af-9c8e-e8d975e7312a","system_id":"levelo_inurba_marseille","lat":43.27371,"lon":5.36252,"is_reserved":false,"is_disabled":false,"rental_uris":{"android":"levelo://app?vid=434ea3cf-5eeb-43af-9c8e-e8d975e7312a","ios":"levelo://app?vid=434ea3cf-5eeb-43af-9c8e-e8d975e7312a"},"vehicle_type_id":"4","last_reported":1743351035,"current_range_meters":14400,"station_id":"ce4bhbh2rcd13ifvqeo0","pricing_plan_id":"cebpf4jnsgd1na2vs0mg"},{"bike_id":"d2bdab8d-508c-4617-a487-d6f2ad6bec6a","system_id":"levelo_inurba_marseille","lat":43.28632,"lon":5.35114,"is_reserved":false,"is_disabled":false,"rental_uris":{"android":"levelo://app?vid=d2bdab8d-508c-4617-a487-d6f2ad6bec6a","ios":"levelo://app?vid=d2bdab8d-508c-4617-a487-d6f2ad6bec6a"},"vehicle_type_id":"4","last_reported":1743351035,"current_range_meters":14400,"station_id":"ce4bhch2rcd13ifvqeug","pricing_plan_id":"cebpf4jnsgd1na2vs0mg"},{"bike_id":"19c4d38c-721f-4a6d-8de0-ad162aee3dc3","system_id":"levelo_inurba_marseille","lat":43.29872,"lon":5.38905,"is_reserved":false,"is_disabled":true,"rental_uris":{"android":"levelo://app?vid=19c4d38c-721f-4a6d-8de0-ad162aee3dc3","ios":"levelo://app?vid=19c4d38c-721f-4a6d-8de0-ad162aee3dc3"},