{"last_updated":1724623677,"ttl":30,"version":"2.2","data":{"bikes":[{"bike_id":"5226e437-f95f-4bba-8fb4-bdd86284ceb9","system_id":"levelo_inurba_marseille","lat":43.313391,"lon":5.36706,"is_reserved":false,"is_disabled":false,"rental_uris":{"android":"levelo://app?vid=5226e437-f95f-4bba-8fb4-bdd86284ceb9","ios":"levelo://app?vid=5226e437-f95f-4bba-8fb4-bdd86284ceb9"},"vehicle_type_id":"4","last_reported":1724623677,"current_range_meters":19600,"station_id":"ce4bgr92rcd13ifvqc6g","pricing_plan_id":"cebpf4jnsgd1na2vs0mg"},{"bike_id":"9e2a3a56-d216-46eb-8b23-b280a02f70e1","system_id":"levelo_inurba_marseille","lat":43.31341,"lon":5.367098,"is_reserved":false,"is_disabled":false,"rental_uris":{"android":"levelo://app?vid=9e2a3a56-d216-46eb-8b23-b280a02f70e1","ios":"levelo://app?vid=9e2a3a56-d216-46eb-8b23-b280a02f70e1"},"vehicle_type_id":"4","last_reported":1724623677,"current_range_meters":17200,"station_id":"ce4bgr92rcd13ifvqc6g","pricing_plan_id":"cebpf4jnsgd1na2vs0mg"},{"bike_id":"3d68b5b4-b887-43a1-8765-6dd2168cff6f","system_id":"levelo_inurba_marseille","lat":43.312239,"lon":5.368562,"is_reserved":false,"is_disabled":false,"rental_uris":{"android":"levelo://app?vid=3d68b5b4-b887-43a1-8765-6dd2168cff6f","ios":"levelo://app?vid=3d68b5b4-b887-43a1-8765-6dd2168cff6f"},"vehicle_type_id":"4","last_reported":1724623677,"current_range_meters":26000,"station_id":"ce4bgl92rcd13ifvqbq0","pricing_plan_id":"cebpf4jnsgd1na2vs0mg"},{"bike_id":"8c2f0725-9629-495e-b17c-16b646515bc2","system_id":"levelo_inurba_marseille","lat":43.312239,"lon":5.368562,"is_reserved":false,"is_disabled":false,"rental_uris":{"android":"levelo://app?vid=8c2f0725-9629-495e-b17c-16b646515bc2","ios":"levelo://app?vid=8c2f0725-9629-495e-b17c-16b646515bc2"},"vehicle_type_id":"4","last_reported":1724623677,"current_range_meters":20400,"station_id":"ce4bgl92rcd13ifvqbq0","pricing_plan_id":"cebpf4jnsgd1na2vs0mg"},{"bike_id":"78064cf5-b29b-4f2d-8e06-adf63a68f6e0","system_id":"levelo_inurba_marseille","lat":43.309039,"lon":5.371797,"is_reserved":false,"is_disabled":false,"rental_uris":{"android":"levelo://app?vid=78064cf5-b29b-4f2d-8e06-adf63a68f6e0","ios":"levelo://app?vid=78064cf5-b29b-4f2d-8e06-adf63a68f6e0"},"vehicle_type_id":"4","last_reported":1724623677,"current_range_meters":4800,"station_id":"ce4bguh2rcd13ifvqckg","pricing_plan_id":"cebpf4jnsgd1na2vs0mg"},{"bike_id":"02a4741c-a9dd-449c-aba7-87926f618bcd","system_id":"levelo_inurba_marseille","lat":43.309039,"lon":5.371797,"is_reserved":false,"is_disabled":false,"rental_uris":{"android":"levelo://app?vid=02a4741c-a9dd-449c-aba7-87926f618bcd","ios":"levelo://app?vid=02a4741c-a9dd-449c-aba7-87926f618bcd"},"vehicle_type_id":"4","last_reported":1724623677,"current_range_meters":31200,"station_id":"ce4bguh2rcd13ifvqckg","pricing_plan_id":"cebpf4jnsgd1na2vs0mg"},{"bike_id":"5d289050-f74b-4986-9c9e-95e69338ab4c","system_id":"levelo_inurba_marseille","lat":43.299222,"lon":5.365554,"is_reserved":false,"is_disabled":false,"rental_uris":{"android":"levelo://app?vid=5d289050-f74b-4986-9c9e-95e69338ab4c","ios":"levelo://app?vid=5d289050-f74b-4986-9c9e-95e69338ab4c"},"vehicle_type_id":"4","last_reported":1724623677,"current_range_meters":0,"station_id":"ce4bgm92rcd13ifvqbr0","pricing_plan_id":"cebpf4jnsgd1na2vs0mg"},{"bike_id":"ba979436-043d-41db-958a-f9be2287f71a","system_id":"levelo_inurba_marseille","lat":43.305712,"lon":5.365641,"is_reserved":false,"is_disabled":false,"rental_uris":{"android":"levelo://app?vid=ba979436-043d-41db-958a-f9be2287f71a","ios":"levelo://app?vid=ba979436-043d-41db-958a-f9be2287f71a"},"vehicle_type_id":"4","last_reported":1724623677,"current_range_meters":30800,"station_id":"ce4bgs12rcd13ifvqcag","pricing_plan_id":"cebpf4jnsgd1na2vs0mg"},{"bike_id":"6c8a20ce-1c32-4d5b-96b0-0aa2f2fe818b","system_id":"levelo_inurba_marseille","lat":43.3055,"lon":5.365445,"is_reserved":false,"is_disabled":false,"rental_uris":{"android":"levelo://app?vid=6c8a20ce-1c32-4d5b-96b0-0aa2f2fe818b","ios":"levelo://app?vid=6c8a20ce-1c32-4d5b-96b0-0aa2f2fe818b"},"vehicle_type_id":"4","last_reported":1724623677,"current_range_meters":20800,"station_id":"ce4bgs12rcd13ifvqcag","pricing_plan_id":"cebpf4jnsgd1na2vs0mg"},{"bike_id":"9d18cd22-3be5-41f2-a7df-48cb3a68a098","system_id":"levelo_inurba_marseille","lat":43.305714,"lon":5.365633,"is_reserved":false,"is_disabled":false,"rental_uris":{"android":"levelo://app?vid=9d18cd22-3be5-41f2-a7df-48cb3a68a098","ios":"levelo://app?vid=9d18cd22-3be5-41f2-a7df-48cb3a68a098"},"vehicle_type_id":"4","last_reported":1724623677,"current_range_meters":16400,"station_id":"ce4bgs12rcd13ifvqcag","pricing_plan_id":"cebpf4jnsgd1na2vs0mg"},{"bike_id":"cbb2bf48-8e29-4bc7-8e79-ec3042f1cdcf","system_id":"levelo_inurba_marseille","lat":43.305714,"lon":5.365633,"is_reserved":false,"is_disabled":false,"rental_uris":{"android":"levelo://app?vid=cbb2bf48-8e29-4bc7-8e79-ec3042f1cdcf","ios":"levelo://app?vid=cbb2bf48-8e29-4bc7-8e79-ec3042f1cdcf"},"vehicle_type_id":"4","last_reported":1724623677,"current_range_meters":7600,"station_id":"ce4bgs12rcd13ifvqcag","pricing_plan_id":"cebpf4jnsgd1na2vs0mg"},{"bike_id":"eafafdf5-290e-44d7-ab2b-1983ebcbed09","system_id":"levelo_inurba_marseille","lat":43.30539,"lon":5.36533,"is_reserved":false,"is_disabled":false,"rental_uris":{"android":"levelo://app?vid=eafafdf5-290e-44d7-ab2b-1983ebcbed09","ios":"levelo://app?vid=eafafdf5-290e-44d7-ab2b-1983ebcbed09"},"vehicle_type_id":"4","last_reported":1724623677,"current_range_meters":20800,"station_id":"ce4bgs12rcd13ifvqcag","pricing_plan_id":"cebpf4jnsgd1na2vs0mg"},{"bike_id":"13020d87-792e-4bca-acaa-004b91da6a64","system_id":"levelo_inurba_marseille","lat":43.30532,"lon":5.36561,"is_reserved":false,"is_disabled":false,"rental_uris":{"android":"levelo://app?vid=13020d87-792e-4bca-acaa-004b91da6a64","ios":"levelo://app?vid=13020d87-792e-4bca-acaa-004b91da6a64"},"vehicle_type_id":"4","last_reported":1724623677,"current_range_meters":24000,"station_id":"ce4bgs12rcd13ifvqcag","pricing_plan_id":"cebpf4jnsgd1na2vs0mg"},{"bike_id":"45363f9e-9c19-4541-87fd-5d3f73113011","system_id":"levelo_inurba_marseille","lat":43.30531,"lon":5.36539,"is_reserved":false,"is_disabled":false,"rental_uris":{"android":"levelo://app?vid=45363f9e-9c19-4541-87fd-5d3f73113011","ios":"levelo://app?vid=45363f9e-9c19-4541-87fd-5d3f73113011"},"vehicle_type_id":"4","last_reported":1724623677,"current_range_meters":10400,"station_id":"ce4bgs12rcd13ifvqcag","pricing_plan_id":"cebpf4jnsgd1na2vs0mg"},{"bike_id":"8f9799e2-723a-474f-935d-729dd99659b4","system_id":"levelo_inurba_marseille","lat":43.311131,"lon":5.377651,"is_reserved":false,"is_disabled":false,"rental_uris":{"android":"levelo://app?vid=8f9799e2-723a-474f-935d-729dd99659b4","ios":"levelo://app?vid=8f9799e2-723a-474f-935d-729dd99659b4"},"vehicle_type_id":"4","last_reported":1724623677,"current_range_meters":22400,"station_id":"ce4bgt92rcd13ifvqcg0","pricing_plan_id":"cebpf4jnsgd1na2vs0mg"},{"bike_id":"609a47a3-1bd1-4371-b14e-109091e03ee6","system_id":"levelo_inurba_marseille","lat":43.311131,"lon":5.377651,"is_reserved":false,"is_disabled":false,"rental_uris":{"android":"levelo://app?vid=609a47a3-1bd1-4371-b14e-109091e03ee6","ios":"levelo://app?vid=609a47a3-1bd1-4371-b14e-109091e03ee6"},"vehicle_type_id":"4","last_reported":1724623677,"current_range_meters":31200,"station_id":"ce4bgt92rcd13ifvqcg0","pricing_plan_id":"cebpf4jnsgd1na2vs0mg"},{"bike_id":"e6c427c9-8a0c-4d39-9c46-310d25bebb99","system_id":"levelo_inurba_marseille","lat":43.311131,"lon":5.377651,"is_reserved":false,"is_disabled":false,"rental_uris":{"android":"levelo://app?vid=e6c427c9-8a0c-4d39-9c46-310d25bebb99","ios":"levelo://app?vid=e6c427c9-8a0c-4d39-9c46-310d25bebb99"},"vehicle_type_id":"4","last_reported":1724623677,"current_range_meters":2000,"station_id":"ce4bgt92rcd13ifvqcg0","pricing_plan_id":"cebpf4jnsgd1na2vs0mg"},{"bike_id":"a6fda6b6-ecf4-4aa4-aef5-4b62be4e1213","system_id":"levelo_inurba_marseille","lat":43.311131,"lon":5.377651,"is_reserved":false,"is_disabled":false,"rental_uris":{"android":"levelo://app?vid=a6fda6b6-ecf4-4aa4-aef5-4b62be4e1213","ios":"levelo://app?vid=a6fda6b6-ecf4-4aa4-aef5-4b62be4e1213"},"vehicle_type_id":"4","last_reported":1724623677,"current_range_meters":21200,"station_id":"ce4bgt92rcd13ifvqcg0","pricing_plan_id":"cebpf4jnsgd1na2vs0mg"},{"bike_id":"24849340-f97e-47e1-a273-c8e2d41b111b","system_id":"levelo_inurba_marseille","lat":43.311131,"lon":5.377651,"is_reserved":false,"is_disabled":false,"rental_uris":{"android":"levelo://app?vid=24849340-f97e-47e1-a273-c8e2d41b111b","ios":"levelo://app?vid=24849340-f97e-47e1-a273-c8e2d41b111b"},"vehicle_type_id":"4","last_reported":1724623677,"current_range_meters":12800,"station_id":"ce4bgt92rcd13ifvqcg0","pricing_plan_id":"cebpf4jnsgd1na2vs0mg"},{"bike_id":"f46e9a9d-6c21-4bb9-bab6-f6bd2bb58fb7","system_id":"levelo_inurba_marseille","lat":43.311131,"lon":5.377651,"is_reserved":false,"is_disabled":false,"rental_uris":{"android":"levelo://app?vid=f46e9a9d-6c21-4bb9-bab6-f6bd2bb58fb7","ios":"levelo://app?vid=f46e9a9d-6c21-4bb9-bab6-f6bd2bb58fb7"},"vehicle_type_id":"4","last_reported":1724623677,"current_range_meters":24000,"station_id":"ce4bgt92rcd13ifvqcg0","pricing_plan_id":"cebpf4jnsgd1na2vs0mg"},{"bike_id":"8e914836-4714-4bd3-8f37-2aa48db8d49d","system_id":"levelo_inurba_marseille","lat":43.307945,"lon":5.376487,"is_reserved":false,"is_disabled":false,"rental_uris":{"android":"levelo://app?vid=8e914836-4714-4bd3-8f37-2aa48db8d49d","ios":"levelo://app?vid=8e914836-4714-4bd3-8f37-2aa48db8d49d"},"vehicle_type_id":"4","last_reported":1724623677,"current_range_meters":23600,"station_id":"ce4bgv92rcd13ifvqcq0","pricing_plan_id":"cebpf4jnsgd1na2vs0mg"},{"bike_id":"ef3648ad-b896-431d-b39a-af6bdc63aeaa","system_id":"levelo_inurba_marseille","lat":43.307945,"lon":5.376487,"is_reserved":false,"is_disabled":false,"rental_uris":{"android":"levelo://app?vid=ef3648ad-b896-431d-b39a-af6bdc63aeaa","ios":"levelo://app?vid=ef3648ad-b896-431d-b39a-af6bdc63aeaa"},"vehicle_type_id":"4","last_reported":1724623677,"current_range_meters":11200,"station_id":"ce4bgv92rcd13ifvqcq0","pricing_plan_id":"cebpf4jnsgd1na2vs0mg"},{"bike_id":"96bfac78-bcf3-4ecb-9003-da5a775bea3a","system_id":"levelo_inurba_marseille","lat":43.307945,"lon":5.376487,"is_reserved":false,"is_disabled":false,"rental_uris":{"android":"levelo://app?vid=96bfac78-bcf3-4ecb-9003-da5a775bea3a","ios":"levelo://app?vid=96bfac78-bcf3-4ecb-9003-da5a775bea3a"},"vehicle_type_id":"4","last_reported":1724623677,"current_range_meters":17200,"station_id":"ce4bgv92rcd13ifvqcq0","pricing_plan_id":"cebpf4jnsgd1na2vs0mg"},{"bike_id":"e9d9f5f7-3593-4278-8f79-53ff83e83acf","system_id":"levelo_inurba_marseille","lat":43.307945,"lon":5.376487,"is_reserved":false,"is_disabled":false,"rental_uris":{"android":"levelo://app?vid=e9d9f5f7-3593-4278-8f79-53ff83e83acf","ios":"levelo://app?vid=e9d9f5f7-3593-4278-8f79-53ff83e83acf"},"vehicle_type_id":"4","last_reported":1724623677,"current_range_meters":12800,"station_id":"ce4bgv92rcd13ifvqcq0","pricing_plan_id":"cebpf4jnsgd1na2vs0mg"},{"bike_id":"ee3db00d-5a85-489c-942d-8cda9684ac47","system_id":"levelo_inurba_marseille","lat":43.307945,"lon":5.376487,"is_reserved":false,"is_disabled":false,"rental_uris":{"android":"levelo://app?vid=ee3db00d-5a85-489c-942d-8cda9684ac47","ios":"levelo://app?vid=ee3db00d-5a85-489c-942d-8cda9684ac47"},"vehicle_type_id":"4","last_reported":1724623677,"current_range_meters":30400,"station_id":"ce4bgv92rcd13ifvqcq0","pricing_plan_id":"cebpf4jnsgd1na2vs0mg"},{"bike_id":"2e56b9d7-dc61-4b29-80fe-0949c40d6079","system_id":"levelo_inurba_marseille","lat":43.307945,"lon":5.376487,"is_reserved":false,"is_disabled":false,"rental_uris":{"android":"levelo://app?vid=2e56b9d7-dc61-4b29-80fe-0949c40d6079","ios":"levelo://app?vid=2e56b9d7-dc61-4b29-80fe-0949c40d6079"},"vehicle_type_id":"4","last_reported":1724623677,"current_range_meters":16400,"station_id":"ce4bgv92rcd13ifvqcq0","pricing_plan_id":"cebpf4jnsgd1na2vs0mg"},{"bike_id":"2bc22663-eda5-4826-9c7c-70a486ee2510","system_id":"levelo_inurba_marseille","lat":43.317075,"lon":5.377367,"is_reserved":false,"is_disabled":false,"rental_uris":{"android":"levelo://app?vid=2bc22663-eda5-4826-9c7c-70a486ee2510","ios":"levelo://app?vid=2bc22663-eda5-4826-9c7c-70a486ee2510"},"vehicle_type_id":"4","last_reported":1724623677,"current_range_meters":13200,"station_id":"ce4bgth2rcd13ifvqch0","pricing_plan_id":"cebpf4jnsgd1na2vs0mg"},{"bike_id":"f8866dbd-8e34-4b7a-9157-45f59ffcda26","system_id":"levelo_inurba_marseille","lat":43.279742,"lon":5.38744,"is_reserved":false,"is_disabled":false,"rental_uris":{"android":"levelo://app?vid=f8866dbd-8e34-4b7a-9157-45f59ffcda26","ios":"levelo://app?vid=f8866dbd-8e34-4b7a-9157-45f59ffcda26"},"vehicle_type_id":"4","last_reported":1724623677,"current_range_meters":22000,"station_id":"ce4bhg12rcd13ifvqf80","pricing_plan_id":"cebpf4jnsgd1na2vs0mg"},{"bike_id":"f023ea8f-3257-43f2-9e0c-af525d473dd2","system_id":"levelo_inurba_marseille","lat":43.303046,"lon":5.368981,"is_reserved":false,"is_disabled":false,"rental_uris":{"android":"levelo://app?vid=f023ea8f-3257-43f2-9e0c-af525d473dd2","ios":"levelo://app?vid=f023ea8f-3257-43f2-9e0c-af525d473dd2"},"vehicle_type_id":"4","last_reported":1724623677,"current_range_meters":18000,"station_id":"ce4bgqh2rcd13ifvqc5g","pricing_plan_id":"cebpf4jnsgd1na2vs0mg"},{"bike_id":"1053b0a9-d2ea-4bc9-adce-35a9b8a55731","system_id":"levelo_inurba_marseille","lat":43.303046,"lon":5.368981,"is_reserved":false,"is_disabled":false,"rental_uris":{"android":"levelo://app?vid=1053b0a9-d2ea-4bc9-adce-35a9b8a55731","ios":"levelo://app?vid=1053b0a9-d2ea-4bc9-adce-35a9b8a55731"},"vehicle_type_id":"4","last_reported":1724623677,"current_range_meters":6800,"station_id":"ce4bgqh2rcd13ifvqc5g","pricing_plan_id":"cebpf4jnsgd1na2vs0mg"},{"bike_id":"0a9ce553-34ac-43e6-b92c-d37737701ee4","system_id":"levelo_inurba_marseille","lat":43.303046,"lon":5.368981,"is_reserved":false,"is_disabled":false,"rental_uris":{"android":"levelo://app?vid=0a9ce553-34ac-43e6-b92c-d37737701ee4","ios":"levelo://app?vid=0a9ce553-34ac-43e6-b92c-d37737701ee4"},"vehicle_type_id":"4","last_reported":1724623677,"current_range_meters":11200,"station_id":"ce4bgqh2rcd13ifvqc5g","pricing_plan_id":"cebpf4jnsgd1na2vs0mg"},{"bike_id":"21b7aaef-460d-4185-b1aa-34e5d59960b4","system_id":"levelo_inurba_marseille","lat":43.303046,"lon":5.368981,"is_reserved":false,"is_disabled":false,"rental_uris":{"android":"levelo://app?vid=21b7aaef-460d-4185-b1aa-34e5d59960b4","ios":"levelo://app?vid=21b7aaef-460d-4185-b1aa-34e5d59960b4"},"vehicle_type_id":"4","last_reported":1724623677,"current_range_meters":14400,"station_id":"ce4bgqh2rcd13ifvqc5g","pricing_plan_id":"cebpf4jnsgd1na2vs0mg"},{"bike_id":"77121001-8180-4762-8f49-882542571a5f","system_id":"levelo_inurba_marseille","lat":43.31524,"lon":5.3803,"is_reserved":false,"is_disabled":false,"rental_uris":{"android":"levelo://app?vid=77121001-8180-4762-8f49-882542571a5f","ios":"levelo://app?vid=77121001-8180-4762-8f49-882542571a5f"},"vehicle_type_id":"4","last_reported":1724623677,"current_range_meters":31200,"station_id":"ce4bhsp2rcd13ifvqi50","pricing_plan_id":"cebpf4jnsgd1na2vs0mg"},{"bike_id":"d22fde8f-61a8-4ba7-aabf-c5840fc7206c","system_id":"levelo_inurba_marseille","lat":43.315273,"lon":5.380328,"is_reserved":false,"is_disabled":false,"rental_uris":{"android":"levelo://app?vid=d22fde8f-61a8-4ba7-aabf-c5840fc7206c","ios":"levelo://app?vid=d22fde8f-61a8-4ba7-aabf-c5840fc7206c"},"vehicle_type_id":"4","last_reported":1724623677,"current_range_meters":31200,"station_id":"ce4bhsp2rcd13ifvqi50","pricing_plan_id":"cebpf4jnsgd1na2vs0mg"},{"bike_id":"581443b4-d189-4533-9fd8-ba617a55cab9","system_id":"levelo_inurba_marseille","lat":43.315289,"lon":5.380349,"is_reserved":false,"is_disabled":false,"rental_uris":{"android":"levelo://app?vid=581443b4-d189-4533-9fd8-ba617a55cab9","ios":"levelo://app?vid=581443b4-d189-4533-9fd8-ba617a55cab9"},"vehicle_type_id":"4","last_reported":1724623677,"current_range_meters":21600,"station_id":"ce4bhsp2rcd13ifvqi50","pricing_plan_id":"cebpf4jnsgd1na2vs0mg"},{"bike_id":"c7d42f03-2453-4ee0-b47e-2c9751103fd7","system_id":"levelo_inurba_marseille","lat":43.315289,"lon":5.380349,"is_reserved":false,"is_disabled":false,"rental_uris":{"android":"levelo://app?vid=c7d42f03-2453-4ee0-b47e-2c9751103fd7","ios":"levelo://app?vid=c7d42f03-2453-4ee0-b47e-2c9751103fd7"},"vehicle_type_id":"4","last_reported":1724623677,"current_range_meters":26400,"station_id":"ce4bhsp2rcd13ifvqi50","pricing_plan_id":"cebpf4jnsgd1na2vs0mg"},{"bike_id":"cfb06c3a-d31d-4a0b-8cca-e528b74b87b6","system_id":"levelo_inurba_marseille","lat":43.308012,"lon":5.381511,"is_reserved":false,"is_disabled":false,"rental_uris":{"android":"levelo://app?vid=cfb06c3a-d31d-4a0b-8cca-e528b74b87b6","ios":"levelo://app?vid=cfb06c3a-d31d-4a0b-8cca-e528b74b87b6"},"vehicle_type_id":"4","last_reported":1724623677,"current_range_meters":22000,"station_id":"ce4bgt12rcd13ifvqce0","pricing_plan_id":"cebpf4jnsgd1na2vs0mg"},{"bike_id":"7c64eb23-be81-490f-8eb8-6cb54cded4f8","system_id":"levelo_inurba_marseille","lat":43.304606,"lon":5.379026,"is_reserved":false,"is_disabled":false,"rental_uris":{"android":"levelo://app?vid=7c64eb23-be81-490f-8eb8-6cb54cded4f8","ios":"levelo://app?vid=7c64eb23-be81-490f-8eb8-6cb54cded4f8"},"vehicle_type_id":"4","last_reported":1724623677,"current_range_meters":24800,"station_id":"ce4bgup2rcd13ifvqcn0","pricing_plan_id":"cebpf4jnsgd1na2vs0mg"},{"bike_id":"f670ca59-ce41-4a3a-aa0a-08446ed8640d","system_id":"levelo_inurba_marseille","lat":43.324771,"lon":5.36557,"is_reserved":false,"is_disabled":false,"rental_uris":{"android":"levelo://app?vid=f670ca59-ce41-4a3a-aa0a-08446ed8640d","ios":"levelo://app?vid=f670ca59-ce41-4a3a-aa0a-08446ed8640d"},"vehicle_type_id":"4","last_reported":1724623677,"current_range_meters":15200,"station_id":"ce4bhs12rcd13ifvqhvg","pricing_plan_id":"cebpf4jnsgd1na2vs0mg"},{"bike_id":"970aef78-7e29-4b64-9f3e-fe2bb51a0c1c","system_id":"levelo_inurba_marseille","lat":43.324771,"lon":5.36557,"is_reserved":false,"is_disabled":false,"rental_uris":{"android":"levelo://app?vid=970aef78-7e29-4b64-9f3e-fe2bb51a0c1c","ios":"levelo://app?vid=970aef78-7e29-4b64-9f3e-fe2bb51a0c1c"},"vehicle_type_id":"4","last_reported":1724623677,"current_range_meters":0,"station_id":"ce4bhs12rcd13ifvqhvg","pricing_plan_id":"cebpf4jnsgd1na2vs0mg"},{"bike_id":"f03437e3-be6d-49da-970f-1b7058534c0f","system_id":"levelo_inurba_marseille","lat":43.324771,"lon":5.36557,"is_reserved":false,"is_disabled":false,"rental_uris":{"android":"levelo://app?vid=f03437e3-be6d-49da-970f-1b7058534c0f","ios":"levelo://app?vid=f03437e3-be6d-49da-970f-1b7058534c0f"},"vehicle_type_id":"4","last_reported":1724623677,"current_range_meters":16000,"station_id":"ce4bhs12rcd13ifvqhvg","pricing_plan_id":"cebpf4jnsgd1na2vs0mg"},{"bike_id":"58f17ab3-49fd-4c96-9c92-dd6ccaa1e784","system_id":"levelo_inurba_marseille","lat":43.324771,"lon":5.36557,"is_reserved":false,"is_disabled":false,"rental_uris":{"android":"levelo://app?vid=58f17ab3-49fd-4c96-9c92-dd6ccaa1e784","ios":"levelo://app?vid=58f17ab3-49fd-4c96-9c92-dd6ccaa1e784"},"vehicle_type_id":"4","last_reported":1724623677,"current_range_meters":7600,"station_id":"ce4bhs12rcd13ifvqhvg","pricing_plan_id":"cebpf4jnsgd1na2vs0mg"},{"bike_id":"c30c57e5-e6a4-4301-8c1f-bb1d7a5e5a91","system_id":"levelo_inurba_marseille","lat":43.3248,"lon":5.365793,"is_reserved":false,"is_disabled":false,"rental_uris":{"android":"levelo://app?vid=c30c57e5-e6a4-4301-8c1f-bb1d7a5e5a91","ios":"levelo://app?vid=c30c57e5-e6a4-4301-8c1f-bb1d7a5e5a91"},"vehicle_type_id":"4","last_reported":1724623677,"current_range_meters":20400,"station_id":"ce4bhs12rcd13ifvqhvg","pricing_plan_id":"cebpf4jnsgd1na2vs0mg"},{"bike_id":"9e2a8d51-e2ab-4c34-b5e7-eeff80380caf","system_id":"levelo_inurba_marseille","lat":43.324771,"lon":5.36557,"is_reserved":false,"is_disabled":false,"rental_uris":{"android":"levelo://app?vid=9e2a8d51-e2ab-4c34-b5e7-eeff80380caf","ios":"levelo://app?vid=9e2a8d51-e2ab-4c34-b5e7-eeff80380caf"},"vehicle_type_id":"4","last_reported":1724623677,"current_range_meters":18000,"station_id":"ce4bhs12rcd13ifvqhvg","pricing_plan_id":"cebpf4jnsgd1na2vs0mg"},{"bike_id":"9bd13436-73a6-4a40-8e1e-a199e716099b","system_id":"levelo_inurba_marseille","lat":43.32482,"lon":5.36567,"is_reserved":false,"is_disabled":false,"rental_uris":{"android":"levelo://app?vid=9bd13436-73a6-4a40-8e1e-a199e716099b","ios":"levelo://app?vid=9bd13436-73a6-4a40-8e1e-a199e716099b"},"vehicle_type_id":"4","last_reported":1724623677,"current_range_meters":31200,"station_id":"ce4bhs12rcd13ifvqhvg","pricing_plan_id":"cebpf4jnsgd1na2vs0mg"},{"bike_id":"aeba1e5d-e63c-45c9-b4e4-a5ef16600449","system_id":"levelo_inurba_marseille","lat":43.324771,"lon":5.36557,"is_reserved":false,"is_disabled":false,"rental_uris":{"android":"levelo://app?vid=aeba1e5d-e63c-45c9-b4e4-a5ef16600449","ios":"levelo://app?vid=aeba1e5d-e63c-45c9-b4e4-a5ef16600449"},"vehicle_type_id":"4","last_reported":1724623677,"current_range_meters":31200,"station_id":"ce4bhs12rcd13ifvqhvg","pricing_plan_id":"cebpf4jnsgd1na2vs0mg"},{"bike_id":"85b01fa3-5478-4e13-af9f-aa805921c297","system_id":"levelo_inurba_marseille","lat":43.324771,"lon":5.36557,"is_reserved":false,"is_disabled":false,"rental_uris":{"android":"levelo://app?vid=85b01fa3-5478-4e13-af9f-aa805921c297","ios":"levelo://app?vid=85b01fa3-5478-4e13-af9f-aa805921c297"},"vehicle_type_id":"4","last_reported":1724623677,"current_range_meters":7600,"station_id":"ce4bhs12rcd13ifvqhvg","pricing_plan_id":"cebpf4jnsgd1na2vs0mg"},{"bike_id":"7d1dc12e-4c55-4565-8d4f-4b40b920aaf1","system_id":"levelo_inurba_marseille","lat":43.310804,"lon":5.38359,"is_reserved":false,"is_disabled":false,"rental_uris":{"android":"levelo://app?vid=7d1dc12e-4c55-4565-8d4f-4b40b920aaf1","ios":"levelo://app?vid=7d1dc12e-4c55-4565-8d4f-4b40b920aaf1"},"vehicle_type_id":"4","last_reported":1724623677,"current_range_meters":31200,"station_id":"ce4bgv92rcd13ifvqcr0","pricing_plan_id":"cebpf4jnsgd1na2vs0mg"},{"bike_id":"4b068ad2-1221-4476-9487-2b7eb5619d8a","system_id":"levelo_inurba_marseille","lat":43.31366,"lon":5.38364,"is_reserved":false,"is_disabled":false,"rental_uris":{"android":"levelo://app?vid=4b068ad2-1221-4476-9487-2b7eb5619d8a","ios":"levelo://app?vid=4b068ad2-1221-4476-9487-2b7eb5619d8a"},"vehicle_type_id":"4","last_reported":1724623677,"current_range_meters":0,"station_id":"","pricing_plan_id":"cebpf4jnsgd1na2vs0mg"},{"bike_id":"31c3fcf7-2dc7-472a-b396-e3241819209c","system_id":"levelo_inurba_marseille","lat":43.324771,"lon":5.36557,"is_reserved":false,"is_disabled":false,"rental_uris":{"android":"levelo://app?vid=31c3fcf7-2dc7-472a-b396-e3241819209c","ios":"levelo://app?vid=31c3fcf7-2dc7-472a-b396-e3241819209c"},"vehicle_type_id":"4","last_reported":1724623677,"current_range_meters":31200,"station_id":"ce4bhs12rcd13ifvqhvg","pricing_plan_id":"cebpf4jnsgd1na2vs0mg"},{"bike_id":"db0f3a31-3c05-4b3c-b5e8-ad112376e149","system_id":"levelo_inurba_marseille","lat":43.324771,"lon":5.36557,"is_reserved":false,"is_disabled":false,"rental_uris":{"android":"levelo://app?vid=db0f3a31-3c05-4b3c-b5e8-ad112376e149","ios":"levelo://app?vid=db0f3a31-3c05-4b3c-b5e8-ad112376e149"},"vehicle_type_id":"4","last_reported":1724623677,"current_range_meters":31600,"station_id":"ce4bhs12rcd13ifvqhvg","pricing_plan_id":"cebpf4jnsgd1na2vs0mg"},{"bike_id":"66dbae7a-e299-40e0-ad78-af571e187543","system_id":"levelo_inurba_marseille","lat":43.31077,"lon":5.38356,"is_reserved":false,"is_disabled":false,"rental_uris":{"android":"levelo://app?vid=66dbae7a-e299-40e0-ad78-af571e187543","ios":"levelo://app?vid=66dbae7a-e299-40e0-ad78-af571e187543"},"vehicle_type_id":"4","last_reported":1724623677,"current_range_meters":4800,"station_id":"ce4bgv92rcd13ifvqcr0","pricing_plan_id":"cebpf4jnsgd1na2vs0mg"},{"bike_id":"5ceaca19-b29a-4285-b531-3aef0ff3dbf3","system_id":"levelo_inurba_marseille","lat":43.31064,"lon":5.3836,"is_reserved":false,"is_disabled":false,"rental_uris":{"android":"levelo://app?vid=5ceaca19-b29a-4285-b531-3aef0ff3dbf3","ios":"levelo://app?vid=5ceaca19-b29a-4285-b531-3aef0ff3dbf3"},"vehicle_type_id":"4","last_reported":1724623677,"current_range_meters":12000,"station_id":"ce4bgv92rcd13ifvqcr0","pricing_plan_id":"cebpf4jnsgd1na2vs0mg"},{"bike_id":"293a3222-4afa-4d6e-bd46-e756e70397ab","system_id":"levelo_inurba_marseille","lat":43.313571,"lon":5.384829,"is_reserved":false,"is_disabled":false,"rental_uris":{"android":"levelo://app?vid=293a3222-4afa-4d6e-bd46-e756e70397ab","ios":"levelo://app?vid=293a3222-4afa-4d6e-bd46-e756e70397ab"},"vehicle_type_id":"4","last_reported":1724623677,"current_range_meters":25600,"station_id":"ce4bgt92rcd13ifvqcf0","pricing_plan_id":"cebpf4jnsgd1na2vs0mg"},{"bike_id":"e8764291-0dc1-4f69-b78b-074010916da1","system_id":"levelo_inurba_marseille","lat":43.30143,"lon":5.37413,"is_reserved":false,"is_disabled":false,"rental_uris":{"android":"levelo://app?vid=e8764291-0dc1-4f69-b78b-074010916da1","ios":"levelo://app?vid=e8764291-0dc1-4f69-b78b-074010916da1"},"vehicle_type_id":"4","last_reported":1724623677,"current_range_meters":20800,"station_id":"ce4bgs92rcd13ifvqcc0","pricing_plan_id":"cebpf4jnsgd1na2vs0mg"},{"bike_id":"43fed40e-39bd-49a2-a122-d45dc0c19307","system_id":"levelo_inurba_marseille","lat":43.302784,"lon":5.377158,"is_reserved":false,"is_disabled":false,"rental_uris":{"android":"levelo://app?vid=43fed40e-39bd-49a2-a122-d45dc0c19307","ios":"levelo://app?vid=43fed40e-39bd-49a2-a122-d45dc0c19307"},"vehicle_type_id":"4","last_reported":1724623677,"current_range_meters":30400,"station_id":"ce4bguh2rcd13ifvqcj0","pricing_plan_id":"cebpf4jnsgd1na2vs0mg"},{"bike_id":"146c6f25-d83e-4496-a070-17c200410409","system_id":"levelo_inurba_marseille","lat":43.302784,"lon":5.377158,"is_reserved":false,"is_disabled":false,"rental_uris":{"android":"levelo://app?vid=146c6f25-d83e-4496-a070-17c200410409","ios":"levelo://app?vid=146c6f25-d83e-4496-a070-17c200410409"},"vehicle_type_id":"4","last_reported":1724623677,"current_range_meters":11600,"station_id":"ce4bguh2rcd13ifvqcj0","pricing_plan_id":"cebpf4jnsgd1na2vs0mg"},{"bike_id":"0509c888-846b-4ef0-bea6-9b36817e7760","system_id":"levelo_inurba_marseille","lat":43.319653,"lon":5.38152,"is_reserved":false,"is_disabled":false,"rental_uris":{"android":"levelo://app?vid=0509c888-846b-4ef0-bea6-9b36817e7760","ios":"levelo://app?vid=0509c888-846b-4ef0-bea6-9b36817e7760"},"vehicle_type_id":"4","last_reported":1724623677,"current_range_meters":6000,"station_id":"ce4bhr12rcd13ifvqhpg","pricing_plan_id":"cebpf4jnsgd1na2vs0mg"},{"bike_id":"f018438d-aefa-4c8b-9871-da6c140980ce","system_id":"levelo_inurba_marseille","lat":43.302784,"lon":5.377158,"is_reserved":false,"is_disabled":false,"rental_uris":{"android":"levelo://app?vid=f018438d-aefa-4c8b-9871-da6c140980ce","ios":"levelo://app?vid=f018438d-aefa-4c8b-9871-da6c140980ce"},"vehicle_type_id":"4","last_reported":1724623677,"current_range_meters":15600,"station_id":"ce4bguh2rcd13ifvqcj0","pricing_plan_id":"cebpf4jnsgd1na2vs0mg"},{"bike_id":"585da6d7-cf3a-4419-85d1-36ed88740a5f","system_id":"levelo_inurba_marseille","lat":43.319935,"lon":5.381699,"is_reserved":false,"is_disabled":false,"rental_uris":{"android":"levelo://app?vid=585da6d7-cf3a-4419-85d1-36ed88740a5f","ios":"levelo://app?vid=585da6d7-cf3a-4419-85d1-36ed88740a5f"},"vehicle_type_id":"4","last_reported":1724623677,"current_range_meters":22800,"station_id":"ce4bhr12rcd13ifvqhpg","pricing_plan_id":"cebpf4jnsgd1na2vs0mg"},{"bike_id":"5736ed4e-9dc7-4fa5-90a1-403587840cbd","system_id":"levelo_inurba_marseille","lat":43.319935,"lon":5.381699,"is_reserved":false,"is_disabled":false,"rental_uris":{"android":"levelo://app?vid=5736ed4e-9dc7-4fa5-90a1-403587840cbd","ios":"levelo://app?vid=5736ed4e-9dc7-4fa5-90a1-403587840cbd"},"vehicle_type_id":"4","last_reported":1724623677,"current_range_meters":25600,"station_id":"ce4bhr12rcd13ifvqhpg","pricing_plan_id":"cebpf4jnsgd1na2vs0mg"},{"bike_id":"062289a5-ae57-4c62-befe-6f1a402f7d92","system_id":"levelo_inurba_marseille","lat":43.319935,"lon":5.381699,"is_reserved":false,"is_disabled":false,"rental_uris":{"android":"levelo://app?vid=062289a5-ae57-4c62-befe-6f1a402f7d92","ios":"levelo://app?vid=062289a5-ae57-4c62-befe-6f1a402f7d92"},"vehicle_type_id":"4","last_reported":1724623677,"current_range_meters":12000,"station_id":"ce4bhr12rcd13ifvqhpg","pricing_plan_id":"cebpf4jnsgd1na2vs0mg"},{"bike_id":"1f04bba8-328e-4639-b46e-6ed338c232dc","system_id":"levelo_inurba_marseille","lat":43.319935,"lon":5.381699,"is_reserved":false,"is_disabled":false,"rental_uris":{"android":"levelo://app?vid=1f04bba8-328e-4639-b46e-6ed338c232dc","ios":"levelo://app?vid=1f04bba8-328e-4639-b46e-6ed338c232dc"},"vehicle_type_id":"4","last_reported":1724623677,"current_range_meters":20800,"station_id":"ce4bhr12rcd13ifvqhpg","pricing_plan_id":"cebpf4jnsgd1na2vs0mg"},{"bike_id":"2c3a2eef-8c1b-43ea-8d73-3aed9a9c2960","system_id":"levelo_inurba_marseille","lat":43.319935,"lon":5.381699,"is_reserved":false,"is_disabled":false,"rental_uris":{"android":"levelo://app?vid=2c3a2eef-8c1b-43ea-8d73-3aed9a9c2960","ios":"levelo://app?vid=2c3a2eef-8c1b-43ea-8d73-3aed9a9c2960"},"vehicle_type_id":"4","last_reported":1724623677,"current_range_meters":16400,"station_id":"ce4bhr12rcd13ifvqhpg","pricing_plan_id":"cebpf4jnsgd1na2vs0mg"},{"bike_id":"e58472a6-cc2f-4b08-b218-4d6d44ef001a","system_id":"levelo_inurba_marseille","lat":43.313571,"lon":5.384829,"is_reserved":false,"is_disabled":false,"rental_uris":{"android":"levelo://app?vid=e58472a6-cc2f-4b08-b218-4d6d44ef001a","ios":"levelo://app?vid=e58472a6-cc2f-4b08-b218-4d6d44ef001a"},"vehicle_type_id":"4","last_reported":1724623677,"current_range_meters":18800,"station_id":"ce4bgt92rcd13ifvqcf0","pricing_plan_id":"cebpf4jnsgd1na2vs0mg"},{"bike_id":"fffe9636-b66c-41c5-8f36-4a1eb2aec921","system_id":"levelo_inurba_marseille","lat":43.313571,"lon":5.384829,"is_reserved":false,"is_disabled":false,"rental_uris":{"android":"levelo://app?vid=fffe9636-b66c-41c5-8f36-4a1eb2aec921","ios":"levelo://app?vid=fffe9636-b66c-41c5-8f36-4a1eb2aec921"},"vehicle_type_id":"4","last_reported":1724623677,"current_range_meters":31600,"station_id":"ce4bgt92rcd13ifvqcf0","pricing_plan_id":"cebpf4jnsgd1na2vs0mg"},{"bike_id":"4e9038f2-ec35-4aed-addb-03f4db2c1680","system_id":"levelo_inurba_marseille","lat":43.313571,"lon":5.384829,"is_reserved":false,"is_disabled":false,"rental_uris":{"android":"levelo://app?vid=4e9038f2-ec35-4aed-addb-03f4db2c1680","ios":"levelo://app?vid=4e9038f2-ec35-4aed-addb-03f4db2c1680"},"vehicle_type_id":"4","last_reported":1724623677,"current_range_meters":8400,"station_id":"ce4bgt92rcd13ifvqcf0","pricing_plan_id":"cebpf4jnsgd1na2vs0mg"},{"bike_id":"a961433d-007e-4805-98d3-65b368932a4e","system_id":"levelo_inurba_marseille","lat":43.313571,"lon":5.384829,"is_reserved":false,"is_disabled":false,"rental_uris":{"android":"levelo://app?vid=a961433d-007e-4805-98d3-65b368932a4e","ios":"levelo://app?vid=a961433d-007e-4805-98d3-65b368932a4e"},"vehicle_type_id":"4","last_reported":1724623677,"current_range_meters":7200,"station_id":"ce4bgt92rcd13ifvqcf0","pricing_plan_id":"cebpf4jnsgd1na2vs0mg"},{"bike_id":"2a529145-4852-442d-bc5c-d78c2edd7477","system_id":"levelo_inurba_marseille","lat":43.313571,"lon":5.384829,"is_reserved":false,"is_disabled":false,"rental_uris":{"android":"levelo://app?vid=2a529145-4852-442d-bc5c-d78c2edd7477","ios":"levelo://app?vid=2a529145-4852-442d-bc5c-d78c2edd7477"},"vehicle_type_id":"4","last_reported":1724623677,"current_range_meters":14000,"station_id":"ce4bgt92rcd13ifvqcf0","pricing_plan_id":"cebpf4jnsgd1na2vs0mg"},{"bike_id":"c43cb48b-0239-455c-9287-41644d2816d6","system_id":"levelo_inurba_marseille","lat":43.313571,"lon":5.384829,"is_reserved":false,"is_disabled":false,"rental_uris":{"android":"levelo://app?vid=c43cb48b-0239-455c-9287-41644d2816d6","ios":"levelo://app?vid=c43cb48b-0239-455c-9287-41644d2816d6"},"vehicle_type_id":"4","last_reported":1724623677,"current_range_meters":19600,"station_id":"ce4bgt92rcd13ifvqcf0","pricing_plan_id":"cebpf4jnsgd1na2vs0mg"},{"bike_id":"9c7f4c3c-88d3-468f-9abb-7af19d9b04c8","system_id":"levelo_inurba_marseille","lat":43.313571,"lon":5.384829,"is_reserved":false,"is_disabled":false,"rental_uris":{"android":"levelo://app?vid=9c7f4c3c-88d3-468f-9abb-7af19d9b04c8","ios":"levelo://app?vid=9c7f4c3c-88d3-468f-9abb-7af19d9b04c8"},"vehicle_type_id":"4","last_reported":1724623677,"current_range_meters":4800,"station_id":"ce4bgt92rcd13ifvqcf0","pricing_plan_id":"cebpf4jnsgd1na2vs0mg"},{"bike_id":"395b9d4f-aa7a-403c-b9c4-70f02aec1a42","system_id":"levelo_inurba_marseille","lat":43.313571,"lon":5.384829,"is_reserved":false,"is_disabled":false,"rental_uris":{"android":"levelo://app?vid=395b9d4f-aa7a-403c-b9c4-70f02aec1a42","ios":"levelo://app?vid=395b9d4f-aa7a-403c-b9c4-70f02aec1a42"},"vehicle_type_id":"4","last_reported":1724623677,"current_range_meters":25600,"station_id":"ce4bgt92rcd13ifvqcf0","pricing_plan_id":"cebpf4jnsgd1na2vs0mg"},{"bike_id":"820defe7-e862-46e2-acaa-f5030965a1fa","system_id":"levelo_inurba_marseille","lat":43.313571,"lon":5.384829,"is_reserved":false,"is_disabled":false,"rental_uris":{"android":"levelo://app?vid=820defe7-e862-46e2-acaa-f5030965a1fa","ios":"levelo://app?vid=820defe7-e862-46e2-acaa-f5030965a1fa"},"vehicle_type_id":"4","last_reported":1724623677,"current_range_meters":31200,"station_id":"ce4bgt92rcd13ifvqcf0","pricing_plan_id":"cebpf4jnsgd1na2vs0mg"},{"bike_id":"ae8bce8e-9e85-4e51-a2a2-2a599ef2af00","system_id":"levelo_inurba_marseille","lat":43.299222,"lon":5.365554,"is_reserved":false,"is_disabled":false,"rental_uris":{"android":"levelo://app?vid=ae8bce8e-9e85-4e51-a2a2-2a599ef2af00","ios":"levelo://app?vid=ae8bce8e-9e85-4e51-a2a2-2a599ef2af00"},"vehicle_type_id":"4","last_reported":1724623677,"current_range_meters":25200,"station_id":"ce4bgm92rcd13ifvqbr0","pricing_plan_id":"cebpf4jnsgd1na2vs0mg"},{"bike_id":"ae82b2df-fa9a-4cde-8e36-cdbb0eda4762","system_id":"levelo_inurba_marseille","lat":43.29902,"lon":5.36364,"is_reserved":false,"is_disabled":false,"rental_uris":{"android":"levelo://app?vid=ae82b2df-fa9a-4cde-8e36-cdbb0eda4762","ios":"levelo://app?vid=ae82b2df-fa9a-4cde-8e36-cdbb0eda4762"},"vehicle_type_id":"4","last_reported":1724623677,"current_range_meters":20800,"station_id":"","pricing_plan_id":"cebpf4jnsgd1na2vs0mg"},{"bike_id":"470a5978-c8ad-4db4-a30c-f0abbc5defd6","system_id":"levelo_inurba_marseille","lat":43.31053,"lon":5.38632,"is_reserved":false,"is_disabled":false,"rental_uris":{"android":"levelo://app?vid=470a5978-c8ad-4db4-a30c-f0abbc5defd6","ios":"levelo://app?vid=470a5978-c8ad-4db4-a30c-f0abbc5defd6"},"vehicle_type_id":"4","last_reported":1724623677,"current_range_meters":14800,"station_id":"","pricing_plan_id":"cebpf4jnsgd1na2vs0mg"},{"bike_id":"0cea2ebb-af1e-4527-a16d-18f0ee287c6e","system_id":"levelo_inurba_marseille","lat":43.299243,"lon":5.37481,"is_reserved":false,"is_disabled":false,"rental_uris":{"android":"levelo://app?vid=0cea2ebb-af1e-4527-a16d-18f0ee287c6e","ios":"levelo://app?vid=0cea2ebb-af1e-4527-a16d-18f0ee287c6e"},"vehicle_type_id":"4","last_reported":1724623677,"current_range_meters":15200,"station_id":"ce4bgjh2rcd13ifvqbg0","pricing_plan_id":"cebpf4jnsgd1na2vs0mg"},{"bike_id":"e009fd61-502c-4720-a0f5-28fae6e9c3ba","system_id":"levelo_inurba_marseille","lat":43.30544,"lon":5.38418,"is_reserved":false,"is_disabled":false,"rental_uris":{"android":"levelo://app?vid=e009fd61-502c-4720-a0f5-28fae6e9c3ba","ios":"levelo://app?vid=e009fd61-502c-4720-a0f5-28fae6e9c3ba"},"vehicle_type_id":"4","last_reported":1724623677,"current_range_meters":30800,"station_id":"ce4bgg92rcd13ifvqb30","pricing_plan_id":"cebpf4jnsgd1na2vs0mg"},{"bike_id":"cf4334fc-6642-483b-83db-8595912bca7f","system_id":"levelo_inurba_marseille","lat":43.305364,"lon":5.384119,"is_reserved":false,"is_disabled":false,"rental_uris":{"android":"levelo://app?vid=cf4334fc-6642-483b-83db-8595912bca7f","ios":"levelo://app?vid=cf4334fc-6642-483b-83db-8595912bca7f"},"vehicle_type_id":"4","last_reported":1724623677,"current_range_meters":31200,"station_id":"ce4bgg92rcd13ifvqb30","pricing_plan_id":"cebpf4jnsgd1na2vs0mg"},{"bike_id":"cfc3bf3a-5c98-434f-bdb5-8d5bff744af8","system_id":"levelo_inurba_marseille","lat":43.299243,"lon":5.374807,"is_reserved":false,"is_disabled":false,"rental_uris":{"android":"levelo://app?vid=cfc3bf3a-5c98-434f-bdb5-8d5bff744af8","ios":"levelo://app?vid=cfc3bf3a-5c98-434f-bdb5-8d5bff744af8"},"vehicle_type_id":"4","last_reported":1724623677,"current_range_meters":10400,"station_id":"ce4bgjh2rcd13ifvqbg0","pricing_plan_id":"cebpf4jnsgd1na2vs0mg"},{"bike_id":"60d19067-3ceb-4c6a-bde5-1639e090e635","system_id":"levelo_inurba_marseille","lat":43.305364,"lon":5.384119,"is_reserved":false,"is_disabled":false,"rental_uris":{"android":"levelo://app?vid=60d19067-3ceb-4c6a-bde5-1639e090e635","ios":"levelo://app?vid=60d19067-3ceb-4c6a-bde5-1639e090e635"},"vehicle_type_id":"4","last_reported":1724623677,"current_range_meters":25600,"station_id":"ce4bgg92rcd13ifvqb30","pricing_plan_id":"cebpf4jnsgd1na2vs0mg"},{"bike_id":"bcf23dc8-5232-43c7-98c5-232dac7b5f24","system_id":"levelo_inurba_marseille","lat":43.311722,"lon":5.387247,"is_reserved":false,"is_disabled":false,"rental_uris":{"android":"levelo://app?vid=bcf23dc8-5232-43c7-98c5-232dac7b5f24","ios":"levelo://app?vid=bcf23dc8-5232-43c7-98c5-232dac7b5f24"},"vehicle_type_id":"4","last_reported":1724623677,"current_range_meters":10800,"station_id":"ce4bgv12rcd13ifvqcp0","pricing_plan_id":"cebpf4jnsgd1na2vs0mg"},{"bike_id":"c458031a-a8a1-47a5-b63c-dc83eb224684","system_id":"levelo_inurba_marseille","lat":43.311722,"lon":5.387247,"is_reserved":false,"is_disabled":false,"rental_uris":{"android":"levelo://app?vid=c458031a-a8a1-47a5-b63c-dc83eb224684","ios":"levelo://app?vid=c458031a-a8a1-47a5-b63c-dc83eb224684"},"vehicle_type_id":"4","last_reported":1724623677,"current_range_meters":5600,"station_id":"ce4bgv12rcd13ifvqcp0","pricing_plan_id":"cebpf4jnsgd1na2vs0mg"},{"bike_id":"0efcbb40-2d1e-426a-ac0b-44661736e347","system_id":"levelo_inurba_marseille","lat":43.311722,"lon":5.387247,"is_reserved":false,"is_disabled":false,"rental_uris":{"android":"levelo://app?vid=0efcbb40-2d1e-426a-ac0b-44661736e347","ios":"levelo://app?vid=0efcbb40-2d1e-426a-ac0b-44661736e347"},"vehicle_type_id":"4","last_reported":1724623677,"current_range_meters":14800,"station_id":"ce4bgv12rcd13ifvqcp0","pricing_plan_id":"cebpf4jnsgd1na2vs0mg"},{"bike_id":"dbad5375-05c7-4907-815f-e5beef0576df","system_id":"levelo_inurba_marseille","lat":43.311722,"lon":5.387247,"is_reserved":false,"is_disabled":false,"rental_uris":{"android":"levelo://app?vid=dbad5375-05c7-4907-815f-e5beef0576df","ios":"levelo://app?vid=dbad5375-05c7-4907-815f-e5beef0576df"},"vehicle_type_id":"4","last_reported":1724623677,"current_range_meters":29600,"station_id":"ce4bgv12rcd13ifvqcp0","pricing_plan_id":"cebpf4jnsgd1na2vs0mg"},{"bike_id":"a9c09d90-4bfa-4bad-a70f-34f1ab00cede","system_id":"levelo_inurba_marseille","lat":43.311722,"lon":5.387247,"is_reserved":false,"is_disabled":false,"rental_uris":{"android":"levelo://app?vid=a9c09d90-4bfa-4bad-a70f-34f1ab00cede","ios":"levelo://app?vid=a9c09d90-4bfa-4bad-a70f-34f1ab00cede"},"vehicle_type_id":"4","last_reported":1724623677,"current_range_meters":30800,"station_id":"ce4bgv12rcd13ifvqcp0","pricing_plan_id":"cebpf4jnsgd1na2vs0mg"},{"bike_id":"fdc185ab-6d08-4ccb-8fd3-1e1370a36190","system_id":"levelo_inurba_marseille","lat":43.311722,"lon":5.387247,"is_reserved":false,"is_disabled":false,"rental_uris":{"android":"levelo://app?vid=fdc185ab-6d08-4ccb-8fd3-1e1370a36190","ios":"levelo://app?vid=fdc185ab-6d08-4ccb-8fd3-1e1370a36190"},"vehicle_type_id":"4","last_reported":1724623677,"current_range_meters":16000,"station_id":"ce4bgv12rcd13ifvqcp0","pricing_plan_id":"cebpf4jnsgd1na2vs0mg"},{"bike_id":"8e0d5b91-2afd-4568-ba39-7e3ebfc932c7","system_id":"levelo_inurba_marseille","lat":43.311722,"lon":5.387247,"is_reserved":false,"is_disabled":false,"rental_uris":{"android":"levelo://app?vid=8e0d5b91-2afd-4568-ba39-7e3ebfc932c7","ios":"levelo://app?vid=8e0d5b91-2afd-4568-ba39-7e3ebfc932c7"},"vehicle_type_id":"4","last_reported":1724623677,"current_range_meters":32000,"station_id":"ce4bgv12rcd13ifvqcp0","pricing_plan_id":"cebpf4jnsgd1na2vs0mg"},{"bike_id":"0898351a-65b8-4305-a36a-ba057ed9d43d","system_id":"levelo_inurba_marseille","lat":43.311722,"lon":5.387247,"is_reserved":false,"is_disabled":false,"rental_uris":{"android":"levelo://app?vid=0898351a-65b8-4305-a36a-ba057ed9d43d","ios":"levelo://app?vid=0898351a-65b8-4305-a36a-ba057ed9d43d"},"vehicle_type_id":"4","last_reported":1724623677,"current_range_meters":30800,"station_id":"ce4bgv12rcd13ifvqcp0","pricing_plan_id":"cebpf4jnsgd1na2vs0mg"},{"bike_id":"d7dbcbc4-6ae6-475d-820f-ef7620850b09","system_id":"levelo_inurba_marseille","lat":43.311722,"lon":5.387247,"is_reserved":false,"is_disabled":false,"rental_uris":{"android":"levelo://app?vid=d7dbcbc4-6ae6-475d-820f-ef7620850b09","ios":"levelo://app?vid=d7dbcbc4-6ae6-475d-820f-ef7620850b09"},"vehicle_type_id":"4","last_reported":1724623677,"current_range_meters":15600,"station_id":"ce4bgv12rcd13ifvqcp0","pricing_plan_id":"cebpf4jnsgd1na2vs0mg"},{"bike_id":"b132fe83-634b-4bcd-9099-7ac8c294f73a","system_id":"levelo_inurba_marseille","lat":43.311722,"lon":5.387247,"is_reserved":false,"is_disabled":false,"rental_uris":{"android":"levelo://app?vid=b132fe83-634b-4bcd-9099-7ac8c294f73a","ios":"levelo://app?vid=b132fe83-634b-4bcd-9099-7ac8c294f73a"},"vehicle_type_id":"4","last_reported":1724623677,"current_range_meters":12000,"station_id":"ce4bgv12rcd13ifvqcp0","pricing_plan_id":"cebpf4jnsgd1na2vs0mg"},{"bike_id":"43576a8d-30b7-45c4-8cc3-3281c65252f4","system_id":"levelo_inurba_marseille","lat":43.311722,"lon":5.387247,"is_reserved":false,"is_disabled":false,"rental_uris":{"android":"levelo://app?vid=43576a8d-30b7-45c4-8cc3-3281c65252f4","ios":"levelo://app?vid=43576a8d-30b7-45c4-8cc3-3281c65252f4"},"vehicle_type_id":"4","last_reported":1724623677,"current_range_meters":32000,"station_id":"ce4bgv12rcd13ifvqcp0","pricing_plan_id":"cebpf4jnsgd1na2vs0mg"},{"bike_id":"c2759db2-4839-4c82-b675-2d8527de4db2","system_id":"levelo_inurba_marseille","lat":43.301417,"lon":5.3809,"is_reserved":false,"is_disabled":false,"rental_uris":{"android":"levelo://app?vid=c2759db2-4839-4c82-b675-2d8527de4db2","ios":"levelo://app?vid=c2759db2-4839-4c82-b675-2d8527de4db2"},"vehicle_type_id":"4","last_reported":1724623677,"current_range_meters":11200,"station_id":"ce4bgjp2rcd13ifvqbh0","pricing_plan_id":"cebpf4jnsgd1na2vs0mg"},{"bike_id":"2059d4c4-51f5-410e-9afb-5701f3ac3f3a","system_id":"levelo_inurba_marseille","lat":43.32291,"lon":5.38257,"is_reserved":false,"is_disabled":false,"rental_uris":{"android":"levelo://app?vid=2059d4c4-51f5-410e-9afb-5701f3ac3f3a","ios":"levelo://app?vid=2059d4c4-51f5-410e-9afb-5701f3ac3f3a"},"vehicle_type_id":"4","last_reported":1724623677,"current_range_meters":3600,"station_id":"ce4bhr12rcd13ifvqhqg","pricing_plan_id":"cebpf4jnsgd1na2vs0mg"},{"bike_id":"1600b445-4c74-401c-8ded-fbe3246e677e","system_id":"levelo_inurba_marseille","lat":43.32287,"lon":5.38269,"is_reserved":false,"is_disabled":false,"rental_uris":{"android":"levelo://app?vid=1600b445-4c74-401c-8ded-fbe3246e677e","ios":"levelo://app?vid=1600b445-4c74-401c-8ded-fbe3246e677e"},"vehicle_type_id":"4","last_reported":1724623677,"current_range_meters":24000,"station_id":"ce4bhr12rcd13ifvqhqg","pricing_plan_id":"cebpf4jnsgd1na2vs0mg"},{"bike_id":"43637faa-bc57-4af9-9031-ccf7137dafc6","system_id":"levelo_inurba_marseille","lat":43.32296,"lon":5.38259,"is_reserved":false,"is_disabled":false,"rental_uris":{"android":"levelo://app?vid=43637faa-bc57-4af9-9031-ccf7137dafc6","ios":"levelo://app?vid=43637faa-bc57-4af9-9031-ccf7137dafc6"},"vehicle_type_id":"4","last_reported":1724623677,"current_range_meters":17200,"station_id":"ce4bhr12rcd13ifvqhqg","pricing_plan_id":"cebpf4jnsgd1na2vs0mg"},{"bike_id":"8f5cf47f-a4b4-4766-afa5-715d740b61c9","system_id":"levelo_inurba_marseille","lat":43.322872,"lon":5.382756,"is_reserved":false,"is_disabled":false,"rental_uris":{"android":"levelo://app?vid=8f5cf47f-a4b4-4766-afa5-715d740b61c9","ios":"levelo://app?vid=8f5cf47f-a4b4-4766-afa5-715d740b61c9"},"vehicle_type_id":"4","last_reported":1724623677,"current_range_meters":27200,"station_id":"ce4bhr12rcd13ifvqhqg","pricing_plan_id":"cebpf4jnsgd1na2vs0mg"},{"bike_id":"562cf404-c2e2-4eec-84ba-16992be67cca","system_id":"levelo_inurba_marseille","lat":43.322872,"lon":5.382756,"is_reserved":false,"is_disabled":false,"rental_uris":{"android":"levelo://app?vid=562cf404-c2e2-4eec-84ba-16992be67cca","ios":"levelo://app?vid=562cf404-c2e2-4eec-84ba-16992be67cca"},"vehicle_type_id":"4","last_reported":1724623677,"current_range_meters":20000,"station_id":"ce4bhr12rcd13ifvqhqg","pricing_plan_id":"cebpf4jnsgd1na2vs0mg"},{"bike_id":"9d463c10-4f62-4795-a9e4-99e0d13224f9","system_id":"levelo_inurba_marseille","lat":43.322872,"lon":5.382756,"is_reserved":false,"is_disabled":false,"rental_uris":{"android":"levelo://app?vid=9d463c10-4f62-4795-a9e4-99e0d13224f9","ios":"levelo://app?vid=9d463c10-4f62-4795-a9e4-99e0d13224f9"},"vehicle_type_id":"4","last_reported":1724623677,"current_range_meters":31600,"station_id":"ce4bhr12rcd13ifvqhqg","pricing_plan_id":"cebpf4jnsgd1na2vs0mg"},{"bike_id":"0bc956f0-196f-4e7c-987d-ff7e59f21360","system_id":"levelo_inurba_marseille","lat":43.31451,"lon":5.38832,"is_reserved":false,"is_disabled":false,"rental_uris":{"android":"levelo://app?vid=0bc956f0-196f-4e7c-987d-ff7e59f21360","ios":"levelo://app?vid=0bc956f0-196f-4e7c-987d-ff7e59f21360"},"vehicle_type_id":"4","last_reported":1724623677,"current_range_meters":2800,"station_id":"","pricing_plan_id":"cebpf4jnsgd1na2vs0mg"},{"bike_id":"0f80e4a7-dd24-4bcb-898e-d82ea20cfec9","system_id":"levelo_inurba_marseille","lat":43.2963,"lon":5.36031,"is_reserved":false,"is_disabled":false,"rental_uris":{"android":"levelo://app?vid=0f80e4a7-dd24-4bcb-898e-d82ea20cfec9","ios":"levelo://app?vid=0f80e4a7-dd24-4bcb-898e-d82ea20cfec9"},"vehicle_type_id":"4","last_reported":1724623677,"current_range_meters":0,"station_id":"","pricing_plan_id":"cebpf4jnsgd1na2vs0mg"},{"bike_id":"453cae1e-c50e-4aad-b17e-09b6fea5436c","system_id":"levelo_inurba_marseille","lat":43.309589,"lon":5.390258,"is_reserved":false,"is_disabled":false,"rental_uris":{"android":"levelo://app?vid=453cae1e-c50e-4aad-b17e-09b6fea5436c","ios":"levelo://app?vid=453cae1e-c50e-4aad-b17e-09b6fea5436c"},"vehicle_type_id":"4","last_reported":1724623677,"current_range_meters":30000,"station_id":"ce4bgup2rcd13ifvqco0","pricing_plan_id":"cebpf4jnsgd1na2vs0mg"},{"bike_id":"713103d7-5271-4ca5-babe-7c873a2f1ade","system_id":"levelo_inurba_marseille","lat":43.309589,"lon":5.390258,"is_reserved":false,"is_disabled":false,"rental_uris":{"android":"levelo://app?vid=713103d7-5271-4ca5-babe-7c873a2f1ade","ios":"levelo://app?vid=713103d7-5271-4ca5-babe-7c873a2f1ade"},"vehicle_type_id":"4","last_reported":1724623677,"current_range_meters":25200,"station_id":"ce4bgup2rcd13ifvqco0","pricing_plan_id":"cebpf4jnsgd1na2vs0mg"},{"bike_id":"e23b5135-05cf-48d2-905d-a30772322ea3","system_id":"levelo_inurba_marseille","lat":43.30958,"lon":5.390314,"is_reserved":false,"is_disabled":false,"rental_uris":{"android":"levelo://app?vid=e23b5135-05cf-48d2-905d-a30772322ea3","ios":"levelo://app?vid=e23b5135-05cf-48d2-905d-a30772322ea3"},"vehicle_type_id":"4","last_reported":1724623677,"current_range_meters":0,"station_id":"ce4bgup2rcd13ifvqco0","pricing_plan_id":"cebpf4jnsgd1na2vs0mg"},{"bike_id":"20b70f53-1a6f-4cff-97e6-eed41056a9fb","system_id":"levelo_inurba_marseille","lat":43.309589,"lon":5.390258,"is_reserved":false,"is_disabled":false,"rental_uris":{"android":"levelo://app?vid=20b70f53-1a6f-4cff-97e6-eed41056a9fb","ios":"levelo://app?vid=20b70f53-1a6f-4cff-97e6-eed41056a9fb"},"vehicle_type_id":"4","last_reported":1724623677,"current_range_meters":21200,"station_id":"ce4bgup2rcd13ifvqco0","pricing_plan_id":"cebpf4jnsgd1na2vs0mg"},{"bike_id":"30d0f55d-bf22-42a5-a81a-139ac16bfceb","system_id":"levelo_inurba_marseille","lat":43.309589,"lon":5.390258,"is_reserved":false,"is_disabled":false,"rental_uris":{"android":"levelo://app?vid=30d0f55d-bf22-42a5-a81a-139ac16bfceb","ios":"levelo://app?vid=30d0f55d-bf22-42a5-a81a-139ac16bfceb"},"vehicle_type_id":"4","last_reported":1724623677,"current_range_meters":3600,"station_id":"ce4bgup2rcd13ifvqco0","pricing_plan_id":"cebpf4jnsgd1na2vs0mg"},{"bike_id":"e6fd205d-6a33-4337-837d-c3b0ba2eac92","system_id":"levelo_inurba_marseille","lat":43.317557,"lon":5.390173,"is_reserved":false,"is_disabled":false,"rental_uris":{"android":"levelo://app?vid=e6fd205d-6a33-4337-837d-c3b0ba2eac92","ios":"levelo://app?vid=e6fd205d-6a33-4337-837d-c3b0ba2eac92"},"vehicle_type_id":"4","last_reported":1724623677,"current_range_meters":17600,"station_id":"ce4bhqp2rcd13ifvqhng","pricing_plan_id":"cebpf4jnsgd1na2vs0mg"},{"bike_id":"cbb2c254-b724-42f0-9275-3e313c9ed18c","system_id":"levelo_inurba_marseille","lat":43.317557,"lon":5.390173,"is_reserved":false,"is_disabled":false,"rental_uris":{"android":"levelo://app?vid=cbb2c254-b724-42f0-9275-3e313c9ed18c","ios":"levelo://app?vid=cbb2c254-b724-42f0-9275-3e313c9ed18c"},"vehicle_type_id":"4","last_reported":1724623677,"current_range_meters":14400,"station_id":"ce4bhqp2rcd13ifvqhng","pricing_plan_id":"cebpf4jnsgd1na2vs0mg"},{"bike_id":"2afdfa6e-e000-415d-8a37-d38a937c32cb","system_id":"levelo_inurba_marseille","lat":43.317557,"lon":5.390173,"is_reserved":false,"is_disabled":false,"rental_uris":{"android":"levelo://app?vid=2afdfa6e-e000-415d-8a37-d38a937c32cb","ios":"levelo://app?vid=2afdfa6e-e000-415d-8a37-d38a937c32cb"},"vehicle_type_id":"4","last_reported":1724623677,"current_range_meters":18800,"station_id":"ce4bhqp2rcd13ifvqhng","pricing_plan_id":"cebpf4jnsgd1na2vs0mg"},{"bike_id":"226b65c0-ca0a-4f97-bf1e-25075e0211af","system_id":"levelo_inurba_marseille","lat":43.317557,"lon":5.390173,"is_reserved":false,"is_disabled":false,"rental_uris":{"android":"levelo://app?vid=226b65c0-ca0a-4f97-bf1e-25075e0211af","ios":"levelo://app?vid=226b65c0-ca0a-4f97-bf1e-25075e0211af"},"vehicle_type_id":"4","last_reported":1724623677,"current_range_meters":20000,"station_id":"ce4bhqp2rcd13ifvqhng","pricing_plan_id":"cebpf4jnsgd1na2vs0mg"},{"bike_id":"c9c803bd-6d05-45bd-84ac-7cc8952c2126","system_id":"levelo_inurba_marseille","lat":43.317557,"lon":5.390173,"is_reserved":false,"is_disabled":false,"rental_uris":{"android":"levelo://app?vid=c9c803bd-6d05-45bd-84ac-7cc8952c2126","ios":"levelo://app?vid=c9c803bd-6d05-45bd-84ac-7cc8952c2126"},"vehicle_type_id":"4","last_reported":1724623677,"current_range_meters":20800,"station_id":"ce4bhqp2rcd13ifvqhng","pricing_plan_id":"cebpf4jnsgd1na2vs0mg"},{"bike_id":"f3a30803-e6e6-44e8-b48a-491c239989cf","system_id":"levelo_inurba_marseille","lat":43.317557,"lon":5.390173,"is_reserved":false,"is_disabled":false,"rental_uris":{"android":"levelo://app?vid=f3a30803-e6e6-44e8-b48a-491c239989cf","ios":"levelo://app?vid=f3a30803-e6e6-44e8-b48a-491c239989cf"},"vehicle_type_id":"4","last_reported":1724623677,"current_range_meters":9600,"station_id":"ce4bhqp2rcd13ifvqhng","pricing_plan_id":"cebpf4jnsgd1na2vs0mg"},{"bike_id":"c3b5431a-bc4b-4c80-8e25-b2c955c54430","system_id":"levelo_inurba_marseille","lat":43.317557,"lon":5.390173,"is_reserved":false,"is_disabled":false,"rental_uris":{"android":"levelo://app?vid=c3b5431a-bc4b-4c80-8e25-b2c955c54430","ios":"levelo://app?vid=c3b5431a-bc4b-4c80-8e25-b2c955c54430"},"vehicle_type_id":"4","last_reported":1724623677,"current_range_meters":20800,"station_id":"ce4bhqp2rcd13ifvqhng","pricing_plan_id":"cebpf4jnsgd1na2vs0mg"},{"bike_id":"83ed9b6a-deea-4f8d-a9f4-3f45357a6f08","system_id":"levelo_inurba_marseille","lat":43.29766,"lon":5.37964,"is_reserved":false,"is_disabled":false,"rental_uris":{"android":"levelo://app?vid=83ed9b6a-deea-4f8d-a9f4-3f45357a6f08","ios":"levelo://app?vid=83ed9b6a-deea-4f8d-a9f4-3f45357a6f08"},"vehicle_type_id":"4","last_reported":1724623677,"current_range_meters":16800,"station_id":"","pricing_plan_id":"cebpf4jnsgd1na2vs0mg"},{"bike_id":"fa5771a1-fc80-4d92-adf7-40494c599d1f","system_id":"levelo_inurba_marseille","lat":43.295748,"lon":5.37522,"is_reserved":false,"is_disabled":false,"rental_uris":{"android":"levelo://app?vid=fa5771a1-fc80-4d92-adf7-40494c599d1f","ios":"levelo://app?vid=fa5771a1-fc80-4d92-adf7-40494c599d1f"},"vehicle_type_id":"4","last_reported":1724623677,"current_range_meters":2400,"station_id":"ce4bgh92rcd13ifvqb50","pricing_plan_id":"cebpf4jnsgd1na2vs0mg"},{"bike_id":"d2428b8c-ebdc-4e96-85d0-be0d899d20d2","system_id":"levelo_inurba_marseille","lat":43.295748,"lon":5.37522,"is_reserved":false,"is_disabled":false,"rental_uris":{"android":"levelo://app?vid=d2428b8c-ebdc-4e96-85d0-be0d899d20d2","ios":"levelo://app?vid=d2428b8c-ebdc-4e96-85d0-be0d899d20d2"},"vehicle_type_id":"4","last_reported":1724623677,"current_range_meters":0,"station_id":"ce4bgh92rcd13ifvqb50","pricing_plan_id":"cebpf4jnsgd1na2vs0mg"},{"bike_id":"18e851e7-36b4-4e7f-be06-9b13ad6f53d4","system_id":"levelo_inurba_marseille","lat":43.304274,"lon":5.388873,"is_reserved":false,"is_disabled":false,"rental_uris":{"android":"levelo://app?vid=18e851e7-36b4-4e7f-be06-9b13ad6f53d4","ios":"levelo://app?vid=18e851e7-36b4-4e7f-be06-9b13ad6f53d4"},"vehicle_type_id":"4","last_reported":1724623677,"current_range_meters":12400,"station_id":"ce4bgk12rcd13ifvqbi0","pricing_plan_id":"cebpf4jnsgd1na2vs0mg"},{"bike_id":"178afe1d-fa9b-44c9-a1da-f0d6e694e2eb","system_id":"levelo_inurba_marseille","lat":43.298975,"lon":5.382922,"is_reserved":false,"is_disabled":false,"rental_uris":{"android":"levelo://app?vid=178afe1d-fa9b-44c9-a1da-f0d6e694e2eb","ios":"levelo://app?vid=178afe1d-fa9b-44c9-a1da-f0d6e694e2eb"},"vehicle_type_id":"4","last_reported":1724623677,"current_range_meters":800,"station_id":"","pricing_plan_id":"cebpf4jnsgd1na2vs0mg"},{"bike_id":"c254846d-50f7-47c0-8cbc-867fec696ed5","system_id":"levelo_inurba_marseille","lat":43.304278,"lon":5.388868,"is_reserved":false,"is_disabled":false,"rental_uris":{"android":"levelo://app?vid=c254846d-50f7-47c0-8cbc-867fec696ed5","ios":"levelo://app?vid=c254846d-50f7-47c0-8cbc-867fec696ed5"},"vehicle_type_id":"4","last_reported":1724623677,"current_range_meters":31200,"station_id":"ce4bgk12rcd13ifvqbi0","pricing_plan_id":"cebpf4jnsgd1na2vs0mg"},{"bike_id":"75844794-ca53-410f-bbf6-3ee92cc813aa","system_id":"levelo_inurba_marseille","lat":43.304274,"lon":5.388873,"is_reserved":false,"is_disabled":false,"rental_uris":{"android":"levelo://app?vid=75844794-ca53-410f-bbf6-3ee92cc813aa","ios":"levelo://app?vid=75844794-ca53-410f-bbf6-3ee92cc813aa"},"vehicle_type_id":"4","last_reported":1724623677,"current_range_meters":30000,"station_id":"ce4bgk12rcd13ifvqbi0","pricing_plan_id":"cebpf4jnsgd1na2vs0mg"},{"bike_id":"ae16de2b-69dd-43f4-82c5-d556cdbe3f20","system_id":"levelo_inurba_marseille","lat":43.304274,"lon":5.388873,"is_reserved":false,"is_disabled":false,"rental_uris":{"android":"levelo://app?vid=ae16de2b-69dd-43f4-82c5-d556cdbe3f20","ios":"levelo://app?vid=ae16de2b-69dd-43f4-82c5-d556cdbe3f20"},"vehicle_type_id":"4","last_reported":1724623677,"current_range_meters":12400,"station_id":"ce4bgk12rcd13ifvqbi0","pricing_plan_id":"cebpf4jnsgd1na2vs0mg"},{"bike_id":"8fad924d-d34f-4eb0-85b3-3869171fd252","system_id":"levelo_inurba_marseille","lat":43.304278,"lon":5.388868,"is_reserved":false,"is_disabled":false,"rental_uris":{"android":"levelo://app?vid=8fad924d-d34f-4eb0-85b3-3869171fd252","ios":"levelo://app?vid=8fad924d-d34f-4eb0-85b3-3869171fd252"},"vehicle_type_id":"4","last_reported":1724623677,"current_range_meters":30400,"station_id":"ce4bgk12rcd13ifvqbi0","pricing_plan_id":"cebpf4jnsgd1na2vs0mg"},{"bike_id":"0312aac5-5cb1-4018-8e85-f7a5857aff8d","system_id":"levelo_inurba_marseille","lat":43.304278,"lon":5.388868,"is_reserved":false,"is_disabled":false,"rental_uris":{"android":"levelo://app?vid=0312aac5-5cb1-4018-8e85-f7a5857aff8d","ios":"levelo://app?vid=0312aac5-5cb1-4018-8e85-f7a5857aff8d"},"vehicle_type_id":"4","last_reported":1724623677,"current_range_meters":18400,"station_id":"ce4bgk12rcd13ifvqbi0","pricing_plan_id":"cebpf4jnsgd1na2vs0mg"},{"bike_id":"7d0ac274-d838-42f6-b76c-3c99121e0760","system_id":"levelo_inurba_marseille","lat":43.296263,"lon":5.377094,"is_reserved":false,"is_disabled":false,"rental_uris":{"android":"levelo://app?vid=7d0ac274-d838-42f6-b76c-3c99121e0760","ios":"levelo://app?vid=7d0ac274-d838-42f6-b76c-3c99121e0760"},"vehicle_type_id":"4","last_reported":1724623677,"current_range_meters":30000,"station_id":"ce4bgi92rcd13ifvqb90","pricing_plan_id":"cebpf4jnsgd1na2vs0mg"},{"bike_id":"bb373eee-3d47-426b-be99-44fe0bb668cd","system_id":"levelo_inurba_marseille","lat":43.304278,"lon":5.388868,"is_reserved":false,"is_disabled":false,"rental_uris":{"android":"levelo://app?vid=bb373eee-3d47-426b-be99-44fe0bb668cd","ios":"levelo://app?vid=bb373eee-3d47-426b-be99-44fe0bb668cd"},"vehicle_type_id":"4","last_reported":1724623677,"current_range_meters":30000,"station_id":"ce4bgk12rcd13ifvqbi0","pricing_plan_id":"cebpf4jnsgd1na2vs0mg"},{"bike_id":"0d5b7a13-7936-4d21-855d-bfbd6c79f2ea","system_id":"levelo_inurba_marseille","lat":43.304278,"lon":5.388868,"is_reserved":false,"is_disabled":false,"rental_uris":{"android":"levelo://app?vid=0d5b7a13-7936-4d21-855d-bfbd6c79f2ea","ios":"levelo://app?vid=0d5b7a13-7936-4d21-855d-bfbd6c79f2ea"},"vehicle_type_id":"4","last_reported":1724623677,"current_range_meters":18400,"station_id":"ce4bgk12rcd13ifvqbi0","pricing_plan_id":"cebpf4jnsgd1na2vs0mg"},{"bike_id":"7dba4bda-a088-4285-b41d-3377f66d3863","system_id":"levelo_inurba_marseille","lat":43.304278,"lon":5.388868,"is_reserved":false,"is_disabled":false,"rental_uris":{"android":"levelo://app?vid=7dba4bda-a088-4285-b41d-3377f66d3863","ios":"levelo://app?vid=7dba4bda-a088-4285-b41d-3377f66d3863"},"vehicle_type_id":"4","last_reported":1724623677,"current_range_meters":8400,"station_id":"ce4bgk12rcd13ifvqbi0","pricing_plan_id":"cebpf4jnsgd1na2vs0mg"},{"bike_id":"31874de3-dfaa-4bfb-93e8-730152332d9a","system_id":"levelo_inurba_marseille","lat":43.304274,"lon":5.388873,"is_reserved":false,"is_disabled":false,"rental_uris":{"android":"levelo://app?vid=31874de3-dfaa-4bfb-93e8-730152332d9a","ios":"levelo://app?vid=31874de3-dfaa-4bfb-93e8-730152332d9a"},"vehicle_type_id":"4","last_reported":1724623677,"current_range_meters":14000,"station_id":"ce4bgk12rcd13ifvqbi0","pricing_plan_id":"cebpf4jnsgd1na2vs0mg"},{"bike_id":"a76a224d-3060-431d-afd2-78ab6f28b18f","system_id":"levelo_inurba_marseille","lat":43.304274,"lon":5.388873,"is_reserved":false,"is_disabled":false,"rental_uris":{"android":"levelo://app?vid=a76a224d-3060-431d-afd2-78ab6f28b18f","ios":"levelo://app?vid=a76a224d-3060-431d-afd2-78ab6f28b18f"},"vehicle_type_id":"4","last_reported":1724623677,"current_range_meters":20000,"station_id":"ce4bgk12rcd13ifvqbi0","pricing_plan_id":"cebpf4jnsgd1na2vs0mg"},{"bike_id":"23471874-ec8d-47a8-8fd9-c793b2effeee","system_id":"levelo_inurba_marseille","lat":43.304274,"lon":5.388873,"is_reserved":false,"is_disabled":false,"rental_uris":{"android":"levelo://app?vid=23471874-ec8d-47a8-8fd9-c793b2effeee","ios":"levelo://app?vid=23471874-ec8d-47a8-8fd9-c793b2effeee"},"vehicle_type_id":"4","last_reported":1724623677,"current_range_meters":4800,"station_id":"ce4bgk12rcd13ifvqbi0","pricing_plan_id":"cebpf4jnsgd1na2vs0mg"},{"bike_id":"57967cb4-b79e-458f-88e4-9689ad417859","system_id":"levelo_inurba_marseille","lat":43.304274,"lon":5.388873,"is_reserved":false,"is_disabled":false,"rental_uris":{"android":"levelo://app?vid=57967cb4-b79e-458f-88e4-9689ad417859","ios":"levelo://app?vid=57967cb4-b79e-458f-88e4-9689ad417859"},"vehicle_type_id":"4","last_reported":1724623677,"current_range_meters":10800,"station_id":"ce4bgk12rcd13ifvqbi0","pricing_plan_id":"cebpf4jnsgd1na2vs0mg"},{"bike_id":"91cb306c-e8c9-4027-b801-1bfda57a8b4f","system_id":"levelo_inurba_marseille","lat":43.295279,"lon":5.375048,"is_reserved":false,"is_disabled":false,"rental_uris":{"android":"levelo://app?vid=91cb306c-e8c9-4027-b801-1bfda57a8b4f","ios":"levelo://app?vid=91cb306c-e8c9-4027-b801-1bfda57a8b4f"},"vehicle_type_id":"4","last_reported":1724623677,"current_range_meters":1200,"station_id":"ce4bgkp2rcd13ifvqbmg","pricing_plan_id":"cebpf4jnsgd1na2vs0mg"},{"bike_id":"ad3f1ef4-5033-4258-99f3-023e46e8d6bd","system_id":"levelo_inurba_marseille","lat":43.295279,"lon":5.375048,"is_reserved":false,"is_disabled":false,"rental_uris":{"android":"levelo://app?vid=ad3f1ef4-5033-4258-99f3-023e46e8d6bd","ios":"levelo://app?vid=ad3f1ef4-5033-4258-99f3-023e46e8d6bd"},"vehicle_type_id":"4","last_reported":1724623677,"current_range_meters":12000,"station_id":"ce4bgkp2rcd13ifvqbmg","pricing_plan_id":"cebpf4jnsgd1na2vs0mg"},{"bike_id":"7c44970e-344f-442d-9729-56007dc0d594","system_id":"levelo_inurba_marseille","lat":43.299707,"lon":5.384859,"is_reserved":false,"is_disabled":false,"rental_uris":{"android":"levelo://app?vid=7c44970e-344f-442d-9729-56007dc0d594","ios":"levelo://app?vid=7c44970e-344f-442d-9729-56007dc0d594"},"vehicle_type_id":"4","last_reported":1724623677,"current_range_meters":20000,"station_id":"ce4bgj92rcd13ifvqbd0","pricing_plan_id":"cebpf4jnsgd1na2vs0mg"},{"bike_id":"948fe58c-c7b4-4f71-a4e5-f17ab44202ea","system_id":"levelo_inurba_marseille","lat":43.29962,"lon":5.38502,"is_reserved":false,"is_disabled":false,"rental_uris":{"android":"levelo://app?vid=948fe58c-c7b4-4f71-a4e5-f17ab44202ea","ios":"levelo://app?vid=948fe58c-c7b4-4f71-a4e5-f17ab44202ea"},"vehicle_type_id":"4","last_reported":1724623677,"current_range_meters":7600,"station_id":"ce4bgj92rcd13ifvqbd0","pricing_plan_id":"cebpf4jnsgd1na2vs0mg"},{"bike_id":"716972c9-fbd9-41b8-b686-60eb32e06101","system_id":"levelo_inurba_marseille","lat":43.301396,"lon":5.387812,"is_reserved":false,"is_disabled":false,"rental_uris":{"android":"levelo://app?vid=716972c9-fbd9-41b8-b686-60eb32e06101","ios":"levelo://app?vid=716972c9-fbd9-41b8-b686-60eb32e06101"},"vehicle_type_id":"4","last_reported":1724623677,"current_range_meters":800,"station_id":"ce4bghh2rcd13ifvqb60","pricing_plan_id":"cebpf4jnsgd1na2vs0mg"},{"bike_id":"44697259-df5a-4440-97a3-446870e6e1bb","system_id":"levelo_inurba_marseille","lat":43.301396,"lon":5.387812,"is_reserved":false,"is_disabled":false,"rental_uris":{"android":"levelo://app?vid=44697259-df5a-4440-97a3-446870e6e1bb","ios":"levelo://app?vid=44697259-df5a-4440-97a3-446870e6e1bb"},"vehicle_type_id":"4","last_reported":1724623677,"current_range_meters":6400,"station_id":"ce4bghh2rcd13ifvqb60","pricing_plan_id":"cebpf4jnsgd1na2vs0mg"},{"bike_id":"602ab04f-07c6-4ea0-9174-e756a68d4f99","system_id":"levelo_inurba_marseille","lat":43.301396,"lon":5.387812,"is_reserved":false,"is_disabled":false,"rental_uris":{"android":"levelo://app?vid=602ab04f-07c6-4ea0-9174-e756a68d4f99","ios":"levelo://app?vid=602ab04f-07c6-4ea0-9174-e756a68d4f99"},"vehicle_type_id":"4","last_reported":1724623677,"current_range_meters":14800,"station_id":"ce4bghh2rcd13ifvqb60","pricing_plan_id":"cebpf4jnsgd1na2vs0mg"},{"bike_id":"aa967c40-9596-4d2a-99e1-33f1b503c247","system_id":"levelo_inurba_marseille","lat":43.301396,"lon":5.387812,"is_reserved":false,"is_disabled":false,"rental_uris":{"android":"levelo://app?vid=aa967c40-9596-4d2a-99e1-33f1b503c247","ios":"levelo://app?vid=aa967c40-9596-4d2a-99e1-33f1b503c247"},"vehicle_type_id":"4","last_reported":1724623677,"current_range_meters":20400,"station_id":"ce4bghh2rcd13ifvqb60","pricing_plan_id":"cebpf4jnsgd1na2vs0mg"},{"bike_id":"e541b77a-3e07-4fd8-be5d-1e207c962395","system_id":"levelo_inurba_marseille","lat":43.301229,"lon":5.387804,"is_reserved":false,"is_disabled":false,"rental_uris":{"android":"levelo://app?vid=e541b77a-3e07-4fd8-be5d-1e207c962395","ios":"levelo://app?vid=e541b77a-3e07-4fd8-be5d-1e207c962395"},"vehicle_type_id":"4","last_reported":1724623677,"current_range_meters":31200,"station_id":"ce4bghh2rcd13ifvqb60","pricing_plan_id":"cebpf4jnsgd1na2vs0mg"},{"bike_id":"7b6d66e6-93a0-4b73-89f0-f402174af305","system_id":"levelo_inurba_marseille","lat":43.32367,"lon":5.388836,"is_reserved":false,"is_disabled":false,"rental_uris":{"android":"levelo://app?vid=7b6d66e6-93a0-4b73-89f0-f402174af305","ios":"levelo://app?vid=7b6d66e6-93a0-4b73-89f0-f402174af305"},"vehicle_type_id":"4","last_reported":1724623677,"current_range_meters":31200,"station_id":"ce4bhqp2rcd13ifvqhog","pricing_plan_id":"cebpf4jnsgd1na2vs0mg"},{"bike_id":"e9f43118-4f53-4435-8e12-a9693a896f53","system_id":"levelo_inurba_marseille","lat":43.32367,"lon":5.388836,"is_reserved":false,"is_disabled":false,"rental_uris":{"android":"levelo://app?vid=e9f43118-4f53-4435-8e12-a9693a896f53","ios":"levelo://app?vid=e9f43118-4f53-4435-8e12-a9693a896f53"},"vehicle_type_id":"4","last_reported":1724623677,"current_range_meters":31200,"station_id":"ce4bhqp2rcd13ifvqhog","pricing_plan_id":"cebpf4jnsgd1na2vs0mg"},{"bike_id":"48ad36b6-330e-4aef-af9f-4e111b5fd393","system_id":"levelo_inurba_marseille","lat":43.32367,"lon":5.388836,"is_reserved":false,"is_disabled":false,"rental_uris":{"android":"levelo://app?vid=48ad36b6-330e-4aef-af9f-4e111b5fd393","ios":"levelo://app?vid=48ad36b6-330e-4aef-af9f-4e111b5fd393"},"vehicle_type_id":"4","last_reported":1724623677,"current_range_meters":31200,"station_id":"ce4bhqp2rcd13ifvqhog","pricing_plan_id":"cebpf4jnsgd1na2vs0mg"},{"bike_id":"a1ee482f-2a7a-407c-90ad-26034a19fdf3","system_id":"levelo_inurba_marseille","lat":43.32367,"lon":5.388836,"is_reserved":false,"is_disabled":false,"rental_uris":{"android":"levelo://app?vid=a1ee482f-2a7a-407c-90ad-26034a19fdf3","ios":"levelo://app?vid=a1ee482f-2a7a-407c-90ad-26034a19fdf3"},"vehicle_type_id":"4","last_reported":1724623677,"current_range_meters":9600,"station_id":"ce4bhqp2rcd13ifvqhog","pricing_plan_id":"cebpf4jnsgd1na2vs0mg"},{"bike_id":"bbcd82ac-2010-45ed-9b17-f346e4a9eb87","system_id":"levelo_inurba_marseille","lat":43.29602,"lon":5.381084,"is_reserved":false,"is_disabled":false,"rental_uris":{"android":"levelo://app?vid=bbcd82ac-2010-45ed-9b17-f346e4a9eb87","ios":"levelo://app?vid=bbcd82ac-2010-45ed-9b17-f346e4a9eb87"},"vehicle_type_id":"4","last_reported":1724623677,"current_range_meters":0,"station_id":"ce4bgl12rcd13ifvqbo0","pricing_plan_id":"cebpf4jnsgd1na2vs0mg"},{"bike_id":"c3360a3e-973b-4320-b559-f1b4399a90c9","system_id":"levelo_inurba_marseille","lat":43.29602,"lon":5.381084,"is_reserved":false,"is_disabled":false,"rental_uris":{"android":"levelo://app?vid=c3360a3e-973b-4320-b559-f1b4399a90c9","ios":"levelo://app?vid=c3360a3e-973b-4320-b559-f1b4399a90c9"},"vehicle_type_id":"4","last_reported":1724623677,"current_range_meters":3600,"station_id":"ce4bgl12rcd13ifvqbo0","pricing_plan_id":"cebpf4jnsgd1na2vs0mg"},{"bike_id":"93b0093f-5cb9-42e3-89b8-95c908bf2321","system_id":"levelo_inurba_marseille","lat":43.296027,"lon":5.381122,"is_reserved":false,"is_disabled":false,"rental_uris":{"android":"levelo://app?vid=93b0093f-5cb9-42e3-89b8-95c908bf2321","ios":"levelo://app?vid=93b0093f-5cb9-42e3-89b8-95c908bf2321"},"vehicle_type_id":"4","last_reported":1724623677,"current_range_meters":24400,"station_id":"","pricing_plan_id":"cebpf4jnsgd1na2vs0mg"},{"bike_id":"f0f23af3-86b6-49b9-b75a-cce204f7c2fd","system_id":"levelo_inurba_marseille","lat":43.29271,"lon":5.36841,"is_reserved":false,"is_disabled":false,"rental_uris":{"android":"levelo://app?vid=f0f23af3-86b6-49b9-b75a-cce204f7c2fd","ios":"levelo://app?vid=f0f23af3-86b6-49b9-b75a-cce204f7c2fd"},"vehicle_type_id":"4","last_reported":1724623677,"current_range_meters":0,"station_id":"ce4bhbp2rcd13ifvqesg","pricing_plan_id":"cebpf4jnsgd1na2vs0mg"},{"bike_id":"23d4a728-9a73-4940-b968-90a42022d2e0","system_id":"levelo_inurba_marseille","lat":43.29567,"lon":5.38152,"is_reserved":false,"is_disabled":false,"rental_uris":{"android":"levelo://app?vid=23d4a728-9a73-4940-b968-90a42022d2e0","ios":"levelo://app?vid=23d4a728-9a73-4940-b968-90a42022d2e0"},"vehicle_type_id":"4","last_reported":1724623677,"current_range_meters":22000,"station_id":"ce4bgl12rcd13ifvqbo0","pricing_plan_id":"cebpf4jnsgd1na2vs0mg"},{"bike_id":"497efdb9-4266-4183-aff5-20dd104565f3","system_id":"levelo_inurba_marseille","lat":43.304278,"lon":5.388868,"is_reserved":false,"is_disabled":false,"rental_uris":{"android":"levelo://app?vid=497efdb9-4266-4183-aff5-20dd104565f3","ios":"levelo://app?vid=497efdb9-4266-4183-aff5-20dd104565f3"},"vehicle_type_id":"4","last_reported":1724623677,"current_range_meters":8800,"station_id":"ce4bgk12rcd13ifvqbi0","pricing_plan_id":"cebpf4jnsgd1na2vs0mg"},{"bike_id":"c141a604-dee0-419d-88b0-c4a0a2241d9e","system_id":"levelo_inurba_marseille","lat":43.305994,"lon":5.393687,"is_reserved":false,"is_disabled":false,"rental_uris":{"android":"levelo://app?vid=c141a604-dee0-419d-88b0-c4a0a2241d9e","ios":"levelo://app?vid=c141a604-dee0-419d-88b0-c4a0a2241d9e"},"vehicle_type_id":"4","last_reported":1724623677,"current_range_meters":31200,"station_id":"ce4bh0p2rcd13ifvqd80","pricing_plan_id":"cebpf4jnsgd1na2vs0mg"},{"bike_id":"dd42ca82-ca23-4b94-a9fc-a919b3720cf4","system_id":"levelo_inurba_marseille","lat":43.305994,"lon":5.393687,"is_reserved":false,"is_disabled":false,"rental_uris":{"android":"levelo://app?vid=dd42ca82-ca23-4b94-a9fc-a919b3720cf4","ios":"levelo://app?vid=dd42ca82-ca23-4b94-a9fc-a919b3720cf4"},"vehicle_type_id":"4","last_reported":1724623677,"current_range_meters":14000,"station_id":"ce4bh0p2rcd13ifvqd80","pricing_plan_id":"cebpf4jnsgd1na2vs0mg"},{"bike_id":"98fbcf0f-f178-43a5-ba26-6d18d2ec5992","system_id":"levelo_inurba_marseille","lat":43.305994,"lon":5.393687,"is_reserved":false,"is_disabled":false,"rental_uris":{"android":"levelo://app?vid=98fbcf0f-f178-43a5-ba26-6d18d2ec5992","ios":"levelo://app?vid=98fbcf0f-f178-43a5-ba26-6d18d2ec5992"},"vehicle_type_id":"4","last_reported":1724623677,"current_range_meters":24000,"station_id":"ce4bh0p2rcd13ifvqd80","pricing_plan_id":"cebpf4jnsgd1na2vs0mg"},{"bike_id":"f633276f-c1fe-4208-9580-7ab52008a810","system_id":"levelo_inurba_marseille","lat":43.305994,"lon":5.393687,"is_reserved":false,"is_disabled":false,"rental_uris":{"android":"levelo://app?vid=f633276f-c1fe-4208-9580-7ab52008a810","ios":"levelo://app?vid=f633276f-c1fe-4208-9580-7ab52008a810"},"vehicle_type_id":"4","last_reported":1724623677,"current_range_meters":20000,"station_id":"ce4bh0p2rcd13ifvqd80","pricing_plan_id":"cebpf4jnsgd1na2vs0mg"},{"bike_id":"d80174f1-e10e-4e17-9d24-60d6d0b25778","system_id":"levelo_inurba_marseille","lat":43.30587,"lon":5.39358,"is_reserved":false,"is_disabled":false,"rental_uris":{"android":"levelo://app?vid=d80174f1-e10e-4e17-9d24-60d6d0b25778","ios":"levelo://app?vid=d80174f1-e10e-4e17-9d24-60d6d0b25778"},"vehicle_type_id":"4","last_reported":1724623677,"current_range_meters":24400,"station_id":"ce4bh0p2rcd13ifvqd80","pricing_plan_id":"cebpf4jnsgd1na2vs0mg"},{"bike_id":"920aca82-0722-4643-954e-22aeb9c87836","system_id":"levelo_inurba_marseille","lat":43.305994,"lon":5.393687,"is_reserved":false,"is_disabled":false,"rental_uris":{"android":"levelo://app?vid=920aca82-0722-4643-954e-22aeb9c87836","ios":"levelo://app?vid=920aca82-0722-4643-954e-22aeb9c87836"},"vehicle_type_id":"4","last_reported":1724623677,"current_range_meters":30000,"station_id":"ce4bh0p2rcd13ifvqd80","pricing_plan_id":"cebpf4jnsgd1na2vs0mg"},{"bike_id":"1c2d065d-775b-4dd0-9532-bc9f44a4fec3","system_id":"levelo_inurba_marseille","lat":43.305994,"lon":5.393687,"is_reserved":false,"is_disabled":false,"rental_uris":{"android":"levelo://app?vid=1c2d065d-775b-4dd0-9532-bc9f44a4fec3","ios":"levelo://app?vid=1c2d065d-775b-4dd0-9532-bc9f44a4fec3"},"vehicle_type_id":"4","last_reported":1724623677,"current_range_meters":17600,"station_id":"ce4bh0p2rcd13ifvqd80","pricing_plan_id":"cebpf4jnsgd1na2vs0mg"},{"bike_id":"35ca4071-c6b3-4a28-b271-4f149a4d054e","system_id":"levelo_inurba_marseille","lat":43.303002,"lon":5.392142,"is_reserved":false,"is_disabled":false,"rental_uris":{"android":"levelo://app?vid=35ca4071-c6b3-4a28-b271-4f149a4d054e","ios":"levelo://app?vid=35ca4071-c6b3-4a28-b271-4f149a4d054e"},"vehicle_type_id":"4","last_reported":1724623677,"current_range_meters":30000,"station_id":"ce4bgkh2rcd13ifvqbk0","pricing_plan_id":"cebpf4jnsgd1na2vs0mg"},{"bike_id":"d4d5067a-6eca-4735-8381-e34c44b31f83","system_id":"levelo_inurba_marseille","lat":43.302992,"lon":5.392136,"is_reserved":false,"is_disabled":false,"rental_uris":{"android":"levelo://app?vid=d4d5067a-6eca-4735-8381-e34c44b31f83","ios":"levelo://app?vid=d4d5067a-6eca-4735-8381-e34c44b31f83"},"vehicle_type_id":"4","last_reported":1724623677,"current_range_meters":21600,"station_id":"ce4bgkh2rcd13ifvqbk0","pricing_plan_id":"cebpf4jnsgd1na2vs0mg"},{"bike_id":"99533cc8-b092-4874-832d-7d2defb75fb9","system_id":"levelo_inurba_marseille","lat":43.302992,"lon":5.392136,"is_reserved":false,"is_disabled":false,"rental_uris":{"android":"levelo://app?vid=99533cc8-b092-4874-832d-7d2defb75fb9","ios":"levelo://app?vid=99533cc8-b092-4874-832d-7d2defb75fb9"},"vehicle_type_id":"4","last_reported":1724623677,"current_range_meters":31200,"station_id":"ce4bgkh2rcd13ifvqbk0","pricing_plan_id":"cebpf4jnsgd1na2vs0mg"},{"bike_id":"fb4aeacb-24f8-4a87-b212-fdda592fbafa","system_id":"levelo_inurba_marseille","lat":43.302992,"lon":5.392136,"is_reserved":false,"is_disabled":false,"rental_uris":{"android":"levelo://app?vid=fb4aeacb-24f8-4a87-b212-fdda592fbafa","ios":"levelo://app?vid=fb4aeacb-24f8-4a87-b212-fdda592fbafa"},"vehicle_type_id":"4","last_reported":1724623677,"current_range_meters":30800,"station_id":"ce4bgkh2rcd13ifvqbk0","pricing_plan_id":"cebpf4jnsgd1na2vs0mg"},{"bike_id":"2b481f93-e6c4-47c0-8c89-4cc0f62ff296","system_id":"levelo_inurba_marseille","lat":43.29883,"lon":5.38906,"is_reserved":false,"is_disabled":false,"rental_uris":{"android":"levelo://app?vid=2b481f93-e6c4-47c0-8c89-4cc0f62ff296","ios":"levelo://app?vid=2b481f93-e6c4-47c0-8c89-4cc0f62ff296"},"vehicle_type_id":"4","last_reported":1724623677,"current_range_meters":12800,"station_id":"ce4bh392rcd13ifvqdl0","pricing_plan_id":"cebpf4jnsgd1na2vs0mg"},{"bike_id":"f5ad40f5-9991-4a4a-b2df-1cae1d40ccad","system_id":"levelo_inurba_marseille","lat":43.291708,"lon":5.371544,"is_reserved":false,"is_disabled":false,"rental_uris":{"android":"levelo://app?vid=f5ad40f5-9991-4a4a-b2df-1cae1d40ccad","ios":"levelo://app?vid=f5ad40f5-9991-4a4a-b2df-1cae1d40ccad"},"vehicle_type_id":"4","last_reported":1724623677,"current_range_meters":0,"station_id":"ce4bha92rcd13ifvqeh0","pricing_plan_id":"cebpf4jnsgd1na2vs0mg"},{"bike_id":"75888a05-6db8-401a-863b-8244f79946c4","system_id":"levelo_inurba_marseille","lat":43.298764,"lon":5.388973,"is_reserved":false,"is_disabled":false,"rental_uris":{"android":"levelo://app?vid=75888a05-6db8-401a-863b-8244f79946c4","ios":"levelo://app?vid=75888a05-6db8-401a-863b-8244f79946c4"},"vehicle_type_id":"4","last_reported":1724623677,"current_range_meters":23200,"station_id":"ce4bh392rcd13ifvqdl0","pricing_plan_id":"cebpf4jnsgd1na2vs0mg"},{"bike_id":"bbe03ee7-0e2e-4f6a-b084-00e349e9061d","system_id":"levelo_inurba_marseille","lat":43.298764,"lon":5.388973,"is_reserved":false,"is_disabled":false,"rental_uris":{"android":"levelo://app?vid=bbe03ee7-0e2e-4f6a-b084-00e349e9061d","ios":"levelo://app?vid=bbe03ee7-0e2e-4f6a-b084-00e349e9061d"},"vehicle_type_id":"4","last_reported":1724623677,"current_range_meters":30000,"station_id":"ce4bh392rcd13ifvqdl0","pricing_plan_id":"cebpf4jnsgd1na2vs0mg"},{"bike_id":"f32af68d-7a47-480e-af6f-5e6eaba9b125","system_id":"levelo_inurba_marseille","lat":43.292005,"lon":5.357875,"is_reserved":false,"is_disabled":false,"rental_uris":{"android":"levelo://app?vid=f32af68d-7a47-480e-af6f-5e6eaba9b125","ios":"levelo://app?vid=f32af68d-7a47-480e-af6f-5e6eaba9b125"},"vehicle_type_id":"4","last_reported":1724623677,"current_range_meters":0,"station_id":"ce4bhb12rcd13ifvqel0","pricing_plan_id":"cebpf4jnsgd1na2vs0mg"},{"bike_id":"764d0c48-502b-42cc-b534-c6e8884d8e4b","system_id":"levelo_inurba_marseille","lat":43.292005,"lon":5.357875,"is_reserved":false,"is_disabled":false,"rental_uris":{"android":"levelo://app?vid=764d0c48-502b-42cc-b534-c6e8884d8e4b","ios":"levelo://app?vid=764d0c48-502b-42cc-b534-c6e8884d8e4b"},"vehicle_type_id":"4","last_reported":1724623677,"current_range_meters":14400,"station_id":"ce4bhb12rcd13ifvqel0","pricing_plan_id":"cebpf4jnsgd1na2vs0mg"},{"bike_id":"06a8019c-48bf-442f-9b6e-2aa458d0e6af","system_id":"levelo_inurba_marseille","lat":43.309038,"lon":5.396546,"is_reserved":false,"is_disabled":false,"rental_uris":{"android":"levelo://app?vid=06a8019c-48bf-442f-9b6e-2aa458d0e6af","ios":"levelo://app?vid=06a8019c-48bf-442f-9b6e-2aa458d0e6af"},"vehicle_type_id":"4","last_reported":1724623677,"current_range_meters":25600,"station_id":"ce4bh012rcd13ifvqcv0","pricing_plan_id":"cebpf4jnsgd1na2vs0mg"},{"bike_id":"843f42fc-60e3-4f21-83c3-1ae31623f4f9","system_id":"levelo_inurba_marseille","lat":43.309038,"lon":5.396546,"is_reserved":false,"is_disabled":false,"rental_uris":{"android":"levelo://app?vid=843f42fc-60e3-4f21-83c3-1ae31623f4f9","ios":"levelo://app?vid=843f42fc-60e3-4f21-83c3-1ae31623f4f9"},"vehicle_type_id":"4","last_reported":1724623677,"current_range_meters":4800,"station_id":"ce4bh012rcd13ifvqcv0","pricing_plan_id":"cebpf4jnsgd1na2vs0mg"},{"bike_id":"78023808-393a-44f4-8f98-44b5331727ff","system_id":"levelo_inurba_marseille","lat":43.309047,"lon":5.396551,"is_reserved":false,"is_disabled":false,"rental_uris":{"android":"levelo://app?vid=78023808-393a-44f4-8f98-44b5331727ff","ios":"levelo://app?vid=78023808-393a-44f4-8f98-44b5331727ff"},"vehicle_type_id":"4","last_reported":1724623677,"current_range_meters":31200,"station_id":"ce4bh012rcd13ifvqcv0","pricing_plan_id":"cebpf4jnsgd1na2vs0mg"},{"bike_id":"43db0c72-d1f2-4cbc-894b-5c64dafde8ae","system_id":"levelo_inurba_marseille","lat":43.309038,"lon":5.396546,"is_reserved":false,"is_disabled":false,"rental_uris":{"android":"levelo://app?vid=43db0c72-d1f2-4cbc-894b-5c64dafde8ae","ios":"levelo://app?vid=43db0c72-d1f2-4cbc-894b-5c64dafde8ae"},"vehicle_type_id":"4","last_reported":1724623677,"current_range_meters":31200,"station_id":"ce4bh012rcd13ifvqcv0","pricing_plan_id":"cebpf4jnsgd1na2vs0mg"},{"bike_id":"baa42dc7-9f32-4fe4-b575-a302278e7c25","system_id":"levelo_inurba_marseille","lat":43.309038,"lon":5.396546,"is_reserved":false,"is_disabled":false,"rental_uris":{"android":"levelo://app?vid=baa42dc7-9f32-4fe4-b575-a302278e7c25","ios":"levelo://app?vid=baa42dc7-9f32-4fe4-b575-a302278e7c25"},"vehicle_type_id":"4","last_reported":1724623677,"current_range_meters":7600,"station_id":"ce4bh012rcd13ifvqcv0","pricing_plan_id":"cebpf4jnsgd1na2vs0mg"},{"bike_id":"5ffd033d-04bb-443c-95a4-7bf9cf4c3a61","system_id":"levelo_inurba_marseille","lat":43.309038,"lon":5.396546,"is_reserved":false,"is_disabled":false,"rental_uris":{"android":"levelo://app?vid=5ffd033d-04bb-443c-95a4-7bf9cf4c3a61","ios":"levelo://app?vid=5ffd033d-04bb-443c-95a4-7bf9cf4c3a61"},"vehicle_type_id":"4","last_reported":1724623677,"current_range_meters":14400,"station_id":"ce4bh012rcd13ifvqcv0","pricing_plan_id":"cebpf4jnsgd1na2vs0mg"},{"bike_id":"8375b614-c6c8-4236-9d4b-fe38b2e794b6","system_id":"levelo_inurba_marseille","lat":43.309038,"lon":5.396546,"is_reserved":false,"is_disabled":false,"rental_uris":{"android":"levelo://app?vid=8375b614-c6c8-4236-9d4b-fe38b2e794b6","ios":"levelo://app?vid=8375b614-c6c8-4236-9d4b-fe38b2e794b6"},"vehicle_type_id":"4","last_reported":1724623677,"current_range_meters":16000,"station_id":"ce4bh012rcd13ifvqcv0","pricing_plan_id":"cebpf4jnsgd1na2vs0mg"},{"bike_id":"224c7336-bd76-4b1e-af7e-d884ae25644c","system_id":"levelo_inurba_marseille","lat":43.309047,"lon":5.396551,"is_reserved":false,"is_disabled":false,"rental_uris":{"android":"levelo://app?vid=224c7336-bd76-4b1e-af7e-d884ae25644c","ios":"levelo://app?vid=224c7336-bd76-4b1e-af7e-d884ae25644c"},"vehicle_type_id":"4","last_reported":1724623677,"current_range_meters":4400,"station_id":"ce4bh012rcd13ifvqcv0","pricing_plan_id":"cebpf4jnsgd1na2vs0mg"},{"bike_id":"9abee0a1-8a04-43cc-8897-2fe4b49eff08","system_id":"levelo_inurba_marseille","lat":43.309038,"lon":5.396546,"is_reserved":false,"is_disabled":false,"rental_uris":{"android":"levelo://app?vid=9abee0a1-8a04-43cc-8897-2fe4b49eff08","ios":"levelo://app?vid=9abee0a1-8a04-43cc-8897-2fe4b49eff08"},"vehicle_type_id":"4","last_reported":1724623677,"current_range_meters":6800,"station_id":"ce4bh012rcd13ifvqcv0","pricing_plan_id":"cebpf4jnsgd1na2vs0mg"},{"bike_id":"b94eba49-d9cc-4d42-b900-50e094ad7455","system_id":"levelo_inurba_marseille","lat":43.30886,"lon":5.39657,"is_reserved":false,"is_disabled":false,"rental_uris":{"android":"levelo://app?vid=b94eba49-d9cc-4d42-b900-50e094ad7455","ios":"levelo://app?vid=b94eba49-d9cc-4d42-b900-50e094ad7455"},"vehicle_type_id":"4","last_reported":1724623677,"current_range_meters":800,"station_id":"ce4bh012rcd13ifvqcv0","pricing_plan_id":"cebpf4jnsgd1na2vs0mg"},{"bike_id":"3952af14-d81a-40fe-bce3-19fff3a8b0f1","system_id":"levelo_inurba_marseille","lat":43.309038,"lon":5.396546,"is_reserved":false,"is_disabled":false,"rental_uris":{"android":"levelo://app?vid=3952af14-d81a-40fe-bce3-19fff3a8b0f1","ios":"levelo://app?vid=3952af14-d81a-40fe-bce3-19fff3a8b0f1"},"vehicle_type_id":"4","last_reported":1724623677,"current_range_meters":18800,"station_id":"ce4bh012rcd13ifvqcv0","pricing_plan_id":"cebpf4jnsgd1na2vs0mg"},{"bike_id":"d07940e8-ad7e-474b-ab42-7ad74d46fd99","system_id":"levelo_inurba_marseille","lat":43.309047,"lon":5.396551,"is_reserved":false,"is_disabled":false,"rental_uris":{"android":"levelo://app?vid=d07940e8-ad7e-474b-ab42-7ad74d46fd99","ios":"levelo://app?vid=d07940e8-ad7e-474b-ab42-7ad74d46fd99"},"vehicle_type_id":"4","last_reported":1724623677,"current_range_meters":20000,"station_id":"ce4bh012rcd13ifvqcv0","pricing_plan_id":"cebpf4jnsgd1na2vs0mg"},{"bike_id":"f1b2ccca-4feb-49b1-b896-3dc82c8f5049","system_id":"levelo_inurba_marseille","lat":43.309047,"lon":5.396551,"is_reserved":false,"is_disabled":false,"rental_uris":{"android":"levelo://app?vid=f1b2ccca-4feb-49b1-b896-3dc82c8f5049","ios":"levelo://app?vid=f1b2ccca-4feb-49b1-b896-3dc82c8f5049"},"vehicle_type_id":"4","last_reported":1724623677,"current_range_meters":10400,"station_id":"ce4bh012rcd13ifvqcv0","pricing_plan_id":"cebpf4jnsgd1na2vs0mg"},{"bike_id":"6ed259a0-9652-46bc-a199-e84552dfebcb","system_id":"levelo_inurba_marseille","lat":43.309038,"lon":5.396546,"is_reserved":false,"is_disabled":false,"rental_uris":{"android":"levelo://app?vid=6ed259a0-9652-46bc-a199-e84552dfebcb","ios":"levelo://app?vid=6ed259a0-9652-46bc-a199-e84552dfebcb"},"vehicle_type_id":"4","last_reported":1724623677,"current_range_meters":12400,"station_id":"ce4bh012rcd13ifvqcv0","pricing_plan_id":"cebpf4jnsgd1na2vs0mg"},{"bike_id":"9418836c-8967-4d05-a471-bba150b0f61b","system_id":"levelo_inurba_marseille","lat":43.29529,"lon":5.385581,"is_reserved":false,"is_disabled":false,"rental_uris":{"android":"levelo://app?vid=9418836c-8967-4d05-a471-bba150b0f61b","ios":"levelo://app?vid=9418836c-8967-4d05-a471-bba150b0f61b"},"vehicle_type_id":"4","last_reported":1724623677,"current_range_meters":27600,"station_id":"ce4bgih2rcd13ifvqba0","pricing_plan_id":"cebpf4jnsgd1na2vs0mg"},{"bike_id":"2d9e50d5-d203-42d0-a781-b73b38b50391","system_id":"levelo_inurba_marseille","lat":43.29526,"lon":5.3854,"is_reserved":false,"is_disabled":false,"rental_uris":{"android":"levelo://app?vid=2d9e50d5-d203-42d0-a781-b73b38b50391","ios":"levelo://app?vid=2d9e50d5-d203-42d0-a781-b73b38b50391"},"vehicle_type_id":"4","last_reported":1724623677,"current_range_meters":7200,"station_id":"ce4bgih2rcd13ifvqba0","pricing_plan_id":"cebpf4jnsgd1na2vs0mg"},{"bike_id":"39bd0ea6-4265-4270-bcfa-1323bfe1e4a1","system_id":"levelo_inurba_marseille","lat":43.29528,"lon":5.38545,"is_reserved":false,"is_disabled":false,"rental_uris":{"android":"levelo://app?vid=39bd0ea6-4265-4270-bcfa-1323bfe1e4a1","ios":"levelo://app?vid=39bd0ea6-4265-4270-bcfa-1323bfe1e4a1"},"vehicle_type_id":"4","last_reported":1724623677,"current_range_meters":30800,"station_id":"ce4bgih2rcd13ifvqba0","pricing_plan_id":"cebpf4jnsgd1na2vs0mg"},{"bike_id":"0f363dfc-2456-4c81-9806-f49cf6292dc0","system_id":"levelo_inurba_marseille","lat":43.3034,"lon":5.3946,"is_reserved":false,"is_disabled":false,"rental_uris":{"android":"levelo://app?vid=0f363dfc-2456-4c81-9806-f49cf6292dc0","ios":"levelo://app?vid=0f363dfc-2456-4c81-9806-f49cf6292dc0"},"vehicle_type_id":"4","last_reported":1724623677,"current_range_meters":0,"station_id":"","pricing_plan_id":"cebpf4jnsgd1na2vs0mg"},{"bike_id":"80909532-5325-487a-87bf-dd479b4165a9","system_id":"levelo_inurba_marseille","lat":43.290779,"lon":5.371482,"is_reserved":false,"is_disabled":false,"rental_uris":{"android":"levelo://app?vid=80909532-5325-487a-87bf-dd479b4165a9","ios":"levelo://app?vid=80909532-5325-487a-87bf-dd479b4165a9"},"vehicle_type_id":"4","last_reported":1724623677,"current_range_meters":8800,"station_id":"ce4bh5p2rcd13ifvqe4g","pricing_plan_id":"cebpf4jnsgd1na2vs0mg"},{"bike_id":"9de109c2-dea9-4217-81b2-3eb085caf99a","system_id":"levelo_inurba_marseille","lat":43.33472,"lon":5.36124,"is_reserved":false,"is_disabled":false,"rental_uris":{"android":"levelo://app?vid=9de109c2-dea9-4217-81b2-3eb085caf99a","ios":"levelo://app?vid=9de109c2-dea9-4217-81b2-3eb085caf99a"},"vehicle_type_id":"4","last_reported":1724623677,"current_range_meters":13600,"station_id":"","pricing_plan_id":"cebpf4jnsgd1na2vs0mg"},{"bike_id":"26411912-fd1c-4ce5-ab30-3d60fab20861","system_id":"levelo_inurba_marseille","lat":43.290779,"lon":5.371482,"is_reserved":false,"is_disabled":false,"rental_uris":{"android":"levelo://app?vid=26411912-fd1c-4ce5-ab30-3d60fab20861","ios":"levelo://app?vid=26411912-fd1c-4ce5-ab30-3d60fab20861"},"vehicle_type_id":"4","last_reported":1724623677,"current_range_meters":0,"station_id":"ce4bh5p2rcd13ifvqe4g","pricing_plan_id":"cebpf4jnsgd1na2vs0mg"},{"bike_id":"b5bf981a-8dac-4b18-af18-bf4e138dbfa2","system_id":"levelo_inurba_marseille","lat":43.302008,"lon":5.394694,"is_reserved":false,"is_disabled":false,"rental_uris":{"android":"levelo://app?vid=b5bf981a-8dac-4b18-af18-bf4e138dbfa2","ios":"levelo://app?vid=b5bf981a-8dac-4b18-af18-bf4e138dbfa2"},"vehicle_type_id":"4","last_reported":1724623677,"current_range_meters":30800,"station_id":"ce4bh0p2rcd13ifvqd70","pricing_plan_id":"cebpf4jnsgd1na2vs0mg"},{"bike_id":"88886143-08e5-40e2-9f98-99d5b3e5904a","system_id":"levelo_inurba_marseille","lat":43.302008,"lon":5.394694,"is_reserved":false,"is_disabled":false,"rental_uris":{"android":"levelo://app?vid=88886143-08e5-40e2-9f98-99d5b3e5904a","ios":"levelo://app?vid=88886143-08e5-40e2-9f98-99d5b3e5904a"},"vehicle_type_id":"4","last_reported":1724623677,"current_range_meters":14000,"station_id":"ce4bh0p2rcd13ifvqd70","pricing_plan_id":"cebpf4jnsgd1na2vs0mg"},{"bike_id":"f692f380-f63a-44e7-9b0f-4bf244c82615","system_id":"levelo_inurba_marseille","lat":43.30223,"lon":5.39471,"is_reserved":false,"is_disabled":false,"rental_uris":{"android":"levelo://app?vid=f692f380-f63a-44e7-9b0f-4bf244c82615","ios":"levelo://app?vid=f692f380-f63a-44e7-9b0f-4bf244c82615"},"vehicle_type_id":"4","last_reported":1724623677,"current_range_meters":28000,"station_id":"ce4bh0p2rcd13ifvqd70","pricing_plan_id":"cebpf4jnsgd1na2vs0mg"},{"bike_id":"b0e121b4-f03d-4475-b566-f9bc4e96c118","system_id":"levelo_inurba_marseille","lat":43.30216,"lon":5.39468,"is_reserved":false,"is_disabled":false,"rental_uris":{"android":"levelo://app?vid=b0e121b4-f03d-4475-b566-f9bc4e96c118","ios":"levelo://app?vid=b0e121b4-f03d-4475-b566-f9bc4e96c118"},"vehicle_type_id":"4","last_reported":1724623677,"current_range_meters":11600,"station_id":"ce4bh0p2rcd13ifvqd70","pricing_plan_id":"cebpf4jnsgd1na2vs0mg"},{"bike_id":"aa4cec33-a6bf-4bad-92c2-d5cb5edae716","system_id":"levelo_inurba_marseille","lat":43.302008,"lon":5.394694,"is_reserved":false,"is_disabled":false,"rental_uris":{"android":"levelo://app?vid=aa4cec33-a6bf-4bad-92c2-d5cb5edae716","ios":"levelo://app?vid=aa4cec33-a6bf-4bad-92c2-d5cb5edae716"},"vehicle_type_id":"4","last_reported":1724623677,"current_range_meters":28800,"station_id":"ce4bh0p2rcd13ifvqd70","pricing_plan_id":"cebpf4jnsgd1na2vs0mg"},{"bike_id":"4da61d43-6463-4e73-a1c7-cb3ffcaf9c18","system_id":"levelo_inurba_marseille","lat":43.30209,"lon":5.39466,"is_reserved":false,"is_disabled":false,"rental_uris":{"android":"levelo://app?vid=4da61d43-6463-4e73-a1c7-cb3ffcaf9c18","ios":"levelo://app?vid=4da61d43-6463-4e73-a1c7-cb3ffcaf9c18"},"vehicle_type_id":"4","last_reported":1724623677,"current_range_meters":31200,"station_id":"ce4bh0p2rcd13ifvqd70","pricing_plan_id":"cebpf4jnsgd1na2vs0mg"},{"bike_id":"22d7df90-7bf8-4c85-88e8-4a9940c00112","system_id":"levelo_inurba_marseille","lat":43.302008,"lon":5.394694,"is_reserved":false,"is_disabled":false,"rental_uris":{"android":"levelo://app?vid=22d7df90-7bf8-4c85-88e8-4a9940c00112","ios":"levelo://app?vid=22d7df90-7bf8-4c85-88e8-4a9940c00112"},"vehicle_type_id":"4","last_reported":1724623677,"current_range_meters":18400,"station_id":"ce4bh0p2rcd13ifvqd70","pricing_plan_id":"cebpf4jnsgd1na2vs0mg"},{"bike_id":"636740db-9aa7-44c3-a23e-07811a7ce1f2","system_id":"levelo_inurba_marseille","lat":43.302008,"lon":5.394694,"is_reserved":false,"is_disabled":false,"rental_uris":{"android":"levelo://app?vid=636740db-9aa7-44c3-a23e-07811a7ce1f2","ios":"levelo://app?vid=636740db-9aa7-44c3-a23e-07811a7ce1f2"},"vehicle_type_id":"4","last_reported":1724623677,"current_range_meters":31600,"station_id":"ce4bh0p2rcd13ifvqd70","pricing_plan_id":"cebpf4jnsgd1na2vs0mg"},{"bike_id":"047eff78-1882-4999-b192-8225710cf58e","system_id":"levelo_inurba_marseille","lat":43.29453,"lon":5.38653,"is_reserved":false,"is_disabled":false,"rental_uris":{"android":"levelo://app?vid=047eff78-1882-4999-b192-8225710cf58e","ios":"levelo://app?vid=047eff78-1882-4999-b192-8225710cf58e"},"vehicle_type_id":"4","last_reported":1724623677,"current_range_meters":5600,"station_id":"","pricing_plan_id":"cebpf4jnsgd1na2vs0mg"},{"bike_id":"a3c7f633-f942-4059-950b-c984ee195c24","system_id":"levelo_inurba_marseille","lat":43.294153,"lon":5.386305,"is_reserved":false,"is_disabled":false,"rental_uris":{"android":"levelo://app?vid=a3c7f633-f942-4059-950b-c984ee195c24","ios":"levelo://app?vid=a3c7f633-f942-4059-950b-c984ee195c24"},"vehicle_type_id":"4","last_reported":1724623677,"current_range_meters":0,"station_id":"ce4bh2h2rcd13ifvqdh0","pricing_plan_id":"cebpf4jnsgd1na2vs0mg"},{"bike_id":"6e4f0e3c-049c-4e7a-8cbe-61b2f9f0a8a7","system_id":"levelo_inurba_marseille","lat":43.289184,"lon":5.366408,"is_reserved":false,"is_disabled":false,"rental_uris":{"android":"levelo://app?vid=6e4f0e3c-049c-4e7a-8cbe-61b2f9f0a8a7","ios":"levelo://app?vid=6e4f0e3c-049c-4e7a-8cbe-61b2f9f0a8a7"},"vehicle_type_id":"4","last_reported":1724623677,"current_range_meters":5200,"station_id":"ce4bhap2rcd13ifvqek0","pricing_plan_id":"cebpf4jnsgd1na2vs0mg"},{"bike_id":"af7a7117-e11b-490f-85d8-3e7bbc765ccb","system_id":"levelo_inurba_marseille","lat":43.289468,"lon":5.363719,"is_reserved":false,"is_disabled":false,"rental_uris":{"android":"levelo://app?vid=af7a7117-e11b-490f-85d8-3e7bbc765ccb","ios":"levelo://app?vid=af7a7117-e11b-490f-85d8-3e7bbc765ccb"},"vehicle_type_id":"4","last_reported":1724623677,"current_range_meters":5600,"station_id":"ce4bhc92rcd13ifvqetg","pricing_plan_id":"cebpf4jnsgd1na2vs0mg"},{"bike_id":"b6e86e18-9cc6-454a-959f-c564f329a003","system_id":"levelo_inurba_marseille","lat":43.29407,"lon":5.38655,"is_reserved":false,"is_disabled":false,"rental_uris":{"android":"levelo://app?vid=b6e86e18-9cc6-454a-959f-c564f329a003","ios":"levelo://app?vid=b6e86e18-9cc6-454a-959f-c564f329a003"},"vehicle_type_id":"4","last_reported":1724623677,"current_range_meters":22000,"station_id":"ce4bh2h2rcd13ifvqdh0","pricing_plan_id":"cebpf4jnsgd1na2vs0mg"},{"bike_id":"506d3e0d-d842-4af6-9964-f4ae716fecdc","system_id":"levelo_inurba_marseille","lat":43.289468,"lon":5.363719,"is_reserved":false,"is_disabled":false,"rental_uris":{"android":"levelo://app?vid=506d3e0d-d842-4af6-9964-f4ae716fecdc","ios":"levelo://app?vid=506d3e0d-d842-4af6-9964-f4ae716fecdc"},"vehicle_type_id":"4","last_reported":1724623677,"current_range_meters":7200,"station_id":"ce4bhc92rcd13ifvqetg","pricing_plan_id":"cebpf4jnsgd1na2vs0mg"},{"bike_id":"f7a875e4-cceb-494f-8c2e-8c5deee0593c","system_id":"levelo_inurba_marseille","lat":43.30143,"lon":5.37413,"is_reserved":false,"is_disabled":false,"rental_uris":{"android":"levelo://app?vid=f7a875e4-cceb-494f-8c2e-8c5deee0593c","ios":"levelo://app?vid=f7a875e4-cceb-494f-8c2e-8c5deee0593c"},"vehicle_type_id":"4","last_reported":1724623677,"current_range_meters":23600,"station_id":"ce4bgs92rcd13ifvqcc0","pricing_plan_id":"cebpf4jnsgd1na2vs0mg"},{"bike_id":"b57def53-f376-4128-ada9-7945b32b0ecb","system_id":"levelo_inurba_marseille","lat":43.292642,"lon":5.384254,"is_reserved":false,"is_disabled":false,"rental_uris":{"android":"levelo://app?vid=b57def53-f376-4128-ada9-7945b32b0ecb","ios":"levelo://app?vid=b57def53-f376-4128-ada9-7945b32b0ecb"},"vehicle_type_id":"4","last_reported":1724623677,"current_range_meters":20800,"station_id":"ce4bh692rcd13ifvqea0","pricing_plan_id":"cebpf4jnsgd1na2vs0mg"},{"bike_id":"6e439edb-7078-492e-a3d8-6ddb2f033bea","system_id":"levelo_inurba_marseille","lat":43.292644,"lon":5.384257,"is_reserved":false,"is_disabled":false,"rental_uris":{"android":"levelo://app?vid=6e439edb-7078-492e-a3d8-6ddb2f033bea","ios":"levelo://app?vid=6e439edb-7078-492e-a3d8-6ddb2f033bea"},"vehicle_type_id":"4","last_reported":1724623677,"current_range_meters":6400,"station_id":"ce4bh692rcd13ifvqea0","pricing_plan_id":"cebpf4jnsgd1na2vs0mg"},{"bike_id":"0a7e178c-23c3-4541-adf3-e7b51917c182","system_id":"levelo_inurba_marseille","lat":43.30433,"lon":5.3975,"is_reserved":false,"is_disabled":false,"rental_uris":{"android":"levelo://app?vid=0a7e178c-23c3-4541-adf3-e7b51917c182","ios":"levelo://app?vid=0a7e178c-23c3-4541-adf3-e7b51917c182"},"vehicle_type_id":"4","last_reported":1724623677,"current_range_meters":5200,"station_id":"ce4bh092rcd13ifvqd20","pricing_plan_id":"cebpf4jnsgd1na2vs0mg"},{"bike_id":"ae2f105b-a341-44bd-8148-a6426ebdec7d","system_id":"levelo_inurba_marseille","lat":43.304296,"lon":5.397513,"is_reserved":false,"is_disabled":false,"rental_uris":{"android":"levelo://app?vid=ae2f105b-a341-44bd-8148-a6426ebdec7d","ios":"levelo://app?vid=ae2f105b-a341-44bd-8148-a6426ebdec7d"},"vehicle_type_id":"4","last_reported":1724623677,"current_range_meters":15200,"station_id":"ce4bh092rcd13ifvqd20","pricing_plan_id":"cebpf4jnsgd1na2vs0mg"},{"bike_id":"a97bab2a-fd8b-4c80-bbf0-2a39731e475a","system_id":"levelo_inurba_marseille","lat":43.304274,"lon":5.397513,"is_reserved":false,"is_disabled":false,"rental_uris":{"android":"levelo://app?vid=a97bab2a-fd8b-4c80-bbf0-2a39731e475a","ios":"levelo://app?vid=a97bab2a-fd8b-4c80-bbf0-2a39731e475a"},"vehicle_type_id":"4","last_reported":1724623677,"current_range_meters":6800,"station_id":"ce4bh092rcd13ifvqd20","pricing_plan_id":"cebpf4jnsgd1na2vs0mg"},{"bike_id":"e400aa65-fa40-4733-9ad0-5df37cdbc1b8","system_id":"levelo_inurba_marseille","lat":43.292631,"lon":5.384508,"is_reserved":false,"is_disabled":false,"rental_uris":{"android":"levelo://app?vid=e400aa65-fa40-4733-9ad0-5df37cdbc1b8","ios":"levelo://app?vid=e400aa65-fa40-4733-9ad0-5df37cdbc1b8"},"vehicle_type_id":"4","last_reported":1724623677,"current_range_meters":0,"station_id":"ce4bh692rcd13ifvqea0","pricing_plan_id":"cebpf4jnsgd1na2vs0mg"},{"bike_id":"2f6b2371-0fbc-4b43-85fc-dc3954c5271f","system_id":"levelo_inurba_marseille","lat":43.29002,"lon":5.35615,"is_reserved":false,"is_disabled":false,"rental_uris":{"android":"levelo://app?vid=2f6b2371-0fbc-4b43-85fc-dc3954c5271f","ios":"levelo://app?vid=2f6b2371-0fbc-4b43-85fc-dc3954c5271f"},"vehicle_type_id":"4","last_reported":1724623677,"current_range_meters":0,"station_id":"ce4bhb92rcd13ifvqen0","pricing_plan_id":"cebpf4jnsgd1na2vs0mg"},{"bike_id":"94c8019c-2f1d-4912-9de7-a84bd8c87712","system_id":"levelo_inurba_marseille","lat":43.290104,"lon":5.356111,"is_reserved":false,"is_disabled":false,"rental_uris":{"android":"levelo://app?vid=94c8019c-2f1d-4912-9de7-a84bd8c87712","ios":"levelo://app?vid=94c8019c-2f1d-4912-9de7-a84bd8c87712"},"vehicle_type_id":"4","last_reported":1724623677,"current_range_meters":30800,"station_id":"ce4bhb92rcd13ifvqen0","pricing_plan_id":"cebpf4jnsgd1na2vs0mg"},{"bike_id":"699affdd-4894-4ed5-8a98-ba8b54710f99","system_id":"levelo_inurba_marseille","lat":43.330442,"lon":5.389148,"is_reserved":false,"is_disabled":false,"rental_uris":{"android":"levelo://app?vid=699affdd-4894-4ed5-8a98-ba8b54710f99","ios":"levelo://app?vid=699affdd-4894-4ed5-8a98-ba8b54710f99"},"vehicle_type_id":"4","last_reported":1724623677,"current_range_meters":30000,"station_id":"ce4bhr92rcd13ifvqhrg","pricing_plan_id":"cebpf4jnsgd1na2vs0mg"},{"bike_id":"21a44845-e2a1-4c5c-b115-d7d765fbe7fb","system_id":"levelo_inurba_marseille","lat":43.290995,"lon":5.381361,"is_reserved":false,"is_disabled":false,"rental_uris":{"android":"levelo://app?vid=21a44845-e2a1-4c5c-b115-d7d765fbe7fb","ios":"levelo://app?vid=21a44845-e2a1-4c5c-b115-d7d765fbe7fb"},"vehicle_type_id":"4","last_reported":1724623677,"current_range_meters":7600,"station_id":"ce4bh512rcd13ifvqe2g","pricing_plan_id":"cebpf4jnsgd1na2vs0mg"},{"bike_id":"eb0973b6-3df7-4ad7-9396-a5c0dad62fdc","system_id":"levelo_inurba_marseille","lat":43.290995,"lon":5.381361,"is_reserved":false,"is_disabled":false,"rental_uris":{"android":"levelo://app?vid=eb0973b6-3df7-4ad7-9396-a5c0dad62fdc","ios":"levelo://app?vid=eb0973b6-3df7-4ad7-9396-a5c0dad62fdc"},"vehicle_type_id":"4","last_reported":1724623677,"current_range_meters":28800,"station_id":"ce4bh512rcd13ifvqe2g","pricing_plan_id":"cebpf4jnsgd1na2vs0mg"},{"bike_id":"3b24b3d5-1cbe-46c3-a70c-5fa547a2a4e1","system_id":"levelo_inurba_marseille","lat":43.297807,"lon":5.393533,"is_reserved":false,"is_disabled":false,"rental_uris":{"android":"levelo://app?vid=3b24b3d5-1cbe-46c3-a70c-5fa547a2a4e1","ios":"levelo://app?vid=3b24b3d5-1cbe-46c3-a70c-5fa547a2a4e1"},"vehicle_type_id":"4","last_reported":1724623677,"current_range_meters":3200,"station_id":"chh1huq6cuj3fo74tm60","pricing_plan_id":"cebpf4jnsgd1na2vs0mg"},{"bike_id":"a05209b8-2a0a-4a3f-846b-67152678785f","system_id":"levelo_inurba_marseille","lat":43.2909,"lon":5.38153,"is_reserved":false,"is_disabled":false,"rental_uris":{"android":"levelo://app?vid=a05209b8-2a0a-4a3f-846b-67152678785f","ios":"levelo://app?vid=a05209b8-2a0a-4a3f-846b-67152678785f"},"vehicle_type_id":"4","last_reported":1724623677,"current_range_meters":0,"station_id":"ce4bh512rcd13ifvqe2g","pricing_plan_id":"cebpf4jnsgd1na2vs0mg"},{"bike_id":"6cee6118-41bd-4b8f-9f69-d5e184b99d1d","system_id":"levelo_inurba_marseille","lat":43.297815,"lon":5.393548,"is_reserved":false,"is_disabled":false,"rental_uris":{"android":"levelo://app?vid=6cee6118-41bd-4b8f-9f69-d5e184b99d1d","ios":"levelo://app?vid=6cee6118-41bd-4b8f-9f69-d5e184b99d1d"},"vehicle_type_id":"4","last_reported":1724623677,"current_range_meters":16000,"station_id":"chh1huq6cuj3fo74tm60","pricing_plan_id":"cebpf4jnsgd1na2vs0mg"},{"bike_id":"c45214ab-69b4-48fe-b9a8-ce3e143669fc","system_id":"levelo_inurba_marseille","lat":43.297815,"lon":5.393548,"is_reserved":false,"is_disabled":false,"rental_uris":{"android":"levelo://app?vid=c45214ab-69b4-48fe-b9a8-ce3e143669fc","ios":"levelo://app?vid=c45214ab-69b4-48fe-b9a8-ce3e143669fc"},"vehicle_type_id":"4","last_reported":1724623677,"current_range_meters":15200,"station_id":"chh1huq6cuj3fo74tm60","pricing_plan_id":"cebpf4jnsgd1na2vs0mg"},{"bike_id":"d7aba539-193a-441a-bdae-1a03a4c63c66","system_id":"levelo_inurba_marseille","lat":43.295169,"lon":5.390426,"is_reserved":false,"is_disabled":false,"rental_uris":{"android":"levelo://app?vid=d7aba539-193a-441a-bdae-1a03a4c63c66","ios":"levelo://app?vid=d7aba539-193a-441a-bdae-1a03a4c63c66"},