{"last_updated":1692543899,"ttl":30,"version":"2.2","data":{"bikes":[{"bike_id":"f5b5d846-b8f1-4656-8494-57fd748dd269","system_id":"levelo_inurba_marseille","lat":43.312239,"lon":5.368562,"is_reserved":false,"is_disabled":false,"rental_uris":{"android":"levelo://app?vid=f5b5d846-b8f1-4656-8494-57fd748dd269","ios":"levelo://app?vid=f5b5d846-b8f1-4656-8494-57fd748dd269"},"vehicle_type_id":"4","last_reported":1692543899,"current_range_meters":17200,"station_id":"ce4bgl92rcd13ifvqbq0","pricing_plan_id":"free"},{"bike_id":"f22ca441-4e4e-4660-b824-b2f46943e54d","system_id":"levelo_inurba_marseille","lat":43.312239,"lon":5.368562,"is_reserved":false,"is_disabled":false,"rental_uris":{"android":"levelo://app?vid=f22ca441-4e4e-4660-b824-b2f46943e54d","ios":"levelo://app?vid=f22ca441-4e4e-4660-b824-b2f46943e54d"},"vehicle_type_id":"4","last_reported":1692543899,"current_range_meters":31600,"station_id":"ce4bgl92rcd13ifvqbq0","pricing_plan_id":"free"},{"bike_id":"cc1c4a68-9053-4177-b929-286fd4edf2e8","system_id":"levelo_inurba_marseille","lat":43.312239,"lon":5.368562,"is_reserved":false,"is_disabled":false,"rental_uris":{"android":"levelo://app?vid=cc1c4a68-9053-4177-b929-286fd4edf2e8","ios":"levelo://app?vid=cc1c4a68-9053-4177-b929-286fd4edf2e8"},"vehicle_type_id":"4","last_reported":1692543899,"current_range_meters":26400,"station_id":"ce4bgl92rcd13ifvqbq0","pricing_plan_id":"free"},{"bike_id":"9ca78bec-3f41-49c5-ace7-5c8533f39039","system_id":"levelo_inurba_marseille","lat":43.309076,"lon":5.368465,"is_reserved":false,"is_disabled":false,"rental_uris":{"android":"levelo://app?vid=9ca78bec-3f41-49c5-ace7-5c8533f39039","ios":"levelo://app?vid=9ca78bec-3f41-49c5-ace7-5c8533f39039"},"vehicle_type_id":"4","last_reported":1692543899,"current_range_meters":4400,"station_id":"ce4bgn92rcd13ifvqbvg","pricing_plan_id":"free"},{"bike_id":"e0a585a5-8b26-4ee0-8fef-533248fe6755","system_id":"levelo_inurba_marseille","lat":43.314811,"lon":5.373103,"is_reserved":false,"is_disabled":false,"rental_uris":{"android":"levelo://app?vid=e0a585a5-8b26-4ee0-8fef-533248fe6755","ios":"levelo://app?vid=e0a585a5-8b26-4ee0-8fef-533248fe6755"},"vehicle_type_id":"4","last_reported":1692543899,"current_range_meters":25600,"station_id":"ce4bgt12rcd13ifvqcd0","pricing_plan_id":"free"},{"bike_id":"2f158e3f-3dc1-4e9f-959d-b1e36676910a","system_id":"levelo_inurba_marseille","lat":43.314811,"lon":5.373103,"is_reserved":false,"is_disabled":false,"rental_uris":{"android":"levelo://app?vid=2f158e3f-3dc1-4e9f-959d-b1e36676910a","ios":"levelo://app?vid=2f158e3f-3dc1-4e9f-959d-b1e36676910a"},"vehicle_type_id":"4","last_reported":1692543899,"current_range_meters":29600,"station_id":"ce4bgt12rcd13ifvqcd0","pricing_plan_id":"free"},{"bike_id":"aac4bb58-7e8a-4062-a5a2-485851e59ca4","system_id":"levelo_inurba_marseille","lat":43.314811,"lon":5.373103,"is_reserved":false,"is_disabled":false,"rental_uris":{"android":"levelo://app?vid=aac4bb58-7e8a-4062-a5a2-485851e59ca4","ios":"levelo://app?vid=aac4bb58-7e8a-4062-a5a2-485851e59ca4"},"vehicle_type_id":"4","last_reported":1692543899,"current_range_meters":6400,"station_id":"ce4bgt12rcd13ifvqcd0","pricing_plan_id":"free"},{"bike_id":"4bb2f856-e3cf-4391-8355-8c9653b3fe4b","system_id":"levelo_inurba_marseille","lat":43.309039,"lon":5.371797,"is_reserved":false,"is_disabled":false,"rental_uris":{"android":"levelo://app?vid=4bb2f856-e3cf-4391-8355-8c9653b3fe4b","ios":"levelo://app?vid=4bb2f856-e3cf-4391-8355-8c9653b3fe4b"},"vehicle_type_id":"4","last_reported":1692543899,"current_range_meters":26000,"station_id":"ce4bguh2rcd13ifvqckg","pricing_plan_id":"free"},{"bike_id":"386ed8e3-b71e-4f68-86af-202c5b76503e","system_id":"levelo_inurba_marseille","lat":43.30548,"lon":5.3671,"is_reserved":false,"is_disabled":false,"rental_uris":{"android":"levelo://app?vid=386ed8e3-b71e-4f68-86af-202c5b76503e","ios":"levelo://app?vid=386ed8e3-b71e-4f68-86af-202c5b76503e"},"vehicle_type_id":"4","last_reported":1692543899,"current_range_meters":19600,"station_id":"ce4bgrp2rcd13ifvqc9g","pricing_plan_id":"free"},{"bike_id":"9fbe6e18-d192-44c2-98b5-cafb68b41aa4","system_id":"levelo_inurba_marseille","lat":43.3054,"lon":5.36538,"is_reserved":false,"is_disabled":false,"rental_uris":{"android":"levelo://app?vid=9fbe6e18-d192-44c2-98b5-cafb68b41aa4","ios":"levelo://app?vid=9fbe6e18-d192-44c2-98b5-cafb68b41aa4"},"vehicle_type_id":"4","last_reported":1692543899,"current_range_meters":6000,"station_id":"ce4bgs12rcd13ifvqcag","pricing_plan_id":"free"},{"bike_id":"221ce537-5fb4-420c-b7eb-30cd56beb9a1","system_id":"levelo_inurba_marseille","lat":43.3018,"lon":5.36626,"is_reserved":false,"is_disabled":false,"rental_uris":{"android":"levelo://app?vid=221ce537-5fb4-420c-b7eb-30cd56beb9a1","ios":"levelo://app?vid=221ce537-5fb4-420c-b7eb-30cd56beb9a1"},"vehicle_type_id":"4","last_reported":1692543899,"current_range_meters":13600,"station_id":"ce4bgrh2rcd13ifvqc8g","pricing_plan_id":"free"},{"bike_id":"d97957a8-0fd2-40c5-bee6-b1bfdbf85af9","system_id":"levelo_inurba_marseille","lat":43.29939,"lon":5.36559,"is_reserved":false,"is_disabled":false,"rental_uris":{"android":"levelo://app?vid=d97957a8-0fd2-40c5-bee6-b1bfdbf85af9","ios":"levelo://app?vid=d97957a8-0fd2-40c5-bee6-b1bfdbf85af9"},"vehicle_type_id":"4","last_reported":1692543899,"current_range_meters":7200,"station_id":"ce4bgm92rcd13ifvqbr0","pricing_plan_id":"free"},{"bike_id":"44d4c08f-2100-4602-bb18-95eaf147f546","system_id":"levelo_inurba_marseille","lat":43.2993,"lon":5.36546,"is_reserved":false,"is_disabled":false,"rental_uris":{"android":"levelo://app?vid=44d4c08f-2100-4602-bb18-95eaf147f546","ios":"levelo://app?vid=44d4c08f-2100-4602-bb18-95eaf147f546"},"vehicle_type_id":"4","last_reported":1692543899,"current_range_meters":2000,"station_id":"ce4bgm92rcd13ifvqbr0","pricing_plan_id":"free"},{"bike_id":"6b065d46-e7a7-4a55-a22d-4d442aa834ec","system_id":"levelo_inurba_marseille","lat":43.29967,"lon":5.37173,"is_reserved":false,"is_disabled":false,"rental_uris":{"android":"levelo://app?vid=6b065d46-e7a7-4a55-a22d-4d442aa834ec","ios":"levelo://app?vid=6b065d46-e7a7-4a55-a22d-4d442aa834ec"},"vehicle_type_id":"4","last_reported":1692543899,"current_range_meters":4400,"station_id":"ce4bgr92rcd13ifvqc7g","pricing_plan_id":"free"},{"bike_id":"95dc9ecf-047e-4c3a-bb12-a5676cb36ad4","system_id":"levelo_inurba_marseille","lat":43.3216,"lon":5.38166,"is_reserved":false,"is_disabled":false,"rental_uris":{"android":"levelo://app?vid=95dc9ecf-047e-4c3a-bb12-a5676cb36ad4","ios":"levelo://app?vid=95dc9ecf-047e-4c3a-bb12-a5676cb36ad4"},"vehicle_type_id":"4","last_reported":1692543899,"current_range_meters":14800,"station_id":"","pricing_plan_id":"free"},{"bike_id":"5303408e-93c0-45d1-bbc3-ba658b5e6404","system_id":"levelo_inurba_marseille","lat":43.30528,"lon":5.38434,"is_reserved":false,"is_disabled":false,"rental_uris":{"android":"levelo://app?vid=5303408e-93c0-45d1-bbc3-ba658b5e6404","ios":"levelo://app?vid=5303408e-93c0-45d1-bbc3-ba658b5e6404"},"vehicle_type_id":"4","last_reported":1692543899,"current_range_meters":12000,"station_id":"ce4bgg92rcd13ifvqb30","pricing_plan_id":"free"},{"bike_id":"b885f463-e8c5-42cc-902f-7152167ce1c7","system_id":"levelo_inurba_marseille","lat":43.299243,"lon":5.374807,"is_reserved":false,"is_disabled":false,"rental_uris":{"android":"levelo://app?vid=b885f463-e8c5-42cc-902f-7152167ce1c7","ios":"levelo://app?vid=b885f463-e8c5-42cc-902f-7152167ce1c7"},"vehicle_type_id":"4","last_reported":1692543899,"current_range_meters":31200,"station_id":"ce4bgjh2rcd13ifvqbg0","pricing_plan_id":"free"},{"bike_id":"a1f7b084-f437-4e0c-8b20-334f54c48d59","system_id":"levelo_inurba_marseille","lat":43.32289,"lon":5.38267,"is_reserved":false,"is_disabled":false,"rental_uris":{"android":"levelo://app?vid=a1f7b084-f437-4e0c-8b20-334f54c48d59","ios":"levelo://app?vid=a1f7b084-f437-4e0c-8b20-334f54c48d59"},"vehicle_type_id":"4","last_reported":1692543899,"current_range_meters":14000,"station_id":"ce4bhr12rcd13ifvqhqg","pricing_plan_id":"free"},{"bike_id":"5b5c8cae-b425-4976-9ba8-5ae205664d6b","system_id":"levelo_inurba_marseille","lat":43.32287,"lon":5.38276,"is_reserved":false,"is_disabled":false,"rental_uris":{"android":"levelo://app?vid=5b5c8cae-b425-4976-9ba8-5ae205664d6b","ios":"levelo://app?vid=5b5c8cae-b425-4976-9ba8-5ae205664d6b"},"vehicle_type_id":"4","last_reported":1692543899,"current_range_meters":14000,"station_id":"ce4bhr12rcd13ifvqhqg","pricing_plan_id":"free"},{"bike_id":"110bd150-ae2d-4085-890c-a8f4481980e0","system_id":"levelo_inurba_marseille","lat":43.32291,"lon":5.38275,"is_reserved":false,"is_disabled":false,"rental_uris":{"android":"levelo://app?vid=110bd150-ae2d-4085-890c-a8f4481980e0","ios":"levelo://app?vid=110bd150-ae2d-4085-890c-a8f4481980e0"},"vehicle_type_id":"4","last_reported":1692543899,"current_range_meters":25600,"station_id":"ce4bhr12rcd13ifvqhqg","pricing_plan_id":"free"},{"bike_id":"b9784bc4-a1f4-4e7b-a996-3746dcc4c656","system_id":"levelo_inurba_marseille","lat":43.32287,"lon":5.3828,"is_reserved":false,"is_disabled":false,"rental_uris":{"android":"levelo://app?vid=b9784bc4-a1f4-4e7b-a996-3746dcc4c656","ios":"levelo://app?vid=b9784bc4-a1f4-4e7b-a996-3746dcc4c656"},"vehicle_type_id":"4","last_reported":1692543899,"current_range_meters":5600,"station_id":"ce4bhr12rcd13ifvqhqg","pricing_plan_id":"free"},{"bike_id":"81ccfbdf-74b0-4c62-a850-9ed3d4ee6a28","system_id":"levelo_inurba_marseille","lat":43.328371,"lon":5.366909,"is_reserved":false,"is_disabled":false,"rental_uris":{"android":"levelo://app?vid=81ccfbdf-74b0-4c62-a850-9ed3d4ee6a28","ios":"levelo://app?vid=81ccfbdf-74b0-4c62-a850-9ed3d4ee6a28"},"vehicle_type_id":"4","last_reported":1692543899,"current_range_meters":29200,"station_id":"ce4bhs92rcd13ifvqi0g","pricing_plan_id":"free"},{"bike_id":"67990c79-dcad-493b-82f9-70bdf60b5d36","system_id":"levelo_inurba_marseille","lat":43.32829,"lon":5.36681,"is_reserved":false,"is_disabled":false,"rental_uris":{"android":"levelo://app?vid=67990c79-dcad-493b-82f9-70bdf60b5d36","ios":"levelo://app?vid=67990c79-dcad-493b-82f9-70bdf60b5d36"},"vehicle_type_id":"4","last_reported":1692543899,"current_range_meters":3200,"station_id":"ce4bhs92rcd13ifvqi0g","pricing_plan_id":"free"},{"bike_id":"f404985f-f7bb-4caf-988b-177578b3a370","system_id":"levelo_inurba_marseille","lat":43.328371,"lon":5.366909,"is_reserved":false,"is_disabled":false,"rental_uris":{"android":"levelo://app?vid=f404985f-f7bb-4caf-988b-177578b3a370","ios":"levelo://app?vid=f404985f-f7bb-4caf-988b-177578b3a370"},"vehicle_type_id":"4","last_reported":1692543899,"current_range_meters":11200,"station_id":"ce4bhs92rcd13ifvqi0g","pricing_plan_id":"free"},{"bike_id":"dd789220-e7b5-42c1-b9dc-dc4243148021","system_id":"levelo_inurba_marseille","lat":43.297163,"lon":5.365866,"is_reserved":false,"is_disabled":false,"rental_uris":{"android":"levelo://app?vid=dd789220-e7b5-42c1-b9dc-dc4243148021","ios":"levelo://app?vid=dd789220-e7b5-42c1-b9dc-dc4243148021"},"vehicle_type_id":"4","last_reported":1692543899,"current_range_meters":31200,"station_id":"ce4bgn12rcd13ifvqbt0","pricing_plan_id":"free"},{"bike_id":"bb155e93-116e-494a-9911-2df351c7dae8","system_id":"levelo_inurba_marseille","lat":43.296131,"lon":5.370773,"is_reserved":false,"is_disabled":false,"rental_uris":{"android":"levelo://app?vid=bb155e93-116e-494a-9911-2df351c7dae8","ios":"levelo://app?vid=bb155e93-116e-494a-9911-2df351c7dae8"},"vehicle_type_id":"4","last_reported":1692543899,"current_range_meters":28400,"station_id":"ce4bgnh2rcd13ifvqc0g","pricing_plan_id":"free"},{"bike_id":"dd6fb93a-a1d2-400a-83bb-d0158ea8865e","system_id":"levelo_inurba_marseille","lat":43.29573,"lon":5.367355,"is_reserved":false,"is_disabled":false,"rental_uris":{"android":"levelo://app?vid=dd6fb93a-a1d2-400a-83bb-d0158ea8865e","ios":"levelo://app?vid=dd6fb93a-a1d2-400a-83bb-d0158ea8865e"},"vehicle_type_id":"4","last_reported":1692543899,"current_range_meters":6000,"station_id":"ce4bgph2rcd13ifvqc2g","pricing_plan_id":"free"},{"bike_id":"7a1f5c7a-921f-4a1a-a6a7-9b4ce9214cc3","system_id":"levelo_inurba_marseille","lat":43.29573,"lon":5.367355,"is_reserved":false,"is_disabled":false,"rental_uris":{"android":"levelo://app?vid=7a1f5c7a-921f-4a1a-a6a7-9b4ce9214cc3","ios":"levelo://app?vid=7a1f5c7a-921f-4a1a-a6a7-9b4ce9214cc3"},"vehicle_type_id":"4","last_reported":1692543899,"current_range_meters":31200,"station_id":"ce4bgph2rcd13ifvqc2g","pricing_plan_id":"free"},{"bike_id":"d3139180-8ba9-4c91-b6e4-8baae3c22113","system_id":"levelo_inurba_marseille","lat":43.29613,"lon":5.37197,"is_reserved":false,"is_disabled":false,"rental_uris":{"android":"levelo://app?vid=d3139180-8ba9-4c91-b6e4-8baae3c22113","ios":"levelo://app?vid=d3139180-8ba9-4c91-b6e4-8baae3c22113"},"vehicle_type_id":"4","last_reported":1692543899,"current_range_meters":30000,"station_id":"","pricing_plan_id":"free"},{"bike_id":"c230f46c-b159-4e50-b7e7-5d98da3acfaf","system_id":"levelo_inurba_marseille","lat":43.309589,"lon":5.390258,"is_reserved":false,"is_disabled":false,"rental_uris":{"android":"levelo://app?vid=c230f46c-b159-4e50-b7e7-5d98da3acfaf","ios":"levelo://app?vid=c230f46c-b159-4e50-b7e7-5d98da3acfaf"},"vehicle_type_id":"4","last_reported":1692543899,"current_range_meters":6800,"station_id":"ce4bgup2rcd13ifvqco0","pricing_plan_id":"free"},{"bike_id":"e26736d7-5055-44ec-913e-6ac6188ec40e","system_id":"levelo_inurba_marseille","lat":43.298037,"lon":5.381066,"is_reserved":false,"is_disabled":false,"rental_uris":{"android":"levelo://app?vid=e26736d7-5055-44ec-913e-6ac6188ec40e","ios":"levelo://app?vid=e26736d7-5055-44ec-913e-6ac6188ec40e"},"vehicle_type_id":"4","last_reported":1692543899,"current_range_meters":14400,"station_id":"ce4bgip2rcd13ifvqbb0","pricing_plan_id":"free"},{"bike_id":"af23d5d0-a8ef-4b97-be78-fda8e361102e","system_id":"levelo_inurba_marseille","lat":43.298037,"lon":5.381066,"is_reserved":false,"is_disabled":false,"rental_uris":{"android":"levelo://app?vid=af23d5d0-a8ef-4b97-be78-fda8e361102e","ios":"levelo://app?vid=af23d5d0-a8ef-4b97-be78-fda8e361102e"},"vehicle_type_id":"4","last_reported":1692543899,"current_range_meters":18400,"station_id":"ce4bgip2rcd13ifvqbb0","pricing_plan_id":"free"},{"bike_id":"a4df99ce-0488-49dd-a888-94686f562e88","system_id":"levelo_inurba_marseille","lat":43.295748,"lon":5.37522,"is_reserved":false,"is_disabled":false,"rental_uris":{"android":"levelo://app?vid=a4df99ce-0488-49dd-a888-94686f562e88","ios":"levelo://app?vid=a4df99ce-0488-49dd-a888-94686f562e88"},"vehicle_type_id":"4","last_reported":1692543899,"current_range_meters":28800,"station_id":"ce4bgh92rcd13ifvqb50","pricing_plan_id":"free"},{"bike_id":"80034e4a-03d8-42de-9096-5373d8c48179","system_id":"levelo_inurba_marseille","lat":43.299724,"lon":5.384848,"is_reserved":false,"is_disabled":false,"rental_uris":{"android":"levelo://app?vid=80034e4a-03d8-42de-9096-5373d8c48179","ios":"levelo://app?vid=80034e4a-03d8-42de-9096-5373d8c48179"},"vehicle_type_id":"4","last_reported":1692543899,"current_range_meters":28800,"station_id":"ce4bgj92rcd13ifvqbd0","pricing_plan_id":"free"},{"bike_id":"23d61178-fcaa-4ba4-aee4-746c25e5b4bf","system_id":"levelo_inurba_marseille","lat":43.33088,"lon":5.37474,"is_reserved":false,"is_disabled":false,"rental_uris":{"android":"levelo://app?vid=23d61178-fcaa-4ba4-aee4-746c25e5b4bf","ios":"levelo://app?vid=23d61178-fcaa-4ba4-aee4-746c25e5b4bf"},"vehicle_type_id":"4","last_reported":1692543899,"current_range_meters":25600,"station_id":"","pricing_plan_id":"free"},{"bike_id":"85236cd1-d49b-4aab-9470-0b6612b4cfce","system_id":"levelo_inurba_marseille","lat":43.32364,"lon":5.38876,"is_reserved":false,"is_disabled":false,"rental_uris":{"android":"levelo://app?vid=85236cd1-d49b-4aab-9470-0b6612b4cfce","ios":"levelo://app?vid=85236cd1-d49b-4aab-9470-0b6612b4cfce"},"vehicle_type_id":"4","last_reported":1692543899,"current_range_meters":23200,"station_id":"ce4bhqp2rcd13ifvqhog","pricing_plan_id":"free"},{"bike_id":"671eafe7-c5cf-4a41-bd64-c9c5a48b0742","system_id":"levelo_inurba_marseille","lat":43.32367,"lon":5.388836,"is_reserved":false,"is_disabled":false,"rental_uris":{"android":"levelo://app?vid=671eafe7-c5cf-4a41-bd64-c9c5a48b0742","ios":"levelo://app?vid=671eafe7-c5cf-4a41-bd64-c9c5a48b0742"},"vehicle_type_id":"4","last_reported":1692543899,"current_range_meters":30000,"station_id":"ce4bhqp2rcd13ifvqhog","pricing_plan_id":"free"},{"bike_id":"e15ef0a5-8186-4707-84b8-fc141a9cf97b","system_id":"levelo_inurba_marseille","lat":43.32366,"lon":5.38879,"is_reserved":false,"is_disabled":false,"rental_uris":{"android":"levelo://app?vid=e15ef0a5-8186-4707-84b8-fc141a9cf97b","ios":"levelo://app?vid=e15ef0a5-8186-4707-84b8-fc141a9cf97b"},"vehicle_type_id":"4","last_reported":1692543899,"current_range_meters":21600,"station_id":"ce4bhqp2rcd13ifvqhog","pricing_plan_id":"free"},{"bike_id":"2d15ae2a-1f08-4d8f-a1e2-dad55546eb97","system_id":"levelo_inurba_marseille","lat":43.32365,"lon":5.38881,"is_reserved":false,"is_disabled":false,"rental_uris":{"android":"levelo://app?vid=2d15ae2a-1f08-4d8f-a1e2-dad55546eb97","ios":"levelo://app?vid=2d15ae2a-1f08-4d8f-a1e2-dad55546eb97"},"vehicle_type_id":"4","last_reported":1692543899,"current_range_meters":18800,"station_id":"ce4bhqp2rcd13ifvqhog","pricing_plan_id":"free"},{"bike_id":"00883cd9-a56a-4720-bb55-237d0136a4a1","system_id":"levelo_inurba_marseille","lat":43.32367,"lon":5.388836,"is_reserved":false,"is_disabled":false,"rental_uris":{"android":"levelo://app?vid=00883cd9-a56a-4720-bb55-237d0136a4a1","ios":"levelo://app?vid=00883cd9-a56a-4720-bb55-237d0136a4a1"},"vehicle_type_id":"4","last_reported":1692543899,"current_range_meters":22400,"station_id":"ce4bhqp2rcd13ifvqhog","pricing_plan_id":"free"},{"bike_id":"7c710cc9-19ca-45ca-a52e-f81159a89b49","system_id":"levelo_inurba_marseille","lat":43.32367,"lon":5.388836,"is_reserved":false,"is_disabled":false,"rental_uris":{"android":"levelo://app?vid=7c710cc9-19ca-45ca-a52e-f81159a89b49","ios":"levelo://app?vid=7c710cc9-19ca-45ca-a52e-f81159a89b49"},"vehicle_type_id":"4","last_reported":1692543899,"current_range_meters":14800,"station_id":"ce4bhqp2rcd13ifvqhog","pricing_plan_id":"free"},{"bike_id":"3c99606a-cfd1-4b08-a5da-392aa4b30abe","system_id":"levelo_inurba_marseille","lat":43.32367,"lon":5.38881,"is_reserved":false,"is_disabled":false,"rental_uris":{"android":"levelo://app?vid=3c99606a-cfd1-4b08-a5da-392aa4b30abe","ios":"levelo://app?vid=3c99606a-cfd1-4b08-a5da-392aa4b30abe"},"vehicle_type_id":"4","last_reported":1692543899,"current_range_meters":18400,"station_id":"","pricing_plan_id":"free"},{"bike_id":"618b5c07-76c5-4e33-9eea-d8cf240b56ea","system_id":"levelo_inurba_marseille","lat":43.32367,"lon":5.388836,"is_reserved":false,"is_disabled":false,"rental_uris":{"android":"levelo://app?vid=618b5c07-76c5-4e33-9eea-d8cf240b56ea","ios":"levelo://app?vid=618b5c07-76c5-4e33-9eea-d8cf240b56ea"},"vehicle_type_id":"4","last_reported":1692543899,"current_range_meters":24400,"station_id":"ce4bhqp2rcd13ifvqhog","pricing_plan_id":"free"},{"bike_id":"6b6cba89-d2b8-44bb-8454-5df08cf65f67","system_id":"levelo_inurba_marseille","lat":43.32367,"lon":5.388836,"is_reserved":false,"is_disabled":false,"rental_uris":{"android":"levelo://app?vid=6b6cba89-d2b8-44bb-8454-5df08cf65f67","ios":"levelo://app?vid=6b6cba89-d2b8-44bb-8454-5df08cf65f67"},"vehicle_type_id":"4","last_reported":1692543899,"current_range_meters":8000,"station_id":"ce4bhqp2rcd13ifvqhog","pricing_plan_id":"free"},{"bike_id":"eb579052-745c-4f89-88fd-0ed2a5a4397f","system_id":"levelo_inurba_marseille","lat":43.29602,"lon":5.381084,"is_reserved":false,"is_disabled":false,"rental_uris":{"android":"levelo://app?vid=eb579052-745c-4f89-88fd-0ed2a5a4397f","ios":"levelo://app?vid=eb579052-745c-4f89-88fd-0ed2a5a4397f"},"vehicle_type_id":"4","last_reported":1692543899,"current_range_meters":27600,"station_id":"ce4bgl12rcd13ifvqbo0","pricing_plan_id":"free"},{"bike_id":"c2a8b101-7a70-4809-b4a7-80a9eeafc994","system_id":"levelo_inurba_marseille","lat":43.292749,"lon":5.368402,"is_reserved":false,"is_disabled":false,"rental_uris":{"android":"levelo://app?vid=c2a8b101-7a70-4809-b4a7-80a9eeafc994","ios":"levelo://app?vid=c2a8b101-7a70-4809-b4a7-80a9eeafc994"},"vehicle_type_id":"4","last_reported":1692543899,"current_range_meters":0,"station_id":"ce4bhbp2rcd13ifvqesg","pricing_plan_id":"free"},{"bike_id":"a6520348-21a9-4a58-9624-154ab687dd21","system_id":"levelo_inurba_marseille","lat":43.293009,"lon":5.374584,"is_reserved":false,"is_disabled":false,"rental_uris":{"android":"levelo://app?vid=a6520348-21a9-4a58-9624-154ab687dd21","ios":"levelo://app?vid=a6520348-21a9-4a58-9624-154ab687dd21"},"vehicle_type_id":"4","last_reported":1692543899,"current_range_meters":4400,"station_id":"ce4bgi12rcd13ifvqb70","pricing_plan_id":"free"},{"bike_id":"845bb895-5985-40d4-a6e5-bf084d375ea0","system_id":"levelo_inurba_marseille","lat":43.293009,"lon":5.374584,"is_reserved":false,"is_disabled":false,"rental_uris":{"android":"levelo://app?vid=845bb895-5985-40d4-a6e5-bf084d375ea0","ios":"levelo://app?vid=845bb895-5985-40d4-a6e5-bf084d375ea0"},"vehicle_type_id":"4","last_reported":1692543899,"current_range_meters":6000,"station_id":"ce4bgi12rcd13ifvqb70","pricing_plan_id":"free"},{"bike_id":"38fef587-7cc5-4800-b069-87b8f296a10a","system_id":"levelo_inurba_marseille","lat":43.293009,"lon":5.374584,"is_reserved":false,"is_disabled":false,"rental_uris":{"android":"levelo://app?vid=38fef587-7cc5-4800-b069-87b8f296a10a","ios":"levelo://app?vid=38fef587-7cc5-4800-b069-87b8f296a10a"},"vehicle_type_id":"4","last_reported":1692543899,"current_range_meters":31200,"station_id":"ce4bgi12rcd13ifvqb70","pricing_plan_id":"free"},{"bike_id":"486fe2cc-5f70-429a-ab36-24340b9dc6aa","system_id":"levelo_inurba_marseille","lat":43.293009,"lon":5.374584,"is_reserved":false,"is_disabled":false,"rental_uris":{"android":"levelo://app?vid=486fe2cc-5f70-429a-ab36-24340b9dc6aa","ios":"levelo://app?vid=486fe2cc-5f70-429a-ab36-24340b9dc6aa"},"vehicle_type_id":"4","last_reported":1692543899,"current_range_meters":16800,"station_id":"ce4bgi12rcd13ifvqb70","pricing_plan_id":"free"},{"bike_id":"318a59da-e02c-441a-8bfe-5f7c53b94393","system_id":"levelo_inurba_marseille","lat":43.3031,"lon":5.39209,"is_reserved":false,"is_disabled":false,"rental_uris":{"android":"levelo://app?vid=318a59da-e02c-441a-8bfe-5f7c53b94393","ios":"levelo://app?vid=318a59da-e02c-441a-8bfe-5f7c53b94393"},"vehicle_type_id":"4","last_reported":1692543899,"current_range_meters":26400,"station_id":"ce4bgkh2rcd13ifvqbk0","pricing_plan_id":"free"},{"bike_id":"0724f352-a262-45b7-9b71-9a09ff17d945","system_id":"levelo_inurba_marseille","lat":43.303002,"lon":5.392142,"is_reserved":false,"is_disabled":false,"rental_uris":{"android":"levelo://app?vid=0724f352-a262-45b7-9b71-9a09ff17d945","ios":"levelo://app?vid=0724f352-a262-45b7-9b71-9a09ff17d945"},"vehicle_type_id":"4","last_reported":1692543899,"current_range_meters":19600,"station_id":"ce4bgkh2rcd13ifvqbk0","pricing_plan_id":"free"},{"bike_id":"c122e4a1-b3ee-4af5-a41f-be806aa3d7f9","system_id":"levelo_inurba_marseille","lat":43.2936,"lon":5.37835,"is_reserved":false,"is_disabled":false,"rental_uris":{"android":"levelo://app?vid=c122e4a1-b3ee-4af5-a41f-be806aa3d7f9","ios":"levelo://app?vid=c122e4a1-b3ee-4af5-a41f-be806aa3d7f9"},"vehicle_type_id":"4","last_reported":1692543899,"current_range_meters":19600,"station_id":"ce4bgjh2rcd13ifvqbf0","pricing_plan_id":"free"},{"bike_id":"70576a93-fbdb-4696-908e-c08c0f1995f8","system_id":"levelo_inurba_marseille","lat":43.33045,"lon":5.38908,"is_reserved":false,"is_disabled":false,"rental_uris":{"android":"levelo://app?vid=70576a93-fbdb-4696-908e-c08c0f1995f8","ios":"levelo://app?vid=70576a93-fbdb-4696-908e-c08c0f1995f8"},"vehicle_type_id":"4","last_reported":1692543899,"current_range_meters":22800,"station_id":"ce4bhr92rcd13ifvqhrg","pricing_plan_id":"free"},{"bike_id":"f7005a11-f4b8-40eb-a1e9-6d3833ad8114","system_id":"levelo_inurba_marseille","lat":43.33038,"lon":5.38919,"is_reserved":false,"is_disabled":false,"rental_uris":{"android":"levelo://app?vid=f7005a11-f4b8-40eb-a1e9-6d3833ad8114","ios":"levelo://app?vid=f7005a11-f4b8-40eb-a1e9-6d3833ad8114"},"vehicle_type_id":"4","last_reported":1692543899,"current_range_meters":26800,"station_id":"ce4bhr92rcd13ifvqhrg","pricing_plan_id":"free"},{"bike_id":"5036c72a-6252-47f4-a9fb-50fd514d506a","system_id":"levelo_inurba_marseille","lat":43.33039,"lon":5.38918,"is_reserved":false,"is_disabled":false,"rental_uris":{"android":"levelo://app?vid=5036c72a-6252-47f4-a9fb-50fd514d506a","ios":"levelo://app?vid=5036c72a-6252-47f4-a9fb-50fd514d506a"},"vehicle_type_id":"4","last_reported":1692543899,"current_range_meters":19600,"station_id":"ce4bhr92rcd13ifvqhrg","pricing_plan_id":"free"},{"bike_id":"331b6e0a-8cfc-4305-9eef-0266cde03da7","system_id":"levelo_inurba_marseille","lat":43.3304,"lon":5.38921,"is_reserved":false,"is_disabled":false,"rental_uris":{"android":"levelo://app?vid=331b6e0a-8cfc-4305-9eef-0266cde03da7","ios":"levelo://app?vid=331b6e0a-8cfc-4305-9eef-0266cde03da7"},"vehicle_type_id":"4","last_reported":1692543899,"current_range_meters":12800,"station_id":"ce4bhr92rcd13ifvqhrg","pricing_plan_id":"free"},{"bike_id":"de450cac-4370-4660-9455-3e94463307a2","system_id":"levelo_inurba_marseille","lat":43.3304,"lon":5.38922,"is_reserved":false,"is_disabled":false,"rental_uris":{"android":"levelo://app?vid=de450cac-4370-4660-9455-3e94463307a2","ios":"levelo://app?vid=de450cac-4370-4660-9455-3e94463307a2"},"vehicle_type_id":"4","last_reported":1692543899,"current_range_meters":14800,"station_id":"ce4bhr92rcd13ifvqhrg","pricing_plan_id":"free"},{"bike_id":"a5d7998c-4c76-4390-bbcf-8c2a2abd7eba","system_id":"levelo_inurba_marseille","lat":43.3304,"lon":5.38923,"is_reserved":false,"is_disabled":false,"rental_uris":{"android":"levelo://app?vid=a5d7998c-4c76-4390-bbcf-8c2a2abd7eba","ios":"levelo://app?vid=a5d7998c-4c76-4390-bbcf-8c2a2abd7eba"},"vehicle_type_id":"4","last_reported":1692543899,"current_range_meters":28800,"station_id":"ce4bhr92rcd13ifvqhrg","pricing_plan_id":"free"},{"bike_id":"c8619c93-5f6a-45f4-8e07-c81fcc1e21be","system_id":"levelo_inurba_marseille","lat":43.33044,"lon":5.38919,"is_reserved":false,"is_disabled":false,"rental_uris":{"android":"levelo://app?vid=c8619c93-5f6a-45f4-8e07-c81fcc1e21be","ios":"levelo://app?vid=c8619c93-5f6a-45f4-8e07-c81fcc1e21be"},"vehicle_type_id":"4","last_reported":1692543899,"current_range_meters":24000,"station_id":"ce4bhr92rcd13ifvqhrg","pricing_plan_id":"free"},{"bike_id":"86eac789-1e56-496d-abfa-705e29d378c7","system_id":"levelo_inurba_marseille","lat":43.33043,"lon":5.38921,"is_reserved":false,"is_disabled":false,"rental_uris":{"android":"levelo://app?vid=86eac789-1e56-496d-abfa-705e29d378c7","ios":"levelo://app?vid=86eac789-1e56-496d-abfa-705e29d378c7"},"vehicle_type_id":"4","last_reported":1692543899,"current_range_meters":27200,"station_id":"ce4bhr92rcd13ifvqhrg","pricing_plan_id":"free"},{"bike_id":"7d19a255-9f7a-4d0e-beba-2bfebb3c7b5e","system_id":"levelo_inurba_marseille","lat":43.33045,"lon":5.38918,"is_reserved":false,"is_disabled":false,"rental_uris":{"android":"levelo://app?vid=7d19a255-9f7a-4d0e-beba-2bfebb3c7b5e","ios":"levelo://app?vid=7d19a255-9f7a-4d0e-beba-2bfebb3c7b5e"},"vehicle_type_id":"4","last_reported":1692543899,"current_range_meters":19600,"station_id":"ce4bhr92rcd13ifvqhrg","pricing_plan_id":"free"},{"bike_id":"d2b15eb2-4474-4e56-aace-fe335ab0092e","system_id":"levelo_inurba_marseille","lat":43.33039,"lon":5.38927,"is_reserved":false,"is_disabled":false,"rental_uris":{"android":"levelo://app?vid=d2b15eb2-4474-4e56-aace-fe335ab0092e","ios":"levelo://app?vid=d2b15eb2-4474-4e56-aace-fe335ab0092e"},"vehicle_type_id":"4","last_reported":1692543899,"current_range_meters":12000,"station_id":"ce4bhr92rcd13ifvqhrg","pricing_plan_id":"free"},{"bike_id":"9e24a65c-fe1e-45dc-88b9-dd0cad85064c","system_id":"levelo_inurba_marseille","lat":43.33046,"lon":5.38917,"is_reserved":false,"is_disabled":false,"rental_uris":{"android":"levelo://app?vid=9e24a65c-fe1e-45dc-88b9-dd0cad85064c","ios":"levelo://app?vid=9e24a65c-fe1e-45dc-88b9-dd0cad85064c"},"vehicle_type_id":"4","last_reported":1692543899,"current_range_meters":26800,"station_id":"ce4bhr92rcd13ifvqhrg","pricing_plan_id":"free"},{"bike_id":"3b3e7c42-cded-4bde-b175-99650afa4f17","system_id":"levelo_inurba_marseille","lat":43.33046,"lon":5.38918,"is_reserved":false,"is_disabled":false,"rental_uris":{"android":"levelo://app?vid=3b3e7c42-cded-4bde-b175-99650afa4f17","ios":"levelo://app?vid=3b3e7c42-cded-4bde-b175-99650afa4f17"},"vehicle_type_id":"4","last_reported":1692543899,"current_range_meters":21200,"station_id":"ce4bhr92rcd13ifvqhrg","pricing_plan_id":"free"},{"bike_id":"708f7f21-b221-4c14-94b6-b5d8e3289350","system_id":"levelo_inurba_marseille","lat":43.33045,"lon":5.3892,"is_reserved":false,"is_disabled":false,"rental_uris":{"android":"levelo://app?vid=708f7f21-b221-4c14-94b6-b5d8e3289350","ios":"levelo://app?vid=708f7f21-b221-4c14-94b6-b5d8e3289350"},"vehicle_type_id":"4","last_reported":1692543899,"current_range_meters":18000,"station_id":"ce4bhr92rcd13ifvqhrg","pricing_plan_id":"free"},{"bike_id":"c65152a1-dca7-4ee4-9864-308587d5ed74","system_id":"levelo_inurba_marseille","lat":43.3304,"lon":5.38928,"is_reserved":false,"is_disabled":false,"rental_uris":{"android":"levelo://app?vid=c65152a1-dca7-4ee4-9864-308587d5ed74","ios":"levelo://app?vid=c65152a1-dca7-4ee4-9864-308587d5ed74"},"vehicle_type_id":"4","last_reported":1692543899,"current_range_meters":19600,"station_id":"ce4bhr92rcd13ifvqhrg","pricing_plan_id":"free"},{"bike_id":"a42b8538-1b91-4d92-8baa-2484bb5c52b2","system_id":"levelo_inurba_marseille","lat":43.29003,"lon":5.35621,"is_reserved":false,"is_disabled":false,"rental_uris":{"android":"levelo://app?vid=a42b8538-1b91-4d92-8baa-2484bb5c52b2","ios":"levelo://app?vid=a42b8538-1b91-4d92-8baa-2484bb5c52b2"},"vehicle_type_id":"4","last_reported":1692543899,"current_range_meters":21600,"station_id":"ce4bhb92rcd13ifvqen0","pricing_plan_id":"free"},{"bike_id":"eb950724-6c95-4fb2-915f-35b08a8cfd23","system_id":"levelo_inurba_marseille","lat":43.33048,"lon":5.38919,"is_reserved":false,"is_disabled":false,"rental_uris":{"android":"levelo://app?vid=eb950724-6c95-4fb2-915f-35b08a8cfd23","ios":"levelo://app?vid=eb950724-6c95-4fb2-915f-35b08a8cfd23"},"vehicle_type_id":"4","last_reported":1692543899,"current_range_meters":16800,"station_id":"ce4bhr92rcd13ifvqhrg","pricing_plan_id":"free"},{"bike_id":"52662068-d06a-40c1-bfee-ce6664dc3a83","system_id":"levelo_inurba_marseille","lat":43.33048,"lon":5.3892,"is_reserved":false,"is_disabled":false,"rental_uris":{"android":"levelo://app?vid=52662068-d06a-40c1-bfee-ce6664dc3a83","ios":"levelo://app?vid=52662068-d06a-40c1-bfee-ce6664dc3a83"},"vehicle_type_id":"4","last_reported":1692543899,"current_range_meters":400,"station_id":"ce4bhr92rcd13ifvqhrg","pricing_plan_id":"free"},{"bike_id":"7c388446-739a-470f-a1f4-1d062f93aea0","system_id":"levelo_inurba_marseille","lat":43.297815,"lon":5.393548,"is_reserved":false,"is_disabled":false,"rental_uris":{"android":"levelo://app?vid=7c388446-739a-470f-a1f4-1d062f93aea0","ios":"levelo://app?vid=7c388446-739a-470f-a1f4-1d062f93aea0"},"vehicle_type_id":"4","last_reported":1692543899,"current_range_meters":22800,"station_id":"chh1huq6cuj3fo74tm60","pricing_plan_id":"free"},{"bike_id":"331a38fe-f682-4a0d-aa3b-978c26fba987","system_id":"levelo_inurba_marseille","lat":43.290995,"lon":5.381361,"is_reserved":false,"is_disabled":false,"rental_uris":{"android":"levelo://app?vid=331a38fe-f682-4a0d-aa3b-978c26fba987","ios":"levelo://app?vid=331a38fe-f682-4a0d-aa3b-978c26fba987"},"vehicle_type_id":"4","last_reported":1692543899,"current_range_meters":16000,"station_id":"ce4bh512rcd13ifvqe2g","pricing_plan_id":"free"},{"bike_id":"2241bce1-ebf9-4d91-b7e5-fe08a6544f42","system_id":"levelo_inurba_marseille","lat":43.33753,"lon":5.37492,"is_reserved":false,"is_disabled":false,"rental_uris":{"android":"levelo://app?vid=2241bce1-ebf9-4d91-b7e5-fe08a6544f42","ios":"levelo://app?vid=2241bce1-ebf9-4d91-b7e5-fe08a6544f42"},"vehicle_type_id":"4","last_reported":1692543899,"current_range_meters":20800,"station_id":"","pricing_plan_id":"free"},{"bike_id":"3406d172-f108-40a8-8685-aa596a62def9","system_id":"levelo_inurba_marseille","lat":43.304188,"lon":5.412904,"is_reserved":false,"is_disabled":false,"rental_uris":{"android":"levelo://app?vid=3406d172-f108-40a8-8685-aa596a62def9","ios":"levelo://app?vid=3406d172-f108-40a8-8685-aa596a62def9"},"vehicle_type_id":"4","last_reported":1692543899,"current_range_meters":25600,"station_id":"ce4bhop2rcd13ifvqh8g","pricing_plan_id":"free"},{"bike_id":"9e7ce5cd-7a79-4ddf-8802-40b095915e80","system_id":"levelo_inurba_marseille","lat":43.28667,"lon":5.36354,"is_reserved":false,"is_disabled":false,"rental_uris":{"android":"levelo://app?vid=9e7ce5cd-7a79-4ddf-8802-40b095915e80","ios":"levelo://app?vid=9e7ce5cd-7a79-4ddf-8802-40b095915e80"},"vehicle_type_id":"4","last_reported":1692543899,"current_range_meters":27600,"station_id":"ce4bhah2rcd13ifvqej0","pricing_plan_id":"free"},{"bike_id":"75199276-b705-4ad7-b6a9-49aeaa84628a","system_id":"levelo_inurba_marseille","lat":43.286591,"lon":5.363346,"is_reserved":false,"is_disabled":false,"rental_uris":{"android":"levelo://app?vid=75199276-b705-4ad7-b6a9-49aeaa84628a","ios":"levelo://app?vid=75199276-b705-4ad7-b6a9-49aeaa84628a"},"vehicle_type_id":"4","last_reported":1692543899,"current_range_meters":31200,"station_id":"ce4bhah2rcd13ifvqej0","pricing_plan_id":"free"},{"bike_id":"33e7d9d9-32fa-41da-9bb3-e7b6c0b9d094","system_id":"levelo_inurba_marseille","lat":43.286039,"lon":5.370679,"is_reserved":false,"is_disabled":false,"rental_uris":{"android":"levelo://app?vid=33e7d9d9-32fa-41da-9bb3-e7b6c0b9d094","ios":"levelo://app?vid=33e7d9d9-32fa-41da-9bb3-e7b6c0b9d094"},"vehicle_type_id":"4","last_reported":1692543899,"current_range_meters":23200,"station_id":"ce4bht12rcd13ifvqi60","pricing_plan_id":"free"},{"bike_id":"7da9e437-1e79-4b5f-9ab0-65254ac17dd7","system_id":"levelo_inurba_marseille","lat":43.31647,"lon":5.40439,"is_reserved":false,"is_disabled":false,"rental_uris":{"android":"levelo://app?vid=7da9e437-1e79-4b5f-9ab0-65254ac17dd7","ios":"levelo://app?vid=7da9e437-1e79-4b5f-9ab0-65254ac17dd7"},"vehicle_type_id":"4","last_reported":1692543899,"current_range_meters":21200,"station_id":"ce4bh012rcd13ifvqd00","pricing_plan_id":"free"},{"bike_id":"9a327d21-d1dd-4049-95d3-4c4b1e597100","system_id":"levelo_inurba_marseille","lat":43.28619,"lon":5.35107,"is_reserved":false,"is_disabled":false,"rental_uris":{"android":"levelo://app?vid=9a327d21-d1dd-4049-95d3-4c4b1e597100","ios":"levelo://app?vid=9a327d21-d1dd-4049-95d3-4c4b1e597100"},"vehicle_type_id":"4","last_reported":1692543899,"current_range_meters":4800,"station_id":"ce4bhch2rcd13ifvqeug","pricing_plan_id":"free"},{"bike_id":"2ef5ec5b-9cdd-49ca-887d-6e7374f138ab","system_id":"levelo_inurba_marseille","lat":43.2862,"lon":5.35101,"is_reserved":false,"is_disabled":false,"rental_uris":{"android":"levelo://app?vid=2ef5ec5b-9cdd-49ca-887d-6e7374f138ab","ios":"levelo://app?vid=2ef5ec5b-9cdd-49ca-887d-6e7374f138ab"},"vehicle_type_id":"4","last_reported":1692543899,"current_range_meters":27600,"station_id":"ce4bhch2rcd13ifvqeug","pricing_plan_id":"free"},{"bike_id":"aeec6f1d-7d2d-46f0-9a2c-9c7e40a81198","system_id":"levelo_inurba_marseille","lat":43.28618,"lon":5.35107,"is_reserved":false,"is_disabled":false,"rental_uris":{"android":"levelo://app?vid=aeec6f1d-7d2d-46f0-9a2c-9c7e40a81198","ios":"levelo://app?vid=aeec6f1d-7d2d-46f0-9a2c-9c7e40a81198"},"vehicle_type_id":"4","last_reported":1692543899,"current_range_meters":31200,"station_id":"ce4bhch2rcd13ifvqeug","pricing_plan_id":"free"},{"bike_id":"89b2736d-f043-4d83-af63-873a7dc8d7af","system_id":"levelo_inurba_marseille","lat":43.28616,"lon":5.35109,"is_reserved":false,"is_disabled":false,"rental_uris":{"android":"levelo://app?vid=89b2736d-f043-4d83-af63-873a7dc8d7af","ios":"levelo://app?vid=89b2736d-f043-4d83-af63-873a7dc8d7af"},"vehicle_type_id":"4","last_reported":1692543899,"current_range_meters":24000,"station_id":"ce4bhch2rcd13ifvqeug","pricing_plan_id":"free"},{"bike_id":"3d0fd122-9d5f-4f34-9493-8b8e9ac20308","system_id":"levelo_inurba_marseille","lat":43.28618,"lon":5.35102,"is_reserved":false,"is_disabled":false,"rental_uris":{"android":"levelo://app?vid=3d0fd122-9d5f-4f34-9493-8b8e9ac20308","ios":"levelo://app?vid=3d0fd122-9d5f-4f34-9493-8b8e9ac20308"},"vehicle_type_id":"4","last_reported":1692543899,"current_range_meters":24000,"station_id":"ce4bhch2rcd13ifvqeug","pricing_plan_id":"free"},{"bike_id":"4a0584de-be3a-4ce5-ab19-e362b01a20ae","system_id":"levelo_inurba_marseille","lat":43.28618,"lon":5.351,"is_reserved":false,"is_disabled":false,"rental_uris":{"android":"levelo://app?vid=4a0584de-be3a-4ce5-ab19-e362b01a20ae","ios":"levelo://app?vid=4a0584de-be3a-4ce5-ab19-e362b01a20ae"},"vehicle_type_id":"4","last_reported":1692543899,"current_range_meters":19200,"station_id":"ce4bhch2rcd13ifvqeug","pricing_plan_id":"free"},{"bike_id":"28c1ccf7-8e8d-4587-8e97-d39a1468663e","system_id":"levelo_inurba_marseille","lat":43.28617,"lon":5.35102,"is_reserved":false,"is_disabled":false,"rental_uris":{"android":"levelo://app?vid=28c1ccf7-8e8d-4587-8e97-d39a1468663e","ios":"levelo://app?vid=28c1ccf7-8e8d-4587-8e97-d39a1468663e"},"vehicle_type_id":"4","last_reported":1692543899,"current_range_meters":23600,"station_id":"ce4bhch2rcd13ifvqeug","pricing_plan_id":"free"},{"bike_id":"5e990a69-5649-4227-a5a7-f5521b5ce9e7","system_id":"levelo_inurba_marseille","lat":43.28617,"lon":5.35099,"is_reserved":false,"is_disabled":false,"rental_uris":{"android":"levelo://app?vid=5e990a69-5649-4227-a5a7-f5521b5ce9e7","ios":"levelo://app?vid=5e990a69-5649-4227-a5a7-f5521b5ce9e7"},"vehicle_type_id":"4","last_reported":1692543899,"current_range_meters":29600,"station_id":"ce4bhch2rcd13ifvqeug","pricing_plan_id":"free"},{"bike_id":"ca255c63-d115-4e2e-bdb5-7a90e1ab720d","system_id":"levelo_inurba_marseille","lat":43.28616,"lon":5.351,"is_reserved":false,"is_disabled":false,"rental_uris":{"android":"levelo://app?vid=ca255c63-d115-4e2e-bdb5-7a90e1ab720d","ios":"levelo://app?vid=ca255c63-d115-4e2e-bdb5-7a90e1ab720d"},"vehicle_type_id":"4","last_reported":1692543899,"current_range_meters":22800,"station_id":"ce4bhch2rcd13ifvqeug","pricing_plan_id":"free"},{"bike_id":"c9db8386-c8fe-43e5-b039-f237193b813e","system_id":"levelo_inurba_marseille","lat":43.28616,"lon":5.35098,"is_reserved":false,"is_disabled":false,"rental_uris":{"android":"levelo://app?vid=c9db8386-c8fe-43e5-b039-f237193b813e","ios":"levelo://app?vid=c9db8386-c8fe-43e5-b039-f237193b813e"},"vehicle_type_id":"4","last_reported":1692543899,"current_range_meters":31200,"station_id":"ce4bhch2rcd13ifvqeug","pricing_plan_id":"free"},{"bike_id":"13d056e7-e3cb-4fd3-a5bc-f0b619506c44","system_id":"levelo_inurba_marseille","lat":43.28615,"lon":5.35101,"is_reserved":false,"is_disabled":false,"rental_uris":{"android":"levelo://app?vid=13d056e7-e3cb-4fd3-a5bc-f0b619506c44","ios":"levelo://app?vid=13d056e7-e3cb-4fd3-a5bc-f0b619506c44"},"vehicle_type_id":"4","last_reported":1692543899,"current_range_meters":21200,"station_id":"ce4bhch2rcd13ifvqeug","pricing_plan_id":"free"},{"bike_id":"35eec3a1-aa54-4990-8eb4-78e6c0dd24d0","system_id":"levelo_inurba_marseille","lat":43.28615,"lon":5.351,"is_reserved":false,"is_disabled":false,"rental_uris":{"android":"levelo://app?vid=35eec3a1-aa54-4990-8eb4-78e6c0dd24d0","ios":"levelo://app?vid=35eec3a1-aa54-4990-8eb4-78e6c0dd24d0"},"vehicle_type_id":"4","last_reported":1692543899,"current_range_meters":29200,"station_id":"ce4bhch2rcd13ifvqeug","pricing_plan_id":"free"},{"bike_id":"bd1798b0-cfd5-4797-9f79-d24a0fe3975a","system_id":"levelo_inurba_marseille","lat":43.28612,"lon":5.35099,"is_reserved":false,"is_disabled":false,"rental_uris":{"android":"levelo://app?vid=bd1798b0-cfd5-4797-9f79-d24a0fe3975a","ios":"levelo://app?vid=bd1798b0-cfd5-4797-9f79-d24a0fe3975a"},"vehicle_type_id":"4","last_reported":1692543899,"current_range_meters":24800,"station_id":"ce4bhch2rcd13ifvqeug","pricing_plan_id":"free"},{"bike_id":"a6e54fff-9a58-4092-92a6-ace8f9818483","system_id":"levelo_inurba_marseille","lat":43.28612,"lon":5.35098,"is_reserved":false,"is_disabled":false,"rental_uris":{"android":"levelo://app?vid=a6e54fff-9a58-4092-92a6-ace8f9818483","ios":"levelo://app?vid=a6e54fff-9a58-4092-92a6-ace8f9818483"},"vehicle_type_id":"4","last_reported":1692543899,"current_range_meters":30400,"station_id":"ce4bhch2rcd13ifvqeug","pricing_plan_id":"free"},{"bike_id":"6092f776-65d5-4a2e-87a3-2d94818de070","system_id":"levelo_inurba_marseille","lat":43.28612,"lon":5.35095,"is_reserved":false,"is_disabled":false,"rental_uris":{"android":"levelo://app?vid=6092f776-65d5-4a2e-87a3-2d94818de070","ios":"levelo://app?vid=6092f776-65d5-4a2e-87a3-2d94818de070"},"vehicle_type_id":"4","last_reported":1692543899,"current_range_meters":19600,"station_id":"ce4bhch2rcd13ifvqeug","pricing_plan_id":"free"},{"bike_id":"ebf7c6a2-ede1-4421-a4af-dd16233bded0","system_id":"levelo_inurba_marseille","lat":43.283998,"lon":5.375062,"is_reserved":false,"is_disabled":false,"rental_uris":{"android":"levelo://app?vid=ebf7c6a2-ede1-4421-a4af-dd16233bded0","ios":"levelo://app?vid=ebf7c6a2-ede1-4421-a4af-dd16233bded0"},"vehicle_type_id":"4","last_reported":1692543899,"current_range_meters":16800,"station_id":"ce4bh412rcd13ifvqds0","pricing_plan_id":"free"},{"bike_id":"2363d3b5-6c15-401a-a59c-ee80bd4af927","system_id":"levelo_inurba_marseille","lat":43.28415,"lon":5.37522,"is_reserved":false,"is_disabled":false,"rental_uris":{"android":"levelo://app?vid=2363d3b5-6c15-401a-a59c-ee80bd4af927","ios":"levelo://app?vid=2363d3b5-6c15-401a-a59c-ee80bd4af927"},"vehicle_type_id":"4","last_reported":1692543899,"current_range_meters":16800,"station_id":"ce4bh412rcd13ifvqds0","pricing_plan_id":"free"},{"bike_id":"2b3f06e0-8f2d-4133-9563-f19f57fe46e5","system_id":"levelo_inurba_marseille","lat":43.337168,"lon":5.391825,"is_reserved":false,"is_disabled":false,"rental_uris":{"android":"levelo://app?vid=2b3f06e0-8f2d-4133-9563-f19f57fe46e5","ios":"levelo://app?vid=2b3f06e0-8f2d-4133-9563-f19f57fe46e5"},"vehicle_type_id":"4","last_reported":1692543899,"current_range_meters":6400,"station_id":"ce4bhr92rcd13ifvqhsg","pricing_plan_id":"free"},{"bike_id":"17105054-6fd8-493b-b0be-1ed88688055c","system_id":"levelo_inurba_marseille","lat":43.337168,"lon":5.391825,"is_reserved":false,"is_disabled":false,"rental_uris":{"android":"levelo://app?vid=17105054-6fd8-493b-b0be-1ed88688055c","ios":"levelo://app?vid=17105054-6fd8-493b-b0be-1ed88688055c"},"vehicle_type_id":"4","last_reported":1692543899,"current_range_meters":26000,"station_id":"ce4bhr92rcd13ifvqhsg","pricing_plan_id":"free"},{"bike_id":"7d2969ab-a065-4a23-b19e-667095d799c9","system_id":"levelo_inurba_marseille","lat":43.33723,"lon":5.39182,"is_reserved":false,"is_disabled":false,"rental_uris":{"android":"levelo://app?vid=7d2969ab-a065-4a23-b19e-667095d799c9","ios":"levelo://app?vid=7d2969ab-a065-4a23-b19e-667095d799c9"},"vehicle_type_id":"4","last_reported":1692543899,"current_range_meters":6000,"station_id":"ce4bhr92rcd13ifvqhsg","pricing_plan_id":"free"},{"bike_id":"72fc020d-a1d4-460a-a3d1-6187a1ea65d2","system_id":"levelo_inurba_marseille","lat":43.33724,"lon":5.39181,"is_reserved":false,"is_disabled":false,"rental_uris":{"android":"levelo://app?vid=72fc020d-a1d4-460a-a3d1-6187a1ea65d2","ios":"levelo://app?vid=72fc020d-a1d4-460a-a3d1-6187a1ea65d2"},"vehicle_type_id":"4","last_reported":1692543899,"current_range_meters":22800,"station_id":"ce4bhr92rcd13ifvqhsg","pricing_plan_id":"free"},{"bike_id":"97d0f90d-ac9d-480b-8250-a663b55e35e8","system_id":"levelo_inurba_marseille","lat":43.33725,"lon":5.39182,"is_reserved":false,"is_disabled":false,"rental_uris":{"android":"levelo://app?vid=97d0f90d-ac9d-480b-8250-a663b55e35e8","ios":"levelo://app?vid=97d0f90d-ac9d-480b-8250-a663b55e35e8"},"vehicle_type_id":"4","last_reported":1692543899,"current_range_meters":25200,"station_id":"ce4bhr92rcd13ifvqhsg","pricing_plan_id":"free"},{"bike_id":"0dda2562-498f-4f90-abfb-f3c666db2d2e","system_id":"levelo_inurba_marseille","lat":43.33722,"lon":5.39188,"is_reserved":false,"is_disabled":false,"rental_uris":{"android":"levelo://app?vid=0dda2562-498f-4f90-abfb-f3c666db2d2e","ios":"levelo://app?vid=0dda2562-498f-4f90-abfb-f3c666db2d2e"},"vehicle_type_id":"4","last_reported":1692543899,"current_range_meters":19600,"station_id":"ce4bhr92rcd13ifvqhsg","pricing_plan_id":"free"},{"bike_id":"4458971a-1e42-4d51-8e96-a944048bc368","system_id":"levelo_inurba_marseille","lat":43.33729,"lon":5.39175,"is_reserved":false,"is_disabled":false,"rental_uris":{"android":"levelo://app?vid=4458971a-1e42-4d51-8e96-a944048bc368","ios":"levelo://app?vid=4458971a-1e42-4d51-8e96-a944048bc368"},"vehicle_type_id":"4","last_reported":1692543899,"current_range_meters":28000,"station_id":"ce4bhr92rcd13ifvqhsg","pricing_plan_id":"free"},{"bike_id":"12c0f407-4ac2-49d3-b1e8-783bd26a8644","system_id":"levelo_inurba_marseille","lat":43.33721,"lon":5.39191,"is_reserved":false,"is_disabled":false,"rental_uris":{"android":"levelo://app?vid=12c0f407-4ac2-49d3-b1e8-783bd26a8644","ios":"levelo://app?vid=12c0f407-4ac2-49d3-b1e8-783bd26a8644"},"vehicle_type_id":"4","last_reported":1692543899,"current_range_meters":25200,"station_id":"ce4bhr92rcd13ifvqhsg","pricing_plan_id":"free"},{"bike_id":"35e51cdd-0691-44df-be95-a6dd6fc17edd","system_id":"levelo_inurba_marseille","lat":43.33723,"lon":5.39188,"is_reserved":false,"is_disabled":false,"rental_uris":{"android":"levelo://app?vid=35e51cdd-0691-44df-be95-a6dd6fc17edd","ios":"levelo://app?vid=35e51cdd-0691-44df-be95-a6dd6fc17edd"},"vehicle_type_id":"4","last_reported":1692543899,"current_range_meters":16000,"station_id":"ce4bhr92rcd13ifvqhsg","pricing_plan_id":"free"},{"bike_id":"32109296-6a9d-490a-a989-74c7e872c278","system_id":"levelo_inurba_marseille","lat":43.323464,"lon":5.406297,"is_reserved":false,"is_disabled":false,"rental_uris":{"android":"levelo://app?vid=32109296-6a9d-490a-a989-74c7e872c278","ios":"levelo://app?vid=32109296-6a9d-490a-a989-74c7e872c278"},"vehicle_type_id":"4","last_reported":1692543899,"current_range_meters":9200,"station_id":"ce4bhq92rcd13ifvqhjg","pricing_plan_id":"free"},{"bike_id":"3d3979f0-a28e-4760-847b-c6d9bae4866b","system_id":"levelo_inurba_marseille","lat":43.33729,"lon":5.39179,"is_reserved":false,"is_disabled":false,"rental_uris":{"android":"levelo://app?vid=3d3979f0-a28e-4760-847b-c6d9bae4866b","ios":"levelo://app?vid=3d3979f0-a28e-4760-847b-c6d9bae4866b"},"vehicle_type_id":"4","last_reported":1692543899,"current_range_meters":31200,"station_id":"ce4bhr92rcd13ifvqhsg","pricing_plan_id":"free"},{"bike_id":"efe8b264-ad35-4139-b98d-40041f267f16","system_id":"levelo_inurba_marseille","lat":43.337168,"lon":5.391825,"is_reserved":false,"is_disabled":false,"rental_uris":{"android":"levelo://app?vid=efe8b264-ad35-4139-b98d-40041f267f16","ios":"levelo://app?vid=efe8b264-ad35-4139-b98d-40041f267f16"},"vehicle_type_id":"4","last_reported":1692543899,"current_range_meters":23200,"station_id":"ce4bhr92rcd13ifvqhsg","pricing_plan_id":"free"},{"bike_id":"c24cecf2-0503-470c-b3d3-fc37f377f710","system_id":"levelo_inurba_marseille","lat":43.33729,"lon":5.39183,"is_reserved":false,"is_disabled":false,"rental_uris":{"android":"levelo://app?vid=c24cecf2-0503-470c-b3d3-fc37f377f710","ios":"levelo://app?vid=c24cecf2-0503-470c-b3d3-fc37f377f710"},"vehicle_type_id":"4","last_reported":1692543899,"current_range_meters":24800,"station_id":"ce4bhr92rcd13ifvqhsg","pricing_plan_id":"free"},{"bike_id":"02f29c2d-847e-4148-9200-bdb4c19acc46","system_id":"levelo_inurba_marseille","lat":43.33728,"lon":5.39186,"is_reserved":false,"is_disabled":false,"rental_uris":{"android":"levelo://app?vid=02f29c2d-847e-4148-9200-bdb4c19acc46","ios":"levelo://app?vid=02f29c2d-847e-4148-9200-bdb4c19acc46"},"vehicle_type_id":"4","last_reported":1692543899,"current_range_meters":25600,"station_id":"ce4bhr92rcd13ifvqhsg","pricing_plan_id":"free"},{"bike_id":"01f563c5-7ac0-4d44-b1b3-0549f3b949f3","system_id":"levelo_inurba_marseille","lat":43.3373,"lon":5.39184,"is_reserved":false,"is_disabled":false,"rental_uris":{"android":"levelo://app?vid=01f563c5-7ac0-4d44-b1b3-0549f3b949f3","ios":"levelo://app?vid=01f563c5-7ac0-4d44-b1b3-0549f3b949f3"},"vehicle_type_id":"4","last_reported":1692543899,"current_range_meters":25600,"station_id":"ce4bhr92rcd13ifvqhsg","pricing_plan_id":"free"},{"bike_id":"e45012d8-673a-4bd6-93d3-a427f767a00d","system_id":"levelo_inurba_marseille","lat":43.33731,"lon":5.39183,"is_reserved":false,"is_disabled":false,"rental_uris":{"android":"levelo://app?vid=e45012d8-673a-4bd6-93d3-a427f767a00d","ios":"levelo://app?vid=e45012d8-673a-4bd6-93d3-a427f767a00d"},"vehicle_type_id":"4","last_reported":1692543899,"current_range_meters":23600,"station_id":"ce4bhr92rcd13ifvqhsg","pricing_plan_id":"free"},{"bike_id":"f24d321f-ba10-47bf-b834-145a0b92ec46","system_id":"levelo_inurba_marseille","lat":43.33732,"lon":5.39187,"is_reserved":false,"is_disabled":false,"rental_uris":{"android":"levelo://app?vid=f24d321f-ba10-47bf-b834-145a0b92ec46","ios":"levelo://app?vid=f24d321f-ba10-47bf-b834-145a0b92ec46"},"vehicle_type_id":"4","last_reported":1692543899,"current_range_meters":17600,"station_id":"ce4bhr92rcd13ifvqhsg","pricing_plan_id":"free"},{"bike_id":"8bd09c71-02ae-4371-8b55-ce1e7e2bf2df","system_id":"levelo_inurba_marseille","lat":43.33733,"lon":5.39188,"is_reserved":false,"is_disabled":false,"rental_uris":{"android":"levelo://app?vid=8bd09c71-02ae-4371-8b55-ce1e7e2bf2df","ios":"levelo://app?vid=8bd09c71-02ae-4371-8b55-ce1e7e2bf2df"},"vehicle_type_id":"4","last_reported":1692543899,"current_range_meters":26000,"station_id":"ce4bhr92rcd13ifvqhsg","pricing_plan_id":"free"},{"bike_id":"186ddf38-a5ca-44a9-9dd3-9bfe2a53544b","system_id":"levelo_inurba_marseille","lat":43.33736,"lon":5.39187,"is_reserved":false,"is_disabled":false,"rental_uris":{"android":"levelo://app?vid=186ddf38-a5ca-44a9-9dd3-9bfe2a53544b","ios":"levelo://app?vid=186ddf38-a5ca-44a9-9dd3-9bfe2a53544b"},"vehicle_type_id":"4","last_reported":1692543899,"current_range_meters":24400,"station_id":"ce4bhr92rcd13ifvqhsg","pricing_plan_id":"free"},{"bike_id":"ada18415-0660-40f5-9043-4e3f2c7c0777","system_id":"levelo_inurba_marseille","lat":43.28431,"lon":5.34993,"is_reserved":false,"is_disabled":false,"rental_uris":{"android":"levelo://app?vid=ada18415-0660-40f5-9043-4e3f2c7c0777","ios":"levelo://app?vid=ada18415-0660-40f5-9043-4e3f2c7c0777"},"vehicle_type_id":"4","last_reported":1692543899,"current_range_meters":14400,"station_id":"ce4bhbh2rcd13ifvqepg","pricing_plan_id":"free"},{"bike_id":"23fd1515-b6df-467a-ab2f-8c0b217abb80","system_id":"levelo_inurba_marseille","lat":43.283494,"lon":5.380945,"is_reserved":false,"is_disabled":false,"rental_uris":{"android":"levelo://app?vid=23fd1515-b6df-467a-ab2f-8c0b217abb80","ios":"levelo://app?vid=23fd1515-b6df-467a-ab2f-8c0b217abb80"},"vehicle_type_id":"4","last_reported":1692543899,"current_range_meters":4800,"station_id":"ce4bh412rcd13ifvqdr0","pricing_plan_id":"free"},{"bike_id":"4e450f5e-1c05-4f97-b6de-c06390b35761","system_id":"levelo_inurba_marseille","lat":43.2843,"lon":5.34995,"is_reserved":false,"is_disabled":false,"rental_uris":{"android":"levelo://app?vid=4e450f5e-1c05-4f97-b6de-c06390b35761","ios":"levelo://app?vid=4e450f5e-1c05-4f97-b6de-c06390b35761"},"vehicle_type_id":"4","last_reported":1692543899,"current_range_meters":29200,"station_id":"ce4bhbh2rcd13ifvqepg","pricing_plan_id":"free"},{"bike_id":"449275bc-2a78-49c5-b2b8-5f6c36b963d0","system_id":"levelo_inurba_marseille","lat":43.28426,"lon":5.34996,"is_reserved":false,"is_disabled":false,"rental_uris":{"android":"levelo://app?vid=449275bc-2a78-49c5-b2b8-5f6c36b963d0","ios":"levelo://app?vid=449275bc-2a78-49c5-b2b8-5f6c36b963d0"},"vehicle_type_id":"4","last_reported":1692543899,"current_range_meters":17200,"station_id":"ce4bhbh2rcd13ifvqepg","pricing_plan_id":"free"},{"bike_id":"41af440f-a7d2-4210-92d2-be86f580e45c","system_id":"levelo_inurba_marseille","lat":43.28426,"lon":5.34987,"is_reserved":false,"is_disabled":false,"rental_uris":{"android":"levelo://app?vid=41af440f-a7d2-4210-92d2-be86f580e45c","ios":"levelo://app?vid=41af440f-a7d2-4210-92d2-be86f580e45c"},"vehicle_type_id":"4","last_reported":1692543899,"current_range_meters":22800,"station_id":"ce4bhbh2rcd13ifvqepg","pricing_plan_id":"free"},{"bike_id":"ba3691b5-3c59-476d-a171-f578ef6422e2","system_id":"levelo_inurba_marseille","lat":43.28424,"lon":5.34988,"is_reserved":false,"is_disabled":false,"rental_uris":{"android":"levelo://app?vid=ba3691b5-3c59-476d-a171-f578ef6422e2","ios":"levelo://app?vid=ba3691b5-3c59-476d-a171-f578ef6422e2"},"vehicle_type_id":"4","last_reported":1692543899,"current_range_meters":25200,"station_id":"ce4bhbh2rcd13ifvqepg","pricing_plan_id":"free"},{"bike_id":"9e2cc02c-a705-4060-9eaf-1b318d132dda","system_id":"levelo_inurba_marseille","lat":43.284217,"lon":5.349697,"is_reserved":false,"is_disabled":false,"rental_uris":{"android":"levelo://app?vid=9e2cc02c-a705-4060-9eaf-1b318d132dda","ios":"levelo://app?vid=9e2cc02c-a705-4060-9eaf-1b318d132dda"},"vehicle_type_id":"4","last_reported":1692543899,"current_range_meters":25600,"station_id":"ce4bhbh2rcd13ifvqepg","pricing_plan_id":"free"},{"bike_id":"d344a979-9bb2-4fb3-85e8-fa06e04956be","system_id":"levelo_inurba_marseille","lat":43.28424,"lon":5.34981,"is_reserved":false,"is_disabled":false,"rental_uris":{"android":"levelo://app?vid=d344a979-9bb2-4fb3-85e8-fa06e04956be","ios":"levelo://app?vid=d344a979-9bb2-4fb3-85e8-fa06e04956be"},"vehicle_type_id":"4","last_reported":1692543899,"current_range_meters":10800,"station_id":"ce4bhbh2rcd13ifvqepg","pricing_plan_id":"free"},{"bike_id":"bf590359-a6e5-40e1-b4ac-dd91551bde50","system_id":"levelo_inurba_marseille","lat":43.28422,"lon":5.34987,"is_reserved":false,"is_disabled":false,"rental_uris":{"android":"levelo://app?vid=bf590359-a6e5-40e1-b4ac-dd91551bde50","ios":"levelo://app?vid=bf590359-a6e5-40e1-b4ac-dd91551bde50"},"vehicle_type_id":"4","last_reported":1692543899,"current_range_meters":23600,"station_id":"ce4bhbh2rcd13ifvqepg","pricing_plan_id":"free"},{"bike_id":"fcfc3037-010a-437a-8a31-4942b06ddd30","system_id":"levelo_inurba_marseille","lat":43.28425,"lon":5.34977,"is_reserved":false,"is_disabled":false,"rental_uris":{"android":"levelo://app?vid=fcfc3037-010a-437a-8a31-4942b06ddd30","ios":"levelo://app?vid=fcfc3037-010a-437a-8a31-4942b06ddd30"},"vehicle_type_id":"4","last_reported":1692543899,"current_range_meters":14800,"station_id":"ce4bhbh2rcd13ifvqepg","pricing_plan_id":"free"},{"bike_id":"0c4b6542-aeb1-4ff5-b556-5dc03a8c9046","system_id":"levelo_inurba_marseille","lat":43.2842,"lon":5.34991,"is_reserved":false,"is_disabled":false,"rental_uris":{"android":"levelo://app?vid=0c4b6542-aeb1-4ff5-b556-5dc03a8c9046","ios":"levelo://app?vid=0c4b6542-aeb1-4ff5-b556-5dc03a8c9046"},"vehicle_type_id":"4","last_reported":1692543899,"current_range_meters":23600,"station_id":"ce4bhbh2rcd13ifvqepg","pricing_plan_id":"free"},{"bike_id":"a31e86b3-ea18-43f9-b1f7-dd803fc797fc","system_id":"levelo_inurba_marseille","lat":43.2842,"lon":5.34991,"is_reserved":false,"is_disabled":false,"rental_uris":{"android":"levelo://app?vid=a31e86b3-ea18-43f9-b1f7-dd803fc797fc","ios":"levelo://app?vid=a31e86b3-ea18-43f9-b1f7-dd803fc797fc"},"vehicle_type_id":"4","last_reported":1692543899,"current_range_meters":23200,"station_id":"ce4bhbh2rcd13ifvqepg","pricing_plan_id":"free"},{"bike_id":"cb38a159-6ed3-4430-892d-95dc4c9f513a","system_id":"levelo_inurba_marseille","lat":43.284217,"lon":5.349697,"is_reserved":false,"is_disabled":false,"rental_uris":{"android":"levelo://app?vid=cb38a159-6ed3-4430-892d-95dc4c9f513a","ios":"levelo://app?vid=cb38a159-6ed3-4430-892d-95dc4c9f513a"},"vehicle_type_id":"4","last_reported":1692543899,"current_range_meters":18000,"station_id":"ce4bhbh2rcd13ifvqepg","pricing_plan_id":"free"},{"bike_id":"3a78b823-185c-439d-af78-03f7e0b4a6ce","system_id":"levelo_inurba_marseille","lat":43.2842,"lon":5.3499,"is_reserved":false,"is_disabled":false,"rental_uris":{"android":"levelo://app?vid=3a78b823-185c-439d-af78-03f7e0b4a6ce","ios":"levelo://app?vid=3a78b823-185c-439d-af78-03f7e0b4a6ce"},"vehicle_type_id":"4","last_reported":1692543899,"current_range_meters":26000,"station_id":"ce4bhbh2rcd13ifvqepg","pricing_plan_id":"free"},{"bike_id":"50877f9c-1af7-4652-8915-c103f79cc58f","system_id":"levelo_inurba_marseille","lat":43.284217,"lon":5.349697,"is_reserved":false,"is_disabled":false,"rental_uris":{"android":"levelo://app?vid=50877f9c-1af7-4652-8915-c103f79cc58f","ios":"levelo://app?vid=50877f9c-1af7-4652-8915-c103f79cc58f"},"vehicle_type_id":"4","last_reported":1692543899,"current_range_meters":27200,"station_id":"ce4bhbh2rcd13ifvqepg","pricing_plan_id":"free"},{"bike_id":"d469c425-9fe3-4880-bc9e-6ab171e4a129","system_id":"levelo_inurba_marseille","lat":43.284217,"lon":5.349697,"is_reserved":false,"is_disabled":false,"rental_uris":{"android":"levelo://app?vid=d469c425-9fe3-4880-bc9e-6ab171e4a129","ios":"levelo://app?vid=d469c425-9fe3-4880-bc9e-6ab171e4a129"},"vehicle_type_id":"4","last_reported":1692543899,"current_range_meters":30800,"station_id":"ce4bhbh2rcd13ifvqepg","pricing_plan_id":"free"},{"bike_id":"a0b4d391-e169-4cb5-bd1c-90095e4e3a4e","system_id":"levelo_inurba_marseille","lat":43.284217,"lon":5.349697,"is_reserved":false,"is_disabled":false,"rental_uris":{"android":"levelo://app?vid=a0b4d391-e169-4cb5-bd1c-90095e4e3a4e","ios":"levelo://app?vid=a0b4d391-e169-4cb5-bd1c-90095e4e3a4e"},"vehicle_type_id":"4","last_reported":1692543899,"current_range_meters":21600,"station_id":"ce4bhbh2rcd13ifvqepg","pricing_plan_id":"free"},{"bike_id":"c494bf2c-01c6-44a1-99f1-4faca26891d8","system_id":"levelo_inurba_marseille","lat":43.2842,"lon":5.34986,"is_reserved":false,"is_disabled":false,"rental_uris":{"android":"levelo://app?vid=c494bf2c-01c6-44a1-99f1-4faca26891d8","ios":"levelo://app?vid=c494bf2c-01c6-44a1-99f1-4faca26891d8"},"vehicle_type_id":"4","last_reported":1692543899,"current_range_meters":24800,"station_id":"ce4bhbh2rcd13ifvqepg","pricing_plan_id":"free"},{"bike_id":"ded535db-8116-47d9-9076-0aa3e207106a","system_id":"levelo_inurba_marseille","lat":43.28418,"lon":5.34992,"is_reserved":false,"is_disabled":false,"rental_uris":{"android":"levelo://app?vid=ded535db-8116-47d9-9076-0aa3e207106a","ios":"levelo://app?vid=ded535db-8116-47d9-9076-0aa3e207106a"},"vehicle_type_id":"4","last_reported":1692543899,"current_range_meters":22800,"station_id":"ce4bhbh2rcd13ifvqepg","pricing_plan_id":"free"},{"bike_id":"9b4b587b-24f8-4427-a599-ca521fbb0882","system_id":"levelo_inurba_marseille","lat":43.28419,"lon":5.34988,"is_reserved":false,"is_disabled":false,"rental_uris":{"android":"levelo://app?vid=9b4b587b-24f8-4427-a599-ca521fbb0882","ios":"levelo://app?vid=9b4b587b-24f8-4427-a599-ca521fbb0882"},"vehicle_type_id":"4","last_reported":1692543899,"current_range_meters":26400,"station_id":"ce4bhbh2rcd13ifvqepg","pricing_plan_id":"free"},{"bike_id":"ec4a6107-e07e-4196-81c9-b3c612225b9b","system_id":"levelo_inurba_marseille","lat":43.28421,"lon":5.3498,"is_reserved":false,"is_disabled":false,"rental_uris":{"android":"levelo://app?vid=ec4a6107-e07e-4196-81c9-b3c612225b9b","ios":"levelo://app?vid=ec4a6107-e07e-4196-81c9-b3c612225b9b"},"vehicle_type_id":"4","last_reported":1692543899,"current_range_meters":15200,"station_id":"ce4bhbh2rcd13ifvqepg","pricing_plan_id":"free"},{"bike_id":"1c51d1d5-ab99-47e6-a431-bb9337f29bb3","system_id":"levelo_inurba_marseille","lat":43.28415,"lon":5.34998,"is_reserved":false,"is_disabled":false,"rental_uris":{"android":"levelo://app?vid=1c51d1d5-ab99-47e6-a431-bb9337f29bb3","ios":"levelo://app?vid=1c51d1d5-ab99-47e6-a431-bb9337f29bb3"},"vehicle_type_id":"4","last_reported":1692543899,"current_range_meters":24000,"station_id":"ce4bhbh2rcd13ifvqepg","pricing_plan_id":"free"},{"bike_id":"66139586-765e-4df4-852b-17d508c1991d","system_id":"levelo_inurba_marseille","lat":43.28417,"lon":5.3499,"is_reserved":false,"is_disabled":false,"rental_uris":{"android":"levelo://app?vid=66139586-765e-4df4-852b-17d508c1991d","ios":"levelo://app?vid=66139586-765e-4df4-852b-17d508c1991d"},"vehicle_type_id":"4","last_reported":1692543899,"current_range_meters":12400,"station_id":"ce4bhbh2rcd13ifvqepg","pricing_plan_id":"free"},{"bike_id":"69c0bd72-2e06-4223-979f-ba3fda0bc6cb","system_id":"levelo_inurba_marseille","lat":43.28422,"lon":5.34974,"is_reserved":false,"is_disabled":false,"rental_uris":{"android":"levelo://app?vid=69c0bd72-2e06-4223-979f-ba3fda0bc6cb","ios":"levelo://app?vid=69c0bd72-2e06-4223-979f-ba3fda0bc6cb"},"vehicle_type_id":"4","last_reported":1692543899,"current_range_meters":17200,"station_id":"ce4bhbh2rcd13ifvqepg","pricing_plan_id":"free"},{"bike_id":"8f6893bb-ec38-4728-b8d9-d234ff347755","system_id":"levelo_inurba_marseille","lat":43.28415,"lon":5.34995,"is_reserved":false,"is_disabled":false,"rental_uris":{"android":"levelo://app?vid=8f6893bb-ec38-4728-b8d9-d234ff347755","ios":"levelo://app?vid=8f6893bb-ec38-4728-b8d9-d234ff347755"},"vehicle_type_id":"4","last_reported":1692543899,"current_range_meters":22800,"station_id":"ce4bhbh2rcd13ifvqepg","pricing_plan_id":"free"},{"bike_id":"a778facd-db26-4d11-9924-c852e503cd99","system_id":"levelo_inurba_marseille","lat":43.28416,"lon":5.3499,"is_reserved":false,"is_disabled":false,"rental_uris":{"android":"levelo://app?vid=a778facd-db26-4d11-9924-c852e503cd99","ios":"levelo://app?vid=a778facd-db26-4d11-9924-c852e503cd99"},"vehicle_type_id":"4","last_reported":1692543899,"current_range_meters":20000,"station_id":"ce4bhbh2rcd13ifvqepg","pricing_plan_id":"free"},{"bike_id":"cbab3a93-0879-405f-8af0-54bff1d5bbc5","system_id":"levelo_inurba_marseille","lat":43.284217,"lon":5.349697,"is_reserved":false,"is_disabled":false,"rental_uris":{"android":"levelo://app?vid=cbab3a93-0879-405f-8af0-54bff1d5bbc5","ios":"levelo://app?vid=cbab3a93-0879-405f-8af0-54bff1d5bbc5"},"vehicle_type_id":"4","last_reported":1692543899,"current_range_meters":31200,"station_id":"ce4bhbh2rcd13ifvqepg","pricing_plan_id":"free"},{"bike_id":"af5969d4-4493-4a0e-a09a-bb4d639951ea","system_id":"levelo_inurba_marseille","lat":43.284217,"lon":5.349697,"is_reserved":false,"is_disabled":false,"rental_uris":{"android":"levelo://app?vid=af5969d4-4493-4a0e-a09a-bb4d639951ea","ios":"levelo://app?vid=af5969d4-4493-4a0e-a09a-bb4d639951ea"},"vehicle_type_id":"4","last_reported":1692543899,"current_range_meters":16400,"station_id":"ce4bhbh2rcd13ifvqepg","pricing_plan_id":"free"},{"bike_id":"1eeb51f9-4b42-45be-b69e-90d11c587f78","system_id":"levelo_inurba_marseille","lat":43.284217,"lon":5.349697,"is_reserved":false,"is_disabled":false,"rental_uris":{"android":"levelo://app?vid=1eeb51f9-4b42-45be-b69e-90d11c587f78","ios":"levelo://app?vid=1eeb51f9-4b42-45be-b69e-90d11c587f78"},"vehicle_type_id":"4","last_reported":1692543899,"current_range_meters":26400,"station_id":"ce4bhbh2rcd13ifvqepg","pricing_plan_id":"free"},{"bike_id":"61ddc328-6f96-4339-9445-490bfe0b9483","system_id":"levelo_inurba_marseille","lat":43.284217,"lon":5.349697,"is_reserved":false,"is_disabled":false,"rental_uris":{"android":"levelo://app?vid=61ddc328-6f96-4339-9445-490bfe0b9483","ios":"levelo://app?vid=61ddc328-6f96-4339-9445-490bfe0b9483"},"vehicle_type_id":"4","last_reported":1692543899,"current_range_meters":2000,"station_id":"ce4bhbh2rcd13ifvqepg","pricing_plan_id":"free"},{"bike_id":"ea36a31d-6e49-41f4-ab62-2cc1a46566f1","system_id":"levelo_inurba_marseille","lat":43.28418,"lon":5.34975,"is_reserved":false,"is_disabled":false,"rental_uris":{"android":"levelo://app?vid=ea36a31d-6e49-41f4-ab62-2cc1a46566f1","ios":"levelo://app?vid=ea36a31d-6e49-41f4-ab62-2cc1a46566f1"},"vehicle_type_id":"4","last_reported":1692543899,"current_range_meters":11200,"station_id":"ce4bhbh2rcd13ifvqepg","pricing_plan_id":"free"},{"bike_id":"6f59593a-a7a2-4f12-99bc-468eae9a35cb","system_id":"levelo_inurba_marseille","lat":43.284217,"lon":5.349697,"is_reserved":false,"is_disabled":false,"rental_uris":{"android":"levelo://app?vid=6f59593a-a7a2-4f12-99bc-468eae9a35cb","ios":"levelo://app?vid=6f59593a-a7a2-4f12-99bc-468eae9a35cb"},"vehicle_type_id":"4","last_reported":1692543899,"current_range_meters":13600,"station_id":"ce4bhbh2rcd13ifvqepg","pricing_plan_id":"free"},{"bike_id":"f7e4ee91-d841-4871-b720-634b8a3aa3b3","system_id":"levelo_inurba_marseille","lat":43.284217,"lon":5.349697,"is_reserved":false,"is_disabled":false,"rental_uris":{"android":"levelo://app?vid=f7e4ee91-d841-4871-b720-634b8a3aa3b3","ios":"levelo://app?vid=f7e4ee91-d841-4871-b720-634b8a3aa3b3"},"vehicle_type_id":"4","last_reported":1692543899,"current_range_meters":9600,"station_id":"ce4bhbh2rcd13ifvqepg","pricing_plan_id":"free"},{"bike_id":"05c0ea99-3bc7-454e-8314-ea424bcbf8f9","system_id":"levelo_inurba_marseille","lat":43.284217,"lon":5.349697,"is_reserved":false,"is_disabled":false,"rental_uris":{"android":"levelo://app?vid=05c0ea99-3bc7-454e-8314-ea424bcbf8f9","ios":"levelo://app?vid=05c0ea99-3bc7-454e-8314-ea424bcbf8f9"},"vehicle_type_id":"4","last_reported":1692543899,"current_range_meters":31200,"station_id":"ce4bhbh2rcd13ifvqepg","pricing_plan_id":"free"},{"bike_id":"f50aca5f-cf5b-4020-925f-826a2e34874f","system_id":"levelo_inurba_marseille","lat":43.289363,"lon":5.396322,"is_reserved":false,"is_disabled":false,"rental_uris":{"android":"levelo://app?vid=f50aca5f-cf5b-4020-925f-826a2e34874f","ios":"levelo://app?vid=f50aca5f-cf5b-4020-925f-826a2e34874f"},"vehicle_type_id":"4","last_reported":1692543899,"current_range_meters":29600,"station_id":"ce4bh3h2rcd13ifvqdn0","pricing_plan_id":"free"},{"bike_id":"dbc2fee5-e237-4455-80c4-0b6b36f34a01","system_id":"levelo_inurba_marseille","lat":43.29284,"lon":5.40112,"is_reserved":false,"is_disabled":false,"rental_uris":{"android":"levelo://app?vid=dbc2fee5-e237-4455-80c4-0b6b36f34a01","ios":"levelo://app?vid=dbc2fee5-e237-4455-80c4-0b6b36f34a01"},"vehicle_type_id":"4","last_reported":1692543899,"current_range_meters":14800,"station_id":"ce4bh312rcd13ifvqdk0","pricing_plan_id":"free"},{"bike_id":"273ec884-14d2-4a16-8610-ffe8b648e1df","system_id":"levelo_inurba_marseille","lat":43.29277,"lon":5.40116,"is_reserved":false,"is_disabled":false,"rental_uris":{"android":"levelo://app?vid=273ec884-14d2-4a16-8610-ffe8b648e1df","ios":"levelo://app?vid=273ec884-14d2-4a16-8610-ffe8b648e1df"},"vehicle_type_id":"4","last_reported":1692543899,"current_range_meters":20400,"station_id":"ce4bh312rcd13ifvqdk0","pricing_plan_id":"free"},{"bike_id":"5cec26ac-344f-432b-af34-450b75305b9b","system_id":"levelo_inurba_marseille","lat":43.292724,"lon":5.401131,"is_reserved":false,"is_disabled":false,"rental_uris":{"android":"levelo://app?vid=5cec26ac-344f-432b-af34-450b75305b9b","ios":"levelo://app?vid=5cec26ac-344f-432b-af34-450b75305b9b"},"vehicle_type_id":"4","last_reported":1692543899,"current_range_meters":31200,"station_id":"ce4bh312rcd13ifvqdk0","pricing_plan_id":"free"},{"bike_id":"cfb0f194-45ac-4876-a896-65539c958816","system_id":"levelo_inurba_marseille","lat":43.282754,"lon":5.350519,"is_reserved":false,"is_disabled":false,"rental_uris":{"android":"levelo://app?vid=cfb0f194-45ac-4876-a896-65539c958816","ios":"levelo://app?vid=cfb0f194-45ac-4876-a896-65539c958816"},"vehicle_type_id":"4","last_reported":1692543899,"current_range_meters":31600,"station_id":"ce4bhbp2rcd13ifvqerg","pricing_plan_id":"free"},{"bike_id":"b034ba69-a764-4f4f-8988-008b6912a5a1","system_id":"levelo_inurba_marseille","lat":43.28277,"lon":5.35068,"is_reserved":false,"is_disabled":false,"rental_uris":{"android":"levelo://app?vid=b034ba69-a764-4f4f-8988-008b6912a5a1","ios":"levelo://app?vid=b034ba69-a764-4f4f-8988-008b6912a5a1"},"vehicle_type_id":"4","last_reported":1692543899,"current_range_meters":31200,"station_id":"ce4bhbp2rcd13ifvqerg","pricing_plan_id":"free"},{"bike_id":"3e54afbe-9dae-4dbc-b335-4a8f80dac08b","system_id":"levelo_inurba_marseille","lat":43.28276,"lon":5.35068,"is_reserved":false,"is_disabled":false,"rental_uris":{"android":"levelo://app?vid=3e54afbe-9dae-4dbc-b335-4a8f80dac08b","ios":"levelo://app?vid=3e54afbe-9dae-4dbc-b335-4a8f80dac08b"},"vehicle_type_id":"4","last_reported":1692543899,"current_range_meters":31200,"station_id":"ce4bhbp2rcd13ifvqerg","pricing_plan_id":"free"},{"bike_id":"9dfda0df-6df0-4b2a-b447-6bba2045e48b","system_id":"levelo_inurba_marseille","lat":43.282754,"lon":5.350519,"is_reserved":false,"is_disabled":false,"rental_uris":{"android":"levelo://app?vid=9dfda0df-6df0-4b2a-b447-6bba2045e48b","ios":"levelo://app?vid=9dfda0df-6df0-4b2a-b447-6bba2045e48b"},"vehicle_type_id":"4","last_reported":1692543899,"current_range_meters":22800,"station_id":"ce4bhbp2rcd13ifvqerg","pricing_plan_id":"free"},{"bike_id":"38623509-8faf-47aa-a9da-49829904713f","system_id":"levelo_inurba_marseille","lat":43.282754,"lon":5.350519,"is_reserved":false,"is_disabled":false,"rental_uris":{"android":"levelo://app?vid=38623509-8faf-47aa-a9da-49829904713f","ios":"levelo://app?vid=38623509-8faf-47aa-a9da-49829904713f"},"vehicle_type_id":"4","last_reported":1692543899,"current_range_meters":13200,"station_id":"ce4bhbp2rcd13ifvqerg","pricing_plan_id":"free"},{"bike_id":"0bcaa342-e250-4240-8f75-768c3e196c6a","system_id":"levelo_inurba_marseille","lat":43.282706,"lon":5.350642,"is_reserved":false,"is_disabled":false,"rental_uris":{"android":"levelo://app?vid=0bcaa342-e250-4240-8f75-768c3e196c6a","ios":"levelo://app?vid=0bcaa342-e250-4240-8f75-768c3e196c6a"},"vehicle_type_id":"4","last_reported":1692543899,"current_range_meters":21200,"station_id":"ce4bhb12rcd13ifvqel0","pricing_plan_id":"free"},{"bike_id":"8d5a38f8-14f8-4394-8af9-8eb0eaacc6c7","system_id":"levelo_inurba_marseille","lat":43.28269,"lon":5.35064,"is_reserved":false,"is_disabled":false,"rental_uris":{"android":"levelo://app?vid=8d5a38f8-14f8-4394-8af9-8eb0eaacc6c7","ios":"levelo://app?vid=8d5a38f8-14f8-4394-8af9-8eb0eaacc6c7"},"vehicle_type_id":"4","last_reported":1692543899,"current_range_meters":26000,"station_id":"ce4bhbp2rcd13ifvqerg","pricing_plan_id":"free"},{"bike_id":"88940920-727e-47f8-bee6-24feedff1167","system_id":"levelo_inurba_marseille","lat":43.28268,"lon":5.35066,"is_reserved":false,"is_disabled":false,"rental_uris":{"android":"levelo://app?vid=88940920-727e-47f8-bee6-24feedff1167","ios":"levelo://app?vid=88940920-727e-47f8-bee6-24feedff1167"},"vehicle_type_id":"4","last_reported":1692543899,"current_range_meters":30000,"station_id":"ce4bhbp2rcd13ifvqerg","pricing_plan_id":"free"},{"bike_id":"de61c6c8-396d-4abc-91d0-3c8898eec06f","system_id":"levelo_inurba_marseille","lat":43.283502,"lon":5.386471,"is_reserved":false,"is_disabled":false,"rental_uris":{"android":"levelo://app?vid=de61c6c8-396d-4abc-91d0-3c8898eec06f","ios":"levelo://app?vid=de61c6c8-396d-4abc-91d0-3c8898eec06f"},"vehicle_type_id":"4","last_reported":1692543899,"current_range_meters":20000,"station_id":"ce4bh492rcd13ifvqdvg","pricing_plan_id":"free"},{"bike_id":"99c9e2d9-206a-4634-9db4-e8597663946d","system_id":"levelo_inurba_marseille","lat":43.283502,"lon":5.386471,"is_reserved":false,"is_disabled":false,"rental_uris":{"android":"levelo://app?vid=99c9e2d9-206a-4634-9db4-e8597663946d","ios":"levelo://app?vid=99c9e2d9-206a-4634-9db4-e8597663946d"},"vehicle_type_id":"4","last_reported":1692543899,"current_range_meters":6000,"station_id":"ce4bh492rcd13ifvqdvg","pricing_plan_id":"free"},{"bike_id":"b1300aa7-b017-4813-b579-bf37d1a48fc8","system_id":"levelo_inurba_marseille","lat":43.28039,"lon":5.36941,"is_reserved":false,"is_disabled":false,"rental_uris":{"android":"levelo://app?vid=b1300aa7-b017-4813-b579-bf37d1a48fc8","ios":"levelo://app?vid=b1300aa7-b017-4813-b579-bf37d1a48fc8"},"vehicle_type_id":"4","last_reported":1692543899,"current_range_meters":31200,"station_id":"ce4bha12rcd13ifvqef0","pricing_plan_id":"free"},{"bike_id":"9f46cfde-4f76-4076-bade-5765c2d3d473","system_id":"levelo_inurba_marseille","lat":43.28039,"lon":5.369297,"is_reserved":false,"is_disabled":false,"rental_uris":{"android":"levelo://app?vid=9f46cfde-4f76-4076-bade-5765c2d3d473","ios":"levelo://app?vid=9f46cfde-4f76-4076-bade-5765c2d3d473"},"vehicle_type_id":"4","last_reported":1692543899,"current_range_meters":31600,"station_id":"ce4bha12rcd13ifvqef0","pricing_plan_id":"free"},{"bike_id":"03c67bef-13a6-441c-9de3-6c37e29c1b5b","system_id":"levelo_inurba_marseille","lat":43.28039,"lon":5.369297,"is_reserved":false,"is_disabled":false,"rental_uris":{"android":"levelo://app?vid=03c67bef-13a6-441c-9de3-6c37e29c1b5b","ios":"levelo://app?vid=03c67bef-13a6-441c-9de3-6c37e29c1b5b"},"vehicle_type_id":"4","last_reported":1692543899,"current_range_meters":28400,"station_id":"ce4bha12rcd13ifvqef0","pricing_plan_id":"free"},{"bike_id":"e08c11d0-428d-4829-9c0f-2f62699f53b6","system_id":"levelo_inurba_marseille","lat":43.282754,"lon":5.350519,"is_reserved":false,"is_disabled":false,"rental_uris":{"android":"levelo://app?vid=e08c11d0-428d-4829-9c0f-2f62699f53b6","ios":"levelo://app?vid=e08c11d0-428d-4829-9c0f-2f62699f53b6"},"vehicle_type_id":"4","last_reported":1692543899,"current_range_meters":27200,"station_id":"ce4bhbp2rcd13ifvqerg","pricing_plan_id":"free"},{"bike_id":"1823dd65-c503-4b10-9bd2-ef0c4f8593f0","system_id":"levelo_inurba_marseille","lat":43.29627,"lon":5.406,"is_reserved":false,"is_disabled":false,"rental_uris":{"android":"levelo://app?vid=1823dd65-c503-4b10-9bd2-ef0c4f8593f0","ios":"levelo://app?vid=1823dd65-c503-4b10-9bd2-ef0c4f8593f0"},"vehicle_type_id":"4","last_reported":1692543899,"current_range_meters":3600,"station_id":"ce4bh0h2rcd13ifvqd60","pricing_plan_id":"free"},{"bike_id":"f8ef4f78-badc-40d1-a4a9-077301466e56","system_id":"levelo_inurba_marseille","lat":43.32662,"lon":5.40978,"is_reserved":false,"is_disabled":false,"rental_uris":{"android":"levelo://app?vid=f8ef4f78-badc-40d1-a4a9-077301466e56","ios":"levelo://app?vid=f8ef4f78-badc-40d1-a4a9-077301466e56"},"vehicle_type_id":"4","last_reported":1692543899,"current_range_meters":8800,"station_id":"ce4bhpp2rcd13ifvqhgg","pricing_plan_id":"free"},{"bike_id":"c327718a-8fe6-4791-a349-aba0f8f94e82","system_id":"levelo_inurba_marseille","lat":43.279742,"lon":5.38744,"is_reserved":false,"is_disabled":false,"rental_uris":{"android":"levelo://app?vid=c327718a-8fe6-4791-a349-aba0f8f94e82","ios":"levelo://app?vid=c327718a-8fe6-4791-a349-aba0f8f94e82"},"vehicle_type_id":"4","last_reported":1692543899,"current_range_meters":25200,"station_id":"ce4bhg12rcd13ifvqf80","pricing_plan_id":"free"},{"bike_id":"6dc4a6d6-f862-4405-9dd3-c5976a6f60f1","system_id":"levelo_inurba_marseille","lat":43.32539,"lon":5.41443,"is_reserved":false,"is_disabled":false,"rental_uris":{"android":"levelo://app?vid=6dc4a6d6-f862-4405-9dd3-c5976a6f60f1","ios":"levelo://app?vid=6dc4a6d6-f862-4405-9dd3-c5976a6f60f1"},"vehicle_type_id":"4","last_reported":1692543899,"current_range_meters":8000,"station_id":"ce4bhq12rcd13ifvqhhg","pricing_plan_id":"free"},{"bike_id":"b93262ad-7333-43db-9e52-962fb8793eea","system_id":"levelo_inurba_marseille","lat":43.278399,"lon":5.392139,"is_reserved":false,"is_disabled":false,"rental_uris":{"android":"levelo://app?vid=b93262ad-7333-43db-9e52-962fb8793eea","ios":"levelo://app?vid=b93262ad-7333-43db-9e52-962fb8793eea"},"vehicle_type_id":"4","last_reported":1692543899,"current_range_meters":8800,"station_id":"ce4bhjp2rcd13ifvqga0","pricing_plan_id":"free"},{"bike_id":"5451c957-baaa-4f3c-b532-a62223c8898e","system_id":"levelo_inurba_marseille","lat":43.273613,"lon":5.362705,"is_reserved":false,"is_disabled":false,"rental_uris":{"android":"levelo://app?vid=5451c957-baaa-4f3c-b532-a62223c8898e","ios":"levelo://app?vid=5451c957-baaa-4f3c-b532-a62223c8898e"},"vehicle_type_id":"4","last_reported":1692543899,"current_range_meters":15200,"station_id":"ce4bhbh2rcd13ifvqeo0","pricing_plan_id":"free"},{"bike_id":"757b2cdf-b087-4807-8332-5f213be06aa7","system_id":"levelo_inurba_marseille","lat":43.273613,"lon":5.362705,"is_reserved":false,"is_disabled":false,"rental_uris":{"android":"levelo://app?vid=757b2cdf-b087-4807-8332-5f213be06aa7","ios":"levelo://app?vid=757b2cdf-b087-4807-8332-5f213be06aa7"},"vehicle_type_id":"4","last_reported":1692543899,"current_range_meters":31600,"station_id":"ce4bhbh2rcd13ifvqeo0","pricing_plan_id":"free"},{"bike_id":"87751c2e-92ec-4f3b-b020-b5827f2266e4","system_id":"levelo_inurba_marseille","lat":43.273613,"lon":5.362705,"is_reserved":false,"is_disabled":false,"rental_uris":{"android":"levelo://app?vid=87751c2e-92ec-4f3b-b020-b5827f2266e4","ios":"levelo://app?vid=87751c2e-92ec-4f3b-b020-b5827f2266e4"},"vehicle_type_id":"4","last_reported":1692543899,"current_range_meters":31600,"station_id":"ce4bhbh2rcd13ifvqeo0","pricing_plan_id":"free"},{"bike_id":"49a523fe-3bec-4874-801d-2b41b97783e8","system_id":"levelo_inurba_marseille","lat":43.273613,"lon":5.362705,"is_reserved":false,"is_disabled":false,"rental_uris":{"android":"levelo://app?vid=49a523fe-3bec-4874-801d-2b41b97783e8","ios":"levelo://app?vid=49a523fe-3bec-4874-801d-2b41b97783e8"},"vehicle_type_id":"4","last_reported":1692543899,"current_range_meters":12400,"station_id":"ce4bhbh2rcd13ifvqeo0","pricing_plan_id":"free"},{"bike_id":"14abb32e-2ba4-4306-830a-4b262b253bb0","system_id":"levelo_inurba_marseille","lat":43.273613,"lon":5.362705,"is_reserved":false,"is_disabled":false,"rental_uris":{"android":"levelo://app?vid=14abb32e-2ba4-4306-830a-4b262b253bb0","ios":"levelo://app?vid=14abb32e-2ba4-4306-830a-4b262b253bb0"},"vehicle_type_id":"4","last_reported":1692543899,"current_range_meters":20000,"station_id":"ce4bhbh2rcd13ifvqeo0","pricing_plan_id":"free"},{"bike_id":"e6317c89-849b-4f46-9d68-6b5c5027bd7c","system_id":"levelo_inurba_marseille","lat":43.273613,"lon":5.362705,"is_reserved":false,"is_disabled":false,"rental_uris":{"android":"levelo://app?vid=e6317c89-849b-4f46-9d68-6b5c5027bd7c","ios":"levelo://app?vid=e6317c89-849b-4f46-9d68-6b5c5027bd7c"},"vehicle_type_id":"4","last_reported":1692543899,"current_range_meters":19200,"station_id":"ce4bhbh2rcd13ifvqeo0","pricing_plan_id":"free"},{"bike_id":"cdfd70dd-cade-4695-b12b-943728d136f4","system_id":"levelo_inurba_marseille","lat":43.273613,"lon":5.362705,"is_reserved":false,"is_disabled":false,"rental_uris":{"android":"levelo://app?vid=cdfd70dd-cade-4695-b12b-943728d136f4","ios":"levelo://app?vid=cdfd70dd-cade-4695-b12b-943728d136f4"},"vehicle_type_id":"4","last_reported":1692543899,"current_range_meters":20400,"station_id":"ce4bhbh2rcd13ifvqeo0","pricing_plan_id":"free"},{"bike_id":"b607e455-2acf-4bc1-90f5-b81f33d11f87","system_id":"levelo_inurba_marseille","lat":43.273613,"lon":5.362705,"is_reserved":false,"is_disabled":false,"rental_uris":{"android":"levelo://app?vid=b607e455-2acf-4bc1-90f5-b81f33d11f87","ios":"levelo://app?vid=b607e455-2acf-4bc1-90f5-b81f33d11f87"},"vehicle_type_id":"4","last_reported":1692543899,"current_range_meters":31200,"station_id":"ce4bhbh2rcd13ifvqeo0","pricing_plan_id":"free"},{"bike_id":"2ba06fb3-b9f4-47ba-b9a6-8cf0b4abcbae","system_id":"levelo_inurba_marseille","lat":43.273613,"lon":5.362705,"is_reserved":false,"is_disabled":false,"rental_uris":{"android":"levelo://app?vid=2ba06fb3-b9f4-47ba-b9a6-8cf0b4abcbae","ios":"levelo://app?vid=2ba06fb3-b9f4-47ba-b9a6-8cf0b4abcbae"},"vehicle_type_id":"4","last_reported":1692543899,"current_range_meters":31200,"station_id":"ce4bhbh2rcd13ifvqeo0","pricing_plan_id":"free"},{"bike_id":"32a721a2-51e2-4144-a680-a8dddb20bb6c","system_id":"levelo_inurba_marseille","lat":43.273613,"lon":5.362705,"is_reserved":false,"is_disabled":false,"rental_uris":{"android":"levelo://app?vid=32a721a2-51e2-4144-a680-a8dddb20bb6c","ios":"levelo://app?vid=32a721a2-51e2-4144-a680-a8dddb20bb6c"},"vehicle_type_id":"4","last_reported":1692543899,"current_range_meters":16800,"station_id":"ce4bhbh2rcd13ifvqeo0","pricing_plan_id":"free"},{"bike_id":"91851225-a291-4850-a92e-465bfebb3f41","system_id":"levelo_inurba_marseille","lat":43.273609,"lon":5.362708,"is_reserved":false,"is_disabled":false,"rental_uris":{"android":"levelo://app?vid=91851225-a291-4850-a92e-465bfebb3f41","ios":"levelo://app?vid=91851225-a291-4850-a92e-465bfebb3f41"},"vehicle_type_id":"4","last_reported":1692543899,"current_range_meters":21200,"station_id":"ce4bhbh2rcd13ifvqeo0","pricing_plan_id":"free"},{"bike_id":"f393f626-4d9d-4ec7-8db9-6f16143cd006","system_id":"levelo_inurba_marseille","lat":43.273613,"lon":5.362705,"is_reserved":false,"is_disabled":false,"rental_uris":{"android":"levelo://app?vid=f393f626-4d9d-4ec7-8db9-6f16143cd006","ios":"levelo://app?vid=f393f626-4d9d-4ec7-8db9-6f16143cd006"},"vehicle_type_id":"4","last_reported":1692543899,"current_range_meters":31200,"station_id":"ce4bhbh2rcd13ifvqeo0","pricing_plan_id":"free"},{"bike_id":"ba453cc9-a51e-4ebd-81ba-d7ba44384063","system_id":"levelo_inurba_marseille","lat":43.273613,"lon":5.362705,"is_reserved":false,"is_disabled":false,"rental_uris":{"android":"levelo://app?vid=ba453cc9-a51e-4ebd-81ba-d7ba44384063","ios":"levelo://app?vid=ba453cc9-a51e-4ebd-81ba-d7ba44384063"},"vehicle_type_id":"4","last_reported":1692543899,"current_range_meters":23600,"station_id":"ce4bhbh2rcd13ifvqeo0","pricing_plan_id":"free"},{"bike_id":"be247c11-900d-4765-a370-e7adab8eb039","system_id":"levelo_inurba_marseille","lat":43.273609,"lon":5.362708,"is_reserved":false,"is_disabled":false,"rental_uris":{"android":"levelo://app?vid=be247c11-900d-4765-a370-e7adab8eb039","ios":"levelo://app?vid=be247c11-900d-4765-a370-e7adab8eb039"},"vehicle_type_id":"4","last_reported":1692543899,"current_range_meters":22000,"station_id":"ce4bhbh2rcd13ifvqeo0","pricing_plan_id":"free"},{"bike_id":"14251694-5f0e-4841-b57e-311fb4cfa8d9","system_id":"levelo_inurba_marseille","lat":43.273613,"lon":5.362705,"is_reserved":false,"is_disabled":false,"rental_uris":{"android":"levelo://app?vid=14251694-5f0e-4841-b57e-311fb4cfa8d9","ios":"levelo://app?vid=14251694-5f0e-4841-b57e-311fb4cfa8d9"},"vehicle_type_id":"4","last_reported":1692543899,"current_range_meters":32000,"station_id":"ce4bhbh2rcd13ifvqeo0","pricing_plan_id":"free"},{"bike_id":"40df8b3f-819d-46cf-97d8-c811ee418232","system_id":"levelo_inurba_marseille","lat":43.273609,"lon":5.362708,"is_reserved":false,"is_disabled":false,"rental_uris":{"android":"levelo://app?vid=40df8b3f-819d-46cf-97d8-c811ee418232","ios":"levelo://app?vid=40df8b3f-819d-46cf-97d8-c811ee418232"},"vehicle_type_id":"4","last_reported":1692543899,"current_range_meters":29600,"station_id":"ce4bhbh2rcd13ifvqeo0","pricing_plan_id":"free"},{"bike_id":"bd6424dc-eb2c-457b-bfe5-529bfe26598c","system_id":"levelo_inurba_marseille","lat":43.273613,"lon":5.362705,"is_reserved":false,"is_disabled":false,"rental_uris":{"android":"levelo://app?vid=bd6424dc-eb2c-457b-bfe5-529bfe26598c","ios":"levelo://app?vid=bd6424dc-eb2c-457b-bfe5-529bfe26598c"},"vehicle_type_id":"4","last_reported":1692543899,"current_range_meters":31600,"station_id":"ce4bhbh2rcd13ifvqeo0","pricing_plan_id":"free"},{"bike_id":"a8ff39ba-fe50-4deb-a06a-17cabfe4821d","system_id":"levelo_inurba_marseille","lat":43.273613,"lon":5.362705,"is_reserved":false,"is_disabled":false,"rental_uris":{"android":"levelo://app?vid=a8ff39ba-fe50-4deb-a06a-17cabfe4821d","ios":"levelo://app?vid=a8ff39ba-fe50-4deb-a06a-17cabfe4821d"},"vehicle_type_id":"4","last_reported":1692543899,"current_range_meters":22800,"station_id":"ce4bhbh2rcd13ifvqeo0","pricing_plan_id":"free"},{"bike_id":"074d701d-082d-46a6-9bc2-5b3b65120767","system_id":"levelo_inurba_marseille","lat":43.275625,"lon":5.384392,"is_reserved":false,"is_disabled":false,"rental_uris":{"android":"levelo://app?vid=074d701d-082d-46a6-9bc2-5b3b65120767","ios":"levelo://app?vid=074d701d-082d-46a6-9bc2-5b3b65120767"},"vehicle_type_id":"4","last_reported":1692543899,"current_range_meters":9600,"station_id":"ce4bhh92rcd13ifvqfi0","pricing_plan_id":"free"},{"bike_id":"b2712ce6-59b8-44f7-82f4-4de849670a35","system_id":"levelo_inurba_marseille","lat":43.273613,"lon":5.362705,"is_reserved":false,"is_disabled":false,"rental_uris":{"android":"levelo://app?vid=b2712ce6-59b8-44f7-82f4-4de849670a35","ios":"levelo://app?vid=b2712ce6-59b8-44f7-82f4-4de849670a35"},"vehicle_type_id":"4","last_reported":1692543899,"current_range_meters":31600,"station_id":"ce4bhbh2rcd13ifvqeo0","pricing_plan_id":"free"},{"bike_id":"785a7f8c-a4f3-485e-b832-981016d6c422","system_id":"levelo_inurba_marseille","lat":43.273613,"lon":5.362705,"is_reserved":false,"is_disabled":false,"rental_uris":{"android":"levelo://app?vid=785a7f8c-a4f3-485e-b832-981016d6c422","ios":"levelo://app?vid=785a7f8c-a4f3-485e-b832-981016d6c422"},"vehicle_type_id":"4","last_reported":1692543899,"current_range_meters":24800,"station_id":"ce4bhbh2rcd13ifvqeo0","pricing_plan_id":"free"},{"bike_id":"70bed432-7d5a-4975-8cf7-b27d2bcaeea6","system_id":"levelo_inurba_marseille","lat":43.273613,"lon":5.362705,"is_reserved":false,"is_disabled":false,"rental_uris":{"android":"levelo://app?vid=70bed432-7d5a-4975-8cf7-b27d2bcaeea6","ios":"levelo://app?vid=70bed432-7d5a-4975-8cf7-b27d2bcaeea6"},"vehicle_type_id":"4","last_reported":1692543899,"current_range_meters":26800,"station_id":"ce4bhbh2rcd13ifvqeo0","pricing_plan_id":"free"},{"bike_id":"9eb3a4b8-0363-4a2f-8971-6944a29ef46b","system_id":"levelo_inurba_marseille","lat":43.273609,"lon":5.362708,"is_reserved":false,"is_disabled":false,"rental_uris":{"android":"levelo://app?vid=9eb3a4b8-0363-4a2f-8971-6944a29ef46b","ios":"levelo://app?vid=9eb3a4b8-0363-4a2f-8971-6944a29ef46b"},"vehicle_type_id":"4","last_reported":1692543899,"current_range_meters":16800,"station_id":"ce4bhbh2rcd13ifvqeo0","pricing_plan_id":"free"},{"bike_id":"b963ba83-527a-40e7-ace1-e7f39db07a5b","system_id":"levelo_inurba_marseille","lat":43.273609,"lon":5.362708,"is_reserved":false,"is_disabled":false,"rental_uris":{"android":"levelo://app?vid=b963ba83-527a-40e7-ace1-e7f39db07a5b","ios":"levelo://app?vid=b963ba83-527a-40e7-ace1-e7f39db07a5b"},"vehicle_type_id":"4","last_reported":1692543899,"current_range_meters":29200,"station_id":"ce4bhbh2rcd13ifvqeo0","pricing_plan_id":"free"},{"bike_id":"74791668-131a-40af-a642-95f19eb3ec53","system_id":"levelo_inurba_marseille","lat":43.273609,"lon":5.362708,"is_reserved":false,"is_disabled":false,"rental_uris":{"android":"levelo://app?vid=74791668-131a-40af-a642-95f19eb3ec53","ios":"levelo://app?vid=74791668-131a-40af-a642-95f19eb3ec53"},"vehicle_type_id":"4","last_reported":1692543899,"current_range_meters":19200,"station_id":"ce4bhbh2rcd13ifvqeo0","pricing_plan_id":"free"},{"bike_id":"a2839f06-1dd0-4278-b376-9fc8a4d33ba3","system_id":"levelo_inurba_marseille","lat":43.273609,"lon":5.362708,"is_reserved":false,"is_disabled":false,"rental_uris":{"android":"levelo://app?vid=a2839f06-1dd0-4278-b376-9fc8a4d33ba3","ios":"levelo://app?vid=a2839f06-1dd0-4278-b376-9fc8a4d33ba3"},"vehicle_type_id":"4","last_reported":1692543899,"current_range_meters":31200,"station_id":"ce4bhbh2rcd13ifvqeo0","pricing_plan_id":"free"},{"bike_id":"35d269bd-0f83-4870-a0a4-30165806870f","system_id":"levelo_inurba_marseille","lat":43.273609,"lon":5.362708,"is_reserved":false,"is_disabled":false,"rental_uris":{"android":"levelo://app?vid=35d269bd-0f83-4870-a0a4-30165806870f","ios":"levelo://app?vid=35d269bd-0f83-4870-a0a4-30165806870f"},"vehicle_type_id":"4","last_reported":1692543899,"current_range_meters":23600,"station_id":"ce4bhbh2rcd13ifvqeo0","pricing_plan_id":"free"},{"bike_id":"d8ed17e3-0405-401f-aaa3-3eb01aaa1b27","system_id":"levelo_inurba_marseille","lat":43.273609,"lon":5.362708,"is_reserved":false,"is_disabled":false,"rental_uris":{"android":"levelo://app?vid=d8ed17e3-0405-401f-aaa3-3eb01aaa1b27","ios":"levelo://app?vid=d8ed17e3-0405-401f-aaa3-3eb01aaa1b27"},"vehicle_type_id":"4","last_reported":1692543899,"current_range_meters":31600,"station_id":"ce4bhbh2rcd13ifvqeo0","pricing_plan_id":"free"},{"bike_id":"b1247e8e-cea6-4634-9713-bc433ae187a7","system_id":"levelo_inurba_marseille","lat":43.273609,"lon":5.362708,"is_reserved":false,"is_disabled":false,"rental_uris":{"android":"levelo://app?vid=b1247e8e-cea6-4634-9713-bc433ae187a7","ios":"levelo://app?vid=b1247e8e-cea6-4634-9713-bc433ae187a7"},"vehicle_type_id":"4","last_reported":1692543899,"current_range_meters":31200,"station_id":"ce4bhbh2rcd13ifvqeo0","pricing_plan_id":"free"},{"bike_id":"277bfd8d-ec74-4919-a4f3-8f3b2be24d2a","system_id":"levelo_inurba_marseille","lat":43.336134,"lon":5.410341,"is_reserved":false,"is_disabled":false,"rental_uris":{"android":"levelo://app?vid=277bfd8d-ec74-4919-a4f3-8f3b2be24d2a","ios":"levelo://app?vid=277bfd8d-ec74-4919-a4f3-8f3b2be24d2a"},"vehicle_type_id":"4","last_reported":1692543899,"current_range_meters":31200,"station_id":"ce4bhqh2rcd13ifvqhmg","pricing_plan_id":"free"},{"bike_id":"83e16339-196a-4393-9180-086b41ecf3f2","system_id":"levelo_inurba_marseille","lat":43.33612,"lon":5.410321,"is_reserved":false,"is_disabled":false,"rental_uris":{"android":"levelo://app?vid=83e16339-196a-4393-9180-086b41ecf3f2","ios":"levelo://app?vid=83e16339-196a-4393-9180-086b41ecf3f2"},"vehicle_type_id":"4","last_reported":1692543899,"current_range_meters":28000,"station_id":"ce4bhqh2rcd13ifvqhmg","pricing_plan_id":"free"},{"bike_id":"3835a5a0-de20-4173-8be7-3d0abcd813ea","system_id":"levelo_inurba_marseille","lat":43.33612,"lon":5.410321,"is_reserved":false,"is_disabled":false,"rental_uris":{"android":"levelo://app?vid=3835a5a0-de20-4173-8be7-3d0abcd813ea","ios":"levelo://app?vid=3835a5a0-de20-4173-8be7-3d0abcd813ea"},"vehicle_type_id":"4","last_reported":1692543899,"current_range_meters":9600,"station_id":"ce4bhqh2rcd13ifvqhmg","pricing_plan_id":"free"},{"bike_id":"32bc635d-08e0-44ee-abf1-abf1b00336ce","system_id":"levelo_inurba_marseille","lat":43.33617,"lon":5.41029,"is_reserved":false,"is_disabled":false,"rental_uris":{"android":"levelo://app?vid=32bc635d-08e0-44ee-abf1-abf1b00336ce","ios":"levelo://app?vid=32bc635d-08e0-44ee-abf1-abf1b00336ce"},"vehicle_type_id":"4","last_reported":1692543899,"current_range_meters":30400,"station_id":"ce4bhqh2rcd13ifvqhmg","pricing_plan_id":"free"},{"bike_id":"0692863e-62a7-429f-9f01-78b5a0a2c0f4","system_id":"levelo_inurba_marseille","lat":43.33612,"lon":5.410321,"is_reserved":false,"is_disabled":false,"rental_uris":{"android":"levelo://app?vid=0692863e-62a7-429f-9f01-78b5a0a2c0f4","ios":"levelo://app?vid=0692863e-62a7-429f-9f01-78b5a0a2c0f4"},"vehicle_type_id":"4","last_reported":1692543899,"current_range_meters":31200,"station_id":"ce4bhqh2rcd13ifvqhmg","pricing_plan_id":"free"},{"bike_id":"9daf3c8d-4236-4bb7-a3e7-70854ecfa997","system_id":"levelo_inurba_marseille","lat":43.33609,"lon":5.4104,"is_reserved":false,"is_disabled":false,"rental_uris":{"android":"levelo://app?vid=9daf3c8d-4236-4bb7-a3e7-70854ecfa997","ios":"levelo://app?vid=9daf3c8d-4236-4bb7-a3e7-70854ecfa997"},"vehicle_type_id":"4","last_reported":1692543899,"current_range_meters":28400,"station_id":"ce4bhqh2rcd13ifvqhmg","pricing_plan_id":"free"},{"bike_id":"c07ba326-a9df-45d2-a8f1-36dd0b1925e8","system_id":"levelo_inurba_marseille","lat":43.336134,"lon":5.410341,"is_reserved":false,"is_disabled":false,"rental_uris":{"android":"levelo://app?vid=c07ba326-a9df-45d2-a8f1-36dd0b1925e8","ios":"levelo://app?vid=c07ba326-a9df-45d2-a8f1-36dd0b1925e8"},"vehicle_type_id":"4","last_reported":1692543899,"current_range_meters":23600,"station_id":"ce4bhqh2rcd13ifvqhmg","pricing_plan_id":"free"},{"bike_id":"a636ffbc-8c56-4f43-bdcd-269229c920a0","system_id":"levelo_inurba_marseille","lat":43.33612,"lon":5.410321,"is_reserved":false,"is_disabled":false,"rental_uris":{"android":"levelo://app?vid=a636ffbc-8c56-4f43-bdcd-269229c920a0","ios":"levelo://app?vid=a636ffbc-8c56-4f43-bdcd-269229c920a0"},"vehicle_type_id":"4","last_reported":1692543899,"current_range_meters":6000,"station_id":"ce4bhqh2rcd13ifvqhmg","pricing_plan_id":"free"},{"bike_id":"9892a06b-19e7-4aaa-96bb-95c3d8ae1830","system_id":"levelo_inurba_marseille","lat":43.33615,"lon":5.4104,"is_reserved":false,"is_disabled":false,"rental_uris":{"android":"levelo://app?vid=9892a06b-19e7-4aaa-96bb-95c3d8ae1830","ios":"levelo://app?vid=9892a06b-19e7-4aaa-96bb-95c3d8ae1830"},"vehicle_type_id":"4","last_reported":1692543899,"current_range_meters":28400,"station_id":"ce4bhqh2rcd13ifvqhmg","pricing_plan_id":"free"},{"bike_id":"2c002134-e4d2-41d1-b436-28e8e2ea24ca","system_id":"levelo_inurba_marseille","lat":43.276771,"lon":5.388799,"is_reserved":false,"is_disabled":false,"rental_uris":{"android":"levelo://app?vid=2c002134-e4d2-41d1-b436-28e8e2ea24ca","ios":"levelo://app?vid=2c002134-e4d2-41d1-b436-28e8e2ea24ca"},"vehicle_type_id":"4","last_reported":1692543899,"current_range_meters":30000,"station_id":"ce4bhi12rcd13ifvqfo0","pricing_plan_id":"free"},{"bike_id":"62d16427-b00f-4714-84cf-d7369113de89","system_id":"levelo_inurba_marseille","lat":43.276771,"lon":5.388799,"is_reserved":false,"is_disabled":false,"rental_uris":{"android":"levelo://app?vid=62d16427-b00f-4714-84cf-d7369113de89","ios":"levelo://app?vid=62d16427-b00f-4714-84cf-d7369113de89"},"vehicle_type_id":"4","last_reported":1692543899,"current_range_meters":17600,"station_id":"ce4bhi12rcd13ifvqfo0","pricing_plan_id":"free"},{"bike_id":"0df1650d-4cc8-48a6-81c9-811c27a4f885","system_id":"levelo_inurba_marseille","lat":43.317121,"lon":5.423936,"is_reserved":false,"is_disabled":false,"rental_uris":{"android":"levelo://app?vid=0df1650d-4cc8-48a6-81c9-811c27a4f885","ios":"levelo://app?vid=0df1650d-4cc8-48a6-81c9-811c27a4f885"},"vehicle_type_id":"4","last_reported":1692543899,"current_range_meters":27600,"station_id":"ce4bhp92rcd13ifvqhbg","pricing_plan_id":"free"},{"bike_id":"863588e3-6441-4bcd-86b3-006e50e31955","system_id":"levelo_inurba_marseille","lat":43.310785,"lon":5.424305,"is_reserved":false,"is_disabled":false,"rental_uris":{"android":"levelo://app?vid=863588e3-6441-4bcd-86b3-006e50e31955","ios":"levelo://app?vid=863588e3-6441-4bcd-86b3-006e50e31955"},"vehicle_type_id":"4","last_reported":1692543899,"current_range_meters":31200,"station_id":"ce4bhp92rcd13ifvqhag","pricing_plan_id":"free"},{"bike_id":"cd48905a-f6b4-418b-8fb2-d2bb72fc8d26","system_id":"levelo_inurba_marseille","lat":43.310785,"lon":5.424305,"is_reserved":false,"is_disabled":false,"rental_uris":{"android":"levelo://app?vid=cd48905a-f6b4-418b-8fb2-d2bb72fc8d26","ios":"levelo://app?vid=cd48905a-f6b4-418b-8fb2-d2bb72fc8d26"},"vehicle_type_id":"4","last_reported":1692543899,"current_range_meters":6000,"station_id":"ce4bhp92rcd13ifvqhag","pricing_plan_id":"free"},{"bike_id":"e42fb4a1-9d15-4ef3-b5c7-db63758c81c8","system_id":"levelo_inurba_marseille","lat":43.310785,"lon":5.424305,"is_reserved":false,"is_disabled":false,"rental_uris":{"android":"levelo://app?vid=e42fb4a1-9d15-4ef3-b5c7-db63758c81c8","ios":"levelo://app?vid=e42fb4a1-9d15-4ef3-b5c7-db63758c81c8"},"vehicle_type_id":"4","last_reported":1692543899,"current_range_meters":10000,"station_id":"ce4bhp92rcd13ifvqhag","pricing_plan_id":"free"},{"bike_id":"d7eb6ab8-100d-47c3-8064-e18e788e82f3","system_id":"levelo_inurba_marseille","lat":43.34139,"lon":5.40902,"is_reserved":false,"is_disabled":false,"rental_uris":{"android":"levelo://app?vid=d7eb6ab8-100d-47c3-8064-e18e788e82f3","ios":"levelo://app?vid=d7eb6ab8-100d-47c3-8064-e18e788e82f3"},"vehicle_type_id":"4","last_reported":1692543899,"current_range_meters":16400,"station_id":"ce4bhqh2rcd13ifvqhlg","pricing_plan_id":"free"},{"bike_id":"9efa1e9b-79c9-440a-b8b9-1506ca12e70d","system_id":"levelo_inurba_marseille","lat":43.3414,"lon":5.40909,"is_reserved":false,"is_disabled":false,"rental_uris":{"android":"levelo://app?vid=9efa1e9b-79c9-440a-b8b9-1506ca12e70d","ios":"levelo://app?vid=9efa1e9b-79c9-440a-b8b9-1506ca12e70d"},"vehicle_type_id":"4","last_reported":1692543899,"current_range_meters":6800,"station_id":"ce4bhqh2rcd13ifvqhlg","pricing_plan_id":"free"},{"bike_id":"83d15515-e803-4385-8191-b0e90955240d","system_id":"levelo_inurba_marseille","lat":43.341443,"lon":5.409037,"is_reserved":false,"is_disabled":false,"rental_uris":{"android":"levelo://app?vid=83d15515-e803-4385-8191-b0e90955240d","ios":"levelo://app?vid=83d15515-e803-4385-8191-b0e90955240d"},"vehicle_type_id":"4","last_reported":1692543899,"current_range_meters":23200,"station_id":"ce4bhqh2rcd13ifvqhlg","pricing_plan_id":"free"},{"bike_id":"57b1892c-be43-4b03-9e11-5d53e347aa44","system_id":"levelo_inurba_marseille","lat":43.273125,"lon":5.390731,"is_reserved":false,"is_disabled":false,"rental_uris":{"android":"levelo://app?vid=57b1892c-be43-4b03-9e11-5d53e347aa44","ios":"levelo://app?vid=57b1892c-be43-4b03-9e11-5d53e347aa44"},"vehicle_type_id":"4","last_reported":1692543899,"current_range_meters":3600,"station_id":"ce4bhgp2rcd13ifvqfe0","pricing_plan_id":"free"},{"bike_id":"2229015e-48e8-461b-b7db-08c9984d5650","system_id":"levelo_inurba_marseille","lat":43.29561,"lon":5.42271,"is_reserved":false,"is_disabled":false,"rental_uris":{"android":"levelo://app?vid=2229015e-48e8-461b-b7db-08c9984d5650","ios":"levelo://app?vid=2229015e-48e8-461b-b7db-08c9984d5650"},"vehicle_type_id":"4","last_reported":1692543899,"current_range_meters":0,"station_id":"ce4bhph2rcd13ifvqhdg","pricing_plan_id":"free"},{"bike_id":"c8ee40ed-50c5-4707-83fc-2d14bb37ac94","system_id":"levelo_inurba_marseille","lat":43.29574,"lon":5.42328,"is_reserved":false,"is_disabled":false,"rental_uris":{"android":"levelo://app?vid=c8ee40ed-50c5-4707-83fc-2d14bb37ac94","ios":"levelo://app?vid=c8ee40ed-50c5-4707-83fc-2d14bb37ac94"},"vehicle_type_id":"4","last_reported":1692543899,"current_range_meters":19200,"station_id":"ce4bhph2rcd13ifvqhdg","pricing_plan_id":"free"},{"bike_id":"e13d4059-a27c-41e4-aa90-10d160de18f4","system_id":"levelo_inurba_marseille","lat":43.272118,"lon":5.391758,"is_reserved":false,"is_disabled":false,"rental_uris":{"android":"levelo://app?vid=e13d4059-a27c-41e4-aa90-10d160de18f4","ios":"levelo://app?vid=e13d4059-a27c-41e4-aa90-10d160de18f4"},"vehicle_type_id":"4","last_reported":1692543899,"current_range_meters":9200,"station_id":"ce4bhhp2rcd13ifvqfm0","pricing_plan_id":"free"},{"bike_id":"e2af2c50-0a89-4254-81be-4bd2429d32f2","system_id":"levelo_inurba_marseille","lat":43.278128,"lon":5.407195,"is_reserved":false,"is_disabled":false,"rental_uris":{"android":"levelo://app?vid=e2af2c50-0a89-4254-81be-4bd2429d32f2","ios":"levelo://app?vid=e2af2c50-0a89-4254-81be-4bd2429d32f2"},"vehicle_type_id":"4","last_reported":1692543899,"current_range_meters":26800,"station_id":"ce4bhnh2rcd13ifvqgtg","pricing_plan_id":"free"},{"bike_id":"4a9849e3-e08e-4aff-a710-ee8d9c74b2cd","system_id":"levelo_inurba_marseille","lat":43.27948,"lon":5.41045,"is_reserved":false,"is_disabled":false,"rental_uris":{"android":"levelo://app?vid=4a9849e3-e08e-4aff-a710-ee8d9c74b2cd","ios":"levelo://app?vid=4a9849e3-e08e-4aff-a710-ee8d9c74b2cd"},"vehicle_type_id":"4","last_reported":1692543899,"current_range_meters":6000,"station_id":"ce4bhnp2rcd13ifvqh0g","pricing_plan_id":"free"},{"bike_id":"b1a20378-3751-4e85-a57e-fae423e29109","system_id":"levelo_inurba_marseille","lat":43.27996,"lon":5.41665,"is_reserved":false,"is_disabled":false,"rental_uris":{"android":"levelo://app?vid=b1a20378-3751-4e85-a57e-fae423e29109","ios":"levelo://app?vid=b1a20378-3751-4e85-a57e-fae423e29109"},"vehicle_type_id":"4","last_reported":1692543899,"current_range_meters":6400,"station_id":"ce4bho12rcd13ifvqh1g","pricing_plan_id":"free"},{"bike_id":"ca9142ba-0698-4048-9e98-203284c4751c","system_id":"levelo_inurba_marseille","lat":43.27985,"lon":5.41659,"is_reserved":false,"is_disabled":false,"rental_uris":{"android":"levelo://app?vid=ca9142ba-0698-4048-9e98-203284c4751c","ios":"levelo://app?vid=ca9142ba-0698-4048-9e98-203284c4751c"},"vehicle_type_id":"4","last_reported":1692543899,"current_range_meters":30400,"station_id":"ce4bho12rcd13ifvqh1g","pricing_plan_id":"free"},